{"last_updated":1726793006,"ttl":30,"version":"2.2","data":{"bikes":[{"bike_id":"350e0701-1e5c-4ef9-be7d-bbd364a86033","system_id":"levelo_inurba_marseille","lat":43.28434,"lon":5.39183,"is_reserved":false,"is_disabled":false,"rental_uris":{"android":"levelo://app?vid=350e0701-1e5c-4ef9-be7d-bbd364a86033","ios":"levelo://app?vid=350e0701-1e5c-4ef9-be7d-bbd364a86033"},"vehicle_type_id":"4","last_reported":1726793006,"current_range_meters":13600,"station_id":"ce4bhoh2rcd13ifvqh5g","pricing_plan_id":"cebpf4jnsgd1na2vs0mg"},{"bike_id":"bab5cc8a-f9f2-4ce4-aae4-e65c8cdf7666","system_id":"levelo_inurba_marseille","lat":43.30889,"lon":5.39632,"is_reserved":false,"is_disabled":false,"rental_uris":{"android":"levelo://app?vid=bab5cc8a-f9f2-4ce4-aae4-e65c8cdf7666","ios":"levelo://app?vid=bab5cc8a-f9f2-4ce4-aae4-e65c8cdf7666"},"vehicle_type_id":"4","last_reported":1726793006,"current_range_meters":32400,"station_id":"ce4bh012rcd13ifvqcv0","pricing_plan_id":"cebpf4jnsgd1na2vs0mg"},{"bike_id":"0155948a-8be5-40a1-a2b1-ec5ff0912ff9","system_id":"levelo_inurba_marseille","lat":43.30213,"lon":5.39473,"is_reserved":false,"is_disabled":false,"rental_uris":{"android":"levelo://app?vid=0155948a-8be5-40a1-a2b1-ec5ff0912ff9","ios":"levelo://app?vid=0155948a-8be5-40a1-a2b1-ec5ff0912ff9"},"vehicle_type_id":"4","last_reported":1726793006,"current_range_meters":9600,"station_id":"ce4bh0p2rcd13ifvqd70","pricing_plan_id":"cebpf4jnsgd1na2vs0mg"},{"bike_id":"5d193064-4046-4519-9b9d-42c5172dee3c","system_id":"levelo_inurba_marseille","lat":43.25107,"lon":5.40328,"is_reserved":false,"is_disabled":false,"rental_uris":{"android":"levelo://app?vid=5d193064-4046-4519-9b9d-42c5172dee3c","ios":"levelo://app?vid=5d193064-4046-4519-9b9d-42c5172dee3c"},"vehicle_type_id":"4","last_reported":1726793006,"current_range_meters":8400,"station_id":"ce4bhlh2rcd13ifvqgig","pricing_plan_id":"cebpf4jnsgd1na2vs0mg"},{"bike_id":"46024dff-187e-4046-8cf7-f71b2863206e","system_id":"levelo_inurba_marseille","lat":43.316874,"lon":5.404753,"is_reserved":false,"is_disabled":false,"rental_uris":{"android":"levelo://app?vid=46024dff-187e-4046-8cf7-f71b2863206e","ios":"levelo://app?vid=46024dff-187e-4046-8cf7-f71b2863206e"},"vehicle_type_id":"4","last_reported":1726793006,"current_range_meters":6400,"station_id":"ce4bh012rcd13ifvqd00","pricing_plan_id":"cebpf4jnsgd1na2vs0mg"},{"bike_id":"6413436b-c964-4385-827e-564aa675f024","system_id":"levelo_inurba_marseille","lat":43.27984,"lon":5.41659,"is_reserved":false,"is_disabled":false,"rental_uris":{"android":"levelo://app?vid=6413436b-c964-4385-827e-564aa675f024","ios":"levelo://app?vid=6413436b-c964-4385-827e-564aa675f024"},"vehicle_type_id":"4","last_reported":1726793006,"current_range_meters":36000,"station_id":"ce4bho12rcd13ifvqh1g","pricing_plan_id":"cebpf4jnsgd1na2vs0mg"},{"bike_id":"7d55db78-7210-483f-b538-ea2b4ad1d4c8","system_id":"levelo_inurba_marseille","lat":43.31089,"lon":5.42419,"is_reserved":false,"is_disabled":false,"rental_uris":{"android":"levelo://app?vid=7d55db78-7210-483f-b538-ea2b4ad1d4c8","ios":"levelo://app?vid=7d55db78-7210-483f-b538-ea2b4ad1d4c8"},"vehicle_type_id":"4","last_reported":1726793006,"current_range_meters":39200,"station_id":"ce4bhp92rcd13ifvqhag","pricing_plan_id":"cebpf4jnsgd1na2vs0mg"},{"bike_id":"e08f918d-887c-4601-9914-b4a7a395ef50","system_id":"levelo_inurba_marseille","lat":43.33022,"lon":5.39037,"is_reserved":false,"is_disabled":false,"rental_uris":{"android":"levelo://app?vid=e08f918d-887c-4601-9914-b4a7a395ef50","ios":"levelo://app?vid=e08f918d-887c-4601-9914-b4a7a395ef50"},"vehicle_type_id":"4","last_reported":1726793006,"current_range_meters":3200,"station_id":"ce4bhr92rcd13ifvqhrg","pricing_plan_id":"cebpf4jnsgd1na2vs0mg"},{"bike_id":"a5ed4552-d0d2-4d14-bf49-8a55d4e2e324","system_id":"levelo_inurba_marseille","lat":43.30427,"lon":5.41286,"is_reserved":false,"is_disabled":false,"rental_uris":{"android":"levelo://app?vid=a5ed4552-d0d2-4d14-bf49-8a55d4e2e324","ios":"levelo://app?vid=a5ed4552-d0d2-4d14-bf49-8a55d4e2e324"},"vehicle_type_id":"4","last_reported":1726793006,"current_range_meters":34000,"station_id":"ce4bhop2rcd13ifvqh8g","pricing_plan_id":"cebpf4jnsgd1na2vs0mg"},{"bike_id":"25e91e22-1d49-450d-bc9a-3e4237345fd4","system_id":"levelo_inurba_marseille","lat":43.32369,"lon":5.38875,"is_reserved":false,"is_disabled":false,"rental_uris":{"android":"levelo://app?vid=25e91e22-1d49-450d-bc9a-3e4237345fd4","ios":"levelo://app?vid=25e91e22-1d49-450d-bc9a-3e4237345fd4"},"vehicle_type_id":"4","last_reported":1726793006,"current_range_meters":12400,"station_id":"ce4bhqp2rcd13ifvqhog","pricing_plan_id":"cebpf4jnsgd1na2vs0mg"},{"bike_id":"dc873ccc-5283-4204-9440-97850e006bd7","system_id":"levelo_inurba_marseille","lat":43.31534,"lon":5.38039,"is_reserved":false,"is_disabled":false,"rental_uris":{"android":"levelo://app?vid=dc873ccc-5283-4204-9440-97850e006bd7","ios":"levelo://app?vid=dc873ccc-5283-4204-9440-97850e006bd7"},"vehicle_type_id":"4","last_reported":1726793006,"current_range_meters":28800,"station_id":"ce4bhsp2rcd13ifvqi50","pricing_plan_id":"cebpf4jnsgd1na2vs0mg"},{"bike_id":"14d7b0f2-d5aa-40b5-9cdc-5b21eb081f05","system_id":"levelo_inurba_marseille","lat":43.28706,"lon":5.37381,"is_reserved":false,"is_disabled":false,"rental_uris":{"android":"levelo://app?vid=14d7b0f2-d5aa-40b5-9cdc-5b21eb081f05","ios":"levelo://app?vid=14d7b0f2-d5aa-40b5-9cdc-5b21eb081f05"},"vehicle_type_id":"4","last_reported":1726793006,"current_range_meters":31200,"station_id":"ce4bh3p2rcd13ifvqdq0","pricing_plan_id":"cebpf4jnsgd1na2vs0mg"},{"bike_id":"259a1233-1d98-4d8d-810e-00bdd4c3c766","system_id":"levelo_inurba_marseille","lat":43.31881,"lon":5.4073,"is_reserved":false,"is_disabled":false,"rental_uris":{"android":"levelo://app?vid=259a1233-1d98-4d8d-810e-00bdd4c3c766","ios":"levelo://app?vid=259a1233-1d98-4d8d-810e-00bdd4c3c766"},"vehicle_type_id":"4","last_reported":1726793006,"current_range_meters":39200,"station_id":"ce4bhq12rcd13ifvqhig","pricing_plan_id":"cebpf4jnsgd1na2vs0mg"},{"bike_id":"5a011757-8bed-47aa-aa97-2be1fb39f2aa","system_id":"levelo_inurba_marseille","lat":43.28459,"lon":5.3589,"is_reserved":false,"is_disabled":false,"rental_uris":{"android":"levelo://app?vid=5a011757-8bed-47aa-aa97-2be1fb39f2aa","ios":"levelo://app?vid=5a011757-8bed-47aa-aa97-2be1fb39f2aa"},"vehicle_type_id":"4","last_reported":1726793006,"current_range_meters":27600,"station_id":"ce4bhah2rcd13ifvqei0","pricing_plan_id":"cebpf4jnsgd1na2vs0mg"},{"bike_id":"e532fd53-ad12-4848-82ea-70ac934c1c37","system_id":"levelo_inurba_marseille","lat":43.3375,"lon":5.37446,"is_reserved":false,"is_disabled":false,"rental_uris":{"android":"levelo://app?vid=e532fd53-ad12-4848-82ea-70ac934c1c37","ios":"levelo://app?vid=e532fd53-ad12-4848-82ea-70ac934c1c37"},"vehicle_type_id":"4","last_reported":1726793006,"current_range_meters":35600,"station_id":"","pricing_plan_id":"cebpf4jnsgd1na2vs0mg"},{"bike_id":"1634cb17-a421-4481-a16d-ce76951a2212","system_id":"levelo_inurba_marseille","lat":43.27555,"lon":5.38432,"is_reserved":false,"is_disabled":false,"rental_uris":{"android":"levelo://app?vid=1634cb17-a421-4481-a16d-ce76951a2212","ios":"levelo://app?vid=1634cb17-a421-4481-a16d-ce76951a2212"},"vehicle_type_id":"4","last_reported":1726793006,"current_range_meters":39200,"station_id":"ce4bhh92rcd13ifvqfi0","pricing_plan_id":"cebpf4jnsgd1na2vs0mg"},{"bike_id":"344eacd1-6916-45c0-98c3-34bf8e515c58","system_id":"levelo_inurba_marseille","lat":43.31085,"lon":5.42428,"is_reserved":false,"is_disabled":false,"rental_uris":{"android":"levelo://app?vid=344eacd1-6916-45c0-98c3-34bf8e515c58","ios":"levelo://app?vid=344eacd1-6916-45c0-98c3-34bf8e515c58"},"vehicle_type_id":"4","last_reported":1726793006,"current_range_meters":23200,"station_id":"ce4bhp92rcd13ifvqhag","pricing_plan_id":"cebpf4jnsgd1na2vs0mg"},{"bike_id":"4c43e0ac-c356-404b-a39f-2969c2dce734","system_id":"levelo_inurba_marseille","lat":43.2756,"lon":5.38431,"is_reserved":false,"is_disabled":false,"rental_uris":{"android":"levelo://app?vid=4c43e0ac-c356-404b-a39f-2969c2dce734","ios":"levelo://app?vid=4c43e0ac-c356-404b-a39f-2969c2dce734"},"vehicle_type_id":"4","last_reported":1726793006,"current_range_meters":22000,"station_id":"ce4bhh92rcd13ifvqfi0","pricing_plan_id":"cebpf4jnsgd1na2vs0mg"},{"bike_id":"9c8e90b7-166a-437c-b522-fe29c083f4dc","system_id":"levelo_inurba_marseille","lat":43.31121,"lon":5.37758,"is_reserved":false,"is_disabled":false,"rental_uris":{"android":"levelo://app?vid=9c8e90b7-166a-437c-b522-fe29c083f4dc","ios":"levelo://app?vid=9c8e90b7-166a-437c-b522-fe29c083f4dc"},"vehicle_type_id":"4","last_reported":1726793006,"current_range_meters":32400,"station_id":"ce4bgt92rcd13ifvqcg0","pricing_plan_id":"cebpf4jnsgd1na2vs0mg"},{"bike_id":"80490428-4cf9-4e64-9c06-c69737938659","system_id":"levelo_inurba_marseille","lat":43.28661,"lon":5.36346,"is_reserved":false,"is_disabled":false,"rental_uris":{"android":"levelo://app?vid=80490428-4cf9-4e64-9c06-c69737938659","ios":"levelo://app?vid=80490428-4cf9-4e64-9c06-c69737938659"},"vehicle_type_id":"4","last_reported":1726793006,"current_range_meters":38800,"station_id":"ce4bhah2rcd13ifvqej0","pricing_plan_id":"cebpf4jnsgd1na2vs0mg"},{"bike_id":"e3a663e8-7688-46cc-8977-f03f48fde497","system_id":"levelo_inurba_marseille","lat":43.2927,"lon":5.40125,"is_reserved":false,"is_disabled":false,"rental_uris":{"android":"levelo://app?vid=e3a663e8-7688-46cc-8977-f03f48fde497","ios":"levelo://app?vid=e3a663e8-7688-46cc-8977-f03f48fde497"},"vehicle_type_id":"4","last_reported":1726793006,"current_range_meters":24000,"station_id":"ce4bh312rcd13ifvqdk0","pricing_plan_id":"cebpf4jnsgd1na2vs0mg"},{"bike_id":"d2da2e52-c2c6-4ac7-9eb2-671c5ade3206","system_id":"levelo_inurba_marseille","lat":43.30928,"lon":5.40144,"is_reserved":false,"is_disabled":false,"rental_uris":{"android":"levelo://app?vid=d2da2e52-c2c6-4ac7-9eb2-671c5ade3206","ios":"levelo://app?vid=d2da2e52-c2c6-4ac7-9eb2-671c5ade3206"},"vehicle_type_id":"4","last_reported":1726793006,"current_range_meters":7200,"station_id":"ce4bgvp2rcd13ifvqct0","pricing_plan_id":"cebpf4jnsgd1na2vs0mg"},{"bike_id":"f9898cab-cb36-4e00-83b8-7f729aaf5652","system_id":"levelo_inurba_marseille","lat":43.3266,"lon":5.4099,"is_reserved":false,"is_disabled":false,"rental_uris":{"android":"levelo://app?vid=f9898cab-cb36-4e00-83b8-7f729aaf5652","ios":"levelo://app?vid=f9898cab-cb36-4e00-83b8-7f729aaf5652"},"vehicle_type_id":"4","last_reported":1726793006,"current_range_meters":38800,"station_id":"ce4bhpp2rcd13ifvqhgg","pricing_plan_id":"cebpf4jnsgd1na2vs0mg"},{"bike_id":"a62b647f-b918-47da-b219-44bda1cdb8e1","system_id":"levelo_inurba_marseille","lat":43.29443,"lon":5.39749,"is_reserved":false,"is_disabled":false,"rental_uris":{"android":"levelo://app?vid=a62b647f-b918-47da-b219-44bda1cdb8e1","ios":"levelo://app?vid=a62b647f-b918-47da-b219-44bda1cdb8e1"},"vehicle_type_id":"4","last_reported":1726793006,"current_range_meters":3200,"station_id":"ce4bh3h2rcd13ifvqdo0","pricing_plan_id":"cebpf4jnsgd1na2vs0mg"},{"bike_id":"aed3a4b1-dd0e-4aa9-a2f5-ffca63da2bf4","system_id":"levelo_inurba_marseille","lat":43.30248,"lon":5.40046,"is_reserved":false,"is_disabled":false,"rental_uris":{"android":"levelo://app?vid=aed3a4b1-dd0e-4aa9-a2f5-ffca63da2bf4","ios":"levelo://app?vid=aed3a4b1-dd0e-4aa9-a2f5-ffca63da2bf4"},"vehicle_type_id":"4","last_reported":1726793006,"current_range_meters":32400,"station_id":"ce4bgvh2rcd13ifvqcs0","pricing_plan_id":"cebpf4jnsgd1na2vs0mg"},{"bike_id":"b9a08aab-7900-4c2d-a077-eba2dc122cc6","system_id":"levelo_inurba_marseille","lat":43.2886,"lon":5.39321,"is_reserved":false,"is_disabled":false,"rental_uris":{"android":"levelo://app?vid=b9a08aab-7900-4c2d-a077-eba2dc122cc6","ios":"levelo://app?vid=b9a08aab-7900-4c2d-a077-eba2dc122cc6"},"vehicle_type_id":"4","last_reported":1726793006,"current_range_meters":37600,"station_id":"ce4bh2p2rcd13ifvqdi0","pricing_plan_id":"cebpf4jnsgd1na2vs0mg"},{"bike_id":"61730444-0f6c-45f0-a50d-cea6e13dd53b","system_id":"levelo_inurba_marseille","lat":43.29441,"lon":5.39746,"is_reserved":false,"is_disabled":false,"rental_uris":{"android":"levelo://app?vid=61730444-0f6c-45f0-a50d-cea6e13dd53b","ios":"levelo://app?vid=61730444-0f6c-45f0-a50d-cea6e13dd53b"},"vehicle_type_id":"4","last_reported":1726793006,"current_range_meters":35600,"station_id":"ce4bh3h2rcd13ifvqdo0","pricing_plan_id":"cebpf4jnsgd1na2vs0mg"},{"bike_id":"eb1786cd-f2e2-4772-b8ec-e5669c8e47b9","system_id":"levelo_inurba_marseille","lat":43.289246,"lon":5.383931,"is_reserved":false,"is_disabled":false,"rental_uris":{"android":"levelo://app?vid=eb1786cd-f2e2-4772-b8ec-e5669c8e47b9","ios":"levelo://app?vid=eb1786cd-f2e2-4772-b8ec-e5669c8e47b9"},"vehicle_type_id":"4","last_reported":1726793006,"current_range_meters":29600,"station_id":"ce4bh612rcd13ifvqe6g","pricing_plan_id":"cebpf4jnsgd1na2vs0mg"},{"bike_id":"6813a1bb-af4b-4872-8b9e-0171c15e7d49","system_id":"levelo_inurba_marseille","lat":43.30639,"lon":5.4008,"is_reserved":false,"is_disabled":false,"rental_uris":{"android":"levelo://app?vid=6813a1bb-af4b-4872-8b9e-0171c15e7d49","ios":"levelo://app?vid=6813a1bb-af4b-4872-8b9e-0171c15e7d49"},"vehicle_type_id":"4","last_reported":1726793006,"current_range_meters":38800,"station_id":"ce4bh112rcd13ifvqda0","pricing_plan_id":"cebpf4jnsgd1na2vs0mg"},{"bike_id":"7f6acce1-39ea-4633-ba55-98fb087e35e9","system_id":"levelo_inurba_marseille","lat":43.30883,"lon":5.39645,"is_reserved":false,"is_disabled":false,"rental_uris":{"android":"levelo://app?vid=7f6acce1-39ea-4633-ba55-98fb087e35e9","ios":"levelo://app?vid=7f6acce1-39ea-4633-ba55-98fb087e35e9"},"vehicle_type_id":"4","last_reported":1726793006,"current_range_meters":6800,"station_id":"ce4bh012rcd13ifvqcv0","pricing_plan_id":"cebpf4jnsgd1na2vs0mg"},{"bike_id":"e8005e2f-3357-4bf8-9521-65d37d4096f5","system_id":"levelo_inurba_marseille","lat":43.30887,"lon":5.39643,"is_reserved":false,"is_disabled":false,"rental_uris":{"android":"levelo://app?vid=e8005e2f-3357-4bf8-9521-65d37d4096f5","ios":"levelo://app?vid=e8005e2f-3357-4bf8-9521-65d37d4096f5"},"vehicle_type_id":"4","last_reported":1726793006,"current_range_meters":30400,"station_id":"ce4bh012rcd13ifvqcv0","pricing_plan_id":"cebpf4jnsgd1na2vs0mg"},{"bike_id":"c9181234-dad9-48f7-ada2-0ba8f6f07317","system_id":"levelo_inurba_marseille","lat":43.29193,"lon":5.39312,"is_reserved":false,"is_disabled":false,"rental_uris":{"android":"levelo://app?vid=c9181234-dad9-48f7-ada2-0ba8f6f07317","ios":"levelo://app?vid=c9181234-dad9-48f7-ada2-0ba8f6f07317"},"vehicle_type_id":"4","last_reported":1726793006,"current_range_meters":32400,"station_id":"ce4bh192rcd13ifvqdd0","pricing_plan_id":"cebpf4jnsgd1na2vs0mg"},{"bike_id":"4211c3d3-4311-431a-97be-2b9d2d251f69","system_id":"levelo_inurba_marseille","lat":43.27832,"lon":5.39209,"is_reserved":false,"is_disabled":false,"rental_uris":{"android":"levelo://app?vid=4211c3d3-4311-431a-97be-2b9d2d251f69","ios":"levelo://app?vid=4211c3d3-4311-431a-97be-2b9d2d251f69"},"vehicle_type_id":"4","last_reported":1726793006,"current_range_meters":39200,"station_id":"ce4bhjp2rcd13ifvqga0","pricing_plan_id":"cebpf4jnsgd1na2vs0mg"},{"bike_id":"1d669fcc-1fdc-4a47-bb39-513baf72b3d8","system_id":"levelo_inurba_marseille","lat":43.28111,"lon":5.37833,"is_reserved":false,"is_disabled":false,"rental_uris":{"android":"levelo://app?vid=1d669fcc-1fdc-4a47-bb39-513baf72b3d8","ios":"levelo://app?vid=1d669fcc-1fdc-4a47-bb39-513baf72b3d8"},"vehicle_type_id":"4","last_reported":1726793006,"current_range_meters":38800,"station_id":"ce4bha12rcd13ifvqee0","pricing_plan_id":"cebpf4jnsgd1na2vs0mg"},{"bike_id":"06eef320-c2b1-42ca-bda3-e896022e4f06","system_id":"levelo_inurba_marseille","lat":43.27074,"lon":5.42272,"is_reserved":false,"is_disabled":false,"rental_uris":{"android":"levelo://app?vid=06eef320-c2b1-42ca-bda3-e896022e4f06","ios":"levelo://app?vid=06eef320-c2b1-42ca-bda3-e896022e4f06"},"vehicle_type_id":"4","last_reported":1726793006,"current_range_meters":16400,"station_id":"ce4bhk92rcd13ifvqgb0","pricing_plan_id":"cebpf4jnsgd1na2vs0mg"},{"bike_id":"70482e75-1534-45fb-adf9-7b655ecd01f0","system_id":"levelo_inurba_marseille","lat":43.28925,"lon":5.36375,"is_reserved":false,"is_disabled":false,"rental_uris":{"android":"levelo://app?vid=70482e75-1534-45fb-adf9-7b655ecd01f0","ios":"levelo://app?vid=70482e75-1534-45fb-adf9-7b655ecd01f0"},"vehicle_type_id":"4","last_reported":1726793006,"current_range_meters":38800,"station_id":"ce4bhc92rcd13ifvqetg","pricing_plan_id":"cebpf4jnsgd1na2vs0mg"},{"bike_id":"93afa50f-2e5f-4563-8aaa-33c9d3bc7ee2","system_id":"levelo_inurba_marseille","lat":43.27327,"lon":5.39086,"is_reserved":false,"is_disabled":false,"rental_uris":{"android":"levelo://app?vid=93afa50f-2e5f-4563-8aaa-33c9d3bc7ee2","ios":"levelo://app?vid=93afa50f-2e5f-4563-8aaa-33c9d3bc7ee2"},"vehicle_type_id":"4","last_reported":1726793006,"current_range_meters":38400,"station_id":"ce4bhgp2rcd13ifvqfe0","pricing_plan_id":"cebpf4jnsgd1na2vs0mg"},{"bike_id":"7ab9e30e-b0ff-4478-9330-616ce7f386cd","system_id":"levelo_inurba_marseille","lat":43.30785,"lon":5.37651,"is_reserved":false,"is_disabled":false,"rental_uris":{"android":"levelo://app?vid=7ab9e30e-b0ff-4478-9330-616ce7f386cd","ios":"levelo://app?vid=7ab9e30e-b0ff-4478-9330-616ce7f386cd"},"vehicle_type_id":"4","last_reported":1726793006,"current_range_meters":9600,"station_id":"ce4bgv92rcd13ifvqcq0","pricing_plan_id":"cebpf4jnsgd1na2vs0mg"},{"bike_id":"1f6119ff-60d0-4842-bc1c-be4e05c76ac2","system_id":"levelo_inurba_marseille","lat":43.25115,"lon":5.40318,"is_reserved":false,"is_disabled":false,"rental_uris":{"android":"levelo://app?vid=1f6119ff-60d0-4842-bc1c-be4e05c76ac2","ios":"levelo://app?vid=1f6119ff-60d0-4842-bc1c-be4e05c76ac2"},"vehicle_type_id":"4","last_reported":1726793006,"current_range_meters":38000,"station_id":"ce4bhlh2rcd13ifvqgig","pricing_plan_id":"cebpf4jnsgd1na2vs0mg"},{"bike_id":"e8a43349-6e7a-4086-bc82-dc073f429ffd","system_id":"levelo_inurba_marseille","lat":43.29961,"lon":5.41319,"is_reserved":false,"is_disabled":false,"rental_uris":{"android":"levelo://app?vid=e8a43349-6e7a-4086-bc82-dc073f429ffd","ios":"levelo://app?vid=e8a43349-6e7a-4086-bc82-dc073f429ffd"},"vehicle_type_id":"4","last_reported":1726793006,"current_range_meters":31200,"station_id":"ce4bhp12rcd13ifvqh9g","pricing_plan_id":"cebpf4jnsgd1na2vs0mg"},{"bike_id":"522296b9-a8e3-4bc2-82ad-a3a2fe0dcce3","system_id":"levelo_inurba_marseille","lat":43.31718,"lon":5.3775,"is_reserved":false,"is_disabled":false,"rental_uris":{"android":"levelo://app?vid=522296b9-a8e3-4bc2-82ad-a3a2fe0dcce3","ios":"levelo://app?vid=522296b9-a8e3-4bc2-82ad-a3a2fe0dcce3"},"vehicle_type_id":"4","last_reported":1726793006,"current_range_meters":36000,"station_id":"ce4bgth2rcd13ifvqch0","pricing_plan_id":"cebpf4jnsgd1na2vs0mg"},{"bike_id":"48e80926-2cfb-4701-83c2-0b3239f99ebc","system_id":"levelo_inurba_marseille","lat":43.28567,"lon":5.39492,"is_reserved":false,"is_disabled":false,"rental_uris":{"android":"levelo://app?vid=48e80926-2cfb-4701-83c2-0b3239f99ebc","ios":"levelo://app?vid=48e80926-2cfb-4701-83c2-0b3239f99ebc"},"vehicle_type_id":"4","last_reported":1726793006,"current_range_meters":21600,"station_id":"ce4bh292rcd13ifvqdg0","pricing_plan_id":"cebpf4jnsgd1na2vs0mg"},{"bike_id":"91f6c732-b748-4be1-8d43-5d4f18c7ecb9","system_id":"levelo_inurba_marseille","lat":43.28038,"lon":5.36952,"is_reserved":false,"is_disabled":false,"rental_uris":{"android":"levelo://app?vid=91f6c732-b748-4be1-8d43-5d4f18c7ecb9","ios":"levelo://app?vid=91f6c732-b748-4be1-8d43-5d4f18c7ecb9"},"vehicle_type_id":"4","last_reported":1726793006,"current_range_meters":38800,"station_id":"ce4bha12rcd13ifvqef0","pricing_plan_id":"cebpf4jnsgd1na2vs0mg"},{"bike_id":"7185d87d-affe-4797-a51f-2f094f364139","system_id":"levelo_inurba_marseille","lat":43.30934,"lon":5.40144,"is_reserved":false,"is_disabled":false,"rental_uris":{"android":"levelo://app?vid=7185d87d-affe-4797-a51f-2f094f364139","ios":"levelo://app?vid=7185d87d-affe-4797-a51f-2f094f364139"},"vehicle_type_id":"4","last_reported":1726793006,"current_range_meters":38800,"station_id":"ce4bgvp2rcd13ifvqct0","pricing_plan_id":"cebpf4jnsgd1na2vs0mg"},{"bike_id":"82a011ee-927c-4b1e-a350-b969affb7d65","system_id":"levelo_inurba_marseille","lat":43.33605,"lon":5.41021,"is_reserved":false,"is_disabled":false,"rental_uris":{"android":"levelo://app?vid=82a011ee-927c-4b1e-a350-b969affb7d65","ios":"levelo://app?vid=82a011ee-927c-4b1e-a350-b969affb7d65"},"vehicle_type_id":"4","last_reported":1726793006,"current_range_meters":34000,"station_id":"ce4bhqh2rcd13ifvqhmg","pricing_plan_id":"cebpf4jnsgd1na2vs0mg"},{"bike_id":"ccc2bc27-01fb-4697-a52a-54fa95b91cff","system_id":"levelo_inurba_marseille","lat":43.24178,"lon":5.39733,"is_reserved":false,"is_disabled":false,"rental_uris":{"android":"levelo://app?vid=ccc2bc27-01fb-4697-a52a-54fa95b91cff","ios":"levelo://app?vid=ccc2bc27-01fb-4697-a52a-54fa95b91cff"},"vehicle_type_id":"4","last_reported":1726793006,"current_range_meters":24000,"station_id":"ce4bhn12rcd13ifvqgpg","pricing_plan_id":"cebpf4jnsgd1na2vs0mg"},{"bike_id":"0f42031f-f181-44d7-a7ad-f7f514d0a0de","system_id":"levelo_inurba_marseille","lat":43.28936,"lon":5.36631,"is_reserved":false,"is_disabled":false,"rental_uris":{"android":"levelo://app?vid=0f42031f-f181-44d7-a7ad-f7f514d0a0de","ios":"levelo://app?vid=0f42031f-f181-44d7-a7ad-f7f514d0a0de"},"vehicle_type_id":"4","last_reported":1726793006,"current_range_meters":38800,"station_id":"ce4bhap2rcd13ifvqek0","pricing_plan_id":"cebpf4jnsgd1na2vs0mg"},{"bike_id":"5e30cfb0-c440-46c2-8b94-5dd64c735ef9","system_id":"levelo_inurba_marseille","lat":43.31123,"lon":5.37766,"is_reserved":false,"is_disabled":false,"rental_uris":{"android":"levelo://app?vid=5e30cfb0-c440-46c2-8b94-5dd64c735ef9","ios":"levelo://app?vid=5e30cfb0-c440-46c2-8b94-5dd64c735ef9"},"vehicle_type_id":"4","last_reported":1726793006,"current_range_meters":39200,"station_id":"ce4bgt92rcd13ifvqcg0","pricing_plan_id":"cebpf4jnsgd1na2vs0mg"},{"bike_id":"1bcdb92b-8824-41cd-b6cf-d0ee92f5a1da","system_id":"levelo_inurba_marseille","lat":43.28027,"lon":5.36955,"is_reserved":false,"is_disabled":false,"rental_uris":{"android":"levelo://app?vid=1bcdb92b-8824-41cd-b6cf-d0ee92f5a1da","ios":"levelo://app?vid=1bcdb92b-8824-41cd-b6cf-d0ee92f5a1da"},"vehicle_type_id":"4","last_reported":1726793006,"current_range_meters":16400,"station_id":"ce4bha12rcd13ifvqef0","pricing_plan_id":"cebpf4jnsgd1na2vs0mg"},{"bike_id":"04394a73-34a5-4d88-bac1-80c0695aafe5","system_id":"levelo_inurba_marseille","lat":43.337444,"lon":5.374475,"is_reserved":false,"is_disabled":false,"rental_uris":{"android":"levelo://app?vid=04394a73-34a5-4d88-bac1-80c0695aafe5","ios":"levelo://app?vid=04394a73-34a5-4d88-bac1-80c0695aafe5"},"vehicle_type_id":"4","last_reported":1726793006,"current_range_meters":22000,"station_id":"","pricing_plan_id":"cebpf4jnsgd1na2vs0mg"},{"bike_id":"7b551046-89a5-43d5-baa2-8615e657fd55","system_id":"levelo_inurba_marseille","lat":43.29864,"lon":5.3974,"is_reserved":false,"is_disabled":false,"rental_uris":{"android":"levelo://app?vid=7b551046-89a5-43d5-baa2-8615e657fd55","ios":"levelo://app?vid=7b551046-89a5-43d5-baa2-8615e657fd55"},"vehicle_type_id":"4","last_reported":1726793006,"current_range_meters":35600,"station_id":"ce4bh0h2rcd13ifvqd50","pricing_plan_id":"cebpf4jnsgd1na2vs0mg"},{"bike_id":"036ab25f-0c34-4c45-8e88-1fc9200da6fd","system_id":"levelo_inurba_marseille","lat":43.27187,"lon":5.42686,"is_reserved":false,"is_disabled":false,"rental_uris":{"android":"levelo://app?vid=036ab25f-0c34-4c45-8e88-1fc9200da6fd","ios":"levelo://app?vid=036ab25f-0c34-4c45-8e88-1fc9200da6fd"},"vehicle_type_id":"4","last_reported":1726793006,"current_range_meters":28000,"station_id":"","pricing_plan_id":"cebpf4jnsgd1na2vs0mg"},{"bike_id":"40e5b403-5590-4098-a474-822a4163b2a7","system_id":"levelo_inurba_marseille","lat":43.24082,"lon":5.37736,"is_reserved":false,"is_disabled":false,"rental_uris":{"android":"levelo://app?vid=40e5b403-5590-4098-a474-822a4163b2a7","ios":"levelo://app?vid=40e5b403-5590-4098-a474-822a4163b2a7"},"vehicle_type_id":"4","last_reported":1726793006,"current_range_meters":26800,"station_id":"ce4bhnp2rcd13ifvqgvg","pricing_plan_id":"cebpf4jnsgd1na2vs0mg"},{"bike_id":"298ac1dc-024a-45f9-bee5-67e6e0d001f8","system_id":"levelo_inurba_marseille","lat":43.32291,"lon":5.38262,"is_reserved":false,"is_disabled":false,"rental_uris":{"android":"levelo://app?vid=298ac1dc-024a-45f9-bee5-67e6e0d001f8","ios":"levelo://app?vid=298ac1dc-024a-45f9-bee5-67e6e0d001f8"},"vehicle_type_id":"4","last_reported":1726793006,"current_range_meters":30000,"station_id":"ce4bhr12rcd13ifvqhqg","pricing_plan_id":"cebpf4jnsgd1na2vs0mg"},{"bike_id":"1e3f7b56-5fc7-46fd-836e-78f130647b4e","system_id":"levelo_inurba_marseille","lat":43.30939,"lon":5.40145,"is_reserved":false,"is_disabled":false,"rental_uris":{"android":"levelo://app?vid=1e3f7b56-5fc7-46fd-836e-78f130647b4e","ios":"levelo://app?vid=1e3f7b56-5fc7-46fd-836e-78f130647b4e"},"vehicle_type_id":"4","last_reported":1726793006,"current_range_meters":7200,"station_id":"ce4bgvp2rcd13ifvqct0","pricing_plan_id":"cebpf4jnsgd1na2vs0mg"},{"bike_id":"60ba0f6b-768c-4a45-8a5f-fdc9bb710a0e","system_id":"levelo_inurba_marseille","lat":43.2756,"lon":5.38428,"is_reserved":false,"is_disabled":false,"rental_uris":{"android":"levelo://app?vid=60ba0f6b-768c-4a45-8a5f-fdc9bb710a0e","ios":"levelo://app?vid=60ba0f6b-768c-4a45-8a5f-fdc9bb710a0e"},"vehicle_type_id":"4","last_reported":1726793006,"current_range_meters":38800,"station_id":"ce4bhh92rcd13ifvqfi0","pricing_plan_id":"cebpf4jnsgd1na2vs0mg"},{"bike_id":"f385b4a6-31cf-416b-83d1-919567483ec0","system_id":"levelo_inurba_marseille","lat":43.29573,"lon":5.39958,"is_reserved":false,"is_disabled":false,"rental_uris":{"android":"levelo://app?vid=f385b4a6-31cf-416b-83d1-919567483ec0","ios":"levelo://app?vid=f385b4a6-31cf-416b-83d1-919567483ec0"},"vehicle_type_id":"4","last_reported":1726793006,"current_range_meters":32400,"station_id":"ce4bh312rcd13ifvqdj0","pricing_plan_id":"cebpf4jnsgd1na2vs0mg"},{"bike_id":"0fb42f67-e6d4-4b33-8619-af1b1d2a30e9","system_id":"levelo_inurba_marseille","lat":43.23149,"lon":5.43719,"is_reserved":false,"is_disabled":false,"rental_uris":{"android":"levelo://app?vid=0fb42f67-e6d4-4b33-8619-af1b1d2a30e9","ios":"levelo://app?vid=0fb42f67-e6d4-4b33-8619-af1b1d2a30e9"},"vehicle_type_id":"4","last_reported":1726793006,"current_range_meters":12800,"station_id":"ce4bhmp2rcd13ifvqgog","pricing_plan_id":"cebpf4jnsgd1na2vs0mg"},{"bike_id":"727c59dd-4a33-4404-90bc-3a4e59bd8948","system_id":"levelo_inurba_marseille","lat":43.32366,"lon":5.38892,"is_reserved":false,"is_disabled":false,"rental_uris":{"android":"levelo://app?vid=727c59dd-4a33-4404-90bc-3a4e59bd8948","ios":"levelo://app?vid=727c59dd-4a33-4404-90bc-3a4e59bd8948"},"vehicle_type_id":"4","last_reported":1726793006,"current_range_meters":25200,"station_id":"ce4bhqp2rcd13ifvqhog","pricing_plan_id":"cebpf4jnsgd1na2vs0mg"},{"bike_id":"a360d7ec-e318-4d83-a12c-d5ebd57d4833","system_id":"levelo_inurba_marseille","lat":43.30248,"lon":5.40047,"is_reserved":false,"is_disabled":false,"rental_uris":{"android":"levelo://app?vid=a360d7ec-e318-4d83-a12c-d5ebd57d4833","ios":"levelo://app?vid=a360d7ec-e318-4d83-a12c-d5ebd57d4833"},"vehicle_type_id":"4","last_reported":1726793006,"current_range_meters":32800,"station_id":"ce4bgvh2rcd13ifvqcs0","pricing_plan_id":"cebpf4jnsgd1na2vs0mg"},{"bike_id":"184a9e64-b111-41d7-a1e8-661aee858050","system_id":"levelo_inurba_marseille","lat":43.27835,"lon":5.39212,"is_reserved":false,"is_disabled":false,"rental_uris":{"android":"levelo://app?vid=184a9e64-b111-41d7-a1e8-661aee858050","ios":"levelo://app?vid=184a9e64-b111-41d7-a1e8-661aee858050"},"vehicle_type_id":"4","last_reported":1726793006,"current_range_meters":39200,"station_id":"ce4bhjp2rcd13ifvqga0","pricing_plan_id":"cebpf4jnsgd1na2vs0mg"},{"bike_id":"e3157b7d-f63e-4215-9b0b-bec081b31a83","system_id":"levelo_inurba_marseille","lat":43.32482,"lon":5.36556,"is_reserved":false,"is_disabled":false,"rental_uris":{"android":"levelo://app?vid=e3157b7d-f63e-4215-9b0b-bec081b31a83","ios":"levelo://app?vid=e3157b7d-f63e-4215-9b0b-bec081b31a83"},"vehicle_type_id":"4","last_reported":1726793006,"current_range_meters":8800,"station_id":"ce4bhs12rcd13ifvqhvg","pricing_plan_id":"cebpf4jnsgd1na2vs0mg"},{"bike_id":"68d7dfce-d550-4f46-afca-11b9024d5cf5","system_id":"levelo_inurba_marseille","lat":43.27175,"lon":5.40995,"is_reserved":false,"is_disabled":false,"rental_uris":{"android":"levelo://app?vid=68d7dfce-d550-4f46-afca-11b9024d5cf5","ios":"levelo://app?vid=68d7dfce-d550-4f46-afca-11b9024d5cf5"},"vehicle_type_id":"4","last_reported":1726793006,"current_range_meters":38800,"station_id":"ce4bhl12rcd13ifvqgf0","pricing_plan_id":"cebpf4jnsgd1na2vs0mg"},{"bike_id":"253b057b-a41c-4693-8aa4-03c682f3fbb1","system_id":"levelo_inurba_marseille","lat":43.2681,"lon":5.40267,"is_reserved":false,"is_disabled":false,"rental_uris":{"android":"levelo://app?vid=253b057b-a41c-4693-8aa4-03c682f3fbb1","ios":"levelo://app?vid=253b057b-a41c-4693-8aa4-03c682f3fbb1"},"vehicle_type_id":"4","last_reported":1726793006,"current_range_meters":6000,"station_id":"ce501612rcd8frsf0b60","pricing_plan_id":"cebpf4jnsgd1na2vs0mg"},{"bike_id":"6659f6a7-2ea0-4ee9-acc0-4f7b7437cae8","system_id":"levelo_inurba_marseille","lat":43.31333,"lon":5.39693,"is_reserved":false,"is_disabled":false,"rental_uris":{"android":"levelo://app?vid=6659f6a7-2ea0-4ee9-acc0-4f7b7437cae8","ios":"levelo://app?vid=6659f6a7-2ea0-4ee9-acc0-4f7b7437cae8"},"vehicle_type_id":"4","last_reported":1726793006,"current_range_meters":9600,"station_id":"ce4bgvp2rcd13ifvqcu0","pricing_plan_id":"cebpf4jnsgd1na2vs0mg"},{"bike_id":"2c9594d3-d2b5-4d5b-b37d-a0579fadf970","system_id":"levelo_inurba_marseille","lat":43.28936,"lon":5.39628,"is_reserved":false,"is_disabled":false,"rental_uris":{"android":"levelo://app?vid=2c9594d3-d2b5-4d5b-b37d-a0579fadf970","ios":"levelo://app?vid=2c9594d3-d2b5-4d5b-b37d-a0579fadf970"},"vehicle_type_id":"4","last_reported":1726793006,"current_range_meters":36000,"station_id":"ce4bh3h2rcd13ifvqdn0","pricing_plan_id":"cebpf4jnsgd1na2vs0mg"},{"bike_id":"421da6ae-46fb-4745-a899-1ba883a8538d","system_id":"levelo_inurba_marseille","lat":43.27046,"lon":5.40284,"is_reserved":false,"is_disabled":false,"rental_uris":{"android":"levelo://app?vid=421da6ae-46fb-4745-a899-1ba883a8538d","ios":"levelo://app?vid=421da6ae-46fb-4745-a899-1ba883a8538d"},"vehicle_type_id":"4","last_reported":1726793006,"current_range_meters":36800,"station_id":"ce4bhk92rcd13ifvqgc0","pricing_plan_id":"cebpf4jnsgd1na2vs0mg"},{"bike_id":"9899969d-4f8e-4fed-bc43-e675716ac04a","system_id":"levelo_inurba_marseille","lat":43.23157,"lon":5.43714,"is_reserved":false,"is_disabled":false,"rental_uris":{"android":"levelo://app?vid=9899969d-4f8e-4fed-bc43-e675716ac04a","ios":"levelo://app?vid=9899969d-4f8e-4fed-bc43-e675716ac04a"},"vehicle_type_id":"4","last_reported":1726793006,"current_range_meters":28400,"station_id":"ce4bhmp2rcd13ifvqgog","pricing_plan_id":"cebpf4jnsgd1na2vs0mg"},{"bike_id":"edfb1ff5-b81b-4225-8da9-100a9115b1e3","system_id":"levelo_inurba_marseille","lat":43.29735,"lon":5.36561,"is_reserved":false,"is_disabled":false,"rental_uris":{"android":"levelo://app?vid=edfb1ff5-b81b-4225-8da9-100a9115b1e3","ios":"levelo://app?vid=edfb1ff5-b81b-4225-8da9-100a9115b1e3"},"vehicle_type_id":"4","last_reported":1726793006,"current_range_meters":15200,"station_id":"","pricing_plan_id":"cebpf4jnsgd1na2vs0mg"},{"bike_id":"dd83f023-48ca-405e-9810-aa024cae22ef","system_id":"levelo_inurba_marseille","lat":43.28409,"lon":5.37504,"is_reserved":false,"is_disabled":false,"rental_uris":{"android":"levelo://app?vid=dd83f023-48ca-405e-9810-aa024cae22ef","ios":"levelo://app?vid=dd83f023-48ca-405e-9810-aa024cae22ef"},"vehicle_type_id":"4","last_reported":1726793006,"current_range_meters":26800,"station_id":"ce4bh412rcd13ifvqds0","pricing_plan_id":"cebpf4jnsgd1na2vs0mg"},{"bike_id":"9922fadb-90a9-456a-a92a-30dca3baccf9","system_id":"levelo_inurba_marseille","lat":43.30219,"lon":5.3947,"is_reserved":false,"is_disabled":false,"rental_uris":{"android":"levelo://app?vid=9922fadb-90a9-456a-a92a-30dca3baccf9","ios":"levelo://app?vid=9922fadb-90a9-456a-a92a-30dca3baccf9"},"vehicle_type_id":"4","last_reported":1726793006,"current_range_meters":38000,"station_id":"ce4bh0p2rcd13ifvqd70","pricing_plan_id":"cebpf4jnsgd1na2vs0mg"},{"bike_id":"6b1d9b5d-8026-4da8-9be8-7e001fe061c5","system_id":"levelo_inurba_marseille","lat":43.30251,"lon":5.40033,"is_reserved":false,"is_disabled":false,"rental_uris":{"android":"levelo://app?vid=6b1d9b5d-8026-4da8-9be8-7e001fe061c5","ios":"levelo://app?vid=6b1d9b5d-8026-4da8-9be8-7e001fe061c5"},"vehicle_type_id":"4","last_reported":1726793006,"current_range_meters":36000,"station_id":"ce4bgvh2rcd13ifvqcs0","pricing_plan_id":"cebpf4jnsgd1na2vs0mg"},{"bike_id":"79f9170f-8de8-4fbe-9051-45aa1ac080c3","system_id":"levelo_inurba_marseille","lat":43.29435,"lon":5.39739,"is_reserved":false,"is_disabled":false,"rental_uris":{"android":"levelo://app?vid=79f9170f-8de8-4fbe-9051-45aa1ac080c3","ios":"levelo://app?vid=79f9170f-8de8-4fbe-9051-45aa1ac080c3"},"vehicle_type_id":"4","last_reported":1726793006,"current_range_meters":38800,"station_id":"ce4bh3h2rcd13ifvqdo0","pricing_plan_id":"cebpf4jnsgd1na2vs0mg"},{"bike_id":"13e0720d-f4b9-4807-8b0e-29114e886647","system_id":"levelo_inurba_marseille","lat":43.31714,"lon":5.437,"is_reserved":false,"is_disabled":false,"rental_uris":{"android":"levelo://app?vid=13e0720d-f4b9-4807-8b0e-29114e886647","ios":"levelo://app?vid=13e0720d-f4b9-4807-8b0e-29114e886647"},"vehicle_type_id":"4","last_reported":1726793006,"current_range_meters":6800,"station_id":"ce4bhp92rcd13ifvqhcg","pricing_plan_id":"cebpf4jnsgd1na2vs0mg"},{"bike_id":"474bb56d-d8f7-4ddc-84ac-71ca997249c6","system_id":"levelo_inurba_marseille","lat":43.33605,"lon":5.41015,"is_reserved":false,"is_disabled":false,"rental_uris":{"android":"levelo://app?vid=474bb56d-d8f7-4ddc-84ac-71ca997249c6","ios":"levelo://app?vid=474bb56d-d8f7-4ddc-84ac-71ca997249c6"},"vehicle_type_id":"4","last_reported":1726793006,"current_range_meters":28000,"station_id":"ce4bhqh2rcd13ifvqhmg","pricing_plan_id":"cebpf4jnsgd1na2vs0mg"},{"bike_id":"03de7555-5255-4bd8-8c29-867c9a98514b","system_id":"levelo_inurba_marseille","lat":43.29025,"lon":5.38133,"is_reserved":false,"is_disabled":false,"rental_uris":{"android":"levelo://app?vid=03de7555-5255-4bd8-8c29-867c9a98514b","ios":"levelo://app?vid=03de7555-5255-4bd8-8c29-867c9a98514b"},"vehicle_type_id":"4","last_reported":1726793006,"current_range_meters":24000,"station_id":"ce4bh4p2rcd13ifvqe1g","pricing_plan_id":"cebpf4jnsgd1na2vs0mg"},{"bike_id":"5b87ea10-02d9-442f-9b10-4fd331eca58e","system_id":"levelo_inurba_marseille","lat":43.25007,"lon":5.38928,"is_reserved":false,"is_disabled":false,"rental_uris":{"android":"levelo://app?vid=5b87ea10-02d9-442f-9b10-4fd331eca58e","ios":"levelo://app?vid=5b87ea10-02d9-442f-9b10-4fd331eca58e"},"vehicle_type_id":"4","last_reported":1726793006,"current_range_meters":38800,"station_id":"ce4bhgp2rcd13ifvqfd0","pricing_plan_id":"cebpf4jnsgd1na2vs0mg"},{"bike_id":"c42d6b2f-7847-4248-848b-a4c3edc602d9","system_id":"levelo_inurba_marseille","lat":43.31991,"lon":5.38143,"is_reserved":false,"is_disabled":false,"rental_uris":{"android":"levelo://app?vid=c42d6b2f-7847-4248-848b-a4c3edc602d9","ios":"levelo://app?vid=c42d6b2f-7847-4248-848b-a4c3edc602d9"},"vehicle_type_id":"4","last_reported":1726793006,"current_range_meters":10800,"station_id":"ce4bhr12rcd13ifvqhpg","pricing_plan_id":"cebpf4jnsgd1na2vs0mg"},{"bike_id":"9614540b-2faf-4e57-9ea9-2eef9aeb72c4","system_id":"levelo_inurba_marseille","lat":43.3236,"lon":5.3888,"is_reserved":false,"is_disabled":false,"rental_uris":{"android":"levelo://app?vid=9614540b-2faf-4e57-9ea9-2eef9aeb72c4","ios":"levelo://app?vid=9614540b-2faf-4e57-9ea9-2eef9aeb72c4"},"vehicle_type_id":"4","last_reported":1726793006,"current_range_meters":38800,"station_id":"ce4bhqp2rcd13ifvqhog","pricing_plan_id":"cebpf4jnsgd1na2vs0mg"},{"bike_id":"b6b47106-417c-4914-bbb3-8c7f865884c8","system_id":"levelo_inurba_marseille","lat":43.26092,"lon":5.37494,"is_reserved":false,"is_disabled":false,"rental_uris":{"android":"levelo://app?vid=b6b47106-417c-4914-bbb3-8c7f865884c8","ios":"levelo://app?vid=b6b47106-417c-4914-bbb3-8c7f865884c8"},"vehicle_type_id":"4","last_reported":1726793006,"current_range_meters":11200,"station_id":"ce4bhgh2rcd13ifvqfb0","pricing_plan_id":"cebpf4jnsgd1na2vs0mg"},{"bike_id":"3ce7be09-39dc-4399-93da-8caea02b61ed","system_id":"levelo_inurba_marseille","lat":43.31116,"lon":5.37763,"is_reserved":false,"is_disabled":false,"rental_uris":{"android":"levelo://app?vid=3ce7be09-39dc-4399-93da-8caea02b61ed","ios":"levelo://app?vid=3ce7be09-39dc-4399-93da-8caea02b61ed"},"vehicle_type_id":"4","last_reported":1726793006,"current_range_meters":29600,"station_id":"ce4bgt92rcd13ifvqcg0","pricing_plan_id":"cebpf4jnsgd1na2vs0mg"},{"bike_id":"96b332fe-ec14-463a-a727-386ea5e48984","system_id":"levelo_inurba_marseille","lat":43.32362,"lon":5.38891,"is_reserved":false,"is_disabled":false,"rental_uris":{"android":"levelo://app?vid=96b332fe-ec14-463a-a727-386ea5e48984","ios":"levelo://app?vid=96b332fe-ec14-463a-a727-386ea5e48984"},"vehicle_type_id":"4","last_reported":1726793006,"current_range_meters":35600,"station_id":"ce4bhqp2rcd13ifvqhog","pricing_plan_id":"cebpf4jnsgd1na2vs0mg"},{"bike_id":"1d4dce81-26c9-4e90-9512-73a77179f3d4","system_id":"levelo_inurba_marseille","lat":43.2318,"lon":5.39982,"is_reserved":false,"is_disabled":false,"rental_uris":{"android":"levelo://app?vid=1d4dce81-26c9-4e90-9512-73a77179f3d4","ios":"levelo://app?vid=1d4dce81-26c9-4e90-9512-73a77179f3d4"},"vehicle_type_id":"4","last_reported":1726793006,"current_range_meters":9200,"station_id":"ce4bhn12rcd13ifvqgqg","pricing_plan_id":"cebpf4jnsgd1na2vs0mg"},{"bike_id":"43356356-1ebf-41d4-a9de-4fa2973940ef","system_id":"levelo_inurba_marseille","lat":43.29963,"lon":5.41329,"is_reserved":false,"is_disabled":false,"rental_uris":{"android":"levelo://app?vid=43356356-1ebf-41d4-a9de-4fa2973940ef","ios":"levelo://app?vid=43356356-1ebf-41d4-a9de-4fa2973940ef"},"vehicle_type_id":"4","last_reported":1726793006,"current_range_meters":34800,"station_id":"ce4bhp12rcd13ifvqh9g","pricing_plan_id":"cebpf4jnsgd1na2vs0mg"},{"bike_id":"e2bdc4bb-8774-4981-a659-1b1998644639","system_id":"levelo_inurba_marseille","lat":43.2467,"lon":5.38147,"is_reserved":false,"is_disabled":false,"rental_uris":{"android":"levelo://app?vid=e2bdc4bb-8774-4981-a659-1b1998644639","ios":"levelo://app?vid=e2bdc4bb-8774-4981-a659-1b1998644639"},"vehicle_type_id":"4","last_reported":1726793006,"current_range_meters":37600,"station_id":"ce4bhih2rcd13ifvqfr0","pricing_plan_id":"cebpf4jnsgd1na2vs0mg"},{"bike_id":"26a32471-ae16-48b7-a632-9184e22a9daf","system_id":"levelo_inurba_marseille","lat":43.2791,"lon":5.39586,"is_reserved":false,"is_disabled":false,"rental_uris":{"android":"levelo://app?vid=26a32471-ae16-48b7-a632-9184e22a9daf","ios":"levelo://app?vid=26a32471-ae16-48b7-a632-9184e22a9daf"},"vehicle_type_id":"4","last_reported":1726793006,"current_range_meters":24000,"station_id":"ce4bhf92rcd13ifvqf40","pricing_plan_id":"cebpf4jnsgd1na2vs0mg"},{"bike_id":"586337a7-ea44-4a0c-a2e4-774a4f46c373","system_id":"levelo_inurba_marseille","lat":43.31335,"lon":5.39698,"is_reserved":false,"is_disabled":false,"rental_uris":{"android":"levelo://app?vid=586337a7-ea44-4a0c-a2e4-774a4f46c373","ios":"levelo://app?vid=586337a7-ea44-4a0c-a2e4-774a4f46c373"},"vehicle_type_id":"4","last_reported":1726793006,"current_range_meters":40000,"station_id":"ce4bgvp2rcd13ifvqcu0","pricing_plan_id":"cebpf4jnsgd1na2vs0mg"},{"bike_id":"8853d928-2cbd-461b-a062-efccdb4c1a7b","system_id":"levelo_inurba_marseille","lat":43.28402,"lon":5.3753,"is_reserved":false,"is_disabled":false,"rental_uris":{"android":"levelo://app?vid=8853d928-2cbd-461b-a062-efccdb4c1a7b","ios":"levelo://app?vid=8853d928-2cbd-461b-a062-efccdb4c1a7b"},"vehicle_type_id":"4","last_reported":1726793006,"current_range_meters":39200,"station_id":"ce4bh412rcd13ifvqds0","pricing_plan_id":"cebpf4jnsgd1na2vs0mg"},{"bike_id":"f91d86b2-456a-48aa-bac9-b4717c616eb8","system_id":"levelo_inurba_marseille","lat":43.25724,"lon":5.4111,"is_reserved":false,"is_disabled":false,"rental_uris":{"android":"levelo://app?vid=f91d86b2-456a-48aa-bac9-b4717c616eb8","ios":"levelo://app?vid=f91d86b2-456a-48aa-bac9-b4717c616eb8"},"vehicle_type_id":"4","last_reported":1726793006,"current_range_meters":8000,"station_id":"ce4bhkp2rcd13ifvqgd0","pricing_plan_id":"cebpf4jnsgd1na2vs0mg"},{"bike_id":"f689521a-328c-4627-83e8-a25c4f32e99b","system_id":"levelo_inurba_marseille","lat":43.23195,"lon":5.35553,"is_reserved":false,"is_disabled":false,"rental_uris":{"android":"levelo://app?vid=f689521a-328c-4627-83e8-a25c4f32e99b","ios":"levelo://app?vid=f689521a-328c-4627-83e8-a25c4f32e99b"},"vehicle_type_id":"4","last_reported":1726793006,"current_range_meters":28800,"station_id":"ce4bhu92rcd13ifvqi70","pricing_plan_id":"cebpf4jnsgd1na2vs0mg"},{"bike_id":"0103eeda-09a7-4e2b-b881-e857ddcec39e","system_id":"levelo_inurba_marseille","lat":43.2318,"lon":5.39989,"is_reserved":false,"is_disabled":false,"rental_uris":{"android":"levelo://app?vid=0103eeda-09a7-4e2b-b881-e857ddcec39e","ios":"levelo://app?vid=0103eeda-09a7-4e2b-b881-e857ddcec39e"},"vehicle_type_id":"4","last_reported":1726793006,"current_range_meters":38800,"station_id":"ce4bhn12rcd13ifvqgqg","pricing_plan_id":"cebpf4jnsgd1na2vs0mg"},{"bike_id":"4c9dad28-bab3-4c54-867f-101b77a30cda","system_id":"levelo_inurba_marseille","lat":43.28463,"lon":5.35883,"is_reserved":false,"is_disabled":false,"rental_uris":{"android":"levelo://app?vid=4c9dad28-bab3-4c54-867f-101b77a30cda","ios":"levelo://app?vid=4c9dad28-bab3-4c54-867f-101b77a30cda"},"vehicle_type_id":"4","last_reported":1726793006,"current_range_meters":38800,"station_id":"ce4bhah2rcd13ifvqei0","pricing_plan_id":"cebpf4jnsgd1na2vs0mg"},{"bike_id":"8011d6fb-4c21-417a-bc0c-136e1770de02","system_id":"levelo_inurba_marseille","lat":43.28074,"lon":5.39652,"is_reserved":false,"is_disabled":false,"rental_uris":{"android":"levelo://app?vid=8011d6fb-4c21-417a-bc0c-136e1770de02","ios":"levelo://app?vid=8011d6fb-4c21-417a-bc0c-136e1770de02"},"vehicle_type_id":"4","last_reported":1726793006,"current_range_meters":27600,"station_id":"ce4bho12rcd13ifvqh2g","pricing_plan_id":"cebpf4jnsgd1na2vs0mg"},{"bike_id":"3f83789d-3dd0-43cc-a9bb-a5b70cdc879e","system_id":"levelo_inurba_marseille","lat":43.28703,"lon":5.3739,"is_reserved":false,"is_disabled":false,"rental_uris":{"android":"levelo://app?vid=3f83789d-3dd0-43cc-a9bb-a5b70cdc879e","ios":"levelo://app?vid=3f83789d-3dd0-43cc-a9bb-a5b70cdc879e"},"vehicle_type_id":"4","last_reported":1726793006,"current_range_meters":39200,"station_id":"ce4bh3p2rcd13ifvqdq0","pricing_plan_id":"cebpf4jnsgd1na2vs0mg"},{"bike_id":"a1c72085-5b87-40f4-ac75-5c75b15dd893","system_id":"levelo_inurba_marseille","lat":43.3088,"lon":5.39647,"is_reserved":false,"is_disabled":false,"rental_uris":{"android":"levelo://app?vid=a1c72085-5b87-40f4-ac75-5c75b15dd893","ios":"levelo://app?vid=a1c72085-5b87-40f4-ac75-5c75b15dd893"},"vehicle_type_id":"4","last_reported":1726793006,"current_range_meters":38800,"station_id":"ce4bh012rcd13ifvqcv0","pricing_plan_id":"cebpf4jnsgd1na2vs0mg"},{"bike_id":"3efa3579-3998-4035-a7d5-4a7af9b344ff","system_id":"levelo_inurba_marseille","lat":43.30149,"lon":5.38085,"is_reserved":false,"is_disabled":false,"rental_uris":{"android":"levelo://app?vid=3efa3579-3998-4035-a7d5-4a7af9b344ff","ios":"levelo://app?vid=3efa3579-3998-4035-a7d5-4a7af9b344ff"},"vehicle_type_id":"4","last_reported":1726793006,"current_range_meters":36400,"station_id":"ce4bgjp2rcd13ifvqbh0","pricing_plan_id":"cebpf4jnsgd1na2vs0mg"},{"bike_id":"26bef151-f653-458f-81df-3d744b453c90","system_id":"levelo_inurba_marseille","lat":43.3078,"lon":5.37648,"is_reserved":false,"is_disabled":false,"rental_uris":{"android":"levelo://app?vid=26bef151-f653-458f-81df-3d744b453c90","ios":"levelo://app?vid=26bef151-f653-458f-81df-3d744b453c90"},"vehicle_type_id":"4","last_reported":1726793006,"current_range_meters":39200,"station_id":"ce4bgv92rcd13ifvqcq0","pricing_plan_id":"cebpf4jnsgd1na2vs0mg"},{"bike_id":"a8841453-322d-4809-a2ca-4c41ea5ecf5f","system_id":"levelo_inurba_marseille","lat":43.30884,"lon":5.37181,"is_reserved":false,"is_disabled":false,"rental_uris":{"android":"levelo://app?vid=a8841453-322d-4809-a2ca-4c41ea5ecf5f","ios":"levelo://app?vid=a8841453-322d-4809-a2ca-4c41ea5ecf5f"},"vehicle_type_id":"4","last_reported":1726793006,"current_range_meters":39200,"station_id":"ce4bguh2rcd13ifvqckg","pricing_plan_id":"cebpf4jnsgd1na2vs0mg"},{"bike_id":"a38db75a-7cf4-4cbc-869d-3fddcd849192","system_id":"levelo_inurba_marseille","lat":43.27617,"lon":5.36104,"is_reserved":false,"is_disabled":false,"rental_uris":{"android":"levelo://app?vid=a38db75a-7cf4-4cbc-869d-3fddcd849192","ios":"levelo://app?vid=a38db75a-7cf4-4cbc-869d-3fddcd849192"},"vehicle_type_id":"4","last_reported":1726793006,"current_range_meters":24000,"station_id":"ce4bgj92rcd13ifvqbe0","pricing_plan_id":"cebpf4jnsgd1na2vs0mg"},{"bike_id":"ce68b5bb-b3a2-432f-9edc-1842f56e647e","system_id":"levelo_inurba_marseille","lat":43.28697,"lon":5.37402,"is_reserved":false,"is_disabled":false,"rental_uris":{"android":"levelo://app?vid=ce68b5bb-b3a2-432f-9edc-1842f56e647e","ios":"levelo://app?vid=ce68b5bb-b3a2-432f-9edc-1842f56e647e"},"vehicle_type_id":"4","last_reported":1726793006,"current_range_meters":36800,"station_id":"ce4bh3p2rcd13ifvqdq0","pricing_plan_id":"cebpf4jnsgd1na2vs0mg"},{"bike_id":"6c0db99a-70b1-4a8d-9cf8-cf54b7a9570b","system_id":"levelo_inurba_marseille","lat":43.30123,"lon":5.39873,"is_reserved":false,"is_disabled":false,"rental_uris":{"android":"levelo://app?vid=6c0db99a-70b1-4a8d-9cf8-cf54b7a9570b","ios":"levelo://app?vid=6c0db99a-70b1-4a8d-9cf8-cf54b7a9570b"},"vehicle_type_id":"4","last_reported":1726793006,"current_range_meters":6000,"station_id":"ce4bh0h2rcd13ifvqd40","pricing_plan_id":"cebpf4jnsgd1na2vs0mg"},{"bike_id":"002b0699-6ee9-40eb-887b-ba2bc729859f","system_id":"levelo_inurba_marseille","lat":43.23196,"lon":5.35553,"is_reserved":false,"is_disabled":false,"rental_uris":{"android":"levelo://app?vid=002b0699-6ee9-40eb-887b-ba2bc729859f","ios":"levelo://app?vid=002b0699-6ee9-40eb-887b-ba2bc729859f"},"vehicle_type_id":"4","last_reported":1726793006,"current_range_meters":6000,"station_id":"ce4bhu92rcd13ifvqi70","pricing_plan_id":"cebpf4jnsgd1na2vs0mg"},{"bike_id":"66d06816-eba8-4801-9a61-acdd863ffb53","system_id":"levelo_inurba_marseille","lat":43.2846,"lon":5.359,"is_reserved":false,"is_disabled":false,"rental_uris":{"android":"levelo://app?vid=66d06816-eba8-4801-9a61-acdd863ffb53","ios":"levelo://app?vid=66d06816-eba8-4801-9a61-acdd863ffb53"},"vehicle_type_id":"4","last_reported":1726793006,"current_range_meters":36400,"station_id":"ce4bhah2rcd13ifvqei0","pricing_plan_id":"cebpf4jnsgd1na2vs0mg"},{"bike_id":"036f6e2e-1cfd-4491-807f-5b3eaea93801","system_id":"levelo_inurba_marseille","lat":43.28711,"lon":5.37923,"is_reserved":false,"is_disabled":false,"rental_uris":{"android":"levelo://app?vid=036f6e2e-1cfd-4491-807f-5b3eaea93801","ios":"levelo://app?vid=036f6e2e-1cfd-4491-807f-5b3eaea93801"},"vehicle_type_id":"4","last_reported":1726793006,"current_range_meters":17600,"station_id":"ce4bh9p2rcd13ifvqec0","pricing_plan_id":"cebpf4jnsgd1na2vs0mg"},{"bike_id":"9680a5ae-9565-4f16-a49c-6049cde2422f","system_id":"levelo_inurba_marseille","lat":43.29284,"lon":5.40122,"is_reserved":false,"is_disabled":false,"rental_uris":{"android":"levelo://app?vid=9680a5ae-9565-4f16-a49c-6049cde2422f","ios":"levelo://app?vid=9680a5ae-9565-4f16-a49c-6049cde2422f"},"vehicle_type_id":"4","last_reported":1726793006,"current_range_meters":38400,"station_id":"ce4bh312rcd13ifvqdk0","pricing_plan_id":"cebpf4jnsgd1na2vs0mg"},{"bike_id":"66605760-e5ce-4433-ac25-c9f1b389b6f3","system_id":"levelo_inurba_marseille","lat":43.29875,"lon":5.3891,"is_reserved":false,"is_disabled":false,"rental_uris":{"android":"levelo://app?vid=66605760-e5ce-4433-ac25-c9f1b389b6f3","ios":"levelo://app?vid=66605760-e5ce-4433-ac25-c9f1b389b6f3"},"vehicle_type_id":"4","last_reported":1726793006,"current_range_meters":38000,"station_id":"ce4bh392rcd13ifvqdl0","pricing_plan_id":"cebpf4jnsgd1na2vs0mg"},{"bike_id":"21e7302b-fc1e-42d7-b9df-c33add254984","system_id":"levelo_inurba_marseille","lat":43.28106,"lon":5.37832,"is_reserved":false,"is_disabled":false,"rental_uris":{"android":"levelo://app?vid=21e7302b-fc1e-42d7-b9df-c33add254984","ios":"levelo://app?vid=21e7302b-fc1e-42d7-b9df-c33add254984"},"vehicle_type_id":"4","last_reported":1726793006,"current_range_meters":10000,"station_id":"ce4bha12rcd13ifvqee0","pricing_plan_id":"cebpf4jnsgd1na2vs0mg"},{"bike_id":"6d902077-0c1e-4241-80b5-15b01977846d","system_id":"levelo_inurba_marseille","lat":43.31991,"lon":5.3814,"is_reserved":false,"is_disabled":false,"rental_uris":{"android":"levelo://app?vid=6d902077-0c1e-4241-80b5-15b01977846d","ios":"levelo://app?vid=6d902077-0c1e-4241-80b5-15b01977846d"},"vehicle_type_id":"4","last_reported":1726793006,"current_range_meters":34000,"station_id":"ce4bhr12rcd13ifvqhpg","pricing_plan_id":"cebpf4jnsgd1na2vs0mg"},{"bike_id":"b9b572af-72fa-4c7a-a3ee-919edcf036fc","system_id":"levelo_inurba_marseille","lat":43.28712,"lon":5.37941,"is_reserved":false,"is_disabled":false,"rental_uris":{"android":"levelo://app?vid=b9b572af-72fa-4c7a-a3ee-919edcf036fc","ios":"levelo://app?vid=b9b572af-72fa-4c7a-a3ee-919edcf036fc"},"vehicle_type_id":"4","last_reported":1726793006,"current_range_meters":38800,"station_id":"ce4bh9p2rcd13ifvqec0","pricing_plan_id":"cebpf4jnsgd1na2vs0mg"},{"bike_id":"72afbc88-749c-4ec5-9ff0-ddd824e0a5ba","system_id":"levelo_inurba_marseille","lat":43.27183,"lon":5.40995,"is_reserved":false,"is_disabled":false,"rental_uris":{"android":"levelo://app?vid=72afbc88-749c-4ec5-9ff0-ddd824e0a5ba","ios":"levelo://app?vid=72afbc88-749c-4ec5-9ff0-ddd824e0a5ba"},"vehicle_type_id":"4","last_reported":1726793006,"current_range_meters":38000,"station_id":"ce4bhl12rcd13ifvqgf0","pricing_plan_id":"cebpf4jnsgd1na2vs0mg"},{"bike_id":"090066b5-bc4c-4c81-8784-47d2480abad0","system_id":"levelo_inurba_marseille","lat":43.31278,"lon":5.40162,"is_reserved":false,"is_disabled":false,"rental_uris":{"android":"levelo://app?vid=090066b5-bc4c-4c81-8784-47d2480abad0","ios":"levelo://app?vid=090066b5-bc4c-4c81-8784-47d2480abad0"},"vehicle_type_id":"4","last_reported":1726793006,"current_range_meters":38800,"station_id":"ce4bh092rcd13ifvqd30","pricing_plan_id":"cebpf4jnsgd1na2vs0mg"},{"bike_id":"8ee6d5db-cb8b-4219-a1d2-5a1a8206952f","system_id":"levelo_inurba_marseille","lat":43.29547,"lon":5.42287,"is_reserved":false,"is_disabled":false,"rental_uris":{"android":"levelo://app?vid=8ee6d5db-cb8b-4219-a1d2-5a1a8206952f","ios":"levelo://app?vid=8ee6d5db-cb8b-4219-a1d2-5a1a8206952f"},"vehicle_type_id":"4","last_reported":1726793006,"current_range_meters":38800,"station_id":"ce4bhph2rcd13ifvqhdg","pricing_plan_id":"cebpf4jnsgd1na2vs0mg"},{"bike_id":"55f93f12-4954-447d-a41a-29619dde2352","system_id":"levelo_inurba_marseille","lat":43.295319,"lon":5.39041,"is_reserved":false,"is_disabled":false,"rental_uris":{"android":"levelo://app?vid=55f93f12-4954-447d-a41a-29619dde2352","ios":"levelo://app?vid=55f93f12-4954-447d-a41a-29619dde2352"},"vehicle_type_id":"4","last_reported":1726793006,"current_range_meters":9600,"station_id":"ce4bh312rcd13ifvqdj0","pricing_plan_id":"cebpf4jnsgd1na2vs0mg"},{"bike_id":"0ff393b5-2680-4ab9-a61b-b35fece17fe2","system_id":"levelo_inurba_marseille","lat":43.34145,"lon":5.409,"is_reserved":false,"is_disabled":false,"rental_uris":{"android":"levelo://app?vid=0ff393b5-2680-4ab9-a61b-b35fece17fe2","ios":"levelo://app?vid=0ff393b5-2680-4ab9-a61b-b35fece17fe2"},"vehicle_type_id":"4","last_reported":1726793006,"current_range_meters":38800,"station_id":"ce4bhqh2rcd13ifvqhlg","pricing_plan_id":"cebpf4jnsgd1na2vs0mg"},{"bike_id":"5767e1a9-48b0-4c74-8627-4d55bc18f357","system_id":"levelo_inurba_marseille","lat":43.25724,"lon":5.41104,"is_reserved":false,"is_disabled":false,"rental_uris":{"android":"levelo://app?vid=5767e1a9-48b0-4c74-8627-4d55bc18f357","ios":"levelo://app?vid=5767e1a9-48b0-4c74-8627-4d55bc18f357"},"vehicle_type_id":"4","last_reported":1726793006,"current_range_meters":20800,"station_id":"ce4bhkp2rcd13ifvqgd0","pricing_plan_id":"cebpf4jnsgd1na2vs0mg"},{"bike_id":"78de459a-8961-48d3-9d87-3a4dc50323f3","system_id":"levelo_inurba_marseille","lat":43.32361,"lon":5.38888,"is_reserved":false,"is_disabled":false,"rental_uris":{"android":"levelo://app?vid=78de459a-8961-48d3-9d87-3a4dc50323f3","ios":"levelo://app?vid=78de459a-8961-48d3-9d87-3a4dc50323f3"},"vehicle_type_id":"4","last_reported":1726793006,"current_range_meters":16000,"station_id":"ce4bhqp2rcd13ifvqhog","pricing_plan_id":"cebpf4jnsgd1na2vs0mg"},{"bike_id":"71125283-1892-4906-aee9-af171bd0b43d","system_id":"levelo_inurba_marseille","lat":43.28408,"lon":5.37504,"is_reserved":false,"is_disabled":false,"rental_uris":{"android":"levelo://app?vid=71125283-1892-4906-aee9-af171bd0b43d","ios":"levelo://app?vid=71125283-1892-4906-aee9-af171bd0b43d"},"vehicle_type_id":"4","last_reported":1726793006,"current_range_meters":15200,"station_id":"ce4bh412rcd13ifvqds0","pricing_plan_id":"cebpf4jnsgd1na2vs0mg"},{"bike_id":"38dadd8c-d3a2-4d23-ab13-29b99dc8b37a","system_id":"levelo_inurba_marseille","lat":43.33024,"lon":5.39044,"is_reserved":false,"is_disabled":false,"rental_uris":{"android":"levelo://app?vid=38dadd8c-d3a2-4d23-ab13-29b99dc8b37a","ios":"levelo://app?vid=38dadd8c-d3a2-4d23-ab13-29b99dc8b37a"},"vehicle_type_id":"4","last_reported":1726793006,"current_range_meters":15200,"station_id":"ce4bhr92rcd13ifvqhrg","pricing_plan_id":"cebpf4jnsgd1na2vs0mg"},{"bike_id":"05aa751d-2538-491c-a607-bb9d00c1be66","system_id":"levelo_inurba_marseille","lat":43.27435,"lon":5.394,"is_reserved":false,"is_disabled":false,"rental_uris":{"android":"levelo://app?vid=05aa751d-2538-491c-a607-bb9d00c1be66","ios":"levelo://app?vid=05aa751d-2538-491c-a607-bb9d00c1be66"},"vehicle_type_id":"4","last_reported":1726793006,"current_range_meters":36800,"station_id":"ce4bhdp2rcd13ifvqf20","pricing_plan_id":"cebpf4jnsgd1na2vs0mg"},{"bike_id":"7308fce8-1130-46c1-b85f-dfba511a6b63","system_id":"levelo_inurba_marseille","lat":43.2761,"lon":5.36116,"is_reserved":false,"is_disabled":false,"rental_uris":{"android":"levelo://app?vid=7308fce8-1130-46c1-b85f-dfba511a6b63","ios":"levelo://app?vid=7308fce8-1130-46c1-b85f-dfba511a6b63"},"vehicle_type_id":"4","last_reported":1726793006,"current_range_meters":36800,"station_id":"ce4bgj92rcd13ifvqbe0","pricing_plan_id":"cebpf4jnsgd1na2vs0mg"},{"bike_id":"466108db-1d9d-4690-83e9-6a75e28314ef","system_id":"levelo_inurba_marseille","lat":43.31715,"lon":5.43697,"is_reserved":false,"is_disabled":false,"rental_uris":{"android":"levelo://app?vid=466108db-1d9d-4690-83e9-6a75e28314ef","ios":"levelo://app?vid=466108db-1d9d-4690-83e9-6a75e28314ef"},"vehicle_type_id":"4","last_reported":1726793006,"current_range_meters":12800,"station_id":"ce4bhp92rcd13ifvqhcg","pricing_plan_id":"cebpf4jnsgd1na2vs0mg"},{"bike_id":"8d47ac2c-6aff-4006-865b-6319f0339211","system_id":"levelo_inurba_marseille","lat":43.3176,"lon":5.39021,"is_reserved":false,"is_disabled":false,"rental_uris":{"android":"levelo://app?vid=8d47ac2c-6aff-4006-865b-6319f0339211","ios":"levelo://app?vid=8d47ac2c-6aff-4006-865b-6319f0339211"},"vehicle_type_id":"4","last_reported":1726793006,"current_range_meters":38800,"station_id":"ce4bhqp2rcd13ifvqhng","pricing_plan_id":"cebpf4jnsgd1na2vs0mg"},{"bike_id":"d46a8173-2864-4b9a-99d8-bf7501b080e9","system_id":"levelo_inurba_marseille","lat":43.28485,"lon":5.38563,"is_reserved":false,"is_disabled":false,"rental_uris":{"android":"levelo://app?vid=d46a8173-2864-4b9a-99d8-bf7501b080e9","ios":"levelo://app?vid=d46a8173-2864-4b9a-99d8-bf7501b080e9"},"vehicle_type_id":"4","last_reported":1726793006,"current_range_meters":28400,"station_id":"ce4bh8p2rcd13ifvqeb0","pricing_plan_id":"cebpf4jnsgd1na2vs0mg"},{"bike_id":"0f53cc12-21ea-4b2c-82be-e7ab4beb82bf","system_id":"levelo_inurba_marseille","lat":43.31758,"lon":5.39019,"is_reserved":false,"is_disabled":false,"rental_uris":{"android":"levelo://app?vid=0f53cc12-21ea-4b2c-82be-e7ab4beb82bf","ios":"levelo://app?vid=0f53cc12-21ea-4b2c-82be-e7ab4beb82bf"},"vehicle_type_id":"4","last_reported":1726793006,"current_range_meters":38800,"station_id":"ce4bhqp2rcd13ifvqhng","pricing_plan_id":"cebpf4jnsgd1na2vs0mg"},{"bike_id":"a698e1f2-7317-40bb-b95b-35bc0247aa63","system_id":"levelo_inurba_marseille","lat":43.25091,"lon":5.39518,"is_reserved":false,"is_disabled":false,"rental_uris":{"android":"levelo://app?vid=a698e1f2-7317-40bb-b95b-35bc0247aa63","ios":"levelo://app?vid=a698e1f2-7317-40bb-b95b-35bc0247aa63"},"vehicle_type_id":"4","last_reported":1726793006,"current_range_meters":6800,"station_id":"ce4bhm12rcd13ifvqgkg","pricing_plan_id":"cebpf4jnsgd1na2vs0mg"},{"bike_id":"fadac423-1102-471d-b12e-f79a7c476377","system_id":"levelo_inurba_marseille","lat":43.27898,"lon":5.38001,"is_reserved":false,"is_disabled":false,"rental_uris":{"android":"levelo://app?vid=fadac423-1102-471d-b12e-f79a7c476377","ios":"levelo://app?vid=fadac423-1102-471d-b12e-f79a7c476377"},"vehicle_type_id":"4","last_reported":1726793006,"current_range_meters":39200,"station_id":"ce4bhf92rcd13ifvqf50","pricing_plan_id":"cebpf4jnsgd1na2vs0mg"},{"bike_id":"116eae8c-5e85-4d27-8e88-286547f2b01f","system_id":"levelo_inurba_marseille","lat":43.30541,"lon":5.38426,"is_reserved":false,"is_disabled":false,"rental_uris":{"android":"levelo://app?vid=116eae8c-5e85-4d27-8e88-286547f2b01f","ios":"levelo://app?vid=116eae8c-5e85-4d27-8e88-286547f2b01f"},"vehicle_type_id":"4","last_reported":1726793006,"current_range_meters":26800,"station_id":"ce4bgg92rcd13ifvqb30","pricing_plan_id":"cebpf4jnsgd1na2vs0mg"},{"bike_id":"b153f585-91a7-4778-8e3b-fba7bd4d15f4","system_id":"levelo_inurba_marseille","lat":43.31364,"lon":5.367,"is_reserved":false,"is_disabled":false,"rental_uris":{"android":"levelo://app?vid=b153f585-91a7-4778-8e3b-fba7bd4d15f4","ios":"levelo://app?vid=b153f585-91a7-4778-8e3b-fba7bd4d15f4"},"vehicle_type_id":"4","last_reported":1726793006,"current_range_meters":37600,"station_id":"ce4bgr92rcd13ifvqc6g","pricing_plan_id":"cebpf4jnsgd1na2vs0mg"},{"bike_id":"9d023a5c-b66e-4eb2-b1d7-6c9890b4a2a6","system_id":"levelo_inurba_marseille","lat":43.30926,"lon":5.40138,"is_reserved":false,"is_disabled":false,"rental_uris":{"android":"levelo://app?vid=9d023a5c-b66e-4eb2-b1d7-6c9890b4a2a6","ios":"levelo://app?vid=9d023a5c-b66e-4eb2-b1d7-6c9890b4a2a6"},"vehicle_type_id":"4","last_reported":1726793006,"current_range_meters":30000,"station_id":"ce4bgvp2rcd13ifvqct0","pricing_plan_id":"cebpf4jnsgd1na2vs0mg"},{"bike_id":"c05abdd6-c69d-4472-842a-bcf2fd61daa1","system_id":"levelo_inurba_marseille","lat":43.29786,"lon":5.39342,"is_reserved":false,"is_disabled":false,"rental_uris":{"android":"levelo://app?vid=c05abdd6-c69d-4472-842a-bcf2fd61daa1","ios":"levelo://app?vid=c05abdd6-c69d-4472-842a-bcf2fd61daa1"},"vehicle_type_id":"4","last_reported":1726793006,"current_range_meters":37600,"station_id":"chh1huq6cuj3fo74tm60","pricing_plan_id":"cebpf4jnsgd1na2vs0mg"},{"bike_id":"27c5c9f5-f14e-4a8b-9dc8-8a569cb24e34","system_id":"levelo_inurba_marseille","lat":43.28458,"lon":5.35882,"is_reserved":false,"is_disabled":false,"rental_uris":{"android":"levelo://app?vid=27c5c9f5-f14e-4a8b-9dc8-8a569cb24e34","ios":"levelo://app?vid=27c5c9f5-f14e-4a8b-9dc8-8a569cb24e34"},"vehicle_type_id":"4","last_reported":1726793006,"current_range_meters":16400,"station_id":"ce4bhah2rcd13ifvqei0","pricing_plan_id":"cebpf4jnsgd1na2vs0mg"},{"bike_id":"c54e2567-2846-4219-9f4b-883a2c94e65e","system_id":"levelo_inurba_marseille","lat":43.27427,"lon":5.39397,"is_reserved":false,"is_disabled":false,"rental_uris":{"android":"levelo://app?vid=c54e2567-2846-4219-9f4b-883a2c94e65e","ios":"levelo://app?vid=c54e2567-2846-4219-9f4b-883a2c94e65e"},"vehicle_type_id":"4","last_reported":1726793006,"current_range_meters":37600,"station_id":"ce4bhdp2rcd13ifvqf20","pricing_plan_id":"cebpf4jnsgd1na2vs0mg"},{"bike_id":"2c96f4ad-2c2e-44b8-8e08-a57b6c1eb2e5","system_id":"levelo_inurba_marseille","lat":43.33025,"lon":5.39028,"is_reserved":false,"is_disabled":false,"rental_uris":{"android":"levelo://app?vid=2c96f4ad-2c2e-44b8-8e08-a57b6c1eb2e5","ios":"levelo://app?vid=2c96f4ad-2c2e-44b8-8e08-a57b6c1eb2e5"},"vehicle_type_id":"4","last_reported":1726793006,"current_range_meters":32400,"station_id":"ce4bhr92rcd13ifvqhrg","pricing_plan_id":"cebpf4jnsgd1na2vs0mg"},{"bike_id":"c03a1ab9-85ba-4bc9-aa5b-ac7c1227d1a2","system_id":"levelo_inurba_marseille","lat":43.24549,"lon":5.39524,"is_reserved":false,"is_disabled":false,"rental_uris":{"android":"levelo://app?vid=c03a1ab9-85ba-4bc9-aa5b-ac7c1227d1a2","ios":"levelo://app?vid=c03a1ab9-85ba-4bc9-aa5b-ac7c1227d1a2"},"vehicle_type_id":"4","last_reported":1726793006,"current_range_meters":10800,"station_id":"ce4bhlp2rcd13ifvqgjg","pricing_plan_id":"cebpf4jnsgd1na2vs0mg"},{"bike_id":"4c230512-d70f-46c7-8713-1912d24b8631","system_id":"levelo_inurba_marseille","lat":43.2873,"lon":5.36074,"is_reserved":false,"is_disabled":false,"rental_uris":{"android":"levelo://app?vid=4c230512-d70f-46c7-8713-1912d24b8631","ios":"levelo://app?vid=4c230512-d70f-46c7-8713-1912d24b8631"},"vehicle_type_id":"4","last_reported":1726793006,"current_range_meters":22400,"station_id":"cki0cbj6b192h4jlfktg","pricing_plan_id":"cebpf4jnsgd1na2vs0mg"},{"bike_id":"247f8924-d2ca-48e7-b639-f5097299ef61","system_id":"levelo_inurba_marseille","lat":43.24384,"lon":5.37055,"is_reserved":false,"is_disabled":false,"rental_uris":{"android":"levelo://app?vid=247f8924-d2ca-48e7-b639-f5097299ef61","ios":"levelo://app?vid=247f8924-d2ca-48e7-b639-f5097299ef61"},"vehicle_type_id":"4","last_reported":1726793006,"current_range_meters":38000,"station_id":"ce4bhhh2rcd13ifvqfk0","pricing_plan_id":"cebpf4jnsgd1na2vs0mg"},{"bike_id":"e3678fe5-cd97-41c2-92f5-c59b10e32309","system_id":"levelo_inurba_marseille","lat":43.31531,"lon":5.38023,"is_reserved":false,"is_disabled":false,"rental_uris":{"android":"levelo://app?vid=e3678fe5-cd97-41c2-92f5-c59b10e32309","ios":"levelo://app?vid=e3678fe5-cd97-41c2-92f5-c59b10e32309"},"vehicle_type_id":"4","last_reported":1726793006,"current_range_meters":36400,"station_id":"ce4bhsp2rcd13ifvqi50","pricing_plan_id":"cebpf4jnsgd1na2vs0mg"},{"bike_id":"e9a5d37d-0cb5-44ff-a653-c77a5ca5838b","system_id":"levelo_inurba_marseille","lat":43.31759,"lon":5.39017,"is_reserved":false,"is_disabled":false,"rental_uris":{"android":"levelo://app?vid=e9a5d37d-0cb5-44ff-a653-c77a5ca5838b","ios":"levelo://app?vid=e9a5d37d-0cb5-44ff-a653-c77a5ca5838b"},"vehicle_type_id":"4","last_reported":1726793006,"current_range_meters":38400,"station_id":"ce4bhqp2rcd13ifvqhng","pricing_plan_id":"cebpf4jnsgd1na2vs0mg"},{"bike_id":"299e6495-c150-48e6-b6d3-05de6bc39075","system_id":"levelo_inurba_marseille","lat":43.27902,"lon":5.39596,"is_reserved":false,"is_disabled":false,"rental_uris":{"android":"levelo://app?vid=299e6495-c150-48e6-b6d3-05de6bc39075","ios":"levelo://app?vid=299e6495-c150-48e6-b6d3-05de6bc39075"},"vehicle_type_id":"4","last_reported":1726793006,"current_range_meters":38800,"station_id":"ce4bhf92rcd13ifvqf40","pricing_plan_id":"cebpf4jnsgd1na2vs0mg"},{"bike_id":"44da3e59-dcf2-4354-910f-f3fece0ed467","system_id":"levelo_inurba_marseille","lat":43.27064,"lon":5.4228,"is_reserved":false,"is_disabled":false,"rental_uris":{"android":"levelo://app?vid=44da3e59-dcf2-4354-910f-f3fece0ed467","ios":"levelo://app?vid=44da3e59-dcf2-4354-910f-f3fece0ed467"},"vehicle_type_id":"4","last_reported":1726793006,"current_range_meters":38800,"station_id":"ce4bhk92rcd13ifvqgb0","pricing_plan_id":"cebpf4jnsgd1na2vs0mg"},{"bike_id":"eb2ef9af-e9bb-4b94-aee1-3fb33b5e66f9","system_id":"levelo_inurba_marseille","lat":43.27996,"lon":5.41659,"is_reserved":false,"is_disabled":false,"rental_uris":{"android":"levelo://app?vid=eb2ef9af-e9bb-4b94-aee1-3fb33b5e66f9","ios":"levelo://app?vid=eb2ef9af-e9bb-4b94-aee1-3fb33b5e66f9"},"vehicle_type_id":"4","last_reported":1726793006,"current_range_meters":38400,"station_id":"ce4bho12rcd13ifvqh1g","pricing_plan_id":"cebpf4jnsgd1na2vs0mg"},{"bike_id":"4959bfc8-f6c7-499c-b953-ea76d3f8d331","system_id":"levelo_inurba_marseille","lat":43.28108,"lon":5.37831,"is_reserved":false,"is_disabled":false,"rental_uris":{"android":"levelo://app?vid=4959bfc8-f6c7-499c-b953-ea76d3f8d331","ios":"levelo://app?vid=4959bfc8-f6c7-499c-b953-ea76d3f8d331"},"vehicle_type_id":"4","last_reported":1726793006,"current_range_meters":38800,"station_id":"ce4bha12rcd13ifvqee0","pricing_plan_id":"cebpf4jnsgd1na2vs0mg"},{"bike_id":"bbabc812-5d4f-4dde-ac4b-6c59e8a40a27","system_id":"levelo_inurba_marseille","lat":43.27497,"lon":5.42447,"is_reserved":false,"is_disabled":false,"rental_uris":{"android":"levelo://app?vid=bbabc812-5d4f-4dde-ac4b-6c59e8a40a27","ios":"levelo://app?vid=bbabc812-5d4f-4dde-ac4b-6c59e8a40a27"},"vehicle_type_id":"4","last_reported":1726793006,"current_range_meters":39200,"station_id":"ce4bhn92rcd13ifvqgrg","pricing_plan_id":"cebpf4jnsgd1na2vs0mg"},{"bike_id":"15bbdbd8-fa35-4790-b472-706c4e2f4e69","system_id":"levelo_inurba_marseille","lat":43.30483,"lon":5.37293,"is_reserved":false,"is_disabled":false,"rental_uris":{"android":"levelo://app?vid=15bbdbd8-fa35-4790-b472-706c4e2f4e69","ios":"levelo://app?vid=15bbdbd8-fa35-4790-b472-706c4e2f4e69"},"vehicle_type_id":"4","last_reported":1726793006,"current_range_meters":7200,"station_id":"","pricing_plan_id":"cebpf4jnsgd1na2vs0mg"},{"bike_id":"ef6e8a6b-dbc8-497d-adeb-1b246e1a7dec","system_id":"levelo_inurba_marseille","lat":43.24182,"lon":5.39731,"is_reserved":false,"is_disabled":false,"rental_uris":{"android":"levelo://app?vid=ef6e8a6b-dbc8-497d-adeb-1b246e1a7dec","ios":"levelo://app?vid=ef6e8a6b-dbc8-497d-adeb-1b246e1a7dec"},"vehicle_type_id":"4","last_reported":1726793006,"current_range_meters":38800,"station_id":"ce4bhn12rcd13ifvqgpg","pricing_plan_id":"cebpf4jnsgd1na2vs0mg"},{"bike_id":"9f8649e2-75d2-4d09-94ee-538fd13f9680","system_id":"levelo_inurba_marseille","lat":43.33602,"lon":5.41019,"is_reserved":false,"is_disabled":false,"rental_uris":{"android":"levelo://app?vid=9f8649e2-75d2-4d09-94ee-538fd13f9680","ios":"levelo://app?vid=9f8649e2-75d2-4d09-94ee-538fd13f9680"},"vehicle_type_id":"4","last_reported":1726793006,"current_range_meters":38800,"station_id":"ce4bhqh2rcd13ifvqhmg","pricing_plan_id":"cebpf4jnsgd1na2vs0mg"},{"bike_id":"05f6fc60-c8a7-45e7-88b7-036dbeb6c828","system_id":"levelo_inurba_marseille","lat":43.28462,"lon":5.35878,"is_reserved":false,"is_disabled":false,"rental_uris":{"android":"levelo://app?vid=05f6fc60-c8a7-45e7-88b7-036dbeb6c828","ios":"levelo://app?vid=05f6fc60-c8a7-45e7-88b7-036dbeb6c828"},"vehicle_type_id":"4","last_reported":1726793006,"current_range_meters":36800,"station_id":"ce4bhah2rcd13ifvqei0","pricing_plan_id":"cebpf4jnsgd1na2vs0mg"},{"bike_id":"eba8614c-0914-4ce7-a706-4d43d12ff0e3","system_id":"levelo_inurba_marseille","lat":43.28155,"lon":5.42644,"is_reserved":false,"is_disabled":false,"rental_uris":{"android":"levelo://app?vid=eba8614c-0914-4ce7-a706-4d43d12ff0e3","ios":"levelo://app?vid=eba8614c-0914-4ce7-a706-4d43d12ff0e3"},"vehicle_type_id":"4","last_reported":1726793006,"current_range_meters":35200,"station_id":"ce4bhnh2rcd13ifvqgug","pricing_plan_id":"cebpf4jnsgd1na2vs0mg"},{"bike_id":"dd584773-adaf-4b1b-8f11-fcfca5f7bc1d","system_id":"levelo_inurba_marseille","lat":43.28078,"lon":5.39672,"is_reserved":false,"is_disabled":false,"rental_uris":{"android":"levelo://app?vid=dd584773-adaf-4b1b-8f11-fcfca5f7bc1d","ios":"levelo://app?vid=dd584773-adaf-4b1b-8f11-fcfca5f7bc1d"},"vehicle_type_id":"4","last_reported":1726793006,"current_range_meters":24400,"station_id":"ce4bho12rcd13ifvqh2g","pricing_plan_id":"cebpf4jnsgd1na2vs0mg"},{"bike_id":"d095a2de-cb44-4d0b-9d57-524091713fe6","system_id":"levelo_inurba_marseille","lat":43.29195,"lon":5.39329,"is_reserved":false,"is_disabled":false,"rental_uris":{"android":"levelo://app?vid=d095a2de-cb44-4d0b-9d57-524091713fe6","ios":"levelo://app?vid=d095a2de-cb44-4d0b-9d57-524091713fe6"},"vehicle_type_id":"4","last_reported":1726793006,"current_range_meters":19200,"station_id":"ce4bh192rcd13ifvqdd0","pricing_plan_id":"cebpf4jnsgd1na2vs0mg"},{"bike_id":"dd74e259-a115-47c5-afe1-b8dee667f7eb","system_id":"levelo_inurba_marseille","lat":43.28668,"lon":5.38666,"is_reserved":false,"is_disabled":false,"rental_uris":{"android":"levelo://app?vid=dd74e259-a115-47c5-afe1-b8dee667f7eb","ios":"levelo://app?vid=dd74e259-a115-47c5-afe1-b8dee667f7eb"},"vehicle_type_id":"4","last_reported":1726793006,"current_range_meters":16000,"station_id":"ce4bh492rcd13ifvqdug","pricing_plan_id":"cebpf4jnsgd1na2vs0mg"},{"bike_id":"d448a30b-18a4-41c6-8b06-f0460d2a05d6","system_id":"levelo_inurba_marseille","lat":43.26801,"lon":5.40262,"is_reserved":false,"is_disabled":false,"rental_uris":{"android":"levelo://app?vid=d448a30b-18a4-41c6-8b06-f0460d2a05d6","ios":"levelo://app?vid=d448a30b-18a4-41c6-8b06-f0460d2a05d6"},"vehicle_type_id":"4","last_reported":1726793006,"current_range_meters":36800,"station_id":"ce501612rcd8frsf0b60","pricing_plan_id":"cebpf4jnsgd1na2vs0mg"},{"bike_id":"1bd9aea9-da31-4368-b338-3635b5620571","system_id":"levelo_inurba_marseille","lat":43.23961,"lon":5.36622,"is_reserved":false,"is_disabled":false,"rental_uris":{"android":"levelo://app?vid=1bd9aea9-da31-4368-b338-3635b5620571","ios":"levelo://app?vid=1bd9aea9-da31-4368-b338-3635b5620571"},"vehicle_type_id":"4","last_reported":1726793006,"current_range_meters":34800,"station_id":"ce4bhi12rcd13ifvqfp0","pricing_plan_id":"cebpf4jnsgd1na2vs0mg"},{"bike_id":"64dcf5e2-6b57-4efa-badf-cd57405a7aa5","system_id":"levelo_inurba_marseille","lat":43.27564,"lon":5.38421,"is_reserved":false,"is_disabled":false,"rental_uris":{"android":"levelo://app?vid=64dcf5e2-6b57-4efa-badf-cd57405a7aa5","ios":"levelo://app?vid=64dcf5e2-6b57-4efa-badf-cd57405a7aa5"},"vehicle_type_id":"4","last_reported":1726793006,"current_range_meters":38800,"station_id":"ce4bhh92rcd13ifvqfi0","pricing_plan_id":"cebpf4jnsgd1na2vs0mg"},{"bike_id":"8bded9b1-4958-41a5-9529-392455536bc5","system_id":"levelo_inurba_marseille","lat":43.27485,"lon":5.42466,"is_reserved":false,"is_disabled":false,"rental_uris":{"android":"levelo://app?vid=8bded9b1-4958-41a5-9529-392455536bc5","ios":"levelo://app?vid=8bded9b1-4958-41a5-9529-392455536bc5"},"vehicle_type_id":"4","last_reported":1726793006,"current_range_meters":38800,"station_id":"ce4bhn92rcd13ifvqgrg","pricing_plan_id":"cebpf4jnsgd1na2vs0mg"},{"bike_id":"a2eb1526-071c-462b-ae89-1cca26b21959","system_id":"levelo_inurba_marseille","lat":43.31368,"lon":5.38489,"is_reserved":false,"is_disabled":false,"rental_uris":{"android":"levelo://app?vid=a2eb1526-071c-462b-ae89-1cca26b21959","ios":"levelo://app?vid=a2eb1526-071c-462b-ae89-1cca26b21959"},"vehicle_type_id":"4","last_reported":1726793006,"current_range_meters":9200,"station_id":"ce4bgt92rcd13ifvqcf0","pricing_plan_id":"cebpf4jnsgd1na2vs0mg"},{"bike_id":"8f47aa72-b552-43e4-853c-ad8a15c50446","system_id":"levelo_inurba_marseille","lat":43.27824,"lon":5.39206,"is_reserved":false,"is_disabled":false,"rental_uris":{"android":"levelo://app?vid=8f47aa72-b552-43e4-853c-ad8a15c50446","ios":"levelo://app?vid=8f47aa72-b552-43e4-853c-ad8a15c50446"},"vehicle_type_id":"4","last_reported":1726793006,"current_range_meters":30400,"station_id":"ce4bhjp2rcd13ifvqga0","pricing_plan_id":"cebpf4jnsgd1na2vs0mg"},{"bike_id":"a2a90ab3-4077-4755-9974-d0cba0a8c76c","system_id":"levelo_inurba_marseille","lat":43.27917,"lon":5.39584,"is_reserved":false,"is_disabled":false,"rental_uris":{"android":"levelo://app?vid=a2a90ab3-4077-4755-9974-d0cba0a8c76c","ios":"levelo://app?vid=a2a90ab3-4077-4755-9974-d0cba0a8c76c"},"vehicle_type_id":"4","last_reported":1726793006,"current_range_meters":38800,"station_id":"ce4bhf92rcd13ifvqf40","pricing_plan_id":"cebpf4jnsgd1na2vs0mg"},{"bike_id":"ad1b5db7-32ce-4597-b479-80397a334f8b","system_id":"levelo_inurba_marseille","lat":43.28708,"lon":5.39982,"is_reserved":false,"is_disabled":false,"rental_uris":{"android":"levelo://app?vid=ad1b5db7-32ce-4597-b479-80397a334f8b","ios":"levelo://app?vid=ad1b5db7-32ce-4597-b479-80397a334f8b"},"vehicle_type_id":"4","last_reported":1726793006,"current_range_meters":38400,"station_id":"ce4bho92rcd13ifvqh3g","pricing_plan_id":"cebpf4jnsgd1na2vs0mg"},{"bike_id":"4fa0ca0d-342c-4cd6-990b-f5e4ae40db2b","system_id":"levelo_inurba_marseille","lat":43.29965,"lon":5.41331,"is_reserved":false,"is_disabled":false,"rental_uris":{"android":"levelo://app?vid=4fa0ca0d-342c-4cd6-990b-f5e4ae40db2b","ios":"levelo://app?vid=4fa0ca0d-342c-4cd6-990b-f5e4ae40db2b"},"vehicle_type_id":"4","last_reported":1726793006,"current_range_meters":38000,"station_id":"ce4bhp12rcd13ifvqh9g","pricing_plan_id":"cebpf4jnsgd1na2vs0mg"},{"bike_id":"1b297945-7c8a-4e0e-b2c4-bc43a6c00be3","system_id":"levelo_inurba_marseille","lat":43.24656,"lon":5.38893,"is_reserved":false,"is_disabled":false,"rental_uris":{"android":"levelo://app?vid=1b297945-7c8a-4e0e-b2c4-bc43a6c00be3","ios":"levelo://app?vid=1b297945-7c8a-4e0e-b2c4-bc43a6c00be3"},"vehicle_type_id":"4","last_reported":1726793006,"current_range_meters":39200,"station_id":"ce4bhg12rcd13ifvqf60","pricing_plan_id":"cebpf4jnsgd1na2vs0mg"},{"bike_id":"cfc1d900-e8fd-4aae-99cd-fdad686708d5","system_id":"levelo_inurba_marseille","lat":43.24805,"lon":5.37455,"is_reserved":false,"is_disabled":false,"rental_uris":{"android":"levelo://app?vid=cfc1d900-e8fd-4aae-99cd-fdad686708d5","ios":"levelo://app?vid=cfc1d900-e8fd-4aae-99cd-fdad686708d5"},"vehicle_type_id":"4","last_reported":1726793006,"current_range_meters":38800,"station_id":"ce4bhgh2rcd13ifvqfb0","pricing_plan_id":"cebpf4jnsgd1na2vs0mg"},{"bike_id":"09c4114b-2ef9-4c56-b3aa-9024026df938","system_id":"levelo_inurba_marseille","lat":43.30882,"lon":5.39655,"is_reserved":false,"is_disabled":false,"rental_uris":{"android":"levelo://app?vid=09c4114b-2ef9-4c56-b3aa-9024026df938","ios":"levelo://app?vid=09c4114b-2ef9-4c56-b3aa-9024026df938"},"vehicle_type_id":"4","last_reported":1726793006,"current_range_meters":7200,"station_id":"ce4bh012rcd13ifvqcv0","pricing_plan_id":"cebpf4jnsgd1na2vs0mg"},{"bike_id":"2655847b-c944-4ffc-94ae-71d1dcc881d2","system_id":"levelo_inurba_marseille","lat":43.28454,"lon":5.35885,"is_reserved":false,"is_disabled":false,"rental_uris":{"android":"levelo://app?vid=2655847b-c944-4ffc-94ae-71d1dcc881d2","ios":"levelo://app?vid=2655847b-c944-4ffc-94ae-71d1dcc881d2"},"vehicle_type_id":"4","last_reported":1726793006,"current_range_meters":38800,"station_id":"ce4bhah2rcd13ifvqei0","pricing_plan_id":"cebpf4jnsgd1na2vs0mg"},{"bike_id":"f8571aad-5f92-4ec9-b9ed-faec8639629b","system_id":"levelo_inurba_marseille","lat":43.3361,"lon":5.41,"is_reserved":false,"is_disabled":false,"rental_uris":{"android":"levelo://app?vid=f8571aad-5f92-4ec9-b9ed-faec8639629b","ios":"levelo://app?vid=f8571aad-5f92-4ec9-b9ed-faec8639629b"},"vehicle_type_id":"4","last_reported":1726793006,"current_range_meters":19200,"station_id":"ce4bhqh2rcd13ifvqhmg","pricing_plan_id":"cebpf4jnsgd1na2vs0mg"},{"bike_id":"6122f248-cd98-4784-834b-f8dc606a15d0","system_id":"levelo_inurba_marseille","lat":43.29443,"lon":5.39762,"is_reserved":false,"is_disabled":false,"rental_uris":{"android":"levelo://app?vid=6122f248-cd98-4784-834b-f8dc606a15d0","ios":"levelo://app?vid=6122f248-cd98-4784-834b-f8dc606a15d0"},"vehicle_type_id":"4","last_reported":1726793006,"current_range_meters":3200,"station_id":"ce4bh3h2rcd13ifvqdo0","pricing_plan_id":"cebpf4jnsgd1na2vs0mg"},{"bike_id":"4e517360-2841-479d-addb-3328895093b5","system_id":"levelo_inurba_marseille","lat":43.27917,"lon":5.3958,"is_reserved":false,"is_disabled":false,"rental_uris":{"android":"levelo://app?vid=4e517360-2841-479d-addb-3328895093b5","ios":"levelo://app?vid=4e517360-2841-479d-addb-3328895093b5"},"vehicle_type_id":"4","last_reported":1726793006,"current_range_meters":30800,"station_id":"ce4bhf92rcd13ifvqf40","pricing_plan_id":"cebpf4jnsgd1na2vs0mg"},{"bike_id":"7fda22d8-4839-490c-9990-4e30c2ad8d98","system_id":"levelo_inurba_marseille","lat":43.30429,"lon":5.38884,"is_reserved":false,"is_disabled":false,"rental_uris":{"android":"levelo://app?vid=7fda22d8-4839-490c-9990-4e30c2ad8d98","ios":"levelo://app?vid=7fda22d8-4839-490c-9990-4e30c2ad8d98"},"vehicle_type_id":"4","last_reported":1726793006,"current_range_meters":34000,"station_id":"ce4bgk12rcd13ifvqbi0","pricing_plan_id":"cebpf4jnsgd1na2vs0mg"},{"bike_id":"1ce4bf98-77d7-4bec-91cd-6d6653823ac2","system_id":"levelo_inurba_marseille","lat":43.31482,"lon":5.37293,"is_reserved":false,"is_disabled":false,"rental_uris":{"android":"levelo://app?vid=1ce4bf98-77d7-4bec-91cd-6d6653823ac2","ios":"levelo://app?vid=1ce4bf98-77d7-4bec-91cd-6d6653823ac2"},"vehicle_type_id":"4","last_reported":1726793006,"current_range_meters":36000,"station_id":"ce4bgt12rcd13ifvqcd0","pricing_plan_id":"cebpf4jnsgd1na2vs0mg"},{"bike_id":"d7a6936e-4c56-4656-b6f8-d146c0304674","system_id":"levelo_inurba_marseille","lat":43.23962,"lon":5.36626,"is_reserved":false,"is_disabled":false,"rental_uris":{"android":"levelo://app?vid=d7a6936e-4c56-4656-b6f8-d146c0304674","ios":"levelo://app?vid=d7a6936e-4c56-4656-b6f8-d146c0304674"},"vehicle_type_id":"4","last_reported":1726793006,"current_range_meters":30800,"station_id":"ce4bhi12rcd13ifvqfp0","pricing_plan_id":"cebpf4jnsgd1na2vs0mg"},{"bike_id":"4f9594be-eb89-451c-99e6-1d1b91e83878","system_id":"levelo_inurba_marseille","lat":43.28756,"lon":5.37859,"is_reserved":false,"is_disabled":false,"rental_uris":{"android":"levelo://app?vid=4f9594be-eb89-451c-99e6-1d1b91e83878","ios":"levelo://app?vid=4f9594be-eb89-451c-99e6-1d1b91e83878"},"vehicle_type_id":"4","last_reported":1726793006,"current_range_meters":10800,"station_id":"","pricing_plan_id":"cebpf4jnsgd1na2vs0mg"},{"bike_id":"80ee0a98-31d7-48cc-b3da-365638004004","system_id":"levelo_inurba_marseille","lat":43.29259,"lon":5.40913,"is_reserved":false,"is_disabled":false,"rental_uris":{"android":"levelo://app?vid=80ee0a98-31d7-48cc-b3da-365638004004","ios":"levelo://app?vid=80ee0a98-31d7-48cc-b3da-365638004004"},"vehicle_type_id":"4","last_reported":1726793006,"current_range_meters":38000,"station_id":"ce4bh192rcd13ifvqdc0","pricing_plan_id":"cebpf4jnsgd1na2vs0mg"},{"bike_id":"5705acbc-d503-4f36-a9f5-13b5f18aa34d","system_id":"levelo_inurba_marseille","lat":43.23964,"lon":5.36636,"is_reserved":false,"is_disabled":false,"rental_uris":{"android":"levelo://app?vid=5705acbc-d503-4f36-a9f5-13b5f18aa34d","ios":"levelo://app?vid=5705acbc-d503-4f36-a9f5-13b5f18aa34d"},"vehicle_type_id":"4","last_reported":1726793006,"current_range_meters":36800,"station_id":"ce4bhi12rcd13ifvqfp0","pricing_plan_id":"cebpf4jnsgd1na2vs0mg"},{"bike_id":"c476b2c3-6d23-497a-9850-70a7256f6738","system_id":"levelo_inurba_marseille","lat":43.27821,"lon":5.39215,"is_reserved":false,"is_disabled":false,"rental_uris":{"android":"levelo://app?vid=c476b2c3-6d23-497a-9850-70a7256f6738","ios":"levelo://app?vid=c476b2c3-6d23-497a-9850-70a7256f6738"},"vehicle_type_id":"4","last_reported":1726793006,"current_range_meters":30000,"station_id":"ce4bhjp2rcd13ifvqga0","pricing_plan_id":"cebpf4jnsgd1na2vs0mg"},{"bike_id":"11228085-23e5-4c89-842a-c1aca906e3a6","system_id":"levelo_inurba_marseille","lat":43.27992,"lon":5.41661,"is_reserved":false,"is_disabled":false,"rental_uris":{"android":"levelo://app?vid=11228085-23e5-4c89-842a-c1aca906e3a6","ios":"levelo://app?vid=11228085-23e5-4c89-842a-c1aca906e3a6"},"vehicle_type_id":"4","last_reported":1726793006,"current_range_meters":38800,"station_id":"ce4bho12rcd13ifvqh1g","pricing_plan_id":"cebpf4jnsgd1na2vs0mg"},{"bike_id":"a96ac643-0746-4fe4-b62f-d8dcd010aa5a","system_id":"levelo_inurba_marseille","lat":43.30642,"lon":5.40083,"is_reserved":false,"is_disabled":false,"rental_uris":{"android":"levelo://app?vid=a96ac643-0746-4fe4-b62f-d8dcd010aa5a","ios":"levelo://app?vid=a96ac643-0746-4fe4-b62f-d8dcd010aa5a"},"vehicle_type_id":"4","last_reported":1726793006,"current_range_meters":28800,"station_id":"ce4bh112rcd13ifvqda0","pricing_plan_id":"cebpf4jnsgd1na2vs0mg"},{"bike_id":"cd8e9929-c995-4a74-af9f-d79388bb1f25","system_id":"levelo_inurba_marseille","lat":43.28851,"lon":5.393,"is_reserved":false,"is_disabled":false,"rental_uris":{"android":"levelo://app?vid=cd8e9929-c995-4a74-af9f-d79388bb1f25","ios":"levelo://app?vid=cd8e9929-c995-4a74-af9f-d79388bb1f25"},"vehicle_type_id":"4","last_reported":1726793006,"current_range_meters":25600,"station_id":"ce4bh2p2rcd13ifvqdi0","pricing_plan_id":"cebpf4jnsgd1na2vs0mg"},{"bike_id":"288addbd-1fd2-474d-953f-357ebb3dcce7","system_id":"levelo_inurba_marseille","lat":43.29862,"lon":5.39734,"is_reserved":false,"is_disabled":false,"rental_uris":{"android":"levelo://app?vid=288addbd-1fd2-474d-953f-357ebb3dcce7","ios":"levelo://app?vid=288addbd-1fd2-474d-953f-357ebb3dcce7"},"vehicle_type_id":"4","last_reported":1726793006,"current_range_meters":24800,"station_id":"ce4bh0h2rcd13ifvqd50","pricing_plan_id":"cebpf4jnsgd1na2vs0mg"},{"bike_id":"76c87581-27ca-43ac-8e5f-b0e70d9e2fae","system_id":"levelo_inurba_marseille","lat":43.31162,"lon":5.3872,"is_reserved":false,"is_disabled":false,"rental_uris":{"android":"levelo://app?vid=76c87581-27ca-43ac-8e5f-b0e70d9e2fae","ios":"levelo://app?vid=76c87581-27ca-43ac-8e5f-b0e70d9e2fae"},"vehicle_type_id":"4","last_reported":1726793006,"current_range_meters":32800,"station_id":"ce4bgv12rcd13ifvqcp0","pricing_plan_id":"cebpf4jnsgd1na2vs0mg"},{"bike_id":"7b9dd459-340b-4978-bfb0-6c163a5263e8","system_id":"levelo_inurba_marseille","lat":43.2319,"lon":5.3554,"is_reserved":false,"is_disabled":false,"rental_uris":{"android":"levelo://app?vid=7b9dd459-340b-4978-bfb0-6c163a5263e8","ios":"levelo://app?vid=7b9dd459-340b-4978-bfb0-6c163a5263e8"},"vehicle_type_id":"4","last_reported":1726793006,"current_range_meters":38800,"station_id":"ce4bhu92rcd13ifvqi70","pricing_plan_id":"cebpf4jnsgd1na2vs0mg"},{"bike_id":"e3d2cb34-c757-45ad-beac-0be6b9457278","system_id":"levelo_inurba_marseille","lat":43.30801,"lon":5.43519,"is_reserved":false,"is_disabled":false,"rental_uris":{"android":"levelo://app?vid=e3d2cb34-c757-45ad-beac-0be6b9457278","ios":"levelo://app?vid=e3d2cb34-c757-45ad-beac-0be6b9457278"},"vehicle_type_id":"4","last_reported":1726793006,"current_range_meters":37600,"station_id":"ce4bhph2rcd13ifvqheg","pricing_plan_id":"cebpf4jnsgd1na2vs0mg"},{"bike_id":"87440cd1-4d99-421b-9f62-83acc0dd5fa9","system_id":"levelo_inurba_marseille","lat":43.32367,"lon":5.38871,"is_reserved":false,"is_disabled":false,"rental_uris":{"android":"levelo://app?vid=87440cd1-4d99-421b-9f62-83acc0dd5fa9","ios":"levelo://app?vid=87440cd1-4d99-421b-9f62-83acc0dd5fa9"},"vehicle_type_id":"4","last_reported":1726793006,"current_range_meters":38800,"station_id":"ce4bhqp2rcd13ifvqhog","pricing_plan_id":"cebpf4jnsgd1na2vs0mg"},{"bike_id":"408a7389-3635-4c64-9b5e-576ef3edf329","system_id":"levelo_inurba_marseille","lat":43.3149,"lon":5.37303,"is_reserved":false,"is_disabled":false,"rental_uris":{"android":"levelo://app?vid=408a7389-3635-4c64-9b5e-576ef3edf329","ios":"levelo://app?vid=408a7389-3635-4c64-9b5e-576ef3edf329"},"vehicle_type_id":"4","last_reported":1726793006,"current_range_meters":28400,"station_id":"ce4bgt12rcd13ifvqcd0","pricing_plan_id":"cebpf4jnsgd1na2vs0mg"},{"bike_id":"62c903df-a1df-477c-8888-32b7b3b232c1","system_id":"levelo_inurba_marseille","lat":43.239602,"lon":5.366192,"is_reserved":false,"is_disabled":false,"rental_uris":{"android":"levelo://app?vid=62c903df-a1df-477c-8888-32b7b3b232c1","ios":"levelo://app?vid=62c903df-a1df-477c-8888-32b7b3b232c1"},"vehicle_type_id":"4","last_reported":1726793006,"current_range_meters":5600,"station_id":"ce4bhi12rcd13ifvqfp0","pricing_plan_id":"cebpf4jnsgd1na2vs0mg"},{"bike_id":"a7be9b00-f1df-4cdf-b155-c370eb06a34e","system_id":"levelo_inurba_marseille","lat":43.29252,"lon":5.40909,"is_reserved":false,"is_disabled":false,"rental_uris":{"android":"levelo://app?vid=a7be9b00-f1df-4cdf-b155-c370eb06a34e","ios":"levelo://app?vid=a7be9b00-f1df-4cdf-b155-c370eb06a34e"},"vehicle_type_id":"4","last_reported":1726793006,"current_range_meters":38800,"station_id":"ce4bh192rcd13ifvqdc0","pricing_plan_id":"cebpf4jnsgd1na2vs0mg"},{"bike_id":"010d89de-6be0-4954-8660-15897686fb5a","system_id":"levelo_inurba_marseille","lat":43.31168,"lon":5.38714,"is_reserved":false,"is_disabled":false,"rental_uris":{"android":"levelo://app?vid=010d89de-6be0-4954-8660-15897686fb5a","ios":"levelo://app?vid=010d89de-6be0-4954-8660-15897686fb5a"},"vehicle_type_id":"4","last_reported":1726793006,"current_range_meters":39200,"station_id":"ce4bgv12rcd13ifvqcp0","pricing_plan_id":"cebpf4jnsgd1na2vs0mg"},{"bike_id":"f0acb984-d113-4e73-b246-74f9b542af03","system_id":"levelo_inurba_marseille","lat":43.27899,"lon":5.37995,"is_reserved":false,"is_disabled":false,"rental_uris":{"android":"levelo://app?vid=f0acb984-d113-4e73-b246-74f9b542af03","ios":"levelo://app?vid=f0acb984-d113-4e73-b246-74f9b542af03"},"vehicle_type_id":"4","last_reported":1726793006,"current_range_meters":26800,"station_id":"ce4bhf92rcd13ifvqf50","pricing_plan_id":"cebpf4jnsgd1na2vs0mg"},{"bike_id":"59526314-6814-428f-9df0-ead1cf1c2777","system_id":"levelo_inurba_marseille","lat":43.25931,"lon":5.40909,"is_reserved":false,"is_disabled":false,"rental_uris":{"android":"levelo://app?vid=59526314-6814-428f-9df0-ead1cf1c2777","ios":"levelo://app?vid=59526314-6814-428f-9df0-ead1cf1c2777"},"vehicle_type_id":"4","last_reported":1726793006,"current_range_meters":36400,"station_id":"ce4bhm92rcd13ifvqglg","pricing_plan_id":"cebpf4jnsgd1na2vs0mg"},{"bike_id":"fa159db0-f584-4c6b-884c-a0a46167b67d","system_id":"levelo_inurba_marseille","lat":43.34142,"lon":5.40905,"is_reserved":false,"is_disabled":false,"rental_uris":{"android":"levelo://app?vid=fa159db0-f584-4c6b-884c-a0a46167b67d","ios":"levelo://app?vid=fa159db0-f584-4c6b-884c-a0a46167b67d"},"vehicle_type_id":"4","last_reported":1726793006,"current_range_meters":16400,"station_id":"ce4bhqh2rcd13ifvqhlg","pricing_plan_id":"cebpf4jnsgd1na2vs0mg"},{"bike_id":"bd6e7351-656c-4dbb-a154-71adff563c28","system_id":"levelo_inurba_marseille","lat":43.29709,"lon":5.366,"is_reserved":false,"is_disabled":false,"rental_uris":{"android":"levelo://app?vid=bd6e7351-656c-4dbb-a154-71adff563c28","ios":"levelo://app?vid=bd6e7351-656c-4dbb-a154-71adff563c28"},"vehicle_type_id":"4","last_reported":1726793006,"current_range_meters":36000,"station_id":"ce4bgn12rcd13ifvqbt0","pricing_plan_id":"cebpf4jnsgd1na2vs0mg"},{"bike_id":"8ffa1982-6191-434e-b395-24a81023ee09","system_id":"levelo_inurba_marseille","lat":43.28348,"lon":5.38099,"is_reserved":false,"is_disabled":false,"rental_uris":{"android":"levelo://app?vid=8ffa1982-6191-434e-b395-24a81023ee09","ios":"levelo://app?vid=8ffa1982-6191-434e-b395-24a81023ee09"},"vehicle_type_id":"4","last_reported":1726793006,"current_range_meters":18800,"station_id":"ce4bh412rcd13ifvqdr0","pricing_plan_id":"cebpf4jnsgd1na2vs0mg"},{"bike_id":"8f0ac399-c7ad-48ed-bf9e-bf052c987a8f","system_id":"levelo_inurba_marseille","lat":43.29036,"lon":5.39957,"is_reserved":false,"is_disabled":false,"rental_uris":{"android":"levelo://app?vid=8f0ac399-c7ad-48ed-bf9e-bf052c987a8f","ios":"levelo://app?vid=8f0ac399-c7ad-48ed-bf9e-bf052c987a8f"},"vehicle_type_id":"4","last_reported":1726793006,"current_range_meters":26800,"station_id":"ce4bh392rcd13ifvqdm0","pricing_plan_id":"cebpf4jnsgd1na2vs0mg"},{"bike_id":"f9871170-9663-49dd-8af1-3c193fdb2992","system_id":"levelo_inurba_marseille","lat":43.26939,"lon":5.40245,"is_reserved":false,"is_disabled":false,"rental_uris":{"android":"levelo://app?vid=f9871170-9663-49dd-8af1-3c193fdb2992","ios":"levelo://app?vid=f9871170-9663-49dd-8af1-3c193fdb2992"},"vehicle_type_id":"4","last_reported":1726793006,"current_range_meters":30000,"station_id":"cjm6bp8fraef2m0cb0m0","pricing_plan_id":"cebpf4jnsgd1na2vs0mg"},{"bike_id":"691a97ae-21f9-453e-a5b7-b33c75494b17","system_id":"levelo_inurba_marseille","lat":43.25829,"lon":5.39424,"is_reserved":false,"is_disabled":false,"rental_uris":{"android":"levelo://app?vid=691a97ae-21f9-453e-a5b7-b33c75494b17","ios":"levelo://app?vid=691a97ae-21f9-453e-a5b7-b33c75494b17"},"vehicle_type_id":"4","last_reported":1726793006,"current_range_meters":19200,"station_id":"ce4bhip2rcd13ifvqft0","pricing_plan_id":"cebpf4jnsgd1na2vs0mg"},{"bike_id":"35c8887b-df23-488d-81c5-d6b73b4441e3","system_id":"levelo_inurba_marseille","lat":43.30649,"lon":5.40079,"is_reserved":false,"is_disabled":false,"rental_uris":{"android":"levelo://app?vid=35c8887b-df23-488d-81c5-d6b73b4441e3","ios":"levelo://app?vid=35c8887b-df23-488d-81c5-d6b73b4441e3"},"vehicle_type_id":"4","last_reported":1726793006,"current_range_meters":24800,"station_id":"ce4bh112rcd13ifvqda0","pricing_plan_id":"cebpf4jnsgd1na2vs0mg"},{"bike_id":"a6138b45-7e28-438c-b576-0f9f8832e4f6","system_id":"levelo_inurba_marseille","lat":43.32655,"lon":5.40991,"is_reserved":false,"is_disabled":false,"rental_uris":{"android":"levelo://app?vid=a6138b45-7e28-438c-b576-0f9f8832e4f6","ios":"levelo://app?vid=a6138b45-7e28-438c-b576-0f9f8832e4f6"},"vehicle_type_id":"4","last_reported":1726793006,"current_range_meters":8400,"station_id":"ce4bhpp2rcd13ifvqhgg","pricing_plan_id":"cebpf4jnsgd1na2vs0mg"},{"bike_id":"028f9965-785c-4612-9d3f-bffd222958a8","system_id":"levelo_inurba_marseille","lat":43.2841,"lon":5.37523,"is_reserved":false,"is_disabled":false,"rental_uris":{"android":"levelo://app?vid=028f9965-785c-4612-9d3f-bffd222958a8","ios":"levelo://app?vid=028f9965-785c-4612-9d3f-bffd222958a8"},"vehicle_type_id":"4","last_reported":1726793006,"current_range_meters":29600,"station_id":"ce4bh412rcd13ifvqds0","pricing_plan_id":"cebpf4jnsgd1na2vs0mg"},{"bike_id":"e8838fc0-3cd4-4213-84e3-c33f37fcda59","system_id":"levelo_inurba_marseille","lat":43.25824,"lon":5.39421,"is_reserved":false,"is_disabled":false,"rental_uris":{"android":"levelo://app?vid=e8838fc0-3cd4-4213-84e3-c33f37fcda59","ios":"levelo://app?vid=e8838fc0-3cd4-4213-84e3-c33f37fcda59"},"vehicle_type_id":"4","last_reported":1726793006,"current_range_meters":38800,"station_id":"ce4bhip2rcd13ifvqft0","pricing_plan_id":"cebpf4jnsgd1na2vs0mg"},{"bike_id":"ff49b0a2-cff1-409f-80f9-91b5cc2e1ff5","system_id":"levelo_inurba_marseille","lat":43.28152,"lon":5.42641,"is_reserved":false,"is_disabled":false,"rental_uris":{"android":"levelo://app?vid=ff49b0a2-cff1-409f-80f9-91b5cc2e1ff5","ios":"levelo://app?vid=ff49b0a2-cff1-409f-80f9-91b5cc2e1ff5"},"vehicle_type_id":"4","last_reported":1726793006,"current_range_meters":24400,"station_id":"ce4bhnh2rcd13ifvqgug","pricing_plan_id":"cebpf4jnsgd1na2vs0mg"},{"bike_id":"ef180934-2dae-4833-acdd-ed74426bbff7","system_id":"levelo_inurba_marseille","lat":43.31329,"lon":5.39693,"is_reserved":false,"is_disabled":false,"rental_uris":{"android":"levelo://app?vid=ef180934-2dae-4833-acdd-ed74426bbff7","ios":"levelo://app?vid=ef180934-2dae-4833-acdd-ed74426bbff7"},"vehicle_type_id":"4","last_reported":1726793006,"current_range_meters":39200,"station_id":"ce4bgvp2rcd13ifvqcu0","pricing_plan_id":"cebpf4jnsgd1na2vs0mg"},{"bike_id":"3f4844a7-8837-4f90-9cc5-9a37bfd599bf","system_id":"levelo_inurba_marseille","lat":43.3169,"lon":5.40462,"is_reserved":false,"is_disabled":false,"rental_uris":{"android":"levelo://app?vid=3f4844a7-8837-4f90-9cc5-9a37bfd599bf","ios":"levelo://app?vid=3f4844a7-8837-4f90-9cc5-9a37bfd599bf"},"vehicle_type_id":"4","last_reported":1726793006,"current_range_meters":39200,"station_id":"ce4bh012rcd13ifvqd00","pricing_plan_id":"cebpf4jnsgd1na2vs0mg"},{"bike_id":"eb2bede7-1cfc-481d-95f0-4175f9ef21df","system_id":"levelo_inurba_marseille","lat":43.2594,"lon":5.40905,"is_reserved":false,"is_disabled":false,"rental_uris":{"android":"levelo://app?vid=eb2bede7-1cfc-481d-95f0-4175f9ef21df","ios":"levelo://app?vid=eb2bede7-1cfc-481d-95f0-4175f9ef21df"},"vehicle_type_id":"4","last_reported":1726793006,"current_range_meters":18800,"station_id":"ce4bhm92rcd13ifvqglg","pricing_plan_id":"cebpf4jnsgd1na2vs0mg"},{"bike_id":"2d0209a5-edfc-4ef2-af9a-5e4c23db38d5","system_id":"levelo_inurba_marseille","lat":43.24815,"lon":5.37461,"is_reserved":false,"is_disabled":false,"rental_uris":{"android":"levelo://app?vid=2d0209a5-edfc-4ef2-af9a-5e4c23db38d5","ios":"levelo://app?vid=2d0209a5-edfc-4ef2-af9a-5e4c23db38d5"},"vehicle_type_id":"4","last_reported":1726793006,"current_range_meters":3200,"station_id":"ce4bhgh2rcd13ifvqfb0","pricing_plan_id":"cebpf4jnsgd1na2vs0mg"},{"bike_id":"f0358b7c-0d51-45cd-b0f4-25d08b472a8f","system_id":"levelo_inurba_marseille","lat":43.31718,"lon":5.37762,"is_reserved":false,"is_disabled":false,"rental_uris":{"android":"levelo://app?vid=f0358b7c-0d51-45cd-b0f4-25d08b472a8f","ios":"levelo://app?vid=f0358b7c-0d51-45cd-b0f4-25d08b472a8f"},"vehicle_type_id":"4","last_reported":1726793006,"current_range_meters":38000,"station_id":"ce4bgth2rcd13ifvqch0","pricing_plan_id":"cebpf4jnsgd1na2vs0mg"},{"bike_id":"93e94795-a222-4c33-8338-9093dd96735b","system_id":"levelo_inurba_marseille","lat":43.32547,"lon":5.41436,"is_reserved":false,"is_disabled":false,"rental_uris":{"android":"levelo://app?vid=93e94795-a222-4c33-8338-9093dd96735b","ios":"levelo://app?vid=93e94795-a222-4c33-8338-9093dd96735b"},"vehicle_type_id":"4","last_reported":1726793006,"current_range_meters":38800,"station_id":"ce4bhq12rcd13ifvqhhg","pricing_plan_id":"cebpf4jnsgd1na2vs0mg"},{"bike_id":"0bb22754-7c8b-4bd4-bec6-46166cf1031a","system_id":"levelo_inurba_marseille","lat":43.2794,"lon":5.41033,"is_reserved":false,"is_disabled":false,"rental_uris":{"android":"levelo://app?vid=0bb22754-7c8b-4bd4-bec6-46166cf1031a","ios":"levelo://app?vid=0bb22754-7c8b-4bd4-bec6-46166cf1031a"},"vehicle_type_id":"4","last_reported":1726793006,"current_range_meters":28000,"station_id":"ce4bhnp2rcd13ifvqh0g","pricing_plan_id":"cebpf4jnsgd1na2vs0mg"},{"bike_id":"d9b48abc-4aed-4458-9c90-cb375b09732b","system_id":"levelo_inurba_marseille","lat":43.33606,"lon":5.41028,"is_reserved":false,"is_disabled":false,"rental_uris":{"android":"levelo://app?vid=d9b48abc-4aed-4458-9c90-cb375b09732b","ios":"levelo://app?vid=d9b48abc-4aed-4458-9c90-cb375b09732b"},"vehicle_type_id":"4","last_reported":1726793006,"current_range_meters":17200,"station_id":"ce4bhqh2rcd13ifvqhmg","pricing_plan_id":"cebpf4jnsgd1na2vs0mg"},{"bike_id":"ff5f6119-dd73-4e4e-8147-e66520e5ba8e","system_id":"levelo_inurba_marseille","lat":43.25723,"lon":5.41106,"is_reserved":false,"is_disabled":false,"rental_uris":{"android":"levelo://app?vid=ff5f6119-dd73-4e4e-8147-e66520e5ba8e","ios":"levelo://app?vid=ff5f6119-dd73-4e4e-8147-e66520e5ba8e"},"vehicle_type_id":"4","last_reported":1726793006,"current_range_meters":16800,"station_id":"ce4bhkp2rcd13ifvqgd0","pricing_plan_id":"cebpf4jnsgd1na2vs0mg"},{"bike_id":"b2e96364-fc4f-407d-a1dd-d52ffa2764ae","system_id":"levelo_inurba_marseille","lat":43.27616,"lon":5.36111,"is_reserved":false,"is_disabled":false,"rental_uris":{"android":"levelo://app?vid=b2e96364-fc4f-407d-a1dd-d52ffa2764ae","ios":"levelo://app?vid=b2e96364-fc4f-407d-a1dd-d52ffa2764ae"},"vehicle_type_id":"4","last_reported":1726793006,"current_range_meters":39200,"station_id":"ce4bgj92rcd13ifvqbe0","pricing_plan_id":"cebpf4jnsgd1na2vs0mg"},{"bike_id":"ba5b7b2a-8f33-406a-99d9-60143d2351b0","system_id":"levelo_inurba_marseille","lat":43.3093,"lon":5.4014,"is_reserved":false,"is_disabled":false,"rental_uris":{"android":"levelo://app?vid=ba5b7b2a-8f33-406a-99d9-60143d2351b0","ios":"levelo://app?vid=ba5b7b2a-8f33-406a-99d9-60143d2351b0"},"vehicle_type_id":"4","last_reported":1726793006,"current_range_meters":31200,"station_id":"ce4bgvp2rcd13ifvqct0","pricing_plan_id":"cebpf4jnsgd1na2vs0mg"},{"bike_id":"82ea35eb-356c-435a-af7e-f3943eee0033","system_id":"levelo_inurba_marseille","lat":43.31525,"lon":5.38031,"is_reserved":false,"is_disabled":false,"rental_uris":{"android":"levelo://app?vid=82ea35eb-356c-435a-af7e-f3943eee0033","ios":"levelo://app?vid=82ea35eb-356c-435a-af7e-f3943eee0033"},"vehicle_type_id":"4","last_reported":1726793006,"current_range_meters":38800,"station_id":"ce4bhsp2rcd13ifvqi50","pricing_plan_id":"cebpf4jnsgd1na2vs0mg"},{"bike_id":"902190e7-1fe9-4270-9546-498dac581307","system_id":"levelo_inurba_marseille","lat":43.28005,"lon":5.40587,"is_reserved":false,"is_disabled":false,"rental_uris":{"android":"levelo://app?vid=902190e7-1fe9-4270-9546-498dac581307","ios":"levelo://app?vid=902190e7-1fe9-4270-9546-498dac581307"},"vehicle_type_id":"4","last_reported":1726793006,"current_range_meters":33200,"station_id":"","pricing_plan_id":"cebpf4jnsgd1na2vs0mg"},{"bike_id":"d398cbe2-8847-47e9-83bb-407a6e69b5a6","system_id":"levelo_inurba_marseille","lat":43.305008,"lon":5.367198,"is_reserved":false,"is_disabled":false,"rental_uris":{"android":"levelo://app?vid=d398cbe2-8847-47e9-83bb-407a6e69b5a6","ios":"levelo://app?vid=d398cbe2-8847-47e9-83bb-407a6e69b5a6"},"vehicle_type_id":"4","last_reported":1726793006,"current_range_meters":28400,"station_id":"ce4bgrp2rcd13ifvqc9g","pricing_plan_id":"cebpf4jnsgd1na2vs0mg"},{"bike_id":"ffe054b3-44bf-4c54-b418-d07f10908d45","system_id":"levelo_inurba_marseille","lat":43.27998,"lon":5.40012,"is_reserved":false,"is_disabled":false,"rental_uris":{"android":"levelo://app?vid=ffe054b3-44bf-4c54-b418-d07f10908d45","ios":"levelo://app?vid=ffe054b3-44bf-4c54-b418-d07f10908d45"},"vehicle_type_id":"4","last_reported":1726793006,"current_range_meters":27200,"station_id":"ce4bho92rcd13ifvqh4g","pricing_plan_id":"cebpf4jnsgd1na2vs0mg"},{"bike_id":"5357f56d-8fda-4848-92ec-00c39d374ad6","system_id":"levelo_inurba_marseille","lat":43.28457,"lon":5.35897,"is_reserved":false,"is_disabled":false,"rental_uris":{"android":"levelo://app?vid=5357f56d-8fda-4848-92ec-00c39d374ad6","ios":"levelo://app?vid=5357f56d-8fda-4848-92ec-00c39d374ad6"},"vehicle_type_id":"4","last_reported":1726793006,"current_range_meters":22800,"station_id":"ce4bhah2rcd13ifvqei0","pricing_plan_id":"cebpf4jnsgd1na2vs0mg"},{"bike_id":"c48441d3-1273-46e7-8012-ad8941a2e1c7","system_id":"levelo_inurba_marseille","lat":43.31277,"lon":5.40172,"is_reserved":false,"is_disabled":false,"rental_uris":{"android":"levelo://app?vid=c48441d3-1273-46e7-8012-ad8941a2e1c7","ios":"levelo://app?vid=c48441d3-1273-46e7-8012-ad8941a2e1c7"},"vehicle_type_id":"4","last_reported":1726793006,"current_range_meters":38800,"station_id":"ce4bh092rcd13ifvqd30","pricing_plan_id":"cebpf4jnsgd1na2vs0mg"},{"bike_id":"c72671e4-48d1-4590-84cd-1cd1b432d06a","system_id":"levelo_inurba_marseille","lat":43.31714,"lon":5.3776,"is_reserved":false,"is_disabled":false,"rental_uris":{"android":"levelo://app?vid=c72671e4-48d1-4590-84cd-1cd1b432d06a","ios":"levelo://app?vid=c72671e4-48d1-4590-84cd-1cd1b432d06a"},"vehicle_type_id":"4","last_reported":1726793006,"current_range_meters":37600,"station_id":"ce4bgth2rcd13ifvqch0","pricing_plan_id":"cebpf4jnsgd1na2vs0mg"},{"bike_id":"35cbddc5-7db1-44a5-9da8-38b5009c54c2","system_id":"levelo_inurba_marseille","lat":43.32753,"lon":5.39118,"is_reserved":false,"is_disabled":false,"rental_uris":{"android":"levelo://app?vid=35cbddc5-7db1-44a5-9da8-38b5009c54c2","ios":"levelo://app?vid=35cbddc5-7db1-44a5-9da8-38b5009c54c2"},"vehicle_type_id":"4","last_reported":1726793006,"current_range_meters":27600,"station_id":"","pricing_plan_id":"cebpf4jnsgd1na2vs0mg"},{"bike_id":"98819c89-076d-4b67-9f95-b72fbf5469ea","system_id":"levelo_inurba_marseille","lat":43.306,"lon":5.37216,"is_reserved":false,"is_disabled":false,"rental_uris":{"android":"levelo://app?vid=98819c89-076d-4b67-9f95-b72fbf5469ea","ios":"levelo://app?vid=98819c89-076d-4b67-9f95-b72fbf5469ea"},"vehicle_type_id":"4","last_reported":1726793006,"current_range_meters":39200,"station_id":"ce4bgqh2rcd13ifvqc4g","pricing_plan_id":"cebpf4jnsgd1na2vs0mg"},