{"last_updated":1730581646,"ttl":60,"version":"2.2","data":{"bikes":[{"bike_id":"daa5500f-6039-4d77-bf02-00710b3acec6","system_id":"levelo_inurba_marseille","lat":43.25928,"lon":5.40922,"is_reserved":false,"is_disabled":false,"rental_uris":{"android":"levelo://app?vid=daa5500f-6039-4d77-bf02-00710b3acec6","ios":"levelo://app?vid=daa5500f-6039-4d77-bf02-00710b3acec6"},"vehicle_type_id":"4","last_reported":1730581646,"current_range_meters":8400,"station_id":"ce4bhm92rcd13ifvqglg","pricing_plan_id":"cebpf4jnsgd1na2vs0mg"},{"bike_id":"bbedcf01-8d16-416e-bedd-d7dbe6c10a70","system_id":"levelo_inurba_marseille","lat":43.29028,"lon":5.38128,"is_reserved":false,"is_disabled":false,"rental_uris":{"android":"levelo://app?vid=bbedcf01-8d16-416e-bedd-d7dbe6c10a70","ios":"levelo://app?vid=bbedcf01-8d16-416e-bedd-d7dbe6c10a70"},"vehicle_type_id":"4","last_reported":1730581646,"current_range_meters":8800,"station_id":"ce4bh4p2rcd13ifvqe1g","pricing_plan_id":"cebpf4jnsgd1na2vs0mg"},{"bike_id":"5662c3ec-16ac-4646-ad92-7b800105b64d","system_id":"levelo_inurba_marseille","lat":43.25113,"lon":5.40332,"is_reserved":false,"is_disabled":false,"rental_uris":{"android":"levelo://app?vid=5662c3ec-16ac-4646-ad92-7b800105b64d","ios":"levelo://app?vid=5662c3ec-16ac-4646-ad92-7b800105b64d"},"vehicle_type_id":"4","last_reported":1730581646,"current_range_meters":9200,"station_id":"ce4bhlh2rcd13ifvqgig","pricing_plan_id":"cebpf4jnsgd1na2vs0mg"},{"bike_id":"b3291122-c7a5-4136-9d27-54c339264b6a","system_id":"levelo_inurba_marseille","lat":43.316791,"lon":5.404746,"is_reserved":false,"is_disabled":false,"rental_uris":{"android":"levelo://app?vid=b3291122-c7a5-4136-9d27-54c339264b6a","ios":"levelo://app?vid=b3291122-c7a5-4136-9d27-54c339264b6a"},"vehicle_type_id":"4","last_reported":1730581646,"current_range_meters":6800,"station_id":"ce4bh012rcd13ifvqd00","pricing_plan_id":"cebpf4jnsgd1na2vs0mg"},{"bike_id":"4f63a1a0-74bc-4095-92d6-edf4cb2d7393","system_id":"levelo_inurba_marseille","lat":43.28924,"lon":5.38418,"is_reserved":false,"is_disabled":false,"rental_uris":{"android":"levelo://app?vid=4f63a1a0-74bc-4095-92d6-edf4cb2d7393","ios":"levelo://app?vid=4f63a1a0-74bc-4095-92d6-edf4cb2d7393"},"vehicle_type_id":"4","last_reported":1730581646,"current_range_meters":26000,"station_id":"ce4bh612rcd13ifvqe6g","pricing_plan_id":"cebpf4jnsgd1na2vs0mg"},{"bike_id":"3449dbf8-fb82-4f4b-a429-8462d31e8218","system_id":"levelo_inurba_marseille","lat":43.24645,"lon":5.38888,"is_reserved":false,"is_disabled":false,"rental_uris":{"android":"levelo://app?vid=3449dbf8-fb82-4f4b-a429-8462d31e8218","ios":"levelo://app?vid=3449dbf8-fb82-4f4b-a429-8462d31e8218"},"vehicle_type_id":"4","last_reported":1730581646,"current_range_meters":38400,"station_id":"ce4bhg12rcd13ifvqf60","pricing_plan_id":"cebpf4jnsgd1na2vs0mg"},{"bike_id":"37063947-a07e-4679-957d-4b507daa086a","system_id":"levelo_inurba_marseille","lat":43.29977,"lon":5.38495,"is_reserved":false,"is_disabled":false,"rental_uris":{"android":"levelo://app?vid=37063947-a07e-4679-957d-4b507daa086a","ios":"levelo://app?vid=37063947-a07e-4679-957d-4b507daa086a"},"vehicle_type_id":"4","last_reported":1730581646,"current_range_meters":37600,"station_id":"ce4bgj92rcd13ifvqbd0","pricing_plan_id":"cebpf4jnsgd1na2vs0mg"},{"bike_id":"30e0557d-7c00-4cc4-b98a-d3389aae5dda","system_id":"levelo_inurba_marseille","lat":43.30895,"lon":5.39649,"is_reserved":false,"is_disabled":false,"rental_uris":{"android":"levelo://app?vid=30e0557d-7c00-4cc4-b98a-d3389aae5dda","ios":"levelo://app?vid=30e0557d-7c00-4cc4-b98a-d3389aae5dda"},"vehicle_type_id":"4","last_reported":1730581646,"current_range_meters":27600,"station_id":"ce4bh012rcd13ifvqcv0","pricing_plan_id":"cebpf4jnsgd1na2vs0mg"},{"bike_id":"463a5fa2-247f-46f7-a9ca-b55d6029c4c8","system_id":"levelo_inurba_marseille","lat":43.27493,"lon":5.42452,"is_reserved":false,"is_disabled":false,"rental_uris":{"android":"levelo://app?vid=463a5fa2-247f-46f7-a9ca-b55d6029c4c8","ios":"levelo://app?vid=463a5fa2-247f-46f7-a9ca-b55d6029c4c8"},"vehicle_type_id":"4","last_reported":1730581646,"current_range_meters":39200,"station_id":"ce4bhn92rcd13ifvqgrg","pricing_plan_id":"cebpf4jnsgd1na2vs0mg"},{"bike_id":"58a97ccd-c78e-42ea-bbe5-395d87745a47","system_id":"levelo_inurba_marseille","lat":43.29595,"lon":5.38102,"is_reserved":false,"is_disabled":false,"rental_uris":{"android":"levelo://app?vid=58a97ccd-c78e-42ea-bbe5-395d87745a47","ios":"levelo://app?vid=58a97ccd-c78e-42ea-bbe5-395d87745a47"},"vehicle_type_id":"4","last_reported":1730581646,"current_range_meters":38800,"station_id":"ce4bgl12rcd13ifvqbo0","pricing_plan_id":"cebpf4jnsgd1na2vs0mg"},{"bike_id":"06bb3136-de31-411d-a1e3-31b723768622","system_id":"levelo_inurba_marseille","lat":43.29526,"lon":5.3854,"is_reserved":false,"is_disabled":false,"rental_uris":{"android":"levelo://app?vid=06bb3136-de31-411d-a1e3-31b723768622","ios":"levelo://app?vid=06bb3136-de31-411d-a1e3-31b723768622"},"vehicle_type_id":"4","last_reported":1730581646,"current_range_meters":38800,"station_id":"ce4bgih2rcd13ifvqba0","pricing_plan_id":"cebpf4jnsgd1na2vs0mg"},{"bike_id":"3d4bafe7-d527-4205-b862-55fe7a9e28db","system_id":"levelo_inurba_marseille","lat":43.26797,"lon":5.40261,"is_reserved":false,"is_disabled":false,"rental_uris":{"android":"levelo://app?vid=3d4bafe7-d527-4205-b862-55fe7a9e28db","ios":"levelo://app?vid=3d4bafe7-d527-4205-b862-55fe7a9e28db"},"vehicle_type_id":"4","last_reported":1730581646,"current_range_meters":8400,"station_id":"ce501612rcd8frsf0b60","pricing_plan_id":"cebpf4jnsgd1na2vs0mg"},{"bike_id":"16869cb2-a83c-40e2-9d7b-80e1114c2015","system_id":"levelo_inurba_marseille","lat":43.22927,"lon":5.35376,"is_reserved":false,"is_disabled":false,"rental_uris":{"android":"levelo://app?vid=16869cb2-a83c-40e2-9d7b-80e1114c2015","ios":"levelo://app?vid=16869cb2-a83c-40e2-9d7b-80e1114c2015"},"vehicle_type_id":"4","last_reported":1730581646,"current_range_meters":38800,"station_id":"cpo3532slgdg3j2ikp40","pricing_plan_id":"cebpf4jnsgd1na2vs0mg"},{"bike_id":"5818a6ac-2d40-4bf0-a920-aefa2e8a89fa","system_id":"levelo_inurba_marseille","lat":43.26491,"lon":5.3955,"is_reserved":false,"is_disabled":false,"rental_uris":{"android":"levelo://app?vid=5818a6ac-2d40-4bf0-a920-aefa2e8a89fa","ios":"levelo://app?vid=5818a6ac-2d40-4bf0-a920-aefa2e8a89fa"},"vehicle_type_id":"4","last_reported":1730581646,"current_range_meters":27200,"station_id":"ce4bhi12rcd13ifvqfq0","pricing_plan_id":"cebpf4jnsgd1na2vs0mg"},{"bike_id":"39e48f94-e636-4fd8-a174-0a1f227ded4f","system_id":"levelo_inurba_marseille","lat":43.29254,"lon":5.38436,"is_reserved":false,"is_disabled":false,"rental_uris":{"android":"levelo://app?vid=39e48f94-e636-4fd8-a174-0a1f227ded4f","ios":"levelo://app?vid=39e48f94-e636-4fd8-a174-0a1f227ded4f"},"vehicle_type_id":"4","last_reported":1730581646,"current_range_meters":16800,"station_id":"ce4bh692rcd13ifvqea0","pricing_plan_id":"cebpf4jnsgd1na2vs0mg"},{"bike_id":"9b905ac3-4a76-4cc3-85e4-26f0c1f76364","system_id":"levelo_inurba_marseille","lat":43.2977,"lon":5.37109,"is_reserved":false,"is_disabled":false,"rental_uris":{"android":"levelo://app?vid=9b905ac3-4a76-4cc3-85e4-26f0c1f76364","ios":"levelo://app?vid=9b905ac3-4a76-4cc3-85e4-26f0c1f76364"},"vehicle_type_id":"4","last_reported":1730581646,"current_range_meters":12000,"station_id":"ce4bgop2rcd13ifvqc1g","pricing_plan_id":"cebpf4jnsgd1na2vs0mg"},{"bike_id":"d382b326-c0c1-43f5-a6e0-8d95f8ba259a","system_id":"levelo_inurba_marseille","lat":43.27073,"lon":5.42278,"is_reserved":false,"is_disabled":false,"rental_uris":{"android":"levelo://app?vid=d382b326-c0c1-43f5-a6e0-8d95f8ba259a","ios":"levelo://app?vid=d382b326-c0c1-43f5-a6e0-8d95f8ba259a"},"vehicle_type_id":"4","last_reported":1730581646,"current_range_meters":10800,"station_id":"","pricing_plan_id":"cebpf4jnsgd1na2vs0mg"},{"bike_id":"3aae935e-f19b-4b82-860a-9e86c4796487","system_id":"levelo_inurba_marseille","lat":43.25867,"lon":5.39903,"is_reserved":false,"is_disabled":false,"rental_uris":{"android":"levelo://app?vid=3aae935e-f19b-4b82-860a-9e86c4796487","ios":"levelo://app?vid=3aae935e-f19b-4b82-860a-9e86c4796487"},"vehicle_type_id":"4","last_reported":1730581646,"current_range_meters":8000,"station_id":"ce4bhl92rcd13ifvqghg","pricing_plan_id":"cebpf4jnsgd1na2vs0mg"},{"bike_id":"09cd329c-1fa7-4b20-a274-2cdef2d8cd4f","system_id":"levelo_inurba_marseille","lat":43.24072,"lon":5.3776,"is_reserved":false,"is_disabled":false,"rental_uris":{"android":"levelo://app?vid=09cd329c-1fa7-4b20-a274-2cdef2d8cd4f","ios":"levelo://app?vid=09cd329c-1fa7-4b20-a274-2cdef2d8cd4f"},"vehicle_type_id":"4","last_reported":1730581646,"current_range_meters":38800,"station_id":"ce4bhnp2rcd13ifvqgvg","pricing_plan_id":"cebpf4jnsgd1na2vs0mg"},{"bike_id":"e1b2f201-8b71-417c-bd8c-3b9d0d4274a7","system_id":"levelo_inurba_marseille","lat":43.23959,"lon":5.36628,"is_reserved":false,"is_disabled":false,"rental_uris":{"android":"levelo://app?vid=e1b2f201-8b71-417c-bd8c-3b9d0d4274a7","ios":"levelo://app?vid=e1b2f201-8b71-417c-bd8c-3b9d0d4274a7"},"vehicle_type_id":"4","last_reported":1730581646,"current_range_meters":37600,"station_id":"ce4bhi12rcd13ifvqfp0","pricing_plan_id":"cebpf4jnsgd1na2vs0mg"},{"bike_id":"cecfe0cd-745f-48d6-88c2-20872f9b12fa","system_id":"levelo_inurba_marseille","lat":43.25868,"lon":5.399,"is_reserved":false,"is_disabled":false,"rental_uris":{"android":"levelo://app?vid=cecfe0cd-745f-48d6-88c2-20872f9b12fa","ios":"levelo://app?vid=cecfe0cd-745f-48d6-88c2-20872f9b12fa"},"vehicle_type_id":"4","last_reported":1730581646,"current_range_meters":20800,"station_id":"ce4bhl92rcd13ifvqghg","pricing_plan_id":"cebpf4jnsgd1na2vs0mg"},{"bike_id":"40a0df66-1640-4ca8-b679-3dd5aaaa8983","system_id":"levelo_inurba_marseille","lat":43.29594,"lon":5.38109,"is_reserved":false,"is_disabled":false,"rental_uris":{"android":"levelo://app?vid=40a0df66-1640-4ca8-b679-3dd5aaaa8983","ios":"levelo://app?vid=40a0df66-1640-4ca8-b679-3dd5aaaa8983"},"vehicle_type_id":"4","last_reported":1730581646,"current_range_meters":38800,"station_id":"ce4bgl12rcd13ifvqbo0","pricing_plan_id":"cebpf4jnsgd1na2vs0mg"},{"bike_id":"6535e471-b2bd-4843-8ca0-ee6c16f1d74f","system_id":"levelo_inurba_marseille","lat":43.29532,"lon":5.38542,"is_reserved":false,"is_disabled":false,"rental_uris":{"android":"levelo://app?vid=6535e471-b2bd-4843-8ca0-ee6c16f1d74f","ios":"levelo://app?vid=6535e471-b2bd-4843-8ca0-ee6c16f1d74f"},"vehicle_type_id":"4","last_reported":1730581646,"current_range_meters":36800,"station_id":"ce4bgih2rcd13ifvqba0","pricing_plan_id":"cebpf4jnsgd1na2vs0mg"},{"bike_id":"41e69a9b-66f4-4c88-9e8e-24877c19a722","system_id":"levelo_inurba_marseille","lat":43.26548,"lon":5.37288,"is_reserved":false,"is_disabled":false,"rental_uris":{"android":"levelo://app?vid=41e69a9b-66f4-4c88-9e8e-24877c19a722","ios":"levelo://app?vid=41e69a9b-66f4-4c88-9e8e-24877c19a722"},"vehicle_type_id":"4","last_reported":1730581646,"current_range_meters":38800,"station_id":"ce4bhg12rcd13ifvqf70","pricing_plan_id":"cebpf4jnsgd1na2vs0mg"},{"bike_id":"22cb7bf5-d924-4c42-b792-42240584238f","system_id":"levelo_inurba_marseille","lat":43.23154,"lon":5.43719,"is_reserved":false,"is_disabled":false,"rental_uris":{"android":"levelo://app?vid=22cb7bf5-d924-4c42-b792-42240584238f","ios":"levelo://app?vid=22cb7bf5-d924-4c42-b792-42240584238f"},"vehicle_type_id":"4","last_reported":1730581646,"current_range_meters":38800,"station_id":"ce4bhmp2rcd13ifvqgog","pricing_plan_id":"cebpf4jnsgd1na2vs0mg"},{"bike_id":"f3644f25-acbb-49ac-ab9c-e91b11f01fa4","system_id":"levelo_inurba_marseille","lat":43.25871,"lon":5.39903,"is_reserved":false,"is_disabled":false,"rental_uris":{"android":"levelo://app?vid=f3644f25-acbb-49ac-ab9c-e91b11f01fa4","ios":"levelo://app?vid=f3644f25-acbb-49ac-ab9c-e91b11f01fa4"},"vehicle_type_id":"4","last_reported":1730581646,"current_range_meters":28400,"station_id":"ce4bhl92rcd13ifvqghg","pricing_plan_id":"cebpf4jnsgd1na2vs0mg"},{"bike_id":"eeda0a49-c95e-447a-b118-263faeb6a58f","system_id":"levelo_inurba_marseille","lat":43.29598,"lon":5.37017,"is_reserved":false,"is_disabled":false,"rental_uris":{"android":"levelo://app?vid=eeda0a49-c95e-447a-b118-263faeb6a58f","ios":"levelo://app?vid=eeda0a49-c95e-447a-b118-263faeb6a58f"},"vehicle_type_id":"4","last_reported":1730581646,"current_range_meters":38400,"station_id":"","pricing_plan_id":"cebpf4jnsgd1na2vs0mg"},{"bike_id":"f9276b54-c65b-4cb6-9f8d-46280ec9ce66","system_id":"levelo_inurba_marseille","lat":43.24803,"lon":5.37455,"is_reserved":false,"is_disabled":false,"rental_uris":{"android":"levelo://app?vid=f9276b54-c65b-4cb6-9f8d-46280ec9ce66","ios":"levelo://app?vid=f9276b54-c65b-4cb6-9f8d-46280ec9ce66"},"vehicle_type_id":"4","last_reported":1730581646,"current_range_meters":20400,"station_id":"ce4bhgh2rcd13ifvqfb0","pricing_plan_id":"cebpf4jnsgd1na2vs0mg"},{"bike_id":"dc7f1fc9-111b-4f98-9712-78d4fc030980","system_id":"levelo_inurba_marseille","lat":43.24807,"lon":5.37459,"is_reserved":false,"is_disabled":false,"rental_uris":{"android":"levelo://app?vid=dc7f1fc9-111b-4f98-9712-78d4fc030980","ios":"levelo://app?vid=dc7f1fc9-111b-4f98-9712-78d4fc030980"},"vehicle_type_id":"4","last_reported":1730581646,"current_range_meters":29600,"station_id":"ce4bhgh2rcd13ifvqfb0","pricing_plan_id":"cebpf4jnsgd1na2vs0mg"},{"bike_id":"460ef19d-97b4-4a1f-832f-e4cb6b8cbf80","system_id":"levelo_inurba_marseille","lat":43.29259,"lon":5.38436,"is_reserved":false,"is_disabled":false,"rental_uris":{"android":"levelo://app?vid=460ef19d-97b4-4a1f-832f-e4cb6b8cbf80","ios":"levelo://app?vid=460ef19d-97b4-4a1f-832f-e4cb6b8cbf80"},"vehicle_type_id":"4","last_reported":1730581646,"current_range_meters":11600,"station_id":"ce4bh692rcd13ifvqea0","pricing_plan_id":"cebpf4jnsgd1na2vs0mg"},{"bike_id":"32d84800-a86a-4295-80d8-5f10bcad7318","system_id":"levelo_inurba_marseille","lat":43.31323,"lon":5.39696,"is_reserved":false,"is_disabled":false,"rental_uris":{"android":"levelo://app?vid=32d84800-a86a-4295-80d8-5f10bcad7318","ios":"levelo://app?vid=32d84800-a86a-4295-80d8-5f10bcad7318"},"vehicle_type_id":"4","last_reported":1730581646,"current_range_meters":32800,"station_id":"ce4bgvp2rcd13ifvqcu0","pricing_plan_id":"cebpf4jnsgd1na2vs0mg"},{"bike_id":"19a6d47e-53d7-42cf-9934-34fc3fd9053c","system_id":"levelo_inurba_marseille","lat":43.322568,"lon":5.383364,"is_reserved":false,"is_disabled":false,"rental_uris":{"android":"levelo://app?vid=19a6d47e-53d7-42cf-9934-34fc3fd9053c","ios":"levelo://app?vid=19a6d47e-53d7-42cf-9934-34fc3fd9053c"},"vehicle_type_id":"4","last_reported":1730581646,"current_range_meters":0,"station_id":"","pricing_plan_id":"cebpf4jnsgd1na2vs0mg"},{"bike_id":"6e2c93b7-ebb4-422a-b427-e48707211c9b","system_id":"levelo_inurba_marseille","lat":43.30415,"lon":5.41291,"is_reserved":false,"is_disabled":false,"rental_uris":{"android":"levelo://app?vid=6e2c93b7-ebb4-422a-b427-e48707211c9b","ios":"levelo://app?vid=6e2c93b7-ebb4-422a-b427-e48707211c9b"},"vehicle_type_id":"4","last_reported":1730581646,"current_range_meters":20400,"station_id":"ce4bhop2rcd13ifvqh8g","pricing_plan_id":"cebpf4jnsgd1na2vs0mg"},{"bike_id":"7f39b1a9-937f-4de6-9cb9-6fb824b11a9d","system_id":"levelo_inurba_marseille","lat":43.29271,"lon":5.36835,"is_reserved":false,"is_disabled":false,"rental_uris":{"android":"levelo://app?vid=7f39b1a9-937f-4de6-9cb9-6fb824b11a9d","ios":"levelo://app?vid=7f39b1a9-937f-4de6-9cb9-6fb824b11a9d"},"vehicle_type_id":"4","last_reported":1730581646,"current_range_meters":28800,"station_id":"ce4bhbp2rcd13ifvqesg","pricing_plan_id":"cebpf4jnsgd1na2vs0mg"},{"bike_id":"f5eeb44a-7322-49be-97e6-6ab3bf1cddc0","system_id":"levelo_inurba_marseille","lat":43.292725,"lon":5.368492,"is_reserved":false,"is_disabled":false,"rental_uris":{"android":"levelo://app?vid=f5eeb44a-7322-49be-97e6-6ab3bf1cddc0","ios":"levelo://app?vid=f5eeb44a-7322-49be-97e6-6ab3bf1cddc0"},"vehicle_type_id":"4","last_reported":1730581646,"current_range_meters":16000,"station_id":"ce4bhbp2rcd13ifvqesg","pricing_plan_id":"cebpf4jnsgd1na2vs0mg"},{"bike_id":"698ea456-e6e0-47cd-be00-8bce225ba3a1","system_id":"levelo_inurba_marseille","lat":43.25497,"lon":5.3765,"is_reserved":false,"is_disabled":false,"rental_uris":{"android":"levelo://app?vid=698ea456-e6e0-47cd-be00-8bce225ba3a1","ios":"levelo://app?vid=698ea456-e6e0-47cd-be00-8bce225ba3a1"},"vehicle_type_id":"4","last_reported":1730581646,"current_range_meters":32000,"station_id":"ce4bhh12rcd13ifvqff0","pricing_plan_id":"cebpf4jnsgd1na2vs0mg"},{"bike_id":"9afd433d-50f1-4a28-aacd-7b28ee586a2f","system_id":"levelo_inurba_marseille","lat":43.29367,"lon":5.3786,"is_reserved":false,"is_disabled":false,"rental_uris":{"android":"levelo://app?vid=9afd433d-50f1-4a28-aacd-7b28ee586a2f","ios":"levelo://app?vid=9afd433d-50f1-4a28-aacd-7b28ee586a2f"},"vehicle_type_id":"4","last_reported":1730581646,"current_range_meters":22400,"station_id":"ce4bgjh2rcd13ifvqbf0","pricing_plan_id":"cebpf4jnsgd1na2vs0mg"},{"bike_id":"2a536592-c2cb-4e9a-9313-886fec181cf3","system_id":"levelo_inurba_marseille","lat":43.2942,"lon":5.38621,"is_reserved":false,"is_disabled":false,"rental_uris":{"android":"levelo://app?vid=2a536592-c2cb-4e9a-9313-886fec181cf3","ios":"levelo://app?vid=2a536592-c2cb-4e9a-9313-886fec181cf3"},"vehicle_type_id":"4","last_reported":1730581646,"current_range_meters":26800,"station_id":"ce4bh2h2rcd13ifvqdh0","pricing_plan_id":"cebpf4jnsgd1na2vs0mg"},{"bike_id":"7ca7398d-064f-4241-a5e2-f25f744c467b","system_id":"levelo_inurba_marseille","lat":43.29532,"lon":5.38544,"is_reserved":false,"is_disabled":false,"rental_uris":{"android":"levelo://app?vid=7ca7398d-064f-4241-a5e2-f25f744c467b","ios":"levelo://app?vid=7ca7398d-064f-4241-a5e2-f25f744c467b"},"vehicle_type_id":"4","last_reported":1730581646,"current_range_meters":39200,"station_id":"ce4bgih2rcd13ifvqba0","pricing_plan_id":"cebpf4jnsgd1na2vs0mg"},{"bike_id":"dba3c29b-3433-4dd1-a290-c8b09348f9fc","system_id":"levelo_inurba_marseille","lat":43.26059,"lon":5.39404,"is_reserved":false,"is_disabled":false,"rental_uris":{"android":"levelo://app?vid=dba3c29b-3433-4dd1-a290-c8b09348f9fc","ios":"levelo://app?vid=dba3c29b-3433-4dd1-a290-c8b09348f9fc"},"vehicle_type_id":"4","last_reported":1730581646,"current_range_meters":32000,"station_id":"ce4bhh92rcd13ifvqfj0","pricing_plan_id":"cebpf4jnsgd1na2vs0mg"},{"bike_id":"9214ab54-3758-4eab-a1e4-9b2d618824d5","system_id":"levelo_inurba_marseille","lat":43.28721,"lon":5.36091,"is_reserved":false,"is_disabled":false,"rental_uris":{"android":"levelo://app?vid=9214ab54-3758-4eab-a1e4-9b2d618824d5","ios":"levelo://app?vid=9214ab54-3758-4eab-a1e4-9b2d618824d5"},"vehicle_type_id":"4","last_reported":1730581646,"current_range_meters":38800,"station_id":"cki0cbj6b192h4jlfktg","pricing_plan_id":"cebpf4jnsgd1na2vs0mg"},{"bike_id":"15c52a6c-d60a-43cb-838c-ca43903292d7","system_id":"levelo_inurba_marseille","lat":43.29291,"lon":5.3744,"is_reserved":false,"is_disabled":false,"rental_uris":{"android":"levelo://app?vid=15c52a6c-d60a-43cb-838c-ca43903292d7","ios":"levelo://app?vid=15c52a6c-d60a-43cb-838c-ca43903292d7"},"vehicle_type_id":"4","last_reported":1730581646,"current_range_meters":17200,"station_id":"ce4bgi12rcd13ifvqb70","pricing_plan_id":"cebpf4jnsgd1na2vs0mg"},{"bike_id":"99d7c7dc-2e91-4267-811b-4302f16a1504","system_id":"levelo_inurba_marseille","lat":43.25111,"lon":5.40322,"is_reserved":false,"is_disabled":false,"rental_uris":{"android":"levelo://app?vid=99d7c7dc-2e91-4267-811b-4302f16a1504","ios":"levelo://app?vid=99d7c7dc-2e91-4267-811b-4302f16a1504"},"vehicle_type_id":"4","last_reported":1730581646,"current_range_meters":6400,"station_id":"ce4bhlh2rcd13ifvqgig","pricing_plan_id":"cebpf4jnsgd1na2vs0mg"},{"bike_id":"2fecd123-2276-416f-a249-18b8dca5a399","system_id":"levelo_inurba_marseille","lat":43.32366,"lon":5.38891,"is_reserved":false,"is_disabled":false,"rental_uris":{"android":"levelo://app?vid=2fecd123-2276-416f-a249-18b8dca5a399","ios":"levelo://app?vid=2fecd123-2276-416f-a249-18b8dca5a399"},"vehicle_type_id":"4","last_reported":1730581646,"current_range_meters":16400,"station_id":"ce4bhqp2rcd13ifvqhog","pricing_plan_id":"cebpf4jnsgd1na2vs0mg"},{"bike_id":"f639ff21-8687-4473-bf4e-aadb72e69432","system_id":"levelo_inurba_marseille","lat":43.29978,"lon":5.38499,"is_reserved":false,"is_disabled":false,"rental_uris":{"android":"levelo://app?vid=f639ff21-8687-4473-bf4e-aadb72e69432","ios":"levelo://app?vid=f639ff21-8687-4473-bf4e-aadb72e69432"},"vehicle_type_id":"4","last_reported":1730581646,"current_range_meters":22000,"station_id":"ce4bgj92rcd13ifvqbd0","pricing_plan_id":"cebpf4jnsgd1na2vs0mg"},{"bike_id":"73c275bf-7a27-4795-a2af-ee837a10340a","system_id":"levelo_inurba_marseille","lat":43.29191,"lon":5.39329,"is_reserved":false,"is_disabled":false,"rental_uris":{"android":"levelo://app?vid=73c275bf-7a27-4795-a2af-ee837a10340a","ios":"levelo://app?vid=73c275bf-7a27-4795-a2af-ee837a10340a"},"vehicle_type_id":"4","last_reported":1730581646,"current_range_meters":39200,"station_id":"ce4bh192rcd13ifvqdd0","pricing_plan_id":"cebpf4jnsgd1na2vs0mg"},{"bike_id":"de77c2b5-da72-4876-8627-94d6e7fc04db","system_id":"levelo_inurba_marseille","lat":43.29984,"lon":5.38493,"is_reserved":false,"is_disabled":false,"rental_uris":{"android":"levelo://app?vid=de77c2b5-da72-4876-8627-94d6e7fc04db","ios":"levelo://app?vid=de77c2b5-da72-4876-8627-94d6e7fc04db"},"vehicle_type_id":"4","last_reported":1730581646,"current_range_meters":39200,"station_id":"ce4bgj92rcd13ifvqbd0","pricing_plan_id":"cebpf4jnsgd1na2vs0mg"},{"bike_id":"fd745846-a6ee-4099-aff7-8de6e0f5c52a","system_id":"levelo_inurba_marseille","lat":43.29602,"lon":5.38102,"is_reserved":false,"is_disabled":false,"rental_uris":{"android":"levelo://app?vid=fd745846-a6ee-4099-aff7-8de6e0f5c52a","ios":"levelo://app?vid=fd745846-a6ee-4099-aff7-8de6e0f5c52a"},"vehicle_type_id":"4","last_reported":1730581646,"current_range_meters":38800,"station_id":"ce4bgl12rcd13ifvqbo0","pricing_plan_id":"cebpf4jnsgd1na2vs0mg"},{"bike_id":"520350f2-c65e-4497-bfef-444f70664ef3","system_id":"levelo_inurba_marseille","lat":43.28029,"lon":5.36949,"is_reserved":false,"is_disabled":false,"rental_uris":{"android":"levelo://app?vid=520350f2-c65e-4497-bfef-444f70664ef3","ios":"levelo://app?vid=520350f2-c65e-4497-bfef-444f70664ef3"},"vehicle_type_id":"4","last_reported":1730581646,"current_range_meters":13600,"station_id":"ce4bha12rcd13ifvqef0","pricing_plan_id":"cebpf4jnsgd1na2vs0mg"},{"bike_id":"082aac60-5689-48db-9609-5cc754422d4e","system_id":"levelo_inurba_marseille","lat":43.293,"lon":5.37475,"is_reserved":false,"is_disabled":false,"rental_uris":{"android":"levelo://app?vid=082aac60-5689-48db-9609-5cc754422d4e","ios":"levelo://app?vid=082aac60-5689-48db-9609-5cc754422d4e"},"vehicle_type_id":"4","last_reported":1730581646,"current_range_meters":36400,"station_id":"ce4bgi12rcd13ifvqb70","pricing_plan_id":"cebpf4jnsgd1na2vs0mg"},{"bike_id":"c8893d8e-f81f-4744-85fb-448d69741653","system_id":"levelo_inurba_marseille","lat":43.27619,"lon":5.36112,"is_reserved":false,"is_disabled":false,"rental_uris":{"android":"levelo://app?vid=c8893d8e-f81f-4744-85fb-448d69741653","ios":"levelo://app?vid=c8893d8e-f81f-4744-85fb-448d69741653"},"vehicle_type_id":"4","last_reported":1730581646,"current_range_meters":9600,"station_id":"ce4bgj92rcd13ifvqbe0","pricing_plan_id":"cebpf4jnsgd1na2vs0mg"},{"bike_id":"79799d26-31a6-4d94-bd46-90c1d292d30a","system_id":"levelo_inurba_marseille","lat":43.28724,"lon":5.37931,"is_reserved":false,"is_disabled":false,"rental_uris":{"android":"levelo://app?vid=79799d26-31a6-4d94-bd46-90c1d292d30a","ios":"levelo://app?vid=79799d26-31a6-4d94-bd46-90c1d292d30a"},"vehicle_type_id":"4","last_reported":1730581646,"current_range_meters":19600,"station_id":"ce4bh9p2rcd13ifvqec0","pricing_plan_id":"cebpf4jnsgd1na2vs0mg"},{"bike_id":"0645f266-76f8-4cfd-be85-d128f4fe579c","system_id":"levelo_inurba_marseille","lat":43.28723,"lon":5.36087,"is_reserved":false,"is_disabled":false,"rental_uris":{"android":"levelo://app?vid=0645f266-76f8-4cfd-be85-d128f4fe579c","ios":"levelo://app?vid=0645f266-76f8-4cfd-be85-d128f4fe579c"},"vehicle_type_id":"4","last_reported":1730581646,"current_range_meters":38800,"station_id":"cki0cbj6b192h4jlfktg","pricing_plan_id":"cebpf4jnsgd1na2vs0mg"},{"bike_id":"0a82093f-c563-43bd-960d-e5b6b25c2b85","system_id":"levelo_inurba_marseille","lat":43.3169,"lon":5.40468,"is_reserved":false,"is_disabled":false,"rental_uris":{"android":"levelo://app?vid=0a82093f-c563-43bd-960d-e5b6b25c2b85","ios":"levelo://app?vid=0a82093f-c563-43bd-960d-e5b6b25c2b85"},"vehicle_type_id":"4","last_reported":1730581646,"current_range_meters":39200,"station_id":"ce4bh012rcd13ifvqd00","pricing_plan_id":"cebpf4jnsgd1na2vs0mg"},{"bike_id":"7c55d11d-361c-4ffe-bd81-32f4c680c5c2","system_id":"levelo_inurba_marseille","lat":43.2925,"lon":5.40911,"is_reserved":false,"is_disabled":false,"rental_uris":{"android":"levelo://app?vid=7c55d11d-361c-4ffe-bd81-32f4c680c5c2","ios":"levelo://app?vid=7c55d11d-361c-4ffe-bd81-32f4c680c5c2"},"vehicle_type_id":"4","last_reported":1730581646,"current_range_meters":38800,"station_id":"ce4bh192rcd13ifvqdc0","pricing_plan_id":"cebpf4jnsgd1na2vs0mg"},{"bike_id":"1f733f6f-0431-4e73-a8f6-00d1285841d6","system_id":"levelo_inurba_marseille","lat":43.30902,"lon":5.36859,"is_reserved":false,"is_disabled":false,"rental_uris":{"android":"levelo://app?vid=1f733f6f-0431-4e73-a8f6-00d1285841d6","ios":"levelo://app?vid=1f733f6f-0431-4e73-a8f6-00d1285841d6"},"vehicle_type_id":"4","last_reported":1730581646,"current_range_meters":36800,"station_id":"ce4bgn92rcd13ifvqbvg","pricing_plan_id":"cebpf4jnsgd1na2vs0mg"},{"bike_id":"60b2fd11-3cbf-4232-bd92-7ecebd78b656","system_id":"levelo_inurba_marseille","lat":43.28342,"lon":5.38114,"is_reserved":false,"is_disabled":false,"rental_uris":{"android":"levelo://app?vid=60b2fd11-3cbf-4232-bd92-7ecebd78b656","ios":"levelo://app?vid=60b2fd11-3cbf-4232-bd92-7ecebd78b656"},"vehicle_type_id":"4","last_reported":1730581646,"current_range_meters":38800,"station_id":"ce4bh412rcd13ifvqdr0","pricing_plan_id":"cebpf4jnsgd1na2vs0mg"},{"bike_id":"c4b4362b-b4c6-41d0-ad16-2f99c397950a","system_id":"levelo_inurba_marseille","lat":43.29015,"lon":5.38125,"is_reserved":false,"is_disabled":false,"rental_uris":{"android":"levelo://app?vid=c4b4362b-b4c6-41d0-ad16-2f99c397950a","ios":"levelo://app?vid=c4b4362b-b4c6-41d0-ad16-2f99c397950a"},"vehicle_type_id":"4","last_reported":1730581646,"current_range_meters":37600,"station_id":"ce4bh4p2rcd13ifvqe1g","pricing_plan_id":"cebpf4jnsgd1na2vs0mg"},{"bike_id":"322ce835-bf2d-4910-9fcc-f8bce4efd4df","system_id":"levelo_inurba_marseille","lat":43.28348,"lon":5.38106,"is_reserved":false,"is_disabled":false,"rental_uris":{"android":"levelo://app?vid=322ce835-bf2d-4910-9fcc-f8bce4efd4df","ios":"levelo://app?vid=322ce835-bf2d-4910-9fcc-f8bce4efd4df"},"vehicle_type_id":"4","last_reported":1730581646,"current_range_meters":14800,"station_id":"ce4bh412rcd13ifvqdr0","pricing_plan_id":"cebpf4jnsgd1na2vs0mg"},{"bike_id":"23165fa6-a2fa-4033-aeda-16e5232b0817","system_id":"levelo_inurba_marseille","lat":43.29531,"lon":5.38538,"is_reserved":false,"is_disabled":false,"rental_uris":{"android":"levelo://app?vid=23165fa6-a2fa-4033-aeda-16e5232b0817","ios":"levelo://app?vid=23165fa6-a2fa-4033-aeda-16e5232b0817"},"vehicle_type_id":"4","last_reported":1730581646,"current_range_meters":30800,"station_id":"ce4bgih2rcd13ifvqba0","pricing_plan_id":"cebpf4jnsgd1na2vs0mg"},{"bike_id":"54337fac-085e-4782-bad6-db9a84abd2e2","system_id":"levelo_inurba_marseille","lat":43.31702,"lon":5.37764,"is_reserved":false,"is_disabled":false,"rental_uris":{"android":"levelo://app?vid=54337fac-085e-4782-bad6-db9a84abd2e2","ios":"levelo://app?vid=54337fac-085e-4782-bad6-db9a84abd2e2"},"vehicle_type_id":"4","last_reported":1730581646,"current_range_meters":38800,"station_id":"ce4bgth2rcd13ifvqch0","pricing_plan_id":"cebpf4jnsgd1na2vs0mg"},{"bike_id":"49117932-0a39-4b95-b65b-20a53962716e","system_id":"levelo_inurba_marseille","lat":43.28469,"lon":5.38403,"is_reserved":false,"is_disabled":false,"rental_uris":{"android":"levelo://app?vid=49117932-0a39-4b95-b65b-20a53962716e","ios":"levelo://app?vid=49117932-0a39-4b95-b65b-20a53962716e"},"vehicle_type_id":"4","last_reported":1730581646,"current_range_meters":38800,"station_id":"ce4bh512rcd13ifvqe3g","pricing_plan_id":"cebpf4jnsgd1na2vs0mg"},{"bike_id":"6e569ca9-a99d-4788-9007-a9473932a6e9","system_id":"levelo_inurba_marseille","lat":43.31682,"lon":5.4047,"is_reserved":false,"is_disabled":false,"rental_uris":{"android":"levelo://app?vid=6e569ca9-a99d-4788-9007-a9473932a6e9","ios":"levelo://app?vid=6e569ca9-a99d-4788-9007-a9473932a6e9"},"vehicle_type_id":"4","last_reported":1730581646,"current_range_meters":38800,"station_id":"ce4bh012rcd13ifvqd00","pricing_plan_id":"cebpf4jnsgd1na2vs0mg"},{"bike_id":"7b54dd3d-62bb-4ea5-b392-912736a6d699","system_id":"levelo_inurba_marseille","lat":43.30587,"lon":5.39349,"is_reserved":false,"is_disabled":false,"rental_uris":{"android":"levelo://app?vid=7b54dd3d-62bb-4ea5-b392-912736a6d699","ios":"levelo://app?vid=7b54dd3d-62bb-4ea5-b392-912736a6d699"},"vehicle_type_id":"4","last_reported":1730581646,"current_range_meters":30400,"station_id":"ce4bh0p2rcd13ifvqd80","pricing_plan_id":"cebpf4jnsgd1na2vs0mg"},{"bike_id":"731cb023-8e5d-48f1-bd70-ec129db64500","system_id":"levelo_inurba_marseille","lat":43.2987,"lon":5.39738,"is_reserved":false,"is_disabled":false,"rental_uris":{"android":"levelo://app?vid=731cb023-8e5d-48f1-bd70-ec129db64500","ios":"levelo://app?vid=731cb023-8e5d-48f1-bd70-ec129db64500"},"vehicle_type_id":"4","last_reported":1730581646,"current_range_meters":24400,"station_id":"ce4bh0h2rcd13ifvqd50","pricing_plan_id":"cebpf4jnsgd1na2vs0mg"},{"bike_id":"fd471359-38bb-49c9-afc4-02a627aa0cb8","system_id":"levelo_inurba_marseille","lat":43.30129,"lon":5.39866,"is_reserved":false,"is_disabled":false,"rental_uris":{"android":"levelo://app?vid=fd471359-38bb-49c9-afc4-02a627aa0cb8","ios":"levelo://app?vid=fd471359-38bb-49c9-afc4-02a627aa0cb8"},"vehicle_type_id":"4","last_reported":1730581646,"current_range_meters":19200,"station_id":"ce4bh0h2rcd13ifvqd40","pricing_plan_id":"cebpf4jnsgd1na2vs0mg"},{"bike_id":"dba6275b-d1d9-4393-8748-f4fb7a98121b","system_id":"levelo_inurba_marseille","lat":43.25001,"lon":5.38934,"is_reserved":false,"is_disabled":false,"rental_uris":{"android":"levelo://app?vid=dba6275b-d1d9-4393-8748-f4fb7a98121b","ios":"levelo://app?vid=dba6275b-d1d9-4393-8748-f4fb7a98121b"},"vehicle_type_id":"4","last_reported":1730581646,"current_range_meters":8400,"station_id":"ce4bhgp2rcd13ifvqfd0","pricing_plan_id":"cebpf4jnsgd1na2vs0mg"},{"bike_id":"6adbbd29-3ef0-4314-93b4-f088d70762a0","system_id":"levelo_inurba_marseille","lat":43.28154,"lon":5.42641,"is_reserved":false,"is_disabled":false,"rental_uris":{"android":"levelo://app?vid=6adbbd29-3ef0-4314-93b4-f088d70762a0","ios":"levelo://app?vid=6adbbd29-3ef0-4314-93b4-f088d70762a0"},"vehicle_type_id":"4","last_reported":1730581646,"current_range_meters":10800,"station_id":"ce4bhnh2rcd13ifvqgug","pricing_plan_id":"cebpf4jnsgd1na2vs0mg"},{"bike_id":"d69eef29-33f1-400b-9dbd-e583b4f600d8","system_id":"levelo_inurba_marseille","lat":43.24651,"lon":5.38904,"is_reserved":false,"is_disabled":false,"rental_uris":{"android":"levelo://app?vid=d69eef29-33f1-400b-9dbd-e583b4f600d8","ios":"levelo://app?vid=d69eef29-33f1-400b-9dbd-e583b4f600d8"},"vehicle_type_id":"4","last_reported":1730581646,"current_range_meters":39200,"station_id":"ce4bhg12rcd13ifvqf60","pricing_plan_id":"cebpf4jnsgd1na2vs0mg"},{"bike_id":"e5886f7a-3da2-4ca9-ae30-1e8c1c44a26d","system_id":"levelo_inurba_marseille","lat":43.28973,"lon":5.37837,"is_reserved":false,"is_disabled":false,"rental_uris":{"android":"levelo://app?vid=e5886f7a-3da2-4ca9-ae30-1e8c1c44a26d","ios":"levelo://app?vid=e5886f7a-3da2-4ca9-ae30-1e8c1c44a26d"},"vehicle_type_id":"4","last_reported":1730581646,"current_range_meters":37600,"station_id":"ce4bh9p2rcd13ifvqed0","pricing_plan_id":"cebpf4jnsgd1na2vs0mg"},{"bike_id":"6342d8fc-804f-48c1-bab0-bb5d1f758592","system_id":"levelo_inurba_marseille","lat":43.2979,"lon":5.38099,"is_reserved":false,"is_disabled":false,"rental_uris":{"android":"levelo://app?vid=6342d8fc-804f-48c1-bab0-bb5d1f758592","ios":"levelo://app?vid=6342d8fc-804f-48c1-bab0-bb5d1f758592"},"vehicle_type_id":"4","last_reported":1730581646,"current_range_meters":38800,"station_id":"ce4bgip2rcd13ifvqbb0","pricing_plan_id":"cebpf4jnsgd1na2vs0mg"},{"bike_id":"c72f7cf5-19b1-47f5-ad26-f0caa59757b8","system_id":"levelo_inurba_marseille","lat":43.29801,"lon":5.40411,"is_reserved":false,"is_disabled":false,"rental_uris":{"android":"levelo://app?vid=c72f7cf5-19b1-47f5-ad26-f0caa59757b8","ios":"levelo://app?vid=c72f7cf5-19b1-47f5-ad26-f0caa59757b8"},"vehicle_type_id":"4","last_reported":1730581646,"current_range_meters":38800,"station_id":"ce4bh112rcd13ifvqd90","pricing_plan_id":"cebpf4jnsgd1na2vs0mg"},{"bike_id":"14f78b80-476b-4dfa-9237-58367d6be7a2","system_id":"levelo_inurba_marseille","lat":43.33601,"lon":5.41035,"is_reserved":false,"is_disabled":false,"rental_uris":{"android":"levelo://app?vid=14f78b80-476b-4dfa-9237-58367d6be7a2","ios":"levelo://app?vid=14f78b80-476b-4dfa-9237-58367d6be7a2"},"vehicle_type_id":"4","last_reported":1730581646,"current_range_meters":37600,"station_id":"ce4bhqh2rcd13ifvqhmg","pricing_plan_id":"cebpf4jnsgd1na2vs0mg"},{"bike_id":"50fb1de7-3d0d-4262-8340-17108e94fdbc","system_id":"levelo_inurba_marseille","lat":43.24809,"lon":5.37457,"is_reserved":false,"is_disabled":false,"rental_uris":{"android":"levelo://app?vid=50fb1de7-3d0d-4262-8340-17108e94fdbc","ios":"levelo://app?vid=50fb1de7-3d0d-4262-8340-17108e94fdbc"},"vehicle_type_id":"4","last_reported":1730581646,"current_range_meters":24400,"station_id":"ce4bhgh2rcd13ifvqfb0","pricing_plan_id":"cebpf4jnsgd1na2vs0mg"},{"bike_id":"e698eee7-8f58-44b4-8fed-c586a89d6685","system_id":"levelo_inurba_marseille","lat":43.29792,"lon":5.38109,"is_reserved":false,"is_disabled":false,"rental_uris":{"android":"levelo://app?vid=e698eee7-8f58-44b4-8fed-c586a89d6685","ios":"levelo://app?vid=e698eee7-8f58-44b4-8fed-c586a89d6685"},"vehicle_type_id":"4","last_reported":1730581646,"current_range_meters":38800,"station_id":"ce4bgip2rcd13ifvqbb0","pricing_plan_id":"cebpf4jnsgd1na2vs0mg"},{"bike_id":"07ed26ca-4461-444f-a37e-6900b4476044","system_id":"levelo_inurba_marseille","lat":43.2902,"lon":5.38631,"is_reserved":false,"is_disabled":false,"rental_uris":{"android":"levelo://app?vid=07ed26ca-4461-444f-a37e-6900b4476044","ios":"levelo://app?vid=07ed26ca-4461-444f-a37e-6900b4476044"},"vehicle_type_id":"4","last_reported":1730581646,"current_range_meters":10800,"station_id":"ce4bh4p2rcd13ifvqe0g","pricing_plan_id":"cebpf4jnsgd1na2vs0mg"},{"bike_id":"d4986541-9a9b-4a5b-bb55-b01d5cb4582e","system_id":"levelo_inurba_marseille","lat":43.29257,"lon":5.38438,"is_reserved":false,"is_disabled":false,"rental_uris":{"android":"levelo://app?vid=d4986541-9a9b-4a5b-bb55-b01d5cb4582e","ios":"levelo://app?vid=d4986541-9a9b-4a5b-bb55-b01d5cb4582e"},"vehicle_type_id":"4","last_reported":1730581646,"current_range_meters":6800,"station_id":"ce4bh692rcd13ifvqea0","pricing_plan_id":"cebpf4jnsgd1na2vs0mg"},{"bike_id":"a2575e9a-deb3-4ec8-bc88-3a47bf2b627e","system_id":"levelo_inurba_marseille","lat":43.29255,"lon":5.38437,"is_reserved":false,"is_disabled":false,"rental_uris":{"android":"levelo://app?vid=a2575e9a-deb3-4ec8-bc88-3a47bf2b627e","ios":"levelo://app?vid=a2575e9a-deb3-4ec8-bc88-3a47bf2b627e"},"vehicle_type_id":"4","last_reported":1730581646,"current_range_meters":34000,"station_id":"ce4bh692rcd13ifvqea0","pricing_plan_id":"cebpf4jnsgd1na2vs0mg"},{"bike_id":"8365c946-beae-47ce-87c4-1094a86c3535","system_id":"levelo_inurba_marseille","lat":43.25118,"lon":5.40324,"is_reserved":false,"is_disabled":false,"rental_uris":{"android":"levelo://app?vid=8365c946-beae-47ce-87c4-1094a86c3535","ios":"levelo://app?vid=8365c946-beae-47ce-87c4-1094a86c3535"},"vehicle_type_id":"4","last_reported":1730581646,"current_range_meters":17600,"station_id":"ce4bhlh2rcd13ifvqgig","pricing_plan_id":"cebpf4jnsgd1na2vs0mg"},{"bike_id":"8ff74fc6-3719-48fe-ad07-35f2cba81534","system_id":"levelo_inurba_marseille","lat":43.29417,"lon":5.38619,"is_reserved":false,"is_disabled":false,"rental_uris":{"android":"levelo://app?vid=8ff74fc6-3719-48fe-ad07-35f2cba81534","ios":"levelo://app?vid=8ff74fc6-3719-48fe-ad07-35f2cba81534"},"vehicle_type_id":"4","last_reported":1730581646,"current_range_meters":26800,"station_id":"ce4bh2h2rcd13ifvqdh0","pricing_plan_id":"cebpf4jnsgd1na2vs0mg"},{"bike_id":"6e1fac28-e571-4551-a4f3-49b4ce0525f2","system_id":"levelo_inurba_marseille","lat":43.29414,"lon":5.38619,"is_reserved":false,"is_disabled":false,"rental_uris":{"android":"levelo://app?vid=6e1fac28-e571-4551-a4f3-49b4ce0525f2","ios":"levelo://app?vid=6e1fac28-e571-4551-a4f3-49b4ce0525f2"},"vehicle_type_id":"4","last_reported":1730581646,"current_range_meters":14800,"station_id":"ce4bh2h2rcd13ifvqdh0","pricing_plan_id":"cebpf4jnsgd1na2vs0mg"},{"bike_id":"1b760ddd-e34d-491f-9c82-3266310982c8","system_id":"levelo_inurba_marseille","lat":43.26559,"lon":5.37285,"is_reserved":false,"is_disabled":false,"rental_uris":{"android":"levelo://app?vid=1b760ddd-e34d-491f-9c82-3266310982c8","ios":"levelo://app?vid=1b760ddd-e34d-491f-9c82-3266310982c8"},"vehicle_type_id":"4","last_reported":1730581646,"current_range_meters":6800,"station_id":"ce4bhg12rcd13ifvqf70","pricing_plan_id":"cebpf4jnsgd1na2vs0mg"},{"bike_id":"c0dc4e74-ab52-4977-9e54-51b3e1aaadb5","system_id":"levelo_inurba_marseille","lat":43.29019,"lon":5.38131,"is_reserved":false,"is_disabled":false,"rental_uris":{"android":"levelo://app?vid=c0dc4e74-ab52-4977-9e54-51b3e1aaadb5","ios":"levelo://app?vid=c0dc4e74-ab52-4977-9e54-51b3e1aaadb5"},"vehicle_type_id":"4","last_reported":1730581646,"current_range_meters":12000,"station_id":"ce4bh4p2rcd13ifvqe1g","pricing_plan_id":"cebpf4jnsgd1na2vs0mg"},{"bike_id":"0e7dc9ac-472a-4a66-8349-cd60c3504f74","system_id":"levelo_inurba_marseille","lat":43.29914,"lon":5.3804,"is_reserved":false,"is_disabled":false,"rental_uris":{"android":"levelo://app?vid=0e7dc9ac-472a-4a66-8349-cd60c3504f74","ios":"levelo://app?vid=0e7dc9ac-472a-4a66-8349-cd60c3504f74"},"vehicle_type_id":"4","last_reported":1730581646,"current_range_meters":38800,"station_id":"","pricing_plan_id":"cebpf4jnsgd1na2vs0mg"},{"bike_id":"f06c7249-7b13-41ee-9e09-1b09878a1aee","system_id":"levelo_inurba_marseille","lat":43.29421,"lon":5.38617,"is_reserved":false,"is_disabled":false,"rental_uris":{"android":"levelo://app?vid=f06c7249-7b13-41ee-9e09-1b09878a1aee","ios":"levelo://app?vid=f06c7249-7b13-41ee-9e09-1b09878a1aee"},"vehicle_type_id":"4","last_reported":1730581646,"current_range_meters":38800,"station_id":"ce4bh2h2rcd13ifvqdh0","pricing_plan_id":"cebpf4jnsgd1na2vs0mg"},{"bike_id":"c6176e72-1317-4a2a-99f4-9a0c6661ef54","system_id":"levelo_inurba_marseille","lat":43.29984,"lon":5.38492,"is_reserved":false,"is_disabled":false,"rental_uris":{"android":"levelo://app?vid=c6176e72-1317-4a2a-99f4-9a0c6661ef54","ios":"levelo://app?vid=c6176e72-1317-4a2a-99f4-9a0c6661ef54"},"vehicle_type_id":"4","last_reported":1730581646,"current_range_meters":25600,"station_id":"ce4bgj92rcd13ifvqbd0","pricing_plan_id":"cebpf4jnsgd1na2vs0mg"},{"bike_id":"38f76228-741a-4f06-9884-77f77e60cf4a","system_id":"levelo_inurba_marseille","lat":43.23072,"lon":5.40489,"is_reserved":false,"is_disabled":false,"rental_uris":{"android":"levelo://app?vid=38f76228-741a-4f06-9884-77f77e60cf4a","ios":"levelo://app?vid=38f76228-741a-4f06-9884-77f77e60cf4a"},"vehicle_type_id":"4","last_reported":1730581646,"current_range_meters":8800,"station_id":"","pricing_plan_id":"cebpf4jnsgd1na2vs0mg"},{"bike_id":"55f9175c-b528-4bd1-8ba2-c3100dc8688b","system_id":"levelo_inurba_marseille","lat":43.29532,"lon":5.3854,"is_reserved":false,"is_disabled":false,"rental_uris":{"android":"levelo://app?vid=55f9175c-b528-4bd1-8ba2-c3100dc8688b","ios":"levelo://app?vid=55f9175c-b528-4bd1-8ba2-c3100dc8688b"},"vehicle_type_id":"4","last_reported":1730581646,"current_range_meters":36800,"station_id":"ce4bgih2rcd13ifvqba0","pricing_plan_id":"cebpf4jnsgd1na2vs0mg"},{"bike_id":"61497ec0-6b91-4085-893e-2dc4cbab5392","system_id":"levelo_inurba_marseille","lat":43.32367,"lon":5.38894,"is_reserved":false,"is_disabled":false,"rental_uris":{"android":"levelo://app?vid=61497ec0-6b91-4085-893e-2dc4cbab5392","ios":"levelo://app?vid=61497ec0-6b91-4085-893e-2dc4cbab5392"},"vehicle_type_id":"4","last_reported":1730581646,"current_range_meters":26000,"station_id":"ce4bhqp2rcd13ifvqhog","pricing_plan_id":"cebpf4jnsgd1na2vs0mg"},{"bike_id":"fe482b33-3949-4b1e-a00e-afd6c09217c2","system_id":"levelo_inurba_marseille","lat":43.29969,"lon":5.38503,"is_reserved":false,"is_disabled":false,"rental_uris":{"android":"levelo://app?vid=fe482b33-3949-4b1e-a00e-afd6c09217c2","ios":"levelo://app?vid=fe482b33-3949-4b1e-a00e-afd6c09217c2"},"vehicle_type_id":"4","last_reported":1730581646,"current_range_meters":33600,"station_id":"ce4bgj92rcd13ifvqbd0","pricing_plan_id":"cebpf4jnsgd1na2vs0mg"},{"bike_id":"6b7a3137-f431-40ec-9caf-addf256082a5","system_id":"levelo_inurba_marseille","lat":43.2926,"lon":5.38443,"is_reserved":false,"is_disabled":false,"rental_uris":{"android":"levelo://app?vid=6b7a3137-f431-40ec-9caf-addf256082a5","ios":"levelo://app?vid=6b7a3137-f431-40ec-9caf-addf256082a5"},"vehicle_type_id":"4","last_reported":1730581646,"current_range_meters":9200,"station_id":"ce4bh692rcd13ifvqea0","pricing_plan_id":"cebpf4jnsgd1na2vs0mg"},{"bike_id":"e55d8d6f-7394-4584-af8a-c65aaa7989ef","system_id":"levelo_inurba_marseille","lat":43.26064,"lon":5.39392,"is_reserved":false,"is_disabled":false,"rental_uris":{"android":"levelo://app?vid=e55d8d6f-7394-4584-af8a-c65aaa7989ef","ios":"levelo://app?vid=e55d8d6f-7394-4584-af8a-c65aaa7989ef"},"vehicle_type_id":"4","last_reported":1730581646,"current_range_meters":8400,"station_id":"ce4bhh92rcd13ifvqfj0","pricing_plan_id":"cebpf4jnsgd1na2vs0mg"},{"bike_id":"423c66f4-465b-4ffe-a803-edac391437f7","system_id":"levelo_inurba_marseille","lat":43.3019,"lon":5.36622,"is_reserved":false,"is_disabled":false,"rental_uris":{"android":"levelo://app?vid=423c66f4-465b-4ffe-a803-edac391437f7","ios":"levelo://app?vid=423c66f4-465b-4ffe-a803-edac391437f7"},"vehicle_type_id":"4","last_reported":1730581646,"current_range_meters":6400,"station_id":"ce4bgrh2rcd13ifvqc8g","pricing_plan_id":"cebpf4jnsgd1na2vs0mg"},{"bike_id":"d3f56f17-ac1a-464c-b9d7-9bc3311153ab","system_id":"levelo_inurba_marseille","lat":43.24658,"lon":5.38158,"is_reserved":false,"is_disabled":false,"rental_uris":{"android":"levelo://app?vid=d3f56f17-ac1a-464c-b9d7-9bc3311153ab","ios":"levelo://app?vid=d3f56f17-ac1a-464c-b9d7-9bc3311153ab"},"vehicle_type_id":"4","last_reported":1730581646,"current_range_meters":8400,"station_id":"ce4bhih2rcd13ifvqfr0","pricing_plan_id":"cebpf4jnsgd1na2vs0mg"},{"bike_id":"c9836de4-dae6-4bfc-aef6-8b7c0c537e63","system_id":"levelo_inurba_marseille","lat":43.25874,"lon":5.39901,"is_reserved":false,"is_disabled":false,"rental_uris":{"android":"levelo://app?vid=c9836de4-dae6-4bfc-aef6-8b7c0c537e63","ios":"levelo://app?vid=c9836de4-dae6-4bfc-aef6-8b7c0c537e63"},"vehicle_type_id":"4","last_reported":1730581646,"current_range_meters":10800,"station_id":"ce4bhl92rcd13ifvqghg","pricing_plan_id":"cebpf4jnsgd1na2vs0mg"},{"bike_id":"364330fd-4c6d-450f-ad68-32c54984429e","system_id":"levelo_inurba_marseille","lat":43.287384,"lon":5.400441,"is_reserved":false,"is_disabled":false,"rental_uris":{"android":"levelo://app?vid=364330fd-4c6d-450f-ad68-32c54984429e","ios":"levelo://app?vid=364330fd-4c6d-450f-ad68-32c54984429e"},"vehicle_type_id":"4","last_reported":1730581646,"current_range_meters":36800,"station_id":"ce4bho92rcd13ifvqh3g","pricing_plan_id":"cebpf4jnsgd1na2vs0mg"},{"bike_id":"49f0f2d2-d3bb-4098-8c41-801a52b040be","system_id":"levelo_inurba_marseille","lat":43.28341,"lon":5.38108,"is_reserved":false,"is_disabled":false,"rental_uris":{"android":"levelo://app?vid=49f0f2d2-d3bb-4098-8c41-801a52b040be","ios":"levelo://app?vid=49f0f2d2-d3bb-4098-8c41-801a52b040be"},"vehicle_type_id":"4","last_reported":1730581646,"current_range_meters":38800,"station_id":"ce4bh412rcd13ifvqdr0","pricing_plan_id":"cebpf4jnsgd1na2vs0mg"},{"bike_id":"6338020e-474a-4c99-b365-eea26fe54739","system_id":"levelo_inurba_marseille","lat":43.32288,"lon":5.38278,"is_reserved":false,"is_disabled":false,"rental_uris":{"android":"levelo://app?vid=6338020e-474a-4c99-b365-eea26fe54739","ios":"levelo://app?vid=6338020e-474a-4c99-b365-eea26fe54739"},"vehicle_type_id":"4","last_reported":1730581646,"current_range_meters":38800,"station_id":"ce4bhr12rcd13ifvqhqg","pricing_plan_id":"cebpf4jnsgd1na2vs0mg"},{"bike_id":"3cc80ee9-2790-4698-ba87-e0a476c104f2","system_id":"levelo_inurba_marseille","lat":43.29254,"lon":5.38446,"is_reserved":false,"is_disabled":false,"rental_uris":{"android":"levelo://app?vid=3cc80ee9-2790-4698-ba87-e0a476c104f2","ios":"levelo://app?vid=3cc80ee9-2790-4698-ba87-e0a476c104f2"},"vehicle_type_id":"4","last_reported":1730581646,"current_range_meters":27600,"station_id":"ce4bh692rcd13ifvqea0","pricing_plan_id":"cebpf4jnsgd1na2vs0mg"},{"bike_id":"cd8f0d38-832b-43a2-8d6b-cb4afea04963","system_id":"levelo_inurba_marseille","lat":43.26209,"lon":5.3744,"is_reserved":false,"is_disabled":false,"rental_uris":{"android":"levelo://app?vid=cd8f0d38-832b-43a2-8d6b-cb4afea04963","ios":"levelo://app?vid=cd8f0d38-832b-43a2-8d6b-cb4afea04963"},"vehicle_type_id":"4","last_reported":1730581646,"current_range_meters":36000,"station_id":"ce4bhgp2rcd13ifvqfc0","pricing_plan_id":"cebpf4jnsgd1na2vs0mg"},{"bike_id":"d91de0d7-9c42-40d6-96e2-b4e55964de18","system_id":"levelo_inurba_marseille","lat":43.29308,"lon":5.37173,"is_reserved":false,"is_disabled":false,"rental_uris":{"android":"levelo://app?vid=d91de0d7-9c42-40d6-96e2-b4e55964de18","ios":"levelo://app?vid=d91de0d7-9c42-40d6-96e2-b4e55964de18"},"vehicle_type_id":"4","last_reported":1730581646,"current_range_meters":38400,"station_id":"ce4bgh92rcd13ifvqb40","pricing_plan_id":"cebpf4jnsgd1na2vs0mg"},{"bike_id":"f3211835-4a7f-430c-8e8d-75fd7f1453c1","system_id":"levelo_inurba_marseille","lat":43.29097,"lon":5.38139,"is_reserved":false,"is_disabled":false,"rental_uris":{"android":"levelo://app?vid=f3211835-4a7f-430c-8e8d-75fd7f1453c1","ios":"levelo://app?vid=f3211835-4a7f-430c-8e8d-75fd7f1453c1"},"vehicle_type_id":"4","last_reported":1730581646,"current_range_meters":38800,"station_id":"ce4bh512rcd13ifvqe2g","pricing_plan_id":"cebpf4jnsgd1na2vs0mg"},{"bike_id":"87a376fb-c094-4e24-8c76-8b95c273a754","system_id":"levelo_inurba_marseille","lat":43.29417,"lon":5.3863,"is_reserved":false,"is_disabled":false,"rental_uris":{"android":"levelo://app?vid=87a376fb-c094-4e24-8c76-8b95c273a754","ios":"levelo://app?vid=87a376fb-c094-4e24-8c76-8b95c273a754"},"vehicle_type_id":"4","last_reported":1730581646,"current_range_meters":38800,"station_id":"ce4bh2h2rcd13ifvqdh0","pricing_plan_id":"cebpf4jnsgd1na2vs0mg"},{"bike_id":"92724032-217a-478a-997f-f20c7f32bd79","system_id":"levelo_inurba_marseille","lat":43.29876,"lon":5.38916,"is_reserved":false,"is_disabled":false,"rental_uris":{"android":"levelo://app?vid=92724032-217a-478a-997f-f20c7f32bd79","ios":"levelo://app?vid=92724032-217a-478a-997f-f20c7f32bd79"},"vehicle_type_id":"4","last_reported":1730581646,"current_range_meters":24400,"station_id":"ce4bh392rcd13ifvqdl0","pricing_plan_id":"cebpf4jnsgd1na2vs0mg"},{"bike_id":"10baeb8d-6037-4049-8d95-d6633cd6055b","system_id":"levelo_inurba_marseille","lat":43.24998,"lon":5.38931,"is_reserved":false,"is_disabled":false,"rental_uris":{"android":"levelo://app?vid=10baeb8d-6037-4049-8d95-d6633cd6055b","ios":"levelo://app?vid=10baeb8d-6037-4049-8d95-d6633cd6055b"},"vehicle_type_id":"4","last_reported":1730581646,"current_range_meters":29600,"station_id":"ce4bhgp2rcd13ifvqfd0","pricing_plan_id":"cebpf4jnsgd1na2vs0mg"},{"bike_id":"f35cd096-8317-409a-9875-97da0ea574d4","system_id":"levelo_inurba_marseille","lat":43.3254,"lon":5.41461,"is_reserved":false,"is_disabled":false,"rental_uris":{"android":"levelo://app?vid=f35cd096-8317-409a-9875-97da0ea574d4","ios":"levelo://app?vid=f35cd096-8317-409a-9875-97da0ea574d4"},"vehicle_type_id":"4","last_reported":1730581646,"current_range_meters":6400,"station_id":"ce4bhq12rcd13ifvqhhg","pricing_plan_id":"cebpf4jnsgd1na2vs0mg"},{"bike_id":"eebc77bc-ad92-499e-81c0-e8c6d3838057","system_id":"levelo_inurba_marseille","lat":43.2942,"lon":5.38624,"is_reserved":false,"is_disabled":false,"rental_uris":{"android":"levelo://app?vid=eebc77bc-ad92-499e-81c0-e8c6d3838057","ios":"levelo://app?vid=eebc77bc-ad92-499e-81c0-e8c6d3838057"},"vehicle_type_id":"4","last_reported":1730581646,"current_range_meters":38800,"station_id":"ce4bh2h2rcd13ifvqdh0","pricing_plan_id":"cebpf4jnsgd1na2vs0mg"},{"bike_id":"a2aaf510-ff02-4065-8e1d-8914245c6c3c","system_id":"levelo_inurba_marseille","lat":43.291982,"lon":5.393202,"is_reserved":false,"is_disabled":false,"rental_uris":{"android":"levelo://app?vid=a2aaf510-ff02-4065-8e1d-8914245c6c3c","ios":"levelo://app?vid=a2aaf510-ff02-4065-8e1d-8914245c6c3c"},"vehicle_type_id":"4","last_reported":1730581646,"current_range_meters":30000,"station_id":"ce4bh192rcd13ifvqdd0","pricing_plan_id":"cebpf4jnsgd1na2vs0mg"},{"bike_id":"cbb14d5a-ea36-4e02-8b75-05ed8b226d6d","system_id":"levelo_inurba_marseille","lat":43.29265,"lon":5.38441,"is_reserved":false,"is_disabled":false,"rental_uris":{"android":"levelo://app?vid=cbb14d5a-ea36-4e02-8b75-05ed8b226d6d","ios":"levelo://app?vid=cbb14d5a-ea36-4e02-8b75-05ed8b226d6d"},"vehicle_type_id":"4","last_reported":1730581646,"current_range_meters":20400,"station_id":"ce4bh692rcd13ifvqea0","pricing_plan_id":"cebpf4jnsgd1na2vs0mg"},{"bike_id":"1ddde7ff-3953-4942-bfab-1d2712b93546","system_id":"levelo_inurba_marseille","lat":43.31708,"lon":5.37733,"is_reserved":false,"is_disabled":false,"rental_uris":{"android":"levelo://app?vid=1ddde7ff-3953-4942-bfab-1d2712b93546","ios":"levelo://app?vid=1ddde7ff-3953-4942-bfab-1d2712b93546"},"vehicle_type_id":"4","last_reported":1730581646,"current_range_meters":30000,"station_id":"ce4bgth2rcd13ifvqch0","pricing_plan_id":"cebpf4jnsgd1na2vs0mg"},{"bike_id":"7261abbc-bef1-40b4-8225-29e060af6a97","system_id":"levelo_inurba_marseille","lat":43.27998,"lon":5.41665,"is_reserved":false,"is_disabled":false,"rental_uris":{"android":"levelo://app?vid=7261abbc-bef1-40b4-8225-29e060af6a97","ios":"levelo://app?vid=7261abbc-bef1-40b4-8225-29e060af6a97"},"vehicle_type_id":"4","last_reported":1730581646,"current_range_meters":38800,"station_id":"ce4bho12rcd13ifvqh1g","pricing_plan_id":"cebpf4jnsgd1na2vs0mg"},{"bike_id":"fe160e20-0451-45fb-82b3-952dbf8df3ef","system_id":"levelo_inurba_marseille","lat":43.29292,"lon":5.37452,"is_reserved":false,"is_disabled":false,"rental_uris":{"android":"levelo://app?vid=fe160e20-0451-45fb-82b3-952dbf8df3ef","ios":"levelo://app?vid=fe160e20-0451-45fb-82b3-952dbf8df3ef"},"vehicle_type_id":"4","last_reported":1730581646,"current_range_meters":37600,"station_id":"ce4bgi12rcd13ifvqb70","pricing_plan_id":"cebpf4jnsgd1na2vs0mg"},{"bike_id":"18402065-9e87-476b-95ad-30853de181a0","system_id":"levelo_inurba_marseille","lat":43.3245,"lon":5.45543,"is_reserved":false,"is_disabled":false,"rental_uris":{"android":"levelo://app?vid=18402065-9e87-476b-95ad-30853de181a0","ios":"levelo://app?vid=18402065-9e87-476b-95ad-30853de181a0"},"vehicle_type_id":"4","last_reported":1730581646,"current_range_meters":6400,"station_id":"","pricing_plan_id":"cebpf4jnsgd1na2vs0mg"},{"bike_id":"43c9b72e-cbf6-417e-affd-3fc6b5fef531","system_id":"levelo_inurba_marseille","lat":43.29261,"lon":5.38441,"is_reserved":false,"is_disabled":false,"rental_uris":{"android":"levelo://app?vid=43c9b72e-cbf6-417e-affd-3fc6b5fef531","ios":"levelo://app?vid=43c9b72e-cbf6-417e-affd-3fc6b5fef531"},"vehicle_type_id":"4","last_reported":1730581646,"current_range_meters":4000,"station_id":"ce4bh692rcd13ifvqea0","pricing_plan_id":"cebpf4jnsgd1na2vs0mg"},{"bike_id":"4eb01b0d-49fc-48ee-b782-54d621657f1b","system_id":"levelo_inurba_marseille","lat":43.3189,"lon":5.40752,"is_reserved":false,"is_disabled":false,"rental_uris":{"android":"levelo://app?vid=4eb01b0d-49fc-48ee-b782-54d621657f1b","ios":"levelo://app?vid=4eb01b0d-49fc-48ee-b782-54d621657f1b"},"vehicle_type_id":"4","last_reported":1730581646,"current_range_meters":34800,"station_id":"ce4bhq12rcd13ifvqhig","pricing_plan_id":"cebpf4jnsgd1na2vs0mg"},{"bike_id":"ff759631-9747-4e89-8485-4a4b07c62c2b","system_id":"levelo_inurba_marseille","lat":43.29422,"lon":5.38622,"is_reserved":false,"is_disabled":false,"rental_uris":{"android":"levelo://app?vid=ff759631-9747-4e89-8485-4a4b07c62c2b","ios":"levelo://app?vid=ff759631-9747-4e89-8485-4a4b07c62c2b"},"vehicle_type_id":"4","last_reported":1730581646,"current_range_meters":38400,"station_id":"ce4bh2h2rcd13ifvqdh0","pricing_plan_id":"cebpf4jnsgd1na2vs0mg"},{"bike_id":"9f3178e5-569d-4c41-89b0-b8d0ab45dbf4","system_id":"levelo_inurba_marseille","lat":43.3188,"lon":5.40729,"is_reserved":false,"is_disabled":false,"rental_uris":{"android":"levelo://app?vid=9f3178e5-569d-4c41-89b0-b8d0ab45dbf4","ios":"levelo://app?vid=9f3178e5-569d-4c41-89b0-b8d0ab45dbf4"},"vehicle_type_id":"4","last_reported":1730581646,"current_range_meters":30400,"station_id":"ce4bhq12rcd13ifvqhig","pricing_plan_id":"cebpf4jnsgd1na2vs0mg"},{"bike_id":"c7a6a60a-ebc3-43dc-847c-5817f23f3b49","system_id":"levelo_inurba_marseille","lat":43.25732,"lon":5.41107,"is_reserved":false,"is_disabled":false,"rental_uris":{"android":"levelo://app?vid=c7a6a60a-ebc3-43dc-847c-5817f23f3b49","ios":"levelo://app?vid=c7a6a60a-ebc3-43dc-847c-5817f23f3b49"},"vehicle_type_id":"4","last_reported":1730581646,"current_range_meters":9200,"station_id":"ce4bhkp2rcd13ifvqgd0","pricing_plan_id":"cebpf4jnsgd1na2vs0mg"},{"bike_id":"783383f5-2d80-471f-91f9-f76f30194918","system_id":"levelo_inurba_marseille","lat":43.29596,"lon":5.38101,"is_reserved":false,"is_disabled":false,"rental_uris":{"android":"levelo://app?vid=783383f5-2d80-471f-91f9-f76f30194918","ios":"levelo://app?vid=783383f5-2d80-471f-91f9-f76f30194918"},"vehicle_type_id":"4","last_reported":1730581646,"current_range_meters":18800,"station_id":"ce4bgl12rcd13ifvqbo0","pricing_plan_id":"cebpf4jnsgd1na2vs0mg"},{"bike_id":"850c91ae-1f4d-4484-a5f9-e32dfca724ff","system_id":"levelo_inurba_marseille","lat":43.29251,"lon":5.38433,"is_reserved":false,"is_disabled":false,"rental_uris":{"android":"levelo://app?vid=850c91ae-1f4d-4484-a5f9-e32dfca724ff","ios":"levelo://app?vid=850c91ae-1f4d-4484-a5f9-e32dfca724ff"},"vehicle_type_id":"4","last_reported":1730581646,"current_range_meters":32800,"station_id":"ce4bh692rcd13ifvqea0","pricing_plan_id":"cebpf4jnsgd1na2vs0mg"},{"bike_id":"8a1a733a-6176-43e5-b055-d601cf830be6","system_id":"levelo_inurba_marseille","lat":43.29251,"lon":5.38432,"is_reserved":false,"is_disabled":false,"rental_uris":{"android":"levelo://app?vid=8a1a733a-6176-43e5-b055-d601cf830be6","ios":"levelo://app?vid=8a1a733a-6176-43e5-b055-d601cf830be6"},"vehicle_type_id":"4","last_reported":1730581646,"current_range_meters":22400,"station_id":"ce4bh692rcd13ifvqea0","pricing_plan_id":"cebpf4jnsgd1na2vs0mg"},{"bike_id":"350dcabe-106f-4825-b4a5-0ffc79cd93f8","system_id":"levelo_inurba_marseille","lat":43.2927,"lon":5.36853,"is_reserved":false,"is_disabled":false,"rental_uris":{"android":"levelo://app?vid=350dcabe-106f-4825-b4a5-0ffc79cd93f8","ios":"levelo://app?vid=350dcabe-106f-4825-b4a5-0ffc79cd93f8"},"vehicle_type_id":"4","last_reported":1730581646,"current_range_meters":18000,"station_id":"ce4bhbp2rcd13ifvqesg","pricing_plan_id":"cebpf4jnsgd1na2vs0mg"},{"bike_id":"dd6c85de-9a1a-4d20-8d47-a7a9553d5b7d","system_id":"levelo_inurba_marseille","lat":43.29423,"lon":5.3863,"is_reserved":false,"is_disabled":false,"rental_uris":{"android":"levelo://app?vid=dd6c85de-9a1a-4d20-8d47-a7a9553d5b7d","ios":"levelo://app?vid=dd6c85de-9a1a-4d20-8d47-a7a9553d5b7d"},"vehicle_type_id":"4","last_reported":1730581646,"current_range_meters":8800,"station_id":"ce4bh2h2rcd13ifvqdh0","pricing_plan_id":"cebpf4jnsgd1na2vs0mg"},{"bike_id":"c1e3f1fb-a976-4c88-946a-c0964acf9cad","system_id":"levelo_inurba_marseille","lat":43.27569,"lon":5.38425,"is_reserved":false,"is_disabled":false,"rental_uris":{"android":"levelo://app?vid=c1e3f1fb-a976-4c88-946a-c0964acf9cad","ios":"levelo://app?vid=c1e3f1fb-a976-4c88-946a-c0964acf9cad"},"vehicle_type_id":"4","last_reported":1730581646,"current_range_meters":27600,"station_id":"ce4bhh92rcd13ifvqfi0","pricing_plan_id":"cebpf4jnsgd1na2vs0mg"},{"bike_id":"954bb3f6-630c-4f6c-851f-ea6273be0fdc","system_id":"levelo_inurba_marseille","lat":43.29368,"lon":5.37846,"is_reserved":false,"is_disabled":false,"rental_uris":{"android":"levelo://app?vid=954bb3f6-630c-4f6c-851f-ea6273be0fdc","ios":"levelo://app?vid=954bb3f6-630c-4f6c-851f-ea6273be0fdc"},"vehicle_type_id":"4","last_reported":1730581646,"current_range_meters":9200,"station_id":"ce4bgjh2rcd13ifvqbf0","pricing_plan_id":"cebpf4jnsgd1na2vs0mg"},{"bike_id":"d8b4fbd5-7764-42f5-a8fb-df401852c903","system_id":"levelo_inurba_marseille","lat":43.29016,"lon":5.38622,"is_reserved":false,"is_disabled":false,"rental_uris":{"android":"levelo://app?vid=d8b4fbd5-7764-42f5-a8fb-df401852c903","ios":"levelo://app?vid=d8b4fbd5-7764-42f5-a8fb-df401852c903"},"vehicle_type_id":"4","last_reported":1730581646,"current_range_meters":26800,"station_id":"ce4bh4p2rcd13ifvqe0g","pricing_plan_id":"cebpf4jnsgd1na2vs0mg"},{"bike_id":"4803c46b-0071-490d-8b16-b83cd110b0e7","system_id":"levelo_inurba_marseille","lat":43.2621,"lon":5.37449,"is_reserved":false,"is_disabled":false,"rental_uris":{"android":"levelo://app?vid=4803c46b-0071-490d-8b16-b83cd110b0e7","ios":"levelo://app?vid=4803c46b-0071-490d-8b16-b83cd110b0e7"},"vehicle_type_id":"4","last_reported":1730581646,"current_range_meters":37600,"station_id":"ce4bhgp2rcd13ifvqfc0","pricing_plan_id":"cebpf4jnsgd1na2vs0mg"},{"bike_id":"44b72ee0-4564-472d-9705-f0220de9aefe","system_id":"levelo_inurba_marseille","lat":43.25503,"lon":5.37652,"is_reserved":false,"is_disabled":false,"rental_uris":{"android":"levelo://app?vid=44b72ee0-4564-472d-9705-f0220de9aefe","ios":"levelo://app?vid=44b72ee0-4564-472d-9705-f0220de9aefe"},"vehicle_type_id":"4","last_reported":1730581646,"current_range_meters":21600,"station_id":"ce4bhh12rcd13ifvqff0","pricing_plan_id":"cebpf4jnsgd1na2vs0mg"},{"bike_id":"e4076913-25a7-4304-83b4-9b1933c6ed9b","system_id":"levelo_inurba_marseille","lat":43.27993,"lon":5.4002,"is_reserved":false,"is_disabled":false,"rental_uris":{"android":"levelo://app?vid=e4076913-25a7-4304-83b4-9b1933c6ed9b","ios":"levelo://app?vid=e4076913-25a7-4304-83b4-9b1933c6ed9b"},"vehicle_type_id":"4","last_reported":1730581646,"current_range_meters":38800,"station_id":"ce4bho92rcd13ifvqh4g","pricing_plan_id":"cebpf4jnsgd1na2vs0mg"},{"bike_id":"c556fa49-b1bf-4288-b7eb-204f11b2e0ee","system_id":"levelo_inurba_marseille","lat":43.29414,"lon":5.38631,"is_reserved":false,"is_disabled":false,"rental_uris":{"android":"levelo://app?vid=c556fa49-b1bf-4288-b7eb-204f11b2e0ee","ios":"levelo://app?vid=c556fa49-b1bf-4288-b7eb-204f11b2e0ee"},"vehicle_type_id":"4","last_reported":1730581646,"current_range_meters":38000,"station_id":"ce4bh2h2rcd13ifvqdh0","pricing_plan_id":"cebpf4jnsgd1na2vs0mg"},{"bike_id":"e766f8c6-ca72-40c6-a70f-ab3b51bad7e3","system_id":"levelo_inurba_marseille","lat":43.29272,"lon":5.36848,"is_reserved":false,"is_disabled":false,"rental_uris":{"android":"levelo://app?vid=e766f8c6-ca72-40c6-a70f-ab3b51bad7e3","ios":"levelo://app?vid=e766f8c6-ca72-40c6-a70f-ab3b51bad7e3"},"vehicle_type_id":"4","last_reported":1730581646,"current_range_meters":36400,"station_id":"ce4bhbp2rcd13ifvqesg","pricing_plan_id":"cebpf4jnsgd1na2vs0mg"},{"bike_id":"900c3659-1c34-41e8-b8af-ac8feeae6fae","system_id":"levelo_inurba_marseille","lat":43.29527,"lon":5.38553,"is_reserved":false,"is_disabled":false,"rental_uris":{"android":"levelo://app?vid=900c3659-1c34-41e8-b8af-ac8feeae6fae","ios":"levelo://app?vid=900c3659-1c34-41e8-b8af-ac8feeae6fae"},"vehicle_type_id":"4","last_reported":1730581646,"current_range_meters":22400,"station_id":"ce4bgih2rcd13ifvqba0","pricing_plan_id":"cebpf4jnsgd1na2vs0mg"},{"bike_id":"3e83e42e-84a1-4fa6-80cb-e77919db3747","system_id":"levelo_inurba_marseille","lat":43.25119,"lon":5.40324,"is_reserved":false,"is_disabled":false,"rental_uris":{"android":"levelo://app?vid=3e83e42e-84a1-4fa6-80cb-e77919db3747","ios":"levelo://app?vid=3e83e42e-84a1-4fa6-80cb-e77919db3747"},"vehicle_type_id":"4","last_reported":1730581646,"current_range_meters":36400,"station_id":"ce4bhlh2rcd13ifvqgig","pricing_plan_id":"cebpf4jnsgd1na2vs0mg"},{"bike_id":"6e6c1416-464f-4f03-9742-bebcc8a06f1e","system_id":"levelo_inurba_marseille","lat":43.31758,"lon":5.39019,"is_reserved":false,"is_disabled":false,"rental_uris":{"android":"levelo://app?vid=6e6c1416-464f-4f03-9742-bebcc8a06f1e","ios":"levelo://app?vid=6e6c1416-464f-4f03-9742-bebcc8a06f1e"},"vehicle_type_id":"4","last_reported":1730581646,"current_range_meters":24000,"station_id":"ce4bhqp2rcd13ifvqhng","pricing_plan_id":"cebpf4jnsgd1na2vs0mg"},{"bike_id":"68ee4823-8219-4e40-934b-3c46becc94f7","system_id":"levelo_inurba_marseille","lat":43.31068,"lon":5.38355,"is_reserved":false,"is_disabled":false,"rental_uris":{"android":"levelo://app?vid=68ee4823-8219-4e40-934b-3c46becc94f7","ios":"levelo://app?vid=68ee4823-8219-4e40-934b-3c46becc94f7"},"vehicle_type_id":"4","last_reported":1730581646,"current_range_meters":33600,"station_id":"ce4bgv92rcd13ifvqcr0","pricing_plan_id":"cebpf4jnsgd1na2vs0mg"},{"bike_id":"c14b910d-c438-4986-9edc-d74caf84b8bd","system_id":"levelo_inurba_marseille","lat":43.25823,"lon":5.39436,"is_reserved":false,"is_disabled":false,"rental_uris":{"android":"levelo://app?vid=c14b910d-c438-4986-9edc-d74caf84b8bd","ios":"levelo://app?vid=c14b910d-c438-4986-9edc-d74caf84b8bd"},"vehicle_type_id":"4","last_reported":1730581646,"current_range_meters":38800,"station_id":"ce4bhip2rcd13ifvqft0","pricing_plan_id":"cebpf4jnsgd1na2vs0mg"},{"bike_id":"01401264-e55f-4ab9-8d92-972bb9bb49f6","system_id":"levelo_inurba_marseille","lat":43.30232,"lon":5.40056,"is_reserved":false,"is_disabled":false,"rental_uris":{"android":"levelo://app?vid=01401264-e55f-4ab9-8d92-972bb9bb49f6","ios":"levelo://app?vid=01401264-e55f-4ab9-8d92-972bb9bb49f6"},"vehicle_type_id":"4","last_reported":1730581646,"current_range_meters":35200,"station_id":"","pricing_plan_id":"cebpf4jnsgd1na2vs0mg"},{"bike_id":"4b775463-cf5a-40b4-8149-f6b055abd79c","system_id":"levelo_inurba_marseille","lat":43.264839,"lon":5.395833,"is_reserved":false,"is_disabled":false,"rental_uris":{"android":"levelo://app?vid=4b775463-cf5a-40b4-8149-f6b055abd79c","ios":"levelo://app?vid=4b775463-cf5a-40b4-8149-f6b055abd79c"},"vehicle_type_id":"4","last_reported":1730581646,"current_range_meters":38800,"station_id":"ce4bhi12rcd13ifvqfq0","pricing_plan_id":"cebpf4jnsgd1na2vs0mg"},{"bike_id":"e74f712e-8cad-4a9d-9601-4cfc15e43810","system_id":"levelo_inurba_marseille","lat":43.271763,"lon":5.410016,"is_reserved":false,"is_disabled":false,"rental_uris":{"android":"levelo://app?vid=e74f712e-8cad-4a9d-9601-4cfc15e43810","ios":"levelo://app?vid=e74f712e-8cad-4a9d-9601-4cfc15e43810"},"vehicle_type_id":"4","last_reported":1730581646,"current_range_meters":8000,"station_id":"ce4bhl12rcd13ifvqgf0","pricing_plan_id":"cebpf4jnsgd1na2vs0mg"},{"bike_id":"5bed4c60-b912-42f6-b099-933c6ebb8aca","system_id":"levelo_inurba_marseille","lat":43.25824,"lon":5.39429,"is_reserved":false,"is_disabled":false,"rental_uris":{"android":"levelo://app?vid=5bed4c60-b912-42f6-b099-933c6ebb8aca","ios":"levelo://app?vid=5bed4c60-b912-42f6-b099-933c6ebb8aca"},"vehicle_type_id":"4","last_reported":1730581646,"current_range_meters":38000,"station_id":"ce4bhip2rcd13ifvqft0","pricing_plan_id":"cebpf4jnsgd1na2vs0mg"},{"bike_id":"b9c605ab-d847-4d81-a947-5a3aa7b39be1","system_id":"levelo_inurba_marseille","lat":43.2988,"lon":5.38906,"is_reserved":false,"is_disabled":false,"rental_uris":{"android":"levelo://app?vid=b9c605ab-d847-4d81-a947-5a3aa7b39be1","ios":"levelo://app?vid=b9c605ab-d847-4d81-a947-5a3aa7b39be1"},"vehicle_type_id":"4","last_reported":1730581646,"current_range_meters":32000,"station_id":"ce4bh392rcd13ifvqdl0","pricing_plan_id":"cebpf4jnsgd1na2vs0mg"},{"bike_id":"631b7075-137a-4ae3-a6c3-e104f00b6db4","system_id":"levelo_inurba_marseille","lat":43.28042,"lon":5.36946,"is_reserved":false,"is_disabled":false,"rental_uris":{"android":"levelo://app?vid=631b7075-137a-4ae3-a6c3-e104f00b6db4","ios":"levelo://app?vid=631b7075-137a-4ae3-a6c3-e104f00b6db4"},"vehicle_type_id":"4","last_reported":1730581646,"current_range_meters":24000,"station_id":"ce4bha12rcd13ifvqef0","pricing_plan_id":"cebpf4jnsgd1na2vs0mg"},{"bike_id":"a7521066-98b7-4a33-9447-150daa0a8900","system_id":"levelo_inurba_marseille","lat":43.30547,"lon":5.36537,"is_reserved":false,"is_disabled":false,"rental_uris":{"android":"levelo://app?vid=a7521066-98b7-4a33-9447-150daa0a8900","ios":"levelo://app?vid=a7521066-98b7-4a33-9447-150daa0a8900"},"vehicle_type_id":"4","last_reported":1730581646,"current_range_meters":38800,"station_id":"ce4bgs12rcd13ifvqcag","pricing_plan_id":"cebpf4jnsgd1na2vs0mg"},{"bike_id":"f118037d-843f-4c64-a315-ff73f4369886","system_id":"levelo_inurba_marseille","lat":43.30098,"lon":5.39083,"is_reserved":false,"is_disabled":false,"rental_uris":{"android":"levelo://app?vid=f118037d-843f-4c64-a315-ff73f4369886","ios":"levelo://app?vid=f118037d-843f-4c64-a315-ff73f4369886"},"vehicle_type_id":"4","last_reported":1730581646,"current_range_meters":36400,"station_id":"ce4bh192rcd13ifvqdb0","pricing_plan_id":"cebpf4jnsgd1na2vs0mg"},{"bike_id":"8c67d340-801d-46e5-b910-2f8aff3ff078","system_id":"levelo_inurba_marseille","lat":43.33327,"lon":5.37055,"is_reserved":false,"is_disabled":false,"rental_uris":{"android":"levelo://app?vid=8c67d340-801d-46e5-b910-2f8aff3ff078","ios":"levelo://app?vid=8c67d340-801d-46e5-b910-2f8aff3ff078"},"vehicle_type_id":"4","last_reported":1730581646,"current_range_meters":8800,"station_id":"","pricing_plan_id":"cebpf4jnsgd1na2vs0mg"},{"bike_id":"1237d480-ed8b-4271-ba17-f88842fad96f","system_id":"levelo_inurba_marseille","lat":43.29419,"lon":5.38627,"is_reserved":false,"is_disabled":false,"rental_uris":{"android":"levelo://app?vid=1237d480-ed8b-4271-ba17-f88842fad96f","ios":"levelo://app?vid=1237d480-ed8b-4271-ba17-f88842fad96f"},"vehicle_type_id":"4","last_reported":1730581646,"current_range_meters":38800,"station_id":"ce4bh2h2rcd13ifvqdh0","pricing_plan_id":"cebpf4jnsgd1na2vs0mg"},{"bike_id":"54cc4ec6-c46d-4e95-9bf2-2a04f02a40ab","system_id":"levelo_inurba_marseille","lat":43.28419,"lon":5.37512,"is_reserved":false,"is_disabled":false,"rental_uris":{"android":"levelo://app?vid=54cc4ec6-c46d-4e95-9bf2-2a04f02a40ab","ios":"levelo://app?vid=54cc4ec6-c46d-4e95-9bf2-2a04f02a40ab"},"vehicle_type_id":"4","last_reported":1730581646,"current_range_meters":33200,"station_id":"ce4bh412rcd13ifvqds0","pricing_plan_id":"cebpf4jnsgd1na2vs0mg"},{"bike_id":"921069e2-e506-477e-8730-9e0ff76dae61","system_id":"levelo_inurba_marseille","lat":43.2407,"lon":5.37763,"is_reserved":false,"is_disabled":false,"rental_uris":{"android":"levelo://app?vid=921069e2-e506-477e-8730-9e0ff76dae61","ios":"levelo://app?vid=921069e2-e506-477e-8730-9e0ff76dae61"},"vehicle_type_id":"4","last_reported":1730581646,"current_range_meters":38400,"station_id":"ce4bhnp2rcd13ifvqgvg","pricing_plan_id":"cebpf4jnsgd1na2vs0mg"},{"bike_id":"e2634b22-5f17-4345-a889-22a44b7f45e9","system_id":"levelo_inurba_marseille","lat":43.27992,"lon":5.40014,"is_reserved":false,"is_disabled":false,"rental_uris":{"android":"levelo://app?vid=e2634b22-5f17-4345-a889-22a44b7f45e9","ios":"levelo://app?vid=e2634b22-5f17-4345-a889-22a44b7f45e9"},"vehicle_type_id":"4","last_reported":1730581646,"current_range_meters":21600,"station_id":"ce4bho92rcd13ifvqh4g","pricing_plan_id":"cebpf4jnsgd1na2vs0mg"},{"bike_id":"1ae70553-660a-46a6-bdc1-546ebe9e96ef","system_id":"levelo_inurba_marseille","lat":43.29966,"lon":5.385,"is_reserved":false,"is_disabled":false,"rental_uris":{"android":"levelo://app?vid=1ae70553-660a-46a6-bdc1-546ebe9e96ef","ios":"levelo://app?vid=1ae70553-660a-46a6-bdc1-546ebe9e96ef"},"vehicle_type_id":"4","last_reported":1730581646,"current_range_meters":19200,"station_id":"ce4bgj92rcd13ifvqbd0","pricing_plan_id":"cebpf4jnsgd1na2vs0mg"},{"bike_id":"704eba55-73fe-495c-8b3d-68b1d87c8902","system_id":"levelo_inurba_marseille","lat":43.29809,"lon":5.40405,"is_reserved":false,"is_disabled":false,"rental_uris":{"android":"levelo://app?vid=704eba55-73fe-495c-8b3d-68b1d87c8902","ios":"levelo://app?vid=704eba55-73fe-495c-8b3d-68b1d87c8902"},"vehicle_type_id":"4","last_reported":1730581646,"current_range_meters":27200,"station_id":"ce4bh112rcd13ifvqd90","pricing_plan_id":"cebpf4jnsgd1na2vs0mg"},{"bike_id":"3cecfd6d-bd24-4212-b339-944e6377506e","system_id":"levelo_inurba_marseille","lat":43.31685,"lon":5.40468,"is_reserved":false,"is_disabled":false,"rental_uris":{"android":"levelo://app?vid=3cecfd6d-bd24-4212-b339-944e6377506e","ios":"levelo://app?vid=3cecfd6d-bd24-4212-b339-944e6377506e"},"vehicle_type_id":"4","last_reported":1730581646,"current_range_meters":25200,"station_id":"ce4bh012rcd13ifvqd00","pricing_plan_id":"cebpf4jnsgd1na2vs0mg"},{"bike_id":"3c90fc8f-ed1d-4e88-8797-d27a0c30fd70","system_id":"levelo_inurba_marseille","lat":43.25721,"lon":5.41114,"is_reserved":false,"is_disabled":false,"rental_uris":{"android":"levelo://app?vid=3c90fc8f-ed1d-4e88-8797-d27a0c30fd70","ios":"levelo://app?vid=3c90fc8f-ed1d-4e88-8797-d27a0c30fd70"},"vehicle_type_id":"4","last_reported":1730581646,"current_range_meters":32800,"station_id":"ce4bhkp2rcd13ifvqgd0","pricing_plan_id":"cebpf4jnsgd1na2vs0mg"},{"bike_id":"825cfe45-70ff-4566-ba39-694d6c1d5057","system_id":"levelo_inurba_marseille","lat":43.29425,"lon":5.38612,"is_reserved":false,"is_disabled":false,"rental_uris":{"android":"levelo://app?vid=825cfe45-70ff-4566-ba39-694d6c1d5057","ios":"levelo://app?vid=825cfe45-70ff-4566-ba39-694d6c1d5057"},"vehicle_type_id":"4","last_reported":1730581646,"current_range_meters":38800,"station_id":"ce4bh2h2rcd13ifvqdh0","pricing_plan_id":"cebpf4jnsgd1na2vs0mg"},{"bike_id":"a4297194-1266-4a1f-9f51-dc9850ceeb77","system_id":"levelo_inurba_marseille","lat":43.29259,"lon":5.38443,"is_reserved":false,"is_disabled":false,"rental_uris":{"android":"levelo://app?vid=a4297194-1266-4a1f-9f51-dc9850ceeb77","ios":"levelo://app?vid=a4297194-1266-4a1f-9f51-dc9850ceeb77"},"vehicle_type_id":"4","last_reported":1730581646,"current_range_meters":36400,"station_id":"ce4bh692rcd13ifvqea0","pricing_plan_id":"cebpf4jnsgd1na2vs0mg"},{"bike_id":"1b76da04-24af-4551-be92-5b5e0e7c5288","system_id":"levelo_inurba_marseille","lat":43.27496,"lon":5.42449,"is_reserved":false,"is_disabled":false,"rental_uris":{"android":"levelo://app?vid=1b76da04-24af-4551-be92-5b5e0e7c5288","ios":"levelo://app?vid=1b76da04-24af-4551-be92-5b5e0e7c5288"},"vehicle_type_id":"4","last_reported":1730581646,"current_range_meters":38000,"station_id":"ce4bhn92rcd13ifvqgrg","pricing_plan_id":"cebpf4jnsgd1na2vs0mg"},{"bike_id":"a93c236a-7c64-4cfc-8060-bc9296e0086e","system_id":"levelo_inurba_marseille","lat":43.294148,"lon":5.386186,"is_reserved":false,"is_disabled":false,"rental_uris":{"android":"levelo://app?vid=a93c236a-7c64-4cfc-8060-bc9296e0086e","ios":"levelo://app?vid=a93c236a-7c64-4cfc-8060-bc9296e0086e"},"vehicle_type_id":"4","last_reported":1730581646,"current_range_meters":24400,"station_id":"ce4bh2h2rcd13ifvqdh0","pricing_plan_id":"cebpf4jnsgd1na2vs0mg"},{"bike_id":"817c2003-0ccb-430a-9fc8-aae344f1fb45","system_id":"levelo_inurba_marseille","lat":43.28615,"lon":5.37057,"is_reserved":false,"is_disabled":false,"rental_uris":{"android":"levelo://app?vid=817c2003-0ccb-430a-9fc8-aae344f1fb45","ios":"levelo://app?vid=817c2003-0ccb-430a-9fc8-aae344f1fb45"},"vehicle_type_id":"4","last_reported":1730581646,"current_range_meters":38000,"station_id":"ce4bht12rcd13ifvqi60","pricing_plan_id":"cebpf4jnsgd1na2vs0mg"},{"bike_id":"41166d56-5bfd-46f2-885f-e535581cf396","system_id":"levelo_inurba_marseille","lat":43.31493,"lon":5.37301,"is_reserved":false,"is_disabled":false,"rental_uris":{"android":"levelo://app?vid=41166d56-5bfd-46f2-885f-e535581cf396","ios":"levelo://app?vid=41166d56-5bfd-46f2-885f-e535581cf396"},"vehicle_type_id":"4","last_reported":1730581646,"current_range_meters":18000,"station_id":"ce4bgt12rcd13ifvqcd0","pricing_plan_id":"cebpf4jnsgd1na2vs0mg"},{"bike_id":"cdf14336-e98f-458b-8f9c-c0f3e810299c","system_id":"levelo_inurba_marseille","lat":43.29537,"lon":5.38541,"is_reserved":false,"is_disabled":false,"rental_uris":{"android":"levelo://app?vid=cdf14336-e98f-458b-8f9c-c0f3e810299c","ios":"levelo://app?vid=cdf14336-e98f-458b-8f9c-c0f3e810299c"},"vehicle_type_id":"4","last_reported":1730581646,"current_range_meters":37600,"station_id":"ce4bgih2rcd13ifvqba0","pricing_plan_id":"cebpf4jnsgd1na2vs0mg"},{"bike_id":"9053a58c-3a8e-4943-b29b-c331c66d23b3","system_id":"levelo_inurba_marseille","lat":43.30274,"lon":5.37711,"is_reserved":false,"is_disabled":false,"rental_uris":{"android":"levelo://app?vid=9053a58c-3a8e-4943-b29b-c331c66d23b3","ios":"levelo://app?vid=9053a58c-3a8e-4943-b29b-c331c66d23b3"},"vehicle_type_id":"4","last_reported":1730581646,"current_range_meters":11600,"station_id":"ce4bguh2rcd13ifvqcj0","pricing_plan_id":"cebpf4jnsgd1na2vs0mg"},{"bike_id":"9bbbe19a-7daa-40b3-a509-1dd46e7fbb90","system_id":"levelo_inurba_marseille","lat":43.29527,"lon":5.38543,"is_reserved":false,"is_disabled":false,"rental_uris":{"android":"levelo://app?vid=9bbbe19a-7daa-40b3-a509-1dd46e7fbb90","ios":"levelo://app?vid=9bbbe19a-7daa-40b3-a509-1dd46e7fbb90"},"vehicle_type_id":"4","last_reported":1730581646,"current_range_meters":37600,"station_id":"ce4bgih2rcd13ifvqba0","pricing_plan_id":"cebpf4jnsgd1na2vs0mg"},{"bike_id":"ca6c76fa-d30f-457a-8842-f2eb8dfc7ce6","system_id":"levelo_inurba_marseille","lat":43.29537,"lon":5.38543,"is_reserved":false,"is_disabled":false,"rental_uris":{"android":"levelo://app?vid=ca6c76fa-d30f-457a-8842-f2eb8dfc7ce6","ios":"levelo://app?vid=ca6c76fa-d30f-457a-8842-f2eb8dfc7ce6"},"vehicle_type_id":"4","last_reported":1730581646,"current_range_meters":38400,"station_id":"ce4bgih2rcd13ifvqba0","pricing_plan_id":"cebpf4jnsgd1na2vs0mg"},{"bike_id":"0911323b-f4c1-4b4b-ad16-1a5cad62777c","system_id":"levelo_inurba_marseille","lat":43.27663,"lon":5.38882,"is_reserved":false,"is_disabled":false,"rental_uris":{"android":"levelo://app?vid=0911323b-f4c1-4b4b-ad16-1a5cad62777c","ios":"levelo://app?vid=0911323b-f4c1-4b4b-ad16-1a5cad62777c"},"vehicle_type_id":"4","last_reported":1730581646,"current_range_meters":37600,"station_id":"ce4bhi12rcd13ifvqfo0","pricing_plan_id":"cebpf4jnsgd1na2vs0mg"},{"bike_id":"daeb9658-bd57-4da3-8c59-ae5480e0acd9","system_id":"levelo_inurba_marseille","lat":43.29608,"lon":5.37711,"is_reserved":false,"is_disabled":false,"rental_uris":{"android":"levelo://app?vid=daeb9658-bd57-4da3-8c59-ae5480e0acd9","ios":"levelo://app?vid=daeb9658-bd57-4da3-8c59-ae5480e0acd9"},"vehicle_type_id":"4","last_reported":1730581646,"current_range_meters":36000,"station_id":"ce4bgi92rcd13ifvqb90","pricing_plan_id":"cebpf4jnsgd1na2vs0mg"},{"bike_id":"9f176231-d37b-4c06-9ab3-4b630d7ab80a","system_id":"levelo_inurba_marseille","lat":43.29035,"lon":5.38646,"is_reserved":false,"is_disabled":false,"rental_uris":{"android":"levelo://app?vid=9f176231-d37b-4c06-9ab3-4b630d7ab80a","ios":"levelo://app?vid=9f176231-d37b-4c06-9ab3-4b630d7ab80a"},"vehicle_type_id":"4","last_reported":1730581646,"current_range_meters":38800,"station_id":"ce4bh4p2rcd13ifvqe0g","pricing_plan_id":"cebpf4jnsgd1na2vs0mg"},{"bike_id":"c444a074-7c44-4a1f-8718-a834c4163766","system_id":"levelo_inurba_marseille","lat":43.2784,"lon":5.39217,"is_reserved":false,"is_disabled":false,"rental_uris":{"android":"levelo://app?vid=c444a074-7c44-4a1f-8718-a834c4163766","ios":"levelo://app?vid=c444a074-7c44-4a1f-8718-a834c4163766"},"vehicle_type_id":"4","last_reported":1730581646,"current_range_meters":22400,"station_id":"ce4bhjp2rcd13ifvqga0","pricing_plan_id":"cebpf4jnsgd1na2vs0mg"},{"bike_id":"660bfde8-4f26-489c-b2c1-388c722c6848","system_id":"levelo_inurba_marseille","lat":43.28465,"lon":5.38412,"is_reserved":false,"is_disabled":false,"rental_uris":{"android":"levelo://app?vid=660bfde8-4f26-489c-b2c1-388c722c6848","ios":"levelo://app?vid=660bfde8-4f26-489c-b2c1-388c722c6848"},"vehicle_type_id":"4","last_reported":1730581646,"current_range_meters":38800,"station_id":"ce4bh512rcd13ifvqe3g","pricing_plan_id":"cebpf4jnsgd1na2vs0mg"},{"bike_id":"f98fbbe6-5ff1-4d3d-93bb-442d12188b85","system_id":"levelo_inurba_marseille","lat":43.25577,"lon":5.3823,"is_reserved":false,"is_disabled":false,"rental_uris":{"android":"levelo://app?vid=f98fbbe6-5ff1-4d3d-93bb-442d12188b85","ios":"levelo://app?vid=f98fbbe6-5ff1-4d3d-93bb-442d12188b85"},"vehicle_type_id":"4","last_reported":1730581646,"current_range_meters":12800,"station_id":"ce4bhih2rcd13ifvqfs0","pricing_plan_id":"cebpf4jnsgd1na2vs0mg"},{"bike_id":"99fc8abe-8760-45fb-96ec-bc16795d5218","system_id":"levelo_inurba_marseille","lat":43.30917,"lon":5.36861,"is_reserved":false,"is_disabled":false,"rental_uris":{"android":"levelo://app?vid=99fc8abe-8760-45fb-96ec-bc16795d5218","ios":"levelo://app?vid=99fc8abe-8760-45fb-96ec-bc16795d5218"},"vehicle_type_id":"4","last_reported":1730581646,"current_range_meters":36800,"station_id":"ce4bgn92rcd13ifvqbvg","pricing_plan_id":"cebpf4jnsgd1na2vs0mg"},{"bike_id":"bced097d-5c21-493a-8928-de61a680c76c","system_id":"levelo_inurba_marseille","lat":43.29726,"lon":5.3716,"is_reserved":false,"is_disabled":false,"rental_uris":{"android":"levelo://app?vid=bced097d-5c21-493a-8928-de61a680c76c","ios":"levelo://app?vid=bced097d-5c21-493a-8928-de61a680c76c"},"vehicle_type_id":"4","last_reported":1730581646,"current_range_meters":8400,"station_id":"","pricing_plan_id":"cebpf4jnsgd1na2vs0mg"},{"bike_id":"0f2f9c27-9c47-4db3-ac55-4fc0f06a8d32","system_id":"levelo_inurba_marseille","lat":43.29033,"lon":5.37561,"is_reserved":false,"is_disabled":false,"rental_uris":{"android":"levelo://app?vid=0f2f9c27-9c47-4db3-ac55-4fc0f06a8d32","ios":"levelo://app?vid=0f2f9c27-9c47-4db3-ac55-4fc0f06a8d32"},"vehicle_type_id":"4","last_reported":1730581646,"current_range_meters":24800,"station_id":"ce4bh692rcd13ifvqe90","pricing_plan_id":"cebpf4jnsgd1na2vs0mg"},{"bike_id":"c45bf95e-28b1-42f0-bd82-40d8a1a09e86","system_id":"levelo_inurba_marseille","lat":43.29415,"lon":5.38631,"is_reserved":false,"is_disabled":false,"rental_uris":{"android":"levelo://app?vid=c45bf95e-28b1-42f0-bd82-40d8a1a09e86","ios":"levelo://app?vid=c45bf95e-28b1-42f0-bd82-40d8a1a09e86"},"vehicle_type_id":"4","last_reported":1730581646,"current_range_meters":26800,"station_id":"ce4bh2h2rcd13ifvqdh0","pricing_plan_id":"cebpf4jnsgd1na2vs0mg"},{"bike_id":"084a9701-8432-4d32-9d8f-29dd5226a087","system_id":"levelo_inurba_marseille","lat":43.29524,"lon":5.38607,"is_reserved":false,"is_disabled":false,"rental_uris":{"android":"levelo://app?vid=084a9701-8432-4d32-9d8f-29dd5226a087","ios":"levelo://app?vid=084a9701-8432-4d32-9d8f-29dd5226a087"},"vehicle_type_id":"4","last_reported":1730581646,"current_range_meters":28400,"station_id":"ce4bgih2rcd13ifvqba0","pricing_plan_id":"cebpf4jnsgd1na2vs0mg"},{"bike_id":"ab9cb399-eeb7-4811-b418-db73fb440597","system_id":"levelo_inurba_marseille","lat":43.26198,"lon":5.37928,"is_reserved":false,"is_disabled":false,"rental_uris":{"android":"levelo://app?vid=ab9cb399-eeb7-4811-b418-db73fb440597","ios":"levelo://app?vid=ab9cb399-eeb7-4811-b418-db73fb440597"},"vehicle_type_id":"4","last_reported":1730581646,"current_range_meters":37600,"station_id":"ce4bhjp2rcd13ifvqg90","pricing_plan_id":"cebpf4jnsgd1na2vs0mg"},{"bike_id":"834c7fa5-91cd-4487-8c58-c6208a6bc3b3","system_id":"levelo_inurba_marseille","lat":43.2942,"lon":5.38632,"is_reserved":false,"is_disabled":false,"rental_uris":{"android":"levelo://app?vid=834c7fa5-91cd-4487-8c58-c6208a6bc3b3","ios":"levelo://app?vid=834c7fa5-91cd-4487-8c58-c6208a6bc3b3"},"vehicle_type_id":"4","last_reported":1730581646,"current_range_meters":31200,"station_id":"ce4bh2h2rcd13ifvqdh0","pricing_plan_id":"cebpf4jnsgd1na2vs0mg"},{"bike_id":"fac07fca-53b2-43df-92dd-ea955a9c8337","system_id":"levelo_inurba_marseille","lat":43.29973,"lon":5.38501,"is_reserved":false,"is_disabled":false,"rental_uris":{"android":"levelo://app?vid=fac07fca-53b2-43df-92dd-ea955a9c8337","ios":"levelo://app?vid=fac07fca-53b2-43df-92dd-ea955a9c8337"},"vehicle_type_id":"4","last_reported":1730581646,"current_range_meters":38800,"station_id":"ce4bgj92rcd13ifvqbd0","pricing_plan_id":"cebpf4jnsgd1na2vs0mg"},{"bike_id":"600318fb-daf2-4836-8cfc-aaaf401910e2","system_id":"levelo_inurba_marseille","lat":43.29793,"lon":5.38112,"is_reserved":false,"is_disabled":false,"rental_uris":{"android":"levelo://app?vid=600318fb-daf2-4836-8cfc-aaaf401910e2","ios":"levelo://app?vid=600318fb-daf2-4836-8cfc-aaaf401910e2"},"vehicle_type_id":"4","last_reported":1730581646,"current_range_meters":35600,"station_id":"ce4bgip2rcd13ifvqbb0","pricing_plan_id":"cebpf4jnsgd1na2vs0mg"},{"bike_id":"aea6877e-7988-4006-87d7-08a72f9d3a89","system_id":"levelo_inurba_marseille","lat":43.29537,"lon":5.3854,"is_reserved":false,"is_disabled":false,"rental_uris":{"android":"levelo://app?vid=aea6877e-7988-4006-87d7-08a72f9d3a89","ios":"levelo://app?vid=aea6877e-7988-4006-87d7-08a72f9d3a89"},"vehicle_type_id":"4","last_reported":1730581646,"current_range_meters":30000,"station_id":"ce4bgih2rcd13ifvqba0","pricing_plan_id":"cebpf4jnsgd1na2vs0mg"},{"bike_id":"0377cd1f-1518-4404-adb5-21adee704d63","system_id":"levelo_inurba_marseille","lat":43.29276,"lon":5.36845,"is_reserved":false,"is_disabled":false,"rental_uris":{"android":"levelo://app?vid=0377cd1f-1518-4404-adb5-21adee704d63","ios":"levelo://app?vid=0377cd1f-1518-4404-adb5-21adee704d63"},"vehicle_type_id":"4","last_reported":1730581646,"current_range_meters":38800,"station_id":"ce4bhbp2rcd13ifvqesg","pricing_plan_id":"cebpf4jnsgd1na2vs0mg"},{"bike_id":"139d20f6-29a4-492f-bfd2-189d6c177e8d","system_id":"levelo_inurba_marseille","lat":43.31688,"lon":5.4047,"is_reserved":false,"is_disabled":false,"rental_uris":{"android":"levelo://app?vid=139d20f6-29a4-492f-bfd2-189d6c177e8d","ios":"levelo://app?vid=139d20f6-29a4-492f-bfd2-189d6c177e8d"},"vehicle_type_id":"4","last_reported":1730581646,"current_range_meters":30400,"station_id":"ce4bh012rcd13ifvqd00","pricing_plan_id":"cebpf4jnsgd1na2vs0mg"},{"bike_id":"5e7aef04-5f8f-4931-b686-969187b73c69","system_id":"levelo_inurba_marseille","lat":43.27369,"lon":5.3626,"is_reserved":false,"is_disabled":false,"rental_uris":{"android":"levelo://app?vid=5e7aef04-5f8f-4931-b686-969187b73c69","ios":"levelo://app?vid=5e7aef04-5f8f-4931-b686-969187b73c69"},"vehicle_type_id":"4","last_reported":1730581646,"current_range_meters":24000,"station_id":"ce4bhbh2rcd13ifvqeo0","pricing_plan_id":"cebpf4jnsgd1na2vs0mg"},{"bike_id":"b27b6b18-d801-4b0b-a4e3-bc55bc4a9aed","system_id":"levelo_inurba_marseille","lat":43.25721,"lon":5.41115,"is_reserved":false,"is_disabled":false,"rental_uris":{"android":"levelo://app?vid=b27b6b18-d801-4b0b-a4e3-bc55bc4a9aed","ios":"levelo://app?vid=b27b6b18-d801-4b0b-a4e3-bc55bc4a9aed"},"vehicle_type_id":"4","last_reported":1730581646,"current_range_meters":37600,"station_id":"ce4bhkp2rcd13ifvqgd0","pricing_plan_id":"cebpf4jnsgd1na2vs0mg"},{"bike_id":"bf4fc4b0-da91-4001-b8c3-8696ff4892a9","system_id":"levelo_inurba_marseille","lat":43.29881,"lon":5.389103,"is_reserved":false,"is_disabled":false,"rental_uris":{"android":"levelo://app?vid=bf4fc4b0-da91-4001-b8c3-8696ff4892a9","ios":"levelo://app?vid=bf4fc4b0-da91-4001-b8c3-8696ff4892a9"},"vehicle_type_id":"4","last_reported":1730581646,"current_range_meters":35200,"station_id":"ce4bh392rcd13ifvqdl0","pricing_plan_id":"cebpf4jnsgd1na2vs0mg"},{"bike_id":"2921df27-5f4d-405e-8967-ba024d0dbdcf","system_id":"levelo_inurba_marseille","lat":43.30431,"lon":5.38887,"is_reserved":false,"is_disabled":false,"rental_uris":{"android":"levelo://app?vid=2921df27-5f4d-405e-8967-ba024d0dbdcf","ios":"levelo://app?vid=2921df27-5f4d-405e-8967-ba024d0dbdcf"},"vehicle_type_id":"4","last_reported":1730581646,"current_range_meters":38000,"station_id":"ce4bgk12rcd13ifvqbi0","pricing_plan_id":"cebpf4jnsgd1na2vs0mg"},{"bike_id":"f58456e3-7a9e-4429-90f3-eefd70581764","system_id":"levelo_inurba_marseille","lat":43.29537,"lon":5.38536,"is_reserved":false,"is_disabled":false,"rental_uris":{"android":"levelo://app?vid=f58456e3-7a9e-4429-90f3-eefd70581764","ios":"levelo://app?vid=f58456e3-7a9e-4429-90f3-eefd70581764"},"vehicle_type_id":"4","last_reported":1730581646,"current_range_meters":38800,"station_id":"ce4bgih2rcd13ifvqba0","pricing_plan_id":"cebpf4jnsgd1na2vs0mg"},{"bike_id":"7c5bfcc8-7e47-44d5-834d-fc401b7520cd","system_id":"levelo_inurba_marseille","lat":43.27974,"lon":5.38722,"is_reserved":false,"is_disabled":false,"rental_uris":{"android":"levelo://app?vid=7c5bfcc8-7e47-44d5-834d-fc401b7520cd","ios":"levelo://app?vid=7c5bfcc8-7e47-44d5-834d-fc401b7520cd"},"vehicle_type_id":"4","last_reported":1730581646,"current_range_meters":38000,"station_id":"ce4bhg12rcd13ifvqf80","pricing_plan_id":"cebpf4jnsgd1na2vs0mg"},{"bike_id":"1a303e70-d1b0-4563-b13a-3d40fa7c1ccd","system_id":"levelo_inurba_marseille","lat":43.32287,"lon":5.38277,"is_reserved":false,"is_disabled":false,"rental_uris":{"android":"levelo://app?vid=1a303e70-d1b0-4563-b13a-3d40fa7c1ccd","ios":"levelo://app?vid=1a303e70-d1b0-4563-b13a-3d40fa7c1ccd"},"vehicle_type_id":"4","last_reported":1730581646,"current_range_meters":38800,"station_id":"ce4bhr12rcd13ifvqhqg","pricing_plan_id":"cebpf4jnsgd1na2vs0mg"},{"bike_id":"52aa259c-685b-441b-9c94-7771d294d476","system_id":"levelo_inurba_marseille","lat":43.29128,"lon":5.35584,"is_reserved":false,"is_disabled":false,"rental_uris":{"android":"levelo://app?vid=52aa259c-685b-441b-9c94-7771d294d476","ios":"levelo://app?vid=52aa259c-685b-441b-9c94-7771d294d476"},"vehicle_type_id":"4","last_reported":1730581646,"current_range_meters":24400,"station_id":"","pricing_plan_id":"cebpf4jnsgd1na2vs0mg"},{"bike_id":"45a9d9a7-83a5-4e18-b464-0249954955c8","system_id":"levelo_inurba_marseille","lat":43.23154,"lon":5.43702,"is_reserved":false,"is_disabled":false,"rental_uris":{"android":"levelo://app?vid=45a9d9a7-83a5-4e18-b464-0249954955c8","ios":"levelo://app?vid=45a9d9a7-83a5-4e18-b464-0249954955c8"},"vehicle_type_id":"4","last_reported":1730581646,"current_range_meters":38800,"station_id":"ce4bhmp2rcd13ifvqgog","pricing_plan_id":"cebpf4jnsgd1na2vs0mg"},{"bike_id":"3392ced6-c439-4b12-afb8-5665ace49ebd","system_id":"levelo_inurba_marseille","lat":43.29874,"lon":5.38911,"is_reserved":false,"is_disabled":false,"rental_uris":{"android":"levelo://app?vid=3392ced6-c439-4b12-afb8-5665ace49ebd","ios":"levelo://app?vid=3392ced6-c439-4b12-afb8-5665ace49ebd"},"vehicle_type_id":"4","last_reported":1730581646,"current_range_meters":22800,"station_id":"ce4bh392rcd13ifvqdl0","pricing_plan_id":"cebpf4jnsgd1na2vs0mg"},{"bike_id":"a13a6f27-c8b2-42b7-996f-8e1c0665131f","system_id":"levelo_inurba_marseille","lat":43.25111,"lon":5.40323,"is_reserved":false,"is_disabled":false,"rental_uris":{"android":"levelo://app?vid=a13a6f27-c8b2-42b7-996f-8e1c0665131f","ios":"levelo://app?vid=a13a6f27-c8b2-42b7-996f-8e1c0665131f"},"vehicle_type_id":"4","last_reported":1730581646,"current_range_meters":28000,"station_id":"ce4bhlh2rcd13ifvqgig","pricing_plan_id":"cebpf4jnsgd1na2vs0mg"},{"bike_id":"87d02c11-da85-418b-bd83-e38accdc20fd","system_id":"levelo_inurba_marseille","lat":43.31268,"lon":5.40161,"is_reserved":false,"is_disabled":false,"rental_uris":{"android":"levelo://app?vid=87d02c11-da85-418b-bd83-e38accdc20fd","ios":"levelo://app?vid=87d02c11-da85-418b-bd83-e38accdc20fd"},"vehicle_type_id":"4","last_reported":1730581646,"current_range_meters":6800,"station_id":"ce4bh092rcd13ifvqd30","pricing_plan_id":"cebpf4jnsgd1na2vs0mg"},{"bike_id":"b38e72c1-9547-4584-9ba0-b046d95ffa99","system_id":"levelo_inurba_marseille","lat":43.31323,"lon":5.39698,"is_reserved":false,"is_disabled":false,"rental_uris":{"android":"levelo://app?vid=b38e72c1-9547-4584-9ba0-b046d95ffa99","ios":"levelo://app?vid=b38e72c1-9547-4584-9ba0-b046d95ffa99"},"vehicle_type_id":"4","last_reported":1730581646,"current_range_meters":25200,"station_id":"ce4bgvp2rcd13ifvqcu0","pricing_plan_id":"cebpf4jnsgd1na2vs0mg"},{"bike_id":"7c8e2182-8d5d-442a-9864-1cd9e1711753","system_id":"levelo_inurba_marseille","lat":43.31272,"lon":5.40163,"is_reserved":false,"is_disabled":false,"rental_uris":{"android":"levelo://app?vid=7c8e2182-8d5d-442a-9864-1cd9e1711753","ios":"levelo://app?vid=7c8e2182-8d5d-442a-9864-1cd9e1711753"},"vehicle_type_id":"4","last_reported":1730581646,"current_range_meters":23200,"station_id":"ce4bh092rcd13ifvqd30","pricing_plan_id":"cebpf4jnsgd1na2vs0mg"},{"bike_id":"b0d7221c-96c0-407c-9d53-96a45465d6f4","system_id":"levelo_inurba_marseille","lat":43.29027,"lon":5.38643,"is_reserved":false,"is_disabled":false,"rental_uris":{"android":"levelo://app?vid=b0d7221c-96c0-407c-9d53-96a45465d6f4","ios":"levelo://app?vid=b0d7221c-96c0-407c-9d53-96a45465d6f4"},"vehicle_type_id":"4","last_reported":1730581646,"current_range_meters":38400,"station_id":"ce4bh4p2rcd13ifvqe0g","pricing_plan_id":"cebpf4jnsgd1na2vs0mg"},{"bike_id":"a59a0526-a09b-4e1f-b799-4240ee0b7745","system_id":"levelo_inurba_marseille","lat":43.290198,"lon":5.381415,"is_reserved":false,"is_disabled":false,"rental_uris":{"android":"levelo://app?vid=a59a0526-a09b-4e1f-b799-4240ee0b7745","ios":"levelo://app?vid=a59a0526-a09b-4e1f-b799-4240ee0b7745"},"vehicle_type_id":"4","last_reported":1730581646,"current_range_meters":38800,"station_id":"ce4bh4p2rcd13ifvqe1g","pricing_plan_id":"cebpf4jnsgd1na2vs0mg"},{"bike_id":"8027b304-d4cd-4551-9a83-c333a4f57194","system_id":"levelo_inurba_marseille","lat":43.26552,"lon":5.38994,"is_reserved":false,"is_disabled":false,"rental_uris":{"android":"levelo://app?vid=8027b304-d4cd-4551-9a83-c333a4f57194","ios":"levelo://app?vid=8027b304-d4cd-4551-9a83-c333a4f57194"},"vehicle_type_id":"4","last_reported":1730581646,"current_range_meters":36800,"station_id":"ce4bhe12rcd13ifvqf30","pricing_plan_id":"cebpf4jnsgd1na2vs0mg"},{"bike_id":"8f426574-ac08-4461-a1bb-f746845c27e7","system_id":"levelo_inurba_marseille","lat":43.28474,"lon":5.38407,"is_reserved":false,"is_disabled":false,"rental_uris":{"android":"levelo://app?vid=8f426574-ac08-4461-a1bb-f746845c27e7","ios":"levelo://app?vid=8f426574-ac08-4461-a1bb-f746845c27e7"},"vehicle_type_id":"4","last_reported":1730581646,"current_range_meters":28000,"station_id":"ce4bh512rcd13ifvqe3g","pricing_plan_id":"cebpf4jnsgd1na2vs0mg"},{"bike_id":"bac6d2e7-2095-4eec-a621-03404b6c836d","system_id":"levelo_inurba_marseille","lat":43.31121,"lon":5.37761,"is_reserved":false,"is_disabled":false,"rental_uris":{"android":"levelo://app?vid=bac6d2e7-2095-4eec-a621-03404b6c836d","ios":"levelo://app?vid=bac6d2e7-2095-4eec-a621-03404b6c836d"},"vehicle_type_id":"4","last_reported":1730581646,"current_range_meters":38800,"station_id":"ce4bgt92rcd13ifvqcg0","pricing_plan_id":"cebpf4jnsgd1na2vs0mg"},{"bike_id":"80af09b7-571d-438d-823d-708238a46b9a","system_id":"levelo_inurba_marseille","lat":43.26568,"lon":5.39013,"is_reserved":false,"is_disabled":false,"rental_uris":{"android":"levelo://app?vid=80af09b7-571d-438d-823d-708238a46b9a","ios":"levelo://app?vid=80af09b7-571d-438d-823d-708238a46b9a"},"vehicle_type_id":"4","last_reported":1730581646,"current_range_meters":38800,"station_id":"ce4bhe12rcd13ifvqf30","pricing_plan_id":"cebpf4jnsgd1na2vs0mg"},{"bike_id":"ac6e4d7c-4cf4-4233-aca4-0f9953ecb824","system_id":"levelo_inurba_marseille","lat":43.31992,"lon":5.38148,"is_reserved":false,"is_disabled":false,"rental_uris":{"android":"levelo://app?vid=ac6e4d7c-4cf4-4233-aca4-0f9953ecb824","ios":"levelo://app?vid=ac6e4d7c-4cf4-4233-aca4-0f9953ecb824"},"vehicle_type_id":"4","last_reported":1730581646,"current_range_meters":39200,"station_id":"ce4bhr12rcd13ifvqhpg","pricing_plan_id":"cebpf4jnsgd1na2vs0mg"},{"bike_id":"addf2f83-4208-4130-bd37-d3cf23df67f0","system_id":"levelo_inurba_marseille","lat":43.265044,"lon":5.395807,"is_reserved":false,"is_disabled":false,"rental_uris":{"android":"levelo://app?vid=addf2f83-4208-4130-bd37-d3cf23df67f0","ios":"levelo://app?vid=addf2f83-4208-4130-bd37-d3cf23df67f0"},"vehicle_type_id":"4","last_reported":1730581646,"current_range_meters":38000,"station_id":"ce4bhi12rcd13ifvqfq0","pricing_plan_id":"cebpf4jnsgd1na2vs0mg"},{"bike_id":"cbaf1f9d-4b0b-4c3e-b8a6-d8542d46a272","system_id":"levelo_inurba_marseille","lat":43.29163,"lon":5.37142,"is_reserved":false,"is_disabled":false,"rental_uris":{"android":"levelo://app?vid=cbaf1f9d-4b0b-4c3e-b8a6-d8542d46a272","ios":"levelo://app?vid=cbaf1f9d-4b0b-4c3e-b8a6-d8542d46a272"},"vehicle_type_id":"4","last_reported":1730581646,"current_range_meters":6800,"station_id":"ce4bha92rcd13ifvqeh0","pricing_plan_id":"cebpf4jnsgd1na2vs0mg"},{"bike_id":"381a043a-18db-41cc-8193-fcd7aa35e13c","system_id":"levelo_inurba_marseille","lat":43.2841,"lon":5.37507,"is_reserved":false,"is_disabled":false,"rental_uris":{"android":"levelo://app?vid=381a043a-18db-41cc-8193-fcd7aa35e13c","ios":"levelo://app?vid=381a043a-18db-41cc-8193-fcd7aa35e13c"},"vehicle_type_id":"4","last_reported":1730581646,"current_range_meters":4000,"station_id":"ce4bh412rcd13ifvqds0","pricing_plan_id":"cebpf4jnsgd1na2vs0mg"},{"bike_id":"b8b5f7e2-f80a-4b08-87ae-2845aa87323f","system_id":"levelo_inurba_marseille","lat":43.29422,"lon":5.38627,"is_reserved":false,"is_disabled":false,"rental_uris":{"android":"levelo://app?vid=b8b5f7e2-f80a-4b08-87ae-2845aa87323f","ios":"levelo://app?vid=b8b5f7e2-f80a-4b08-87ae-2845aa87323f"},"vehicle_type_id":"4","last_reported":1730581646,"current_range_meters":6000,"station_id":"ce4bh2h2rcd13ifvqdh0","pricing_plan_id":"cebpf4jnsgd1na2vs0mg"},{"bike_id":"5b90519b-fc85-4ce2-b356-4fa61ff4a683","system_id":"levelo_inurba_marseille","lat":43.28022,"lon":5.36942,"is_reserved":false,"is_disabled":false,"rental_uris":{"android":"levelo://app?vid=5b90519b-fc85-4ce2-b356-4fa61ff4a683","ios":"levelo://app?vid=5b90519b-fc85-4ce2-b356-4fa61ff4a683"},"vehicle_type_id":"4","last_reported":1730581646,"current_range_meters":12800,"station_id":"ce4bha12rcd13ifvqef0","pricing_plan_id":"cebpf4jnsgd1na2vs0mg"},{"bike_id":"02bf43f1-2ce4-4fae-b237-bdfecedc0a96","system_id":"levelo_inurba_marseille","lat":43.29597,"lon":5.38098,"is_reserved":false,"is_disabled":false,"rental_uris":{"android":"levelo://app?vid=02bf43f1-2ce4-4fae-b237-bdfecedc0a96","ios":"levelo://app?vid=02bf43f1-2ce4-4fae-b237-bdfecedc0a96"},"vehicle_type_id":"4","last_reported":1730581646,"current_range_meters":22800,"station_id":"ce4bgl12rcd13ifvqbo0","pricing_plan_id":"cebpf4jnsgd1na2vs0mg"},{"bike_id":"4e102afb-87cc-41ce-9657-968d7babfd2e","system_id":"levelo_inurba_marseille","lat":43.29536,"lon":5.38548,"is_reserved":false,"is_disabled":false,"rental_uris":{"android":"levelo://app?vid=4e102afb-87cc-41ce-9657-968d7babfd2e","ios":"levelo://app?vid=4e102afb-87cc-41ce-9657-968d7babfd2e"},"vehicle_type_id":"4","last_reported":1730581646,"current_range_meters":19200,"station_id":"ce4bgup2rcd13ifvqco0","pricing_plan_id":"cebpf4jnsgd1na2vs0mg"},{"bike_id":"d2879b4e-2a2e-453c-a50c-982c6c09f394","system_id":"levelo_inurba_marseille","lat":43.31355,"lon":5.36714,"is_reserved":false,"is_disabled":false,"rental_uris":{"android":"levelo://app?vid=d2879b4e-2a2e-453c-a50c-982c6c09f394","ios":"levelo://app?vid=d2879b4e-2a2e-453c-a50c-982c6c09f394"},"vehicle_type_id":"4","last_reported":1730581646,"current_range_meters":18800,"station_id":"ce4bgr92rcd13ifvqc6g","pricing_plan_id":"cebpf4jnsgd1na2vs0mg"},{"bike_id":"624ea377-5dea-4048-b627-85e487e6ffae","system_id":"levelo_inurba_marseille","lat":43.29525,"lon":5.38543,"is_reserved":false,"is_disabled":false,"rental_uris":{"android":"levelo://app?vid=624ea377-5dea-4048-b627-85e487e6ffae","ios":"levelo://app?vid=624ea377-5dea-4048-b627-85e487e6ffae"},"vehicle_type_id":"4","last_reported":1730581646,"current_range_meters":17600,"station_id":"ce4bgih2rcd13ifvqba0","pricing_plan_id":"cebpf4jnsgd1na2vs0mg"},{"bike_id":"9aca62b1-4fce-45c0-a939-1c87758eecab","system_id":"levelo_inurba_marseille","lat":43.28115,"lon":5.37835,"is_reserved":false,"is_disabled":false,"rental_uris":{"android":"levelo://app?vid=9aca62b1-4fce-45c0-a939-1c87758eecab","ios":"levelo://app?vid=9aca62b1-4fce-45c0-a939-1c87758eecab"},"vehicle_type_id":"4","last_reported":1730581646,"current_range_meters":38800,"station_id":"ce4bha12rcd13ifvqee0","pricing_plan_id":"cebpf4jnsgd1na2vs0mg"},{"bike_id":"244d2a0b-7b2f-490a-b9a4-1990caad5e29","system_id":"levelo_inurba_marseille","lat":43.29027,"lon":5.38646,"is_reserved":false,"is_disabled":false,"rental_uris":{"android":"levelo://app?vid=244d2a0b-7b2f-490a-b9a4-1990caad5e29","ios":"levelo://app?vid=244d2a0b-7b2f-490a-b9a4-1990caad5e29"},"vehicle_type_id":"4","last_reported":1730581646,"current_range_meters":6400,"station_id":"ce4bh4p2rcd13ifvqe0g","pricing_plan_id":"cebpf4jnsgd1na2vs0mg"},{"bike_id":"17ebbbcb-2cf9-4746-aa3c-b67cb03f093d","system_id":"levelo_inurba_marseille","lat":43.34134,"lon":5.40903,"is_reserved":false,"is_disabled":false,"rental_uris":{"android":"levelo://app?vid=17ebbbcb-2cf9-4746-aa3c-b67cb03f093d","ios":"levelo://app?vid=17ebbbcb-2cf9-4746-aa3c-b67cb03f093d"},"vehicle_type_id":"4","last_reported":1730581646,"current_range_meters":35200,"station_id":"ce4bhqh2rcd13ifvqhlg","pricing_plan_id":"cebpf4jnsgd1na2vs0mg"},{"bike_id":"b66ece50-bc4f-4a5d-b2a3-ef5f9aba4661","system_id":"levelo_inurba_marseille","lat":43.29275,"lon":5.36844,"is_reserved":false,"is_disabled":false,"rental_uris":{"android":"levelo://app?vid=b66ece50-bc4f-4a5d-b2a3-ef5f9aba4661","ios":"levelo://app?vid=b66ece50-bc4f-4a5d-b2a3-ef5f9aba4661"},"vehicle_type_id":"4","last_reported":1730581646,"current_range_meters":38800,"station_id":"ce4bhbp2rcd13ifvqesg","pricing_plan_id":"cebpf4jnsgd1na2vs0mg"},{"bike_id":"92222de1-df3e-42c2-890e-cded35712e9c","system_id":"levelo_inurba_marseille","lat":43.30179,"lon":5.36616,"is_reserved":false,"is_disabled":false,"rental_uris":{"android":"levelo://app?vid=92222de1-df3e-42c2-890e-cded35712e9c","ios":"levelo://app?vid=92222de1-df3e-42c2-890e-cded35712e9c"},"vehicle_type_id":"4","last_reported":1730581646,"current_range_meters":8400,"station_id":"ce4bgrh2rcd13ifvqc8g","pricing_plan_id":"cebpf4jnsgd1na2vs0mg"},{"bike_id":"04f21377-45c9-4ca0-8cec-d57103fdd509","system_id":"levelo_inurba_marseille","lat":43.27974,"lon":5.38736,"is_reserved":false,"is_disabled":false,"rental_uris":{"android":"levelo://app?vid=04f21377-45c9-4ca0-8cec-d57103fdd509","ios":"levelo://app?vid=04f21377-45c9-4ca0-8cec-d57103fdd509"},"vehicle_type_id":"4","last_reported":1730581646,"current_range_meters":35600,"station_id":"ce4bhg12rcd13ifvqf80","pricing_plan_id":"cebpf4jnsgd1na2vs0mg"},{"bike_id":"d859cdb4-2f9b-4050-b34b-686d7bfd090b","system_id":"levelo_inurba_marseille","lat":43.2926,"lon":5.38442,"is_reserved":false,"is_disabled":false,"rental_uris":{"android":"levelo://app?vid=d859cdb4-2f9b-4050-b34b-686d7bfd090b","ios":"levelo://app?vid=d859cdb4-2f9b-4050-b34b-686d7bfd090b"},"vehicle_type_id":"4","last_reported":1730581646,"current_range_meters":18800,"station_id":"ce4bh692rcd13ifvqea0","pricing_plan_id":"cebpf4jnsgd1na2vs0mg"},{"bike_id":"3e9b85d7-96fb-4b65-9acd-5723483a3709","system_id":"levelo_inurba_marseille","lat":43.31708,"lon":5.37747,"is_reserved":false,"is_disabled":false,"rental_uris":{"android":"levelo://app?vid=3e9b85d7-96fb-4b65-9acd-5723483a3709","ios":"levelo://app?vid=3e9b85d7-96fb-4b65-9acd-5723483a3709"},"vehicle_type_id":"4","last_reported":1730581646,"current_range_meters":18000,"station_id":"ce4bgth2rcd13ifvqch0","pricing_plan_id":"cebpf4jnsgd1na2vs0mg"},