{"last_updated":1701295598,"ttl":30,"version":"2.2","data":{"bikes":[{"bike_id":"08387f54-5b4f-4080-a351-0b393a9e00a0","system_id":"levelo_inurba_marseille","lat":43.312239,"lon":5.368562,"is_reserved":false,"is_disabled":false,"rental_uris":{"android":"levelo://app?vid=08387f54-5b4f-4080-a351-0b393a9e00a0","ios":"levelo://app?vid=08387f54-5b4f-4080-a351-0b393a9e00a0"},"vehicle_type_id":"4","last_reported":1701295598,"current_range_meters":0,"station_id":"ce4bgl92rcd13ifvqbq0","pricing_plan_id":"free"},{"bike_id":"6ffd48ce-ab43-4b34-b451-cb0d9194933b","system_id":"levelo_inurba_marseille","lat":43.312239,"lon":5.368562,"is_reserved":false,"is_disabled":false,"rental_uris":{"android":"levelo://app?vid=6ffd48ce-ab43-4b34-b451-cb0d9194933b","ios":"levelo://app?vid=6ffd48ce-ab43-4b34-b451-cb0d9194933b"},"vehicle_type_id":"4","last_reported":1701295598,"current_range_meters":18000,"station_id":"ce4bgl92rcd13ifvqbq0","pricing_plan_id":"free"},{"bike_id":"ea70de95-6730-4f41-99f1-4bde190c0344","system_id":"levelo_inurba_marseille","lat":43.309076,"lon":5.368465,"is_reserved":false,"is_disabled":false,"rental_uris":{"android":"levelo://app?vid=ea70de95-6730-4f41-99f1-4bde190c0344","ios":"levelo://app?vid=ea70de95-6730-4f41-99f1-4bde190c0344"},"vehicle_type_id":"4","last_reported":1701295598,"current_range_meters":29200,"station_id":"ce4bgn92rcd13ifvqbvg","pricing_plan_id":"free"},{"bike_id":"d1f4d0dd-4d6b-4382-bfb6-b9c552b24e7e","system_id":"levelo_inurba_marseille","lat":43.31484,"lon":5.37309,"is_reserved":false,"is_disabled":false,"rental_uris":{"android":"levelo://app?vid=d1f4d0dd-4d6b-4382-bfb6-b9c552b24e7e","ios":"levelo://app?vid=d1f4d0dd-4d6b-4382-bfb6-b9c552b24e7e"},"vehicle_type_id":"4","last_reported":1701295598,"current_range_meters":2800,"station_id":"ce4bgt12rcd13ifvqcd0","pricing_plan_id":"free"},{"bike_id":"857f3419-6362-40a3-8876-07974d05cc1d","system_id":"levelo_inurba_marseille","lat":43.305368,"lon":5.367343,"is_reserved":false,"is_disabled":false,"rental_uris":{"android":"levelo://app?vid=857f3419-6362-40a3-8876-07974d05cc1d","ios":"levelo://app?vid=857f3419-6362-40a3-8876-07974d05cc1d"},"vehicle_type_id":"4","last_reported":1701295598,"current_range_meters":0,"station_id":"ce4bgrp2rcd13ifvqc9g","pricing_plan_id":"free"},{"bike_id":"12631c3d-383c-43f6-be5e-921540dae4f9","system_id":"levelo_inurba_marseille","lat":43.305989,"lon":5.37225,"is_reserved":false,"is_disabled":false,"rental_uris":{"android":"levelo://app?vid=12631c3d-383c-43f6-be5e-921540dae4f9","ios":"levelo://app?vid=12631c3d-383c-43f6-be5e-921540dae4f9"},"vehicle_type_id":"4","last_reported":1701295598,"current_range_meters":24800,"station_id":"ce4bgqh2rcd13ifvqc4g","pricing_plan_id":"free"},{"bike_id":"7cdeff3e-1941-43b1-b5bf-bd0f8be751d1","system_id":"levelo_inurba_marseille","lat":43.305989,"lon":5.37225,"is_reserved":false,"is_disabled":false,"rental_uris":{"android":"levelo://app?vid=7cdeff3e-1941-43b1-b5bf-bd0f8be751d1","ios":"levelo://app?vid=7cdeff3e-1941-43b1-b5bf-bd0f8be751d1"},"vehicle_type_id":"4","last_reported":1701295598,"current_range_meters":25200,"station_id":"ce4bgqh2rcd13ifvqc4g","pricing_plan_id":"free"},{"bike_id":"3e84bf05-f929-433c-a9fb-f92307e7ed62","system_id":"levelo_inurba_marseille","lat":43.305989,"lon":5.37225,"is_reserved":false,"is_disabled":false,"rental_uris":{"android":"levelo://app?vid=3e84bf05-f929-433c-a9fb-f92307e7ed62","ios":"levelo://app?vid=3e84bf05-f929-433c-a9fb-f92307e7ed62"},"vehicle_type_id":"4","last_reported":1701295598,"current_range_meters":20000,"station_id":"ce4bgqh2rcd13ifvqc4g","pricing_plan_id":"free"},{"bike_id":"06c0199a-8f77-4b25-bb05-1c91b5917445","system_id":"levelo_inurba_marseille","lat":43.311207,"lon":5.377643,"is_reserved":false,"is_disabled":false,"rental_uris":{"android":"levelo://app?vid=06c0199a-8f77-4b25-bb05-1c91b5917445","ios":"levelo://app?vid=06c0199a-8f77-4b25-bb05-1c91b5917445"},"vehicle_type_id":"4","last_reported":1701295598,"current_range_meters":0,"station_id":"ce4bgt92rcd13ifvqcg0","pricing_plan_id":"free"},{"bike_id":"b5129530-3639-47e5-92b6-d358b01a2cff","system_id":"levelo_inurba_marseille","lat":43.308211,"lon":5.376611,"is_reserved":false,"is_disabled":false,"rental_uris":{"android":"levelo://app?vid=b5129530-3639-47e5-92b6-d358b01a2cff","ios":"levelo://app?vid=b5129530-3639-47e5-92b6-d358b01a2cff"},"vehicle_type_id":"4","last_reported":1701295598,"current_range_meters":23600,"station_id":"ce4bgv92rcd13ifvqcq0","pricing_plan_id":"free"},{"bike_id":"073e5f28-931f-49b1-b30b-a52b579e61f5","system_id":"levelo_inurba_marseille","lat":43.307945,"lon":5.376487,"is_reserved":false,"is_disabled":false,"rental_uris":{"android":"levelo://app?vid=073e5f28-931f-49b1-b30b-a52b579e61f5","ios":"levelo://app?vid=073e5f28-931f-49b1-b30b-a52b579e61f5"},"vehicle_type_id":"4","last_reported":1701295598,"current_range_meters":21200,"station_id":"ce4bgv92rcd13ifvqcq0","pricing_plan_id":"free"},{"bike_id":"f427a2c3-6e4a-446b-ae2f-9be8aa7f4122","system_id":"levelo_inurba_marseille","lat":43.31719,"lon":5.376813,"is_reserved":false,"is_disabled":false,"rental_uris":{"android":"levelo://app?vid=f427a2c3-6e4a-446b-ae2f-9be8aa7f4122","ios":"levelo://app?vid=f427a2c3-6e4a-446b-ae2f-9be8aa7f4122"},"vehicle_type_id":"4","last_reported":1701295598,"current_range_meters":8000,"station_id":"ce4bgth2rcd13ifvqch0","pricing_plan_id":"free"},{"bike_id":"e913f328-1e31-4c22-bd87-f809ea246de4","system_id":"levelo_inurba_marseille","lat":43.317168,"lon":5.376883,"is_reserved":false,"is_disabled":false,"rental_uris":{"android":"levelo://app?vid=e913f328-1e31-4c22-bd87-f809ea246de4","ios":"levelo://app?vid=e913f328-1e31-4c22-bd87-f809ea246de4"},"vehicle_type_id":"4","last_reported":1701295598,"current_range_meters":10400,"station_id":"ce4bgth2rcd13ifvqch0","pricing_plan_id":"free"},{"bike_id":"43f2c56c-e419-4afd-a9d3-226846802988","system_id":"levelo_inurba_marseille","lat":43.317075,"lon":5.377367,"is_reserved":false,"is_disabled":false,"rental_uris":{"android":"levelo://app?vid=43f2c56c-e419-4afd-a9d3-226846802988","ios":"levelo://app?vid=43f2c56c-e419-4afd-a9d3-226846802988"},"vehicle_type_id":"4","last_reported":1701295598,"current_range_meters":27200,"station_id":"ce4bgth2rcd13ifvqch0","pricing_plan_id":"free"},{"bike_id":"8624531c-50aa-4d2e-a1e1-3b1f3e5bf86e","system_id":"levelo_inurba_marseille","lat":43.301939,"lon":5.366286,"is_reserved":false,"is_disabled":false,"rental_uris":{"android":"levelo://app?vid=8624531c-50aa-4d2e-a1e1-3b1f3e5bf86e","ios":"levelo://app?vid=8624531c-50aa-4d2e-a1e1-3b1f3e5bf86e"},"vehicle_type_id":"4","last_reported":1701295598,"current_range_meters":28000,"station_id":"ce4bgrh2rcd13ifvqc8g","pricing_plan_id":"free"},{"bike_id":"e469943f-c19c-48c0-ba07-367136f3ba41","system_id":"levelo_inurba_marseille","lat":43.308012,"lon":5.381511,"is_reserved":false,"is_disabled":false,"rental_uris":{"android":"levelo://app?vid=e469943f-c19c-48c0-ba07-367136f3ba41","ios":"levelo://app?vid=e469943f-c19c-48c0-ba07-367136f3ba41"},"vehicle_type_id":"4","last_reported":1701295598,"current_range_meters":23600,"station_id":"ce4bgt12rcd13ifvqce0","pricing_plan_id":"free"},{"bike_id":"4df49c9a-0410-432b-a7d7-5051f65479b3","system_id":"levelo_inurba_marseille","lat":43.308012,"lon":5.381511,"is_reserved":false,"is_disabled":false,"rental_uris":{"android":"levelo://app?vid=4df49c9a-0410-432b-a7d7-5051f65479b3","ios":"levelo://app?vid=4df49c9a-0410-432b-a7d7-5051f65479b3"},"vehicle_type_id":"4","last_reported":1701295598,"current_range_meters":26400,"station_id":"ce4bgt12rcd13ifvqce0","pricing_plan_id":"free"},{"bike_id":"56166287-88c4-413b-a9e3-fcf87463d37f","system_id":"levelo_inurba_marseille","lat":43.304606,"lon":5.379026,"is_reserved":false,"is_disabled":false,"rental_uris":{"android":"levelo://app?vid=56166287-88c4-413b-a9e3-fcf87463d37f","ios":"levelo://app?vid=56166287-88c4-413b-a9e3-fcf87463d37f"},"vehicle_type_id":"4","last_reported":1701295598,"current_range_meters":20800,"station_id":"ce4bgup2rcd13ifvqcn0","pricing_plan_id":"free"},{"bike_id":"5f0dcc7e-fe2f-41ae-b9b7-07b5430b86ee","system_id":"levelo_inurba_marseille","lat":43.324798,"lon":5.365588,"is_reserved":false,"is_disabled":false,"rental_uris":{"android":"levelo://app?vid=5f0dcc7e-fe2f-41ae-b9b7-07b5430b86ee","ios":"levelo://app?vid=5f0dcc7e-fe2f-41ae-b9b7-07b5430b86ee"},"vehicle_type_id":"4","last_reported":1701295598,"current_range_meters":17200,"station_id":"ce4bhs12rcd13ifvqhvg","pricing_plan_id":"free"},{"bike_id":"3c7ae161-54f9-4364-83a8-e4f717f66371","system_id":"levelo_inurba_marseille","lat":43.301429,"lon":5.37413,"is_reserved":false,"is_disabled":false,"rental_uris":{"android":"levelo://app?vid=3c7ae161-54f9-4364-83a8-e4f717f66371","ios":"levelo://app?vid=3c7ae161-54f9-4364-83a8-e4f717f66371"},"vehicle_type_id":"4","last_reported":1701295598,"current_range_meters":25200,"station_id":"ce4bgs92rcd13ifvqcc0","pricing_plan_id":"free"},{"bike_id":"5f404070-e56a-43ba-b7ae-b95c51c02b1e","system_id":"levelo_inurba_marseille","lat":43.319919,"lon":5.381391,"is_reserved":false,"is_disabled":false,"rental_uris":{"android":"levelo://app?vid=5f404070-e56a-43ba-b7ae-b95c51c02b1e","ios":"levelo://app?vid=5f404070-e56a-43ba-b7ae-b95c51c02b1e"},"vehicle_type_id":"4","last_reported":1701295598,"current_range_meters":0,"station_id":"ce4bhr12rcd13ifvqhpg","pricing_plan_id":"free"},{"bike_id":"3e01df68-27f0-42b4-ac09-2ec4a13acda6","system_id":"levelo_inurba_marseille","lat":43.31996,"lon":5.38142,"is_reserved":false,"is_disabled":false,"rental_uris":{"android":"levelo://app?vid=3e01df68-27f0-42b4-ac09-2ec4a13acda6","ios":"levelo://app?vid=3e01df68-27f0-42b4-ac09-2ec4a13acda6"},"vehicle_type_id":"4","last_reported":1701295598,"current_range_meters":11200,"station_id":"ce4bhr12rcd13ifvqhpg","pricing_plan_id":"free"},{"bike_id":"565095b7-316d-4677-b34c-7054bea3c533","system_id":"levelo_inurba_marseille","lat":43.319935,"lon":5.381699,"is_reserved":false,"is_disabled":false,"rental_uris":{"android":"levelo://app?vid=565095b7-316d-4677-b34c-7054bea3c533","ios":"levelo://app?vid=565095b7-316d-4677-b34c-7054bea3c533"},"vehicle_type_id":"4","last_reported":1701295598,"current_range_meters":20400,"station_id":"ce4bhr12rcd13ifvqhpg","pricing_plan_id":"free"},{"bike_id":"2275aca5-3158-4c2c-8022-ca5d2714bc86","system_id":"levelo_inurba_marseille","lat":43.319997,"lon":5.381594,"is_reserved":false,"is_disabled":false,"rental_uris":{"android":"levelo://app?vid=2275aca5-3158-4c2c-8022-ca5d2714bc86","ios":"levelo://app?vid=2275aca5-3158-4c2c-8022-ca5d2714bc86"},"vehicle_type_id":"4","last_reported":1701295598,"current_range_meters":25200,"station_id":"ce4bhr12rcd13ifvqhpg","pricing_plan_id":"free"},{"bike_id":"201731f7-2940-4bd2-b225-c90288ce9129","system_id":"levelo_inurba_marseille","lat":43.313571,"lon":5.384829,"is_reserved":false,"is_disabled":false,"rental_uris":{"android":"levelo://app?vid=201731f7-2940-4bd2-b225-c90288ce9129","ios":"levelo://app?vid=201731f7-2940-4bd2-b225-c90288ce9129"},"vehicle_type_id":"4","last_reported":1701295598,"current_range_meters":22800,"station_id":"ce4bgt92rcd13ifvqcf0","pricing_plan_id":"free"},{"bike_id":"0d018c40-879c-4b54-a728-7f28c71665bd","system_id":"levelo_inurba_marseille","lat":43.313571,"lon":5.384829,"is_reserved":false,"is_disabled":false,"rental_uris":{"android":"levelo://app?vid=0d018c40-879c-4b54-a728-7f28c71665bd","ios":"levelo://app?vid=0d018c40-879c-4b54-a728-7f28c71665bd"},"vehicle_type_id":"4","last_reported":1701295598,"current_range_meters":9600,"station_id":"ce4bgt92rcd13ifvqcf0","pricing_plan_id":"free"},{"bike_id":"ce4b2c92-4130-494b-b60f-c782d2d61ffe","system_id":"levelo_inurba_marseille","lat":43.313571,"lon":5.384829,"is_reserved":false,"is_disabled":false,"rental_uris":{"android":"levelo://app?vid=ce4b2c92-4130-494b-b60f-c782d2d61ffe","ios":"levelo://app?vid=ce4b2c92-4130-494b-b60f-c782d2d61ffe"},"vehicle_type_id":"4","last_reported":1701295598,"current_range_meters":27600,"station_id":"ce4bgt92rcd13ifvqcf0","pricing_plan_id":"free"},{"bike_id":"470e503b-3a4f-41e9-8453-52a34bc98b45","system_id":"levelo_inurba_marseille","lat":43.313571,"lon":5.384829,"is_reserved":false,"is_disabled":false,"rental_uris":{"android":"levelo://app?vid=470e503b-3a4f-41e9-8453-52a34bc98b45","ios":"levelo://app?vid=470e503b-3a4f-41e9-8453-52a34bc98b45"},"vehicle_type_id":"4","last_reported":1701295598,"current_range_meters":10800,"station_id":"ce4bgt92rcd13ifvqcf0","pricing_plan_id":"free"},{"bike_id":"c34c5b24-27cc-4568-9c4f-8442b0eb6289","system_id":"levelo_inurba_marseille","lat":43.299222,"lon":5.365554,"is_reserved":false,"is_disabled":false,"rental_uris":{"android":"levelo://app?vid=c34c5b24-27cc-4568-9c4f-8442b0eb6289","ios":"levelo://app?vid=c34c5b24-27cc-4568-9c4f-8442b0eb6289"},"vehicle_type_id":"4","last_reported":1701295598,"current_range_meters":2000,"station_id":"ce4bgm92rcd13ifvqbr0","pricing_plan_id":"free"},{"bike_id":"5a1af099-e3b6-4c1b-95f9-980d7dcdee07","system_id":"levelo_inurba_marseille","lat":43.305364,"lon":5.384119,"is_reserved":false,"is_disabled":false,"rental_uris":{"android":"levelo://app?vid=5a1af099-e3b6-4c1b-95f9-980d7dcdee07","ios":"levelo://app?vid=5a1af099-e3b6-4c1b-95f9-980d7dcdee07"},"vehicle_type_id":"4","last_reported":1701295598,"current_range_meters":22400,"station_id":"ce4bgg92rcd13ifvqb30","pricing_plan_id":"free"},{"bike_id":"80a5e7e0-20ba-4d90-9839-afeb50864dd5","system_id":"levelo_inurba_marseille","lat":43.299243,"lon":5.37481,"is_reserved":false,"is_disabled":false,"rental_uris":{"android":"levelo://app?vid=80a5e7e0-20ba-4d90-9839-afeb50864dd5","ios":"levelo://app?vid=80a5e7e0-20ba-4d90-9839-afeb50864dd5"},"vehicle_type_id":"4","last_reported":1701295598,"current_range_meters":6400,"station_id":"ce4bgjh2rcd13ifvqbg0","pricing_plan_id":"free"},{"bike_id":"f1869728-27c0-49cb-b803-0f676cca23b4","system_id":"levelo_inurba_marseille","lat":43.311722,"lon":5.387247,"is_reserved":false,"is_disabled":false,"rental_uris":{"android":"levelo://app?vid=f1869728-27c0-49cb-b803-0f676cca23b4","ios":"levelo://app?vid=f1869728-27c0-49cb-b803-0f676cca23b4"},"vehicle_type_id":"4","last_reported":1701295598,"current_range_meters":18000,"station_id":"ce4bgv12rcd13ifvqcp0","pricing_plan_id":"free"},{"bike_id":"aebb5f1f-3a1e-4323-a4f0-ae83e0b78d14","system_id":"levelo_inurba_marseille","lat":43.327603,"lon":5.36705,"is_reserved":false,"is_disabled":false,"rental_uris":{"android":"levelo://app?vid=aebb5f1f-3a1e-4323-a4f0-ae83e0b78d14","ios":"levelo://app?vid=aebb5f1f-3a1e-4323-a4f0-ae83e0b78d14"},"vehicle_type_id":"4","last_reported":1701295598,"current_range_meters":26800,"station_id":"","pricing_plan_id":"free"},{"bike_id":"d36e4daa-8cbf-4921-b012-b92a6a8b8bf6","system_id":"levelo_inurba_marseille","lat":43.322872,"lon":5.382756,"is_reserved":false,"is_disabled":false,"rental_uris":{"android":"levelo://app?vid=d36e4daa-8cbf-4921-b012-b92a6a8b8bf6","ios":"levelo://app?vid=d36e4daa-8cbf-4921-b012-b92a6a8b8bf6"},"vehicle_type_id":"4","last_reported":1701295598,"current_range_meters":28000,"station_id":"ce4bhr12rcd13ifvqhqg","pricing_plan_id":"free"},{"bike_id":"0da4b62f-0db6-4479-8cb1-8d25ba70b760","system_id":"levelo_inurba_marseille","lat":43.322872,"lon":5.382756,"is_reserved":false,"is_disabled":false,"rental_uris":{"android":"levelo://app?vid=0da4b62f-0db6-4479-8cb1-8d25ba70b760","ios":"levelo://app?vid=0da4b62f-0db6-4479-8cb1-8d25ba70b760"},"vehicle_type_id":"4","last_reported":1701295598,"current_range_meters":30400,"station_id":"ce4bhr12rcd13ifvqhqg","pricing_plan_id":"free"},{"bike_id":"a2dfad7b-2582-4e49-914c-b789e8efe4e3","system_id":"levelo_inurba_marseille","lat":43.297163,"lon":5.365866,"is_reserved":false,"is_disabled":false,"rental_uris":{"android":"levelo://app?vid=a2dfad7b-2582-4e49-914c-b789e8efe4e3","ios":"levelo://app?vid=a2dfad7b-2582-4e49-914c-b789e8efe4e3"},"vehicle_type_id":"4","last_reported":1701295598,"current_range_meters":0,"station_id":"ce4bgn12rcd13ifvqbt0","pricing_plan_id":"free"},{"bike_id":"56768e4e-9386-4af4-86a9-5511352d419c","system_id":"levelo_inurba_marseille","lat":43.29593,"lon":5.36729,"is_reserved":false,"is_disabled":false,"rental_uris":{"android":"levelo://app?vid=56768e4e-9386-4af4-86a9-5511352d419c","ios":"levelo://app?vid=56768e4e-9386-4af4-86a9-5511352d419c"},"vehicle_type_id":"4","last_reported":1701295598,"current_range_meters":10400,"station_id":"ce4bgph2rcd13ifvqc2g","pricing_plan_id":"free"},{"bike_id":"9a36a275-8cd8-42e8-82f7-48d70be1aaea","system_id":"levelo_inurba_marseille","lat":43.296203,"lon":5.371673,"is_reserved":false,"is_disabled":false,"rental_uris":{"android":"levelo://app?vid=9a36a275-8cd8-42e8-82f7-48d70be1aaea","ios":"levelo://app?vid=9a36a275-8cd8-42e8-82f7-48d70be1aaea"},"vehicle_type_id":"4","last_reported":1701295598,"current_range_meters":10000,"station_id":"ce4bgnh2rcd13ifvqc0g","pricing_plan_id":"free"},{"bike_id":"f3449596-e9b3-46af-9337-6058b9c8cebb","system_id":"levelo_inurba_marseille","lat":43.29573,"lon":5.367355,"is_reserved":false,"is_disabled":false,"rental_uris":{"android":"levelo://app?vid=f3449596-e9b3-46af-9337-6058b9c8cebb","ios":"levelo://app?vid=f3449596-e9b3-46af-9337-6058b9c8cebb"},"vehicle_type_id":"4","last_reported":1701295598,"current_range_meters":25600,"station_id":"ce4bgph2rcd13ifvqc2g","pricing_plan_id":"free"},{"bike_id":"4bdcf331-2874-4934-8baa-5eec76383291","system_id":"levelo_inurba_marseille","lat":43.296935,"lon":5.376544,"is_reserved":false,"is_disabled":false,"rental_uris":{"android":"levelo://app?vid=4bdcf331-2874-4934-8baa-5eec76383291","ios":"levelo://app?vid=4bdcf331-2874-4934-8baa-5eec76383291"},"vehicle_type_id":"4","last_reported":1701295598,"current_range_meters":31200,"station_id":"ce4bgkh2rcd13ifvqbl0","pricing_plan_id":"free"},{"bike_id":"176c7767-545e-4ecb-9dad-a822c70396cf","system_id":"levelo_inurba_marseille","lat":43.29916,"lon":5.3814,"is_reserved":false,"is_disabled":false,"rental_uris":{"android":"levelo://app?vid=176c7767-545e-4ecb-9dad-a822c70396cf","ios":"levelo://app?vid=176c7767-545e-4ecb-9dad-a822c70396cf"},"vehicle_type_id":"4","last_reported":1701295598,"current_range_meters":8400,"station_id":"ce4bgj12rcd13ifvqbc0","pricing_plan_id":"free"},{"bike_id":"58af9d59-5609-444f-84df-f6e9140e1c96","system_id":"levelo_inurba_marseille","lat":43.309546,"lon":5.390514,"is_reserved":false,"is_disabled":false,"rental_uris":{"android":"levelo://app?vid=58af9d59-5609-444f-84df-f6e9140e1c96","ios":"levelo://app?vid=58af9d59-5609-444f-84df-f6e9140e1c96"},"vehicle_type_id":"4","last_reported":1701295598,"current_range_meters":0,"station_id":"ce4bgup2rcd13ifvqco0","pricing_plan_id":"free"},{"bike_id":"057ae66f-c5eb-4cf3-ad62-ae217c15f56b","system_id":"levelo_inurba_marseille","lat":43.317557,"lon":5.390173,"is_reserved":false,"is_disabled":false,"rental_uris":{"android":"levelo://app?vid=057ae66f-c5eb-4cf3-ad62-ae217c15f56b","ios":"levelo://app?vid=057ae66f-c5eb-4cf3-ad62-ae217c15f56b"},"vehicle_type_id":"4","last_reported":1701295598,"current_range_meters":30800,"station_id":"ce4bhqp2rcd13ifvqhng","pricing_plan_id":"free"},{"bike_id":"6ed22076-9ba5-4488-a16d-4aa18d2dd911","system_id":"levelo_inurba_marseille","lat":43.317557,"lon":5.390173,"is_reserved":false,"is_disabled":false,"rental_uris":{"android":"levelo://app?vid=6ed22076-9ba5-4488-a16d-4aa18d2dd911","ios":"levelo://app?vid=6ed22076-9ba5-4488-a16d-4aa18d2dd911"},"vehicle_type_id":"4","last_reported":1701295598,"current_range_meters":800,"station_id":"ce4bhqp2rcd13ifvqhng","pricing_plan_id":"free"},{"bike_id":"5efdf9c8-7bab-4ca2-88eb-9af005a80759","system_id":"levelo_inurba_marseille","lat":43.297923,"lon":5.381083,"is_reserved":false,"is_disabled":false,"rental_uris":{"android":"levelo://app?vid=5efdf9c8-7bab-4ca2-88eb-9af005a80759","ios":"levelo://app?vid=5efdf9c8-7bab-4ca2-88eb-9af005a80759"},"vehicle_type_id":"4","last_reported":1701295598,"current_range_meters":0,"station_id":"ce4bgip2rcd13ifvqbb0","pricing_plan_id":"free"},{"bike_id":"db22933f-38c2-4054-8c75-1b190324c682","system_id":"levelo_inurba_marseille","lat":43.3042,"lon":5.38879,"is_reserved":false,"is_disabled":false,"rental_uris":{"android":"levelo://app?vid=db22933f-38c2-4054-8c75-1b190324c682","ios":"levelo://app?vid=db22933f-38c2-4054-8c75-1b190324c682"},"vehicle_type_id":"4","last_reported":1701295598,"current_range_meters":16800,"station_id":"ce4bgk12rcd13ifvqbi0","pricing_plan_id":"free"},{"bike_id":"ae8a8bba-792e-452c-a452-7439481e7898","system_id":"levelo_inurba_marseille","lat":43.290631,"lon":5.359244,"is_reserved":false,"is_disabled":false,"rental_uris":{"android":"levelo://app?vid=ae8a8bba-792e-452c-a452-7439481e7898","ios":"levelo://app?vid=ae8a8bba-792e-452c-a452-7439481e7898"},"vehicle_type_id":"4","last_reported":1701295598,"current_range_meters":1600,"station_id":"ce4bha92rcd13ifvqeg0","pricing_plan_id":"free"},{"bike_id":"52b88ff4-8bc6-4b5f-b02f-8b012d1bc628","system_id":"levelo_inurba_marseille","lat":43.302992,"lon":5.392136,"is_reserved":false,"is_disabled":false,"rental_uris":{"android":"levelo://app?vid=52b88ff4-8bc6-4b5f-b02f-8b012d1bc628","ios":"levelo://app?vid=52b88ff4-8bc6-4b5f-b02f-8b012d1bc628"},"vehicle_type_id":"4","last_reported":1701295598,"current_range_meters":10800,"station_id":"ce4bgkh2rcd13ifvqbk0","pricing_plan_id":"free"},{"bike_id":"3e7ed083-e97a-4c08-a1ba-bd6708800fc4","system_id":"levelo_inurba_marseille","lat":43.30085,"lon":5.390856,"is_reserved":false,"is_disabled":false,"rental_uris":{"android":"levelo://app?vid=3e7ed083-e97a-4c08-a1ba-bd6708800fc4","ios":"levelo://app?vid=3e7ed083-e97a-4c08-a1ba-bd6708800fc4"},"vehicle_type_id":"4","last_reported":1701295598,"current_range_meters":26400,"station_id":"ce4bh192rcd13ifvqdb0","pricing_plan_id":"free"},{"bike_id":"5065875c-05cf-4751-9199-730b4b85ab55","system_id":"levelo_inurba_marseille","lat":43.30085,"lon":5.390856,"is_reserved":false,"is_disabled":false,"rental_uris":{"android":"levelo://app?vid=5065875c-05cf-4751-9199-730b4b85ab55","ios":"levelo://app?vid=5065875c-05cf-4751-9199-730b4b85ab55"},"vehicle_type_id":"4","last_reported":1701295598,"current_range_meters":28400,"station_id":"ce4bh192rcd13ifvqdb0","pricing_plan_id":"free"},{"bike_id":"c28a46af-4a94-4402-b5c0-5d1680a9c217","system_id":"levelo_inurba_marseille","lat":43.300921,"lon":5.390877,"is_reserved":false,"is_disabled":false,"rental_uris":{"android":"levelo://app?vid=c28a46af-4a94-4402-b5c0-5d1680a9c217","ios":"levelo://app?vid=c28a46af-4a94-4402-b5c0-5d1680a9c217"},"vehicle_type_id":"4","last_reported":1701295598,"current_range_meters":28800,"station_id":"","pricing_plan_id":"free"},{"bike_id":"e11ee2e0-3a33-4877-aa61-dbfff427f0ca","system_id":"levelo_inurba_marseille","lat":43.30085,"lon":5.390856,"is_reserved":false,"is_disabled":false,"rental_uris":{"android":"levelo://app?vid=e11ee2e0-3a33-4877-aa61-dbfff427f0ca","ios":"levelo://app?vid=e11ee2e0-3a33-4877-aa61-dbfff427f0ca"},"vehicle_type_id":"4","last_reported":1701295598,"current_range_meters":28800,"station_id":"ce4bh192rcd13ifvqdb0","pricing_plan_id":"free"},{"bike_id":"bfd3884b-3a94-4cd4-87e3-c07a3c24d07c","system_id":"levelo_inurba_marseille","lat":43.30085,"lon":5.390856,"is_reserved":false,"is_disabled":false,"rental_uris":{"android":"levelo://app?vid=bfd3884b-3a94-4cd4-87e3-c07a3c24d07c","ios":"levelo://app?vid=bfd3884b-3a94-4cd4-87e3-c07a3c24d07c"},"vehicle_type_id":"4","last_reported":1701295598,"current_range_meters":26800,"station_id":"ce4bh192rcd13ifvqdb0","pricing_plan_id":"free"},{"bike_id":"fc01d778-e9d5-4de9-aa67-ced43556c93f","system_id":"levelo_inurba_marseille","lat":43.298764,"lon":5.388973,"is_reserved":false,"is_disabled":false,"rental_uris":{"android":"levelo://app?vid=fc01d778-e9d5-4de9-aa67-ced43556c93f","ios":"levelo://app?vid=fc01d778-e9d5-4de9-aa67-ced43556c93f"},"vehicle_type_id":"4","last_reported":1701295598,"current_range_meters":21200,"station_id":"ce4bh392rcd13ifvqdl0","pricing_plan_id":"free"},{"bike_id":"fa17851d-f7e6-46f5-9a90-88a778c4d443","system_id":"levelo_inurba_marseille","lat":43.298764,"lon":5.388973,"is_reserved":false,"is_disabled":false,"rental_uris":{"android":"levelo://app?vid=fa17851d-f7e6-46f5-9a90-88a778c4d443","ios":"levelo://app?vid=fa17851d-f7e6-46f5-9a90-88a778c4d443"},"vehicle_type_id":"4","last_reported":1701295598,"current_range_meters":1600,"station_id":"ce4bh392rcd13ifvqdl0","pricing_plan_id":"free"},{"bike_id":"9fc02e1b-18cf-4ba2-a4b6-43fb4433d289","system_id":"levelo_inurba_marseille","lat":43.30888,"lon":5.39628,"is_reserved":false,"is_disabled":false,"rental_uris":{"android":"levelo://app?vid=9fc02e1b-18cf-4ba2-a4b6-43fb4433d289","ios":"levelo://app?vid=9fc02e1b-18cf-4ba2-a4b6-43fb4433d289"},"vehicle_type_id":"4","last_reported":1701295598,"current_range_meters":0,"station_id":"ce4bh012rcd13ifvqcv0","pricing_plan_id":"free"},{"bike_id":"19f83519-64de-4937-9c93-7e8d3565fa39","system_id":"levelo_inurba_marseille","lat":43.29199,"lon":5.35799,"is_reserved":false,"is_disabled":false,"rental_uris":{"android":"levelo://app?vid=19f83519-64de-4937-9c93-7e8d3565fa39","ios":"levelo://app?vid=19f83519-64de-4937-9c93-7e8d3565fa39"},"vehicle_type_id":"4","last_reported":1701295598,"current_range_meters":12800,"station_id":"ce4bhb12rcd13ifvqel0","pricing_plan_id":"free"},{"bike_id":"ca5abcda-d1eb-41a3-9b3d-cb8fed2fd827","system_id":"levelo_inurba_marseille","lat":43.29193,"lon":5.35802,"is_reserved":false,"is_disabled":false,"rental_uris":{"android":"levelo://app?vid=ca5abcda-d1eb-41a3-9b3d-cb8fed2fd827","ios":"levelo://app?vid=ca5abcda-d1eb-41a3-9b3d-cb8fed2fd827"},"vehicle_type_id":"4","last_reported":1701295598,"current_range_meters":11200,"station_id":"ce4bhb12rcd13ifvqel0","pricing_plan_id":"free"},{"bike_id":"7c3a263f-151a-4a8a-88c3-35f7de6c51ae","system_id":"levelo_inurba_marseille","lat":43.3133,"lon":5.39688,"is_reserved":false,"is_disabled":false,"rental_uris":{"android":"levelo://app?vid=7c3a263f-151a-4a8a-88c3-35f7de6c51ae","ios":"levelo://app?vid=7c3a263f-151a-4a8a-88c3-35f7de6c51ae"},"vehicle_type_id":"4","last_reported":1701295598,"current_range_meters":31200,"station_id":"ce4bgvp2rcd13ifvqcu0","pricing_plan_id":"free"},{"bike_id":"d3c6091f-bc1e-4fcc-99a3-266ab434bc60","system_id":"levelo_inurba_marseille","lat":43.3133,"lon":5.39689,"is_reserved":false,"is_disabled":false,"rental_uris":{"android":"levelo://app?vid=d3c6091f-bc1e-4fcc-99a3-266ab434bc60","ios":"levelo://app?vid=d3c6091f-bc1e-4fcc-99a3-266ab434bc60"},"vehicle_type_id":"4","last_reported":1701295598,"current_range_meters":24400,"station_id":"ce4bgvp2rcd13ifvqcu0","pricing_plan_id":"free"},{"bike_id":"d83f094f-82ea-4268-83eb-6c4ef0f8caeb","system_id":"levelo_inurba_marseille","lat":43.31323,"lon":5.39693,"is_reserved":false,"is_disabled":false,"rental_uris":{"android":"levelo://app?vid=d83f094f-82ea-4268-83eb-6c4ef0f8caeb","ios":"levelo://app?vid=d83f094f-82ea-4268-83eb-6c4ef0f8caeb"},"vehicle_type_id":"4","last_reported":1701295598,"current_range_meters":9600,"station_id":"ce4bgvp2rcd13ifvqcu0","pricing_plan_id":"free"},{"bike_id":"3842212e-cdf8-408b-b825-8e132af203fd","system_id":"levelo_inurba_marseille","lat":43.309038,"lon":5.396546,"is_reserved":false,"is_disabled":false,"rental_uris":{"android":"levelo://app?vid=3842212e-cdf8-408b-b825-8e132af203fd","ios":"levelo://app?vid=3842212e-cdf8-408b-b825-8e132af203fd"},"vehicle_type_id":"4","last_reported":1701295598,"current_range_meters":30000,"station_id":"ce4bh012rcd13ifvqcv0","pricing_plan_id":"free"},{"bike_id":"173e6bdd-0f58-4655-a9c0-756b286a746a","system_id":"levelo_inurba_marseille","lat":43.29529,"lon":5.385581,"is_reserved":false,"is_disabled":false,"rental_uris":{"android":"levelo://app?vid=173e6bdd-0f58-4655-a9c0-756b286a746a","ios":"levelo://app?vid=173e6bdd-0f58-4655-a9c0-756b286a746a"},"vehicle_type_id":"4","last_reported":1701295598,"current_range_meters":23600,"station_id":"ce4bgih2rcd13ifvqba0","pricing_plan_id":"free"},{"bike_id":"abfe3815-1d09-4405-bf6e-e1fad75ef729","system_id":"levelo_inurba_marseille","lat":43.312256,"lon":5.397249,"is_reserved":false,"is_disabled":false,"rental_uris":{"android":"levelo://app?vid=abfe3815-1d09-4405-bf6e-e1fad75ef729","ios":"levelo://app?vid=abfe3815-1d09-4405-bf6e-e1fad75ef729"},"vehicle_type_id":"4","last_reported":1701295598,"current_range_meters":12800,"station_id":"","pricing_plan_id":"free"},{"bike_id":"2724cc8f-085b-459c-b2b4-8796f455ea3f","system_id":"levelo_inurba_marseille","lat":43.290631,"lon":5.359244,"is_reserved":false,"is_disabled":false,"rental_uris":{"android":"levelo://app?vid=2724cc8f-085b-459c-b2b4-8796f455ea3f","ios":"levelo://app?vid=2724cc8f-085b-459c-b2b4-8796f455ea3f"},"vehicle_type_id":"4","last_reported":1701295598,"current_range_meters":21200,"station_id":"ce4bha92rcd13ifvqeg0","pricing_plan_id":"free"},{"bike_id":"ec6c7d8e-54ec-4360-a0c1-2929ca024aa6","system_id":"levelo_inurba_marseille","lat":43.289184,"lon":5.366408,"is_reserved":false,"is_disabled":false,"rental_uris":{"android":"levelo://app?vid=ec6c7d8e-54ec-4360-a0c1-2929ca024aa6","ios":"levelo://app?vid=ec6c7d8e-54ec-4360-a0c1-2929ca024aa6"},"vehicle_type_id":"4","last_reported":1701295598,"current_range_meters":26800,"station_id":"ce4bhap2rcd13ifvqek0","pricing_plan_id":"free"},{"bike_id":"76423419-7097-4e35-980b-09a4ff2b0be0","system_id":"levelo_inurba_marseille","lat":43.2894,"lon":5.36368,"is_reserved":false,"is_disabled":false,"rental_uris":{"android":"levelo://app?vid=76423419-7097-4e35-980b-09a4ff2b0be0","ios":"levelo://app?vid=76423419-7097-4e35-980b-09a4ff2b0be0"},"vehicle_type_id":"4","last_reported":1701295598,"current_range_meters":19200,"station_id":"ce4bhc92rcd13ifvqetg","pricing_plan_id":"free"},{"bike_id":"164db871-a446-476d-8fc7-00cc85951711","system_id":"levelo_inurba_marseille","lat":43.29056,"lon":5.37791,"is_reserved":false,"is_disabled":false,"rental_uris":{"android":"levelo://app?vid=164db871-a446-476d-8fc7-00cc85951711","ios":"levelo://app?vid=164db871-a446-476d-8fc7-00cc85951711"},"vehicle_type_id":"4","last_reported":1701295598,"current_range_meters":0,"station_id":"","pricing_plan_id":"free"},{"bike_id":"ad2f7736-9eec-4d71-a71a-65726625f89e","system_id":"levelo_inurba_marseille","lat":43.33043,"lon":5.3892,"is_reserved":false,"is_disabled":false,"rental_uris":{"android":"levelo://app?vid=ad2f7736-9eec-4d71-a71a-65726625f89e","ios":"levelo://app?vid=ad2f7736-9eec-4d71-a71a-65726625f89e"},"vehicle_type_id":"4","last_reported":1701295598,"current_range_meters":4000,"station_id":"ce4bhr92rcd13ifvqhrg","pricing_plan_id":"free"},{"bike_id":"ec75b8c7-9188-4e68-b56b-d9340eb684d4","system_id":"levelo_inurba_marseille","lat":43.330442,"lon":5.389148,"is_reserved":false,"is_disabled":false,"rental_uris":{"android":"levelo://app?vid=ec75b8c7-9188-4e68-b56b-d9340eb684d4","ios":"levelo://app?vid=ec75b8c7-9188-4e68-b56b-d9340eb684d4"},"vehicle_type_id":"4","last_reported":1701295598,"current_range_meters":19600,"station_id":"ce4bhr92rcd13ifvqhrg","pricing_plan_id":"free"},{"bike_id":"dd2169e6-d554-4534-bbc7-6685222618d8","system_id":"levelo_inurba_marseille","lat":43.290103,"lon":5.356114,"is_reserved":false,"is_disabled":false,"rental_uris":{"android":"levelo://app?vid=dd2169e6-d554-4534-bbc7-6685222618d8","ios":"levelo://app?vid=dd2169e6-d554-4534-bbc7-6685222618d8"},"vehicle_type_id":"4","last_reported":1701295598,"current_range_meters":400,"station_id":"ce4bhb92rcd13ifvqen0","pricing_plan_id":"free"},{"bike_id":"17a1f976-5147-4e4b-8261-df6c06701252","system_id":"levelo_inurba_marseille","lat":43.290104,"lon":5.356111,"is_reserved":false,"is_disabled":false,"rental_uris":{"android":"levelo://app?vid=17a1f976-5147-4e4b-8261-df6c06701252","ios":"levelo://app?vid=17a1f976-5147-4e4b-8261-df6c06701252"},"vehicle_type_id":"4","last_reported":1701295598,"current_range_meters":30000,"station_id":"ce4bhb92rcd13ifvqen0","pricing_plan_id":"free"},{"bike_id":"db4b6ff0-76a5-40bf-a170-bcda99cf428a","system_id":"levelo_inurba_marseille","lat":43.297866,"lon":5.393377,"is_reserved":false,"is_disabled":false,"rental_uris":{"android":"levelo://app?vid=db4b6ff0-76a5-40bf-a170-bcda99cf428a","ios":"levelo://app?vid=db4b6ff0-76a5-40bf-a170-bcda99cf428a"},"vehicle_type_id":"4","last_reported":1701295598,"current_range_meters":16400,"station_id":"","pricing_plan_id":"free"},{"bike_id":"4e999e29-28f7-441f-9f9b-ae6475006119","system_id":"levelo_inurba_marseille","lat":43.289743,"lon":5.378304,"is_reserved":false,"is_disabled":false,"rental_uris":{"android":"levelo://app?vid=4e999e29-28f7-441f-9f9b-ae6475006119","ios":"levelo://app?vid=4e999e29-28f7-441f-9f9b-ae6475006119"},"vehicle_type_id":"4","last_reported":1701295598,"current_range_meters":26400,"station_id":"ce4bh9p2rcd13ifvqed0","pricing_plan_id":"free"},{"bike_id":"0b554f1d-5378-4d9a-a844-a020f000c2a7","system_id":"levelo_inurba_marseille","lat":43.28856,"lon":5.358371,"is_reserved":false,"is_disabled":false,"rental_uris":{"android":"levelo://app?vid=0b554f1d-5378-4d9a-a844-a020f000c2a7","ios":"levelo://app?vid=0b554f1d-5378-4d9a-a844-a020f000c2a7"},"vehicle_type_id":"4","last_reported":1701295598,"current_range_meters":19200,"station_id":"ce4bhb12rcd13ifvqem0","pricing_plan_id":"free"},{"bike_id":"58b62225-256e-4d7a-addd-88854b12de0e","system_id":"levelo_inurba_marseille","lat":43.28856,"lon":5.358371,"is_reserved":false,"is_disabled":false,"rental_uris":{"android":"levelo://app?vid=58b62225-256e-4d7a-addd-88854b12de0e","ios":"levelo://app?vid=58b62225-256e-4d7a-addd-88854b12de0e"},"vehicle_type_id":"4","last_reported":1701295598,"current_range_meters":20400,"station_id":"ce4bhb12rcd13ifvqem0","pricing_plan_id":"free"},{"bike_id":"4d89d2b9-397f-46ad-aa00-b135a06e101b","system_id":"levelo_inurba_marseille","lat":43.28856,"lon":5.358371,"is_reserved":false,"is_disabled":false,"rental_uris":{"android":"levelo://app?vid=4d89d2b9-397f-46ad-aa00-b135a06e101b","ios":"levelo://app?vid=4d89d2b9-397f-46ad-aa00-b135a06e101b"},"vehicle_type_id":"4","last_reported":1701295598,"current_range_meters":23600,"station_id":"ce4bhb12rcd13ifvqem0","pricing_plan_id":"free"},{"bike_id":"8dd6119c-7aef-4d30-9ad4-05127783a43f","system_id":"levelo_inurba_marseille","lat":43.28856,"lon":5.358371,"is_reserved":false,"is_disabled":false,"rental_uris":{"android":"levelo://app?vid=8dd6119c-7aef-4d30-9ad4-05127783a43f","ios":"levelo://app?vid=8dd6119c-7aef-4d30-9ad4-05127783a43f"},"vehicle_type_id":"4","last_reported":1701295598,"current_range_meters":11200,"station_id":"ce4bhb12rcd13ifvqem0","pricing_plan_id":"free"},{"bike_id":"bd5a5c31-6495-426c-82e9-f1d928ff8b17","system_id":"levelo_inurba_marseille","lat":43.28856,"lon":5.358371,"is_reserved":false,"is_disabled":false,"rental_uris":{"android":"levelo://app?vid=bd5a5c31-6495-426c-82e9-f1d928ff8b17","ios":"levelo://app?vid=bd5a5c31-6495-426c-82e9-f1d928ff8b17"},"vehicle_type_id":"4","last_reported":1701295598,"current_range_meters":31200,"station_id":"ce4bhb12rcd13ifvqem0","pricing_plan_id":"free"},{"bike_id":"f294f06c-942d-492a-9674-b89096137224","system_id":"levelo_inurba_marseille","lat":43.28856,"lon":5.358371,"is_reserved":false,"is_disabled":false,"rental_uris":{"android":"levelo://app?vid=f294f06c-942d-492a-9674-b89096137224","ios":"levelo://app?vid=f294f06c-942d-492a-9674-b89096137224"},"vehicle_type_id":"4","last_reported":1701295598,"current_range_meters":31200,"station_id":"ce4bhb12rcd13ifvqem0","pricing_plan_id":"free"},{"bike_id":"f3090319-3b82-4b93-8444-9fab36f667e8","system_id":"levelo_inurba_marseille","lat":43.288465,"lon":5.358263,"is_reserved":false,"is_disabled":false,"rental_uris":{"android":"levelo://app?vid=f3090319-3b82-4b93-8444-9fab36f667e8","ios":"levelo://app?vid=f3090319-3b82-4b93-8444-9fab36f667e8"},"vehicle_type_id":"4","last_reported":1701295598,"current_range_meters":31200,"station_id":"ce4bhb12rcd13ifvqem0","pricing_plan_id":"free"},{"bike_id":"a71772fa-ab40-447f-8fad-7e28540b4b2a","system_id":"levelo_inurba_marseille","lat":43.31273,"lon":5.40171,"is_reserved":false,"is_disabled":false,"rental_uris":{"android":"levelo://app?vid=a71772fa-ab40-447f-8fad-7e28540b4b2a","ios":"levelo://app?vid=a71772fa-ab40-447f-8fad-7e28540b4b2a"},"vehicle_type_id":"4","last_reported":1701295598,"current_range_meters":8400,"station_id":"ce4bh092rcd13ifvqd30","pricing_plan_id":"free"},{"bike_id":"ecdbc40c-eb0d-41d0-a69f-ac5b430fc7de","system_id":"levelo_inurba_marseille","lat":43.309371,"lon":5.401449,"is_reserved":false,"is_disabled":false,"rental_uris":{"android":"levelo://app?vid=ecdbc40c-eb0d-41d0-a69f-ac5b430fc7de","ios":"levelo://app?vid=ecdbc40c-eb0d-41d0-a69f-ac5b430fc7de"},"vehicle_type_id":"4","last_reported":1701295598,"current_range_meters":2000,"station_id":"ce4bgvp2rcd13ifvqct0","pricing_plan_id":"free"},{"bike_id":"b0fe66fd-06f1-4ae0-8c0d-e012e807dc95","system_id":"levelo_inurba_marseille","lat":43.30929,"lon":5.40141,"is_reserved":false,"is_disabled":false,"rental_uris":{"android":"levelo://app?vid=b0fe66fd-06f1-4ae0-8c0d-e012e807dc95","ios":"levelo://app?vid=b0fe66fd-06f1-4ae0-8c0d-e012e807dc95"},"vehicle_type_id":"4","last_reported":1701295598,"current_range_meters":12400,"station_id":"ce4bgvp2rcd13ifvqct0","pricing_plan_id":"free"},{"bike_id":"6ea13113-8a59-4240-b979-38b120a1f26f","system_id":"levelo_inurba_marseille","lat":43.30654,"lon":5.40092,"is_reserved":false,"is_disabled":false,"rental_uris":{"android":"levelo://app?vid=6ea13113-8a59-4240-b979-38b120a1f26f","ios":"levelo://app?vid=6ea13113-8a59-4240-b979-38b120a1f26f"},"vehicle_type_id":"4","last_reported":1701295598,"current_range_meters":0,"station_id":"ce4bh112rcd13ifvqda0","pricing_plan_id":"free"},{"bike_id":"8eccfdf2-bc84-429c-807d-ec64e97731b3","system_id":"levelo_inurba_marseille","lat":43.306412,"lon":5.401035,"is_reserved":false,"is_disabled":false,"rental_uris":{"android":"levelo://app?vid=8eccfdf2-bc84-429c-807d-ec64e97731b3","ios":"levelo://app?vid=8eccfdf2-bc84-429c-807d-ec64e97731b3"},"vehicle_type_id":"4","last_reported":1701295598,"current_range_meters":1200,"station_id":"ce4bh112rcd13ifvqda0","pricing_plan_id":"free"},{"bike_id":"f3cab6a6-5abf-4d83-809c-6dc85fe7e77f","system_id":"levelo_inurba_marseille","lat":43.306412,"lon":5.401035,"is_reserved":false,"is_disabled":false,"rental_uris":{"android":"levelo://app?vid=f3cab6a6-5abf-4d83-809c-6dc85fe7e77f","ios":"levelo://app?vid=f3cab6a6-5abf-4d83-809c-6dc85fe7e77f"},"vehicle_type_id":"4","last_reported":1701295598,"current_range_meters":12800,"station_id":"ce4bh112rcd13ifvqda0","pricing_plan_id":"free"},{"bike_id":"c41bbd76-def3-4986-bfaa-278fff49eee0","system_id":"levelo_inurba_marseille","lat":43.28727,"lon":5.36078,"is_reserved":false,"is_disabled":false,"rental_uris":{"android":"levelo://app?vid=c41bbd76-def3-4986-bfaa-278fff49eee0","ios":"levelo://app?vid=c41bbd76-def3-4986-bfaa-278fff49eee0"},"vehicle_type_id":"4","last_reported":1701295598,"current_range_meters":0,"station_id":"cki0cbj6b192h4jlfktg","pricing_plan_id":"free"},{"bike_id":"aa6beeb4-d406-4a8a-8945-4e13fd7c0445","system_id":"levelo_inurba_marseille","lat":43.28727,"lon":5.36078,"is_reserved":false,"is_disabled":false,"rental_uris":{"android":"levelo://app?vid=aa6beeb4-d406-4a8a-8945-4e13fd7c0445","ios":"levelo://app?vid=aa6beeb4-d406-4a8a-8945-4e13fd7c0445"},"vehicle_type_id":"4","last_reported":1701295598,"current_range_meters":14800,"station_id":"cki0cbj6b192h4jlfktg","pricing_plan_id":"free"},{"bike_id":"4dcab8fa-239b-40f5-afc2-25565b98c0c3","system_id":"levelo_inurba_marseille","lat":43.286591,"lon":5.363346,"is_reserved":false,"is_disabled":false,"rental_uris":{"android":"levelo://app?vid=4dcab8fa-239b-40f5-afc2-25565b98c0c3","ios":"levelo://app?vid=4dcab8fa-239b-40f5-afc2-25565b98c0c3"},"vehicle_type_id":"4","last_reported":1701295598,"current_range_meters":20800,"station_id":"ce4bhah2rcd13ifvqej0","pricing_plan_id":"free"},{"bike_id":"5ac8e1af-c0cc-43cb-bd71-f0606fb7b957","system_id":"levelo_inurba_marseille","lat":43.287,"lon":5.37385,"is_reserved":false,"is_disabled":false,"rental_uris":{"android":"levelo://app?vid=5ac8e1af-c0cc-43cb-bd71-f0606fb7b957","ios":"levelo://app?vid=5ac8e1af-c0cc-43cb-bd71-f0606fb7b957"},"vehicle_type_id":"4","last_reported":1701295598,"current_range_meters":23600,"station_id":"ce4bh3p2rcd13ifvqdq0","pricing_plan_id":"free"},{"bike_id":"713f67b8-b4c7-4572-95f9-6af4967dff9c","system_id":"levelo_inurba_marseille","lat":43.286996,"lon":5.373883,"is_reserved":false,"is_disabled":false,"rental_uris":{"android":"levelo://app?vid=713f67b8-b4c7-4572-95f9-6af4967dff9c","ios":"levelo://app?vid=713f67b8-b4c7-4572-95f9-6af4967dff9c"},"vehicle_type_id":"4","last_reported":1701295598,"current_range_meters":0,"station_id":"ce4bh3p2rcd13ifvqdq0","pricing_plan_id":"free"},{"bike_id":"629fe102-6cd1-4b81-89be-c9d5ebc679c5","system_id":"levelo_inurba_marseille","lat":43.286591,"lon":5.363346,"is_reserved":false,"is_disabled":false,"rental_uris":{"android":"levelo://app?vid=629fe102-6cd1-4b81-89be-c9d5ebc679c5","ios":"levelo://app?vid=629fe102-6cd1-4b81-89be-c9d5ebc679c5"},"vehicle_type_id":"4","last_reported":1701295598,"current_range_meters":17600,"station_id":"ce4bhah2rcd13ifvqej0","pricing_plan_id":"free"},{"bike_id":"45ad1e76-656b-451e-a984-3e79fefa3e4c","system_id":"levelo_inurba_marseille","lat":43.28688,"lon":5.37399,"is_reserved":false,"is_disabled":false,"rental_uris":{"android":"levelo://app?vid=45ad1e76-656b-451e-a984-3e79fefa3e4c","ios":"levelo://app?vid=45ad1e76-656b-451e-a984-3e79fefa3e4c"},"vehicle_type_id":"4","last_reported":1701295598,"current_range_meters":0,"station_id":"ce4bh3p2rcd13ifvqdq0","pricing_plan_id":"free"},{"bike_id":"85f4ba32-c0a4-4b43-96ff-951eeafc0a39","system_id":"levelo_inurba_marseille","lat":43.295196,"lon":5.39397,"is_reserved":false,"is_disabled":false,"rental_uris":{"android":"levelo://app?vid=85f4ba32-c0a4-4b43-96ff-951eeafc0a39","ios":"levelo://app?vid=85f4ba32-c0a4-4b43-96ff-951eeafc0a39"},"vehicle_type_id":"4","last_reported":1701295598,"current_range_meters":30800,"station_id":"ce4bh292rcd13ifvqdf0","pricing_plan_id":"free"},{"bike_id":"afb58c04-3262-4e25-9a56-2f085001d7f2","system_id":"levelo_inurba_marseille","lat":43.29035,"lon":5.38648,"is_reserved":false,"is_disabled":false,"rental_uris":{"android":"levelo://app?vid=afb58c04-3262-4e25-9a56-2f085001d7f2","ios":"levelo://app?vid=afb58c04-3262-4e25-9a56-2f085001d7f2"},"vehicle_type_id":"4","last_reported":1701295598,"current_range_meters":24000,"station_id":"","pricing_plan_id":"free"},{"bike_id":"407b3908-d614-4957-a9a7-646d2dd04fda","system_id":"levelo_inurba_marseille","lat":43.290262,"lon":5.386392,"is_reserved":false,"is_disabled":false,"rental_uris":{"android":"levelo://app?vid=407b3908-d614-4957-a9a7-646d2dd04fda","ios":"levelo://app?vid=407b3908-d614-4957-a9a7-646d2dd04fda"},"vehicle_type_id":"4","last_reported":1701295598,"current_range_meters":5600,"station_id":"","pricing_plan_id":"free"},{"bike_id":"f236e11c-b7c4-4a16-86fe-29f6043c700d","system_id":"levelo_inurba_marseille","lat":43.29031,"lon":5.38651,"is_reserved":false,"is_disabled":false,"rental_uris":{"android":"levelo://app?vid=f236e11c-b7c4-4a16-86fe-29f6043c700d","ios":"levelo://app?vid=f236e11c-b7c4-4a16-86fe-29f6043c700d"},"vehicle_type_id":"4","last_reported":1701295598,"current_range_meters":5600,"station_id":"","pricing_plan_id":"free"},{"bike_id":"a3bdef2f-81c6-4599-862b-b373eae28b8b","system_id":"levelo_inurba_marseille","lat":43.29026,"lon":5.38648,"is_reserved":false,"is_disabled":false,"rental_uris":{"android":"levelo://app?vid=a3bdef2f-81c6-4599-862b-b373eae28b8b","ios":"levelo://app?vid=a3bdef2f-81c6-4599-862b-b373eae28b8b"},"vehicle_type_id":"4","last_reported":1701295598,"current_range_meters":27600,"station_id":"","pricing_plan_id":"free"},{"bike_id":"3d88466d-6de0-4530-973d-de22dda39935","system_id":"levelo_inurba_marseille","lat":43.302759,"lon":5.400793,"is_reserved":false,"is_disabled":false,"rental_uris":{"android":"levelo://app?vid=3d88466d-6de0-4530-973d-de22dda39935","ios":"levelo://app?vid=3d88466d-6de0-4530-973d-de22dda39935"},"vehicle_type_id":"4","last_reported":1701295598,"current_range_meters":23200,"station_id":"ce4bgvh2rcd13ifvqcs0","pricing_plan_id":"free"},{"bike_id":"90af7416-6579-40a9-812c-8f0f6c19045c","system_id":"levelo_inurba_marseille","lat":43.31628,"lon":5.40416,"is_reserved":false,"is_disabled":false,"rental_uris":{"android":"levelo://app?vid=90af7416-6579-40a9-812c-8f0f6c19045c","ios":"levelo://app?vid=90af7416-6579-40a9-812c-8f0f6c19045c"},"vehicle_type_id":"4","last_reported":1701295598,"current_range_meters":24800,"station_id":"ce4bh012rcd13ifvqd00","pricing_plan_id":"free"},{"bike_id":"16bb10b6-f2bb-4157-bcfa-6b3498959795","system_id":"levelo_inurba_marseille","lat":43.316423,"lon":5.404295,"is_reserved":false,"is_disabled":false,"rental_uris":{"android":"levelo://app?vid=16bb10b6-f2bb-4157-bcfa-6b3498959795","ios":"levelo://app?vid=16bb10b6-f2bb-4157-bcfa-6b3498959795"},"vehicle_type_id":"4","last_reported":1701295598,"current_range_meters":15200,"station_id":"","pricing_plan_id":"free"},{"bike_id":"8030115d-ac19-469d-b665-bfe163693ae2","system_id":"levelo_inurba_marseille","lat":43.316517,"lon":5.404375,"is_reserved":false,"is_disabled":false,"rental_uris":{"android":"levelo://app?vid=8030115d-ac19-469d-b665-bfe163693ae2","ios":"levelo://app?vid=8030115d-ac19-469d-b665-bfe163693ae2"},"vehicle_type_id":"4","last_reported":1701295598,"current_range_meters":9200,"station_id":"ce4bh012rcd13ifvqd00","pricing_plan_id":"free"},{"bike_id":"589bbc17-bf14-4455-bff8-c1a011b76a56","system_id":"levelo_inurba_marseille","lat":43.31649,"lon":5.40439,"is_reserved":false,"is_disabled":false,"rental_uris":{"android":"levelo://app?vid=589bbc17-bf14-4455-bff8-c1a011b76a56","ios":"levelo://app?vid=589bbc17-bf14-4455-bff8-c1a011b76a56"},"vehicle_type_id":"4","last_reported":1701295598,"current_range_meters":22800,"station_id":"ce4bh012rcd13ifvqd00","pricing_plan_id":"free"},{"bike_id":"cd9bfe54-ec54-4d2c-ba4b-ebf1d87b7854","system_id":"levelo_inurba_marseille","lat":43.28465,"lon":5.35901,"is_reserved":false,"is_disabled":false,"rental_uris":{"android":"levelo://app?vid=cd9bfe54-ec54-4d2c-ba4b-ebf1d87b7854","ios":"levelo://app?vid=cd9bfe54-ec54-4d2c-ba4b-ebf1d87b7854"},"vehicle_type_id":"4","last_reported":1701295598,"current_range_meters":0,"station_id":"ce4bhah2rcd13ifvqei0","pricing_plan_id":"free"},{"bike_id":"6f4a6aba-cddc-48fc-aaf6-1c8ae2cf8e57","system_id":"levelo_inurba_marseille","lat":43.284538,"lon":5.358657,"is_reserved":false,"is_disabled":false,"rental_uris":{"android":"levelo://app?vid=6f4a6aba-cddc-48fc-aaf6-1c8ae2cf8e57","ios":"levelo://app?vid=6f4a6aba-cddc-48fc-aaf6-1c8ae2cf8e57"},"vehicle_type_id":"4","last_reported":1701295598,"current_range_meters":9600,"station_id":"ce4bhah2rcd13ifvqei0","pricing_plan_id":"free"},{"bike_id":"2df84d96-f4e0-47d1-b504-efcc3a90184c","system_id":"levelo_inurba_marseille","lat":43.284534,"lon":5.358662,"is_reserved":false,"is_disabled":false,"rental_uris":{"android":"levelo://app?vid=2df84d96-f4e0-47d1-b504-efcc3a90184c","ios":"levelo://app?vid=2df84d96-f4e0-47d1-b504-efcc3a90184c"},"vehicle_type_id":"4","last_reported":1701295598,"current_range_meters":19200,"station_id":"ce4bhah2rcd13ifvqei0","pricing_plan_id":"free"},{"bike_id":"a110e0e4-5b60-4206-a4d6-2d4d5b638da4","system_id":"levelo_inurba_marseille","lat":43.284534,"lon":5.358662,"is_reserved":false,"is_disabled":false,"rental_uris":{"android":"levelo://app?vid=a110e0e4-5b60-4206-a4d6-2d4d5b638da4","ios":"levelo://app?vid=a110e0e4-5b60-4206-a4d6-2d4d5b638da4"},"vehicle_type_id":"4","last_reported":1701295598,"current_range_meters":13200,"station_id":"ce4bhah2rcd13ifvqei0","pricing_plan_id":"free"},{"bike_id":"c578b865-1d42-425b-bea0-2d8ef92cba58","system_id":"levelo_inurba_marseille","lat":43.294314,"lon":5.397498,"is_reserved":false,"is_disabled":false,"rental_uris":{"android":"levelo://app?vid=c578b865-1d42-425b-bea0-2d8ef92cba58","ios":"levelo://app?vid=c578b865-1d42-425b-bea0-2d8ef92cba58"},"vehicle_type_id":"4","last_reported":1701295598,"current_range_meters":5600,"station_id":"ce4bh3h2rcd13ifvqdo0","pricing_plan_id":"free"},{"bike_id":"92ef320b-a6b1-419c-a06a-ac77dfd0d2e3","system_id":"levelo_inurba_marseille","lat":43.294314,"lon":5.397498,"is_reserved":false,"is_disabled":false,"rental_uris":{"android":"levelo://app?vid=92ef320b-a6b1-419c-a06a-ac77dfd0d2e3","ios":"levelo://app?vid=92ef320b-a6b1-419c-a06a-ac77dfd0d2e3"},"vehicle_type_id":"4","last_reported":1701295598,"current_range_meters":28800,"station_id":"ce4bh3h2rcd13ifvqdo0","pricing_plan_id":"free"},{"bike_id":"f9601311-7b5a-45ca-b201-3634bd08062d","system_id":"levelo_inurba_marseille","lat":43.286139,"lon":5.350985,"is_reserved":false,"is_disabled":false,"rental_uris":{"android":"levelo://app?vid=f9601311-7b5a-45ca-b201-3634bd08062d","ios":"levelo://app?vid=f9601311-7b5a-45ca-b201-3634bd08062d"},"vehicle_type_id":"4","last_reported":1701295598,"current_range_meters":20000,"station_id":"ce4bhch2rcd13ifvqeug","pricing_plan_id":"free"},{"bike_id":"702d0fd4-d176-48d8-8568-2e1456896b85","system_id":"levelo_inurba_marseille","lat":43.283998,"lon":5.375062,"is_reserved":false,"is_disabled":false,"rental_uris":{"android":"levelo://app?vid=702d0fd4-d176-48d8-8568-2e1456896b85","ios":"levelo://app?vid=702d0fd4-d176-48d8-8568-2e1456896b85"},"vehicle_type_id":"4","last_reported":1701295598,"current_range_meters":800,"station_id":"ce4bh412rcd13ifvqds0","pricing_plan_id":"free"},{"bike_id":"5ec5054c-6d06-475a-af6e-e8a4f09e6af4","system_id":"levelo_inurba_marseille","lat":43.283998,"lon":5.375062,"is_reserved":false,"is_disabled":false,"rental_uris":{"android":"levelo://app?vid=5ec5054c-6d06-475a-af6e-e8a4f09e6af4","ios":"levelo://app?vid=5ec5054c-6d06-475a-af6e-e8a4f09e6af4"},"vehicle_type_id":"4","last_reported":1701295598,"current_range_meters":14400,"station_id":"ce4bh412rcd13ifvqds0","pricing_plan_id":"free"},{"bike_id":"87982c98-aa48-4360-9231-8dcc8e21859c","system_id":"levelo_inurba_marseille","lat":43.323464,"lon":5.406297,"is_reserved":false,"is_disabled":false,"rental_uris":{"android":"levelo://app?vid=87982c98-aa48-4360-9231-8dcc8e21859c","ios":"levelo://app?vid=87982c98-aa48-4360-9231-8dcc8e21859c"},"vehicle_type_id":"4","last_reported":1701295598,"current_range_meters":30400,"station_id":"ce4bhq92rcd13ifvqhjg","pricing_plan_id":"free"},{"bike_id":"f6414407-e4d9-44b2-ade7-84926b5e9c9a","system_id":"levelo_inurba_marseille","lat":43.297946,"lon":5.404063,"is_reserved":false,"is_disabled":false,"rental_uris":{"android":"levelo://app?vid=f6414407-e4d9-44b2-ade7-84926b5e9c9a","ios":"levelo://app?vid=f6414407-e4d9-44b2-ade7-84926b5e9c9a"},"vehicle_type_id":"4","last_reported":1701295598,"current_range_meters":8400,"station_id":"ce4bh112rcd13ifvqd90","pricing_plan_id":"free"},{"bike_id":"d08cc67e-d152-4ffc-9d85-699ba106be1a","system_id":"levelo_inurba_marseille","lat":43.297946,"lon":5.404063,"is_reserved":false,"is_disabled":false,"rental_uris":{"android":"levelo://app?vid=d08cc67e-d152-4ffc-9d85-699ba106be1a","ios":"levelo://app?vid=d08cc67e-d152-4ffc-9d85-699ba106be1a"},"vehicle_type_id":"4","last_reported":1701295598,"current_range_meters":13200,"station_id":"ce4bh112rcd13ifvqd90","pricing_plan_id":"free"},{"bike_id":"0a01a476-ee65-43f0-86ce-1b71d00c4784","system_id":"levelo_inurba_marseille","lat":43.29795,"lon":5.404086,"is_reserved":false,"is_disabled":false,"rental_uris":{"android":"levelo://app?vid=0a01a476-ee65-43f0-86ce-1b71d00c4784","ios":"levelo://app?vid=0a01a476-ee65-43f0-86ce-1b71d00c4784"},"vehicle_type_id":"4","last_reported":1701295598,"current_range_meters":28800,"station_id":"ce4bh112rcd13ifvqd90","pricing_plan_id":"free"},{"bike_id":"d2120d76-0fad-47eb-b244-dc59d199f1f4","system_id":"levelo_inurba_marseille","lat":43.3334,"lon":5.39872,"is_reserved":false,"is_disabled":false,"rental_uris":{"android":"levelo://app?vid=d2120d76-0fad-47eb-b244-dc59d199f1f4","ios":"levelo://app?vid=d2120d76-0fad-47eb-b244-dc59d199f1f4"},"vehicle_type_id":"4","last_reported":1701295598,"current_range_meters":1600,"station_id":"","pricing_plan_id":"free"},{"bike_id":"ccb87690-32ca-44c6-9a8a-81a6167f1581","system_id":"levelo_inurba_marseille","lat":43.289363,"lon":5.396322,"is_reserved":false,"is_disabled":false,"rental_uris":{"android":"levelo://app?vid=ccb87690-32ca-44c6-9a8a-81a6167f1581","ios":"levelo://app?vid=ccb87690-32ca-44c6-9a8a-81a6167f1581"},"vehicle_type_id":"4","last_reported":1701295598,"current_range_meters":30400,"station_id":"ce4bh3h2rcd13ifvqdn0","pricing_plan_id":"free"},{"bike_id":"97df8474-0c78-481e-b429-81f14689cbe4","system_id":"levelo_inurba_marseille","lat":43.289363,"lon":5.396322,"is_reserved":false,"is_disabled":false,"rental_uris":{"android":"levelo://app?vid=97df8474-0c78-481e-b429-81f14689cbe4","ios":"levelo://app?vid=97df8474-0c78-481e-b429-81f14689cbe4"},"vehicle_type_id":"4","last_reported":1701295598,"current_range_meters":16000,"station_id":"ce4bh3h2rcd13ifvqdn0","pricing_plan_id":"free"},{"bike_id":"c2bd3f2e-abc8-47a4-b693-c3db8db19791","system_id":"levelo_inurba_marseille","lat":43.292724,"lon":5.401131,"is_reserved":false,"is_disabled":false,"rental_uris":{"android":"levelo://app?vid=c2bd3f2e-abc8-47a4-b693-c3db8db19791","ios":"levelo://app?vid=c2bd3f2e-abc8-47a4-b693-c3db8db19791"},"vehicle_type_id":"4","last_reported":1701295598,"current_range_meters":11600,"station_id":"ce4bh312rcd13ifvqdk0","pricing_plan_id":"free"},{"bike_id":"3a791b88-c8a9-416d-95fd-56f8320b1f2b","system_id":"levelo_inurba_marseille","lat":43.292724,"lon":5.401131,"is_reserved":false,"is_disabled":false,"rental_uris":{"android":"levelo://app?vid=3a791b88-c8a9-416d-95fd-56f8320b1f2b","ios":"levelo://app?vid=3a791b88-c8a9-416d-95fd-56f8320b1f2b"},"vehicle_type_id":"4","last_reported":1701295598,"current_range_meters":25200,"station_id":"ce4bh312rcd13ifvqdk0","pricing_plan_id":"free"},{"bike_id":"c36d6cf0-38c9-43ae-97c1-ffddc52168eb","system_id":"levelo_inurba_marseille","lat":43.292724,"lon":5.401131,"is_reserved":false,"is_disabled":false,"rental_uris":{"android":"levelo://app?vid=c36d6cf0-38c9-43ae-97c1-ffddc52168eb","ios":"levelo://app?vid=c36d6cf0-38c9-43ae-97c1-ffddc52168eb"},"vehicle_type_id":"4","last_reported":1701295598,"current_range_meters":18400,"station_id":"ce4bh312rcd13ifvqdk0","pricing_plan_id":"free"},{"bike_id":"905fede1-9d8a-4cff-9c7f-900efd540e3d","system_id":"levelo_inurba_marseille","lat":43.282744,"lon":5.350533,"is_reserved":false,"is_disabled":false,"rental_uris":{"android":"levelo://app?vid=905fede1-9d8a-4cff-9c7f-900efd540e3d","ios":"levelo://app?vid=905fede1-9d8a-4cff-9c7f-900efd540e3d"},"vehicle_type_id":"4","last_reported":1701295598,"current_range_meters":29200,"station_id":"ce4bhbp2rcd13ifvqerg","pricing_plan_id":"free"},{"bike_id":"34bd56fe-1e78-4f52-bfbe-32ff63417704","system_id":"levelo_inurba_marseille","lat":43.282713,"lon":5.350577,"is_reserved":false,"is_disabled":false,"rental_uris":{"android":"levelo://app?vid=34bd56fe-1e78-4f52-bfbe-32ff63417704","ios":"levelo://app?vid=34bd56fe-1e78-4f52-bfbe-32ff63417704"},"vehicle_type_id":"4","last_reported":1701295598,"current_range_meters":31200,"station_id":"ce4bhbp2rcd13ifvqerg","pricing_plan_id":"free"},{"bike_id":"963d6a9c-7612-4a37-803a-3af335937e69","system_id":"levelo_inurba_marseille","lat":43.282754,"lon":5.350519,"is_reserved":false,"is_disabled":false,"rental_uris":{"android":"levelo://app?vid=963d6a9c-7612-4a37-803a-3af335937e69","ios":"levelo://app?vid=963d6a9c-7612-4a37-803a-3af335937e69"},"vehicle_type_id":"4","last_reported":1701295598,"current_range_meters":22000,"station_id":"ce4bhbp2rcd13ifvqerg","pricing_plan_id":"free"},{"bike_id":"028df4ed-da18-4953-947f-3ef6db55685e","system_id":"levelo_inurba_marseille","lat":43.282744,"lon":5.350533,"is_reserved":false,"is_disabled":false,"rental_uris":{"android":"levelo://app?vid=028df4ed-da18-4953-947f-3ef6db55685e","ios":"levelo://app?vid=028df4ed-da18-4953-947f-3ef6db55685e"},"vehicle_type_id":"4","last_reported":1701295598,"current_range_meters":3200,"station_id":"ce4bhbp2rcd13ifvqerg","pricing_plan_id":"free"},{"bike_id":"f3edfa28-1f6b-4879-b4f7-158bdbbdee95","system_id":"levelo_inurba_marseille","lat":43.280382,"lon":5.369291,"is_reserved":false,"is_disabled":false,"rental_uris":{"android":"levelo://app?vid=f3edfa28-1f6b-4879-b4f7-158bdbbdee95","ios":"levelo://app?vid=f3edfa28-1f6b-4879-b4f7-158bdbbdee95"},"vehicle_type_id":"4","last_reported":1701295598,"current_range_meters":30000,"station_id":"ce4bha12rcd13ifvqef0","pricing_plan_id":"free"},{"bike_id":"cbfb07c3-6df7-428e-9608-952bbabffaad","system_id":"levelo_inurba_marseille","lat":43.282744,"lon":5.350533,"is_reserved":false,"is_disabled":false,"rental_uris":{"android":"levelo://app?vid=cbfb07c3-6df7-428e-9608-952bbabffaad","ios":"levelo://app?vid=cbfb07c3-6df7-428e-9608-952bbabffaad"},"vehicle_type_id":"4","last_reported":1701295598,"current_range_meters":27600,"station_id":"ce4bhbp2rcd13ifvqerg","pricing_plan_id":"free"},{"bike_id":"95cec55c-c27c-46c6-ab2a-324667e6941f","system_id":"levelo_inurba_marseille","lat":43.28039,"lon":5.369297,"is_reserved":false,"is_disabled":false,"rental_uris":{"android":"levelo://app?vid=95cec55c-c27c-46c6-ab2a-324667e6941f","ios":"levelo://app?vid=95cec55c-c27c-46c6-ab2a-324667e6941f"},"vehicle_type_id":"4","last_reported":1701295598,"current_range_meters":20800,"station_id":"ce4bha12rcd13ifvqef0","pricing_plan_id":"free"},{"bike_id":"b39cf2b2-ecca-4141-a4e9-def827cec38f","system_id":"levelo_inurba_marseille","lat":43.2804,"lon":5.36937,"is_reserved":false,"is_disabled":false,"rental_uris":{"android":"levelo://app?vid=b39cf2b2-ecca-4141-a4e9-def827cec38f","ios":"levelo://app?vid=b39cf2b2-ecca-4141-a4e9-def827cec38f"},"vehicle_type_id":"4","last_reported":1701295598,"current_range_meters":5600,"station_id":"ce4bha12rcd13ifvqef0","pricing_plan_id":"free"},{"bike_id":"730d6574-35f2-4c7e-a4c2-72ac67eb3b70","system_id":"levelo_inurba_marseille","lat":43.280382,"lon":5.369291,"is_reserved":false,"is_disabled":false,"rental_uris":{"android":"levelo://app?vid=730d6574-35f2-4c7e-a4c2-72ac67eb3b70","ios":"levelo://app?vid=730d6574-35f2-4c7e-a4c2-72ac67eb3b70"},"vehicle_type_id":"4","last_reported":1701295598,"current_range_meters":29600,"station_id":"ce4bha12rcd13ifvqef0","pricing_plan_id":"free"},{"bike_id":"275d6402-0ea6-4af0-8fc5-9b35462d469f","system_id":"levelo_inurba_marseille","lat":43.280382,"lon":5.369291,"is_reserved":false,"is_disabled":false,"rental_uris":{"android":"levelo://app?vid=275d6402-0ea6-4af0-8fc5-9b35462d469f","ios":"levelo://app?vid=275d6402-0ea6-4af0-8fc5-9b35462d469f"},"vehicle_type_id":"4","last_reported":1701295598,"current_range_meters":27600,"station_id":"ce4bha12rcd13ifvqef0","pricing_plan_id":"free"},{"bike_id":"f6ebb7a9-b097-4f65-bad2-e6900739b283","system_id":"levelo_inurba_marseille","lat":43.28039,"lon":5.369297,"is_reserved":false,"is_disabled":false,"rental_uris":{"android":"levelo://app?vid=f6ebb7a9-b097-4f65-bad2-e6900739b283","ios":"levelo://app?vid=f6ebb7a9-b097-4f65-bad2-e6900739b283"},"vehicle_type_id":"4","last_reported":1701295598,"current_range_meters":31200,"station_id":"ce4bha12rcd13ifvqef0","pricing_plan_id":"free"},{"bike_id":"e855330b-5d69-4316-8319-541fccfa6612","system_id":"levelo_inurba_marseille","lat":43.281044,"lon":5.378308,"is_reserved":false,"is_disabled":false,"rental_uris":{"android":"levelo://app?vid=e855330b-5d69-4316-8319-541fccfa6612","ios":"levelo://app?vid=e855330b-5d69-4316-8319-541fccfa6612"},"vehicle_type_id":"4","last_reported":1701295598,"current_range_meters":1600,"station_id":"ce4bha12rcd13ifvqee0","pricing_plan_id":"free"},{"bike_id":"254e1433-c6ac-4f67-ae90-099a7484883e","system_id":"levelo_inurba_marseille","lat":43.296263,"lon":5.40601,"is_reserved":false,"is_disabled":false,"rental_uris":{"android":"levelo://app?vid=254e1433-c6ac-4f67-ae90-099a7484883e","ios":"levelo://app?vid=254e1433-c6ac-4f67-ae90-099a7484883e"},"vehicle_type_id":"4","last_reported":1701295598,"current_range_meters":19600,"station_id":"ce4bh0h2rcd13ifvqd60","pricing_plan_id":"free"},{"bike_id":"fba1bf70-eee7-4253-be10-052639b58afc","system_id":"levelo_inurba_marseille","lat":43.284462,"lon":5.392121,"is_reserved":false,"is_disabled":false,"rental_uris":{"android":"levelo://app?vid=fba1bf70-eee7-4253-be10-052639b58afc","ios":"levelo://app?vid=fba1bf70-eee7-4253-be10-052639b58afc"},"vehicle_type_id":"4","last_reported":1701295598,"current_range_meters":27200,"station_id":"ce4bhoh2rcd13ifvqh5g","pricing_plan_id":"free"},{"bike_id":"37acad65-f8cd-47e0-9eae-e83a3ca3156e","system_id":"levelo_inurba_marseille","lat":43.284462,"lon":5.392121,"is_reserved":false,"is_disabled":false,"rental_uris":{"android":"levelo://app?vid=37acad65-f8cd-47e0-9eae-e83a3ca3156e","ios":"levelo://app?vid=37acad65-f8cd-47e0-9eae-e83a3ca3156e"},"vehicle_type_id":"4","last_reported":1701295598,"current_range_meters":28800,"station_id":"ce4bhoh2rcd13ifvqh5g","pricing_plan_id":"free"},{"bike_id":"03633c6f-9755-4744-b4fa-def7692391db","system_id":"levelo_inurba_marseille","lat":43.285742,"lon":5.395004,"is_reserved":false,"is_disabled":false,"rental_uris":{"android":"levelo://app?vid=03633c6f-9755-4744-b4fa-def7692391db","ios":"levelo://app?vid=03633c6f-9755-4744-b4fa-def7692391db"},"vehicle_type_id":"4","last_reported":1701295598,"current_range_meters":2400,"station_id":"ce4bh292rcd13ifvqdg0","pricing_plan_id":"free"},{"bike_id":"deab11ee-11c7-4439-a65d-49f58ba713b3","system_id":"levelo_inurba_marseille","lat":43.285742,"lon":5.395004,"is_reserved":false,"is_disabled":false,"rental_uris":{"android":"levelo://app?vid=deab11ee-11c7-4439-a65d-49f58ba713b3","ios":"levelo://app?vid=deab11ee-11c7-4439-a65d-49f58ba713b3"},"vehicle_type_id":"4","last_reported":1701295598,"current_range_meters":19200,"station_id":"ce4bh292rcd13ifvqdg0","pricing_plan_id":"free"},{"bike_id":"b68219d4-fad7-4a12-bac0-33d9b017f229","system_id":"levelo_inurba_marseille","lat":43.285742,"lon":5.395004,"is_reserved":false,"is_disabled":false,"rental_uris":{"android":"levelo://app?vid=b68219d4-fad7-4a12-bac0-33d9b017f229","ios":"levelo://app?vid=b68219d4-fad7-4a12-bac0-33d9b017f229"},"vehicle_type_id":"4","last_reported":1701295598,"current_range_meters":16400,"station_id":"ce4bh292rcd13ifvqdg0","pricing_plan_id":"free"},{"bike_id":"010d9f9f-5238-4fb9-b42b-e62d985c34ce","system_id":"levelo_inurba_marseille","lat":43.304188,"lon":5.412904,"is_reserved":false,"is_disabled":false,"rental_uris":{"android":"levelo://app?vid=010d9f9f-5238-4fb9-b42b-e62d985c34ce","ios":"levelo://app?vid=010d9f9f-5238-4fb9-b42b-e62d985c34ce"},"vehicle_type_id":"4","last_reported":1701295598,"current_range_meters":27200,"station_id":"ce4bhop2rcd13ifvqh8g","pricing_plan_id":"free"},{"bike_id":"e3713d96-8452-4f2a-b1d6-acdb5f14e91b","system_id":"levelo_inurba_marseille","lat":43.304188,"lon":5.412904,"is_reserved":false,"is_disabled":false,"rental_uris":{"android":"levelo://app?vid=e3713d96-8452-4f2a-b1d6-acdb5f14e91b","ios":"levelo://app?vid=e3713d96-8452-4f2a-b1d6-acdb5f14e91b"},"vehicle_type_id":"4","last_reported":1701295598,"current_range_meters":24400,"station_id":"ce4bhop2rcd13ifvqh8g","pricing_plan_id":"free"},{"bike_id":"65007239-262e-4ded-a710-dd1385475011","system_id":"levelo_inurba_marseille","lat":43.279087,"lon":5.380114,"is_reserved":false,"is_disabled":false,"rental_uris":{"android":"levelo://app?vid=65007239-262e-4ded-a710-dd1385475011","ios":"levelo://app?vid=65007239-262e-4ded-a710-dd1385475011"},"vehicle_type_id":"4","last_reported":1701295598,"current_range_meters":22800,"station_id":"ce4bhf92rcd13ifvqf50","pricing_plan_id":"free"},{"bike_id":"e4f2fa4f-fc97-4500-8d52-562437956345","system_id":"levelo_inurba_marseille","lat":43.287154,"lon":5.399979,"is_reserved":false,"is_disabled":false,"rental_uris":{"android":"levelo://app?vid=e4f2fa4f-fc97-4500-8d52-562437956345","ios":"levelo://app?vid=e4f2fa4f-fc97-4500-8d52-562437956345"},"vehicle_type_id":"4","last_reported":1701295598,"current_range_meters":12000,"station_id":"ce4bho92rcd13ifvqh3g","pricing_plan_id":"free"},{"bike_id":"d9a343ea-14a6-4e99-9218-1691cfeb5f71","system_id":"levelo_inurba_marseille","lat":43.287154,"lon":5.399979,"is_reserved":false,"is_disabled":false,"rental_uris":{"android":"levelo://app?vid=d9a343ea-14a6-4e99-9218-1691cfeb5f71","ios":"levelo://app?vid=d9a343ea-14a6-4e99-9218-1691cfeb5f71"},"vehicle_type_id":"4","last_reported":1701295598,"current_range_meters":400,"station_id":"ce4bho92rcd13ifvqh3g","pricing_plan_id":"free"},{"bike_id":"b1a2b657-2e6c-4e72-a3a9-a9bc8742b770","system_id":"levelo_inurba_marseille","lat":43.287154,"lon":5.399979,"is_reserved":false,"is_disabled":false,"rental_uris":{"android":"levelo://app?vid=b1a2b657-2e6c-4e72-a3a9-a9bc8742b770","ios":"levelo://app?vid=b1a2b657-2e6c-4e72-a3a9-a9bc8742b770"},"vehicle_type_id":"4","last_reported":1701295598,"current_range_meters":10400,"station_id":"ce4bho92rcd13ifvqh3g","pricing_plan_id":"free"},{"bike_id":"c32ecbb0-6f29-4f75-8b9a-f9e910bd3b59","system_id":"levelo_inurba_marseille","lat":43.287154,"lon":5.399979,"is_reserved":false,"is_disabled":false,"rental_uris":{"android":"levelo://app?vid=c32ecbb0-6f29-4f75-8b9a-f9e910bd3b59","ios":"levelo://app?vid=c32ecbb0-6f29-4f75-8b9a-f9e910bd3b59"},"vehicle_type_id":"4","last_reported":1701295598,"current_range_meters":16000,"station_id":"ce4bho92rcd13ifvqh3g","pricing_plan_id":"free"},{"bike_id":"dec95bca-6e2c-4768-a173-128059aecf98","system_id":"levelo_inurba_marseille","lat":43.299577,"lon":5.413277,"is_reserved":false,"is_disabled":false,"rental_uris":{"android":"levelo://app?vid=dec95bca-6e2c-4768-a173-128059aecf98","ios":"levelo://app?vid=dec95bca-6e2c-4768-a173-128059aecf98"},"vehicle_type_id":"4","last_reported":1701295598,"current_range_meters":17600,"station_id":"ce4bhp12rcd13ifvqh9g","pricing_plan_id":"free"},{"bike_id":"fc0459cc-85eb-432f-bd64-3f2751d71354","system_id":"levelo_inurba_marseille","lat":43.279742,"lon":5.38744,"is_reserved":false,"is_disabled":false,"rental_uris":{"android":"levelo://app?vid=fc0459cc-85eb-432f-bd64-3f2751d71354","ios":"levelo://app?vid=fc0459cc-85eb-432f-bd64-3f2751d71354"},"vehicle_type_id":"4","last_reported":1701295598,"current_range_meters":20000,"station_id":"ce4bhg12rcd13ifvqf80","pricing_plan_id":"free"},{"bike_id":"2e1e1198-e72a-4bcf-9c6b-59038c3ec53d","system_id":"levelo_inurba_marseille","lat":43.279742,"lon":5.38744,"is_reserved":false,"is_disabled":false,"rental_uris":{"android":"levelo://app?vid=2e1e1198-e72a-4bcf-9c6b-59038c3ec53d","ios":"levelo://app?vid=2e1e1198-e72a-4bcf-9c6b-59038c3ec53d"},"vehicle_type_id":"4","last_reported":1701295598,"current_range_meters":25200,"station_id":"ce4bhg12rcd13ifvqf80","pricing_plan_id":"free"},{"bike_id":"4dfe3209-9d78-4a45-9d5e-710d41e729d6","system_id":"levelo_inurba_marseille","lat":43.279742,"lon":5.38744,"is_reserved":false,"is_disabled":false,"rental_uris":{"android":"levelo://app?vid=4dfe3209-9d78-4a45-9d5e-710d41e729d6","ios":"levelo://app?vid=4dfe3209-9d78-4a45-9d5e-710d41e729d6"},"vehicle_type_id":"4","last_reported":1701295598,"current_range_meters":0,"station_id":"ce4bhg12rcd13ifvqf80","pricing_plan_id":"free"},{"bike_id":"2981bd2a-3bbc-48ff-a9c3-a2e196c84c3a","system_id":"levelo_inurba_marseille","lat":43.292571,"lon":5.409107,"is_reserved":false,"is_disabled":false,"rental_uris":{"android":"levelo://app?vid=2981bd2a-3bbc-48ff-a9c3-a2e196c84c3a","ios":"levelo://app?vid=2981bd2a-3bbc-48ff-a9c3-a2e196c84c3a"},"vehicle_type_id":"4","last_reported":1701295598,"current_range_meters":18000,"station_id":"ce4bh192rcd13ifvqdc0","pricing_plan_id":"free"},{"bike_id":"ed9b8387-82a7-47e9-9de0-0dcbb28c2109","system_id":"levelo_inurba_marseille","lat":43.280784,"lon":5.396622,"is_reserved":false,"is_disabled":false,"rental_uris":{"android":"levelo://app?vid=ed9b8387-82a7-47e9-9de0-0dcbb28c2109","ios":"levelo://app?vid=ed9b8387-82a7-47e9-9de0-0dcbb28c2109"},"vehicle_type_id":"4","last_reported":1701295598,"current_range_meters":26400,"station_id":"ce4bho12rcd13ifvqh2g","pricing_plan_id":"free"},{"bike_id":"6f4b33e5-56e0-48a2-969b-d8d5c5b771f7","system_id":"levelo_inurba_marseille","lat":43.278399,"lon":5.392112,"is_reserved":false,"is_disabled":false,"rental_uris":{"android":"levelo://app?vid=6f4b33e5-56e0-48a2-969b-d8d5c5b771f7","ios":"levelo://app?vid=6f4b33e5-56e0-48a2-969b-d8d5c5b771f7"},"vehicle_type_id":"4","last_reported":1701295598,"current_range_meters":31200,"station_id":"ce4bhjp2rcd13ifvqga0","pricing_plan_id":"free"},{"bike_id":"aeb6aae8-277f-467f-8c00-8f540be5604a","system_id":"levelo_inurba_marseille","lat":43.27834,"lon":5.391968,"is_reserved":false,"is_disabled":false,"rental_uris":{"android":"levelo://app?vid=aeb6aae8-277f-467f-8c00-8f540be5604a","ios":"levelo://app?vid=aeb6aae8-277f-467f-8c00-8f540be5604a"},"vehicle_type_id":"4","last_reported":1701295598,"current_range_meters":29200,"station_id":"ce4bhjp2rcd13ifvqga0","pricing_plan_id":"free"},{"bike_id":"51906621-8246-492d-ac66-399d5e20cda5","system_id":"levelo_inurba_marseille","lat":43.278399,"lon":5.392139,"is_reserved":false,"is_disabled":false,"rental_uris":{"android":"levelo://app?vid=51906621-8246-492d-ac66-399d5e20cda5","ios":"levelo://app?vid=51906621-8246-492d-ac66-399d5e20cda5"},"vehicle_type_id":"4","last_reported":1701295598,"current_range_meters":31200,"station_id":"ce4bhjp2rcd13ifvqga0","pricing_plan_id":"free"},{"bike_id":"ae944ce2-e7fe-407f-a11d-0561779717d0","system_id":"levelo_inurba_marseille","lat":43.273613,"lon":5.362705,"is_reserved":false,"is_disabled":false,"rental_uris":{"android":"levelo://app?vid=ae944ce2-e7fe-407f-a11d-0561779717d0","ios":"levelo://app?vid=ae944ce2-e7fe-407f-a11d-0561779717d0"},"vehicle_type_id":"4","last_reported":1701295598,"current_range_meters":1600,"station_id":"ce4bhbh2rcd13ifvqeo0","pricing_plan_id":"free"},{"bike_id":"02bbaec1-5fe3-4433-9407-81171b2a94ea","system_id":"levelo_inurba_marseille","lat":43.275625,"lon":5.384392,"is_reserved":false,"is_disabled":false,"rental_uris":{"android":"levelo://app?vid=02bbaec1-5fe3-4433-9407-81171b2a94ea","ios":"levelo://app?vid=02bbaec1-5fe3-4433-9407-81171b2a94ea"},"vehicle_type_id":"4","last_reported":1701295598,"current_range_meters":30000,"station_id":"ce4bhh92rcd13ifvqfi0","pricing_plan_id":"free"},{"bike_id":"b2dce51d-ce4e-40fb-9ef2-73d9b2b72d52","system_id":"levelo_inurba_marseille","lat":43.273609,"lon":5.362708,"is_reserved":false,"is_disabled":false,"rental_uris":{"android":"levelo://app?vid=b2dce51d-ce4e-40fb-9ef2-73d9b2b72d52","ios":"levelo://app?vid=b2dce51d-ce4e-40fb-9ef2-73d9b2b72d52"},"vehicle_type_id":"4","last_reported":1701295598,"current_range_meters":30400,"station_id":"ce4bhbh2rcd13ifvqeo0","pricing_plan_id":"free"},{"bike_id":"9d142aeb-b679-4d87-a6b0-de38f0581765","system_id":"levelo_inurba_marseille","lat":43.336148,"lon":5.410349,"is_reserved":false,"is_disabled":false,"rental_uris":{"android":"levelo://app?vid=9d142aeb-b679-4d87-a6b0-de38f0581765","ios":"levelo://app?vid=9d142aeb-b679-4d87-a6b0-de38f0581765"},"vehicle_type_id":"4","last_reported":1701295598,"current_range_meters":30400,"station_id":"ce4bhqh2rcd13ifvqhmg","pricing_plan_id":"free"},{"bike_id":"9a0a29ad-7574-42cb-a4fc-de7c094c3a31","system_id":"levelo_inurba_marseille","lat":43.273613,"lon":5.362705,"is_reserved":false,"is_disabled":false,"rental_uris":{"android":"levelo://app?vid=9a0a29ad-7574-42cb-a4fc-de7c094c3a31","ios":"levelo://app?vid=9a0a29ad-7574-42cb-a4fc-de7c094c3a31"},"vehicle_type_id":"4","last_reported":1701295598,"current_range_meters":31600,"station_id":"ce4bhbh2rcd13ifvqeo0","pricing_plan_id":"free"},{"bike_id":"dc6cecc7-7b9d-4582-b470-a66427e5694d","system_id":"levelo_inurba_marseille","lat":43.33612,"lon":5.410321,"is_reserved":false,"is_disabled":false,"rental_uris":{"android":"levelo://app?vid=dc6cecc7-7b9d-4582-b470-a66427e5694d","ios":"levelo://app?vid=dc6cecc7-7b9d-4582-b470-a66427e5694d"},"vehicle_type_id":"4","last_reported":1701295598,"current_range_meters":17600,"station_id":"ce4bhqh2rcd13ifvqhmg","pricing_plan_id":"free"},{"bike_id":"a76aea1e-f460-4283-9591-8fd8c7ac0ea7","system_id":"levelo_inurba_marseille","lat":43.34116,"lon":5.40583,"is_reserved":false,"is_disabled":false,"rental_uris":{"android":"levelo://app?vid=a76aea1e-f460-4283-9591-8fd8c7ac0ea7","ios":"levelo://app?vid=a76aea1e-f460-4283-9591-8fd8c7ac0ea7"},"vehicle_type_id":"4","last_reported":1701295598,"current_range_meters":14000,"station_id":"","pricing_plan_id":"free"},{"bike_id":"2ff8d530-edfd-4dcb-b395-370a78501d2b","system_id":"levelo_inurba_marseille","lat":43.275904,"lon":5.389344,"is_reserved":false,"is_disabled":false,"rental_uris":{"android":"levelo://app?vid=2ff8d530-edfd-4dcb-b395-370a78501d2b","ios":"levelo://app?vid=2ff8d530-edfd-4dcb-b395-370a78501d2b"},"vehicle_type_id":"4","last_reported":1701295598,"current_range_meters":26000,"station_id":"","pricing_plan_id":"free"},{"bike_id":"ebda0b6e-7465-4608-841e-9d7a331ae123","system_id":"levelo_inurba_marseille","lat":43.280005,"lon":5.400142,"is_reserved":false,"is_disabled":false,"rental_uris":{"android":"levelo://app?vid=ebda0b6e-7465-4608-841e-9d7a331ae123","ios":"levelo://app?vid=ebda0b6e-7465-4608-841e-9d7a331ae123"},"vehicle_type_id":"4","last_reported":1701295598,"current_range_meters":28000,"station_id":"ce4bho92rcd13ifvqh4g","pricing_plan_id":"free"},{"bike_id":"3c50c062-4b6b-4e52-ac0a-ef7174711fa9","system_id":"levelo_inurba_marseille","lat":43.279964,"lon":5.400094,"is_reserved":false,"is_disabled":false,"rental_uris":{"android":"levelo://app?vid=3c50c062-4b6b-4e52-ac0a-ef7174711fa9","ios":"levelo://app?vid=3c50c062-4b6b-4e52-ac0a-ef7174711fa9"},"vehicle_type_id":"4","last_reported":1701295598,"current_range_meters":20400,"station_id":"ce4bho92rcd13ifvqh4g","pricing_plan_id":"free"},{"bike_id":"33449a5f-4b78-4140-9f71-bb6c5c9ecf3a","system_id":"levelo_inurba_marseille","lat":43.31078,"lon":5.4243,"is_reserved":false,"is_disabled":false,"rental_uris":{"android":"levelo://app?vid=33449a5f-4b78-4140-9f71-bb6c5c9ecf3a","ios":"levelo://app?vid=33449a5f-4b78-4140-9f71-bb6c5c9ecf3a"},"vehicle_type_id":"4","last_reported":1701295598,"current_range_meters":7600,"station_id":"ce4bhp92rcd13ifvqhag","pricing_plan_id":"free"},{"bike_id":"7335a393-cc37-4e1d-b729-82d3cd0e69fb","system_id":"levelo_inurba_marseille","lat":43.29518,"lon":5.42264,"is_reserved":false,"is_disabled":false,"rental_uris":{"android":"levelo://app?vid=7335a393-cc37-4e1d-b729-82d3cd0e69fb","ios":"levelo://app?vid=7335a393-cc37-4e1d-b729-82d3cd0e69fb"},"vehicle_type_id":"4","last_reported":1701295598,"current_range_meters":23200,"station_id":"ce4bhph2rcd13ifvqhdg","pricing_plan_id":"free"},{"bike_id":"d6196e04-2494-4446-a9da-1bc4c12e52ee","system_id":"levelo_inurba_marseille","lat":43.295523,"lon":5.422926,"is_reserved":false,"is_disabled":false,"rental_uris":{"android":"levelo://app?vid=d6196e04-2494-4446-a9da-1bc4c12e52ee","ios":"levelo://app?vid=d6196e04-2494-4446-a9da-1bc4c12e52ee"},"vehicle_type_id":"4","last_reported":1701295598,"current_range_meters":24400,"station_id":"ce4bhph2rcd13ifvqhdg","pricing_plan_id":"free"},{"bike_id":"c647a2cb-8e07-4d6d-9e0f-81b4b1adc21a","system_id":"levelo_inurba_marseille","lat":43.295523,"lon":5.422926,"is_reserved":false,"is_disabled":false,"rental_uris":{"android":"levelo://app?vid=c647a2cb-8e07-4d6d-9e0f-81b4b1adc21a","ios":"levelo://app?vid=c647a2cb-8e07-4d6d-9e0f-81b4b1adc21a"},"vehicle_type_id":"4","last_reported":1701295598,"current_range_meters":8800,"station_id":"ce4bhph2rcd13ifvqhdg","pricing_plan_id":"free"},{"bike_id":"879eaebb-d472-4bcc-a56a-f7ff06b82be3","system_id":"levelo_inurba_marseille","lat":43.295511,"lon":5.422926,"is_reserved":false,"is_disabled":false,"rental_uris":{"android":"levelo://app?vid=879eaebb-d472-4bcc-a56a-f7ff06b82be3","ios":"levelo://app?vid=879eaebb-d472-4bcc-a56a-f7ff06b82be3"},"vehicle_type_id":"4","last_reported":1701295598,"current_range_meters":10000,"station_id":"ce4bhph2rcd13ifvqhdg","pricing_plan_id":"free"},{"bike_id":"a77ff4ee-8be9-4d58-9101-6e5b4c0186f4","system_id":"levelo_inurba_marseille","lat":43.278128,"lon":5.407195,"is_reserved":false,"is_disabled":false,"rental_uris":{"android":"levelo://app?vid=a77ff4ee-8be9-4d58-9101-6e5b4c0186f4","ios":"levelo://app?vid=a77ff4ee-8be9-4d58-9101-6e5b4c0186f4"},"vehicle_type_id":"4","last_reported":1701295598,"current_range_meters":25600,"station_id":"ce4bhnh2rcd13ifvqgtg","pricing_plan_id":"free"},{"bike_id":"897c7477-704f-4ada-86df-3c153fdea6b8","system_id":"levelo_inurba_marseille","lat":43.2655,"lon":5.37289,"is_reserved":false,"is_disabled":false,"rental_uris":{"android":"levelo://app?vid=897c7477-704f-4ada-86df-3c153fdea6b8","ios":"levelo://app?vid=897c7477-704f-4ada-86df-3c153fdea6b8"},"vehicle_type_id":"4","last_reported":1701295598,"current_range_meters":0,"station_id":"ce4bhg12rcd13ifvqf70","pricing_plan_id":"free"},{"bike_id":"703abfcc-f20f-413b-8c0b-9f821a972b6c","system_id":"levelo_inurba_marseille","lat":43.27996,"lon":5.416624,"is_reserved":false,"is_disabled":false,"rental_uris":{"android":"levelo://app?vid=703abfcc-f20f-413b-8c0b-9f821a972b6c","ios":"levelo://app?vid=703abfcc-f20f-413b-8c0b-9f821a972b6c"},"vehicle_type_id":"4","last_reported":1701295598,"current_range_meters":28800,"station_id":"ce4bho12rcd13ifvqh1g","pricing_plan_id":"free"},{"bike_id":"678707f0-f18b-4526-938d-cbb54df77004","system_id":"levelo_inurba_marseille","lat":43.267823,"lon":5.395877,"is_reserved":false,"is_disabled":false,"rental_uris":{"android":"levelo://app?vid=678707f0-f18b-4526-938d-cbb54df77004","ios":"levelo://app?vid=678707f0-f18b-4526-938d-cbb54df77004"},"vehicle_type_id":"4","last_reported":1701295598,"current_range_meters":30000,"station_id":"","pricing_plan_id":"free"},{"bike_id":"f554caff-ea27-4c9a-835c-3ef548d12f07","system_id":"levelo_inurba_marseille","lat":43.317104,"lon":5.436818,"is_reserved":false,"is_disabled":false,"rental_uris":{"android":"levelo://app?vid=f554caff-ea27-4c9a-835c-3ef548d12f07","ios":"levelo://app?vid=f554caff-ea27-4c9a-835c-3ef548d12f07"},"vehicle_type_id":"4","last_reported":1701295598,"current_range_meters":5200,"station_id":"ce4bhp92rcd13ifvqhcg","pricing_plan_id":"free"},{"bike_id":"a840c070-fc43-4b8e-aaa0-06a7984fb6f2","system_id":"levelo_inurba_marseille","lat":43.317104,"lon":5.436818,"is_reserved":false,"is_disabled":false,"rental_uris":{"android":"levelo://app?vid=a840c070-fc43-4b8e-aaa0-06a7984fb6f2","ios":"levelo://app?vid=a840c070-fc43-4b8e-aaa0-06a7984fb6f2"},"vehicle_type_id":"4","last_reported":1701295598,"current_range_meters":3200,"station_id":"ce4bhp92rcd13ifvqhcg","pricing_plan_id":"free"},{"bike_id":"1c859d8c-6823-4772-9abb-da577a635321","system_id":"levelo_inurba_marseille","lat":43.317104,"lon":5.436818,"is_reserved":false,"is_disabled":false,"rental_uris":{"android":"levelo://app?vid=1c859d8c-6823-4772-9abb-da577a635321","ios":"levelo://app?vid=1c859d8c-6823-4772-9abb-da577a635321"},"vehicle_type_id":"4","last_reported":1701295598,"current_range_meters":20400,"station_id":"ce4bhp92rcd13ifvqhcg","pricing_plan_id":"free"},{"bike_id":"99d63533-62af-4498-b6d6-41c459d84925","system_id":"levelo_inurba_marseille","lat":43.317104,"lon":5.436818,"is_reserved":false,"is_disabled":false,"rental_uris":{"android":"levelo://app?vid=99d63533-62af-4498-b6d6-41c459d84925","ios":"levelo://app?vid=99d63533-62af-4498-b6d6-41c459d84925"},"vehicle_type_id":"4","last_reported":1701295598,"current_range_meters":22000,"station_id":"ce4bhp92rcd13ifvqhcg","pricing_plan_id":"free"},{"bike_id":"3b0c0bb4-5989-4886-a288-42d1a3878a2b","system_id":"levelo_inurba_marseille","lat":43.27175,"lon":5.40987,"is_reserved":false,"is_disabled":false,"rental_uris":{"android":"levelo://app?vid=3b0c0bb4-5989-4886-a288-42d1a3878a2b","ios":"levelo://app?vid=3b0c0bb4-5989-4886-a288-42d1a3878a2b"},"vehicle_type_id":"4","last_reported":1701295598,"current_range_meters":0,"station_id":"ce4bhl12rcd13ifvqgf0","pricing_plan_id":"free"},{"bike_id":"c27ac3f7-47c8-4e42-aa5d-a5083ed3eb8a","system_id":"levelo_inurba_marseille","lat":43.271388,"lon":5.409269,"is_reserved":false,"is_disabled":false,"rental_uris":{"android":"levelo://app?vid=c27ac3f7-47c8-4e42-aa5d-a5083ed3eb8a","ios":"levelo://app?vid=c27ac3f7-47c8-4e42-aa5d-a5083ed3eb8a"},"vehicle_type_id":"4","last_reported":1701295598,"current_range_meters":27200,"station_id":"ce4bhl12rcd13ifvqgf0","pricing_plan_id":"free"},{"bike_id":"de4e587f-42d6-400c-8852-6148ad8011f6","system_id":"levelo_inurba_marseille","lat":43.271388,"lon":5.409269,"is_reserved":false,"is_disabled":false,"rental_uris":{"android":"levelo://app?vid=de4e587f-42d6-400c-8852-6148ad8011f6","ios":"levelo://app?vid=de4e587f-42d6-400c-8852-6148ad8011f6"},"vehicle_type_id":"4","last_reported":1701295598,"current_range_meters":800,"station_id":"ce4bhl12rcd13ifvqgf0","pricing_plan_id":"free"},{"bike_id":"0048fac2-56d5-4842-9efe-a79340b04119","system_id":"levelo_inurba_marseille","lat":43.299,"lon":5.43676,"is_reserved":false,"is_disabled":false,"rental_uris":{"android":"levelo://app?vid=0048fac2-56d5-4842-9efe-a79340b04119","ios":"levelo://app?vid=0048fac2-56d5-4842-9efe-a79340b04119"},"vehicle_type_id":"4","last_reported":1701295598,"current_range_meters":14800,"station_id":"ce4bhpp2rcd13ifvqhfg","pricing_plan_id":"free"},{"bike_id":"41362c48-ddcf-47c0-b56f-bd917b9d5d75","system_id":"levelo_inurba_marseille","lat":43.281548,"lon":5.42643,"is_reserved":false,"is_disabled":false,"rental_uris":{"android":"levelo://app?vid=41362c48-ddcf-47c0-b56f-bd917b9d5d75","ios":"levelo://app?vid=41362c48-ddcf-47c0-b56f-bd917b9d5d75"},"vehicle_type_id":"4","last_reported":1701295598,"current_range_meters":30000,"station_id":"ce4bhnh2rcd13ifvqgug","pricing_plan_id":"free"},{"bike_id":"2cbd4b3c-d8dd-4b95-ac76-1323d53b4182","system_id":"levelo_inurba_marseille","lat":43.281548,"lon":5.42643,"is_reserved":false,"is_disabled":false,"rental_uris":{"android":"levelo://app?vid=2cbd4b3c-d8dd-4b95-ac76-1323d53b4182","ios":"levelo://app?vid=2cbd4b3c-d8dd-4b95-ac76-1323d53b4182"},"vehicle_type_id":"4","last_reported":1701295598,"current_range_meters":31200,"station_id":"ce4bhnh2rcd13ifvqgug","pricing_plan_id":"free"},{"bike_id":"6a423f92-9b07-4949-8514-2ee167e03bcf","system_id":"levelo_inurba_marseille","lat":43.281548,"lon":5.42643,"is_reserved":false,"is_disabled":false,"rental_uris":{"android":"levelo://app?vid=6a423f92-9b07-4949-8514-2ee167e03bcf","ios":"levelo://app?vid=6a423f92-9b07-4949-8514-2ee167e03bcf"},"vehicle_type_id":"4","last_reported":1701295598,"current_range_meters":31200,"station_id":"ce4bhnh2rcd13ifvqgug","pricing_plan_id":"free"},{"bike_id":"bd71c321-451e-4db9-9483-b3fea5f99947","system_id":"levelo_inurba_marseille","lat":43.281548,"lon":5.42643,"is_reserved":false,"is_disabled":false,"rental_uris":{"android":"levelo://app?vid=bd71c321-451e-4db9-9483-b3fea5f99947","ios":"levelo://app?vid=bd71c321-451e-4db9-9483-b3fea5f99947"},"vehicle_type_id":"4","last_reported":1701295598,"current_range_meters":27200,"station_id":"ce4bhnh2rcd13ifvqgug","pricing_plan_id":"free"},{"bike_id":"5d6c08b1-f1a5-4de3-874d-829b5159ed1d","system_id":"levelo_inurba_marseille","lat":43.281548,"lon":5.42643,"is_reserved":false,"is_disabled":false,"rental_uris":{"android":"levelo://app?vid=5d6c08b1-f1a5-4de3-874d-829b5159ed1d","ios":"levelo://app?vid=5d6c08b1-f1a5-4de3-874d-829b5159ed1d"},"vehicle_type_id":"4","last_reported":1701295598,"current_range_meters":28000,"station_id":"ce4bhnh2rcd13ifvqgug","pricing_plan_id":"free"},{"bike_id":"7dd4c909-c4b2-400f-9b7a-caa808388dc4","system_id":"levelo_inurba_marseille","lat":43.281548,"lon":5.42643,"is_reserved":false,"is_disabled":false,"rental_uris":{"android":"levelo://app?vid=7dd4c909-c4b2-400f-9b7a-caa808388dc4","ios":"levelo://app?vid=7dd4c909-c4b2-400f-9b7a-caa808388dc4"},"vehicle_type_id":"4","last_reported":1701295598,"current_range_meters":12000,"station_id":"ce4bhnh2rcd13ifvqgug","pricing_plan_id":"free"},{"bike_id":"54e7103a-044b-433e-9f97-9f60b9ff0bee","system_id":"levelo_inurba_marseille","lat":43.281548,"lon":5.42643,"is_reserved":false,"is_disabled":false,"rental_uris":{"android":"levelo://app?vid=54e7103a-044b-433e-9f97-9f60b9ff0bee","ios":"levelo://app?vid=54e7103a-044b-433e-9f97-9f60b9ff0bee"},"vehicle_type_id":"4","last_reported":1701295598,"current_range_meters":30800,"station_id":"ce4bhnh2rcd13ifvqgug","pricing_plan_id":"free"},{"bike_id":"85158950-5b86-488b-bdb1-726b8dfbb936","system_id":"levelo_inurba_marseille","lat":43.281548,"lon":5.42643,"is_reserved":false,"is_disabled":false,"rental_uris":{"android":"levelo://app?vid=85158950-5b86-488b-bdb1-726b8dfbb936","ios":"levelo://app?vid=85158950-5b86-488b-bdb1-726b8dfbb936"},"vehicle_type_id":"4","last_reported":1701295598,"current_range_meters":15200,"station_id":"ce4bhnh2rcd13ifvqgug","pricing_plan_id":"free"},{"bike_id":"00d1bf49-5f2f-40eb-ba1c-6d61ac984990","system_id":"levelo_inurba_marseille","lat":43.281548,"lon":5.42643,"is_reserved":false,"is_disabled":false,"rental_uris":{"android":"levelo://app?vid=00d1bf49-5f2f-40eb-ba1c-6d61ac984990","ios":"levelo://app?vid=00d1bf49-5f2f-40eb-ba1c-6d61ac984990"},"vehicle_type_id":"4","last_reported":1701295598,"current_range_meters":30400,"station_id":"ce4bhnh2rcd13ifvqgug","pricing_plan_id":"free"},{"bike_id":"39623ebf-a3b7-4fb2-99b1-0c72cfeab56b","system_id":"levelo_inurba_marseille","lat":43.25578,"lon":5.38228,"is_reserved":false,"is_disabled":false,"rental_uris":{"android":"levelo://app?vid=39623ebf-a3b7-4fb2-99b1-0c72cfeab56b","ios":"levelo://app?vid=39623ebf-a3b7-4fb2-99b1-0c72cfeab56b"},"vehicle_type_id":"4","last_reported":1701295598,"current_range_meters":29200,"station_id":"ce4bhih2rcd13ifvqfs0","pricing_plan_id":"free"},{"bike_id":"e737f392-2a77-4bb1-b470-c8bd2e1a21a0","system_id":"levelo_inurba_marseille","lat":43.255756,"lon":5.382303,"is_reserved":false,"is_disabled":false,"rental_uris":{"android":"levelo://app?vid=e737f392-2a77-4bb1-b470-c8bd2e1a21a0","ios":"levelo://app?vid=e737f392-2a77-4bb1-b470-c8bd2e1a21a0"},"vehicle_type_id":"4","last_reported":1701295598,"current_range_meters":4400,"station_id":"ce4bhih2rcd13ifvqfs0","pricing_plan_id":"free"},{"bike_id":"9adae74f-3e93-483c-863d-d9d8e3d8aa00","system_id":"levelo_inurba_marseille","lat":43.25499,"lon":5.37648,"is_reserved":false,"is_disabled":false,"rental_uris":{"android":"levelo://app?vid=9adae74f-3e93-483c-863d-d9d8e3d8aa00","ios":"levelo://app?vid=9adae74f-3e93-483c-863d-d9d8e3d8aa00"},"vehicle_type_id":"4","last_reported":1701295598,"current_range_meters":28800,"station_id":"ce4bhh12rcd13ifvqff0","pricing_plan_id":"free"},{"bike_id":"30565658-e7be-4be7-92bf-bc263e190872","system_id":"levelo_inurba_marseille","lat":43.2549,"lon":5.37647,"is_reserved":false,"is_disabled":false,"rental_uris":{"android":"levelo://app?vid=30565658-e7be-4be7-92bf-bc263e190872","ios":"levelo://app?vid=30565658-e7be-4be7-92bf-bc263e190872"},"vehicle_type_id":"4","last_reported":1701295598,"current_range_meters":31200,"station_id":"ce4bhh12rcd13ifvqff0","pricing_plan_id":"free"},{"bike_id":"4e0bd320-2cd9-4caa-8a11-234b11e8d880","system_id":"levelo_inurba_marseille","lat":43.254947,"lon":5.376454,"is_reserved":false,"is_disabled":false,"rental_uris":{"android":"levelo://app?vid=4e0bd320-2cd9-4caa-8a11-234b11e8d880","ios":"levelo://app?vid=4e0bd320-2cd9-4caa-8a11-234b11e8d880"},"vehicle_type_id":"4","last_reported":1701295598,"current_range_meters":24800,"station_id":"ce4bhh12rcd13ifvqff0","pricing_plan_id":"free"},{"bike_id":"70df88eb-3384-4c1e-b5c4-a24bdcb4ab75","system_id":"levelo_inurba_marseille","lat":43.270721,"lon":5.422764,"is_reserved":false,"is_disabled":false,"rental_uris":{"android":"levelo://app?vid=70df88eb-3384-4c1e-b5c4-a24bdcb4ab75","ios":"levelo://app?vid=70df88eb-3384-4c1e-b5c4-a24bdcb4ab75"},"vehicle_type_id":"4","last_reported":1701295598,"current_range_meters":21600,"station_id":"ce4bhk92rcd13ifvqgb0","pricing_plan_id":"free"},{"bike_id":"19029ed7-bf97-4f4d-a8c2-7d27e70ef7f7","system_id":"levelo_inurba_marseille","lat":43.270721,"lon":5.422764,"is_reserved":false,"is_disabled":false,"rental_uris":{"android":"levelo://app?vid=19029ed7-bf97-4f4d-a8c2-7d27e70ef7f7","ios":"levelo://app?vid=19029ed7-bf97-4f4d-a8c2-7d27e70ef7f7"},"vehicle_type_id":"4","last_reported":1701295598,"current_range_meters":31200,"station_id":"ce4bhk92rcd13ifvqgb0","pricing_plan_id":"free"},{"bike_id":"e90c1892-9e9c-4674-8681-45c51e4deee5","system_id":"levelo_inurba_marseille","lat":43.270721,"lon":5.422764,"is_reserved":false,"is_disabled":false,"rental_uris":{"android":"levelo://app?vid=e90c1892-9e9c-4674-8681-45c51e4deee5","ios":"levelo://app?vid=e90c1892-9e9c-4674-8681-45c51e4deee5"},"vehicle_type_id":"4","last_reported":1701295598,"current_range_meters":10800,"station_id":"ce4bhk92rcd13ifvqgb0","pricing_plan_id":"free"},{"bike_id":"916224f8-83b6-4e7c-8933-ae5fb7bcd879","system_id":"levelo_inurba_marseille","lat":43.257079,"lon":5.411051,"is_reserved":false,"is_disabled":false,"rental_uris":{"android":"levelo://app?vid=916224f8-83b6-4e7c-8933-ae5fb7bcd879","ios":"levelo://app?vid=916224f8-83b6-4e7c-8933-ae5fb7bcd879"},"vehicle_type_id":"4","last_reported":1701295598,"current_range_meters":29600,"station_id":"ce4bhkp2rcd13ifvqgd0","pricing_plan_id":"free"},{"bike_id":"89a99e0e-84f9-4cb4-9aa6-53df93c20d13","system_id":"levelo_inurba_marseille","lat":43.2572,"lon":5.41115,"is_reserved":false,"is_disabled":false,"rental_uris":{"android":"levelo://app?vid=89a99e0e-84f9-4cb4-9aa6-53df93c20d13","ios":"levelo://app?vid=89a99e0e-84f9-4cb4-9aa6-53df93c20d13"},"vehicle_type_id":"4","last_reported":1701295598,"current_range_meters":23600,"station_id":"ce4bhkp2rcd13ifvqgd0","pricing_plan_id":"free"},{"bike_id":"6a4aa820-5089-4077-8b0a-03f37e0cdc0e","system_id":"levelo_inurba_marseille","lat":43.250009,"lon":5.389195,"is_reserved":false,"is_disabled":false,"rental_uris":{"android":"levelo://app?vid=6a4aa820-5089-4077-8b0a-03f37e0cdc0e","ios":"levelo://app?vid=6a4aa820-5089-4077-8b0a-03f37e0cdc0e"},"vehicle_type_id":"4","last_reported":1701295598,"current_range_meters":12800,"station_id":"ce4bhgp2rcd13ifvqfd0","pricing_plan_id":"free"},{"bike_id":"c7eecb61-3304-492f-842e-de21f9a06b69","system_id":"levelo_inurba_marseille","lat":43.24806,"lon":5.37452,"is_reserved":false,"is_disabled":false,"rental_uris":{"android":"levelo://app?vid=c7eecb61-3304-492f-842e-de21f9a06b69","ios":"levelo://app?vid=c7eecb61-3304-492f-842e-de21f9a06b69"},"vehicle_type_id":"4","last_reported":1701295598,"current_range_meters":0,"station_id":"ce4bhgh2rcd13ifvqfb0","pricing_plan_id":"free"},{"bike_id":"1ee6ccac-fa0e-40cb-ad63-a576623c103c","system_id":"levelo_inurba_marseille","lat":43.250966,"lon":5.395186,"is_reserved":false,"is_disabled":false,"rental_uris":{"android":"levelo://app?vid=1ee6ccac-fa0e-40cb-ad63-a576623c103c","ios":"levelo://app?vid=1ee6ccac-fa0e-40cb-ad63-a576623c103c"},"vehicle_type_id":"4","last_reported":1701295598,"current_range_meters":30800,"station_id":"ce4bhm12rcd13ifvqgkg","pricing_plan_id":"free"},{"bike_id":"4967ab4e-a884-4957-bdb9-f89f823e0acd","system_id":"levelo_inurba_marseille","lat":43.25092,"lon":5.3952,"is_reserved":false,"is_disabled":false,"rental_uris":{"android":"levelo://app?vid=4967ab4e-a884-4957-bdb9-f89f823e0acd","ios":"levelo://app?vid=4967ab4e-a884-4957-bdb9-f89f823e0acd"},"vehicle_type_id":"4","last_reported":1701295598,"current_range_meters":30000,"station_id":"ce4bhm12rcd13ifvqgkg","pricing_plan_id":"free"},{"bike_id":"987ff51d-b31d-4176-9915-e7c653778fdc","system_id":"levelo_inurba_marseille","lat":43.250966,"lon":5.395186,"is_reserved":false,"is_disabled":false,"rental_uris":{"android":"levelo://app?vid=987ff51d-b31d-4176-9915-e7c653778fdc","ios":"levelo://app?vid=987ff51d-b31d-4176-9915-e7c653778fdc"},"vehicle_type_id":"4","last_reported":1701295598,"current_range_meters":8800,"station_id":"ce4bhm12rcd13ifvqgkg","pricing_plan_id":"free"},{"bike_id":"9228a6fe-c5e2-45f4-a167-7f60ff317749","system_id":"levelo_inurba_marseille","lat":43.250966,"lon":5.395186,"is_reserved":false,"is_disabled":false,"rental_uris":{"android":"levelo://app?vid=9228a6fe-c5e2-45f4-a167-7f60ff317749","ios":"levelo://app?vid=9228a6fe-c5e2-45f4-a167-7f60ff317749"},"vehicle_type_id":"4","last_reported":1701295598,"current_range_meters":28000,"station_id":"ce4bhm12rcd13ifvqgkg","pricing_plan_id":"free"},{"bike_id":"8078dd8c-54d7-48bb-bf76-667b16f596f8","system_id":"levelo_inurba_marseille","lat":43.24693,"lon":5.382096,"is_reserved":false,"is_disabled":false,"rental_uris":{"android":"levelo://app?vid=8078dd8c-54d7-48bb-bf76-667b16f596f8","ios":"levelo://app?vid=8078dd8c-54d7-48bb-bf76-667b16f596f8"},"vehicle_type_id":"4","last_reported":1701295598,"current_range_meters":29200,"station_id":"ce4bhih2rcd13ifvqfr0","pricing_plan_id":"free"},{"bike_id":"f2e7ea44-1802-445c-b14e-d15b1d57b78d","system_id":"levelo_inurba_marseille","lat":43.24693,"lon":5.382096,"is_reserved":false,"is_disabled":false,"rental_uris":{"android":"levelo://app?vid=f2e7ea44-1802-445c-b14e-d15b1d57b78d","ios":"levelo://app?vid=f2e7ea44-1802-445c-b14e-d15b1d57b78d"},"vehicle_type_id":"4","last_reported":1701295598,"current_range_meters":10400,"station_id":"ce4bhih2rcd13ifvqfr0","pricing_plan_id":"free"},{"bike_id":"29ea4d7f-e269-480d-aa95-7129be4b0551","system_id":"levelo_inurba_marseille","lat":43.24693,"lon":5.382096,"is_reserved":false,"is_disabled":false,"rental_uris":{"android":"levelo://app?vid=29ea4d7f-e269-480d-aa95-7129be4b0551","ios":"levelo://app?vid=29ea4d7f-e269-480d-aa95-7129be4b0551"},"vehicle_type_id":"4","last_reported":1701295598,"current_range_meters":0,"station_id":"ce4bhih2rcd13ifvqfr0","pricing_plan_id":"free"},{"bike_id":"5ad1a78d-ff92-4702-80f1-f578973a3ab4","system_id":"levelo_inurba_marseille","lat":43.251103,"lon":5.403197,"is_reserved":false,"is_disabled":false,"rental_uris":{"android":"levelo://app?vid=5ad1a78d-ff92-4702-80f1-f578973a3ab4","ios":"levelo://app?vid=5ad1a78d-ff92-4702-80f1-f578973a3ab4"},"vehicle_type_id":"4","last_reported":1701295598,"current_range_meters":16000,"station_id":"ce4bhlh2rcd13ifvqgig","pricing_plan_id":"free"},{"bike_id":"5911d145-f8c8-44e9-afa8-bf232365c635","system_id":"levelo_inurba_marseille","lat":43.25102,"lon":5.40323,"is_reserved":false,"is_disabled":false,"rental_uris":{"android":"levelo://app?vid=5911d145-f8c8-44e9-afa8-bf232365c635","ios":"levelo://app?vid=5911d145-f8c8-44e9-afa8-bf232365c635"},"vehicle_type_id":"4","last_reported":1701295598,"current_range_meters":20800,"station_id":"ce4bhlh2rcd13ifvqgig","pricing_plan_id":"free"},{"bike_id":"e3d09a6b-46f8-4049-9245-e5b95a6446e7","system_id":"levelo_inurba_marseille","lat":43.246461,"lon":5.389014,"is_reserved":false,"is_disabled":false,"rental_uris":{"android":"levelo://app?vid=e3d09a6b-46f8-4049-9245-e5b95a6446e7","ios":"levelo://app?vid=e3d09a6b-46f8-4049-9245-e5b95a6446e7"},"vehicle_type_id":"4","last_reported":1701295598,"current_range_meters":29600,"station_id":"ce4bhg12rcd13ifvqf60","pricing_plan_id":"free"},{"bike_id":"d24d75ab-5b89-4fed-aec9-cdbe284f48f5","system_id":"levelo_inurba_marseille","lat":43.246467,"lon":5.388984,"is_reserved":false,"is_disabled":false,"rental_uris":{"android":"levelo://app?vid=d24d75ab-5b89-4fed-aec9-cdbe284f48f5","ios":"levelo://app?vid=d24d75ab-5b89-4fed-aec9-cdbe284f48f5"},"vehicle_type_id":"4","last_reported":1701295598,"current_range_meters":18400,"station_id":"ce4bhg12rcd13ifvqf60","pricing_plan_id":"free"},{"bike_id":"515f5ba1-12e1-4db2-9fd8-4bcf104b3778","system_id":"levelo_inurba_marseille","lat":43.246467,"lon":5.388984,"is_reserved":false,"is_disabled":false,"rental_uris":{"android":"levelo://app?vid=515f5ba1-12e1-4db2-9fd8-4bcf104b3778","ios":"levelo://app?vid=515f5ba1-12e1-4db2-9fd8-4bcf104b3778"},"vehicle_type_id":"4","last_reported":1701295598,"current_range_meters":29200,"station_id":"ce4bhg12rcd13ifvqf60","pricing_plan_id":"free"},{"bike_id":"bae450d4-0dd8-4937-a099-78153b6b9a44","system_id":"levelo_inurba_marseille","lat":43.2455,"lon":5.39523,"is_reserved":false,"is_disabled":false,"rental_uris":{"android":"levelo://app?vid=bae450d4-0dd8-4937-a099-78153b6b9a44","ios":"levelo://app?vid=bae450d4-0dd8-4937-a099-78153b6b9a44"},"vehicle_type_id":"4","last_reported":1701295598,"current_range_meters":30800,"station_id":"ce4bhlp2rcd13ifvqgjg","pricing_plan_id":"free"},{"bike_id":"c25e2f8e-e410-4de7-afb3-54cc9c79ad32","system_id":"levelo_inurba_marseille","lat":43.245581,"lon":5.395069,"is_reserved":false,"is_disabled":false,"rental_uris":{"android":"levelo://app?vid=c25e2f8e-e410-4de7-afb3-54cc9c79ad32","ios":"levelo://app?vid=c25e2f8e-e410-4de7-afb3-54cc9c79ad32"},"vehicle_type_id":"4","last_reported":1701295598,"current_range_meters":31200,"station_id":"ce4bhlp2rcd13ifvqgjg","pricing_plan_id":"free"},{"bike_id":"f0a1b1ca-b497-41ae-8dca-0e5799f12b95","system_id":"levelo_inurba_marseille","lat":43.245581,"lon":5.395069,"is_reserved":false,"is_disabled":false,"rental_uris":{"android":"levelo://app?vid=f0a1b1ca-b497-41ae-8dca-0e5799f12b95","ios":"levelo://app?vid=f0a1b1ca-b497-41ae-8dca-0e5799f12b95"},"vehicle_type_id":"4","last_reported":1701295598,"current_range_meters":25200,"station_id":"ce4bhlp2rcd13ifvqgjg","pricing_plan_id":"free"},{"bike_id":"89a262b1-744b-4962-bf8c-ec45ae71b53d","system_id":"levelo_inurba_marseille","lat":43.240623,"lon":5.377642,"is_reserved":false,"is_disabled":false,"rental_uris":{"android":"levelo://app?vid=89a262b1-744b-4962-bf8c-ec45ae71b53d","ios":"levelo://app?vid=89a262b1-744b-4962-bf8c-ec45ae71b53d"},"vehicle_type_id":"4","last_reported":1701295598,"current_range_meters":9600,"station_id":"ce4bhnp2rcd13ifvqgvg","pricing_plan_id":"free"},{"bike_id":"72cddfac-add6-49c8-8c38-8b67a598d05b","system_id":"levelo_inurba_marseille","lat":43.240623,"lon":5.377642,"is_reserved":false,"is_disabled":false,"rental_uris":{"android":"levelo://app?vid=72cddfac-add6-49c8-8c38-8b67a598d05b","ios":"levelo://app?vid=72cddfac-add6-49c8-8c38-8b67a598d05b"},"vehicle_type_id":"4","last_reported":1701295598,"current_range_meters":20400,"station_id":"ce4bhnp2rcd13ifvqgvg","pricing_plan_id":"free"},{"bike_id":"6891fcde-2fef-433a-bf09-da9c3692e4cc","system_id":"levelo_inurba_marseille","lat":43.240623,"lon":5.377642,"is_reserved":false,"is_disabled":false,"rental_uris":{"android":"levelo://app?vid=6891fcde-2fef-433a-bf09-da9c3692e4cc","ios":"levelo://app?vid=6891fcde-2fef-433a-bf09-da9c3692e4cc"},"vehicle_type_id":"4","last_reported":1701295598,"current_range_meters":4000,"station_id":"ce4bhnp2rcd13ifvqgvg","pricing_plan_id":"free"},{"bike_id":"70128eba-c96e-406a-99d4-bd940b82da31","system_id":"levelo_inurba_marseille","lat":43.240623,"lon":5.377642,"is_reserved":false,"is_disabled":false,"rental_uris":{"android":"levelo://app?vid=70128eba-c96e-406a-99d4-bd940b82da31","ios":"levelo://app?vid=70128eba-c96e-406a-99d4-bd940b82da31"},"vehicle_type_id":"4","last_reported":1701295598,"current_range_meters":5200,"station_id":"ce4bhnp2rcd13ifvqgvg","pricing_plan_id":"free"},{"bike_id":"6c945398-7692-4cb1-a157-710bd68ec856","system_id":"levelo_inurba_marseille","lat":43.239588,"lon":5.366238,"is_reserved":false,"is_disabled":false,"rental_uris":{"android":"levelo://app?vid=6c945398-7692-4cb1-a157-710bd68ec856","ios":"levelo://app?vid=6c945398-7692-4cb1-a157-710bd68ec856"},"vehicle_type_id":"4","last_reported":1701295598,"current_range_meters":27200,"station_id":"ce4bhi12rcd13ifvqfp0","pricing_plan_id":"free"},{"bike_id":"929d1267-85aa-433e-bcdf-d579ff90976b","system_id":"levelo_inurba_marseille","lat":43.24725,"lon":5.41216,"is_reserved":false,"is_disabled":false,"rental_uris":{"android":"levelo://app?vid=929d1267-85aa-433e-bcdf-d579ff90976b","ios":"levelo://app?vid=929d1267-85aa-433e-bcdf-d579ff90976b"},"vehicle_type_id":"4","last_reported":1701295598,"current_range_meters":8400,"station_id":"","pricing_plan_id":"free"},{"bike_id":"5ecd8134-9fa6-4f20-8d3c-1b0ed686e976","system_id":"levelo_inurba_marseille","lat":43.241782,"lon":5.397261,"is_reserved":false,"is_disabled":false,"rental_uris":{"android":"levelo://app?vid=5ecd8134-9fa6-4f20-8d3c-1b0ed686e976","ios":"levelo://app?vid=5ecd8134-9fa6-4f20-8d3c-1b0ed686e976"},