{"last_updated":1761286538,"ttl":60,"version":"2.2","data":{"bikes":[{"bike_id":"960a0451-559a-41d1-af46-94a056047301","system_id":"levelo_inurba_marseille","lat":43.28566,"lon":5.395,"is_reserved":false,"is_disabled":true,"rental_uris":{"android":"levelo://app?vid=960a0451-559a-41d1-af46-94a056047301","ios":"levelo://app?vid=960a0451-559a-41d1-af46-94a056047301"},"vehicle_type_id":"4","last_reported":1761286538,"current_range_meters":2800,"station_id":"ce4bh292rcd13ifvqdg0","pricing_plan_id":"cebpf4jnsgd1na2vs0mg"},{"bike_id":"e944b592-9a16-4425-b667-f93dbf019351","system_id":"levelo_inurba_marseille","lat":43.27841,"lon":5.39202,"is_reserved":false,"is_disabled":false,"rental_uris":{"android":"levelo://app?vid=e944b592-9a16-4425-b667-f93dbf019351","ios":"levelo://app?vid=e944b592-9a16-4425-b667-f93dbf019351"},"vehicle_type_id":"4","last_reported":1761286538,"current_range_meters":2800,"station_id":"ce4bhjp2rcd13ifvqga0","pricing_plan_id":"cebpf4jnsgd1na2vs0mg"},{"bike_id":"e6f4e10e-6d72-487a-8252-3250c4b27f98","system_id":"levelo_inurba_marseille","lat":43.21181,"lon":5.35082,"is_reserved":false,"is_disabled":false,"rental_uris":{"android":"levelo://app?vid=e6f4e10e-6d72-487a-8252-3250c4b27f98","ios":"levelo://app?vid=e6f4e10e-6d72-487a-8252-3250c4b27f98"},"vehicle_type_id":"4","last_reported":1761286538,"current_range_meters":3200,"station_id":"st_cvj6sg6p6f1abm77japg","pricing_plan_id":"cebpf4jnsgd1na2vs0mg"},{"bike_id":"02f7835e-8895-43db-bc46-dc0659a292d5","system_id":"levelo_inurba_marseille","lat":43.29331,"lon":5.3707,"is_reserved":false,"is_disabled":false,"rental_uris":{"android":"levelo://app?vid=02f7835e-8895-43db-bc46-dc0659a292d5","ios":"levelo://app?vid=02f7835e-8895-43db-bc46-dc0659a292d5"},"vehicle_type_id":"4","last_reported":1761286538,"current_range_meters":3200,"station_id":"","pricing_plan_id":"cebpf4jnsgd1na2vs0mg"},{"bike_id":"47d046e4-34a4-4fcd-92a2-208d2a79424d","system_id":"levelo_inurba_marseille","lat":43.294924,"lon":5.433032,"is_reserved":false,"is_disabled":false,"rental_uris":{"android":"levelo://app?vid=47d046e4-34a4-4fcd-92a2-208d2a79424d","ios":"levelo://app?vid=47d046e4-34a4-4fcd-92a2-208d2a79424d"},"vehicle_type_id":"4","last_reported":1761286538,"current_range_meters":3600,"station_id":"st_d3j5ugp08ojc73fj9d10","pricing_plan_id":"cebpf4jnsgd1na2vs0mg"},{"bike_id":"dc1111c9-f771-40f9-a12e-17c92306e799","system_id":"levelo_inurba_marseille","lat":43.31353,"lon":5.36708,"is_reserved":false,"is_disabled":false,"rental_uris":{"android":"levelo://app?vid=dc1111c9-f771-40f9-a12e-17c92306e799","ios":"levelo://app?vid=dc1111c9-f771-40f9-a12e-17c92306e799"},"vehicle_type_id":"4","last_reported":1761286538,"current_range_meters":3600,"station_id":"ce4bgr92rcd13ifvqc6g","pricing_plan_id":"cebpf4jnsgd1na2vs0mg"},{"bike_id":"ff3ba630-dc04-489c-b422-8721b9ddc862","system_id":"levelo_inurba_marseille","lat":43.29826,"lon":5.37762,"is_reserved":false,"is_disabled":false,"rental_uris":{"android":"levelo://app?vid=ff3ba630-dc04-489c-b422-8721b9ddc862","ios":"levelo://app?vid=ff3ba630-dc04-489c-b422-8721b9ddc862"},"vehicle_type_id":"4","last_reported":1761286538,"current_range_meters":4000,"station_id":"","pricing_plan_id":"cebpf4jnsgd1na2vs0mg"},{"bike_id":"3af91f8f-8e94-401e-8d9f-1ba41625932d","system_id":"levelo_inurba_marseille","lat":43.270593,"lon":5.402469,"is_reserved":false,"is_disabled":false,"rental_uris":{"android":"levelo://app?vid=3af91f8f-8e94-401e-8d9f-1ba41625932d","ios":"levelo://app?vid=3af91f8f-8e94-401e-8d9f-1ba41625932d"},"vehicle_type_id":"4","last_reported":1761286538,"current_range_meters":4000,"station_id":"ce4bhk92rcd13ifvqgc0","pricing_plan_id":"cebpf4jnsgd1na2vs0mg"},{"bike_id":"82576c51-8b9b-43eb-aa43-fc4a18c9ea5b","system_id":"levelo_inurba_marseille","lat":43.21725,"lon":5.34632,"is_reserved":false,"is_disabled":false,"rental_uris":{"android":"levelo://app?vid=82576c51-8b9b-43eb-aa43-fc4a18c9ea5b","ios":"levelo://app?vid=82576c51-8b9b-43eb-aa43-fc4a18c9ea5b"},"vehicle_type_id":"4","last_reported":1761286538,"current_range_meters":4400,"station_id":"st_cvj6r9ubvosntc0bgbag","pricing_plan_id":"cebpf4jnsgd1na2vs0mg"},{"bike_id":"096099ea-3d63-4182-8b45-7d5fab40fbbf","system_id":"levelo_inurba_marseille","lat":43.25089,"lon":5.39508,"is_reserved":false,"is_disabled":true,"rental_uris":{"android":"levelo://app?vid=096099ea-3d63-4182-8b45-7d5fab40fbbf","ios":"levelo://app?vid=096099ea-3d63-4182-8b45-7d5fab40fbbf"},"vehicle_type_id":"4","last_reported":1761286538,"current_range_meters":4400,"station_id":"ce4bhm12rcd13ifvqgkg","pricing_plan_id":"cebpf4jnsgd1na2vs0mg"},{"bike_id":"a84ac13f-c967-4dd3-8e0e-d6f64aff52a6","system_id":"levelo_inurba_marseille","lat":43.26955,"lon":5.38628,"is_reserved":false,"is_disabled":false,"rental_uris":{"android":"levelo://app?vid=a84ac13f-c967-4dd3-8e0e-d6f64aff52a6","ios":"levelo://app?vid=a84ac13f-c967-4dd3-8e0e-d6f64aff52a6"},"vehicle_type_id":"4","last_reported":1761286538,"current_range_meters":4800,"station_id":"ce4bhh92rcd13ifvqfh0","pricing_plan_id":"cebpf4jnsgd1na2vs0mg"},{"bike_id":"16ea86f8-d34c-4222-9d2d-e608ddd6d62e","system_id":"levelo_inurba_marseille","lat":43.33758,"lon":5.37462,"is_reserved":false,"is_disabled":false,"rental_uris":{"android":"levelo://app?vid=16ea86f8-d34c-4222-9d2d-e608ddd6d62e","ios":"levelo://app?vid=16ea86f8-d34c-4222-9d2d-e608ddd6d62e"},"vehicle_type_id":"4","last_reported":1761286538,"current_range_meters":4800,"station_id":"","pricing_plan_id":"cebpf4jnsgd1na2vs0mg"},{"bike_id":"47b9e276-e64b-488c-af27-680fd181ea75","system_id":"levelo_inurba_marseille","lat":43.30479,"lon":5.37926,"is_reserved":false,"is_disabled":false,"rental_uris":{"android":"levelo://app?vid=47b9e276-e64b-488c-af27-680fd181ea75","ios":"levelo://app?vid=47b9e276-e64b-488c-af27-680fd181ea75"},"vehicle_type_id":"4","last_reported":1761286538,"current_range_meters":4800,"station_id":"ce4bgup2rcd13ifvqcn0","pricing_plan_id":"cebpf4jnsgd1na2vs0mg"},{"bike_id":"33e9f939-6fda-4004-85c7-17d0e3416aff","system_id":"levelo_inurba_marseille","lat":43.26328,"lon":5.39647,"is_reserved":false,"is_disabled":false,"rental_uris":{"android":"levelo://app?vid=33e9f939-6fda-4004-85c7-17d0e3416aff","ios":"levelo://app?vid=33e9f939-6fda-4004-85c7-17d0e3416aff"},"vehicle_type_id":"4","last_reported":1761286538,"current_range_meters":4800,"station_id":"","pricing_plan_id":"cebpf4jnsgd1na2vs0mg"},{"bike_id":"b94970ef-7fb9-4679-94c1-c77e08353b52","system_id":"levelo_inurba_marseille","lat":43.263963,"lon":5.404988,"is_reserved":false,"is_disabled":false,"rental_uris":{"android":"levelo://app?vid=b94970ef-7fb9-4679-94c1-c77e08353b52","ios":"levelo://app?vid=b94970ef-7fb9-4679-94c1-c77e08353b52"},"vehicle_type_id":"4","last_reported":1761286538,"current_range_meters":4800,"station_id":"","pricing_plan_id":"cebpf4jnsgd1na2vs0mg"},{"bike_id":"dec5519d-8ba3-4dba-9cce-d060e2af4031","system_id":"levelo_inurba_marseille","lat":43.315,"lon":5.37311,"is_reserved":false,"is_disabled":false,"rental_uris":{"android":"levelo://app?vid=dec5519d-8ba3-4dba-9cce-d060e2af4031","ios":"levelo://app?vid=dec5519d-8ba3-4dba-9cce-d060e2af4031"},"vehicle_type_id":"4","last_reported":1761286538,"current_range_meters":5600,"station_id":"ce4bgt12rcd13ifvqcd0","pricing_plan_id":"cebpf4jnsgd1na2vs0mg"},{"bike_id":"f3efb067-32db-4fd5-a6c7-ed1c6ebbf69d","system_id":"levelo_inurba_marseille","lat":43.21188,"lon":5.35082,"is_reserved":false,"is_disabled":false,"rental_uris":{"android":"levelo://app?vid=f3efb067-32db-4fd5-a6c7-ed1c6ebbf69d","ios":"levelo://app?vid=f3efb067-32db-4fd5-a6c7-ed1c6ebbf69d"},"vehicle_type_id":"4","last_reported":1761286538,"current_range_meters":5600,"station_id":"st_cvj6sg6p6f1abm77japg","pricing_plan_id":"cebpf4jnsgd1na2vs0mg"},{"bike_id":"5385651e-5d96-4b05-9e5e-8383228be157","system_id":"levelo_inurba_marseille","lat":43.27906,"lon":5.38023,"is_reserved":false,"is_disabled":false,"rental_uris":{"android":"levelo://app?vid=5385651e-5d96-4b05-9e5e-8383228be157","ios":"levelo://app?vid=5385651e-5d96-4b05-9e5e-8383228be157"},"vehicle_type_id":"4","last_reported":1761286538,"current_range_meters":5600,"station_id":"ce4bhf92rcd13ifvqf50","pricing_plan_id":"cebpf4jnsgd1na2vs0mg"},{"bike_id":"37d01fc8-4b4d-4652-a489-1254eb9d4c80","system_id":"levelo_inurba_marseille","lat":43.34076,"lon":5.40411,"is_reserved":false,"is_disabled":false,"rental_uris":{"android":"levelo://app?vid=37d01fc8-4b4d-4652-a489-1254eb9d4c80","ios":"levelo://app?vid=37d01fc8-4b4d-4652-a489-1254eb9d4c80"},"vehicle_type_id":"4","last_reported":1761286538,"current_range_meters":5600,"station_id":"","pricing_plan_id":"cebpf4jnsgd1na2vs0mg"},{"bike_id":"de88b060-a8d3-4631-9b2a-19bac33a1a68","system_id":"levelo_inurba_marseille","lat":43.30732,"lon":5.42435,"is_reserved":false,"is_disabled":false,"rental_uris":{"android":"levelo://app?vid=de88b060-a8d3-4631-9b2a-19bac33a1a68","ios":"levelo://app?vid=de88b060-a8d3-4631-9b2a-19bac33a1a68"},"vehicle_type_id":"4","last_reported":1761286538,"current_range_meters":5600,"station_id":"st_cvj6ca6bvosntc0bfgr0","pricing_plan_id":"cebpf4jnsgd1na2vs0mg"},{"bike_id":"03cb77c2-c282-4ec4-aa21-ec09c1b2b0f1","system_id":"levelo_inurba_marseille","lat":43.29039,"lon":5.3996,"is_reserved":false,"is_disabled":false,"rental_uris":{"android":"levelo://app?vid=03cb77c2-c282-4ec4-aa21-ec09c1b2b0f1","ios":"levelo://app?vid=03cb77c2-c282-4ec4-aa21-ec09c1b2b0f1"},"vehicle_type_id":"4","last_reported":1761286538,"current_range_meters":6000,"station_id":"ce4bh392rcd13ifvqdm0","pricing_plan_id":"cebpf4jnsgd1na2vs0mg"},{"bike_id":"f3899769-4954-43ba-b963-424dd94bcd80","system_id":"levelo_inurba_marseille","lat":43.30422,"lon":5.41276,"is_reserved":false,"is_disabled":false,"rental_uris":{"android":"levelo://app?vid=f3899769-4954-43ba-b963-424dd94bcd80","ios":"levelo://app?vid=f3899769-4954-43ba-b963-424dd94bcd80"},"vehicle_type_id":"4","last_reported":1761286538,"current_range_meters":6000,"station_id":"ce4bhop2rcd13ifvqh8g","pricing_plan_id":"cebpf4jnsgd1na2vs0mg"},{"bike_id":"066d7904-f782-44f2-ad3a-1c9e5c07d120","system_id":"levelo_inurba_marseille","lat":43.31997,"lon":5.38147,"is_reserved":false,"is_disabled":false,"rental_uris":{"android":"levelo://app?vid=066d7904-f782-44f2-ad3a-1c9e5c07d120","ios":"levelo://app?vid=066d7904-f782-44f2-ad3a-1c9e5c07d120"},"vehicle_type_id":"4","last_reported":1761286538,"current_range_meters":6400,"station_id":"ce4bhr12rcd13ifvqhpg","pricing_plan_id":"cebpf4jnsgd1na2vs0mg"},{"bike_id":"eec55ceb-35bf-463f-b309-47456f09b20c","system_id":"levelo_inurba_marseille","lat":43.26577,"lon":5.39083,"is_reserved":false,"is_disabled":false,"rental_uris":{"android":"levelo://app?vid=eec55ceb-35bf-463f-b309-47456f09b20c","ios":"levelo://app?vid=eec55ceb-35bf-463f-b309-47456f09b20c"},"vehicle_type_id":"4","last_reported":1761286538,"current_range_meters":6400,"station_id":"ce4bhe12rcd13ifvqf30","pricing_plan_id":"cebpf4jnsgd1na2vs0mg"},{"bike_id":"3aa8c3e6-230d-4538-ac39-2b944611f536","system_id":"levelo_inurba_marseille","lat":43.31358,"lon":5.36707,"is_reserved":false,"is_disabled":true,"rental_uris":{"android":"levelo://app?vid=3aa8c3e6-230d-4538-ac39-2b944611f536","ios":"levelo://app?vid=3aa8c3e6-230d-4538-ac39-2b944611f536"},"vehicle_type_id":"4","last_reported":1761286538,"current_range_meters":6400,"station_id":"ce4bgr92rcd13ifvqc6g","pricing_plan_id":"cebpf4jnsgd1na2vs0mg"},{"bike_id":"a5634054-e15f-4cf0-96e1-47cd1e25fbf4","system_id":"levelo_inurba_marseille","lat":43.32473,"lon":5.36561,"is_reserved":false,"is_disabled":false,"rental_uris":{"android":"levelo://app?vid=a5634054-e15f-4cf0-96e1-47cd1e25fbf4","ios":"levelo://app?vid=a5634054-e15f-4cf0-96e1-47cd1e25fbf4"},"vehicle_type_id":"4","last_reported":1761286538,"current_range_meters":6400,"station_id":"ce4bhs12rcd13ifvqhvg","pricing_plan_id":"cebpf4jnsgd1na2vs0mg"},{"bike_id":"10f3b994-d862-41b1-ad98-a11803536db3","system_id":"levelo_inurba_marseille","lat":43.28586,"lon":5.39492,"is_reserved":false,"is_disabled":false,"rental_uris":{"android":"levelo://app?vid=10f3b994-d862-41b1-ad98-a11803536db3","ios":"levelo://app?vid=10f3b994-d862-41b1-ad98-a11803536db3"},"vehicle_type_id":"4","last_reported":1761286538,"current_range_meters":6800,"station_id":"ce4bh292rcd13ifvqdg0","pricing_plan_id":"cebpf4jnsgd1na2vs0mg"},{"bike_id":"285dd874-bd16-44c1-9b43-116f4135f2c1","system_id":"levelo_inurba_marseille","lat":43.2885,"lon":5.42526,"is_reserved":false,"is_disabled":false,"rental_uris":{"android":"levelo://app?vid=285dd874-bd16-44c1-9b43-116f4135f2c1","ios":"levelo://app?vid=285dd874-bd16-44c1-9b43-116f4135f2c1"},"vehicle_type_id":"4","last_reported":1761286538,"current_range_meters":6800,"station_id":"st_d3b462108ojc7389ooeg","pricing_plan_id":"cebpf4jnsgd1na2vs0mg"},{"bike_id":"7dc3a787-7b14-4505-8e32-0b28349ba8b9","system_id":"levelo_inurba_marseille","lat":43.287063,"lon":5.362525,"is_reserved":false,"is_disabled":false,"rental_uris":{"android":"levelo://app?vid=7dc3a787-7b14-4505-8e32-0b28349ba8b9","ios":"levelo://app?vid=7dc3a787-7b14-4505-8e32-0b28349ba8b9"},"vehicle_type_id":"4","last_reported":1761286538,"current_range_meters":7200,"station_id":"","pricing_plan_id":"cebpf4jnsgd1na2vs0mg"},{"bike_id":"7d9ed13b-d1e5-46c4-9f8c-0109b995b3f1","system_id":"levelo_inurba_marseille","lat":43.27429,"lon":5.39409,"is_reserved":false,"is_disabled":false,"rental_uris":{"android":"levelo://app?vid=7d9ed13b-d1e5-46c4-9f8c-0109b995b3f1","ios":"levelo://app?vid=7d9ed13b-d1e5-46c4-9f8c-0109b995b3f1"},"vehicle_type_id":"4","last_reported":1761286538,"current_range_meters":7200,"station_id":"ce4bhdp2rcd13ifvqf20","pricing_plan_id":"cebpf4jnsgd1na2vs0mg"},{"bike_id":"cd0cadb0-3b2e-465b-9d15-7d593ef08f95","system_id":"levelo_inurba_marseille","lat":43.263701,"lon":5.396299,"is_reserved":false,"is_disabled":false,"rental_uris":{"android":"levelo://app?vid=cd0cadb0-3b2e-465b-9d15-7d593ef08f95","ios":"levelo://app?vid=cd0cadb0-3b2e-465b-9d15-7d593ef08f95"},"vehicle_type_id":"4","last_reported":1761286538,"current_range_meters":7200,"station_id":"","pricing_plan_id":"cebpf4jnsgd1na2vs0mg"},{"bike_id":"4eae2ec4-8862-466e-a3d9-395cca4276d0","system_id":"levelo_inurba_marseille","lat":43.303781,"lon":5.375938,"is_reserved":false,"is_disabled":false,"rental_uris":{"android":"levelo://app?vid=4eae2ec4-8862-466e-a3d9-395cca4276d0","ios":"levelo://app?vid=4eae2ec4-8862-466e-a3d9-395cca4276d0"},"vehicle_type_id":"4","last_reported":1761286538,"current_range_meters":7200,"station_id":"","pricing_plan_id":"cebpf4jnsgd1na2vs0mg"},{"bike_id":"6fbe28b3-325b-46c6-9625-f20988936462","system_id":"levelo_inurba_marseille","lat":43.24682,"lon":5.38182,"is_reserved":false,"is_disabled":false,"rental_uris":{"android":"levelo://app?vid=6fbe28b3-325b-46c6-9625-f20988936462","ios":"levelo://app?vid=6fbe28b3-325b-46c6-9625-f20988936462"},"vehicle_type_id":"4","last_reported":1761286538,"current_range_meters":7200,"station_id":"ce4bhih2rcd13ifvqfr0","pricing_plan_id":"cebpf4jnsgd1na2vs0mg"},{"bike_id":"2ad68b17-40fa-4033-b965-58a39fc5db9c","system_id":"levelo_inurba_marseille","lat":43.30485,"lon":5.37896,"is_reserved":false,"is_disabled":false,"rental_uris":{"android":"levelo://app?vid=2ad68b17-40fa-4033-b965-58a39fc5db9c","ios":"levelo://app?vid=2ad68b17-40fa-4033-b965-58a39fc5db9c"},"vehicle_type_id":"4","last_reported":1761286538,"current_range_meters":8000,"station_id":"ce4bgup2rcd13ifvqcn0","pricing_plan_id":"cebpf4jnsgd1na2vs0mg"},{"bike_id":"3167c122-43fa-497a-bf85-d0a6522abe7a","system_id":"levelo_inurba_marseille","lat":43.32765,"lon":5.37527,"is_reserved":false,"is_disabled":false,"rental_uris":{"android":"levelo://app?vid=3167c122-43fa-497a-bf85-d0a6522abe7a","ios":"levelo://app?vid=3167c122-43fa-497a-bf85-d0a6522abe7a"},"vehicle_type_id":"4","last_reported":1761286538,"current_range_meters":8000,"station_id":"","pricing_plan_id":"cebpf4jnsgd1na2vs0mg"},{"bike_id":"c8c0fa58-a519-4343-9887-b0c694f93aef","system_id":"levelo_inurba_marseille","lat":43.28861,"lon":5.42508,"is_reserved":false,"is_disabled":false,"rental_uris":{"android":"levelo://app?vid=c8c0fa58-a519-4343-9887-b0c694f93aef","ios":"levelo://app?vid=c8c0fa58-a519-4343-9887-b0c694f93aef"},"vehicle_type_id":"4","last_reported":1761286538,"current_range_meters":8400,"station_id":"st_d3b462108ojc7389ooeg","pricing_plan_id":"cebpf4jnsgd1na2vs0mg"},{"bike_id":"6a662624-d03e-45d5-964b-74ea5f67d032","system_id":"levelo_inurba_marseille","lat":43.31117,"lon":5.3776,"is_reserved":false,"is_disabled":true,"rental_uris":{"android":"levelo://app?vid=6a662624-d03e-45d5-964b-74ea5f67d032","ios":"levelo://app?vid=6a662624-d03e-45d5-964b-74ea5f67d032"},"vehicle_type_id":"4","last_reported":1761286538,"current_range_meters":8400,"station_id":"ce4bgt92rcd13ifvqcg0","pricing_plan_id":"cebpf4jnsgd1na2vs0mg"},{"bike_id":"aa5c39ca-5467-4d85-a1f8-b790dbb0979e","system_id":"levelo_inurba_marseille","lat":43.30712,"lon":5.37372,"is_reserved":false,"is_disabled":false,"rental_uris":{"android":"levelo://app?vid=aa5c39ca-5467-4d85-a1f8-b790dbb0979e","ios":"levelo://app?vid=aa5c39ca-5467-4d85-a1f8-b790dbb0979e"},"vehicle_type_id":"4","last_reported":1761286538,"current_range_meters":8400,"station_id":"","pricing_plan_id":"cebpf4jnsgd1na2vs0mg"},{"bike_id":"a6c8451c-f3a9-441b-82eb-cc51be3d60d9","system_id":"levelo_inurba_marseille","lat":43.3169,"lon":5.40426,"is_reserved":false,"is_disabled":false,"rental_uris":{"android":"levelo://app?vid=a6c8451c-f3a9-441b-82eb-cc51be3d60d9","ios":"levelo://app?vid=a6c8451c-f3a9-441b-82eb-cc51be3d60d9"},"vehicle_type_id":"4","last_reported":1761286538,"current_range_meters":8400,"station_id":"ce4bh012rcd13ifvqd00","pricing_plan_id":"cebpf4jnsgd1na2vs0mg"},{"bike_id":"0ba2a04e-37dc-44f0-9379-5f0eed96e46d","system_id":"levelo_inurba_marseille","lat":43.302107,"lon":5.394626,"is_reserved":false,"is_disabled":false,"rental_uris":{"android":"levelo://app?vid=0ba2a04e-37dc-44f0-9379-5f0eed96e46d","ios":"levelo://app?vid=0ba2a04e-37dc-44f0-9379-5f0eed96e46d"},"vehicle_type_id":"4","last_reported":1761286538,"current_range_meters":8800,"station_id":"ce4bh0p2rcd13ifvqd70","pricing_plan_id":"cebpf4jnsgd1na2vs0mg"},{"bike_id":"49205a8f-4198-4c0b-b7d7-97a9473705ce","system_id":"levelo_inurba_marseille","lat":43.3211,"lon":5.36767,"is_reserved":false,"is_disabled":false,"rental_uris":{"android":"levelo://app?vid=49205a8f-4198-4c0b-b7d7-97a9473705ce","ios":"levelo://app?vid=49205a8f-4198-4c0b-b7d7-97a9473705ce"},"vehicle_type_id":"4","last_reported":1761286538,"current_range_meters":8800,"station_id":"ce4bhrh2rcd13ifvqhug","pricing_plan_id":"cebpf4jnsgd1na2vs0mg"},{"bike_id":"2049ba4e-9d57-4889-8df1-5f857e5aa9b1","system_id":"levelo_inurba_marseille","lat":43.282715,"lon":5.350623,"is_reserved":false,"is_disabled":false,"rental_uris":{"android":"levelo://app?vid=2049ba4e-9d57-4889-8df1-5f857e5aa9b1","ios":"levelo://app?vid=2049ba4e-9d57-4889-8df1-5f857e5aa9b1"},"vehicle_type_id":"4","last_reported":1761286538,"current_range_meters":8800,"station_id":"ce4bhbp2rcd13ifvqerg","pricing_plan_id":"cebpf4jnsgd1na2vs0mg"},{"bike_id":"b96b3118-6692-4399-83aa-684fe968ab53","system_id":"levelo_inurba_marseille","lat":43.24171,"lon":5.36395,"is_reserved":false,"is_disabled":false,"rental_uris":{"android":"levelo://app?vid=b96b3118-6692-4399-83aa-684fe968ab53","ios":"levelo://app?vid=b96b3118-6692-4399-83aa-684fe968ab53"},"vehicle_type_id":"4","last_reported":1761286538,"current_range_meters":8800,"station_id":"cpo36qri1sfpv3e86is0","pricing_plan_id":"cebpf4jnsgd1na2vs0mg"},{"bike_id":"ec9665a2-32ab-42b2-9bdf-cf94d158a9c2","system_id":"levelo_inurba_marseille","lat":43.30108,"lon":5.37093,"is_reserved":false,"is_disabled":false,"rental_uris":{"android":"levelo://app?vid=ec9665a2-32ab-42b2-9bdf-cf94d158a9c2","ios":"levelo://app?vid=ec9665a2-32ab-42b2-9bdf-cf94d158a9c2"},"vehicle_type_id":"4","last_reported":1761286538,"current_range_meters":9200,"station_id":"","pricing_plan_id":"cebpf4jnsgd1na2vs0mg"},{"bike_id":"91c55894-f90b-4c6a-9935-1ccd1665a401","system_id":"levelo_inurba_marseille","lat":43.29622,"lon":5.37688,"is_reserved":false,"is_disabled":false,"rental_uris":{"android":"levelo://app?vid=91c55894-f90b-4c6a-9935-1ccd1665a401","ios":"levelo://app?vid=91c55894-f90b-4c6a-9935-1ccd1665a401"},"vehicle_type_id":"4","last_reported":1761286538,"current_range_meters":9200,"station_id":"ce4bgi92rcd13ifvqb90","pricing_plan_id":"cebpf4jnsgd1na2vs0mg"},{"bike_id":"32e7919e-26d8-4f7d-b229-086147816fa4","system_id":"levelo_inurba_marseille","lat":43.301286,"lon":5.38775,"is_reserved":false,"is_disabled":false,"rental_uris":{"android":"levelo://app?vid=32e7919e-26d8-4f7d-b229-086147816fa4","ios":"levelo://app?vid=32e7919e-26d8-4f7d-b229-086147816fa4"},"vehicle_type_id":"4","last_reported":1761286538,"current_range_meters":9200,"station_id":"","pricing_plan_id":"cebpf4jnsgd1na2vs0mg"},{"bike_id":"00fd3c6a-780c-49dc-9993-d4de69c9b57a","system_id":"levelo_inurba_marseille","lat":43.31053,"lon":5.37457,"is_reserved":false,"is_disabled":false,"rental_uris":{"android":"levelo://app?vid=00fd3c6a-780c-49dc-9993-d4de69c9b57a","ios":"levelo://app?vid=00fd3c6a-780c-49dc-9993-d4de69c9b57a"},"vehicle_type_id":"4","last_reported":1761286538,"current_range_meters":9200,"station_id":"","pricing_plan_id":"cebpf4jnsgd1na2vs0mg"},{"bike_id":"76ee2b83-743b-46a3-b384-858d679258a7","system_id":"levelo_inurba_marseille","lat":43.270612,"lon":5.383124,"is_reserved":false,"is_disabled":false,"rental_uris":{"android":"levelo://app?vid=76ee2b83-743b-46a3-b384-858d679258a7","ios":"levelo://app?vid=76ee2b83-743b-46a3-b384-858d679258a7"},"vehicle_type_id":"4","last_reported":1761286538,"current_range_meters":9200,"station_id":"st_d3n2fo6cfp8s73cte1j0","pricing_plan_id":"cebpf4jnsgd1na2vs0mg"},{"bike_id":"3cb1bc4c-33ce-44da-a3c2-1895cb2d1499","system_id":"levelo_inurba_marseille","lat":43.27354,"lon":5.41506,"is_reserved":false,"is_disabled":false,"rental_uris":{"android":"levelo://app?vid=3cb1bc4c-33ce-44da-a3c2-1895cb2d1499","ios":"levelo://app?vid=3cb1bc4c-33ce-44da-a3c2-1895cb2d1499"},"vehicle_type_id":"4","last_reported":1761286538,"current_range_meters":9600,"station_id":"","pricing_plan_id":"cebpf4jnsgd1na2vs0mg"},{"bike_id":"2380ac8a-7d62-44ff-b739-c7e9c7dff64c","system_id":"levelo_inurba_marseille","lat":43.27432,"lon":5.39417,"is_reserved":false,"is_disabled":false,"rental_uris":{"android":"levelo://app?vid=2380ac8a-7d62-44ff-b739-c7e9c7dff64c","ios":"levelo://app?vid=2380ac8a-7d62-44ff-b739-c7e9c7dff64c"},"vehicle_type_id":"4","last_reported":1761286538,"current_range_meters":9600,"station_id":"ce4bhdp2rcd13ifvqf20","pricing_plan_id":"cebpf4jnsgd1na2vs0mg"},{"bike_id":"1aaa028d-93d8-4a20-8355-7a4b17d8620a","system_id":"levelo_inurba_marseille","lat":43.27643,"lon":5.39215,"is_reserved":false,"is_disabled":false,"rental_uris":{"android":"levelo://app?vid=1aaa028d-93d8-4a20-8355-7a4b17d8620a","ios":"levelo://app?vid=1aaa028d-93d8-4a20-8355-7a4b17d8620a"},"vehicle_type_id":"4","last_reported":1761286538,"current_range_meters":9600,"station_id":"","pricing_plan_id":"cebpf4jnsgd1na2vs0mg"},{"bike_id":"0773640e-24fb-492b-b167-d16d2b7c2899","system_id":"levelo_inurba_marseille","lat":43.28099,"lon":5.37841,"is_reserved":false,"is_disabled":false,"rental_uris":{"android":"levelo://app?vid=0773640e-24fb-492b-b167-d16d2b7c2899","ios":"levelo://app?vid=0773640e-24fb-492b-b167-d16d2b7c2899"},"vehicle_type_id":"4","last_reported":1761286538,"current_range_meters":9600,"station_id":"ce4bha12rcd13ifvqee0","pricing_plan_id":"cebpf4jnsgd1na2vs0mg"},{"bike_id":"e96035ce-3f75-42c7-bc07-32e4ba0bd41a","system_id":"levelo_inurba_marseille","lat":43.30477,"lon":5.36942,"is_reserved":false,"is_disabled":false,"rental_uris":{"android":"levelo://app?vid=e96035ce-3f75-42c7-bc07-32e4ba0bd41a","ios":"levelo://app?vid=e96035ce-3f75-42c7-bc07-32e4ba0bd41a"},"vehicle_type_id":"4","last_reported":1761286538,"current_range_meters":10000,"station_id":"","pricing_plan_id":"cebpf4jnsgd1na2vs0mg"},{"bike_id":"2d424323-c98b-4462-bef5-14a0284e31b9","system_id":"levelo_inurba_marseille","lat":43.27429,"lon":5.39402,"is_reserved":false,"is_disabled":false,"rental_uris":{"android":"levelo://app?vid=2d424323-c98b-4462-bef5-14a0284e31b9","ios":"levelo://app?vid=2d424323-c98b-4462-bef5-14a0284e31b9"},"vehicle_type_id":"4","last_reported":1761286538,"current_range_meters":10000,"station_id":"ce4bhdp2rcd13ifvqf20","pricing_plan_id":"cebpf4jnsgd1na2vs0mg"},{"bike_id":"3c338306-051e-4864-9d5e-73d858887959","system_id":"levelo_inurba_marseille","lat":43.28848,"lon":5.35842,"is_reserved":false,"is_disabled":false,"rental_uris":{"android":"levelo://app?vid=3c338306-051e-4864-9d5e-73d858887959","ios":"levelo://app?vid=3c338306-051e-4864-9d5e-73d858887959"},"vehicle_type_id":"4","last_reported":1761286538,"current_range_meters":10000,"station_id":"ce4bhb12rcd13ifvqem0","pricing_plan_id":"cebpf4jnsgd1na2vs0mg"},{"bike_id":"4bb99ab7-f9cd-4fa5-b387-e243bec85e12","system_id":"levelo_inurba_marseille","lat":43.237932,"lon":5.36638,"is_reserved":false,"is_disabled":false,"rental_uris":{"android":"levelo://app?vid=4bb99ab7-f9cd-4fa5-b387-e243bec85e12","ios":"levelo://app?vid=4bb99ab7-f9cd-4fa5-b387-e243bec85e12"},"vehicle_type_id":"4","last_reported":1761286538,"current_range_meters":10000,"station_id":"st_d3nk18o9ro0c73en2l3g","pricing_plan_id":"cebpf4jnsgd1na2vs0mg"},{"bike_id":"bda3ed1a-3199-4eb8-8229-577855d09dbb","system_id":"levelo_inurba_marseille","lat":43.3163,"lon":5.37876,"is_reserved":false,"is_disabled":true,"rental_uris":{"android":"levelo://app?vid=bda3ed1a-3199-4eb8-8229-577855d09dbb","ios":"levelo://app?vid=bda3ed1a-3199-4eb8-8229-577855d09dbb"},"vehicle_type_id":"4","last_reported":1761286538,"current_range_meters":10000,"station_id":"","pricing_plan_id":"cebpf4jnsgd1na2vs0mg"},{"bike_id":"f30d474c-592d-470d-816b-bf7526dcf767","system_id":"levelo_inurba_marseille","lat":43.30859,"lon":5.38098,"is_reserved":false,"is_disabled":false,"rental_uris":{"android":"levelo://app?vid=f30d474c-592d-470d-816b-bf7526dcf767","ios":"levelo://app?vid=f30d474c-592d-470d-816b-bf7526dcf767"},"vehicle_type_id":"4","last_reported":1761286538,"current_range_meters":10000,"station_id":"","pricing_plan_id":"cebpf4jnsgd1na2vs0mg"},{"bike_id":"323bf2de-3bb4-4b4c-b330-b19ea807dbf5","system_id":"levelo_inurba_marseille","lat":43.33053,"lon":5.42945,"is_reserved":false,"is_disabled":false,"rental_uris":{"android":"levelo://app?vid=323bf2de-3bb4-4b4c-b330-b19ea807dbf5","ios":"levelo://app?vid=323bf2de-3bb4-4b4c-b330-b19ea807dbf5"},"vehicle_type_id":"4","last_reported":1761286538,"current_range_meters":10000,"station_id":"","pricing_plan_id":"cebpf4jnsgd1na2vs0mg"},{"bike_id":"e8a3abe2-c655-4bb0-9ffd-183b83814299","system_id":"levelo_inurba_marseille","lat":43.28877,"lon":5.39326,"is_reserved":false,"is_disabled":true,"rental_uris":{"android":"levelo://app?vid=e8a3abe2-c655-4bb0-9ffd-183b83814299","ios":"levelo://app?vid=e8a3abe2-c655-4bb0-9ffd-183b83814299"},"vehicle_type_id":"4","last_reported":1761286538,"current_range_meters":10800,"station_id":"ce4bh2p2rcd13ifvqdi0","pricing_plan_id":"cebpf4jnsgd1na2vs0mg"},{"bike_id":"24a11c21-7b10-418d-bff0-9d96ea02cfae","system_id":"levelo_inurba_marseille","lat":43.30772,"lon":5.37656,"is_reserved":false,"is_disabled":false,"rental_uris":{"android":"levelo://app?vid=24a11c21-7b10-418d-bff0-9d96ea02cfae","ios":"levelo://app?vid=24a11c21-7b10-418d-bff0-9d96ea02cfae"},"vehicle_type_id":"4","last_reported":1761286538,"current_range_meters":10800,"station_id":"ce4bgv92rcd13ifvqcq0","pricing_plan_id":"cebpf4jnsgd1na2vs0mg"},{"bike_id":"d2b9dc00-f2bd-4779-bb2a-55b57cdd0b04","system_id":"levelo_inurba_marseille","lat":43.28618,"lon":5.37067,"is_reserved":false,"is_disabled":false,"rental_uris":{"android":"levelo://app?vid=d2b9dc00-f2bd-4779-bb2a-55b57cdd0b04","ios":"levelo://app?vid=d2b9dc00-f2bd-4779-bb2a-55b57cdd0b04"},"vehicle_type_id":"4","last_reported":1761286538,"current_range_meters":10800,"station_id":"ce4bht12rcd13ifvqi60","pricing_plan_id":"cebpf4jnsgd1na2vs0mg"},{"bike_id":"fe0309b9-8df9-4fef-a215-e3089f2279b2","system_id":"levelo_inurba_marseille","lat":43.2314,"lon":5.43709,"is_reserved":false,"is_disabled":false,"rental_uris":{"android":"levelo://app?vid=fe0309b9-8df9-4fef-a215-e3089f2279b2","ios":"levelo://app?vid=fe0309b9-8df9-4fef-a215-e3089f2279b2"},"vehicle_type_id":"4","last_reported":1761286538,"current_range_meters":10800,"station_id":"ce4bhmp2rcd13ifvqgog","pricing_plan_id":"cebpf4jnsgd1na2vs0mg"},{"bike_id":"b284a5b8-145b-4b18-970a-f541b5c0ebef","system_id":"levelo_inurba_marseille","lat":43.28558,"lon":5.39464,"is_reserved":false,"is_disabled":false,"rental_uris":{"android":"levelo://app?vid=b284a5b8-145b-4b18-970a-f541b5c0ebef","ios":"levelo://app?vid=b284a5b8-145b-4b18-970a-f541b5c0ebef"},"vehicle_type_id":"4","last_reported":1761286538,"current_range_meters":10800,"station_id":"ce4bh292rcd13ifvqdg0","pricing_plan_id":"cebpf4jnsgd1na2vs0mg"},{"bike_id":"3e4783b6-28d8-4737-a4ef-6a1b0da02476","system_id":"levelo_inurba_marseille","lat":43.294432,"lon":5.407107,"is_reserved":false,"is_disabled":false,"rental_uris":{"android":"levelo://app?vid=3e4783b6-28d8-4737-a4ef-6a1b0da02476","ios":"levelo://app?vid=3e4783b6-28d8-4737-a4ef-6a1b0da02476"},"vehicle_type_id":"4","last_reported":1761286538,"current_range_meters":11200,"station_id":"","pricing_plan_id":"cebpf4jnsgd1na2vs0mg"},{"bike_id":"247b044e-7e84-419c-a5fb-856b27f30701","system_id":"levelo_inurba_marseille","lat":43.27073,"lon":5.42277,"is_reserved":false,"is_disabled":false,"rental_uris":{"android":"levelo://app?vid=247b044e-7e84-419c-a5fb-856b27f30701","ios":"levelo://app?vid=247b044e-7e84-419c-a5fb-856b27f30701"},"vehicle_type_id":"4","last_reported":1761286538,"current_range_meters":11200,"station_id":"ce4bhk92rcd13ifvqgb0","pricing_plan_id":"cebpf4jnsgd1na2vs0mg"},{"bike_id":"4ebb1367-6860-4418-9a32-8ad00ccbb802","system_id":"levelo_inurba_marseille","lat":43.30544,"lon":5.38429,"is_reserved":false,"is_disabled":false,"rental_uris":{"android":"levelo://app?vid=4ebb1367-6860-4418-9a32-8ad00ccbb802","ios":"levelo://app?vid=4ebb1367-6860-4418-9a32-8ad00ccbb802"},"vehicle_type_id":"4","last_reported":1761286538,"current_range_meters":11200,"station_id":"ce4bgg92rcd13ifvqb30","pricing_plan_id":"cebpf4jnsgd1na2vs0mg"},{"bike_id":"3a7c302c-cc5f-4d7a-99e7-abf217acdee0","system_id":"levelo_inurba_marseille","lat":43.23789,"lon":5.36632,"is_reserved":false,"is_disabled":false,"rental_uris":{"android":"levelo://app?vid=3a7c302c-cc5f-4d7a-99e7-abf217acdee0","ios":"levelo://app?vid=3a7c302c-cc5f-4d7a-99e7-abf217acdee0"},"vehicle_type_id":"4","last_reported":1761286538,"current_range_meters":11200,"station_id":"st_d3nk18o9ro0c73en2l3g","pricing_plan_id":"cebpf4jnsgd1na2vs0mg"},{"bike_id":"8d968a7a-3957-46c5-9580-35e9f96be907","system_id":"levelo_inurba_marseille","lat":43.27921,"lon":5.39591,"is_reserved":false,"is_disabled":false,"rental_uris":{"android":"levelo://app?vid=8d968a7a-3957-46c5-9580-35e9f96be907","ios":"levelo://app?vid=8d968a7a-3957-46c5-9580-35e9f96be907"},"vehicle_type_id":"4","last_reported":1761286538,"current_range_meters":11200,"station_id":"ce4bhf92rcd13ifvqf40","pricing_plan_id":"cebpf4jnsgd1na2vs0mg"},{"bike_id":"d78eb837-b102-4db4-b967-7e27e7618a15","system_id":"levelo_inurba_marseille","lat":43.2293,"lon":5.353783,"is_reserved":false,"is_disabled":false,"rental_uris":{"android":"levelo://app?vid=d78eb837-b102-4db4-b967-7e27e7618a15","ios":"levelo://app?vid=d78eb837-b102-4db4-b967-7e27e7618a15"},"vehicle_type_id":"4","last_reported":1761286538,"current_range_meters":11200,"station_id":"cpo3532slgdg3j2ikp40","pricing_plan_id":"cebpf4jnsgd1na2vs0mg"},{"bike_id":"f0764640-ec1d-486f-9e1c-59043e66eb76","system_id":"levelo_inurba_marseille","lat":43.217455,"lon":5.346104,"is_reserved":false,"is_disabled":false,"rental_uris":{"android":"levelo://app?vid=f0764640-ec1d-486f-9e1c-59043e66eb76","ios":"levelo://app?vid=f0764640-ec1d-486f-9e1c-59043e66eb76"},"vehicle_type_id":"4","last_reported":1761286538,"current_range_meters":11600,"station_id":"st_cvj6r9ubvosntc0bgbag","pricing_plan_id":"cebpf4jnsgd1na2vs0mg"},{"bike_id":"731a1005-e3e7-44b5-bcd8-11e6532518ec","system_id":"levelo_inurba_marseille","lat":43.301876,"lon":5.366311,"is_reserved":false,"is_disabled":false,"rental_uris":{"android":"levelo://app?vid=731a1005-e3e7-44b5-bcd8-11e6532518ec","ios":"levelo://app?vid=731a1005-e3e7-44b5-bcd8-11e6532518ec"},"vehicle_type_id":"4","last_reported":1761286538,"current_range_meters":11600,"station_id":"ce4bh3h2rcd13ifvqdn0","pricing_plan_id":"cebpf4jnsgd1na2vs0mg"},{"bike_id":"55aee02d-9c96-45d2-9d31-4545665d3ece","system_id":"levelo_inurba_marseille","lat":43.246521,"lon":5.388963,"is_reserved":false,"is_disabled":false,"rental_uris":{"android":"levelo://app?vid=55aee02d-9c96-45d2-9d31-4545665d3ece","ios":"levelo://app?vid=55aee02d-9c96-45d2-9d31-4545665d3ece"},"vehicle_type_id":"4","last_reported":1761286538,"current_range_meters":11600,"station_id":"ce4bhg12rcd13ifvqf60","pricing_plan_id":"cebpf4jnsgd1na2vs0mg"},{"bike_id":"316c843e-0abd-49e3-b3e9-3f61b02a5647","system_id":"levelo_inurba_marseille","lat":43.28861,"lon":5.42516,"is_reserved":false,"is_disabled":false,"rental_uris":{"android":"levelo://app?vid=316c843e-0abd-49e3-b3e9-3f61b02a5647","ios":"levelo://app?vid=316c843e-0abd-49e3-b3e9-3f61b02a5647"},"vehicle_type_id":"4","last_reported":1761286538,"current_range_meters":12000,"station_id":"st_d3b462108ojc7389ooeg","pricing_plan_id":"cebpf4jnsgd1na2vs0mg"},{"bike_id":"bd586638-ea6d-40ae-9b77-099deb3448f7","system_id":"levelo_inurba_marseille","lat":43.25582,"lon":5.38232,"is_reserved":false,"is_disabled":false,"rental_uris":{"android":"levelo://app?vid=bd586638-ea6d-40ae-9b77-099deb3448f7","ios":"levelo://app?vid=bd586638-ea6d-40ae-9b77-099deb3448f7"},"vehicle_type_id":"4","last_reported":1761286538,"current_range_meters":12000,"station_id":"ce4bhih2rcd13ifvqfs0","pricing_plan_id":"cebpf4jnsgd1na2vs0mg"},{"bike_id":"e23608a7-79c3-428d-8cba-f9c659a19500","system_id":"levelo_inurba_marseille","lat":43.245451,"lon":5.395209,"is_reserved":false,"is_disabled":false,"rental_uris":{"android":"levelo://app?vid=e23608a7-79c3-428d-8cba-f9c659a19500","ios":"levelo://app?vid=e23608a7-79c3-428d-8cba-f9c659a19500"},"vehicle_type_id":"4","last_reported":1761286538,"current_range_meters":12000,"station_id":"ce4bhlp2rcd13ifvqgjg","pricing_plan_id":"cebpf4jnsgd1na2vs0mg"},{"bike_id":"3877e972-fe51-4197-a5b7-860377239f0f","system_id":"levelo_inurba_marseille","lat":43.24169,"lon":5.364,"is_reserved":false,"is_disabled":false,"rental_uris":{"android":"levelo://app?vid=3877e972-fe51-4197-a5b7-860377239f0f","ios":"levelo://app?vid=3877e972-fe51-4197-a5b7-860377239f0f"},"vehicle_type_id":"4","last_reported":1761286538,"current_range_meters":12000,"station_id":"cpo36qri1sfpv3e86is0","pricing_plan_id":"cebpf4jnsgd1na2vs0mg"},{"bike_id":"5403bbb7-b780-4116-8b9d-0a9bd553ad20","system_id":"levelo_inurba_marseille","lat":43.24149,"lon":5.39728,"is_reserved":false,"is_disabled":false,"rental_uris":{"android":"levelo://app?vid=5403bbb7-b780-4116-8b9d-0a9bd553ad20","ios":"levelo://app?vid=5403bbb7-b780-4116-8b9d-0a9bd553ad20"},"vehicle_type_id":"4","last_reported":1761286538,"current_range_meters":12400,"station_id":"ce4bhn12rcd13ifvqgpg","pricing_plan_id":"cebpf4jnsgd1na2vs0mg"},{"bike_id":"b9764ed2-f91a-421e-b54e-d7527bd8af22","system_id":"levelo_inurba_marseille","lat":43.29811,"lon":5.36588,"is_reserved":false,"is_disabled":false,"rental_uris":{"android":"levelo://app?vid=b9764ed2-f91a-421e-b54e-d7527bd8af22","ios":"levelo://app?vid=b9764ed2-f91a-421e-b54e-d7527bd8af22"},"vehicle_type_id":"4","last_reported":1761286538,"current_range_meters":12400,"station_id":"","pricing_plan_id":"cebpf4jnsgd1na2vs0mg"},{"bike_id":"8bcacd78-80de-4026-af75-b37ebe3030fe","system_id":"levelo_inurba_marseille","lat":43.334756,"lon":5.404255,"is_reserved":false,"is_disabled":false,"rental_uris":{"android":"levelo://app?vid=8bcacd78-80de-4026-af75-b37ebe3030fe","ios":"levelo://app?vid=8bcacd78-80de-4026-af75-b37ebe3030fe"},"vehicle_type_id":"4","last_reported":1761286538,"current_range_meters":12400,"station_id":"","pricing_plan_id":"cebpf4jnsgd1na2vs0mg"},{"bike_id":"2842f5fd-7b05-4b47-909c-5ee54d7d3bc5","system_id":"levelo_inurba_marseille","lat":43.32454,"lon":5.428118,"is_reserved":false,"is_disabled":false,"rental_uris":{"android":"levelo://app?vid=2842f5fd-7b05-4b47-909c-5ee54d7d3bc5","ios":"levelo://app?vid=2842f5fd-7b05-4b47-909c-5ee54d7d3bc5"},"vehicle_type_id":"4","last_reported":1761286538,"current_range_meters":12400,"station_id":"","pricing_plan_id":"cebpf4jnsgd1na2vs0mg"},{"bike_id":"8793e32f-c4bf-4267-af34-be26cd2130be","system_id":"levelo_inurba_marseille","lat":43.31258,"lon":5.40179,"is_reserved":false,"is_disabled":false,"rental_uris":{"android":"levelo://app?vid=8793e32f-c4bf-4267-af34-be26cd2130be","ios":"levelo://app?vid=8793e32f-c4bf-4267-af34-be26cd2130be"},"vehicle_type_id":"4","last_reported":1761286538,"current_range_meters":12400,"station_id":"ce4bh092rcd13ifvqd30","pricing_plan_id":"cebpf4jnsgd1na2vs0mg"},{"bike_id":"9881c788-42a8-46f5-8ccc-580a73583155","system_id":"levelo_inurba_marseille","lat":43.32062,"lon":5.4086,"is_reserved":false,"is_disabled":true,"rental_uris":{"android":"levelo://app?vid=9881c788-42a8-46f5-8ccc-580a73583155","ios":"levelo://app?vid=9881c788-42a8-46f5-8ccc-580a73583155"},"vehicle_type_id":"4","last_reported":1761286538,"current_range_meters":12400,"station_id":"","pricing_plan_id":"cebpf4jnsgd1na2vs0mg"},{"bike_id":"f4e0d705-d465-47a5-9a58-6cb32dc695a4","system_id":"levelo_inurba_marseille","lat":43.25941,"lon":5.40902,"is_reserved":false,"is_disabled":false,"rental_uris":{"android":"levelo://app?vid=f4e0d705-d465-47a5-9a58-6cb32dc695a4","ios":"levelo://app?vid=f4e0d705-d465-47a5-9a58-6cb32dc695a4"},"vehicle_type_id":"4","last_reported":1761286538,"current_range_meters":12800,"station_id":"ce4bhm92rcd13ifvqglg","pricing_plan_id":"cebpf4jnsgd1na2vs0mg"},{"bike_id":"a0fdf98f-4c40-48e9-b018-dbb748a65f6d","system_id":"levelo_inurba_marseille","lat":43.28962,"lon":5.3784,"is_reserved":false,"is_disabled":false,"rental_uris":{"android":"levelo://app?vid=a0fdf98f-4c40-48e9-b018-dbb748a65f6d","ios":"levelo://app?vid=a0fdf98f-4c40-48e9-b018-dbb748a65f6d"},"vehicle_type_id":"4","last_reported":1761286538,"current_range_meters":12800,"station_id":"ce4bh9p2rcd13ifvqed0","pricing_plan_id":"cebpf4jnsgd1na2vs0mg"},{"bike_id":"c12a786b-d447-4373-876a-58fc20f19148","system_id":"levelo_inurba_marseille","lat":43.29905,"lon":5.43665,"is_reserved":false,"is_disabled":false,"rental_uris":{"android":"levelo://app?vid=c12a786b-d447-4373-876a-58fc20f19148","ios":"levelo://app?vid=c12a786b-d447-4373-876a-58fc20f19148"},"vehicle_type_id":"4","last_reported":1761286538,"current_range_meters":12800,"station_id":"ce4bhpp2rcd13ifvqhfg","pricing_plan_id":"cebpf4jnsgd1na2vs0mg"},{"bike_id":"882401c7-6650-4fc0-a6a7-b8536ac70367","system_id":"levelo_inurba_marseille","lat":43.27082,"lon":5.42259,"is_reserved":false,"is_disabled":false,"rental_uris":{"android":"levelo://app?vid=882401c7-6650-4fc0-a6a7-b8536ac70367","ios":"levelo://app?vid=882401c7-6650-4fc0-a6a7-b8536ac70367"},"vehicle_type_id":"4","last_reported":1761286538,"current_range_meters":12800,"station_id":"ce4bhk92rcd13ifvqgb0","pricing_plan_id":"cebpf4jnsgd1na2vs0mg"},{"bike_id":"e986eb56-ca00-4dbf-ada0-578bc3d8f529","system_id":"levelo_inurba_marseille","lat":43.27324,"lon":5.41438,"is_reserved":false,"is_disabled":false,"rental_uris":{"android":"levelo://app?vid=e986eb56-ca00-4dbf-ada0-578bc3d8f529","ios":"levelo://app?vid=e986eb56-ca00-4dbf-ada0-578bc3d8f529"},"vehicle_type_id":"4","last_reported":1761286538,"current_range_meters":13600,"station_id":"","pricing_plan_id":"cebpf4jnsgd1na2vs0mg"},{"bike_id":"1262b6ce-cd52-4c19-ab75-3bdef015ac3f","system_id":"levelo_inurba_marseille","lat":43.26601,"lon":5.39096,"is_reserved":false,"is_disabled":false,"rental_uris":{"android":"levelo://app?vid=1262b6ce-cd52-4c19-ab75-3bdef015ac3f","ios":"levelo://app?vid=1262b6ce-cd52-4c19-ab75-3bdef015ac3f"},"vehicle_type_id":"4","last_reported":1761286538,"current_range_meters":13600,"station_id":"ce4bhe12rcd13ifvqf30","pricing_plan_id":"cebpf4jnsgd1na2vs0mg"},{"bike_id":"126be4bc-91ae-4641-893b-1b51eeff641d","system_id":"levelo_inurba_marseille","lat":43.30872,"lon":5.39638,"is_reserved":false,"is_disabled":false,"rental_uris":{"android":"levelo://app?vid=126be4bc-91ae-4641-893b-1b51eeff641d","ios":"levelo://app?vid=126be4bc-91ae-4641-893b-1b51eeff641d"},"vehicle_type_id":"4","last_reported":1761286538,"current_range_meters":14000,"station_id":"ce4bh012rcd13ifvqcv0","pricing_plan_id":"cebpf4jnsgd1na2vs0mg"},{"bike_id":"b111dfa1-9315-4426-adb5-fef72e760996","system_id":"levelo_inurba_marseille","lat":43.25735,"lon":5.41107,"is_reserved":false,"is_disabled":false,"rental_uris":{"android":"levelo://app?vid=b111dfa1-9315-4426-adb5-fef72e760996","ios":"levelo://app?vid=b111dfa1-9315-4426-adb5-fef72e760996"},"vehicle_type_id":"4","last_reported":1761286538,"current_range_meters":14000,"station_id":"ce4bhkp2rcd13ifvqgd0","pricing_plan_id":"cebpf4jnsgd1na2vs0mg"},{"bike_id":"2e516aa3-da3f-4cd4-8d7a-1dc8bf5d8ddd","system_id":"levelo_inurba_marseille","lat":43.32129,"lon":5.36737,"is_reserved":false,"is_disabled":false,"rental_uris":{"android":"levelo://app?vid=2e516aa3-da3f-4cd4-8d7a-1dc8bf5d8ddd","ios":"levelo://app?vid=2e516aa3-da3f-4cd4-8d7a-1dc8bf5d8ddd"},"vehicle_type_id":"4","last_reported":1761286538,"current_range_meters":14400,"station_id":"ce4bhrh2rcd13ifvqhug","pricing_plan_id":"cebpf4jnsgd1na2vs0mg"},{"bike_id":"d10b22fa-7672-4128-97f0-5cbf4295b17c","system_id":"levelo_inurba_marseille","lat":43.293388,"lon":5.393362,"is_reserved":false,"is_disabled":false,"rental_uris":{"android":"levelo://app?vid=d10b22fa-7672-4128-97f0-5cbf4295b17c","ios":"levelo://app?vid=d10b22fa-7672-4128-97f0-5cbf4295b17c"},"vehicle_type_id":"4","last_reported":1761286538,"current_range_meters":14400,"station_id":"","pricing_plan_id":"cebpf4jnsgd1na2vs0mg"},{"bike_id":"82a6ac02-8c08-4f93-844a-981cd0f715d0","system_id":"levelo_inurba_marseille","lat":43.255092,"lon":5.376554,"is_reserved":false,"is_disabled":false,"rental_uris":{"android":"levelo://app?vid=82a6ac02-8c08-4f93-844a-981cd0f715d0","ios":"levelo://app?vid=82a6ac02-8c08-4f93-844a-981cd0f715d0"},"vehicle_type_id":"4","last_reported":1761286538,"current_range_meters":14400,"station_id":"ce4bhh12rcd13ifvqff0","pricing_plan_id":"cebpf4jnsgd1na2vs0mg"},{"bike_id":"d9ecb998-ceaa-4a39-8aba-9f0e44069447","system_id":"levelo_inurba_marseille","lat":43.32147,"lon":5.38731,"is_reserved":false,"is_disabled":false,"rental_uris":{"android":"levelo://app?vid=d9ecb998-ceaa-4a39-8aba-9f0e44069447","ios":"levelo://app?vid=d9ecb998-ceaa-4a39-8aba-9f0e44069447"},"vehicle_type_id":"4","last_reported":1761286538,"current_range_meters":14400,"station_id":"","pricing_plan_id":"cebpf4jnsgd1na2vs0mg"},{"bike_id":"de4b8ab5-285e-474a-b521-72ccb626a9fe","system_id":"levelo_inurba_marseille","lat":43.32246,"lon":5.38357,"is_reserved":false,"is_disabled":false,"rental_uris":{"android":"levelo://app?vid=de4b8ab5-285e-474a-b521-72ccb626a9fe","ios":"levelo://app?vid=de4b8ab5-285e-474a-b521-72ccb626a9fe"},"vehicle_type_id":"4","last_reported":1761286538,"current_range_meters":14800,"station_id":"ce4bhr12rcd13ifvqhqg","pricing_plan_id":"cebpf4jnsgd1na2vs0mg"},{"bike_id":"f4311ba3-7f0f-4f8e-a874-b0248cb41d85","system_id":"levelo_inurba_marseille","lat":43.281061,"lon":5.378387,"is_reserved":false,"is_disabled":false,"rental_uris":{"android":"levelo://app?vid=f4311ba3-7f0f-4f8e-a874-b0248cb41d85","ios":"levelo://app?vid=f4311ba3-7f0f-4f8e-a874-b0248cb41d85"},"vehicle_type_id":"4","last_reported":1761286538,"current_range_meters":14800,"station_id":"ce4bha12rcd13ifvqee0","pricing_plan_id":"cebpf4jnsgd1na2vs0mg"},{"bike_id":"0c216ec5-2d75-4ee4-a223-b0d23bee74b5","system_id":"levelo_inurba_marseille","lat":43.24648,"lon":5.388966,"is_reserved":false,"is_disabled":false,"rental_uris":{"android":"levelo://app?vid=0c216ec5-2d75-4ee4-a223-b0d23bee74b5","ios":"levelo://app?vid=0c216ec5-2d75-4ee4-a223-b0d23bee74b5"},"vehicle_type_id":"4","last_reported":1761286538,"current_range_meters":15200,"station_id":"ce4bhg12rcd13ifvqf60","pricing_plan_id":"cebpf4jnsgd1na2vs0mg"},{"bike_id":"18f5f254-0a1c-4bd2-97b2-b8a9fd86f1eb","system_id":"levelo_inurba_marseille","lat":43.27211,"lon":5.39188,"is_reserved":false,"is_disabled":false,"rental_uris":{"android":"levelo://app?vid=18f5f254-0a1c-4bd2-97b2-b8a9fd86f1eb","ios":"levelo://app?vid=18f5f254-0a1c-4bd2-97b2-b8a9fd86f1eb"},"vehicle_type_id":"4","last_reported":1761286538,"current_range_meters":15200,"station_id":"ce4bhhp2rcd13ifvqfm0","pricing_plan_id":"cebpf4jnsgd1na2vs0mg"},{"bike_id":"0844e5e6-3b0e-4980-aac1-8e6b427398e3","system_id":"levelo_inurba_marseille","lat":43.3171,"lon":5.40429,"is_reserved":false,"is_disabled":false,"rental_uris":{"android":"levelo://app?vid=0844e5e6-3b0e-4980-aac1-8e6b427398e3","ios":"levelo://app?vid=0844e5e6-3b0e-4980-aac1-8e6b427398e3"},"vehicle_type_id":"4","last_reported":1761286538,"current_range_meters":15200,"station_id":"ce4bh012rcd13ifvqd00","pricing_plan_id":"cebpf4jnsgd1na2vs0mg"},{"bike_id":"ef096c7f-2d04-45e7-91e4-52578045f579","system_id":"levelo_inurba_marseille","lat":43.23181,"lon":5.39992,"is_reserved":false,"is_disabled":true,"rental_uris":{"android":"levelo://app?vid=ef096c7f-2d04-45e7-91e4-52578045f579","ios":"levelo://app?vid=ef096c7f-2d04-45e7-91e4-52578045f579"},"vehicle_type_id":"4","last_reported":1761286538,"current_range_meters":16000,"station_id":"ce4bhn12rcd13ifvqgqg","pricing_plan_id":"cebpf4jnsgd1na2vs0mg"},{"bike_id":"f8c755d7-1bb8-4fcd-bb3f-74aeb49951cc","system_id":"levelo_inurba_marseille","lat":43.31379,"lon":5.37898,"is_reserved":false,"is_disabled":false,"rental_uris":{"android":"levelo://app?vid=f8c755d7-1bb8-4fcd-bb3f-74aeb49951cc","ios":"levelo://app?vid=f8c755d7-1bb8-4fcd-bb3f-74aeb49951cc"},"vehicle_type_id":"4","last_reported":1761286538,"current_range_meters":16000,"station_id":"","pricing_plan_id":"cebpf4jnsgd1na2vs0mg"},{"bike_id":"75552eb5-38a2-43ca-9291-cacb859b6f73","system_id":"levelo_inurba_marseille","lat":43.284215,"lon":5.349847,"is_reserved":false,"is_disabled":false,"rental_uris":{"android":"levelo://app?vid=75552eb5-38a2-43ca-9291-cacb859b6f73","ios":"levelo://app?vid=75552eb5-38a2-43ca-9291-cacb859b6f73"},"vehicle_type_id":"4","last_reported":1761286538,"current_range_meters":16000,"station_id":"","pricing_plan_id":"cebpf4jnsgd1na2vs0mg"},{"bike_id":"2339f010-c3e5-44a5-a7bb-4ca220fd6cca","system_id":"levelo_inurba_marseille","lat":43.28229,"lon":5.38536,"is_reserved":false,"is_disabled":true,"rental_uris":{"android":"levelo://app?vid=2339f010-c3e5-44a5-a7bb-4ca220fd6cca","ios":"levelo://app?vid=2339f010-c3e5-44a5-a7bb-4ca220fd6cca"},"vehicle_type_id":"4","last_reported":1761286538,"current_range_meters":16000,"station_id":"","pricing_plan_id":"cebpf4jnsgd1na2vs0mg"},{"bike_id":"3cb7792b-43db-41f0-96a4-9a586e0436bb","system_id":"levelo_inurba_marseille","lat":43.28614,"lon":5.37062,"is_reserved":false,"is_disabled":false,"rental_uris":{"android":"levelo://app?vid=3cb7792b-43db-41f0-96a4-9a586e0436bb","ios":"levelo://app?vid=3cb7792b-43db-41f0-96a4-9a586e0436bb"},"vehicle_type_id":"4","last_reported":1761286538,"current_range_meters":16000,"station_id":"ce4bht12rcd13ifvqi60","pricing_plan_id":"cebpf4jnsgd1na2vs0mg"},{"bike_id":"bd739e16-d751-4a48-aae5-cefbc0cea2d2","system_id":"levelo_inurba_marseille","lat":43.33763,"lon":5.37458,"is_reserved":false,"is_disabled":false,"rental_uris":{"android":"levelo://app?vid=bd739e16-d751-4a48-aae5-cefbc0cea2d2","ios":"levelo://app?vid=bd739e16-d751-4a48-aae5-cefbc0cea2d2"},"vehicle_type_id":"4","last_reported":1761286538,"current_range_meters":16000,"station_id":"","pricing_plan_id":"cebpf4jnsgd1na2vs0mg"},{"bike_id":"a747509e-adc4-4460-9b9a-1fe4a657cf0b","system_id":"levelo_inurba_marseille","lat":43.2923,"lon":5.37152,"is_reserved":false,"is_disabled":false,"rental_uris":{"android":"levelo://app?vid=a747509e-adc4-4460-9b9a-1fe4a657cf0b","ios":"levelo://app?vid=a747509e-adc4-4460-9b9a-1fe4a657cf0b"},"vehicle_type_id":"4","last_reported":1761286538,"current_range_meters":16000,"station_id":"","pricing_plan_id":"cebpf4jnsgd1na2vs0mg"},{"bike_id":"c663a058-708f-4f1e-9e16-18273f072101","system_id":"levelo_inurba_marseille","lat":43.23156,"lon":5.43708,"is_reserved":false,"is_disabled":false,"rental_uris":{"android":"levelo://app?vid=c663a058-708f-4f1e-9e16-18273f072101","ios":"levelo://app?vid=c663a058-708f-4f1e-9e16-18273f072101"},"vehicle_type_id":"4","last_reported":1761286538,"current_range_meters":16000,"station_id":"ce4bhmp2rcd13ifvqgog","pricing_plan_id":"cebpf4jnsgd1na2vs0mg"},{"bike_id":"e4c4a89a-f1f0-48a4-a027-c716bb865d76","system_id":"levelo_inurba_marseille","lat":43.30149,"lon":5.38097,"is_reserved":false,"is_disabled":false,"rental_uris":{"android":"levelo://app?vid=e4c4a89a-f1f0-48a4-a027-c716bb865d76","ios":"levelo://app?vid=e4c4a89a-f1f0-48a4-a027-c716bb865d76"},"vehicle_type_id":"4","last_reported":1761286538,"current_range_meters":16400,"station_id":"ce4bgjp2rcd13ifvqbh0","pricing_plan_id":"cebpf4jnsgd1na2vs0mg"},{"bike_id":"0e2998e2-029c-42d9-9f88-0877c430abb7","system_id":"levelo_inurba_marseille","lat":43.29218,"lon":5.36049,"is_reserved":false,"is_disabled":false,"rental_uris":{"android":"levelo://app?vid=0e2998e2-029c-42d9-9f88-0877c430abb7","ios":"levelo://app?vid=0e2998e2-029c-42d9-9f88-0877c430abb7"},"vehicle_type_id":"4","last_reported":1761286538,"current_range_meters":16400,"station_id":"ce4bhbh2rcd13ifvqeqg","pricing_plan_id":"cebpf4jnsgd1na2vs0mg"},{"bike_id":"f2a88201-ec4d-40e7-856a-1b850d1e932e","system_id":"levelo_inurba_marseille","lat":43.27815,"lon":5.40707,"is_reserved":false,"is_disabled":false,"rental_uris":{"android":"levelo://app?vid=f2a88201-ec4d-40e7-856a-1b850d1e932e","ios":"levelo://app?vid=f2a88201-ec4d-40e7-856a-1b850d1e932e"},"vehicle_type_id":"4","last_reported":1761286538,"current_range_meters":16400,"station_id":"ce4bhnh2rcd13ifvqgtg","pricing_plan_id":"cebpf4jnsgd1na2vs0mg"},{"bike_id":"d6b42fa6-65b4-4634-acde-1b1e5597edd7","system_id":"levelo_inurba_marseille","lat":43.29227,"lon":5.36065,"is_reserved":false,"is_disabled":false,"rental_uris":{"android":"levelo://app?vid=d6b42fa6-65b4-4634-acde-1b1e5597edd7","ios":"levelo://app?vid=d6b42fa6-65b4-4634-acde-1b1e5597edd7"},"vehicle_type_id":"4","last_reported":1761286538,"current_range_meters":16400,"station_id":"ce4bhbh2rcd13ifvqeqg","pricing_plan_id":"cebpf4jnsgd1na2vs0mg"},{"bike_id":"e329cb1e-c486-4ab7-9dc7-85564b59b738","system_id":"levelo_inurba_marseille","lat":43.30464,"lon":5.37911,"is_reserved":false,"is_disabled":false,"rental_uris":{"android":"levelo://app?vid=e329cb1e-c486-4ab7-9dc7-85564b59b738","ios":"levelo://app?vid=e329cb1e-c486-4ab7-9dc7-85564b59b738"},"vehicle_type_id":"4","last_reported":1761286538,"current_range_meters":16400,"station_id":"ce4bgup2rcd13ifvqcn0","pricing_plan_id":"cebpf4jnsgd1na2vs0mg"},{"bike_id":"cb3d7dc1-8e3d-4533-9819-7d17aa244928","system_id":"levelo_inurba_marseille","lat":43.30319,"lon":5.40439,"is_reserved":false,"is_disabled":false,"rental_uris":{"android":"levelo://app?vid=cb3d7dc1-8e3d-4533-9819-7d17aa244928","ios":"levelo://app?vid=cb3d7dc1-8e3d-4533-9819-7d17aa244928"},"vehicle_type_id":"4","last_reported":1761286538,"current_range_meters":16400,"station_id":"ce4bh012rcd13ifvqd10","pricing_plan_id":"cebpf4jnsgd1na2vs0mg"},{"bike_id":"47f09c0c-92a9-44eb-a23c-69934b3ff134","system_id":"levelo_inurba_marseille","lat":43.30125,"lon":5.43126,"is_reserved":false,"is_disabled":false,"rental_uris":{"android":"levelo://app?vid=47f09c0c-92a9-44eb-a23c-69934b3ff134","ios":"levelo://app?vid=47f09c0c-92a9-44eb-a23c-69934b3ff134"},"vehicle_type_id":"4","last_reported":1761286538,"current_range_meters":16400,"station_id":"st_d3js3co5814s73ftftug","pricing_plan_id":"cebpf4jnsgd1na2vs0mg"},{"bike_id":"764563dd-e368-48f5-a186-3a29a8a5295d","system_id":"levelo_inurba_marseille","lat":43.259342,"lon":5.409075,"is_reserved":false,"is_disabled":false,"rental_uris":{"android":"levelo://app?vid=764563dd-e368-48f5-a186-3a29a8a5295d","ios":"levelo://app?vid=764563dd-e368-48f5-a186-3a29a8a5295d"},"vehicle_type_id":"4","last_reported":1761286538,"current_range_meters":16400,"station_id":"ce4bhm92rcd13ifvqglg","pricing_plan_id":"cebpf4jnsgd1na2vs0mg"},{"bike_id":"77124793-d73a-43ea-8840-1a1b5476fa23","system_id":"levelo_inurba_marseille","lat":43.310126,"lon":5.3808,"is_reserved":false,"is_disabled":false,"rental_uris":{"android":"levelo://app?vid=77124793-d73a-43ea-8840-1a1b5476fa23","ios":"levelo://app?vid=77124793-d73a-43ea-8840-1a1b5476fa23"},"vehicle_type_id":"4","last_reported":1761286538,"current_range_meters":16400,"station_id":"","pricing_plan_id":"cebpf4jnsgd1na2vs0mg"},{"bike_id":"f40cdf62-5421-495b-bbf5-3357f87bafd5","system_id":"levelo_inurba_marseille","lat":43.30469,"lon":5.37917,"is_reserved":false,"is_disabled":false,"rental_uris":{"android":"levelo://app?vid=f40cdf62-5421-495b-bbf5-3357f87bafd5","ios":"levelo://app?vid=f40cdf62-5421-495b-bbf5-3357f87bafd5"},"vehicle_type_id":"4","last_reported":1761286538,"current_range_meters":16800,"station_id":"ce4bgup2rcd13ifvqcn0","pricing_plan_id":"cebpf4jnsgd1na2vs0mg"},{"bike_id":"32ef8798-9d2a-4040-96bb-b72006fcf3fc","system_id":"levelo_inurba_marseille","lat":43.301584,"lon":5.380857,"is_reserved":false,"is_disabled":false,"rental_uris":{"android":"levelo://app?vid=32ef8798-9d2a-4040-96bb-b72006fcf3fc","ios":"levelo://app?vid=32ef8798-9d2a-4040-96bb-b72006fcf3fc"},"vehicle_type_id":"4","last_reported":1761286538,"current_range_meters":16800,"station_id":"ce4bgjp2rcd13ifvqbh0","pricing_plan_id":"cebpf4jnsgd1na2vs0mg"},{"bike_id":"bc18986f-720e-4fb1-8991-ac16da488f75","system_id":"levelo_inurba_marseille","lat":43.279236,"lon":5.395896,"is_reserved":false,"is_disabled":false,"rental_uris":{"android":"levelo://app?vid=bc18986f-720e-4fb1-8991-ac16da488f75","ios":"levelo://app?vid=bc18986f-720e-4fb1-8991-ac16da488f75"},"vehicle_type_id":"4","last_reported":1761286538,"current_range_meters":16800,"station_id":"ce4bhf92rcd13ifvqf40","pricing_plan_id":"cebpf4jnsgd1na2vs0mg"},{"bike_id":"30c20775-7e7c-4dd5-b544-8b63c9979e48","system_id":"levelo_inurba_marseille","lat":43.29221,"lon":5.36052,"is_reserved":false,"is_disabled":false,"rental_uris":{"android":"levelo://app?vid=30c20775-7e7c-4dd5-b544-8b63c9979e48","ios":"levelo://app?vid=30c20775-7e7c-4dd5-b544-8b63c9979e48"},"vehicle_type_id":"4","last_reported":1761286538,"current_range_meters":16800,"station_id":"ce4bhbh2rcd13ifvqeqg","pricing_plan_id":"cebpf4jnsgd1na2vs0mg"},{"bike_id":"e4d9d28d-de5d-4eba-b45f-0315c6967297","system_id":"levelo_inurba_marseille","lat":43.25078,"lon":5.39519,"is_reserved":false,"is_disabled":false,"rental_uris":{"android":"levelo://app?vid=e4d9d28d-de5d-4eba-b45f-0315c6967297","ios":"levelo://app?vid=e4d9d28d-de5d-4eba-b45f-0315c6967297"},"vehicle_type_id":"4","last_reported":1761286538,"current_range_meters":16800,"station_id":"ce4bhm12rcd13ifvqgkg","pricing_plan_id":"cebpf4jnsgd1na2vs0mg"},{"bike_id":"e559161c-a2cd-4968-a410-2f6faa0a37df","system_id":"levelo_inurba_marseille","lat":43.3032,"lon":5.40446,"is_reserved":false,"is_disabled":false,"rental_uris":{"android":"levelo://app?vid=e559161c-a2cd-4968-a410-2f6faa0a37df","ios":"levelo://app?vid=e559161c-a2cd-4968-a410-2f6faa0a37df"},"vehicle_type_id":"4","last_reported":1761286538,"current_range_meters":16800,"station_id":"ce4bh012rcd13ifvqd10","pricing_plan_id":"cebpf4jnsgd1na2vs0mg"},{"bike_id":"49846689-0e6c-4f5a-9811-e66a070d89eb","system_id":"levelo_inurba_marseille","lat":43.28335,"lon":5.38108,"is_reserved":false,"is_disabled":false,"rental_uris":{"android":"levelo://app?vid=49846689-0e6c-4f5a-9811-e66a070d89eb","ios":"levelo://app?vid=49846689-0e6c-4f5a-9811-e66a070d89eb"},"vehicle_type_id":"4","last_reported":1761286538,"current_range_meters":16800,"station_id":"ce4bh412rcd13ifvqdr0","pricing_plan_id":"cebpf4jnsgd1na2vs0mg"},{"bike_id":"41e21137-1e1a-4741-b195-1b98dc043b19","system_id":"levelo_inurba_marseille","lat":43.23964,"lon":5.36636,"is_reserved":false,"is_disabled":false,"rental_uris":{"android":"levelo://app?vid=41e21137-1e1a-4741-b195-1b98dc043b19","ios":"levelo://app?vid=41e21137-1e1a-4741-b195-1b98dc043b19"},"vehicle_type_id":"4","last_reported":1761286538,"current_range_meters":17200,"station_id":"ce4bhi12rcd13ifvqfp0","pricing_plan_id":"cebpf4jnsgd1na2vs0mg"},{"bike_id":"249615da-bae2-4bb3-9506-b338b9fb85b7","system_id":"levelo_inurba_marseille","lat":43.2974,"lon":5.37663,"is_reserved":false,"is_disabled":true,"rental_uris":{"android":"levelo://app?vid=249615da-bae2-4bb3-9506-b338b9fb85b7","ios":"levelo://app?vid=249615da-bae2-4bb3-9506-b338b9fb85b7"},"vehicle_type_id":"4","last_reported":1761286538,"current_range_meters":17200,"station_id":"ce4bgkh2rcd13ifvqbl0","pricing_plan_id":"cebpf4jnsgd1na2vs0mg"},{"bike_id":"45e2bc20-c1aa-4135-a212-24bd1aa6499b","system_id":"levelo_inurba_marseille","lat":43.31326,"lon":5.39696,"is_reserved":false,"is_disabled":false,"rental_uris":{"android":"levelo://app?vid=45e2bc20-c1aa-4135-a212-24bd1aa6499b","ios":"levelo://app?vid=45e2bc20-c1aa-4135-a212-24bd1aa6499b"},"vehicle_type_id":"4","last_reported":1761286538,"current_range_meters":17200,"station_id":"ce4bgvp2rcd13ifvqcu0","pricing_plan_id":"cebpf4jnsgd1na2vs0mg"},{"bike_id":"4f5c5045-2f2c-4ab7-ad8b-eeba1d52fe66","system_id":"levelo_inurba_marseille","lat":43.31582,"lon":5.3721,"is_reserved":false,"is_disabled":false,"rental_uris":{"android":"levelo://app?vid=4f5c5045-2f2c-4ab7-ad8b-eeba1d52fe66","ios":"levelo://app?vid=4f5c5045-2f2c-4ab7-ad8b-eeba1d52fe66"},"vehicle_type_id":"4","last_reported":1761286538,"current_range_meters":17200,"station_id":"","pricing_plan_id":"cebpf4jnsgd1na2vs0mg"},{"bike_id":"f42c71f2-2f87-4e94-97f5-997a2b88a744","system_id":"levelo_inurba_marseille","lat":43.30388,"lon":5.37365,"is_reserved":false,"is_disabled":false,"rental_uris":{"android":"levelo://app?vid=f42c71f2-2f87-4e94-97f5-997a2b88a744","ios":"levelo://app?vid=f42c71f2-2f87-4e94-97f5-997a2b88a744"},"vehicle_type_id":"4","last_reported":1761286538,"current_range_meters":17200,"station_id":"","pricing_plan_id":"cebpf4jnsgd1na2vs0mg"},{"bike_id":"65ae4faa-0483-4300-81c1-151773e468cd","system_id":"levelo_inurba_marseille","lat":43.27035,"lon":5.40287,"is_reserved":false,"is_disabled":false,"rental_uris":{"android":"levelo://app?vid=65ae4faa-0483-4300-81c1-151773e468cd","ios":"levelo://app?vid=65ae4faa-0483-4300-81c1-151773e468cd"},"vehicle_type_id":"4","last_reported":1761286538,"current_range_meters":17200,"station_id":"ce4bhk92rcd13ifvqgc0","pricing_plan_id":"cebpf4jnsgd1na2vs0mg"},{"bike_id":"0d330824-8a00-46f7-9607-41f414dd1d8c","system_id":"levelo_inurba_marseille","lat":43.30166,"lon":5.38096,"is_reserved":false,"is_disabled":false,"rental_uris":{"android":"levelo://app?vid=0d330824-8a00-46f7-9607-41f414dd1d8c","ios":"levelo://app?vid=0d330824-8a00-46f7-9607-41f414dd1d8c"},"vehicle_type_id":"4","last_reported":1761286538,"current_range_meters":17200,"station_id":"ce4bgjp2rcd13ifvqbh0","pricing_plan_id":"cebpf4jnsgd1na2vs0mg"},{"bike_id":"ba6c423c-753f-48ac-a08f-3fd29634bd5a","system_id":"levelo_inurba_marseille","lat":43.30143,"lon":5.38086,"is_reserved":false,"is_disabled":false,"rental_uris":{"android":"levelo://app?vid=ba6c423c-753f-48ac-a08f-3fd29634bd5a","ios":"levelo://app?vid=ba6c423c-753f-48ac-a08f-3fd29634bd5a"},"vehicle_type_id":"4","last_reported":1761286538,"current_range_meters":17200,"station_id":"ce4bgjp2rcd13ifvqbh0","pricing_plan_id":"cebpf4jnsgd1na2vs0mg"},{"bike_id":"dde114a4-8805-4784-b02d-0d744116457b","system_id":"levelo_inurba_marseille","lat":43.22936,"lon":5.35363,"is_reserved":false,"is_disabled":false,"rental_uris":{"android":"levelo://app?vid=dde114a4-8805-4784-b02d-0d744116457b","ios":"levelo://app?vid=dde114a4-8805-4784-b02d-0d744116457b"},"vehicle_type_id":"4","last_reported":1761286538,"current_range_meters":17200,"station_id":"cpo3532slgdg3j2ikp40","pricing_plan_id":"cebpf4jnsgd1na2vs0mg"},{"bike_id":"bcfa44af-c6d3-4262-ac21-f6548431981e","system_id":"levelo_inurba_marseille","lat":43.2811,"lon":5.37843,"is_reserved":false,"is_disabled":false,"rental_uris":{"android":"levelo://app?vid=bcfa44af-c6d3-4262-ac21-f6548431981e","ios":"levelo://app?vid=bcfa44af-c6d3-4262-ac21-f6548431981e"},"vehicle_type_id":"4","last_reported":1761286538,"current_range_meters":17600,"station_id":"ce4bha12rcd13ifvqee0","pricing_plan_id":"cebpf4jnsgd1na2vs0mg"},{"bike_id":"c96e85d5-a504-4d44-aa92-d9964b39fd9c","system_id":"levelo_inurba_marseille","lat":43.28947,"lon":5.36381,"is_reserved":false,"is_disabled":false,"rental_uris":{"android":"levelo://app?vid=c96e85d5-a504-4d44-aa92-d9964b39fd9c","ios":"levelo://app?vid=c96e85d5-a504-4d44-aa92-d9964b39fd9c"},"vehicle_type_id":"4","last_reported":1761286538,"current_range_meters":17600,"station_id":"ce4bhc92rcd13ifvqetg","pricing_plan_id":"cebpf4jnsgd1na2vs0mg"},{"bike_id":"51f5c8c2-4020-440f-b660-182f7627d50e","system_id":"levelo_inurba_marseille","lat":43.270652,"lon":5.422771,"is_reserved":false,"is_disabled":false,"rental_uris":{"android":"levelo://app?vid=51f5c8c2-4020-440f-b660-182f7627d50e","ios":"levelo://app?vid=51f5c8c2-4020-440f-b660-182f7627d50e"},"vehicle_type_id":"4","last_reported":1761286538,"current_range_meters":17600,"station_id":"ce4bhk92rcd13ifvqgb0","pricing_plan_id":"cebpf4jnsgd1na2vs0mg"},{"bike_id":"047509ef-8588-42de-9f12-1f69e7c71ace","system_id":"levelo_inurba_marseille","lat":43.231537,"lon":5.437057,"is_reserved":false,"is_disabled":false,"rental_uris":{"android":"levelo://app?vid=047509ef-8588-42de-9f12-1f69e7c71ace","ios":"levelo://app?vid=047509ef-8588-42de-9f12-1f69e7c71ace"},"vehicle_type_id":"4","last_reported":1761286538,"current_range_meters":17600,"station_id":"ce4bhmp2rcd13ifvqgog","pricing_plan_id":"cebpf4jnsgd1na2vs0mg"},{"bike_id":"d2e06080-1168-4488-9241-88cdcd2dc684","system_id":"levelo_inurba_marseille","lat":43.30358,"lon":5.40758,"is_reserved":false,"is_disabled":false,"rental_uris":{"android":"levelo://app?vid=d2e06080-1168-4488-9241-88cdcd2dc684","ios":"levelo://app?vid=d2e06080-1168-4488-9241-88cdcd2dc684"},"vehicle_type_id":"4","last_reported":1761286538,"current_range_meters":17600,"station_id":"","pricing_plan_id":"cebpf4jnsgd1na2vs0mg"},{"bike_id":"16596cdb-186e-47d8-a3ec-bb6571def4b7","system_id":"levelo_inurba_marseille","lat":43.25936,"lon":5.40907,"is_reserved":false,"is_disabled":false,"rental_uris":{"android":"levelo://app?vid=16596cdb-186e-47d8-a3ec-bb6571def4b7","ios":"levelo://app?vid=16596cdb-186e-47d8-a3ec-bb6571def4b7"},"vehicle_type_id":"4","last_reported":1761286538,"current_range_meters":17600,"station_id":"ce4bhm92rcd13ifvqglg","pricing_plan_id":"cebpf4jnsgd1na2vs0mg"},{"bike_id":"ce6cd538-c766-4c96-b93f-5b786164e4be","system_id":"levelo_inurba_marseille","lat":43.30873,"lon":5.37189,"is_reserved":false,"is_disabled":false,"rental_uris":{"android":"levelo://app?vid=ce6cd538-c766-4c96-b93f-5b786164e4be","ios":"levelo://app?vid=ce6cd538-c766-4c96-b93f-5b786164e4be"},"vehicle_type_id":"4","last_reported":1761286538,"current_range_meters":17600,"station_id":"ce4bguh2rcd13ifvqckg","pricing_plan_id":"cebpf4jnsgd1na2vs0mg"},{"bike_id":"be88eaa4-e674-44f9-9199-3901304dd644","system_id":"levelo_inurba_marseille","lat":43.217601,"lon":5.345993,"is_reserved":false,"is_disabled":false,"rental_uris":{"android":"levelo://app?vid=be88eaa4-e674-44f9-9199-3901304dd644","ios":"levelo://app?vid=be88eaa4-e674-44f9-9199-3901304dd644"},"vehicle_type_id":"4","last_reported":1761286538,"current_range_meters":18000,"station_id":"st_cvj6r9ubvosntc0bgbag","pricing_plan_id":"cebpf4jnsgd1na2vs0mg"},{"bike_id":"17585014-36d0-4d96-ab97-1812e8c7fbe7","system_id":"levelo_inurba_marseille","lat":43.31667,"lon":5.38241,"is_reserved":false,"is_disabled":false,"rental_uris":{"android":"levelo://app?vid=17585014-36d0-4d96-ab97-1812e8c7fbe7","ios":"levelo://app?vid=17585014-36d0-4d96-ab97-1812e8c7fbe7"},"vehicle_type_id":"4","last_reported":1761286538,"current_range_meters":18000,"station_id":"","pricing_plan_id":"cebpf4jnsgd1na2vs0mg"},{"bike_id":"57b679af-c7e3-4aef-aaf7-dad7584c2820","system_id":"levelo_inurba_marseille","lat":43.25508,"lon":5.3767,"is_reserved":false,"is_disabled":false,"rental_uris":{"android":"levelo://app?vid=57b679af-c7e3-4aef-aaf7-dad7584c2820","ios":"levelo://app?vid=57b679af-c7e3-4aef-aaf7-dad7584c2820"},"vehicle_type_id":"4","last_reported":1761286538,"current_range_meters":18000,"station_id":"ce4bhh12rcd13ifvqff0","pricing_plan_id":"cebpf4jnsgd1na2vs0mg"},{"bike_id":"75eebb0f-2447-4bf8-b846-45b5b359059b","system_id":"levelo_inurba_marseille","lat":43.33769,"lon":5.37496,"is_reserved":false,"is_disabled":false,"rental_uris":{"android":"levelo://app?vid=75eebb0f-2447-4bf8-b846-45b5b359059b","ios":"levelo://app?vid=75eebb0f-2447-4bf8-b846-45b5b359059b"},"vehicle_type_id":"4","last_reported":1761286538,"current_range_meters":18000,"station_id":"","pricing_plan_id":"cebpf4jnsgd1na2vs0mg"},{"bike_id":"b8c97daa-9d25-46f3-82b1-f49b563fc2e4","system_id":"levelo_inurba_marseille","lat":43.240824,"lon":5.377696,"is_reserved":false,"is_disabled":false,"rental_uris":{"android":"levelo://app?vid=b8c97daa-9d25-46f3-82b1-f49b563fc2e4","ios":"levelo://app?vid=b8c97daa-9d25-46f3-82b1-f49b563fc2e4"},"vehicle_type_id":"4","last_reported":1761286538,"current_range_meters":18000,"station_id":"ce4bhnp2rcd13ifvqgvg","pricing_plan_id":"cebpf4jnsgd1na2vs0mg"},{"bike_id":"6bb9dc57-5792-4922-bf25-15b0e5cda6e8","system_id":"levelo_inurba_marseille","lat":43.24058,"lon":5.37758,"is_reserved":false,"is_disabled":false,"rental_uris":{"android":"levelo://app?vid=6bb9dc57-5792-4922-bf25-15b0e5cda6e8","ios":"levelo://app?vid=6bb9dc57-5792-4922-bf25-15b0e5cda6e8"},"vehicle_type_id":"4","last_reported":1761286538,"current_range_meters":18800,"station_id":"ce4bhnp2rcd13ifvqgvg","pricing_plan_id":"cebpf4jnsgd1na2vs0mg"},{"bike_id":"417d2345-c4c6-4ccd-bc5c-2eafc961607b","system_id":"levelo_inurba_marseille","lat":43.255097,"lon":5.376484,"is_reserved":false,"is_disabled":false,"rental_uris":{"android":"levelo://app?vid=417d2345-c4c6-4ccd-bc5c-2eafc961607b","ios":"levelo://app?vid=417d2345-c4c6-4ccd-bc5c-2eafc961607b"},"vehicle_type_id":"4","last_reported":1761286538,"current_range_meters":18800,"station_id":"ce4bhh12rcd13ifvqff0","pricing_plan_id":"cebpf4jnsgd1na2vs0mg"},{"bike_id":"d0e8325b-899c-4b7e-963b-135d0faf74c1","system_id":"levelo_inurba_marseille","lat":43.27671,"lon":5.38868,"is_reserved":false,"is_disabled":false,"rental_uris":{"android":"levelo://app?vid=d0e8325b-899c-4b7e-963b-135d0faf74c1","ios":"levelo://app?vid=d0e8325b-899c-4b7e-963b-135d0faf74c1"},"vehicle_type_id":"4","last_reported":1761286538,"current_range_meters":18800,"station_id":"ce4bhi12rcd13ifvqfo0","pricing_plan_id":"cebpf4jnsgd1na2vs0mg"},{"bike_id":"a226f85a-9b8d-4151-b0e4-fc44f53407ee","system_id":"levelo_inurba_marseille","lat":43.27068,"lon":5.42277,"is_reserved":false,"is_disabled":false,"rental_uris":{"android":"levelo://app?vid=a226f85a-9b8d-4151-b0e4-fc44f53407ee","ios":"levelo://app?vid=a226f85a-9b8d-4151-b0e4-fc44f53407ee"},"vehicle_type_id":"4","last_reported":1761286538,"current_range_meters":18800,"station_id":"ce4bhk92rcd13ifvqgb0","pricing_plan_id":"cebpf4jnsgd1na2vs0mg"},{"bike_id":"a13c955b-6b9d-45f7-bb45-735f9a9833b1","system_id":"levelo_inurba_marseille","lat":43.30601,"lon":5.39337,"is_reserved":false,"is_disabled":true,"rental_uris":{"android":"levelo://app?vid=a13c955b-6b9d-45f7-bb45-735f9a9833b1","ios":"levelo://app?vid=a13c955b-6b9d-45f7-bb45-735f9a9833b1"},"vehicle_type_id":"4","last_reported":1761286538,"current_range_meters":18800,"station_id":"ce4bh0p2rcd13ifvqd80","pricing_plan_id":"cebpf4jnsgd1na2vs0mg"},{"bike_id":"9d964ec4-c537-4f1d-b21c-451d3f46b1bf","system_id":"levelo_inurba_marseille","lat":43.29908,"lon":5.37865,"is_reserved":false,"is_disabled":false,"rental_uris":{"android":"levelo://app?vid=9d964ec4-c537-4f1d-b21c-451d3f46b1bf","ios":"levelo://app?vid=9d964ec4-c537-4f1d-b21c-451d3f46b1bf"},"vehicle_type_id":"4","last_reported":1761286538,"current_range_meters":18800,"station_id":"","pricing_plan_id":"cebpf4jnsgd1na2vs0mg"},{"bike_id":"8d881a98-71e9-421e-9e11-c692cd36b6d1","system_id":"levelo_inurba_marseille","lat":43.27813,"lon":5.40716,"is_reserved":false,"is_disabled":false,"rental_uris":{"android":"levelo://app?vid=8d881a98-71e9-421e-9e11-c692cd36b6d1","ios":"levelo://app?vid=8d881a98-71e9-421e-9e11-c692cd36b6d1"},"vehicle_type_id":"4","last_reported":1761286538,"current_range_meters":19200,"station_id":"ce4bhnh2rcd13ifvqgtg","pricing_plan_id":"cebpf4jnsgd1na2vs0mg"},{"bike_id":"4c94584e-497f-4b1c-b5af-56f3db4eef2d","system_id":"levelo_inurba_marseille","lat":43.2973,"lon":5.37138,"is_reserved":false,"is_disabled":false,"rental_uris":{"android":"levelo://app?vid=4c94584e-497f-4b1c-b5af-56f3db4eef2d","ios":"levelo://app?vid=4c94584e-497f-4b1c-b5af-56f3db4eef2d"},"vehicle_type_id":"4","last_reported":1761286538,"current_range_meters":19200,"station_id":"","pricing_plan_id":"cebpf4jnsgd1na2vs0mg"},{"bike_id":"f704407b-98b7-4b40-89ee-ccb08dd94226","system_id":"levelo_inurba_marseille","lat":43.30469,"lon":5.37907,"is_reserved":false,"is_disabled":false,"rental_uris":{"android":"levelo://app?vid=f704407b-98b7-4b40-89ee-ccb08dd94226","ios":"levelo://app?vid=f704407b-98b7-4b40-89ee-ccb08dd94226"},"vehicle_type_id":"4","last_reported":1761286538,"current_range_meters":19200,"station_id":"ce4bgup2rcd13ifvqcn0","pricing_plan_id":"cebpf4jnsgd1na2vs0mg"},{"bike_id":"37d7af54-88ad-4b96-90ce-e02c0aeb4bc9","system_id":"levelo_inurba_marseille","lat":43.28933,"lon":5.36632,"is_reserved":false,"is_disabled":true,"rental_uris":{"android":"levelo://app?vid=37d7af54-88ad-4b96-90ce-e02c0aeb4bc9","ios":"levelo://app?vid=37d7af54-88ad-4b96-90ce-e02c0aeb4bc9"},"vehicle_type_id":"4","last_reported":1761286538,"current_range_meters":19200,"station_id":"ce4bhap2rcd13ifvqek0","pricing_plan_id":"cebpf4jnsgd1na2vs0mg"},{"bike_id":"c2b505db-1ab2-4cbc-8408-f48f35a4beb9","system_id":"levelo_inurba_marseille","lat":43.25864,"lon":5.39906,"is_reserved":false,"is_disabled":false,"rental_uris":{"android":"levelo://app?vid=c2b505db-1ab2-4cbc-8408-f48f35a4beb9","ios":"levelo://app?vid=c2b505db-1ab2-4cbc-8408-f48f35a4beb9"},"vehicle_type_id":"4","last_reported":1761286538,"current_range_meters":19200,"station_id":"ce4bhl92rcd13ifvqghg","pricing_plan_id":"cebpf4jnsgd1na2vs0mg"},{"bike_id":"f8d4a75f-848b-40a7-b489-b7a8af25023c","system_id":"levelo_inurba_marseille","lat":43.308803,"lon":5.396442,"is_reserved":false,"is_disabled":false,"rental_uris":{"android":"levelo://app?vid=f8d4a75f-848b-40a7-b489-b7a8af25023c","ios":"levelo://app?vid=f8d4a75f-848b-40a7-b489-b7a8af25023c"},"vehicle_type_id":"4","last_reported":1761286538,"current_range_meters":19200,"station_id":"ce4bh012rcd13ifvqcv0","pricing_plan_id":"cebpf4jnsgd1na2vs0mg"},{"bike_id":"a14127e7-ec52-496b-b96f-8b9d112e3a33","system_id":"levelo_inurba_marseille","lat":43.28696,"lon":5.37398,"is_reserved":false,"is_disabled":true,"rental_uris":{"android":"levelo://app?vid=a14127e7-ec52-496b-b96f-8b9d112e3a33","ios":"levelo://app?vid=a14127e7-ec52-496b-b96f-8b9d112e3a33"},"vehicle_type_id":"4","last_reported":1761286538,"current_range_meters":19200,"station_id":"ce4bh3p2rcd13ifvqdq0","pricing_plan_id":"cebpf4jnsgd1na2vs0mg"},{"bike_id":"2087b646-f196-4c5f-b880-88d0df9000fb","system_id":"levelo_inurba_marseille","lat":43.281518,"lon":5.426391,"is_reserved":false,"is_disabled":false,"rental_uris":{"android":"levelo://app?vid=2087b646-f196-4c5f-b880-88d0df9000fb","ios":"levelo://app?vid=2087b646-f196-4c5f-b880-88d0df9000fb"},"vehicle_type_id":"4","last_reported":1761286538,"current_range_meters":19200,"station_id":"ce4bhnh2rcd13ifvqgug","pricing_plan_id":"cebpf4jnsgd1na2vs0mg"},{"bike_id":"25c41e3b-519a-40ac-8edd-4141b9ca9f82","system_id":"levelo_inurba_marseille","lat":43.240726,"lon":5.377485,"is_reserved":false,"is_disabled":false,"rental_uris":{"android":"levelo://app?vid=25c41e3b-519a-40ac-8edd-4141b9ca9f82","ios":"levelo://app?vid=25c41e3b-519a-40ac-8edd-4141b9ca9f82"},"vehicle_type_id":"4","last_reported":1761286538,"current_range_meters":19200,"station_id":"ce4bhnp2rcd13ifvqgvg","pricing_plan_id":"cebpf4jnsgd1na2vs0mg"},{"bike_id":"3c313c1b-fb8e-42af-ac57-4a639bfffb1d","system_id":"levelo_inurba_marseille","lat":43.281,"lon":5.37845,"is_reserved":false,"is_disabled":false,"rental_uris":{"android":"levelo://app?vid=3c313c1b-fb8e-42af-ac57-4a639bfffb1d","ios":"levelo://app?vid=3c313c1b-fb8e-42af-ac57-4a639bfffb1d"},"vehicle_type_id":"4","last_reported":1761286538,"current_range_meters":19200,"station_id":"ce4bha12rcd13ifvqee0","pricing_plan_id":"cebpf4jnsgd1na2vs0mg"},{"bike_id":"f403df9f-a552-493f-8a4f-1d5c0b3eb8c7","system_id":"levelo_inurba_marseille","lat":43.2593,"lon":5.408991,"is_reserved":false,"is_disabled":true,"rental_uris":{"android":"levelo://app?vid=f403df9f-a552-493f-8a4f-1d5c0b3eb8c7","ios":"levelo://app?vid=f403df9f-a552-493f-8a4f-1d5c0b3eb8c7"},"vehicle_type_id":"4","last_reported":1761286538,"current_range_meters":19600,"station_id":"ce4bhm92rcd13ifvqglg","pricing_plan_id":"cebpf4jnsgd1na2vs0mg"},{"bike_id":"b833b32a-e372-4aa4-832f-4c5684cbb232","system_id":"levelo_inurba_marseille","lat":43.249536,"lon":5.404903,"is_reserved":false,"is_disabled":false,"rental_uris":{"android":"levelo://app?vid=b833b32a-e372-4aa4-832f-4c5684cbb232","ios":"levelo://app?vid=b833b32a-e372-4aa4-832f-4c5684cbb232"},"vehicle_type_id":"4","last_reported":1761286538,"current_range_meters":19600,"station_id":"st_d2ngiaodas8pm72gd1h0","pricing_plan_id":"cebpf4jnsgd1na2vs0mg"},{"bike_id":"468ea685-2f35-4772-9a1e-90437d909e9b","system_id":"levelo_inurba_marseille","lat":43.288616,"lon":5.358643,"is_reserved":false,"is_disabled":false,"rental_uris":{"android":"levelo://app?vid=468ea685-2f35-4772-9a1e-90437d909e9b","ios":"levelo://app?vid=468ea685-2f35-4772-9a1e-90437d909e9b"},"vehicle_type_id":"4","last_reported":1761286538,"current_range_meters":19600,"station_id":"ce4bhb12rcd13ifvqem0","pricing_plan_id":"cebpf4jnsgd1na2vs0mg"},{"bike_id":"36f30fea-bdb4-4f9d-8b2b-249c8a714098","system_id":"levelo_inurba_marseille","lat":43.31703,"lon":5.42459,"is_reserved":false,"is_disabled":false,"rental_uris":{"android":"levelo://app?vid=36f30fea-bdb4-4f9d-8b2b-249c8a714098","ios":"levelo://app?vid=36f30fea-bdb4-4f9d-8b2b-249c8a714098"},"vehicle_type_id":"4","last_reported":1761286538,"current_range_meters":19600,"station_id":"","pricing_plan_id":"cebpf4jnsgd1na2vs0mg"},{"bike_id":"984fab6f-d464-4307-88c6-9cb9049be542","system_id":"levelo_inurba_marseille","lat":43.291932,"lon":5.357647,"is_reserved":false,"is_disabled":false,"rental_uris":{"android":"levelo://app?vid=984fab6f-d464-4307-88c6-9cb9049be542","ios":"levelo://app?vid=984fab6f-d464-4307-88c6-9cb9049be542"},"vehicle_type_id":"4","last_reported":1761286538,"current_range_meters":19600,"station_id":"ce4bhb12rcd13ifvqel0","pricing_plan_id":"cebpf4jnsgd1na2vs0mg"},{"bike_id":"1ff5ed0f-2a79-45a2-905f-643edf75a268","system_id":"levelo_inurba_marseille","lat":43.24078,"lon":5.37753,"is_reserved":false,"is_disabled":false,"rental_uris":{"android":"levelo://app?vid=1ff5ed0f-2a79-45a2-905f-643edf75a268","ios":"levelo://app?vid=1ff5ed0f-2a79-45a2-905f-643edf75a268"},"vehicle_type_id":"4","last_reported":1761286538,"current_range_meters":19600,"station_id":"ce4bhnp2rcd13ifvqgvg","pricing_plan_id":"cebpf4jnsgd1na2vs0mg"},{"bike_id":"00c8d37e-80c1-4547-bb88-d54d463e4083","system_id":"levelo_inurba_marseille","lat":43.290351,"lon":5.375639,"is_reserved":false,"is_disabled":false,"rental_uris":{"android":"levelo://app?vid=00c8d37e-80c1-4547-bb88-d54d463e4083","ios":"levelo://app?vid=00c8d37e-80c1-4547-bb88-d54d463e4083"},"vehicle_type_id":"4","last_reported":1761286538,"current_range_meters":19600,"station_id":"","pricing_plan_id":"cebpf4jnsgd1na2vs0mg"},{"bike_id":"1e04bd5e-dba9-4c39-b5e3-df33312b1ae1","system_id":"levelo_inurba_marseille","lat":43.27057,"lon":5.38302,"is_reserved":false,"is_disabled":false,"rental_uris":{"android":"levelo://app?vid=1e04bd5e-dba9-4c39-b5e3-df33312b1ae1","ios":"levelo://app?vid=1e04bd5e-dba9-4c39-b5e3-df33312b1ae1"},"vehicle_type_id":"4","last_reported":1761286538,"current_range_meters":19600,"station_id":"st_d3n2fo6cfp8s73cte1j0","pricing_plan_id":"cebpf4jnsgd1na2vs0mg"},{"bike_id":"ab1dc6bf-d651-4056-ad23-b67254daea0b","system_id":"levelo_inurba_marseille","lat":43.337509,"lon":5.375088,"is_reserved":false,"is_disabled":false,"rental_uris":{"android":"levelo://app?vid=ab1dc6bf-d651-4056-ad23-b67254daea0b","ios":"levelo://app?vid=ab1dc6bf-d651-4056-ad23-b67254daea0b"},"vehicle_type_id":"4","last_reported":1761286538,"current_range_meters":19600,"station_id":"","pricing_plan_id":"cebpf4jnsgd1na2vs0mg"},{"bike_id":"f5899999-6054-42c3-891f-bdfbc4d9c516","system_id":"levelo_inurba_marseille","lat":43.25329,"lon":5.42171,"is_reserved":false,"is_disabled":false,"rental_uris":{"android":"levelo://app?vid=f5899999-6054-42c3-891f-bdfbc4d9c516","ios":"levelo://app?vid=f5899999-6054-42c3-891f-bdfbc4d9c516"},"vehicle_type_id":"4","last_reported":1761286538,"current_range_meters":19600,"station_id":"st_d2m65c5bi1j21697t3ng","pricing_plan_id":"cebpf4jnsgd1na2vs0mg"},{"bike_id":"9cd84c81-6f52-4186-8084-afcab5d82750","system_id":"levelo_inurba_marseille","lat":43.23156,"lon":5.43714,"is_reserved":false,"is_disabled":false,"rental_uris":{"android":"levelo://app?vid=9cd84c81-6f52-4186-8084-afcab5d82750","ios":"levelo://app?vid=9cd84c81-6f52-4186-8084-afcab5d82750"},"vehicle_type_id":"4","last_reported":1761286538,"current_range_meters":19600,"station_id":"ce4bhmp2rcd13ifvqgog","pricing_plan_id":"cebpf4jnsgd1na2vs0mg"},{"bike_id":"8e92164c-deff-4fbd-9f4e-43ff81933572","system_id":"levelo_inurba_marseille","lat":43.29833,"lon":5.42014,"is_reserved":false,"is_disabled":false,"rental_uris":{"android":"levelo://app?vid=8e92164c-deff-4fbd-9f4e-43ff81933572","ios":"levelo://app?vid=8e92164c-deff-4fbd-9f4e-43ff81933572"},"vehicle_type_id":"4","last_reported":1761286538,"current_range_meters":19600,"station_id":"","pricing_plan_id":"cebpf4jnsgd1na2vs0mg"},{"bike_id":"33ab61fc-7e96-4ed5-b02d-8ade16c09c04","system_id":"levelo_inurba_marseille","lat":43.30958,"lon":5.39037,"is_reserved":false,"is_disabled":false,"rental_uris":{"android":"levelo://app?vid=33ab61fc-7e96-4ed5-b02d-8ade16c09c04","ios":"levelo://app?vid=33ab61fc-7e96-4ed5-b02d-8ade16c09c04"},"vehicle_type_id":"4","last_reported":1761286538,"current_range_meters":19600,"station_id":"ce4bgup2rcd13ifvqco0","pricing_plan_id":"cebpf4jnsgd1na2vs0mg"},{"bike_id":"3a778c7e-bf47-4cf2-8970-13230c721f9f","system_id":"levelo_inurba_marseille","lat":43.24671,"lon":5.3817,"is_reserved":false,"is_disabled":false,"rental_uris":{"android":"levelo://app?vid=3a778c7e-bf47-4cf2-8970-13230c721f9f","ios":"levelo://app?vid=3a778c7e-bf47-4cf2-8970-13230c721f9f"},"vehicle_type_id":"4","last_reported":1761286538,"current_range_meters":19600,"station_id":"ce4bhih2rcd13ifvqfr0","pricing_plan_id":"cebpf4jnsgd1na2vs0mg"},{"bike_id":"f34b1382-6891-4e13-892b-cd84608321c6","system_id":"levelo_inurba_marseille","lat":43.317258,"lon":5.424004,"is_reserved":false,"is_disabled":false,"rental_uris":{"android":"levelo://app?vid=f34b1382-6891-4e13-892b-cd84608321c6","ios":"levelo://app?vid=f34b1382-6891-4e13-892b-cd84608321c6"},"vehicle_type_id":"4","last_reported":1761286538,"current_range_meters":19600,"station_id":"ce4bhp92rcd13ifvqhbg","pricing_plan_id":"cebpf4jnsgd1na2vs0mg"},{"bike_id":"59a90fc2-6b65-44f9-97da-18a57f6bd3e0","system_id":"levelo_inurba_marseille","lat":43.25876,"lon":5.39901,"is_reserved":false,"is_disabled":false,"rental_uris":{"android":"levelo://app?vid=59a90fc2-6b65-44f9-97da-18a57f6bd3e0","ios":"levelo://app?vid=59a90fc2-6b65-44f9-97da-18a57f6bd3e0"},"vehicle_type_id":"4","last_reported":1761286538,"current_range_meters":20000,"station_id":"ce4bhl92rcd13ifvqghg","pricing_plan_id":"cebpf4jnsgd1na2vs0mg"},{"bike_id":"1060fd7b-9e0d-427e-a00f-2040fd173c83","system_id":"levelo_inurba_marseille","lat":43.3393,"lon":5.40735,"is_reserved":false,"is_disabled":false,"rental_uris":{"android":"levelo://app?vid=1060fd7b-9e0d-427e-a00f-2040fd173c83","ios":"levelo://app?vid=1060fd7b-9e0d-427e-a00f-2040fd173c83"},"vehicle_type_id":"4","last_reported":1761286538,"current_range_meters":20000,"station_id":"ce4bhqh2rcd13ifvqhmg","pricing_plan_id":"cebpf4jnsgd1na2vs0mg"},{"bike_id":"abbf52bc-9bde-4a40-9d12-0ac531182ea6","system_id":"levelo_inurba_marseille","lat":43.24046,"lon":5.3776,"is_reserved":false,"is_disabled":false,"rental_uris":{"android":"levelo://app?vid=abbf52bc-9bde-4a40-9d12-0ac531182ea6","ios":"levelo://app?vid=abbf52bc-9bde-4a40-9d12-0ac531182ea6"},"vehicle_type_id":"4","last_reported":1761286538,"current_range_meters":20000,"station_id":"ce4bhnp2rcd13ifvqgvg","pricing_plan_id":"cebpf4jnsgd1na2vs0mg"},{"bike_id":"b9c8c43d-1621-4310-ac8a-831f9d693fc1","system_id":"levelo_inurba_marseille","lat":43.21193,"lon":5.350835,"is_reserved":false,"is_disabled":true,"rental_uris":{"android":"levelo://app?vid=b9c8c43d-1621-4310-ac8a-831f9d693fc1","ios":"levelo://app?vid=b9c8c43d-1621-4310-ac8a-831f9d693fc1"},"vehicle_type_id":"4","last_reported":1761286538,"current_range_meters":20000,"station_id":"st_cvj6sg6p6f1abm77japg","pricing_plan_id":"cebpf4jnsgd1na2vs0mg"},{"bike_id":"0bee0626-b9a8-413e-bed7-d82dc19927df","system_id":"levelo_inurba_marseille","lat":43.31483,"lon":5.372937,"is_reserved":false,"is_disabled":false,"rental_uris":{"android":"levelo://app?vid=0bee0626-b9a8-413e-bed7-d82dc19927df","ios":"levelo://app?vid=0bee0626-b9a8-413e-bed7-d82dc19927df"},"vehicle_type_id":"4","last_reported":1761286538,"current_range_meters":20000,"station_id":"ce4bgt12rcd13ifvqcd0","pricing_plan_id":"cebpf4jnsgd1na2vs0mg"},{"bike_id":"505e3cf9-e587-4a2c-8170-e3f1279949ce","system_id":"levelo_inurba_marseille","lat":43.28981,"lon":5.36622,"is_reserved":false,"is_disabled":false,"rental_uris":{"android":"levelo://app?vid=505e3cf9-e587-4a2c-8170-e3f1279949ce","ios":"levelo://app?vid=505e3cf9-e587-4a2c-8170-e3f1279949ce"},"vehicle_type_id":"4","last_reported":1761286538,"current_range_meters":20000,"station_id":"","pricing_plan_id":"cebpf4jnsgd1na2vs0mg"},{"bike_id":"4ffce8fd-b066-4f3b-a9ad-19f545fb88fe","system_id":"levelo_inurba_marseille","lat":43.292673,"lon":5.384361,"is_reserved":false,"is_disabled":false,"rental_uris":{"android":"levelo://app?vid=4ffce8fd-b066-4f3b-a9ad-19f545fb88fe","ios":"levelo://app?vid=4ffce8fd-b066-4f3b-a9ad-19f545fb88fe"},"vehicle_type_id":"4","last_reported":1761286538,"current_range_meters":20000,"station_id":"","pricing_plan_id":"cebpf4jnsgd1na2vs0mg"},{"bike_id":"9489737c-7c2c-4f83-bc76-e520af4d2990","system_id":"levelo_inurba_marseille","lat":43.32367,"lon":5.38876,"is_reserved":false,"is_disabled":false,"rental_uris":{"android":"levelo://app?vid=9489737c-7c2c-4f83-bc76-e520af4d2990","ios":"levelo://app?vid=9489737c-7c2c-4f83-bc76-e520af4d2990"},"vehicle_type_id":"4","last_reported":1761286538,"current_range_meters":20000,"station_id":"ce4bhqp2rcd13ifvqhog","pricing_plan_id":"cebpf4jnsgd1na2vs0mg"},{"bike_id":"cea070fa-2a1a-486e-8d77-083ec02f2387","system_id":"levelo_inurba_marseille","lat":43.30214,"lon":5.39466,"is_reserved":false,"is_disabled":false,"rental_uris":{"android":"levelo://app?vid=cea070fa-2a1a-486e-8d77-083ec02f2387","ios":"levelo://app?vid=cea070fa-2a1a-486e-8d77-083ec02f2387"},"vehicle_type_id":"4","last_reported":1761286538,"current_range_meters":20000,"station_id":"ce4bh0p2rcd13ifvqd70","pricing_plan_id":"cebpf4jnsgd1na2vs0mg"},{"bike_id":"92d55843-3f2f-4f67-b9fd-cb2d3a3f1823","system_id":"levelo_inurba_marseille","lat":43.24071,"lon":5.3775,"is_reserved":false,"is_disabled":false,"rental_uris":{"android":"levelo://app?vid=92d55843-3f2f-4f67-b9fd-cb2d3a3f1823","ios":"levelo://app?vid=92d55843-3f2f-4f67-b9fd-cb2d3a3f1823"},"vehicle_type_id":"4","last_reported":1761286538,"current_range_meters":20000,"station_id":"ce4bhnp2rcd13ifvqgvg","pricing_plan_id":"cebpf4jnsgd1na2vs0mg"},{"bike_id":"bcae74e3-6b39-45d5-928a-2d2e21f4df91","system_id":"levelo_inurba_marseille","lat":43.24072,"lon":5.37758,"is_reserved":false,"is_disabled":false,"rental_uris":{"android":"levelo://app?vid=bcae74e3-6b39-45d5-928a-2d2e21f4df91","ios":"levelo://app?vid=bcae74e3-6b39-45d5-928a-2d2e21f4df91"},"vehicle_type_id":"4","last_reported":1761286538,"current_range_meters":20000,"station_id":"ce4bhnp2rcd13ifvqgvg","pricing_plan_id":"cebpf4jnsgd1na2vs0mg"},{"bike_id":"4c4fe0a5-47de-4746-ab0e-a35df0320f25","system_id":"levelo_inurba_marseille","lat":43.30888,"lon":5.39656,"is_reserved":false,"is_disabled":false,"rental_uris":{"android":"levelo://app?vid=4c4fe0a5-47de-4746-ab0e-a35df0320f25","ios":"levelo://app?vid=4c4fe0a5-47de-4746-ab0e-a35df0320f25"},"vehicle_type_id":"4","last_reported":1761286538,"current_range_meters":20000,"station_id":"ce4bh012rcd13ifvqcv0","pricing_plan_id":"cebpf4jnsgd1na2vs0mg"},{"bike_id":"fbb2bfc5-f5f9-4465-abb5-477d784af376","system_id":"levelo_inurba_marseille","lat":43.25723,"lon":5.41114,"is_reserved":false,"is_disabled":false,"rental_uris":{"android":"levelo://app?vid=fbb2bfc5-f5f9-4465-abb5-477d784af376","ios":"levelo://app?vid=fbb2bfc5-f5f9-4465-abb5-477d784af376"},"vehicle_type_id":"4","last_reported":1761286538,"current_range_meters":20400,"station_id":"ce4bhkp2rcd13ifvqgd0","pricing_plan_id":"cebpf4jnsgd1na2vs0mg"},{"bike_id":"73a84e4b-1dc4-4293-ac07-8c8f95c6e770","system_id":"levelo_inurba_marseille","lat":43.311246,"lon":5.377777,"is_reserved":false,"is_disabled":true,"rental_uris":{"android":"levelo://app?vid=73a84e4b-1dc4-4293-ac07-8c8f95c6e770","ios":"levelo://app?vid=73a84e4b-1dc4-4293-ac07-8c8f95c6e770"},"vehicle_type_id":"4","last_reported":1761286538,"current_range_meters":20400,"station_id":"ce4bgt92rcd13ifvqcg0","pricing_plan_id":"cebpf4jnsgd1na2vs0mg"},{"bike_id":"bfaea6f8-ccc6-44a7-83a6-9d7d9a7e60cc","system_id":"levelo_inurba_marseille","lat":43.26398,"lon":5.39745,"is_reserved":false,"is_disabled":false,"rental_uris":{"android":"levelo://app?vid=bfaea6f8-ccc6-44a7-83a6-9d7d9a7e60cc","ios":"levelo://app?vid=bfaea6f8-ccc6-44a7-83a6-9d7d9a7e60cc"},"vehicle_type_id":"4","last_reported":1761286538,"current_range_meters":20400,"station_id":"","pricing_plan_id":"cebpf4jnsgd1na2vs0mg"},{"bike_id":"85b42b4b-997e-4fbf-b50e-714fc05c6d7d","system_id":"levelo_inurba_marseille","lat":43.277693,"lon":5.375879,"is_reserved":false,"is_disabled":false,"rental_uris":{"android":"levelo://app?vid=85b42b4b-997e-4fbf-b50e-714fc05c6d7d","ios":"levelo://app?vid=85b42b4b-997e-4fbf-b50e-714fc05c6d7d"},"vehicle_type_id":"4","last_reported":1761286538,"current_range_meters":20400,"station_id":"","pricing_plan_id":"cebpf4jnsgd1na2vs0mg"},{"bike_id":"2bc75144-1a4c-4f05-a168-2ed243210d33","system_id":"levelo_inurba_marseille","lat":43.295342,"lon":5.375069,"is_reserved":false,"is_disabled":false,"rental_uris":{"android":"levelo://app?vid=2bc75144-1a4c-4f05-a168-2ed243210d33","ios":"levelo://app?vid=2bc75144-1a4c-4f05-a168-2ed243210d33"},"vehicle_type_id":"4","last_reported":1761286538,"current_range_meters":20400,"station_id":"ce4bgkp2rcd13ifvqbmg","pricing_plan_id":"cebpf4jnsgd1na2vs0mg"},{"bike_id":"8822fb21-9da4-436c-bcf7-34aa611f618c","system_id":"levelo_inurba_marseille","lat":43.30149,"lon":5.38079,"is_reserved":false,"is_disabled":false,"rental_uris":{"android":"levelo://app?vid=8822fb21-9da4-436c-bcf7-34aa611f618c","ios":"levelo://app?vid=8822fb21-9da4-436c-bcf7-34aa611f618c"},"vehicle_type_id":"4","last_reported":1761286538,"current_range_meters":20400,"station_id":"ce4bgjp2rcd13ifvqbh0","pricing_plan_id":"cebpf4jnsgd1na2vs0mg"},{"bike_id":"90e1dbd6-fb4a-4cef-bbfa-4eed2ce2faf0","system_id":"levelo_inurba_marseille","lat":43.26195,"lon":5.37445,"is_reserved":false,"is_disabled":false,"rental_uris":{"android":"levelo://app?vid=90e1dbd6-fb4a-4cef-bbfa-4eed2ce2faf0","ios":"levelo://app?vid=90e1dbd6-fb4a-4cef-bbfa-4eed2ce2faf0"},"vehicle_type_id":"4","last_reported":1761286538,"current_range_meters":20400,"station_id":"ce4bhgp2rcd13ifvqfc0","pricing_plan_id":"cebpf4jnsgd1na2vs0mg"},{"bike_id":"1d91d2c9-29d3-4c7d-a6a8-29c5c39d1cce","system_id":"levelo_inurba_marseille","lat":43.21743,"lon":5.34618,"is_reserved":false,"is_disabled":false,"rental_uris":{"android":"levelo://app?vid=1d91d2c9-29d3-4c7d-a6a8-29c5c39d1cce","ios":"levelo://app?vid=1d91d2c9-29d3-4c7d-a6a8-29c5c39d1cce"},"vehicle_type_id":"4","last_reported":1761286538,"current_range_meters":20400,"station_id":"st_cvj6r9ubvosntc0bgbag","pricing_plan_id":"cebpf4jnsgd1na2vs0mg"},{"bike_id":"85831b0c-ac03-4a31-ad4b-6acd383c62ca","system_id":"levelo_inurba_marseille","lat":43.277154,"lon":5.388507,"is_reserved":false,"is_disabled":false,"rental_uris":{"android":"levelo://app?vid=85831b0c-ac03-4a31-ad4b-6acd383c62ca","ios":"levelo://app?vid=85831b0c-ac03-4a31-ad4b-6acd383c62ca"},"vehicle_type_id":"4","last_reported":1761286538,"current_range_meters":20400,"station_id":"ce4bhi12rcd13ifvqfo0","pricing_plan_id":"cebpf4jnsgd1na2vs0mg"},{"bike_id":"6ed5db16-815f-41f1-96da-9f4e2292b532","system_id":"levelo_inurba_marseille","lat":43.28104,"lon":5.37829,"is_reserved":false,"is_disabled":false,"rental_uris":{"android":"levelo://app?vid=6ed5db16-815f-41f1-96da-9f4e2292b532","ios":"levelo://app?vid=6ed5db16-815f-41f1-96da-9f4e2292b532"},"vehicle_type_id":"4","last_reported":1761286538,"current_range_meters":20400,"station_id":"ce4bha12rcd13ifvqee0","pricing_plan_id":"cebpf4jnsgd1na2vs0mg"},{"bike_id":"98794b2a-c876-497a-8941-f0beba61ea0d","system_id":"levelo_inurba_marseille","lat":43.30538,"lon":5.3842,"is_reserved":false,"is_disabled":false,"rental_uris":{"android":"levelo://app?vid=98794b2a-c876-497a-8941-f0beba61ea0d","ios":"levelo://app?vid=98794b2a-c876-497a-8941-f0beba61ea0d"},"vehicle_type_id":"4","last_reported":1761286538,"current_range_meters":20400,"station_id":"ce4bgg92rcd13ifvqb30","pricing_plan_id":"cebpf4jnsgd1na2vs0mg"},{"bike_id":"50e522b9-a17f-45d1-9d6e-22762a8c39e6","system_id":"levelo_inurba_marseille","lat":43.296318,"lon":5.377269,"is_reserved":false,"is_disabled":false,"rental_uris":{"android":"levelo://app?vid=50e522b9-a17f-45d1-9d6e-22762a8c39e6","ios":"levelo://app?vid=50e522b9-a17f-45d1-9d6e-22762a8c39e6"},"vehicle_type_id":"4","last_reported":1761286538,"current_range_meters":20800,"station_id":"","pricing_plan_id":"cebpf4jnsgd1na2vs0mg"},{"bike_id":"75514aab-2791-4756-9ebe-702fdafac63f","system_id":"levelo_inurba_marseille","lat":43.31236,"lon":5.36834,"is_reserved":false,"is_disabled":true,"rental_uris":{"android":"levelo://app?vid=75514aab-2791-4756-9ebe-702fdafac63f","ios":"levelo://app?vid=75514aab-2791-4756-9ebe-702fdafac63f"},"vehicle_type_id":"4","last_reported":1761286538,"current_range_meters":20800,"station_id":"ce4bgl92rcd13ifvqbq0","pricing_plan_id":"cebpf4jnsgd1na2vs0mg"},{"bike_id":"05a41d5b-5136-4a4d-ad6a-882394cf4af1","system_id":"levelo_inurba_marseille","lat":43.27957,"lon":5.41044,"is_reserved":false,"is_disabled":false,"rental_uris":{"android":"levelo://app?vid=05a41d5b-5136-4a4d-ad6a-882394cf4af1","ios":"levelo://app?vid=05a41d5b-5136-4a4d-ad6a-882394cf4af1"},"vehicle_type_id":"4","last_reported":1761286538,"current_range_meters":20800,"station_id":"ce4bhnp2rcd13ifvqh0g","pricing_plan_id":"cebpf4jnsgd1na2vs0mg"},{"bike_id":"0673b98c-ff7c-4ddb-a025-1e929717cb60","system_id":"levelo_inurba_marseille","lat":43.249996,"lon":5.389231,"is_reserved":false,"is_disabled":false,"rental_uris":{"android":"levelo://app?vid=0673b98c-ff7c-4ddb-a025-1e929717cb60","ios":"levelo://app?vid=0673b98c-ff7c-4ddb-a025-1e929717cb60"},"vehicle_type_id":"4","last_reported":1761286538,"current_range_meters":20800,"station_id":"ce4bhgp2rcd13ifvqfd0","pricing_plan_id":"cebpf4jnsgd1na2vs0mg"},{"bike_id":"b3d445b3-d839-4a8f-8039-a57bf62887bd","system_id":"levelo_inurba_marseille","lat":43.29604,"lon":5.37551,"is_reserved":false,"is_disabled":false,"rental_uris":{"android":"levelo://app?vid=b3d445b3-d839-4a8f-8039-a57bf62887bd","ios":"levelo://app?vid=b3d445b3-d839-4a8f-8039-a57bf62887bd"},"vehicle_type_id":"4","last_reported":1761286538,"current_range_meters":20800,"station_id":"ce4bgh92rcd13ifvqb50","pricing_plan_id":"cebpf4jnsgd1na2vs0mg"},{"bike_id":"ee033b22-31da-48a8-88d3-8b8e42a29a72","system_id":"levelo_inurba_marseille","lat":43.286248,"lon":5.351038,"is_reserved":false,"is_disabled":false,"rental_uris":{"android":"levelo://app?vid=ee033b22-31da-48a8-88d3-8b8e42a29a72","ios":"levelo://app?vid=ee033b22-31da-48a8-88d3-8b8e42a29a72"},"vehicle_type_id":"4","last_reported":1761286538,"current_range_meters":20800,"station_id":"ce4bhch2rcd13ifvqeug","pricing_plan_id":"cebpf4jnsgd1na2vs0mg"},{"bike_id":"eec197c3-9146-4942-bfc2-b26b699ad249","system_id":"levelo_inurba_marseille","lat":43.279433,"lon":5.410427,"is_reserved":false,"is_disabled":false,"rental_uris":{"android":"levelo://app?vid=eec197c3-9146-4942-bfc2-b26b699ad249","ios":"levelo://app?vid=eec197c3-9146-4942-bfc2-b26b699ad249"},"vehicle_type_id":"4","last_reported":1761286538,"current_range_meters":20800,"station_id":"ce4bhnp2rcd13ifvqh0g","pricing_plan_id":"cebpf4jnsgd1na2vs0mg"},{"bike_id":"33d7176a-a540-4a30-bacc-9edbb6fc1dce","system_id":"levelo_inurba_marseille","lat":43.24646,"lon":5.43138,"is_reserved":false,"is_disabled":false,"rental_uris":{"android":"levelo://app?vid=33d7176a-a540-4a30-bacc-9edbb6fc1dce","ios":"levelo://app?vid=33d7176a-a540-4a30-bacc-9edbb6fc1dce"},"vehicle_type_id":"4","last_reported":1761286538,"current_range_meters":20800,"station_id":"st_d2m6c4gdas8pm72e190g","pricing_plan_id":"cebpf4jnsgd1na2vs0mg"},{"bike_id":"ba9a9429-bfde-4653-87f1-2b95b92f5e70","system_id":"levelo_inurba_marseille","lat":43.285326,"lon":5.44098,"is_reserved":false,"is_disabled":false,"rental_uris":{"android":"levelo://app?vid=ba9a9429-bfde-4653-87f1-2b95b92f5e70","ios":"levelo://app?vid=ba9a9429-bfde-4653-87f1-2b95b92f5e70"},"vehicle_type_id":"4","last_reported":1761286538,"current_range_meters":21600,"station_id":"st_d3j3df2ikq2c7380ej80","pricing_plan_id":"cebpf4jnsgd1na2vs0mg"},{"bike_id":"b2e20cd2-c54c-4e77-b03f-069ffaf8b17b","system_id":"levelo_inurba_marseille","lat":43.21752,"lon":5.34597,"is_reserved":false,"is_disabled":false,"rental_uris":{"android":"levelo://app?vid=b2e20cd2-c54c-4e77-b03f-069ffaf8b17b","ios":"levelo://app?vid=b2e20cd2-c54c-4e77-b03f-069ffaf8b17b"},"vehicle_type_id":"4","last_reported":1761286538,"current_range_meters":21600,"station_id":"st_cvj6r9ubvosntc0bgbag","pricing_plan_id":"cebpf4jnsgd1na2vs0mg"},{"bike_id":"f998ead8-7f8c-4a25-804e-d22e24cc9cbb","system_id":"levelo_inurba_marseille","lat":43.292633,"lon":5.384286,"is_reserved":false,"is_disabled":true,"rental_uris":{"android":"levelo://app?vid=f998ead8-7f8c-4a25-804e-d22e24cc9cbb","ios":"levelo://app?vid=f998ead8-7f8c-4a25-804e-d22e24cc9cbb"},"vehicle_type_id":"4","last_reported":1761286538,"current_range_meters":21600,"station_id":"ce4bh692rcd13ifvqea0","pricing_plan_id":"cebpf4jnsgd1na2vs0mg"},{"bike_id":"ebb39498-4a07-4e96-aa7d-f7098bbfce83","system_id":"levelo_inurba_marseille","lat":43.27818,"lon":5.40706,"is_reserved":false,"is_disabled":false,"rental_uris":{"android":"levelo://app?vid=ebb39498-4a07-4e96-aa7d-f7098bbfce83","ios":"levelo://app?vid=ebb39498-4a07-4e96-aa7d-f7098bbfce83"},"vehicle_type_id":"4","last_reported":1761286538,"current_range_meters":21600,"station_id":"ce4bhnh2rcd13ifvqgtg","pricing_plan_id":"cebpf4jnsgd1na2vs0mg"},{"bike_id":"8c35a7e4-8378-4fdf-b42f-02e88b6199ca","system_id":"levelo_inurba_marseille","lat":43.320594,"lon":5.368323,"is_reserved":false,"is_disabled":false,"rental_uris":{"android":"levelo://app?vid=8c35a7e4-8378-4fdf-b42f-02e88b6199ca","ios":"levelo://app?vid=8c35a7e4-8378-4fdf-b42f-02e88b6199ca"},"vehicle_type_id":"4","last_reported":1761286538,"current_range_meters":21600,"station_id":"ce4bhrh2rcd13ifvqhug","pricing_plan_id":"cebpf4jnsgd1na2vs0mg"},{"bike_id":"dab36927-4328-48fa-bffb-145a737de07e","system_id":"levelo_inurba_marseille","lat":43.30777,"lon":5.43544,"is_reserved":false,"is_disabled":true,"rental_uris":{"android":"levelo://app?vid=dab36927-4328-48fa-bffb-145a737de07e","ios":"levelo://app?vid=dab36927-4328-48fa-bffb-145a737de07e"},"vehicle_type_id":"4","last_reported":1761286538,"current_range_meters":22000,"station_id":"ce4bhph2rcd13ifvqheg","pricing_plan_id":"cebpf4jnsgd1na2vs0mg"},{"bike_id":"7b780362-b3ee-434c-9c61-9d1a307e3f56","system_id":"levelo_inurba_marseille","lat":43.287074,"lon":5.373785,"is_reserved":false,"is_disabled":false,"rental_uris":{"android":"levelo://app?vid=7b780362-b3ee-434c-9c61-9d1a307e3f56","ios":"levelo://app?vid=7b780362-b3ee-434c-9c61-9d1a307e3f56"},"vehicle_type_id":"4","last_reported":1761286538,"current_range_meters":22000,"station_id":"","pricing_plan_id":"cebpf4jnsgd1na2vs0mg"},{"bike_id":"b87254dc-3ddd-4ae4-83db-5dd207656098","system_id":"levelo_inurba_marseille","lat":43.29908,"lon":5.41021,"is_reserved":false,"is_disabled":true,"rental_uris":{"android":"levelo://app?vid=b87254dc-3ddd-4ae4-83db-5dd207656098","ios":"levelo://app?vid=b87254dc-3ddd-4ae4-83db-5dd207656098"},"vehicle_type_id":"4","last_reported":1761286538,"current_range_meters":22000,"station_id":"","pricing_plan_id":"cebpf4jnsgd1na2vs0mg"},{"bike_id":"334ee7dc-3d20-4cf2-9d7e-f14e3ffb0423","system_id":"levelo_inurba_marseille","lat":43.2418,"lon":5.39727,"is_reserved":false,"is_disabled":false,"rental_uris":{"android":"levelo://app?vid=334ee7dc-3d20-4cf2-9d7e-f14e3ffb0423","ios":"levelo://app?vid=334ee7dc-3d20-4cf2-9d7e-f14e3ffb0423"},"vehicle_type_id":"4","last_reported":1761286538,"current_range_meters":22400,"station_id":"ce4bhn12rcd13ifvqgpg","pricing_plan_id":"cebpf4jnsgd1na2vs0mg"},{"bike_id":"8414ae98-3227-49d8-afd8-5cd478e67b11","system_id":"levelo_inurba_marseille","lat":43.240801,"lon":5.377191,"is_reserved":false,"is_disabled":false,"rental_uris":{"android":"levelo://app?vid=8414ae98-3227-49d8-afd8-5cd478e67b11","ios":"levelo://app?vid=8414ae98-3227-49d8-afd8-5cd478e67b11"},"vehicle_type_id":"4","last_reported":1761286538,"current_range_meters":22400,"station_id":"ce4bhnp2rcd13ifvqgvg","pricing_plan_id":"cebpf4jnsgd1na2vs0mg"},{"bike_id":"62f0a2f8-d352-4580-a096-e8ce56ffccdb","system_id":"levelo_inurba_marseille","lat":43.32111,"lon":5.36746,"is_reserved":false,"is_disabled":false,"rental_uris":{"android":"levelo://app?vid=62f0a2f8-d352-4580-a096-e8ce56ffccdb","ios":"levelo://app?vid=62f0a2f8-d352-4580-a096-e8ce56ffccdb"},"vehicle_type_id":"4","last_reported":1761286538,"current_range_meters":22400,"station_id":"ce4bhrh2rcd13ifvqhug","pricing_plan_id":"cebpf4jnsgd1na2vs0mg"},{"bike_id":"36ef565d-595c-4fe5-832e-9069968fcd08","system_id":"levelo_inurba_marseille","lat":43.32538,"lon":5.41411,"is_reserved":false,"is_disabled":true,"rental_uris":{"android":"levelo://app?vid=36ef565d-595c-4fe5-832e-9069968fcd08","ios":"levelo://app?vid=36ef565d-595c-4fe5-832e-9069968fcd08"},"vehicle_type_id":"4","last_reported":1761286538,"current_range_meters":22400,"station_id":"ce4bhq12rcd13ifvqhhg","pricing_plan_id":"cebpf4jnsgd1na2vs0mg"},{"bike_id":"a48b489a-127e-4aab-97a2-25cf37e655c9","system_id":"levelo_inurba_marseille","lat":43.3095,"lon":5.40284,"is_reserved":false,"is_disabled":false,"rental_uris":{"android":"levelo://app?vid=a48b489a-127e-4aab-97a2-25cf37e655c9","ios":"levelo://app?vid=a48b489a-127e-4aab-97a2-25cf37e655c9"},"vehicle_type_id":"4","last_reported":1761286538,"current_range_meters":22400,"station_id":"","pricing_plan_id":"cebpf4jnsgd1na2vs0mg"},{"bike_id":"c6931d25-3bea-46cc-9d80-5f4cc24ad4f5","system_id":"levelo_inurba_marseille","lat":43.2572,"lon":5.41113,"is_reserved":false,"is_disabled":false,"rental_uris":{"android":"levelo://app?vid=c6931d25-3bea-46cc-9d80-5f4cc24ad4f5","ios":"levelo://app?vid=c6931d25-3bea-46cc-9d80-5f4cc24ad4f5"},