{"last_updated":1762632617,"ttl":60,"version":"2.2","data":{"bikes":[{"bike_id":"05c639a2-6660-40ed-a12f-85b485fe188e","system_id":"levelo_inurba_marseille","lat":43.29209,"lon":5.35755,"is_reserved":false,"is_disabled":false,"rental_uris":{"android":"levelo://app?vid=05c639a2-6660-40ed-a12f-85b485fe188e","ios":"levelo://app?vid=05c639a2-6660-40ed-a12f-85b485fe188e"},"vehicle_type_id":"4","last_reported":1762632617,"current_range_meters":2800,"station_id":"ce4bhb12rcd13ifvqel0","pricing_plan_id":"cebpf4jnsgd1na2vs0mg"},{"bike_id":"3f50e375-3093-48d5-989b-247db7e10365","system_id":"levelo_inurba_marseille","lat":43.3031,"lon":5.36898,"is_reserved":false,"is_disabled":false,"rental_uris":{"android":"levelo://app?vid=3f50e375-3093-48d5-989b-247db7e10365","ios":"levelo://app?vid=3f50e375-3093-48d5-989b-247db7e10365"},"vehicle_type_id":"4","last_reported":1762632617,"current_range_meters":2800,"station_id":"ce4bgqh2rcd13ifvqc5g","pricing_plan_id":"cebpf4jnsgd1na2vs0mg"},{"bike_id":"59b31ef2-3fe3-46e5-b5a5-685f264695ce","system_id":"levelo_inurba_marseille","lat":43.28476,"lon":5.484024,"is_reserved":false,"is_disabled":false,"rental_uris":{"android":"levelo://app?vid=59b31ef2-3fe3-46e5-b5a5-685f264695ce","ios":"levelo://app?vid=59b31ef2-3fe3-46e5-b5a5-685f264695ce"},"vehicle_type_id":"4","last_reported":1762632617,"current_range_meters":2800,"station_id":"st_d3svhcjqgbts73a3dn0g","pricing_plan_id":"cebpf4jnsgd1na2vs0mg"},{"bike_id":"062bdfd2-f47f-4e5a-9631-f5157c1eb45c","system_id":"levelo_inurba_marseille","lat":43.3037,"lon":5.42472,"is_reserved":false,"is_disabled":false,"rental_uris":{"android":"levelo://app?vid=062bdfd2-f47f-4e5a-9631-f5157c1eb45c","ios":"levelo://app?vid=062bdfd2-f47f-4e5a-9631-f5157c1eb45c"},"vehicle_type_id":"4","last_reported":1762632617,"current_range_meters":2800,"station_id":"ce4bhoh2rcd13ifvqh6g","pricing_plan_id":"cebpf4jnsgd1na2vs0mg"},{"bike_id":"b96eed75-dd33-42e8-801d-e2930b9134c9","system_id":"levelo_inurba_marseille","lat":43.29199,"lon":5.39315,"is_reserved":false,"is_disabled":false,"rental_uris":{"android":"levelo://app?vid=b96eed75-dd33-42e8-801d-e2930b9134c9","ios":"levelo://app?vid=b96eed75-dd33-42e8-801d-e2930b9134c9"},"vehicle_type_id":"4","last_reported":1762632617,"current_range_meters":2800,"station_id":"ce4bh192rcd13ifvqdd0","pricing_plan_id":"cebpf4jnsgd1na2vs0mg"},{"bike_id":"442816e1-c82b-4b8c-97c0-79d79a08a9f5","system_id":"levelo_inurba_marseille","lat":43.29525,"lon":5.38529,"is_reserved":false,"is_disabled":false,"rental_uris":{"android":"levelo://app?vid=442816e1-c82b-4b8c-97c0-79d79a08a9f5","ios":"levelo://app?vid=442816e1-c82b-4b8c-97c0-79d79a08a9f5"},"vehicle_type_id":"4","last_reported":1762632617,"current_range_meters":2800,"station_id":"ce4bgih2rcd13ifvqba0","pricing_plan_id":"cebpf4jnsgd1na2vs0mg"},{"bike_id":"9f5630e6-f989-4d7d-b41d-35bc11754523","system_id":"levelo_inurba_marseille","lat":43.291736,"lon":5.371535,"is_reserved":false,"is_disabled":false,"rental_uris":{"android":"levelo://app?vid=9f5630e6-f989-4d7d-b41d-35bc11754523","ios":"levelo://app?vid=9f5630e6-f989-4d7d-b41d-35bc11754523"},"vehicle_type_id":"4","last_reported":1762632617,"current_range_meters":2800,"station_id":"ce4bha92rcd13ifvqeh0","pricing_plan_id":"cebpf4jnsgd1na2vs0mg"},{"bike_id":"ec181be9-25c0-4f8a-b038-ac385fc22952","system_id":"levelo_inurba_marseille","lat":43.30137,"lon":5.38783,"is_reserved":false,"is_disabled":false,"rental_uris":{"android":"levelo://app?vid=ec181be9-25c0-4f8a-b038-ac385fc22952","ios":"levelo://app?vid=ec181be9-25c0-4f8a-b038-ac385fc22952"},"vehicle_type_id":"4","last_reported":1762632617,"current_range_meters":2800,"station_id":"ce4bghh2rcd13ifvqb60","pricing_plan_id":"cebpf4jnsgd1na2vs0mg"},{"bike_id":"0ce0815c-9211-406b-8024-25063d391fb3","system_id":"levelo_inurba_marseille","lat":43.28038,"lon":5.36947,"is_reserved":false,"is_disabled":false,"rental_uris":{"android":"levelo://app?vid=0ce0815c-9211-406b-8024-25063d391fb3","ios":"levelo://app?vid=0ce0815c-9211-406b-8024-25063d391fb3"},"vehicle_type_id":"4","last_reported":1762632617,"current_range_meters":3200,"station_id":"ce4bha12rcd13ifvqef0","pricing_plan_id":"cebpf4jnsgd1na2vs0mg"},{"bike_id":"daf94b15-a263-4b78-b809-84de8b4794fe","system_id":"levelo_inurba_marseille","lat":43.308053,"lon":5.381461,"is_reserved":false,"is_disabled":false,"rental_uris":{"android":"levelo://app?vid=daf94b15-a263-4b78-b809-84de8b4794fe","ios":"levelo://app?vid=daf94b15-a263-4b78-b809-84de8b4794fe"},"vehicle_type_id":"4","last_reported":1762632617,"current_range_meters":3200,"station_id":"ce4bgt12rcd13ifvqce0","pricing_plan_id":"cebpf4jnsgd1na2vs0mg"},{"bike_id":"32c4054d-c111-4f1c-b188-9138aed42210","system_id":"levelo_inurba_marseille","lat":43.31978,"lon":5.41576,"is_reserved":false,"is_disabled":false,"rental_uris":{"android":"levelo://app?vid=32c4054d-c111-4f1c-b188-9138aed42210","ios":"levelo://app?vid=32c4054d-c111-4f1c-b188-9138aed42210"},"vehicle_type_id":"4","last_reported":1762632617,"current_range_meters":3200,"station_id":"","pricing_plan_id":"cebpf4jnsgd1na2vs0mg"},{"bike_id":"1c3c4622-83c1-4aa8-a877-256f780972c3","system_id":"levelo_inurba_marseille","lat":43.31372,"lon":5.38503,"is_reserved":false,"is_disabled":false,"rental_uris":{"android":"levelo://app?vid=1c3c4622-83c1-4aa8-a877-256f780972c3","ios":"levelo://app?vid=1c3c4622-83c1-4aa8-a877-256f780972c3"},"vehicle_type_id":"4","last_reported":1762632617,"current_range_meters":3200,"station_id":"ce4bgt92rcd13ifvqcf0","pricing_plan_id":"cebpf4jnsgd1na2vs0mg"},{"bike_id":"d14dfc30-3ac3-42b6-a3e4-44a3da00e75a","system_id":"levelo_inurba_marseille","lat":43.32282,"lon":5.3827,"is_reserved":false,"is_disabled":false,"rental_uris":{"android":"levelo://app?vid=d14dfc30-3ac3-42b6-a3e4-44a3da00e75a","ios":"levelo://app?vid=d14dfc30-3ac3-42b6-a3e4-44a3da00e75a"},"vehicle_type_id":"4","last_reported":1762632617,"current_range_meters":3200,"station_id":"ce4bhr12rcd13ifvqhqg","pricing_plan_id":"cebpf4jnsgd1na2vs0mg"},{"bike_id":"e774e600-3d8a-4b13-a1e6-9aa67ac84e1b","system_id":"levelo_inurba_marseille","lat":43.25918,"lon":5.40862,"is_reserved":false,"is_disabled":false,"rental_uris":{"android":"levelo://app?vid=e774e600-3d8a-4b13-a1e6-9aa67ac84e1b","ios":"levelo://app?vid=e774e600-3d8a-4b13-a1e6-9aa67ac84e1b"},"vehicle_type_id":"4","last_reported":1762632617,"current_range_meters":3200,"station_id":"ce4bhm92rcd13ifvqglg","pricing_plan_id":"cebpf4jnsgd1na2vs0mg"},{"bike_id":"ab3a4d6b-b442-44b9-8f02-c1c222f445ba","system_id":"levelo_inurba_marseille","lat":43.27487,"lon":5.39267,"is_reserved":false,"is_disabled":false,"rental_uris":{"android":"levelo://app?vid=ab3a4d6b-b442-44b9-8f02-c1c222f445ba","ios":"levelo://app?vid=ab3a4d6b-b442-44b9-8f02-c1c222f445ba"},"vehicle_type_id":"4","last_reported":1762632617,"current_range_meters":3600,"station_id":"","pricing_plan_id":"cebpf4jnsgd1na2vs0mg"},{"bike_id":"c76b0632-09dc-4e18-9336-125e1ada2021","system_id":"levelo_inurba_marseille","lat":43.26227,"lon":5.40453,"is_reserved":false,"is_disabled":false,"rental_uris":{"android":"levelo://app?vid=c76b0632-09dc-4e18-9336-125e1ada2021","ios":"levelo://app?vid=c76b0632-09dc-4e18-9336-125e1ada2021"},"vehicle_type_id":"4","last_reported":1762632617,"current_range_meters":3600,"station_id":"ce4bhmh2rcd13ifvqgmg","pricing_plan_id":"cebpf4jnsgd1na2vs0mg"},{"bike_id":"e2b35188-dd5f-49f8-8c28-eeeda28cddae","system_id":"levelo_inurba_marseille","lat":43.290003,"lon":5.356189,"is_reserved":false,"is_disabled":false,"rental_uris":{"android":"levelo://app?vid=e2b35188-dd5f-49f8-8c28-eeeda28cddae","ios":"levelo://app?vid=e2b35188-dd5f-49f8-8c28-eeeda28cddae"},"vehicle_type_id":"4","last_reported":1762632617,"current_range_meters":4000,"station_id":"ce4bhhp2rcd13ifvqfm0","pricing_plan_id":"cebpf4jnsgd1na2vs0mg"},{"bike_id":"acdc7342-c1a6-4a70-b129-b9cf7ad80643","system_id":"levelo_inurba_marseille","lat":43.2119,"lon":5.35063,"is_reserved":false,"is_disabled":false,"rental_uris":{"android":"levelo://app?vid=acdc7342-c1a6-4a70-b129-b9cf7ad80643","ios":"levelo://app?vid=acdc7342-c1a6-4a70-b129-b9cf7ad80643"},"vehicle_type_id":"4","last_reported":1762632617,"current_range_meters":4000,"station_id":"st_cvj6sg6p6f1abm77japg","pricing_plan_id":"cebpf4jnsgd1na2vs0mg"},{"bike_id":"c42b1fbe-8407-4827-abda-164ae9db28c1","system_id":"levelo_inurba_marseille","lat":43.29029,"lon":5.38646,"is_reserved":false,"is_disabled":false,"rental_uris":{"android":"levelo://app?vid=c42b1fbe-8407-4827-abda-164ae9db28c1","ios":"levelo://app?vid=c42b1fbe-8407-4827-abda-164ae9db28c1"},"vehicle_type_id":"4","last_reported":1762632617,"current_range_meters":4000,"station_id":"ce4bh4p2rcd13ifvqe0g","pricing_plan_id":"cebpf4jnsgd1na2vs0mg"},{"bike_id":"dba7f36f-e37c-4906-a400-d2e3187f0fc9","system_id":"levelo_inurba_marseille","lat":43.29509,"lon":5.39397,"is_reserved":false,"is_disabled":false,"rental_uris":{"android":"levelo://app?vid=dba7f36f-e37c-4906-a400-d2e3187f0fc9","ios":"levelo://app?vid=dba7f36f-e37c-4906-a400-d2e3187f0fc9"},"vehicle_type_id":"4","last_reported":1762632617,"current_range_meters":4000,"station_id":"ce4bh292rcd13ifvqdf0","pricing_plan_id":"cebpf4jnsgd1na2vs0mg"},{"bike_id":"964c6a1d-247c-49b9-bc4d-13e9e5309efe","system_id":"levelo_inurba_marseille","lat":43.30798,"lon":5.43527,"is_reserved":false,"is_disabled":false,"rental_uris":{"android":"levelo://app?vid=964c6a1d-247c-49b9-bc4d-13e9e5309efe","ios":"levelo://app?vid=964c6a1d-247c-49b9-bc4d-13e9e5309efe"},"vehicle_type_id":"4","last_reported":1762632617,"current_range_meters":4000,"station_id":"","pricing_plan_id":"cebpf4jnsgd1na2vs0mg"},{"bike_id":"75bc333b-dfc1-46da-a386-e67c86771450","system_id":"levelo_inurba_marseille","lat":43.3017,"lon":5.38578,"is_reserved":false,"is_disabled":false,"rental_uris":{"android":"levelo://app?vid=75bc333b-dfc1-46da-a386-e67c86771450","ios":"levelo://app?vid=75bc333b-dfc1-46da-a386-e67c86771450"},"vehicle_type_id":"4","last_reported":1762632617,"current_range_meters":4000,"station_id":"","pricing_plan_id":"cebpf4jnsgd1na2vs0mg"},{"bike_id":"f7d825c5-58e1-423d-80a3-2e47994f4dbb","system_id":"levelo_inurba_marseille","lat":43.28144,"lon":5.42641,"is_reserved":false,"is_disabled":false,"rental_uris":{"android":"levelo://app?vid=f7d825c5-58e1-423d-80a3-2e47994f4dbb","ios":"levelo://app?vid=f7d825c5-58e1-423d-80a3-2e47994f4dbb"},"vehicle_type_id":"4","last_reported":1762632617,"current_range_meters":4000,"station_id":"ce4bhnh2rcd13ifvqgug","pricing_plan_id":"cebpf4jnsgd1na2vs0mg"},{"bike_id":"fa6d0487-abd9-45c0-b102-588762e80416","system_id":"levelo_inurba_marseille","lat":43.295303,"lon":5.400988,"is_reserved":false,"is_disabled":false,"rental_uris":{"android":"levelo://app?vid=fa6d0487-abd9-45c0-b102-588762e80416","ios":"levelo://app?vid=fa6d0487-abd9-45c0-b102-588762e80416"},"vehicle_type_id":"4","last_reported":1762632617,"current_range_meters":4000,"station_id":"ce4bh312rcd13ifvqdj0","pricing_plan_id":"cebpf4jnsgd1na2vs0mg"},{"bike_id":"79fbbdf2-864d-4e91-bd4e-42560a71c8b7","system_id":"levelo_inurba_marseille","lat":43.29971,"lon":5.38492,"is_reserved":false,"is_disabled":false,"rental_uris":{"android":"levelo://app?vid=79fbbdf2-864d-4e91-bd4e-42560a71c8b7","ios":"levelo://app?vid=79fbbdf2-864d-4e91-bd4e-42560a71c8b7"},"vehicle_type_id":"4","last_reported":1762632617,"current_range_meters":4400,"station_id":"ce4bgj92rcd13ifvqbd0","pricing_plan_id":"cebpf4jnsgd1na2vs0mg"},{"bike_id":"5b98d579-5d9e-4fea-93b7-a7307fb6f858","system_id":"levelo_inurba_marseille","lat":43.23801,"lon":5.36622,"is_reserved":false,"is_disabled":false,"rental_uris":{"android":"levelo://app?vid=5b98d579-5d9e-4fea-93b7-a7307fb6f858","ios":"levelo://app?vid=5b98d579-5d9e-4fea-93b7-a7307fb6f858"},"vehicle_type_id":"4","last_reported":1762632617,"current_range_meters":4400,"station_id":"","pricing_plan_id":"cebpf4jnsgd1na2vs0mg"},{"bike_id":"afc24acb-350c-47c5-a3e6-0fd8bf010c11","system_id":"levelo_inurba_marseille","lat":43.28035,"lon":5.36937,"is_reserved":false,"is_disabled":false,"rental_uris":{"android":"levelo://app?vid=afc24acb-350c-47c5-a3e6-0fd8bf010c11","ios":"levelo://app?vid=afc24acb-350c-47c5-a3e6-0fd8bf010c11"},"vehicle_type_id":"4","last_reported":1762632617,"current_range_meters":4400,"station_id":"ce4bha12rcd13ifvqef0","pricing_plan_id":"cebpf4jnsgd1na2vs0mg"},{"bike_id":"ef2fe57e-ecba-4765-96d3-8349654ec56e","system_id":"levelo_inurba_marseille","lat":43.32943,"lon":5.36412,"is_reserved":false,"is_disabled":false,"rental_uris":{"android":"levelo://app?vid=ef2fe57e-ecba-4765-96d3-8349654ec56e","ios":"levelo://app?vid=ef2fe57e-ecba-4765-96d3-8349654ec56e"},"vehicle_type_id":"4","last_reported":1762632617,"current_range_meters":4400,"station_id":"","pricing_plan_id":"cebpf4jnsgd1na2vs0mg"},{"bike_id":"97d8b74c-b8bd-4280-a910-f03dbea975a5","system_id":"levelo_inurba_marseille","lat":43.28104,"lon":5.37835,"is_reserved":false,"is_disabled":false,"rental_uris":{"android":"levelo://app?vid=97d8b74c-b8bd-4280-a910-f03dbea975a5","ios":"levelo://app?vid=97d8b74c-b8bd-4280-a910-f03dbea975a5"},"vehicle_type_id":"4","last_reported":1762632617,"current_range_meters":4400,"station_id":"ce4bha12rcd13ifvqee0","pricing_plan_id":"cebpf4jnsgd1na2vs0mg"},{"bike_id":"fc2f15b2-9232-42d6-9f25-90be249b8662","system_id":"levelo_inurba_marseille","lat":43.30127,"lon":5.38774,"is_reserved":false,"is_disabled":false,"rental_uris":{"android":"levelo://app?vid=fc2f15b2-9232-42d6-9f25-90be249b8662","ios":"levelo://app?vid=fc2f15b2-9232-42d6-9f25-90be249b8662"},"vehicle_type_id":"4","last_reported":1762632617,"current_range_meters":4400,"station_id":"ce4bghh2rcd13ifvqb60","pricing_plan_id":"cebpf4jnsgd1na2vs0mg"},{"bike_id":"131f4db3-9c5a-4b46-beaf-9e3d47d35e64","system_id":"levelo_inurba_marseille","lat":43.290542,"lon":5.37541,"is_reserved":false,"is_disabled":false,"rental_uris":{"android":"levelo://app?vid=131f4db3-9c5a-4b46-beaf-9e3d47d35e64","ios":"levelo://app?vid=131f4db3-9c5a-4b46-beaf-9e3d47d35e64"},"vehicle_type_id":"4","last_reported":1762632617,"current_range_meters":4400,"station_id":"ce4bh692rcd13ifvqe90","pricing_plan_id":"cebpf4jnsgd1na2vs0mg"},{"bike_id":"d8266864-035c-40e1-a3cb-68da0dd18256","system_id":"levelo_inurba_marseille","lat":43.30241,"lon":5.40027,"is_reserved":false,"is_disabled":false,"rental_uris":{"android":"levelo://app?vid=d8266864-035c-40e1-a3cb-68da0dd18256","ios":"levelo://app?vid=d8266864-035c-40e1-a3cb-68da0dd18256"},"vehicle_type_id":"4","last_reported":1762632617,"current_range_meters":4400,"station_id":"ce4bgvh2rcd13ifvqcs0","pricing_plan_id":"cebpf4jnsgd1na2vs0mg"},{"bike_id":"4331cf2a-06b5-4d34-87f8-0ea06d41db9d","system_id":"levelo_inurba_marseille","lat":43.28107,"lon":5.37834,"is_reserved":false,"is_disabled":false,"rental_uris":{"android":"levelo://app?vid=4331cf2a-06b5-4d34-87f8-0ea06d41db9d","ios":"levelo://app?vid=4331cf2a-06b5-4d34-87f8-0ea06d41db9d"},"vehicle_type_id":"4","last_reported":1762632617,"current_range_meters":4400,"station_id":"ce4bha12rcd13ifvqee0","pricing_plan_id":"cebpf4jnsgd1na2vs0mg"},{"bike_id":"c95844ba-4f4b-4bf9-9a18-f56a2a006bff","system_id":"levelo_inurba_marseille","lat":43.29703,"lon":5.36609,"is_reserved":false,"is_disabled":false,"rental_uris":{"android":"levelo://app?vid=c95844ba-4f4b-4bf9-9a18-f56a2a006bff","ios":"levelo://app?vid=c95844ba-4f4b-4bf9-9a18-f56a2a006bff"},"vehicle_type_id":"4","last_reported":1762632617,"current_range_meters":4800,"station_id":"ce4bgn12rcd13ifvqbt0","pricing_plan_id":"cebpf4jnsgd1na2vs0mg"},{"bike_id":"b2b72baa-1fb7-4353-99e4-b94d38e7e143","system_id":"levelo_inurba_marseille","lat":43.29429,"lon":5.373856,"is_reserved":false,"is_disabled":false,"rental_uris":{"android":"levelo://app?vid=b2b72baa-1fb7-4353-99e4-b94d38e7e143","ios":"levelo://app?vid=b2b72baa-1fb7-4353-99e4-b94d38e7e143"},"vehicle_type_id":"4","last_reported":1762632617,"current_range_meters":4800,"station_id":"","pricing_plan_id":"cebpf4jnsgd1na2vs0mg"},{"bike_id":"e5387bed-1330-419a-bf00-a3d4728f86be","system_id":"levelo_inurba_marseille","lat":43.292999,"lon":5.371649,"is_reserved":false,"is_disabled":false,"rental_uris":{"android":"levelo://app?vid=e5387bed-1330-419a-bf00-a3d4728f86be","ios":"levelo://app?vid=e5387bed-1330-419a-bf00-a3d4728f86be"},"vehicle_type_id":"4","last_reported":1762632617,"current_range_meters":4800,"station_id":"","pricing_plan_id":"cebpf4jnsgd1na2vs0mg"},{"bike_id":"9bc27a93-0ed9-4d6f-91d9-6b66c3dd35ce","system_id":"levelo_inurba_marseille","lat":43.25118,"lon":5.40315,"is_reserved":false,"is_disabled":false,"rental_uris":{"android":"levelo://app?vid=9bc27a93-0ed9-4d6f-91d9-6b66c3dd35ce","ios":"levelo://app?vid=9bc27a93-0ed9-4d6f-91d9-6b66c3dd35ce"},"vehicle_type_id":"4","last_reported":1762632617,"current_range_meters":5600,"station_id":"ce4bhlh2rcd13ifvqgig","pricing_plan_id":"cebpf4jnsgd1na2vs0mg"},{"bike_id":"73e5d3cd-c140-4256-aa84-7faa4b9e37ac","system_id":"levelo_inurba_marseille","lat":43.28663,"lon":5.36345,"is_reserved":false,"is_disabled":false,"rental_uris":{"android":"levelo://app?vid=73e5d3cd-c140-4256-aa84-7faa4b9e37ac","ios":"levelo://app?vid=73e5d3cd-c140-4256-aa84-7faa4b9e37ac"},"vehicle_type_id":"4","last_reported":1762632617,"current_range_meters":5600,"station_id":"ce4bhah2rcd13ifvqej0","pricing_plan_id":"cebpf4jnsgd1na2vs0mg"},{"bike_id":"41ffd345-7bd1-4e40-a2e5-286f6a9a6cde","system_id":"levelo_inurba_marseille","lat":43.303,"lon":5.39216,"is_reserved":false,"is_disabled":false,"rental_uris":{"android":"levelo://app?vid=41ffd345-7bd1-4e40-a2e5-286f6a9a6cde","ios":"levelo://app?vid=41ffd345-7bd1-4e40-a2e5-286f6a9a6cde"},"vehicle_type_id":"4","last_reported":1762632617,"current_range_meters":5600,"station_id":"ce4bgkh2rcd13ifvqbk0","pricing_plan_id":"cebpf4jnsgd1na2vs0mg"},{"bike_id":"453544c8-c36c-4f75-a790-5c0405ae854f","system_id":"levelo_inurba_marseille","lat":43.259393,"lon":5.409017,"is_reserved":false,"is_disabled":false,"rental_uris":{"android":"levelo://app?vid=453544c8-c36c-4f75-a790-5c0405ae854f","ios":"levelo://app?vid=453544c8-c36c-4f75-a790-5c0405ae854f"},"vehicle_type_id":"4","last_reported":1762632617,"current_range_meters":5600,"station_id":"ce4bhm92rcd13ifvqglg","pricing_plan_id":"cebpf4jnsgd1na2vs0mg"},{"bike_id":"32fa44b7-ee72-495b-965a-2cf0bb7e4981","system_id":"levelo_inurba_marseille","lat":43.29813,"lon":5.386601,"is_reserved":false,"is_disabled":false,"rental_uris":{"android":"levelo://app?vid=32fa44b7-ee72-495b-965a-2cf0bb7e4981","ios":"levelo://app?vid=32fa44b7-ee72-495b-965a-2cf0bb7e4981"},"vehicle_type_id":"4","last_reported":1762632617,"current_range_meters":5600,"station_id":"","pricing_plan_id":"cebpf4jnsgd1na2vs0mg"},{"bike_id":"5d63f2aa-8446-4f1d-92da-1e2d5b4a6cc8","system_id":"levelo_inurba_marseille","lat":43.296642,"lon":5.377618,"is_reserved":false,"is_disabled":false,"rental_uris":{"android":"levelo://app?vid=5d63f2aa-8446-4f1d-92da-1e2d5b4a6cc8","ios":"levelo://app?vid=5d63f2aa-8446-4f1d-92da-1e2d5b4a6cc8"},"vehicle_type_id":"4","last_reported":1762632617,"current_range_meters":6000,"station_id":"","pricing_plan_id":"cebpf4jnsgd1na2vs0mg"},{"bike_id":"c687f5b8-73fc-4bba-bdba-8dae557f7ae6","system_id":"levelo_inurba_marseille","lat":43.27376,"lon":5.36248,"is_reserved":false,"is_disabled":true,"rental_uris":{"android":"levelo://app?vid=c687f5b8-73fc-4bba-bdba-8dae557f7ae6","ios":"levelo://app?vid=c687f5b8-73fc-4bba-bdba-8dae557f7ae6"},"vehicle_type_id":"4","last_reported":1762632617,"current_range_meters":6000,"station_id":"ce4bhbh2rcd13ifvqeo0","pricing_plan_id":"cebpf4jnsgd1na2vs0mg"},{"bike_id":"2f473437-a58e-4f4d-91ef-167dfa15a24d","system_id":"levelo_inurba_marseille","lat":43.2917,"lon":5.37144,"is_reserved":false,"is_disabled":false,"rental_uris":{"android":"levelo://app?vid=2f473437-a58e-4f4d-91ef-167dfa15a24d","ios":"levelo://app?vid=2f473437-a58e-4f4d-91ef-167dfa15a24d"},"vehicle_type_id":"4","last_reported":1762632617,"current_range_meters":6000,"station_id":"ce4bha92rcd13ifvqeh0","pricing_plan_id":"cebpf4jnsgd1na2vs0mg"},{"bike_id":"711b5184-06a1-46c6-b1ad-270408b914a4","system_id":"levelo_inurba_marseille","lat":43.300003,"lon":5.409815,"is_reserved":false,"is_disabled":false,"rental_uris":{"android":"levelo://app?vid=711b5184-06a1-46c6-b1ad-270408b914a4","ios":"levelo://app?vid=711b5184-06a1-46c6-b1ad-270408b914a4"},"vehicle_type_id":"4","last_reported":1762632617,"current_range_meters":6000,"station_id":"","pricing_plan_id":"cebpf4jnsgd1na2vs0mg"},{"bike_id":"a65207bc-17d1-4af5-b571-b36837bc11c9","system_id":"levelo_inurba_marseille","lat":43.25511,"lon":5.37651,"is_reserved":false,"is_disabled":false,"rental_uris":{"android":"levelo://app?vid=a65207bc-17d1-4af5-b571-b36837bc11c9","ios":"levelo://app?vid=a65207bc-17d1-4af5-b571-b36837bc11c9"},"vehicle_type_id":"4","last_reported":1762632617,"current_range_meters":6000,"station_id":"ce4bhh12rcd13ifvqff0","pricing_plan_id":"cebpf4jnsgd1na2vs0mg"},{"bike_id":"6580beb2-f281-473f-9ef4-7b331653ef2e","system_id":"levelo_inurba_marseille","lat":43.29124,"lon":5.40791,"is_reserved":false,"is_disabled":false,"rental_uris":{"android":"levelo://app?vid=6580beb2-f281-473f-9ef4-7b331653ef2e","ios":"levelo://app?vid=6580beb2-f281-473f-9ef4-7b331653ef2e"},"vehicle_type_id":"4","last_reported":1762632617,"current_range_meters":6000,"station_id":"","pricing_plan_id":"cebpf4jnsgd1na2vs0mg"},{"bike_id":"348bf609-07f6-4ffc-add0-6df7615d023f","system_id":"levelo_inurba_marseille","lat":43.337669,"lon":5.37438,"is_reserved":false,"is_disabled":false,"rental_uris":{"android":"levelo://app?vid=348bf609-07f6-4ffc-add0-6df7615d023f","ios":"levelo://app?vid=348bf609-07f6-4ffc-add0-6df7615d023f"},"vehicle_type_id":"4","last_reported":1762632617,"current_range_meters":6000,"station_id":"","pricing_plan_id":"cebpf4jnsgd1na2vs0mg"},{"bike_id":"a6dd93a9-6fe5-48e6-903f-48eccf76b19e","system_id":"levelo_inurba_marseille","lat":43.31706,"lon":5.40394,"is_reserved":false,"is_disabled":false,"rental_uris":{"android":"levelo://app?vid=a6dd93a9-6fe5-48e6-903f-48eccf76b19e","ios":"levelo://app?vid=a6dd93a9-6fe5-48e6-903f-48eccf76b19e"},"vehicle_type_id":"4","last_reported":1762632617,"current_range_meters":6400,"station_id":"","pricing_plan_id":"cebpf4jnsgd1na2vs0mg"},{"bike_id":"6672198c-cd15-49cf-9fdd-fb51d3af62a8","system_id":"levelo_inurba_marseille","lat":43.30788,"lon":5.38146,"is_reserved":false,"is_disabled":false,"rental_uris":{"android":"levelo://app?vid=6672198c-cd15-49cf-9fdd-fb51d3af62a8","ios":"levelo://app?vid=6672198c-cd15-49cf-9fdd-fb51d3af62a8"},"vehicle_type_id":"4","last_reported":1762632617,"current_range_meters":6400,"station_id":"ce4bgt12rcd13ifvqce0","pricing_plan_id":"cebpf4jnsgd1na2vs0mg"},{"bike_id":"1990bacd-ee48-437d-9908-4b528c5e73a2","system_id":"levelo_inurba_marseille","lat":43.33015,"lon":5.39039,"is_reserved":false,"is_disabled":false,"rental_uris":{"android":"levelo://app?vid=1990bacd-ee48-437d-9908-4b528c5e73a2","ios":"levelo://app?vid=1990bacd-ee48-437d-9908-4b528c5e73a2"},"vehicle_type_id":"4","last_reported":1762632617,"current_range_meters":6400,"station_id":"ce4bhr92rcd13ifvqhrg","pricing_plan_id":"cebpf4jnsgd1na2vs0mg"},{"bike_id":"b05048b6-3636-4628-97b9-678771374061","system_id":"levelo_inurba_marseille","lat":43.31521,"lon":5.37258,"is_reserved":false,"is_disabled":false,"rental_uris":{"android":"levelo://app?vid=b05048b6-3636-4628-97b9-678771374061","ios":"levelo://app?vid=b05048b6-3636-4628-97b9-678771374061"},"vehicle_type_id":"4","last_reported":1762632617,"current_range_meters":6400,"station_id":"","pricing_plan_id":"cebpf4jnsgd1na2vs0mg"},{"bike_id":"78bd5f74-b07f-4aac-b566-26ecec6fd5df","system_id":"levelo_inurba_marseille","lat":43.3067,"lon":5.38028,"is_reserved":false,"is_disabled":false,"rental_uris":{"android":"levelo://app?vid=78bd5f74-b07f-4aac-b566-26ecec6fd5df","ios":"levelo://app?vid=78bd5f74-b07f-4aac-b566-26ecec6fd5df"},"vehicle_type_id":"4","last_reported":1762632617,"current_range_meters":6400,"station_id":"","pricing_plan_id":"cebpf4jnsgd1na2vs0mg"},{"bike_id":"f6cef8d5-8fe8-4923-948c-afab7026b14f","system_id":"levelo_inurba_marseille","lat":43.29808,"lon":5.39327,"is_reserved":false,"is_disabled":false,"rental_uris":{"android":"levelo://app?vid=f6cef8d5-8fe8-4923-948c-afab7026b14f","ios":"levelo://app?vid=f6cef8d5-8fe8-4923-948c-afab7026b14f"},"vehicle_type_id":"4","last_reported":1762632617,"current_range_meters":6400,"station_id":"chh1huq6cuj3fo74tm60","pricing_plan_id":"cebpf4jnsgd1na2vs0mg"},{"bike_id":"c03bd52b-534b-4ae1-bb73-924e391fe2f5","system_id":"levelo_inurba_marseille","lat":43.25517,"lon":5.37654,"is_reserved":false,"is_disabled":true,"rental_uris":{"android":"levelo://app?vid=c03bd52b-534b-4ae1-bb73-924e391fe2f5","ios":"levelo://app?vid=c03bd52b-534b-4ae1-bb73-924e391fe2f5"},"vehicle_type_id":"4","last_reported":1762632617,"current_range_meters":6800,"station_id":"ce4bhh12rcd13ifvqff0","pricing_plan_id":"cebpf4jnsgd1na2vs0mg"},{"bike_id":"4cd9ad14-e2f9-4182-b003-bd450eb5502c","system_id":"levelo_inurba_marseille","lat":43.29303,"lon":5.371542,"is_reserved":false,"is_disabled":false,"rental_uris":{"android":"levelo://app?vid=4cd9ad14-e2f9-4182-b003-bd450eb5502c","ios":"levelo://app?vid=4cd9ad14-e2f9-4182-b003-bd450eb5502c"},"vehicle_type_id":"4","last_reported":1762632617,"current_range_meters":6800,"station_id":"ce4bgh92rcd13ifvqb40","pricing_plan_id":"cebpf4jnsgd1na2vs0mg"},{"bike_id":"16285194-395f-4a81-9ac4-d9bbea5afd9a","system_id":"levelo_inurba_marseille","lat":43.295746,"lon":5.36745,"is_reserved":false,"is_disabled":false,"rental_uris":{"android":"levelo://app?vid=16285194-395f-4a81-9ac4-d9bbea5afd9a","ios":"levelo://app?vid=16285194-395f-4a81-9ac4-d9bbea5afd9a"},"vehicle_type_id":"4","last_reported":1762632617,"current_range_meters":6800,"station_id":"ce4bgph2rcd13ifvqc2g","pricing_plan_id":"cebpf4jnsgd1na2vs0mg"},{"bike_id":"34c14480-831b-41a9-b30b-a1e8f994a110","system_id":"levelo_inurba_marseille","lat":43.30798,"lon":5.37075,"is_reserved":false,"is_disabled":false,"rental_uris":{"android":"levelo://app?vid=34c14480-831b-41a9-b30b-a1e8f994a110","ios":"levelo://app?vid=34c14480-831b-41a9-b30b-a1e8f994a110"},"vehicle_type_id":"4","last_reported":1762632617,"current_range_meters":6800,"station_id":"","pricing_plan_id":"cebpf4jnsgd1na2vs0mg"},{"bike_id":"c322023f-fce9-4eb1-a1de-f2fb13d580d4","system_id":"levelo_inurba_marseille","lat":43.28436,"lon":5.39207,"is_reserved":false,"is_disabled":false,"rental_uris":{"android":"levelo://app?vid=c322023f-fce9-4eb1-a1de-f2fb13d580d4","ios":"levelo://app?vid=c322023f-fce9-4eb1-a1de-f2fb13d580d4"},"vehicle_type_id":"4","last_reported":1762632617,"current_range_meters":6800,"station_id":"ce4bhoh2rcd13ifvqh5g","pricing_plan_id":"cebpf4jnsgd1na2vs0mg"},{"bike_id":"7c392732-2900-41fd-8c6d-e5b49cdf67b5","system_id":"levelo_inurba_marseille","lat":43.29707,"lon":5.38254,"is_reserved":false,"is_disabled":false,"rental_uris":{"android":"levelo://app?vid=7c392732-2900-41fd-8c6d-e5b49cdf67b5","ios":"levelo://app?vid=7c392732-2900-41fd-8c6d-e5b49cdf67b5"},"vehicle_type_id":"4","last_reported":1762632617,"current_range_meters":6800,"station_id":"","pricing_plan_id":"cebpf4jnsgd1na2vs0mg"},{"bike_id":"3498d813-b689-4e9f-92c0-54d9793d8bf1","system_id":"levelo_inurba_marseille","lat":43.30104,"lon":5.399,"is_reserved":false,"is_disabled":false,"rental_uris":{"android":"levelo://app?vid=3498d813-b689-4e9f-92c0-54d9793d8bf1","ios":"levelo://app?vid=3498d813-b689-4e9f-92c0-54d9793d8bf1"},"vehicle_type_id":"4","last_reported":1762632617,"current_range_meters":6800,"station_id":"ce4bh0h2rcd13ifvqd40","pricing_plan_id":"cebpf4jnsgd1na2vs0mg"},{"bike_id":"5bee8f0f-57fe-4257-a72a-04a4967570b5","system_id":"levelo_inurba_marseille","lat":43.300461,"lon":5.377091,"is_reserved":false,"is_disabled":false,"rental_uris":{"android":"levelo://app?vid=5bee8f0f-57fe-4257-a72a-04a4967570b5","ios":"levelo://app?vid=5bee8f0f-57fe-4257-a72a-04a4967570b5"},"vehicle_type_id":"4","last_reported":1762632617,"current_range_meters":6800,"station_id":"","pricing_plan_id":"cebpf4jnsgd1na2vs0mg"},{"bike_id":"925b5106-294c-46db-8c24-790139a4aa52","system_id":"levelo_inurba_marseille","lat":43.28419,"lon":5.349766,"is_reserved":false,"is_disabled":false,"rental_uris":{"android":"levelo://app?vid=925b5106-294c-46db-8c24-790139a4aa52","ios":"levelo://app?vid=925b5106-294c-46db-8c24-790139a4aa52"},"vehicle_type_id":"4","last_reported":1762632617,"current_range_meters":6800,"station_id":"ce4bgt12rcd13ifvqce0","pricing_plan_id":"cebpf4jnsgd1na2vs0mg"},{"bike_id":"1ce82261-36e6-445b-92a0-a503b04923cd","system_id":"levelo_inurba_marseille","lat":43.29633,"lon":5.40595,"is_reserved":false,"is_disabled":false,"rental_uris":{"android":"levelo://app?vid=1ce82261-36e6-445b-92a0-a503b04923cd","ios":"levelo://app?vid=1ce82261-36e6-445b-92a0-a503b04923cd"},"vehicle_type_id":"4","last_reported":1762632617,"current_range_meters":7200,"station_id":"ce4bh0h2rcd13ifvqd60","pricing_plan_id":"cebpf4jnsgd1na2vs0mg"},{"bike_id":"704b3d71-9047-4f21-a056-7c7f4e839bda","system_id":"levelo_inurba_marseille","lat":43.29966,"lon":5.38504,"is_reserved":false,"is_disabled":false,"rental_uris":{"android":"levelo://app?vid=704b3d71-9047-4f21-a056-7c7f4e839bda","ios":"levelo://app?vid=704b3d71-9047-4f21-a056-7c7f4e839bda"},"vehicle_type_id":"4","last_reported":1762632617,"current_range_meters":7200,"station_id":"ce4bgj92rcd13ifvqbd0","pricing_plan_id":"cebpf4jnsgd1na2vs0mg"},{"bike_id":"beaf2410-a737-4e83-a918-f57216402952","system_id":"levelo_inurba_marseille","lat":43.30374,"lon":5.42483,"is_reserved":false,"is_disabled":false,"rental_uris":{"android":"levelo://app?vid=beaf2410-a737-4e83-a918-f57216402952","ios":"levelo://app?vid=beaf2410-a737-4e83-a918-f57216402952"},"vehicle_type_id":"4","last_reported":1762632617,"current_range_meters":7200,"station_id":"ce4bhoh2rcd13ifvqh6g","pricing_plan_id":"cebpf4jnsgd1na2vs0mg"},{"bike_id":"a0ea519d-554f-42a0-93a3-d4c181552c78","system_id":"levelo_inurba_marseille","lat":43.31275,"lon":5.37766,"is_reserved":false,"is_disabled":false,"rental_uris":{"android":"levelo://app?vid=a0ea519d-554f-42a0-93a3-d4c181552c78","ios":"levelo://app?vid=a0ea519d-554f-42a0-93a3-d4c181552c78"},"vehicle_type_id":"4","last_reported":1762632617,"current_range_meters":7200,"station_id":"","pricing_plan_id":"cebpf4jnsgd1na2vs0mg"},{"bike_id":"3822be5d-87ff-48fe-aef8-9c3de911ee69","system_id":"levelo_inurba_marseille","lat":43.29085,"lon":5.38112,"is_reserved":false,"is_disabled":false,"rental_uris":{"android":"levelo://app?vid=3822be5d-87ff-48fe-aef8-9c3de911ee69","ios":"levelo://app?vid=3822be5d-87ff-48fe-aef8-9c3de911ee69"},"vehicle_type_id":"4","last_reported":1762632617,"current_range_meters":7200,"station_id":"ce4bh512rcd13ifvqe2g","pricing_plan_id":"cebpf4jnsgd1na2vs0mg"},{"bike_id":"3df1ea74-4323-4495-adf2-6ebb2ea74981","system_id":"levelo_inurba_marseille","lat":43.28106,"lon":5.37832,"is_reserved":false,"is_disabled":false,"rental_uris":{"android":"levelo://app?vid=3df1ea74-4323-4495-adf2-6ebb2ea74981","ios":"levelo://app?vid=3df1ea74-4323-4495-adf2-6ebb2ea74981"},"vehicle_type_id":"4","last_reported":1762632617,"current_range_meters":7200,"station_id":"ce4bha12rcd13ifvqee0","pricing_plan_id":"cebpf4jnsgd1na2vs0mg"},{"bike_id":"ba3f273c-46d0-4372-847f-7f6d7842be8b","system_id":"levelo_inurba_marseille","lat":43.282593,"lon":5.350579,"is_reserved":false,"is_disabled":false,"rental_uris":{"android":"levelo://app?vid=ba3f273c-46d0-4372-847f-7f6d7842be8b","ios":"levelo://app?vid=ba3f273c-46d0-4372-847f-7f6d7842be8b"},"vehicle_type_id":"4","last_reported":1762632617,"current_range_meters":8000,"station_id":"ce4bhbp2rcd13ifvqerg","pricing_plan_id":"cebpf4jnsgd1na2vs0mg"},{"bike_id":"030271d1-25f7-40fa-bc04-dd21448cbb54","system_id":"levelo_inurba_marseille","lat":43.246292,"lon":5.431668,"is_reserved":false,"is_disabled":false,"rental_uris":{"android":"levelo://app?vid=030271d1-25f7-40fa-bc04-dd21448cbb54","ios":"levelo://app?vid=030271d1-25f7-40fa-bc04-dd21448cbb54"},"vehicle_type_id":"4","last_reported":1762632617,"current_range_meters":8000,"station_id":"st_d2m6c4gdas8pm72e190g","pricing_plan_id":"cebpf4jnsgd1na2vs0mg"},{"bike_id":"5c17ed12-8897-4f84-bbfc-85419a7f8038","system_id":"levelo_inurba_marseille","lat":43.270936,"lon":5.394339,"is_reserved":false,"is_disabled":false,"rental_uris":{"android":"levelo://app?vid=5c17ed12-8897-4f84-bbfc-85419a7f8038","ios":"levelo://app?vid=5c17ed12-8897-4f84-bbfc-85419a7f8038"},"vehicle_type_id":"4","last_reported":1762632617,"current_range_meters":8000,"station_id":"","pricing_plan_id":"cebpf4jnsgd1na2vs0mg"},{"bike_id":"e7adb5bd-5e64-4dae-ae05-1f81f2ce1176","system_id":"levelo_inurba_marseille","lat":43.30132,"lon":5.38778,"is_reserved":false,"is_disabled":false,"rental_uris":{"android":"levelo://app?vid=e7adb5bd-5e64-4dae-ae05-1f81f2ce1176","ios":"levelo://app?vid=e7adb5bd-5e64-4dae-ae05-1f81f2ce1176"},"vehicle_type_id":"4","last_reported":1762632617,"current_range_meters":8000,"station_id":"ce4bghh2rcd13ifvqb60","pricing_plan_id":"cebpf4jnsgd1na2vs0mg"},{"bike_id":"0ac60d38-3a22-46c4-84de-8c7c264a94f1","system_id":"levelo_inurba_marseille","lat":43.25333,"lon":5.42172,"is_reserved":false,"is_disabled":false,"rental_uris":{"android":"levelo://app?vid=0ac60d38-3a22-46c4-84de-8c7c264a94f1","ios":"levelo://app?vid=0ac60d38-3a22-46c4-84de-8c7c264a94f1"},"vehicle_type_id":"4","last_reported":1762632617,"current_range_meters":8000,"station_id":"st_d2m65c5bi1j21697t3ng","pricing_plan_id":"cebpf4jnsgd1na2vs0mg"},{"bike_id":"5eee5a29-c652-47f2-a842-6e90b65d4c46","system_id":"levelo_inurba_marseille","lat":43.29244,"lon":5.38424,"is_reserved":false,"is_disabled":false,"rental_uris":{"android":"levelo://app?vid=5eee5a29-c652-47f2-a842-6e90b65d4c46","ios":"levelo://app?vid=5eee5a29-c652-47f2-a842-6e90b65d4c46"},"vehicle_type_id":"4","last_reported":1762632617,"current_range_meters":8000,"station_id":"ce4bh692rcd13ifvqea0","pricing_plan_id":"cebpf4jnsgd1na2vs0mg"},{"bike_id":"2bda9569-8855-4749-9a29-a9c55ba153ed","system_id":"levelo_inurba_marseille","lat":43.22549,"lon":5.41636,"is_reserved":false,"is_disabled":false,"rental_uris":{"android":"levelo://app?vid=2bda9569-8855-4749-9a29-a9c55ba153ed","ios":"levelo://app?vid=2bda9569-8855-4749-9a29-a9c55ba153ed"},"vehicle_type_id":"4","last_reported":1762632617,"current_range_meters":8000,"station_id":"st_d2o4gvlbi1j2169b742g","pricing_plan_id":"cebpf4jnsgd1na2vs0mg"},{"bike_id":"eb46c66d-5104-4495-80f5-a25d45718f4c","system_id":"levelo_inurba_marseille","lat":43.30369,"lon":5.42488,"is_reserved":false,"is_disabled":false,"rental_uris":{"android":"levelo://app?vid=eb46c66d-5104-4495-80f5-a25d45718f4c","ios":"levelo://app?vid=eb46c66d-5104-4495-80f5-a25d45718f4c"},"vehicle_type_id":"4","last_reported":1762632617,"current_range_meters":8000,"station_id":"ce4bhoh2rcd13ifvqh6g","pricing_plan_id":"cebpf4jnsgd1na2vs0mg"},{"bike_id":"25ea1a81-a64d-4e52-93c6-642383ef62b6","system_id":"levelo_inurba_marseille","lat":43.3123,"lon":5.36844,"is_reserved":false,"is_disabled":false,"rental_uris":{"android":"levelo://app?vid=25ea1a81-a64d-4e52-93c6-642383ef62b6","ios":"levelo://app?vid=25ea1a81-a64d-4e52-93c6-642383ef62b6"},"vehicle_type_id":"4","last_reported":1762632617,"current_range_meters":8000,"station_id":"ce4bgl92rcd13ifvqbq0","pricing_plan_id":"cebpf4jnsgd1na2vs0mg"},{"bike_id":"53e49877-9707-4e69-b40e-a696d9ee772a","system_id":"levelo_inurba_marseille","lat":43.292615,"lon":5.384445,"is_reserved":false,"is_disabled":false,"rental_uris":{"android":"levelo://app?vid=53e49877-9707-4e69-b40e-a696d9ee772a","ios":"levelo://app?vid=53e49877-9707-4e69-b40e-a696d9ee772a"},"vehicle_type_id":"4","last_reported":1762632617,"current_range_meters":8000,"station_id":"ce4bh692rcd13ifvqea0","pricing_plan_id":"cebpf4jnsgd1na2vs0mg"},{"bike_id":"46748178-17b8-4dc8-80b3-39159ff743e0","system_id":"levelo_inurba_marseille","lat":43.300507,"lon":5.383208,"is_reserved":false,"is_disabled":false,"rental_uris":{"android":"levelo://app?vid=46748178-17b8-4dc8-80b3-39159ff743e0","ios":"levelo://app?vid=46748178-17b8-4dc8-80b3-39159ff743e0"},"vehicle_type_id":"4","last_reported":1762632617,"current_range_meters":8000,"station_id":"","pricing_plan_id":"cebpf4jnsgd1na2vs0mg"},{"bike_id":"1838733c-6ff3-4df1-99be-4e3eb44bd3a0","system_id":"levelo_inurba_marseille","lat":43.25338,"lon":5.42172,"is_reserved":false,"is_disabled":false,"rental_uris":{"android":"levelo://app?vid=1838733c-6ff3-4df1-99be-4e3eb44bd3a0","ios":"levelo://app?vid=1838733c-6ff3-4df1-99be-4e3eb44bd3a0"},"vehicle_type_id":"4","last_reported":1762632617,"current_range_meters":8000,"station_id":"st_d2m65c5bi1j21697t3ng","pricing_plan_id":"cebpf4jnsgd1na2vs0mg"},{"bike_id":"a4a3ceb9-a4d6-4af3-96d3-c2c6ad55fe50","system_id":"levelo_inurba_marseille","lat":43.30131,"lon":5.38774,"is_reserved":false,"is_disabled":false,"rental_uris":{"android":"levelo://app?vid=a4a3ceb9-a4d6-4af3-96d3-c2c6ad55fe50","ios":"levelo://app?vid=a4a3ceb9-a4d6-4af3-96d3-c2c6ad55fe50"},"vehicle_type_id":"4","last_reported":1762632617,"current_range_meters":8000,"station_id":"ce4bghh2rcd13ifvqb60","pricing_plan_id":"cebpf4jnsgd1na2vs0mg"},{"bike_id":"c11f70de-6fc9-4310-8b9a-45c2b16b383c","system_id":"levelo_inurba_marseille","lat":43.279,"lon":5.37994,"is_reserved":false,"is_disabled":false,"rental_uris":{"android":"levelo://app?vid=c11f70de-6fc9-4310-8b9a-45c2b16b383c","ios":"levelo://app?vid=c11f70de-6fc9-4310-8b9a-45c2b16b383c"},"vehicle_type_id":"4","last_reported":1762632617,"current_range_meters":8400,"station_id":"ce4bhf92rcd13ifvqf50","pricing_plan_id":"cebpf4jnsgd1na2vs0mg"},{"bike_id":"d8a2f5eb-2b59-4e98-8f97-81551455f54b","system_id":"levelo_inurba_marseille","lat":43.29603,"lon":5.38092,"is_reserved":false,"is_disabled":false,"rental_uris":{"android":"levelo://app?vid=d8a2f5eb-2b59-4e98-8f97-81551455f54b","ios":"levelo://app?vid=d8a2f5eb-2b59-4e98-8f97-81551455f54b"},"vehicle_type_id":"4","last_reported":1762632617,"current_range_meters":8400,"station_id":"ce4bgl12rcd13ifvqbo0","pricing_plan_id":"cebpf4jnsgd1na2vs0mg"},{"bike_id":"74b65221-debd-4ea0-aef3-c1ab8067f490","system_id":"levelo_inurba_marseille","lat":43.30728,"lon":5.42438,"is_reserved":false,"is_disabled":false,"rental_uris":{"android":"levelo://app?vid=74b65221-debd-4ea0-aef3-c1ab8067f490","ios":"levelo://app?vid=74b65221-debd-4ea0-aef3-c1ab8067f490"},"vehicle_type_id":"4","last_reported":1762632617,"current_range_meters":8400,"station_id":"st_cvj6ca6bvosntc0bfgr0","pricing_plan_id":"cebpf4jnsgd1na2vs0mg"},{"bike_id":"6894af30-e2cb-4a66-ab62-0d10a5c21383","system_id":"levelo_inurba_marseille","lat":43.29258,"lon":5.38427,"is_reserved":false,"is_disabled":false,"rental_uris":{"android":"levelo://app?vid=6894af30-e2cb-4a66-ab62-0d10a5c21383","ios":"levelo://app?vid=6894af30-e2cb-4a66-ab62-0d10a5c21383"},"vehicle_type_id":"4","last_reported":1762632617,"current_range_meters":8400,"station_id":"ce4bh692rcd13ifvqea0","pricing_plan_id":"cebpf4jnsgd1na2vs0mg"},{"bike_id":"2bb3d8ca-2936-4c0b-9f17-889f7f560b23","system_id":"levelo_inurba_marseille","lat":43.2926,"lon":5.38437,"is_reserved":false,"is_disabled":false,"rental_uris":{"android":"levelo://app?vid=2bb3d8ca-2936-4c0b-9f17-889f7f560b23","ios":"levelo://app?vid=2bb3d8ca-2936-4c0b-9f17-889f7f560b23"},"vehicle_type_id":"4","last_reported":1762632617,"current_range_meters":8400,"station_id":"ce4bh692rcd13ifvqea0","pricing_plan_id":"cebpf4jnsgd1na2vs0mg"},{"bike_id":"310115a0-7bf2-4a4a-9d53-56bf6918e4d0","system_id":"levelo_inurba_marseille","lat":43.28481,"lon":5.48385,"is_reserved":false,"is_disabled":false,"rental_uris":{"android":"levelo://app?vid=310115a0-7bf2-4a4a-9d53-56bf6918e4d0","ios":"levelo://app?vid=310115a0-7bf2-4a4a-9d53-56bf6918e4d0"},"vehicle_type_id":"4","last_reported":1762632617,"current_range_meters":8800,"station_id":"st_d3svhcjqgbts73a3dn0g","pricing_plan_id":"cebpf4jnsgd1na2vs0mg"},{"bike_id":"897548e0-868e-4112-a813-ed4180c87100","system_id":"levelo_inurba_marseille","lat":43.29041,"lon":5.38664,"is_reserved":false,"is_disabled":false,"rental_uris":{"android":"levelo://app?vid=897548e0-868e-4112-a813-ed4180c87100","ios":"levelo://app?vid=897548e0-868e-4112-a813-ed4180c87100"},"vehicle_type_id":"4","last_reported":1762632617,"current_range_meters":8800,"station_id":"ce4bh4p2rcd13ifvqe0g","pricing_plan_id":"cebpf4jnsgd1na2vs0mg"},{"bike_id":"c215e911-a285-4450-b226-f42659a1303f","system_id":"levelo_inurba_marseille","lat":43.30948,"lon":5.3905,"is_reserved":false,"is_disabled":false,"rental_uris":{"android":"levelo://app?vid=c215e911-a285-4450-b226-f42659a1303f","ios":"levelo://app?vid=c215e911-a285-4450-b226-f42659a1303f"},"vehicle_type_id":"4","last_reported":1762632617,"current_range_meters":8800,"station_id":"ce4bgup2rcd13ifvqco0","pricing_plan_id":"cebpf4jnsgd1na2vs0mg"},{"bike_id":"ec64a3c4-58fe-432f-84d2-247ea6e2f5b5","system_id":"levelo_inurba_marseille","lat":43.28461,"lon":5.3589,"is_reserved":false,"is_disabled":false,"rental_uris":{"android":"levelo://app?vid=ec64a3c4-58fe-432f-84d2-247ea6e2f5b5","ios":"levelo://app?vid=ec64a3c4-58fe-432f-84d2-247ea6e2f5b5"},"vehicle_type_id":"4","last_reported":1762632617,"current_range_meters":8800,"station_id":"ce4bhah2rcd13ifvqei0","pricing_plan_id":"cebpf4jnsgd1na2vs0mg"},{"bike_id":"9af0687b-3e79-4e11-b844-dd239618aeba","system_id":"levelo_inurba_marseille","lat":43.28894,"lon":5.42489,"is_reserved":false,"is_disabled":false,"rental_uris":{"android":"levelo://app?vid=9af0687b-3e79-4e11-b844-dd239618aeba","ios":"levelo://app?vid=9af0687b-3e79-4e11-b844-dd239618aeba"},"vehicle_type_id":"4","last_reported":1762632617,"current_range_meters":8800,"station_id":"st_d3b462108ojc7389ooeg","pricing_plan_id":"cebpf4jnsgd1na2vs0mg"},{"bike_id":"867c0c09-f532-4f7a-a364-02e4c7f2da9f","system_id":"levelo_inurba_marseille","lat":43.29785,"lon":5.3934,"is_reserved":false,"is_disabled":false,"rental_uris":{"android":"levelo://app?vid=867c0c09-f532-4f7a-a364-02e4c7f2da9f","ios":"levelo://app?vid=867c0c09-f532-4f7a-a364-02e4c7f2da9f"},"vehicle_type_id":"4","last_reported":1762632617,"current_range_meters":8800,"station_id":"chh1huq6cuj3fo74tm60","pricing_plan_id":"cebpf4jnsgd1na2vs0mg"},{"bike_id":"bad93078-b484-4873-a1ce-359b2e630abc","system_id":"levelo_inurba_marseille","lat":43.293674,"lon":5.384353,"is_reserved":false,"is_disabled":false,"rental_uris":{"android":"levelo://app?vid=bad93078-b484-4873-a1ce-359b2e630abc","ios":"levelo://app?vid=bad93078-b484-4873-a1ce-359b2e630abc"},"vehicle_type_id":"4","last_reported":1762632617,"current_range_meters":8800,"station_id":"","pricing_plan_id":"cebpf4jnsgd1na2vs0mg"},{"bike_id":"e3811ac1-c4ae-4b42-bfc1-7881f77156d6","system_id":"levelo_inurba_marseille","lat":43.309068,"lon":5.368533,"is_reserved":false,"is_disabled":false,"rental_uris":{"android":"levelo://app?vid=e3811ac1-c4ae-4b42-bfc1-7881f77156d6","ios":"levelo://app?vid=e3811ac1-c4ae-4b42-bfc1-7881f77156d6"},"vehicle_type_id":"4","last_reported":1762632617,"current_range_meters":8800,"station_id":"ce4bgn92rcd13ifvqbvg","pricing_plan_id":"cebpf4jnsgd1na2vs0mg"},{"bike_id":"8c6f35b4-daef-49ed-9377-e91db1a344d6","system_id":"levelo_inurba_marseille","lat":43.29707,"lon":5.36606,"is_reserved":false,"is_disabled":false,"rental_uris":{"android":"levelo://app?vid=8c6f35b4-daef-49ed-9377-e91db1a344d6","ios":"levelo://app?vid=8c6f35b4-daef-49ed-9377-e91db1a344d6"},"vehicle_type_id":"4","last_reported":1762632617,"current_range_meters":8800,"station_id":"ce4bgn12rcd13ifvqbt0","pricing_plan_id":"cebpf4jnsgd1na2vs0mg"},{"bike_id":"be69c1df-3bde-42ad-bafe-ca509ca1d99c","system_id":"levelo_inurba_marseille","lat":43.28459,"lon":5.35889,"is_reserved":false,"is_disabled":false,"rental_uris":{"android":"levelo://app?vid=be69c1df-3bde-42ad-bafe-ca509ca1d99c","ios":"levelo://app?vid=be69c1df-3bde-42ad-bafe-ca509ca1d99c"},"vehicle_type_id":"4","last_reported":1762632617,"current_range_meters":8800,"station_id":"ce4bhah2rcd13ifvqei0","pricing_plan_id":"cebpf4jnsgd1na2vs0mg"},{"bike_id":"a1b1a497-297a-4b05-9a22-2ce6bc9d32e7","system_id":"levelo_inurba_marseille","lat":43.31323,"lon":5.39686,"is_reserved":false,"is_disabled":false,"rental_uris":{"android":"levelo://app?vid=a1b1a497-297a-4b05-9a22-2ce6bc9d32e7","ios":"levelo://app?vid=a1b1a497-297a-4b05-9a22-2ce6bc9d32e7"},"vehicle_type_id":"4","last_reported":1762632617,"current_range_meters":8800,"station_id":"ce4bgvp2rcd13ifvqcu0","pricing_plan_id":"cebpf4jnsgd1na2vs0mg"},{"bike_id":"d13f7aac-3326-47eb-8c83-0485dd333747","system_id":"levelo_inurba_marseille","lat":43.30479,"lon":5.39249,"is_reserved":false,"is_disabled":false,"rental_uris":{"android":"levelo://app?vid=d13f7aac-3326-47eb-8c83-0485dd333747","ios":"levelo://app?vid=d13f7aac-3326-47eb-8c83-0485dd333747"},"vehicle_type_id":"4","last_reported":1762632617,"current_range_meters":8800,"station_id":"","pricing_plan_id":"cebpf4jnsgd1na2vs0mg"},{"bike_id":"26aad628-bd01-4664-890e-ba85447bad9f","system_id":"levelo_inurba_marseille","lat":43.303332,"lon":5.40429,"is_reserved":false,"is_disabled":true,"rental_uris":{"android":"levelo://app?vid=26aad628-bd01-4664-890e-ba85447bad9f","ios":"levelo://app?vid=26aad628-bd01-4664-890e-ba85447bad9f"},"vehicle_type_id":"4","last_reported":1762632617,"current_range_meters":9200,"station_id":"ce4bh012rcd13ifvqd10","pricing_plan_id":"cebpf4jnsgd1na2vs0mg"},{"bike_id":"18326747-a8de-451c-b636-a97a48ef86ca","system_id":"levelo_inurba_marseille","lat":43.28455,"lon":5.35889,"is_reserved":false,"is_disabled":false,"rental_uris":{"android":"levelo://app?vid=18326747-a8de-451c-b636-a97a48ef86ca","ios":"levelo://app?vid=18326747-a8de-451c-b636-a97a48ef86ca"},"vehicle_type_id":"4","last_reported":1762632617,"current_range_meters":9200,"station_id":"ce4bhah2rcd13ifvqei0","pricing_plan_id":"cebpf4jnsgd1na2vs0mg"},{"bike_id":"588ef005-1544-4fc0-b701-e6df180bc2ef","system_id":"levelo_inurba_marseille","lat":43.29258,"lon":5.38436,"is_reserved":false,"is_disabled":false,"rental_uris":{"android":"levelo://app?vid=588ef005-1544-4fc0-b701-e6df180bc2ef","ios":"levelo://app?vid=588ef005-1544-4fc0-b701-e6df180bc2ef"},"vehicle_type_id":"4","last_reported":1762632617,"current_range_meters":9200,"station_id":"ce4bh692rcd13ifvqea0","pricing_plan_id":"cebpf4jnsgd1na2vs0mg"},{"bike_id":"d5ed57e9-8dae-4683-836b-cd63d0512338","system_id":"levelo_inurba_marseille","lat":43.27173,"lon":5.40993,"is_reserved":false,"is_disabled":false,"rental_uris":{"android":"levelo://app?vid=d5ed57e9-8dae-4683-836b-cd63d0512338","ios":"levelo://app?vid=d5ed57e9-8dae-4683-836b-cd63d0512338"},"vehicle_type_id":"4","last_reported":1762632617,"current_range_meters":9200,"station_id":"ce4bhl12rcd13ifvqgf0","pricing_plan_id":"cebpf4jnsgd1na2vs0mg"},{"bike_id":"9d001bd6-2c50-4fe0-987b-f4c0aee9f670","system_id":"levelo_inurba_marseille","lat":43.30148,"lon":5.38425,"is_reserved":false,"is_disabled":false,"rental_uris":{"android":"levelo://app?vid=9d001bd6-2c50-4fe0-987b-f4c0aee9f670","ios":"levelo://app?vid=9d001bd6-2c50-4fe0-987b-f4c0aee9f670"},"vehicle_type_id":"4","last_reported":1762632617,"current_range_meters":9200,"station_id":"","pricing_plan_id":"cebpf4jnsgd1na2vs0mg"},{"bike_id":"95565d88-4e0c-4b5d-b6d1-9a4c73bcb1f1","system_id":"levelo_inurba_marseille","lat":43.337651,"lon":5.374281,"is_reserved":false,"is_disabled":false,"rental_uris":{"android":"levelo://app?vid=95565d88-4e0c-4b5d-b6d1-9a4c73bcb1f1","ios":"levelo://app?vid=95565d88-4e0c-4b5d-b6d1-9a4c73bcb1f1"},"vehicle_type_id":"4","last_reported":1762632617,"current_range_meters":9200,"station_id":"","pricing_plan_id":"cebpf4jnsgd1na2vs0mg"},{"bike_id":"b05d1bfc-9d5f-4d13-a72d-e46791ddf9b7","system_id":"levelo_inurba_marseille","lat":43.292625,"lon":5.384315,"is_reserved":false,"is_disabled":false,"rental_uris":{"android":"levelo://app?vid=b05d1bfc-9d5f-4d13-a72d-e46791ddf9b7","ios":"levelo://app?vid=b05d1bfc-9d5f-4d13-a72d-e46791ddf9b7"},"vehicle_type_id":"4","last_reported":1762632617,"current_range_meters":9600,"station_id":"ce4bh692rcd13ifvqea0","pricing_plan_id":"cebpf4jnsgd1na2vs0mg"},{"bike_id":"222d2b73-5af6-4cef-b962-c7f459251f78","system_id":"levelo_inurba_marseille","lat":43.295305,"lon":5.385399,"is_reserved":false,"is_disabled":false,"rental_uris":{"android":"levelo://app?vid=222d2b73-5af6-4cef-b962-c7f459251f78","ios":"levelo://app?vid=222d2b73-5af6-4cef-b962-c7f459251f78"},"vehicle_type_id":"4","last_reported":1762632617,"current_range_meters":9600,"station_id":"ce4bgih2rcd13ifvqba0","pricing_plan_id":"cebpf4jnsgd1na2vs0mg"},{"bike_id":"c81d0c0e-28d7-4d6e-a85b-d5314970f92f","system_id":"levelo_inurba_marseille","lat":43.29174,"lon":5.37144,"is_reserved":false,"is_disabled":false,"rental_uris":{"android":"levelo://app?vid=c81d0c0e-28d7-4d6e-a85b-d5314970f92f","ios":"levelo://app?vid=c81d0c0e-28d7-4d6e-a85b-d5314970f92f"},"vehicle_type_id":"4","last_reported":1762632617,"current_range_meters":9600,"station_id":"ce4bha92rcd13ifvqeh0","pricing_plan_id":"cebpf4jnsgd1na2vs0mg"},{"bike_id":"6e82fe2d-a3e7-4e5a-bba9-e19bcc786ac0","system_id":"levelo_inurba_marseille","lat":43.282623,"lon":5.350554,"is_reserved":false,"is_disabled":false,"rental_uris":{"android":"levelo://app?vid=6e82fe2d-a3e7-4e5a-bba9-e19bcc786ac0","ios":"levelo://app?vid=6e82fe2d-a3e7-4e5a-bba9-e19bcc786ac0"},"vehicle_type_id":"4","last_reported":1762632617,"current_range_meters":9600,"station_id":"ce4bhbp2rcd13ifvqerg","pricing_plan_id":"cebpf4jnsgd1na2vs0mg"},{"bike_id":"b42271b8-25db-43c2-afc4-45bdd783a838","system_id":"levelo_inurba_marseille","lat":43.24812,"lon":5.3746,"is_reserved":false,"is_disabled":false,"rental_uris":{"android":"levelo://app?vid=b42271b8-25db-43c2-afc4-45bdd783a838","ios":"levelo://app?vid=b42271b8-25db-43c2-afc4-45bdd783a838"},"vehicle_type_id":"4","last_reported":1762632617,"current_range_meters":9600,"station_id":"ce4bhgh2rcd13ifvqfb0","pricing_plan_id":"cebpf4jnsgd1na2vs0mg"},{"bike_id":"f44dedc3-0879-499a-8db2-8d234a76605b","system_id":"levelo_inurba_marseille","lat":43.29296,"lon":5.37147,"is_reserved":false,"is_disabled":false,"rental_uris":{"android":"levelo://app?vid=f44dedc3-0879-499a-8db2-8d234a76605b","ios":"levelo://app?vid=f44dedc3-0879-499a-8db2-8d234a76605b"},"vehicle_type_id":"4","last_reported":1762632617,"current_range_meters":9600,"station_id":"ce4bgh92rcd13ifvqb40","pricing_plan_id":"cebpf4jnsgd1na2vs0mg"},{"bike_id":"c0969de0-74b0-4b5a-9248-b43b0ee3e19e","system_id":"levelo_inurba_marseille","lat":43.24907,"lon":5.37653,"is_reserved":false,"is_disabled":false,"rental_uris":{"android":"levelo://app?vid=c0969de0-74b0-4b5a-9248-b43b0ee3e19e","ios":"levelo://app?vid=c0969de0-74b0-4b5a-9248-b43b0ee3e19e"},"vehicle_type_id":"4","last_reported":1762632617,"current_range_meters":9600,"station_id":"","pricing_plan_id":"cebpf4jnsgd1na2vs0mg"},{"bike_id":"b81b003d-dcc6-471b-a04e-772bd3ea1a80","system_id":"levelo_inurba_marseille","lat":43.295298,"lon":5.385457,"is_reserved":false,"is_disabled":false,"rental_uris":{"android":"levelo://app?vid=b81b003d-dcc6-471b-a04e-772bd3ea1a80","ios":"levelo://app?vid=b81b003d-dcc6-471b-a04e-772bd3ea1a80"},"vehicle_type_id":"4","last_reported":1762632617,"current_range_meters":9600,"station_id":"ce4bgih2rcd13ifvqba0","pricing_plan_id":"cebpf4jnsgd1na2vs0mg"},{"bike_id":"b98c59d1-12c0-4a03-b198-cf728a9bdad0","system_id":"levelo_inurba_marseille","lat":43.29322,"lon":5.37155,"is_reserved":false,"is_disabled":false,"rental_uris":{"android":"levelo://app?vid=b98c59d1-12c0-4a03-b198-cf728a9bdad0","ios":"levelo://app?vid=b98c59d1-12c0-4a03-b198-cf728a9bdad0"},"vehicle_type_id":"4","last_reported":1762632617,"current_range_meters":10000,"station_id":"","pricing_plan_id":"cebpf4jnsgd1na2vs0mg"},{"bike_id":"92aeb7aa-3483-4d2e-a94c-9e7847858d72","system_id":"levelo_inurba_marseille","lat":43.29253,"lon":5.38448,"is_reserved":false,"is_disabled":false,"rental_uris":{"android":"levelo://app?vid=92aeb7aa-3483-4d2e-a94c-9e7847858d72","ios":"levelo://app?vid=92aeb7aa-3483-4d2e-a94c-9e7847858d72"},"vehicle_type_id":"4","last_reported":1762632617,"current_range_meters":10000,"station_id":"ce4bh692rcd13ifvqea0","pricing_plan_id":"cebpf4jnsgd1na2vs0mg"},{"bike_id":"3112f426-36c7-4d9d-9113-fb9975a1c4ab","system_id":"levelo_inurba_marseille","lat":43.30432,"lon":5.38891,"is_reserved":false,"is_disabled":false,"rental_uris":{"android":"levelo://app?vid=3112f426-36c7-4d9d-9113-fb9975a1c4ab","ios":"levelo://app?vid=3112f426-36c7-4d9d-9113-fb9975a1c4ab"},"vehicle_type_id":"4","last_reported":1762632617,"current_range_meters":10000,"station_id":"ce4bgk12rcd13ifvqbi0","pricing_plan_id":"cebpf4jnsgd1na2vs0mg"},{"bike_id":"72450100-b75f-4c3c-9938-4999d8b3dc13","system_id":"levelo_inurba_marseille","lat":43.2811,"lon":5.37828,"is_reserved":false,"is_disabled":false,"rental_uris":{"android":"levelo://app?vid=72450100-b75f-4c3c-9938-4999d8b3dc13","ios":"levelo://app?vid=72450100-b75f-4c3c-9938-4999d8b3dc13"},"vehicle_type_id":"4","last_reported":1762632617,"current_range_meters":10000,"station_id":"ce4bha12rcd13ifvqee0","pricing_plan_id":"cebpf4jnsgd1na2vs0mg"},{"bike_id":"d043a334-516e-45ee-ab10-6c413cc3141e","system_id":"levelo_inurba_marseille","lat":43.29037,"lon":5.37564,"is_reserved":false,"is_disabled":false,"rental_uris":{"android":"levelo://app?vid=d043a334-516e-45ee-ab10-6c413cc3141e","ios":"levelo://app?vid=d043a334-516e-45ee-ab10-6c413cc3141e"},"vehicle_type_id":"4","last_reported":1762632617,"current_range_meters":10000,"station_id":"ce4bh692rcd13ifvqe90","pricing_plan_id":"cebpf4jnsgd1na2vs0mg"},{"bike_id":"321d43c2-a97c-419e-a110-a172b4ee23e9","system_id":"levelo_inurba_marseille","lat":43.26155,"lon":5.41772,"is_reserved":false,"is_disabled":false,"rental_uris":{"android":"levelo://app?vid=321d43c2-a97c-419e-a110-a172b4ee23e9","ios":"levelo://app?vid=321d43c2-a97c-419e-a110-a172b4ee23e9"},"vehicle_type_id":"4","last_reported":1762632617,"current_range_meters":10000,"station_id":"","pricing_plan_id":"cebpf4jnsgd1na2vs0mg"},{"bike_id":"1011e01a-e4c4-4d7c-82ea-50e768bf58aa","system_id":"levelo_inurba_marseille","lat":43.30613,"lon":5.36556,"is_reserved":false,"is_disabled":false,"rental_uris":{"android":"levelo://app?vid=1011e01a-e4c4-4d7c-82ea-50e768bf58aa","ios":"levelo://app?vid=1011e01a-e4c4-4d7c-82ea-50e768bf58aa"},"vehicle_type_id":"4","last_reported":1762632617,"current_range_meters":10000,"station_id":"","pricing_plan_id":"cebpf4jnsgd1na2vs0mg"},{"bike_id":"b1790f4c-129f-43e2-b825-cb3c1fed3c00","system_id":"levelo_inurba_marseille","lat":43.29565,"lon":5.39985,"is_reserved":false,"is_disabled":false,"rental_uris":{"android":"levelo://app?vid=b1790f4c-129f-43e2-b825-cb3c1fed3c00","ios":"levelo://app?vid=b1790f4c-129f-43e2-b825-cb3c1fed3c00"},"vehicle_type_id":"4","last_reported":1762632617,"current_range_meters":10000,"station_id":"ce4bh312rcd13ifvqdj0","pricing_plan_id":"cebpf4jnsgd1na2vs0mg"},{"bike_id":"a4b610ef-5dc5-47fb-9228-87e17fe490d3","system_id":"levelo_inurba_marseille","lat":43.270691,"lon":5.422768,"is_reserved":false,"is_disabled":true,"rental_uris":{"android":"levelo://app?vid=a4b610ef-5dc5-47fb-9228-87e17fe490d3","ios":"levelo://app?vid=a4b610ef-5dc5-47fb-9228-87e17fe490d3"},"vehicle_type_id":"4","last_reported":1762632617,"current_range_meters":10000,"station_id":"ce4bhk92rcd13ifvqgb0","pricing_plan_id":"cebpf4jnsgd1na2vs0mg"},{"bike_id":"3b294fa9-3f9f-4381-a2a8-e3592d375a68","system_id":"levelo_inurba_marseille","lat":43.267,"lon":5.39686,"is_reserved":false,"is_disabled":false,"rental_uris":{"android":"levelo://app?vid=3b294fa9-3f9f-4381-a2a8-e3592d375a68","ios":"levelo://app?vid=3b294fa9-3f9f-4381-a2a8-e3592d375a68"},"vehicle_type_id":"4","last_reported":1762632617,"current_range_meters":10000,"station_id":"","pricing_plan_id":"cebpf4jnsgd1na2vs0mg"},{"bike_id":"08800a7f-3058-4ed0-a60f-c12bee9e25dd","system_id":"levelo_inurba_marseille","lat":43.24637,"lon":5.4314,"is_reserved":false,"is_disabled":false,"rental_uris":{"android":"levelo://app?vid=08800a7f-3058-4ed0-a60f-c12bee9e25dd","ios":"levelo://app?vid=08800a7f-3058-4ed0-a60f-c12bee9e25dd"},"vehicle_type_id":"4","last_reported":1762632617,"current_range_meters":10800,"station_id":"st_d2m6c4gdas8pm72e190g","pricing_plan_id":"cebpf4jnsgd1na2vs0mg"},{"bike_id":"382f597e-181c-4839-b1de-04339df9aa55","system_id":"levelo_inurba_marseille","lat":43.26801,"lon":5.40258,"is_reserved":false,"is_disabled":true,"rental_uris":{"android":"levelo://app?vid=382f597e-181c-4839-b1de-04339df9aa55","ios":"levelo://app?vid=382f597e-181c-4839-b1de-04339df9aa55"},"vehicle_type_id":"4","last_reported":1762632617,"current_range_meters":10800,"station_id":"ce501612rcd8frsf0b60","pricing_plan_id":"cebpf4jnsgd1na2vs0mg"},{"bike_id":"0342d0d8-8837-414c-85e6-56e0ae1ef674","system_id":"levelo_inurba_marseille","lat":43.290293,"lon":5.386466,"is_reserved":false,"is_disabled":false,"rental_uris":{"android":"levelo://app?vid=0342d0d8-8837-414c-85e6-56e0ae1ef674","ios":"levelo://app?vid=0342d0d8-8837-414c-85e6-56e0ae1ef674"},"vehicle_type_id":"4","last_reported":1762632617,"current_range_meters":10800,"station_id":"ce4bh4p2rcd13ifvqe0g","pricing_plan_id":"cebpf4jnsgd1na2vs0mg"},{"bike_id":"7be7c32b-d079-405b-81f9-69e044a592bc","system_id":"levelo_inurba_marseille","lat":43.29257,"lon":5.3844,"is_reserved":false,"is_disabled":false,"rental_uris":{"android":"levelo://app?vid=7be7c32b-d079-405b-81f9-69e044a592bc","ios":"levelo://app?vid=7be7c32b-d079-405b-81f9-69e044a592bc"},"vehicle_type_id":"4","last_reported":1762632617,"current_range_meters":10800,"station_id":"ce4bh692rcd13ifvqea0","pricing_plan_id":"cebpf4jnsgd1na2vs0mg"},{"bike_id":"d510b29d-06c6-4a67-8cee-2182097a14e2","system_id":"levelo_inurba_marseille","lat":43.29271,"lon":5.37604,"is_reserved":false,"is_disabled":true,"rental_uris":{"android":"levelo://app?vid=d510b29d-06c6-4a67-8cee-2182097a14e2","ios":"levelo://app?vid=d510b29d-06c6-4a67-8cee-2182097a14e2"},"vehicle_type_id":"4","last_reported":1762632617,"current_range_meters":10800,"station_id":"ce4bgi12rcd13ifvqb80","pricing_plan_id":"cebpf4jnsgd1na2vs0mg"},{"bike_id":"663cd7c1-d330-4518-9a12-9f03e251ebed","system_id":"levelo_inurba_marseille","lat":43.28142,"lon":5.4264,"is_reserved":false,"is_disabled":false,"rental_uris":{"android":"levelo://app?vid=663cd7c1-d330-4518-9a12-9f03e251ebed","ios":"levelo://app?vid=663cd7c1-d330-4518-9a12-9f03e251ebed"},"vehicle_type_id":"4","last_reported":1762632617,"current_range_meters":10800,"station_id":"ce4bhnh2rcd13ifvqgug","pricing_plan_id":"cebpf4jnsgd1na2vs0mg"},{"bike_id":"22369d4e-1aab-4fbe-93e8-9d1a4d86e529","system_id":"levelo_inurba_marseille","lat":43.28104,"lon":5.3784,"is_reserved":false,"is_disabled":false,"rental_uris":{"android":"levelo://app?vid=22369d4e-1aab-4fbe-93e8-9d1a4d86e529","ios":"levelo://app?vid=22369d4e-1aab-4fbe-93e8-9d1a4d86e529"},"vehicle_type_id":"4","last_reported":1762632617,"current_range_meters":10800,"station_id":"ce4bha12rcd13ifvqee0","pricing_plan_id":"cebpf4jnsgd1na2vs0mg"},{"bike_id":"c97d32e8-7732-48ce-aeba-204735ef0281","system_id":"levelo_inurba_marseille","lat":43.29771,"lon":5.37054,"is_reserved":false,"is_disabled":false,"rental_uris":{"android":"levelo://app?vid=c97d32e8-7732-48ce-aeba-204735ef0281","ios":"levelo://app?vid=c97d32e8-7732-48ce-aeba-204735ef0281"},"vehicle_type_id":"4","last_reported":1762632617,"current_range_meters":10800,"station_id":"ce4bgop2rcd13ifvqc1g","pricing_plan_id":"cebpf4jnsgd1na2vs0mg"},{"bike_id":"6a911c96-c25d-4fed-bba7-239445399b0d","system_id":"levelo_inurba_marseille","lat":43.304169,"lon":5.412815,"is_reserved":false,"is_disabled":false,"rental_uris":{"android":"levelo://app?vid=6a911c96-c25d-4fed-bba7-239445399b0d","ios":"levelo://app?vid=6a911c96-c25d-4fed-bba7-239445399b0d"},"vehicle_type_id":"4","last_reported":1762632617,"current_range_meters":10800,"station_id":"ce4bhop2rcd13ifvqh8g","pricing_plan_id":"cebpf4jnsgd1na2vs0mg"},{"bike_id":"e95f4fbf-e18a-4764-9d1e-413b96476e00","system_id":"levelo_inurba_marseille","lat":43.23146,"lon":5.43707,"is_reserved":false,"is_disabled":false,"rental_uris":{"android":"levelo://app?vid=e95f4fbf-e18a-4764-9d1e-413b96476e00","ios":"levelo://app?vid=e95f4fbf-e18a-4764-9d1e-413b96476e00"},"vehicle_type_id":"4","last_reported":1762632617,"current_range_meters":10800,"station_id":"ce4bhmp2rcd13ifvqgog","pricing_plan_id":"cebpf4jnsgd1na2vs0mg"},{"bike_id":"c08029aa-0057-4324-8e05-a61f44ee38b5","system_id":"levelo_inurba_marseille","lat":43.28699,"lon":5.37397,"is_reserved":false,"is_disabled":false,"rental_uris":{"android":"levelo://app?vid=c08029aa-0057-4324-8e05-a61f44ee38b5","ios":"levelo://app?vid=c08029aa-0057-4324-8e05-a61f44ee38b5"},"vehicle_type_id":"4","last_reported":1762632617,"current_range_meters":10800,"station_id":"ce4bh3p2rcd13ifvqdq0","pricing_plan_id":"cebpf4jnsgd1na2vs0mg"},{"bike_id":"06593175-4f55-4c26-aa1d-46c35aa595df","system_id":"levelo_inurba_marseille","lat":43.30739,"lon":5.42435,"is_reserved":false,"is_disabled":false,"rental_uris":{"android":"levelo://app?vid=06593175-4f55-4c26-aa1d-46c35aa595df","ios":"levelo://app?vid=06593175-4f55-4c26-aa1d-46c35aa595df"},"vehicle_type_id":"4","last_reported":1762632617,"current_range_meters":10800,"station_id":"st_cvj6ca6bvosntc0bfgr0","pricing_plan_id":"cebpf4jnsgd1na2vs0mg"},{"bike_id":"4c8d527a-1c50-42ba-b148-156abe25b523","system_id":"levelo_inurba_marseille","lat":43.24631,"lon":5.43135,"is_reserved":false,"is_disabled":false,"rental_uris":{"android":"levelo://app?vid=4c8d527a-1c50-42ba-b148-156abe25b523","ios":"levelo://app?vid=4c8d527a-1c50-42ba-b148-156abe25b523"},"vehicle_type_id":"4","last_reported":1762632617,"current_range_meters":10800,"station_id":"st_d2m6c4gdas8pm72e190g","pricing_plan_id":"cebpf4jnsgd1na2vs0mg"},{"bike_id":"6ba0f1d1-5706-4a14-b89f-505a4c6aa756","system_id":"levelo_inurba_marseille","lat":43.29493,"lon":5.43295,"is_reserved":false,"is_disabled":false,"rental_uris":{"android":"levelo://app?vid=6ba0f1d1-5706-4a14-b89f-505a4c6aa756","ios":"levelo://app?vid=6ba0f1d1-5706-4a14-b89f-505a4c6aa756"},"vehicle_type_id":"4","last_reported":1762632617,"current_range_meters":11200,"station_id":"st_d3j5ugp08ojc73fj9d10","pricing_plan_id":"cebpf4jnsgd1na2vs0mg"},{"bike_id":"a48251ef-1357-4356-a812-75701ea64d4c","system_id":"levelo_inurba_marseille","lat":43.303,"lon":5.39212,"is_reserved":false,"is_disabled":false,"rental_uris":{"android":"levelo://app?vid=a48251ef-1357-4356-a812-75701ea64d4c","ios":"levelo://app?vid=a48251ef-1357-4356-a812-75701ea64d4c"},"vehicle_type_id":"4","last_reported":1762632617,"current_range_meters":11200,"station_id":"ce4bgkh2rcd13ifvqbk0","pricing_plan_id":"cebpf4jnsgd1na2vs0mg"},{"bike_id":"54a750e2-06db-4f2f-a5fa-367a047864fe","system_id":"levelo_inurba_marseille","lat":43.30471,"lon":5.37896,"is_reserved":false,"is_disabled":false,"rental_uris":{"android":"levelo://app?vid=54a750e2-06db-4f2f-a5fa-367a047864fe","ios":"levelo://app?vid=54a750e2-06db-4f2f-a5fa-367a047864fe"},"vehicle_type_id":"4","last_reported":1762632617,"current_range_meters":11200,"station_id":"ce4bgup2rcd13ifvqcn0","pricing_plan_id":"cebpf4jnsgd1na2vs0mg"},{"bike_id":"59736966-d2af-4cbc-8ac5-e955aeb2f190","system_id":"levelo_inurba_marseille","lat":43.28747,"lon":5.424481,"is_reserved":false,"is_disabled":false,"rental_uris":{"android":"levelo://app?vid=59736966-d2af-4cbc-8ac5-e955aeb2f190","ios":"levelo://app?vid=59736966-d2af-4cbc-8ac5-e955aeb2f190"},"vehicle_type_id":"4","last_reported":1762632617,"current_range_meters":11200,"station_id":"","pricing_plan_id":"cebpf4jnsgd1na2vs0mg"},{"bike_id":"6bcab1c5-aef0-4237-80e9-3db86268abce","system_id":"levelo_inurba_marseille","lat":43.29482,"lon":5.43294,"is_reserved":false,"is_disabled":false,"rental_uris":{"android":"levelo://app?vid=6bcab1c5-aef0-4237-80e9-3db86268abce","ios":"levelo://app?vid=6bcab1c5-aef0-4237-80e9-3db86268abce"},"vehicle_type_id":"4","last_reported":1762632617,"current_range_meters":11200,"station_id":"st_d3j5ugp08ojc73fj9d10","pricing_plan_id":"cebpf4jnsgd1na2vs0mg"},{"bike_id":"88ac7d84-53c9-4619-90e7-294b823d5f1c","system_id":"levelo_inurba_marseille","lat":43.30437,"lon":5.38893,"is_reserved":false,"is_disabled":false,"rental_uris":{"android":"levelo://app?vid=88ac7d84-53c9-4619-90e7-294b823d5f1c","ios":"levelo://app?vid=88ac7d84-53c9-4619-90e7-294b823d5f1c"},"vehicle_type_id":"4","last_reported":1762632617,"current_range_meters":11200,"station_id":"ce4bgk12rcd13ifvqbi0","pricing_plan_id":"cebpf4jnsgd1na2vs0mg"},{"bike_id":"dfde87bb-1a24-4866-bcda-6d9da60c1cf9","system_id":"levelo_inurba_marseille","lat":43.28595,"lon":5.393695,"is_reserved":false,"is_disabled":false,"rental_uris":{"android":"levelo://app?vid=dfde87bb-1a24-4866-bcda-6d9da60c1cf9","ios":"levelo://app?vid=dfde87bb-1a24-4866-bcda-6d9da60c1cf9"},"vehicle_type_id":"4","last_reported":1762632617,"current_range_meters":11200,"station_id":"","pricing_plan_id":"cebpf4jnsgd1na2vs0mg"},{"bike_id":"d75054a3-861a-474b-b6a5-d9576b2d7d12","system_id":"levelo_inurba_marseille","lat":43.30422,"lon":5.38887,"is_reserved":false,"is_disabled":false,"rental_uris":{"android":"levelo://app?vid=d75054a3-861a-474b-b6a5-d9576b2d7d12","ios":"levelo://app?vid=d75054a3-861a-474b-b6a5-d9576b2d7d12"},"vehicle_type_id":"4","last_reported":1762632617,"current_range_meters":11600,"station_id":"ce4bgk12rcd13ifvqbi0","pricing_plan_id":"cebpf4jnsgd1na2vs0mg"},{"bike_id":"e179449b-f27b-421e-b73c-00856b2aae30","system_id":"levelo_inurba_marseille","lat":43.290404,"lon":5.375668,"is_reserved":false,"is_disabled":false,"rental_uris":{"android":"levelo://app?vid=e179449b-f27b-421e-b73c-00856b2aae30","ios":"levelo://app?vid=e179449b-f27b-421e-b73c-00856b2aae30"},"vehicle_type_id":"4","last_reported":1762632617,"current_range_meters":11600,"station_id":"ce4bh692rcd13ifvqe90","pricing_plan_id":"cebpf4jnsgd1na2vs0mg"},{"bike_id":"665a5ba2-246e-4ac7-a969-6694219b1452","system_id":"levelo_inurba_marseille","lat":43.28834,"lon":5.35838,"is_reserved":false,"is_disabled":true,"rental_uris":{"android":"levelo://app?vid=665a5ba2-246e-4ac7-a969-6694219b1452","ios":"levelo://app?vid=665a5ba2-246e-4ac7-a969-6694219b1452"},"vehicle_type_id":"4","last_reported":1762632617,"current_range_meters":11600,"station_id":"ce4bhb12rcd13ifvqem0","pricing_plan_id":"cebpf4jnsgd1na2vs0mg"},{"bike_id":"3017da39-e910-46eb-97bd-84c089ef33f4","system_id":"levelo_inurba_marseille","lat":43.27615,"lon":5.36112,"is_reserved":false,"is_disabled":false,"rental_uris":{"android":"levelo://app?vid=3017da39-e910-46eb-97bd-84c089ef33f4","ios":"levelo://app?vid=3017da39-e910-46eb-97bd-84c089ef33f4"},"vehicle_type_id":"4","last_reported":1762632617,"current_range_meters":11600,"station_id":"ce4bgj92rcd13ifvqbe0","pricing_plan_id":"cebpf4jnsgd1na2vs0mg"},{"bike_id":"ceea8b2a-0849-4cae-aa91-92e8926e16a1","system_id":"levelo_inurba_marseille","lat":43.30308,"lon":5.36911,"is_reserved":false,"is_disabled":false,"rental_uris":{"android":"levelo://app?vid=ceea8b2a-0849-4cae-aa91-92e8926e16a1","ios":"levelo://app?vid=ceea8b2a-0849-4cae-aa91-92e8926e16a1"},"vehicle_type_id":"4","last_reported":1762632617,"current_range_meters":11600,"station_id":"ce4bgqh2rcd13ifvqc5g","pricing_plan_id":"cebpf4jnsgd1na2vs0mg"},{"bike_id":"4bce02cb-bdba-488a-a39f-eae80d4c7da8","system_id":"levelo_inurba_marseille","lat":43.2822,"lon":5.39057,"is_reserved":false,"is_disabled":true,"rental_uris":{"android":"levelo://app?vid=4bce02cb-bdba-488a-a39f-eae80d4c7da8","ios":"levelo://app?vid=4bce02cb-bdba-488a-a39f-eae80d4c7da8"},"vehicle_type_id":"4","last_reported":1762632617,"current_range_meters":11600,"station_id":"ce4bhn92rcd13ifvqgsg","pricing_plan_id":"cebpf4jnsgd1na2vs0mg"},{"bike_id":"80a07f3d-310d-420a-ab06-0ae9bbb66cec","system_id":"levelo_inurba_marseille","lat":43.29019,"lon":5.38129,"is_reserved":false,"is_disabled":false,"rental_uris":{"android":"levelo://app?vid=80a07f3d-310d-420a-ab06-0ae9bbb66cec","ios":"levelo://app?vid=80a07f3d-310d-420a-ab06-0ae9bbb66cec"},"vehicle_type_id":"4","last_reported":1762632617,"current_range_meters":12000,"station_id":"ce4bh4p2rcd13ifvqe1g","pricing_plan_id":"cebpf4jnsgd1na2vs0mg"},{"bike_id":"1d32ebc5-69db-47b3-94e6-88804fb1dfa8","system_id":"levelo_inurba_marseille","lat":43.29265,"lon":5.3684,"is_reserved":false,"is_disabled":false,"rental_uris":{"android":"levelo://app?vid=1d32ebc5-69db-47b3-94e6-88804fb1dfa8","ios":"levelo://app?vid=1d32ebc5-69db-47b3-94e6-88804fb1dfa8"},"vehicle_type_id":"4","last_reported":1762632617,"current_range_meters":12000,"station_id":"ce4bhbp2rcd13ifvqesg","pricing_plan_id":"cebpf4jnsgd1na2vs0mg"},{"bike_id":"8a9ac7ad-bb73-491a-a1a8-c3f2b39b3768","system_id":"levelo_inurba_marseille","lat":43.31761,"lon":5.3902,"is_reserved":false,"is_disabled":false,"rental_uris":{"android":"levelo://app?vid=8a9ac7ad-bb73-491a-a1a8-c3f2b39b3768","ios":"levelo://app?vid=8a9ac7ad-bb73-491a-a1a8-c3f2b39b3768"},"vehicle_type_id":"4","last_reported":1762632617,"current_range_meters":12000,"station_id":"ce4bhqp2rcd13ifvqhng","pricing_plan_id":"cebpf4jnsgd1na2vs0mg"},{"bike_id":"1a11f6d9-15cd-4d99-9ec5-e1ede82db56a","system_id":"levelo_inurba_marseille","lat":43.25087,"lon":5.39509,"is_reserved":false,"is_disabled":false,"rental_uris":{"android":"levelo://app?vid=1a11f6d9-15cd-4d99-9ec5-e1ede82db56a","ios":"levelo://app?vid=1a11f6d9-15cd-4d99-9ec5-e1ede82db56a"},"vehicle_type_id":"4","last_reported":1762632617,"current_range_meters":12000,"station_id":"ce4bhm12rcd13ifvqgkg","pricing_plan_id":"cebpf4jnsgd1na2vs0mg"},{"bike_id":"870a9ad1-db35-4ab0-bc9a-84476efc6571","system_id":"levelo_inurba_marseille","lat":43.32806,"lon":5.42642,"is_reserved":false,"is_disabled":false,"rental_uris":{"android":"levelo://app?vid=870a9ad1-db35-4ab0-bc9a-84476efc6571","ios":"levelo://app?vid=870a9ad1-db35-4ab0-bc9a-84476efc6571"},"vehicle_type_id":"4","last_reported":1762632617,"current_range_meters":12000,"station_id":"","pricing_plan_id":"cebpf4jnsgd1na2vs0mg"},{"bike_id":"d2991a60-dcfa-4252-8f9d-bfff4b1dc433","system_id":"levelo_inurba_marseille","lat":43.31091,"lon":5.37138,"is_reserved":false,"is_disabled":false,"rental_uris":{"android":"levelo://app?vid=d2991a60-dcfa-4252-8f9d-bfff4b1dc433","ios":"levelo://app?vid=d2991a60-dcfa-4252-8f9d-bfff4b1dc433"},"vehicle_type_id":"4","last_reported":1762632617,"current_range_meters":12000,"station_id":"","pricing_plan_id":"cebpf4jnsgd1na2vs0mg"},{"bike_id":"8e140702-853d-4aa7-abe8-645805aa250e","system_id":"levelo_inurba_marseille","lat":43.265647,"lon":5.403216,"is_reserved":false,"is_disabled":false,"rental_uris":{"android":"levelo://app?vid=8e140702-853d-4aa7-abe8-645805aa250e","ios":"levelo://app?vid=8e140702-853d-4aa7-abe8-645805aa250e"},"vehicle_type_id":"4","last_reported":1762632617,"current_range_meters":12400,"station_id":"ce4bhmp2rcd13ifvqgng","pricing_plan_id":"cebpf4jnsgd1na2vs0mg"},{"bike_id":"30d8fad0-b359-483b-8b6b-1430c712d4de","system_id":"levelo_inurba_marseille","lat":43.28101,"lon":5.37838,"is_reserved":false,"is_disabled":false,"rental_uris":{"android":"levelo://app?vid=30d8fad0-b359-483b-8b6b-1430c712d4de","ios":"levelo://app?vid=30d8fad0-b359-483b-8b6b-1430c712d4de"},"vehicle_type_id":"4","last_reported":1762632617,"current_range_meters":12400,"station_id":"ce4bha12rcd13ifvqee0","pricing_plan_id":"cebpf4jnsgd1na2vs0mg"},{"bike_id":"fcf2579d-86a4-4272-ba99-a6245e1dcf31","system_id":"levelo_inurba_marseille","lat":43.29972,"lon":5.3718,"is_reserved":false,"is_disabled":false,"rental_uris":{"android":"levelo://app?vid=fcf2579d-86a4-4272-ba99-a6245e1dcf31","ios":"levelo://app?vid=fcf2579d-86a4-4272-ba99-a6245e1dcf31"},"vehicle_type_id":"4","last_reported":1762632617,"current_range_meters":12400,"station_id":"ce4bgr92rcd13ifvqc7g","pricing_plan_id":"cebpf4jnsgd1na2vs0mg"},{"bike_id":"731ec291-4b47-43b7-9520-53c0d9623986","system_id":"levelo_inurba_marseille","lat":43.28073,"lon":5.39638,"is_reserved":false,"is_disabled":false,"rental_uris":{"android":"levelo://app?vid=731ec291-4b47-43b7-9520-53c0d9623986","ios":"levelo://app?vid=731ec291-4b47-43b7-9520-53c0d9623986"},"vehicle_type_id":"4","last_reported":1762632617,"current_range_meters":12400,"station_id":"ce4bho12rcd13ifvqh2g","pricing_plan_id":"cebpf4jnsgd1na2vs0mg"},{"bike_id":"54fa92af-5541-4137-afea-d36fade5cb4b","system_id":"levelo_inurba_marseille","lat":43.2465,"lon":5.43115,"is_reserved":false,"is_disabled":false,"rental_uris":{"android":"levelo://app?vid=54fa92af-5541-4137-afea-d36fade5cb4b","ios":"levelo://app?vid=54fa92af-5541-4137-afea-d36fade5cb4b"},"vehicle_type_id":"4","last_reported":1762632617,"current_range_meters":12400,"station_id":"st_d2m6c4gdas8pm72e190g","pricing_plan_id":"cebpf4jnsgd1na2vs0mg"},{"bike_id":"152dc96a-1568-4177-b651-4b950d2a0e73","system_id":"levelo_inurba_marseille","lat":43.326987,"lon":5.391885,"is_reserved":false,"is_disabled":false,"rental_uris":{"android":"levelo://app?vid=152dc96a-1568-4177-b651-4b950d2a0e73","ios":"levelo://app?vid=152dc96a-1568-4177-b651-4b950d2a0e73"},"vehicle_type_id":"4","last_reported":1762632617,"current_range_meters":12400,"station_id":"","pricing_plan_id":"cebpf4jnsgd1na2vs0mg"},{"bike_id":"968e9c29-84ee-4827-bcab-ac08bc4ab6d5","system_id":"levelo_inurba_marseille","lat":43.292751,"lon":5.36847,"is_reserved":false,"is_disabled":true,"rental_uris":{"android":"levelo://app?vid=968e9c29-84ee-4827-bcab-ac08bc4ab6d5","ios":"levelo://app?vid=968e9c29-84ee-4827-bcab-ac08bc4ab6d5"},"vehicle_type_id":"4","last_reported":1762632617,"current_range_meters":12400,"station_id":"ce4bhbp2rcd13ifvqesg","pricing_plan_id":"cebpf4jnsgd1na2vs0mg"},{"bike_id":"2d09d6a2-f592-48df-a952-68864ae6960f","system_id":"levelo_inurba_marseille","lat":43.24478,"lon":5.4096,"is_reserved":false,"is_disabled":false,"rental_uris":{"android":"levelo://app?vid=2d09d6a2-f592-48df-a952-68864ae6960f","ios":"levelo://app?vid=2d09d6a2-f592-48df-a952-68864ae6960f"},"vehicle_type_id":"4","last_reported":1762632617,"current_range_meters":12400,"station_id":"","pricing_plan_id":"cebpf4jnsgd1na2vs0mg"},{"bike_id":"d9c8efcd-2f83-42db-89c8-41e6a90f332e","system_id":"levelo_inurba_marseille","lat":43.29888,"lon":5.38902,"is_reserved":false,"is_disabled":false,"rental_uris":{"android":"levelo://app?vid=d9c8efcd-2f83-42db-89c8-41e6a90f332e","ios":"levelo://app?vid=d9c8efcd-2f83-42db-89c8-41e6a90f332e"},"vehicle_type_id":"4","last_reported":1762632617,"current_range_meters":12400,"station_id":"ce4bh392rcd13ifvqdl0","pricing_plan_id":"cebpf4jnsgd1na2vs0mg"},{"bike_id":"9af835b2-9115-4dab-ab00-284872b592ff","system_id":"levelo_inurba_marseille","lat":43.29257,"lon":5.3844,"is_reserved":false,"is_disabled":false,"rental_uris":{"android":"levelo://app?vid=9af835b2-9115-4dab-ab00-284872b592ff","ios":"levelo://app?vid=9af835b2-9115-4dab-ab00-284872b592ff"},"vehicle_type_id":"4","last_reported":1762632617,"current_range_meters":12800,"station_id":"ce4bh692rcd13ifvqea0","pricing_plan_id":"cebpf4jnsgd1na2vs0mg"},{"bike_id":"31800347-6952-4e4c-aa3f-f865647b86c9","system_id":"levelo_inurba_marseille","lat":43.29537,"lon":5.38546,"is_reserved":false,"is_disabled":false,"rental_uris":{"android":"levelo://app?vid=31800347-6952-4e4c-aa3f-f865647b86c9","ios":"levelo://app?vid=31800347-6952-4e4c-aa3f-f865647b86c9"},"vehicle_type_id":"4","last_reported":1762632617,"current_range_meters":12800,"station_id":"ce4bgih2rcd13ifvqba0","pricing_plan_id":"cebpf4jnsgd1na2vs0mg"},{"bike_id":"825a1957-d327-49da-97b3-2485c79c40e7","system_id":"levelo_inurba_marseille","lat":43.21747,"lon":5.34588,"is_reserved":false,"is_disabled":true,"rental_uris":{"android":"levelo://app?vid=825a1957-d327-49da-97b3-2485c79c40e7","ios":"levelo://app?vid=825a1957-d327-49da-97b3-2485c79c40e7"},"vehicle_type_id":"4","last_reported":1762632617,"current_range_meters":12800,"station_id":"","pricing_plan_id":"cebpf4jnsgd1na2vs0mg"},{"bike_id":"4e6fc091-3766-4f48-8845-14113708cf8f","system_id":"levelo_inurba_marseille","lat":43.29525,"lon":5.38539,"is_reserved":false,"is_disabled":false,"rental_uris":{"android":"levelo://app?vid=4e6fc091-3766-4f48-8845-14113708cf8f","ios":"levelo://app?vid=4e6fc091-3766-4f48-8845-14113708cf8f"},"vehicle_type_id":"4","last_reported":1762632617,"current_range_meters":12800,"station_id":"ce4bgih2rcd13ifvqba0","pricing_plan_id":"cebpf4jnsgd1na2vs0mg"},{"bike_id":"0b37b69f-4d88-45a5-bb59-8daa184f4232","system_id":"levelo_inurba_marseille","lat":43.29848,"lon":5.36269,"is_reserved":false,"is_disabled":false,"rental_uris":{"android":"levelo://app?vid=0b37b69f-4d88-45a5-bb59-8daa184f4232","ios":"levelo://app?vid=0b37b69f-4d88-45a5-bb59-8daa184f4232"},"vehicle_type_id":"4","last_reported":1762632617,"current_range_meters":12800,"station_id":"ce4bgpp2rcd13ifvqc3g","pricing_plan_id":"cebpf4jnsgd1na2vs0mg"},{"bike_id":"97541f74-a6f0-449c-bf74-6f0daa50b719","system_id":"levelo_inurba_marseille","lat":43.31484,"lon":5.37296,"is_reserved":false,"is_disabled":false,"rental_uris":{"android":"levelo://app?vid=97541f74-a6f0-449c-bf74-6f0daa50b719","ios":"levelo://app?vid=97541f74-a6f0-449c-bf74-6f0daa50b719"},"vehicle_type_id":"4","last_reported":1762632617,"current_range_meters":12800,"station_id":"ce4bgt12rcd13ifvqcd0","pricing_plan_id":"cebpf4jnsgd1na2vs0mg"},{"bike_id":"3439a8cb-8214-4321-b614-d69fa7098072","system_id":"levelo_inurba_marseille","lat":43.31264,"lon":5.38935,"is_reserved":false,"is_disabled":false,"rental_uris":{"android":"levelo://app?vid=3439a8cb-8214-4321-b614-d69fa7098072","ios":"levelo://app?vid=3439a8cb-8214-4321-b614-d69fa7098072"},"vehicle_type_id":"4","last_reported":1762632617,"current_range_meters":12800,"station_id":"","pricing_plan_id":"cebpf4jnsgd1na2vs0mg"},{"bike_id":"fdfdde80-7f98-4492-a263-3964ecfbbb45","system_id":"levelo_inurba_marseille","lat":43.28268,"lon":5.35063,"is_reserved":false,"is_disabled":true,"rental_uris":{"android":"levelo://app?vid=fdfdde80-7f98-4492-a263-3964ecfbbb45","ios":"levelo://app?vid=fdfdde80-7f98-4492-a263-3964ecfbbb45"},"vehicle_type_id":"4","last_reported":1762632617,"current_range_meters":12800,"station_id":"ce4bhbp2rcd13ifvqerg","pricing_plan_id":"cebpf4jnsgd1na2vs0mg"},{"bike_id":"7304ea05-1f78-41fe-8725-e76f079910b3","system_id":"levelo_inurba_marseille","lat":43.295274,"lon":5.385432,"is_reserved":false,"is_disabled":false,"rental_uris":{"android":"levelo://app?vid=7304ea05-1f78-41fe-8725-e76f079910b3","ios":"levelo://app?vid=7304ea05-1f78-41fe-8725-e76f079910b3"},"vehicle_type_id":"4","last_reported":1762632617,"current_range_meters":13600,"station_id":"ce4bgih2rcd13ifvqba0","pricing_plan_id":"cebpf4jnsgd1na2vs0mg"},{"bike_id":"ddb0fb25-d852-4aeb-9733-5d1b4a3459a9","system_id":"levelo_inurba_marseille","lat":43.27172,"lon":5.40999,"is_reserved":false,"is_disabled":false,"rental_uris":{"android":"levelo://app?vid=ddb0fb25-d852-4aeb-9733-5d1b4a3459a9","ios":"levelo://app?vid=ddb0fb25-d852-4aeb-9733-5d1b4a3459a9"},"vehicle_type_id":"4","last_reported":1762632617,"current_range_meters":13600,"station_id":"ce4bhl12rcd13ifvqgf0","pricing_plan_id":"cebpf4jnsgd1na2vs0mg"},{"bike_id":"d86e902c-a007-43b4-b73e-84d36fd8458a","system_id":"levelo_inurba_marseille","lat":43.29895,"lon":5.39718,"is_reserved":false,"is_disabled":false,"rental_uris":{"android":"levelo://app?vid=d86e902c-a007-43b4-b73e-84d36fd8458a","ios":"levelo://app?vid=d86e902c-a007-43b4-b73e-84d36fd8458a"},"vehicle_type_id":"4","last_reported":1762632617,"current_range_meters":13600,"station_id":"ce4bh0h2rcd13ifvqd50","pricing_plan_id":"cebpf4jnsgd1na2vs0mg"},{"bike_id":"c5c2beb1-64b4-42b1-9696-40fae03ac378","system_id":"levelo_inurba_marseille","lat":43.2903,"lon":5.38635,"is_reserved":false,"is_disabled":false,"rental_uris":{"android":"levelo://app?vid=c5c2beb1-64b4-42b1-9696-40fae03ac378","ios":"levelo://app?vid=c5c2beb1-64b4-42b1-9696-40fae03ac378"},"vehicle_type_id":"4","last_reported":1762632617,"current_range_meters":13600,"station_id":"ce4bh4p2rcd13ifvqe0g","pricing_plan_id":"cebpf4jnsgd1na2vs0mg"},{"bike_id":"25fd7d6d-bc1d-48dc-b741-729fe0e49332","system_id":"levelo_inurba_marseille","lat":43.25335,"lon":5.42169,"is_reserved":false,"is_disabled":false,"rental_uris":{"android":"levelo://app?vid=25fd7d6d-bc1d-48dc-b741-729fe0e49332","ios":"levelo://app?vid=25fd7d6d-bc1d-48dc-b741-729fe0e49332"},"vehicle_type_id":"4","last_reported":1762632617,"current_range_meters":13600,"station_id":"st_d2m65c5bi1j21697t3ng","pricing_plan_id":"cebpf4jnsgd1na2vs0mg"},{"bike_id":"d00b842c-7a1c-4d04-8ee6-2bd101dd85f9","system_id":"levelo_inurba_marseille","lat":43.337272,"lon":5.391812,"is_reserved":false,"is_disabled":false,"rental_uris":{"android":"levelo://app?vid=d00b842c-7a1c-4d04-8ee6-2bd101dd85f9","ios":"levelo://app?vid=d00b842c-7a1c-4d04-8ee6-2bd101dd85f9"},"vehicle_type_id":"4","last_reported":1762632617,"current_range_meters":13600,"station_id":"ce4bhr92rcd13ifvqhsg","pricing_plan_id":"cebpf4jnsgd1na2vs0mg"},{"bike_id":"a630d70e-d466-46de-bd9f-14c9a7757ee6","system_id":"levelo_inurba_marseille","lat":43.24649,"lon":5.38891,"is_reserved":false,"is_disabled":false,"rental_uris":{"android":"levelo://app?vid=a630d70e-d466-46de-bd9f-14c9a7757ee6","ios":"levelo://app?vid=a630d70e-d466-46de-bd9f-14c9a7757ee6"},"vehicle_type_id":"4","last_reported":1762632617,"current_range_meters":13600,"station_id":"ce4bhg12rcd13ifvqf60","pricing_plan_id":"cebpf4jnsgd1na2vs0mg"},{"bike_id":"7e116551-bd2c-4e6e-8d4f-ea2d08961f93","system_id":"levelo_inurba_marseille","lat":43.292311,"lon":5.384486,"is_reserved":false,"is_disabled":false,"rental_uris":{"android":"levelo://app?vid=7e116551-bd2c-4e6e-8d4f-ea2d08961f93","ios":"levelo://app?vid=7e116551-bd2c-4e6e-8d4f-ea2d08961f93"},"vehicle_type_id":"4","last_reported":1762632617,"current_range_meters":13600,"station_id":"ce4bh692rcd13ifvqea0","pricing_plan_id":"cebpf4jnsgd1na2vs0mg"},{"bike_id":"d0b5feab-4e16-49e5-9d4a-c8741c92807f","system_id":"levelo_inurba_marseille","lat":43.29025,"lon":5.38635,"is_reserved":false,"is_disabled":false,"rental_uris":{"android":"levelo://app?vid=d0b5feab-4e16-49e5-9d4a-c8741c92807f","ios":"levelo://app?vid=d0b5feab-4e16-49e5-9d4a-c8741c92807f"},"vehicle_type_id":"4","last_reported":1762632617,"current_range_meters":13600,"station_id":"ce4bh4p2rcd13ifvqe0g","pricing_plan_id":"cebpf4jnsgd1na2vs0mg"},{"bike_id":"d64d51e9-1840-45e2-b4ad-499dfbc7a077","system_id":"levelo_inurba_marseille","lat":43.29275,"lon":5.36846,"is_reserved":false,"is_disabled":false,"rental_uris":{"android":"levelo://app?vid=d64d51e9-1840-45e2-b4ad-499dfbc7a077","ios":"levelo://app?vid=d64d51e9-1840-45e2-b4ad-499dfbc7a077"},"vehicle_type_id":"4","last_reported":1762632617,"current_range_meters":13600,"station_id":"ce4bhbp2rcd13ifvqesg","pricing_plan_id":"cebpf4jnsgd1na2vs0mg"},{"bike_id":"21dcb4e2-bef4-415f-aa59-cd0b9e2cb07b","system_id":"levelo_inurba_marseille","lat":43.22821,"lon":5.43483,"is_reserved":false,"is_disabled":false,"rental_uris":{"android":"levelo://app?vid=21dcb4e2-bef4-415f-aa59-cd0b9e2cb07b","ios":"levelo://app?vid=21dcb4e2-bef4-415f-aa59-cd0b9e2cb07b"},"vehicle_type_id":"4","last_reported":1762632617,"current_range_meters":13600,"station_id":"","pricing_plan_id":"cebpf4jnsgd1na2vs0mg"},{"bike_id":"b4629f60-4dd5-407b-9260-97e82082af2c","system_id":"levelo_inurba_marseille","lat":43.31108,"lon":5.37759,"is_reserved":false,"is_disabled":false,"rental_uris":{"android":"levelo://app?vid=b4629f60-4dd5-407b-9260-97e82082af2c","ios":"levelo://app?vid=b4629f60-4dd5-407b-9260-97e82082af2c"},"vehicle_type_id":"4","last_reported":1762632617,"current_range_meters":13600,"station_id":"ce4bgt92rcd13ifvqcg0","pricing_plan_id":"cebpf4jnsgd1na2vs0mg"},{"bike_id":"c7d52006-ed2f-4ae5-ae08-b966d64ee716","system_id":"levelo_inurba_marseille","lat":43.307983,"lon":5.381518,"is_reserved":false,"is_disabled":false,"rental_uris":{"android":"levelo://app?vid=c7d52006-ed2f-4ae5-ae08-b966d64ee716","ios":"levelo://app?vid=c7d52006-ed2f-4ae5-ae08-b966d64ee716"},"vehicle_type_id":"4","last_reported":1762632617,"current_range_meters":14000,"station_id":"ce4bgt12rcd13ifvqce0","pricing_plan_id":"cebpf4jnsgd1na2vs0mg"},{"bike_id":"034b45fe-fc8a-40e2-930b-00715a4950c7","system_id":"levelo_inurba_marseille","lat":43.22534,"lon":5.34833,"is_reserved":false,"is_disabled":false,"rental_uris":{"android":"levelo://app?vid=034b45fe-fc8a-40e2-930b-00715a4950c7","ios":"levelo://app?vid=034b45fe-fc8a-40e2-930b-00715a4950c7"},"vehicle_type_id":"4","last_reported":1762632617,"current_range_meters":14000,"station_id":"","pricing_plan_id":"cebpf4jnsgd1na2vs0mg"},{"bike_id":"a8e92df2-fe26-4f1d-8eaf-49b969680af9","system_id":"levelo_inurba_marseille","lat":43.2954,"lon":5.38539,"is_reserved":false,"is_disabled":false,"rental_uris":{"android":"levelo://app?vid=a8e92df2-fe26-4f1d-8eaf-49b969680af9","ios":"levelo://app?vid=a8e92df2-fe26-4f1d-8eaf-49b969680af9"},"vehicle_type_id":"4","last_reported":1762632617,"current_range_meters":14000,"station_id":"ce4bgih2rcd13ifvqba0","pricing_plan_id":"cebpf4jnsgd1na2vs0mg"},{"bike_id":"4d685a13-7c38-4c5b-888b-c6bd056662de","system_id":"levelo_inurba_marseille","lat":43.29571,"lon":5.39973,"is_reserved":false,"is_disabled":false,"rental_uris":{"android":"levelo://app?vid=4d685a13-7c38-4c5b-888b-c6bd056662de","ios":"levelo://app?vid=4d685a13-7c38-4c5b-888b-c6bd056662de"},"vehicle_type_id":"4","last_reported":1762632617,"current_range_meters":14000,"station_id":"ce4bh312rcd13ifvqdj0","pricing_plan_id":"cebpf4jnsgd1na2vs0mg"},{"bike_id":"c295835c-1178-4ee2-90dc-18aca0054c03","system_id":"levelo_inurba_marseille","lat":43.29807,"lon":5.44051,"is_reserved":false,"is_disabled":false,"rental_uris":{"android":"levelo://app?vid=c295835c-1178-4ee2-90dc-18aca0054c03","ios":"levelo://app?vid=c295835c-1178-4ee2-90dc-18aca0054c03"},"vehicle_type_id":"4","last_reported":1762632617,"current_range_meters":14000,"station_id":"st_d3jp68qikq2c7381ktn0","pricing_plan_id":"cebpf4jnsgd1na2vs0mg"},{"bike_id":"186f06b7-9a2a-4013-92c3-74ac21b89f0d","system_id":"levelo_inurba_marseille","lat":43.29344,"lon":5.38506,"is_reserved":false,"is_disabled":false,"rental_uris":{"android":"levelo://app?vid=186f06b7-9a2a-4013-92c3-74ac21b89f0d","ios":"levelo://app?vid=186f06b7-9a2a-4013-92c3-74ac21b89f0d"},"vehicle_type_id":"4","last_reported":1762632617,"current_range_meters":14000,"station_id":"","pricing_plan_id":"cebpf4jnsgd1na2vs0mg"},{"bike_id":"5c91f7a5-bf4a-47b4-82be-e1c1e11e7df2","system_id":"levelo_inurba_marseille","lat":43.29484,"lon":5.43293,"is_reserved":false,"is_disabled":false,"rental_uris":{"android":"levelo://app?vid=5c91f7a5-bf4a-47b4-82be-e1c1e11e7df2","ios":"levelo://app?vid=5c91f7a5-bf4a-47b4-82be-e1c1e11e7df2"},"vehicle_type_id":"4","last_reported":1762632617,"current_range_meters":14000,"station_id":"st_d3j5ugp08ojc73fj9d10","pricing_plan_id":"cebpf4jnsgd1na2vs0mg"},{"bike_id":"02ab9aa1-a034-48f4-b2cd-1a329fc9f093","system_id":"levelo_inurba_marseille","lat":43.29289,"lon":5.37453,"is_reserved":false,"is_disabled":false,"rental_uris":{"android":"levelo://app?vid=02ab9aa1-a034-48f4-b2cd-1a329fc9f093","ios":"levelo://app?vid=02ab9aa1-a034-48f4-b2cd-1a329fc9f093"},"vehicle_type_id":"4","last_reported":1762632617,"current_range_meters":14000,"station_id":"ce4bgi12rcd13ifvqb70","pricing_plan_id":"cebpf4jnsgd1na2vs0mg"},{"bike_id":"462fd3fb-de6a-4a66-9e94-cfd2b0d801c6","system_id":"levelo_inurba_marseille","lat":43.30319,"lon":5.37683,"is_reserved":false,"is_disabled":false,"rental_uris":{"android":"levelo://app?vid=462fd3fb-de6a-4a66-9e94-cfd2b0d801c6","ios":"levelo://app?vid=462fd3fb-de6a-4a66-9e94-cfd2b0d801c6"},"vehicle_type_id":"4","last_reported":1762632617,"current_range_meters":14000,"station_id":"","pricing_plan_id":"cebpf4jnsgd1na2vs0mg"},{"bike_id":"a07eee62-9d57-4305-a3b9-5271338fd36d","system_id":"levelo_inurba_marseille","lat":43.256367,"lon":5.39394,"is_reserved":false,"is_disabled":false,"rental_uris":{"android":"levelo://app?vid=a07eee62-9d57-4305-a3b9-5271338fd36d","ios":"levelo://app?vid=a07eee62-9d57-4305-a3b9-5271338fd36d"},"vehicle_type_id":"4","last_reported":1762632617,"current_range_meters":14400,"station_id":"","pricing_plan_id":"cebpf4jnsgd1na2vs0mg"},{"bike_id":"f114550f-0e97-467f-a15f-491fe7ea5021","system_id":"levelo_inurba_marseille","lat":43.29306,"lon":5.37157,"is_reserved":false,"is_disabled":true,"rental_uris":{"android":"levelo://app?vid=f114550f-0e97-467f-a15f-491fe7ea5021","ios":"levelo://app?vid=f114550f-0e97-467f-a15f-491fe7ea5021"},"vehicle_type_id":"4","last_reported":1762632617,"current_range_meters":14400,"station_id":"ce4bgh92rcd13ifvqb40","pricing_plan_id":"cebpf4jnsgd1na2vs0mg"},{"bike_id":"c73c5513-728d-4700-9395-e31e4399cd51","system_id":"levelo_inurba_marseille","lat":43.292071,"lon":5.402942,"is_reserved":false,"is_disabled":false,"rental_uris":{"android":"levelo://app?vid=c73c5513-728d-4700-9395-e31e4399cd51","ios":"levelo://app?vid=c73c5513-728d-4700-9395-e31e4399cd51"},"vehicle_type_id":"4","last_reported":1762632617,"current_range_meters":14400,"station_id":"","pricing_plan_id":"cebpf4jnsgd1na2vs0mg"},{"bike_id":"15db09df-59b0-446a-87c5-e354a3319258","system_id":"levelo_inurba_marseille","lat":43.28478,"lon":5.48383,"is_reserved":false,"is_disabled":false,"rental_uris":{"android":"levelo://app?vid=15db09df-59b0-446a-87c5-e354a3319258","ios":"levelo://app?vid=15db09df-59b0-446a-87c5-e354a3319258"},"vehicle_type_id":"4","last_reported":1762632617,"current_range_meters":14400,"station_id":"","pricing_plan_id":"cebpf4jnsgd1na2vs0mg"},{"bike_id":"1d6651e5-6871-431a-a3a5-83c5fd5546bd","system_id":"levelo_inurba_marseille","lat":43.28437,"lon":5.39199,"is_reserved":false,"is_disabled":false,"rental_uris":{"android":"levelo://app?vid=1d6651e5-6871-431a-a3a5-83c5fd5546bd","ios":"levelo://app?vid=1d6651e5-6871-431a-a3a5-83c5fd5546bd"},"vehicle_type_id":"4","last_reported":1762632617,"current_range_meters":14400,"station_id":"ce4bhoh2rcd13ifvqh5g","pricing_plan_id":"cebpf4jnsgd1na2vs0mg"},{"bike_id":"9b79fb2a-54d8-4b5a-8d9e-269b093ed5ef","system_id":"levelo_inurba_marseille","lat":43.29017,"lon":5.38129,"is_reserved":false,"is_disabled":false,"rental_uris":{"android":"levelo://app?vid=9b79fb2a-54d8-4b5a-8d9e-269b093ed5ef","ios":"levelo://app?vid=9b79fb2a-54d8-4b5a-8d9e-269b093ed5ef"},"vehicle_type_id":"4","last_reported":1762632617,"current_range_meters":14400,"station_id":"ce4bh4p2rcd13ifvqe1g","pricing_plan_id":"cebpf4jnsgd1na2vs0mg"},{"bike_id":"3d91e428-feab-47b6-8cb7-6b936445551a","system_id":"levelo_inurba_marseille","lat":43.30789,"lon":5.38155,"is_reserved":false,"is_disabled":false,"rental_uris":{"android":"levelo://app?vid=3d91e428-feab-47b6-8cb7-6b936445551a","ios":"levelo://app?vid=3d91e428-feab-47b6-8cb7-6b936445551a"},"vehicle_type_id":"4","last_reported":1762632617,"current_range_meters":14400,"station_id":"ce4bgt12rcd13ifvqce0","pricing_plan_id":"cebpf4jnsgd1na2vs0mg"},{"bike_id":"1a85bd73-f6c9-483d-ac28-5d95b6775d78","system_id":"levelo_inurba_marseille","lat":43.28717,"lon":5.37923,"is_reserved":false,"is_disabled":true,"rental_uris":{"android":"levelo://app?vid=1a85bd73-f6c9-483d-ac28-5d95b6775d78","ios":"levelo://app?vid=1a85bd73-f6c9-483d-ac28-5d95b6775d78"},"vehicle_type_id":"4","last_reported":1762632617,"current_range_meters":14800,"station_id":"ce4bh9p2rcd13ifvqec0","pricing_plan_id":"cebpf4jnsgd1na2vs0mg"},{"bike_id":"53529ee7-fa79-4bfe-8ac3-2ffb63a46b11","system_id":"levelo_inurba_marseille","lat":43.31826,"lon":5.3883,"is_reserved":false,"is_disabled":false,"rental_uris":{"android":"levelo://app?vid=53529ee7-fa79-4bfe-8ac3-2ffb63a46b11","ios":"levelo://app?vid=53529ee7-fa79-4bfe-8ac3-2ffb63a46b11"},"vehicle_type_id":"4","last_reported":1762632617,"current_range_meters":14800,"station_id":"","pricing_plan_id":"cebpf4jnsgd1na2vs0mg"},{"bike_id":"06b572d6-d95a-4f1a-9a9a-b316897ad6d5","system_id":"levelo_inurba_marseille","lat":43.29545,"lon":5.3752,"is_reserved":false,"is_disabled":false,"rental_uris":{"android":"levelo://app?vid=06b572d6-d95a-4f1a-9a9a-b316897ad6d5","ios":"levelo://app?vid=06b572d6-d95a-4f1a-9a9a-b316897ad6d5"},"vehicle_type_id":"4","last_reported":1762632617,"current_range_meters":14800,"station_id":"ce4bgkp2rcd13ifvqbmg","pricing_plan_id":"cebpf4jnsgd1na2vs0mg"},{"bike_id":"a4571203-cd98-4de9-8ac9-7758cd428683","system_id":"levelo_inurba_marseille","lat":43.27901,"lon":5.38017,"is_reserved":false,"is_disabled":false,"rental_uris":{"android":"levelo://app?vid=a4571203-cd98-4de9-8ac9-7758cd428683","ios":"levelo://app?vid=a4571203-cd98-4de9-8ac9-7758cd428683"},"vehicle_type_id":"4","last_reported":1762632617,"current_range_meters":14800,"station_id":"ce4bhf92rcd13ifvqf50","pricing_plan_id":"cebpf4jnsgd1na2vs0mg"},{"bike_id":"22cd71f4-b6cd-4362-8207-788acc2953ce","system_id":"levelo_inurba_marseille","lat":43.30137,"lon":5.3878,"is_reserved":false,"is_disabled":false,"rental_uris":{"android":"levelo://app?vid=22cd71f4-b6cd-4362-8207-788acc2953ce","ios":"levelo://app?vid=22cd71f4-b6cd-4362-8207-788acc2953ce"},"vehicle_type_id":"4","last_reported":1762632617,"current_range_meters":14800,"station_id":"ce4bghh2rcd13ifvqb60","pricing_plan_id":"cebpf4jnsgd1na2vs0mg"},{"bike_id":"3e2b6028-a539-4e64-9081-578276ce4315","system_id":"levelo_inurba_marseille","lat":43.24574,"lon":5.4212,"is_reserved":false,"is_disabled":false,"rental_uris":{"android":"levelo://app?vid=3e2b6028-a539-4e64-9081-578276ce4315","ios":"levelo://app?vid=3e2b6028-a539-4e64-9081-578276ce4315"},"vehicle_type_id":"4","last_reported":1762632617,"current_range_meters":15200,"station_id":"","pricing_plan_id":"cebpf4jnsgd1na2vs0mg"},{"bike_id":"26b0c57e-6c58-491a-893d-44d3fb2332fa","system_id":"levelo_inurba_marseille","lat":43.28079,"lon":5.3964,"is_reserved":false,"is_disabled":false,"rental_uris":{"android":"levelo://app?vid=26b0c57e-6c58-491a-893d-44d3fb2332fa","ios":"levelo://app?vid=26b0c57e-6c58-491a-893d-44d3fb2332fa"},"vehicle_type_id":"4","last_reported":1762632617,"current_range_meters":15200,"station_id":"ce4bho12rcd13ifvqh2g","pricing_plan_id":"cebpf4jnsgd1na2vs0mg"},{"bike_id":"fecd52af-29bb-4bb2-9160-9e83d6376c53","system_id":"levelo_inurba_marseille","lat":43.28729,"lon":5.39589,"is_reserved":false,"is_disabled":false,"rental_uris":{"android":"levelo://app?vid=fecd52af-29bb-4bb2-9160-9e83d6376c53","ios":"levelo://app?vid=fecd52af-29bb-4bb2-9160-9e83d6376c53"},"vehicle_type_id":"4","last_reported":1762632617,"current_range_meters":15200,"station_id":"","pricing_plan_id":"cebpf4jnsgd1na2vs0mg"},{"bike_id":"29f8b013-6205-4f5e-af81-b05db58fa39e","system_id":"levelo_inurba_marseille","lat":43.29434,"lon":5.39761,"is_reserved":false,"is_disabled":false,"rental_uris":{"android":"levelo://app?vid=29f8b013-6205-4f5e-af81-b05db58fa39e","ios":"levelo://app?vid=29f8b013-6205-4f5e-af81-b05db58fa39e"},"vehicle_type_id":"4","last_reported":1762632617,"current_range_meters":15200,"station_id":"ce4bh3h2rcd13ifvqdo0","pricing_plan_id":"cebpf4jnsgd1na2vs0mg"},{"bike_id":"71389d93-aab8-404d-9f5a-241735a369ec","system_id":"levelo_inurba_marseille","lat":43.29299,"lon":5.37451,"is_reserved":false,"is_disabled":false,"rental_uris":{"android":"levelo://app?vid=71389d93-aab8-404d-9f5a-241735a369ec","ios":"levelo://app?vid=71389d93-aab8-404d-9f5a-241735a369ec"},"vehicle_type_id":"4","last_reported":1762632617,"current_range_meters":15200,"station_id":"ce4bgi12rcd13ifvqb70","pricing_plan_id":"cebpf4jnsgd1na2vs0mg"},{"bike_id":"4b6d964a-ead6-4a2c-ab5e-78c86e105983","system_id":"levelo_inurba_marseille","lat":43.29526,"lon":5.3854,"is_reserved":false,"is_disabled":false,"rental_uris":{"android":"levelo://app?vid=4b6d964a-ead6-4a2c-ab5e-78c86e105983","ios":"levelo://app?vid=4b6d964a-ead6-4a2c-ab5e-78c86e105983"},"vehicle_type_id":"4","last_reported":1762632617,"current_range_meters":15200,"station_id":"ce4bgih2rcd13ifvqba0","pricing_plan_id":"cebpf4jnsgd1na2vs0mg"},{"bike_id":"23b56c88-76df-4ed5-9285-ca032299efac","system_id":"levelo_inurba_marseille","lat":43.29022,"lon":5.38644,"is_reserved":false,"is_disabled":false,"rental_uris":{"android":"levelo://app?vid=23b56c88-76df-4ed5-9285-ca032299efac","ios":"levelo://app?vid=23b56c88-76df-4ed5-9285-ca032299efac"},"vehicle_type_id":"4","last_reported":1762632617,"current_range_meters":16000,"station_id":"ce4bh4p2rcd13ifvqe0g","pricing_plan_id":"cebpf4jnsgd1na2vs0mg"},{"bike_id":"6ca580b9-ae87-4e9b-a62c-4e0f6a07370c","system_id":"levelo_inurba_marseille","lat":43.21204,"lon":5.35047,"is_reserved":false,"is_disabled":false,"rental_uris":{"android":"levelo://app?vid=6ca580b9-ae87-4e9b-a62c-4e0f6a07370c","ios":"levelo://app?vid=6ca580b9-ae87-4e9b-a62c-4e0f6a07370c"},"vehicle_type_id":"4","last_reported":1762632617,"current_range_meters":16000,"station_id":"st_cvj6sg6p6f1abm77japg","pricing_plan_id":"cebpf4jnsgd1na2vs0mg"},{"bike_id":"d1cbe8b1-b39b-4e6a-b4e1-914b6f778fce","system_id":"levelo_inurba_marseille","lat":43.31579,"lon":5.38825,"is_reserved":false,"is_disabled":true,"rental_uris":{"android":"levelo://app?vid=d1cbe8b1-b39b-4e6a-b4e1-914b6f778fce","ios":"levelo://app?vid=d1cbe8b1-b39b-4e6a-b4e1-914b6f778fce"},"vehicle_type_id":"4","last_reported":1762632617,"current_range_meters":16000,"station_id":"","pricing_plan_id":"cebpf4jnsgd1na2vs0mg"},{"bike_id":"4fa93e58-ad51-41bb-b7cd-c71dad4e22b9","system_id":"levelo_inurba_marseille","lat":43.21189,"lon":5.35075,"is_reserved":false,"is_disabled":true,"rental_uris":{"android":"levelo://app?vid=4fa93e58-ad51-41bb-b7cd-c71dad4e22b9","ios":"levelo://app?vid=4fa93e58-ad51-41bb-b7cd-c71dad4e22b9"},"vehicle_type_id":"4","last_reported":1762632617,"current_range_meters":16000,"station_id":"st_cvj6sg6p6f1abm77japg","pricing_plan_id":"cebpf4jnsgd1na2vs0mg"},{"bike_id":"9fd220aa-6269-41ca-8733-af0183790563","system_id":"levelo_inurba_marseille","lat":43.29265,"lon":5.40918,"is_reserved":false,"is_disabled":false,"rental_uris":{"android":"levelo://app?vid=9fd220aa-6269-41ca-8733-af0183790563","ios":"levelo://app?vid=9fd220aa-6269-41ca-8733-af0183790563"},"vehicle_type_id":"4","last_reported":1762632617,"current_range_meters":16000,"station_id":"ce4bh192rcd13ifvqdc0","pricing_plan_id":"cebpf4jnsgd1na2vs0mg"},{"bike_id":"2d5e7a3b-6e99-407b-bc6b-5a56cfb8c08a","system_id":"levelo_inurba_marseille","lat":43.2925,"lon":5.38439,"is_reserved":false,"is_disabled":false,"rental_uris":{"android":"levelo://app?vid=2d5e7a3b-6e99-407b-bc6b-5a56cfb8c08a","ios":"levelo://app?vid=2d5e7a3b-6e99-407b-bc6b-5a56cfb8c08a"},"vehicle_type_id":"4","last_reported":1762632617,"current_range_meters":16000,"station_id":"ce4bh692rcd13ifvqea0","pricing_plan_id":"cebpf4jnsgd1na2vs0mg"},{"bike_id":"9af37f50-4b28-477b-a125-5d8744afd33a","system_id":"levelo_inurba_marseille","lat":43.295325,"lon":5.385438,"is_reserved":false,"is_disabled":false,"rental_uris":{"android":"levelo://app?vid=9af37f50-4b28-477b-a125-5d8744afd33a","ios":"levelo://app?vid=9af37f50-4b28-477b-a125-5d8744afd33a"},"vehicle_type_id":"4","last_reported":1762632617,"current_range_meters":16000,"station_id":"ce4bgih2rcd13ifvqba0","pricing_plan_id":"cebpf4jnsgd1na2vs0mg"},{"bike_id":"2b1e0c4b-c73b-415a-b52c-8778d2bdbadb","system_id":"levelo_inurba_marseille","lat":43.3002,"lon":5.38165,"is_reserved":false,"is_disabled":false,"rental_uris":{"android":"levelo://app?vid=2b1e0c4b-c73b-415a-b52c-8778d2bdbadb","ios":"levelo://app?vid=2b1e0c4b-c73b-415a-b52c-8778d2bdbadb"},"vehicle_type_id":"4","last_reported":1762632617,"current_range_meters":16000,"station_id":"","pricing_plan_id":"cebpf4jnsgd1na2vs0mg"},{"bike_id":"ac1012d0-7872-4c6e-85e6-fc8eaff39396","system_id":"levelo_inurba_marseille","lat":43.28462,"lon":5.35887,"is_reserved":false,"is_disabled":true,"rental_uris":{"android":"levelo://app?vid=ac1012d0-7872-4c6e-85e6-fc8eaff39396","ios":"levelo://app?vid=ac1012d0-7872-4c6e-85e6-fc8eaff39396"},"vehicle_type_id":"4","last_reported":1762632617,"current_range_meters":16000,"station_id":"ce4bhah2rcd13ifvqei0","pricing_plan_id":"cebpf4jnsgd1na2vs0mg"},{"bike_id":"e374f4d6-676c-4d62-af2d-1f0734c48172","system_id":"levelo_inurba_marseille","lat":43.29495,"lon":5.43297,"is_reserved":false,"is_disabled":false,"rental_uris":{"android":"levelo://app?vid=e374f4d6-676c-4d62-af2d-1f0734c48172","ios":"levelo://app?vid=e374f4d6-676c-4d62-af2d-1f0734c48172"},