{"last_updated":1685819048,"ttl":30,"version":"2.2","data":{"bikes":[{"bike_id":"4d43e892-ec90-4fce-8475-f727fed3851f","system_id":"levelo_inurba_marseille","lat":43.31941,"lon":5.36648,"is_reserved":false,"is_disabled":false,"rental_uris":{"android":"levelo://app?vid=4d43e892-ec90-4fce-8475-f727fed3851f","ios":"levelo://app?vid=4d43e892-ec90-4fce-8475-f727fed3851f"},"vehicle_type_id":"4","last_reported":1685819048,"current_range_meters":4000,"station_id":"","pricing_plan_id":"free"},{"bike_id":"dce63237-c6e9-48cf-9cd4-cfb8f50cec80","system_id":"levelo_inurba_marseille","lat":43.30777,"lon":5.37367,"is_reserved":false,"is_disabled":false,"rental_uris":{"android":"levelo://app?vid=dce63237-c6e9-48cf-9cd4-cfb8f50cec80","ios":"levelo://app?vid=dce63237-c6e9-48cf-9cd4-cfb8f50cec80"},"vehicle_type_id":"4","last_reported":1685819048,"current_range_meters":0,"station_id":"","pricing_plan_id":"free"},{"bike_id":"40c52c3d-ff18-4663-8f48-350ad629bba4","system_id":"levelo_inurba_marseille","lat":43.305706,"lon":5.365654,"is_reserved":false,"is_disabled":false,"rental_uris":{"android":"levelo://app?vid=40c52c3d-ff18-4663-8f48-350ad629bba4","ios":"levelo://app?vid=40c52c3d-ff18-4663-8f48-350ad629bba4"},"vehicle_type_id":"4","last_reported":1685819048,"current_range_meters":9600,"station_id":"ce4bgs12rcd13ifvqcag","pricing_plan_id":"free"},{"bike_id":"c8a11aa4-fea6-4568-9869-1a020dfd00bd","system_id":"levelo_inurba_marseille","lat":43.311175,"lon":5.377713,"is_reserved":false,"is_disabled":false,"rental_uris":{"android":"levelo://app?vid=c8a11aa4-fea6-4568-9869-1a020dfd00bd","ios":"levelo://app?vid=c8a11aa4-fea6-4568-9869-1a020dfd00bd"},"vehicle_type_id":"4","last_reported":1685819048,"current_range_meters":20400,"station_id":"","pricing_plan_id":"free"},{"bike_id":"7f6b01d1-4034-4ac7-a7f1-814178283f6d","system_id":"levelo_inurba_marseille","lat":43.308012,"lon":5.381511,"is_reserved":false,"is_disabled":false,"rental_uris":{"android":"levelo://app?vid=7f6b01d1-4034-4ac7-a7f1-814178283f6d","ios":"levelo://app?vid=7f6b01d1-4034-4ac7-a7f1-814178283f6d"},"vehicle_type_id":"4","last_reported":1685819048,"current_range_meters":9200,"station_id":"ce4bgt12rcd13ifvqce0","pricing_plan_id":"free"},{"bike_id":"36fde538-3967-423c-85e0-ff3b188b57de","system_id":"levelo_inurba_marseille","lat":43.308012,"lon":5.381511,"is_reserved":false,"is_disabled":false,"rental_uris":{"android":"levelo://app?vid=36fde538-3967-423c-85e0-ff3b188b57de","ios":"levelo://app?vid=36fde538-3967-423c-85e0-ff3b188b57de"},"vehicle_type_id":"4","last_reported":1685819048,"current_range_meters":0,"station_id":"ce4bgt12rcd13ifvqce0","pricing_plan_id":"free"},{"bike_id":"d1fe0876-e48b-45ca-9127-9d50a557212f","system_id":"levelo_inurba_marseille","lat":43.304606,"lon":5.379026,"is_reserved":false,"is_disabled":false,"rental_uris":{"android":"levelo://app?vid=d1fe0876-e48b-45ca-9127-9d50a557212f","ios":"levelo://app?vid=d1fe0876-e48b-45ca-9127-9d50a557212f"},"vehicle_type_id":"4","last_reported":1685819048,"current_range_meters":18400,"station_id":"ce4bgup2rcd13ifvqcn0","pricing_plan_id":"free"},{"bike_id":"9a8f5dd8-7111-495d-a11a-f7ee2cba3dec","system_id":"levelo_inurba_marseille","lat":43.304606,"lon":5.379026,"is_reserved":false,"is_disabled":false,"rental_uris":{"android":"levelo://app?vid=9a8f5dd8-7111-495d-a11a-f7ee2cba3dec","ios":"levelo://app?vid=9a8f5dd8-7111-495d-a11a-f7ee2cba3dec"},"vehicle_type_id":"4","last_reported":1685819048,"current_range_meters":27600,"station_id":"ce4bgup2rcd13ifvqcn0","pricing_plan_id":"free"},{"bike_id":"1e5cb1b5-702c-4d7a-9864-62c460354465","system_id":"levelo_inurba_marseille","lat":43.30469,"lon":5.37904,"is_reserved":false,"is_disabled":false,"rental_uris":{"android":"levelo://app?vid=1e5cb1b5-702c-4d7a-9864-62c460354465","ios":"levelo://app?vid=1e5cb1b5-702c-4d7a-9864-62c460354465"},"vehicle_type_id":"4","last_reported":1685819048,"current_range_meters":31200,"station_id":"","pricing_plan_id":"free"},{"bike_id":"3c8a8e04-844a-4662-b163-b0c74444caf1","system_id":"levelo_inurba_marseille","lat":43.304606,"lon":5.379026,"is_reserved":false,"is_disabled":false,"rental_uris":{"android":"levelo://app?vid=3c8a8e04-844a-4662-b163-b0c74444caf1","ios":"levelo://app?vid=3c8a8e04-844a-4662-b163-b0c74444caf1"},"vehicle_type_id":"4","last_reported":1685819048,"current_range_meters":31200,"station_id":"ce4bgup2rcd13ifvqcn0","pricing_plan_id":"free"},{"bike_id":"7ffd92cb-66c4-4b5a-a731-49e9184ac97a","system_id":"levelo_inurba_marseille","lat":43.304606,"lon":5.379026,"is_reserved":false,"is_disabled":false,"rental_uris":{"android":"levelo://app?vid=7ffd92cb-66c4-4b5a-a731-49e9184ac97a","ios":"levelo://app?vid=7ffd92cb-66c4-4b5a-a731-49e9184ac97a"},"vehicle_type_id":"4","last_reported":1685819048,"current_range_meters":30400,"station_id":"ce4bgup2rcd13ifvqcn0","pricing_plan_id":"free"},{"bike_id":"2dfebec9-1387-4f25-a3da-b4f75ff8aa8d","system_id":"levelo_inurba_marseille","lat":43.304606,"lon":5.379026,"is_reserved":false,"is_disabled":false,"rental_uris":{"android":"levelo://app?vid=2dfebec9-1387-4f25-a3da-b4f75ff8aa8d","ios":"levelo://app?vid=2dfebec9-1387-4f25-a3da-b4f75ff8aa8d"},"vehicle_type_id":"4","last_reported":1685819048,"current_range_meters":27600,"station_id":"ce4bgup2rcd13ifvqcn0","pricing_plan_id":"free"},{"bike_id":"e647a879-4625-4823-b717-aa8cbccd0ebe","system_id":"levelo_inurba_marseille","lat":43.304606,"lon":5.379026,"is_reserved":false,"is_disabled":false,"rental_uris":{"android":"levelo://app?vid=e647a879-4625-4823-b717-aa8cbccd0ebe","ios":"levelo://app?vid=e647a879-4625-4823-b717-aa8cbccd0ebe"},"vehicle_type_id":"4","last_reported":1685819048,"current_range_meters":28000,"station_id":"ce4bgup2rcd13ifvqcn0","pricing_plan_id":"free"},{"bike_id":"a108bde4-df61-4d97-bd04-a4c982c0165d","system_id":"levelo_inurba_marseille","lat":43.304606,"lon":5.379026,"is_reserved":false,"is_disabled":false,"rental_uris":{"android":"levelo://app?vid=a108bde4-df61-4d97-bd04-a4c982c0165d","ios":"levelo://app?vid=a108bde4-df61-4d97-bd04-a4c982c0165d"},"vehicle_type_id":"4","last_reported":1685819048,"current_range_meters":31600,"station_id":"ce4bgup2rcd13ifvqcn0","pricing_plan_id":"free"},{"bike_id":"f2e9fafd-73aa-4fa4-8375-ad82fa787827","system_id":"levelo_inurba_marseille","lat":43.304606,"lon":5.379026,"is_reserved":false,"is_disabled":false,"rental_uris":{"android":"levelo://app?vid=f2e9fafd-73aa-4fa4-8375-ad82fa787827","ios":"levelo://app?vid=f2e9fafd-73aa-4fa4-8375-ad82fa787827"},"vehicle_type_id":"4","last_reported":1685819048,"current_range_meters":29200,"station_id":"ce4bgup2rcd13ifvqcn0","pricing_plan_id":"free"},{"bike_id":"8a5c0b08-993f-471d-839f-54d679937c9b","system_id":"levelo_inurba_marseille","lat":43.304606,"lon":5.379026,"is_reserved":false,"is_disabled":false,"rental_uris":{"android":"levelo://app?vid=8a5c0b08-993f-471d-839f-54d679937c9b","ios":"levelo://app?vid=8a5c0b08-993f-471d-839f-54d679937c9b"},"vehicle_type_id":"4","last_reported":1685819048,"current_range_meters":30000,"station_id":"ce4bgup2rcd13ifvqcn0","pricing_plan_id":"free"},{"bike_id":"b3e604a0-dd06-464d-bf0c-b7992e6f5a79","system_id":"levelo_inurba_marseille","lat":43.304606,"lon":5.379026,"is_reserved":false,"is_disabled":false,"rental_uris":{"android":"levelo://app?vid=b3e604a0-dd06-464d-bf0c-b7992e6f5a79","ios":"levelo://app?vid=b3e604a0-dd06-464d-bf0c-b7992e6f5a79"},"vehicle_type_id":"4","last_reported":1685819048,"current_range_meters":28400,"station_id":"ce4bgup2rcd13ifvqcn0","pricing_plan_id":"free"},{"bike_id":"306cc30b-bd26-4137-919e-8c0dda59f872","system_id":"levelo_inurba_marseille","lat":43.30459,"lon":5.37917,"is_reserved":false,"is_disabled":false,"rental_uris":{"android":"levelo://app?vid=306cc30b-bd26-4137-919e-8c0dda59f872","ios":"levelo://app?vid=306cc30b-bd26-4137-919e-8c0dda59f872"},"vehicle_type_id":"4","last_reported":1685819048,"current_range_meters":29600,"station_id":"","pricing_plan_id":"free"},{"bike_id":"e38e7aee-6acf-4fda-8527-e2ee907a14c1","system_id":"levelo_inurba_marseille","lat":43.30454,"lon":5.37919,"is_reserved":false,"is_disabled":false,"rental_uris":{"android":"levelo://app?vid=e38e7aee-6acf-4fda-8527-e2ee907a14c1","ios":"levelo://app?vid=e38e7aee-6acf-4fda-8527-e2ee907a14c1"},"vehicle_type_id":"4","last_reported":1685819048,"current_range_meters":30800,"station_id":"","pricing_plan_id":"free"},{"bike_id":"1f1dc83b-8ccb-4689-a2db-9ce7e1fda49c","system_id":"levelo_inurba_marseille","lat":43.319935,"lon":5.381699,"is_reserved":false,"is_disabled":false,"rental_uris":{"android":"levelo://app?vid=1f1dc83b-8ccb-4689-a2db-9ce7e1fda49c","ios":"levelo://app?vid=1f1dc83b-8ccb-4689-a2db-9ce7e1fda49c"},"vehicle_type_id":"4","last_reported":1685819048,"current_range_meters":6000,"station_id":"ce4bhr12rcd13ifvqhpg","pricing_plan_id":"free"},{"bike_id":"06626dde-9052-4472-91fe-87314aafa437","system_id":"levelo_inurba_marseille","lat":43.313571,"lon":5.384829,"is_reserved":false,"is_disabled":false,"rental_uris":{"android":"levelo://app?vid=06626dde-9052-4472-91fe-87314aafa437","ios":"levelo://app?vid=06626dde-9052-4472-91fe-87314aafa437"},"vehicle_type_id":"4","last_reported":1685819048,"current_range_meters":30800,"station_id":"ce4bgt92rcd13ifvqcf0","pricing_plan_id":"free"},{"bike_id":"647bf15e-224c-43f6-b3fa-0ed1f5773e07","system_id":"levelo_inurba_marseille","lat":43.29963,"lon":5.36708,"is_reserved":false,"is_disabled":false,"rental_uris":{"android":"levelo://app?vid=647bf15e-224c-43f6-b3fa-0ed1f5773e07","ios":"levelo://app?vid=647bf15e-224c-43f6-b3fa-0ed1f5773e07"},"vehicle_type_id":"4","last_reported":1685819048,"current_range_meters":22800,"station_id":"","pricing_plan_id":"free"},{"bike_id":"dc5d1a94-dc5a-4bbd-93b0-e8269eec218c","system_id":"levelo_inurba_marseille","lat":43.305364,"lon":5.384119,"is_reserved":false,"is_disabled":false,"rental_uris":{"android":"levelo://app?vid=dc5d1a94-dc5a-4bbd-93b0-e8269eec218c","ios":"levelo://app?vid=dc5d1a94-dc5a-4bbd-93b0-e8269eec218c"},"vehicle_type_id":"4","last_reported":1685819048,"current_range_meters":5200,"station_id":"ce4bgg92rcd13ifvqb30","pricing_plan_id":"free"},{"bike_id":"1182f1e1-9d8c-468e-b312-9156450887d2","system_id":"levelo_inurba_marseille","lat":43.297794,"lon":5.370888,"is_reserved":false,"is_disabled":false,"rental_uris":{"android":"levelo://app?vid=1182f1e1-9d8c-468e-b312-9156450887d2","ios":"levelo://app?vid=1182f1e1-9d8c-468e-b312-9156450887d2"},"vehicle_type_id":"4","last_reported":1685819048,"current_range_meters":4400,"station_id":"ce4bgop2rcd13ifvqc1g","pricing_plan_id":"free"},{"bike_id":"6c7a2263-ecda-427a-8ec9-b186560fae86","system_id":"levelo_inurba_marseille","lat":43.328371,"lon":5.366909,"is_reserved":false,"is_disabled":false,"rental_uris":{"android":"levelo://app?vid=6c7a2263-ecda-427a-8ec9-b186560fae86","ios":"levelo://app?vid=6c7a2263-ecda-427a-8ec9-b186560fae86"},"vehicle_type_id":"4","last_reported":1685819048,"current_range_meters":6400,"station_id":"ce4bhs92rcd13ifvqi0g","pricing_plan_id":"free"},{"bike_id":"a7d3f75d-2e3b-4d80-9d40-32fb475a4dda","system_id":"levelo_inurba_marseille","lat":43.29577,"lon":5.36732,"is_reserved":false,"is_disabled":false,"rental_uris":{"android":"levelo://app?vid=a7d3f75d-2e3b-4d80-9d40-32fb475a4dda","ios":"levelo://app?vid=a7d3f75d-2e3b-4d80-9d40-32fb475a4dda"},"vehicle_type_id":"4","last_reported":1685819048,"current_range_meters":6000,"station_id":"ce4bgph2rcd13ifvqc2g","pricing_plan_id":"free"},{"bike_id":"78dc9a16-379d-4ef6-9058-527725d14f56","system_id":"levelo_inurba_marseille","lat":43.3095,"lon":5.39026,"is_reserved":false,"is_disabled":false,"rental_uris":{"android":"levelo://app?vid=78dc9a16-379d-4ef6-9058-527725d14f56","ios":"levelo://app?vid=78dc9a16-379d-4ef6-9058-527725d14f56"},"vehicle_type_id":"4","last_reported":1685819048,"current_range_meters":26000,"station_id":"ce4bgup2rcd13ifvqco0","pricing_plan_id":"free"},{"bike_id":"6d2cb5d3-188f-4c18-944b-cc26886ffc22","system_id":"levelo_inurba_marseille","lat":43.309589,"lon":5.390258,"is_reserved":false,"is_disabled":false,"rental_uris":{"android":"levelo://app?vid=6d2cb5d3-188f-4c18-944b-cc26886ffc22","ios":"levelo://app?vid=6d2cb5d3-188f-4c18-944b-cc26886ffc22"},"vehicle_type_id":"4","last_reported":1685819048,"current_range_meters":10000,"station_id":"ce4bgup2rcd13ifvqco0","pricing_plan_id":"free"},{"bike_id":"42f83ae9-b6f2-443f-ac85-1b147817146b","system_id":"levelo_inurba_marseille","lat":43.309589,"lon":5.390258,"is_reserved":false,"is_disabled":false,"rental_uris":{"android":"levelo://app?vid=42f83ae9-b6f2-443f-ac85-1b147817146b","ios":"levelo://app?vid=42f83ae9-b6f2-443f-ac85-1b147817146b"},"vehicle_type_id":"4","last_reported":1685819048,"current_range_meters":31200,"station_id":"ce4bgup2rcd13ifvqco0","pricing_plan_id":"free"},{"bike_id":"e0758a4f-e896-4dee-851b-2e84d5283bb9","system_id":"levelo_inurba_marseille","lat":43.309589,"lon":5.390258,"is_reserved":false,"is_disabled":false,"rental_uris":{"android":"levelo://app?vid=e0758a4f-e896-4dee-851b-2e84d5283bb9","ios":"levelo://app?vid=e0758a4f-e896-4dee-851b-2e84d5283bb9"},"vehicle_type_id":"4","last_reported":1685819048,"current_range_meters":12000,"station_id":"ce4bgup2rcd13ifvqco0","pricing_plan_id":"free"},{"bike_id":"c16fbca4-30e0-4287-aff0-3810493494c1","system_id":"levelo_inurba_marseille","lat":43.298037,"lon":5.381066,"is_reserved":false,"is_disabled":false,"rental_uris":{"android":"levelo://app?vid=c16fbca4-30e0-4287-aff0-3810493494c1","ios":"levelo://app?vid=c16fbca4-30e0-4287-aff0-3810493494c1"},"vehicle_type_id":"4","last_reported":1685819048,"current_range_meters":10800,"station_id":"ce4bgip2rcd13ifvqbb0","pricing_plan_id":"free"},{"bike_id":"1f511df9-c0a0-4233-af9e-c1fd083aeeed","system_id":"levelo_inurba_marseille","lat":43.295748,"lon":5.37522,"is_reserved":false,"is_disabled":false,"rental_uris":{"android":"levelo://app?vid=1f511df9-c0a0-4233-af9e-c1fd083aeeed","ios":"levelo://app?vid=1f511df9-c0a0-4233-af9e-c1fd083aeeed"},"vehicle_type_id":"4","last_reported":1685819048,"current_range_meters":26400,"station_id":"ce4bgh92rcd13ifvqb50","pricing_plan_id":"free"},{"bike_id":"eb0e21e1-1123-4bdd-af63-b087ff3a762e","system_id":"levelo_inurba_marseille","lat":43.304278,"lon":5.388868,"is_reserved":false,"is_disabled":false,"rental_uris":{"android":"levelo://app?vid=eb0e21e1-1123-4bdd-af63-b087ff3a762e","ios":"levelo://app?vid=eb0e21e1-1123-4bdd-af63-b087ff3a762e"},"vehicle_type_id":"4","last_reported":1685819048,"current_range_meters":0,"station_id":"ce4bgk12rcd13ifvqbi0","pricing_plan_id":"free"},{"bike_id":"2501c211-05b8-4789-9578-626bb0a2d641","system_id":"levelo_inurba_marseille","lat":43.299724,"lon":5.384848,"is_reserved":false,"is_disabled":false,"rental_uris":{"android":"levelo://app?vid=2501c211-05b8-4789-9578-626bb0a2d641","ios":"levelo://app?vid=2501c211-05b8-4789-9578-626bb0a2d641"},"vehicle_type_id":"4","last_reported":1685819048,"current_range_meters":0,"station_id":"ce4bgj92rcd13ifvqbd0","pricing_plan_id":"free"},{"bike_id":"263f7cc8-f71d-4fc0-8ddf-a4c83789122d","system_id":"levelo_inurba_marseille","lat":43.32367,"lon":5.388836,"is_reserved":false,"is_disabled":false,"rental_uris":{"android":"levelo://app?vid=263f7cc8-f71d-4fc0-8ddf-a4c83789122d","ios":"levelo://app?vid=263f7cc8-f71d-4fc0-8ddf-a4c83789122d"},"vehicle_type_id":"4","last_reported":1685819048,"current_range_meters":13600,"station_id":"ce4bhqp2rcd13ifvqhog","pricing_plan_id":"free"},{"bike_id":"ede47d52-2b4a-4e3b-90b0-9d92431b9038","system_id":"levelo_inurba_marseille","lat":43.305994,"lon":5.393687,"is_reserved":false,"is_disabled":false,"rental_uris":{"android":"levelo://app?vid=ede47d52-2b4a-4e3b-90b0-9d92431b9038","ios":"levelo://app?vid=ede47d52-2b4a-4e3b-90b0-9d92431b9038"},"vehicle_type_id":"4","last_reported":1685819048,"current_range_meters":13200,"station_id":"ce4bh0p2rcd13ifvqd80","pricing_plan_id":"free"},{"bike_id":"eeb7674e-8ebd-48a2-be15-da0df0f54a77","system_id":"levelo_inurba_marseille","lat":43.293009,"lon":5.374584,"is_reserved":false,"is_disabled":false,"rental_uris":{"android":"levelo://app?vid=eeb7674e-8ebd-48a2-be15-da0df0f54a77","ios":"levelo://app?vid=eeb7674e-8ebd-48a2-be15-da0df0f54a77"},"vehicle_type_id":"4","last_reported":1685819048,"current_range_meters":0,"station_id":"ce4bgi12rcd13ifvqb70","pricing_plan_id":"free"},{"bike_id":"edcd8f32-2128-4e77-a589-329dd7079a88","system_id":"levelo_inurba_marseille","lat":43.302992,"lon":5.392136,"is_reserved":false,"is_disabled":false,"rental_uris":{"android":"levelo://app?vid=edcd8f32-2128-4e77-a589-329dd7079a88","ios":"levelo://app?vid=edcd8f32-2128-4e77-a589-329dd7079a88"},"vehicle_type_id":"4","last_reported":1685819048,"current_range_meters":2000,"station_id":"ce4bgkh2rcd13ifvqbk0","pricing_plan_id":"free"},{"bike_id":"8cc91daf-a74c-4408-9843-79cdd23e544b","system_id":"levelo_inurba_marseille","lat":43.29222,"lon":5.36031,"is_reserved":false,"is_disabled":false,"rental_uris":{"android":"levelo://app?vid=8cc91daf-a74c-4408-9843-79cdd23e544b","ios":"levelo://app?vid=8cc91daf-a74c-4408-9843-79cdd23e544b"},"vehicle_type_id":"4","last_reported":1685819048,"current_range_meters":0,"station_id":"","pricing_plan_id":"free"},{"bike_id":"8eb7d80d-acb2-4fc3-935d-febe45355ef4","system_id":"levelo_inurba_marseille","lat":43.291675,"lon":5.371583,"is_reserved":false,"is_disabled":false,"rental_uris":{"android":"levelo://app?vid=8eb7d80d-acb2-4fc3-935d-febe45355ef4","ios":"levelo://app?vid=8eb7d80d-acb2-4fc3-935d-febe45355ef4"},"vehicle_type_id":"4","last_reported":1685819048,"current_range_meters":24800,"station_id":"ce4bha92rcd13ifvqeh0","pricing_plan_id":"free"},{"bike_id":"a8ec3299-7843-4402-9a91-7944e71608ec","system_id":"levelo_inurba_marseille","lat":43.313291,"lon":5.396838,"is_reserved":false,"is_disabled":false,"rental_uris":{"android":"levelo://app?vid=a8ec3299-7843-4402-9a91-7944e71608ec","ios":"levelo://app?vid=a8ec3299-7843-4402-9a91-7944e71608ec"},"vehicle_type_id":"4","last_reported":1685819048,"current_range_meters":0,"station_id":"ce4bgvp2rcd13ifvqcu0","pricing_plan_id":"free"},{"bike_id":"41fe4bcf-7700-46b0-a602-3252d2f2c141","system_id":"levelo_inurba_marseille","lat":43.309038,"lon":5.396546,"is_reserved":false,"is_disabled":false,"rental_uris":{"android":"levelo://app?vid=41fe4bcf-7700-46b0-a602-3252d2f2c141","ios":"levelo://app?vid=41fe4bcf-7700-46b0-a602-3252d2f2c141"},"vehicle_type_id":"4","last_reported":1685819048,"current_range_meters":19200,"station_id":"ce4bh012rcd13ifvqcv0","pricing_plan_id":"free"},{"bike_id":"a1d588f9-8125-4a8f-9f59-c1cf1bdc5430","system_id":"levelo_inurba_marseille","lat":43.32788,"lon":5.38909,"is_reserved":false,"is_disabled":false,"rental_uris":{"android":"levelo://app?vid=a1d588f9-8125-4a8f-9f59-c1cf1bdc5430","ios":"levelo://app?vid=a1d588f9-8125-4a8f-9f59-c1cf1bdc5430"},"vehicle_type_id":"4","last_reported":1685819048,"current_range_meters":16000,"station_id":"","pricing_plan_id":"free"},{"bike_id":"49de8c3f-92c8-4e41-905d-79d047c702a8","system_id":"levelo_inurba_marseille","lat":43.289184,"lon":5.366408,"is_reserved":false,"is_disabled":false,"rental_uris":{"android":"levelo://app?vid=49de8c3f-92c8-4e41-905d-79d047c702a8","ios":"levelo://app?vid=49de8c3f-92c8-4e41-905d-79d047c702a8"},"vehicle_type_id":"4","last_reported":1685819048,"current_range_meters":16400,"station_id":"ce4bhap2rcd13ifvqek0","pricing_plan_id":"free"},{"bike_id":"5e2939d5-569e-4baf-994c-aeaf557f568a","system_id":"levelo_inurba_marseille","lat":43.292642,"lon":5.384254,"is_reserved":false,"is_disabled":false,"rental_uris":{"android":"levelo://app?vid=5e2939d5-569e-4baf-994c-aeaf557f568a","ios":"levelo://app?vid=5e2939d5-569e-4baf-994c-aeaf557f568a"},"vehicle_type_id":"4","last_reported":1685819048,"current_range_meters":2000,"station_id":"ce4bh692rcd13ifvqea0","pricing_plan_id":"free"},{"bike_id":"7570606a-4246-4299-b119-a431f16ada90","system_id":"levelo_inurba_marseille","lat":43.292642,"lon":5.384254,"is_reserved":false,"is_disabled":false,"rental_uris":{"android":"levelo://app?vid=7570606a-4246-4299-b119-a431f16ada90","ios":"levelo://app?vid=7570606a-4246-4299-b119-a431f16ada90"},"vehicle_type_id":"4","last_reported":1685819048,"current_range_meters":3600,"station_id":"ce4bh692rcd13ifvqea0","pricing_plan_id":"free"},{"bike_id":"4bf74627-e989-422b-870c-1704ffedc080","system_id":"levelo_inurba_marseille","lat":43.292642,"lon":5.384254,"is_reserved":false,"is_disabled":false,"rental_uris":{"android":"levelo://app?vid=4bf74627-e989-422b-870c-1704ffedc080","ios":"levelo://app?vid=4bf74627-e989-422b-870c-1704ffedc080"},"vehicle_type_id":"4","last_reported":1685819048,"current_range_meters":0,"station_id":"ce4bh692rcd13ifvqea0","pricing_plan_id":"free"},{"bike_id":"0fcdb8de-c2d9-469b-aa3c-d3ad19f37f79","system_id":"levelo_inurba_marseille","lat":43.3304,"lon":5.38915,"is_reserved":false,"is_disabled":false,"rental_uris":{"android":"levelo://app?vid=0fcdb8de-c2d9-469b-aa3c-d3ad19f37f79","ios":"levelo://app?vid=0fcdb8de-c2d9-469b-aa3c-d3ad19f37f79"},"vehicle_type_id":"4","last_reported":1685819048,"current_range_meters":18800,"station_id":"ce4bhr92rcd13ifvqhrg","pricing_plan_id":"free"},{"bike_id":"5cbcf543-d288-404c-bac6-328ef38ba2d8","system_id":"levelo_inurba_marseille","lat":43.33039,"lon":5.3892,"is_reserved":false,"is_disabled":false,"rental_uris":{"android":"levelo://app?vid=5cbcf543-d288-404c-bac6-328ef38ba2d8","ios":"levelo://app?vid=5cbcf543-d288-404c-bac6-328ef38ba2d8"},"vehicle_type_id":"4","last_reported":1685819048,"current_range_meters":22800,"station_id":"ce4bhr92rcd13ifvqhrg","pricing_plan_id":"free"},{"bike_id":"e2b942e0-3901-4124-a71d-a8535684af38","system_id":"levelo_inurba_marseille","lat":43.33042,"lon":5.38916,"is_reserved":false,"is_disabled":false,"rental_uris":{"android":"levelo://app?vid=e2b942e0-3901-4124-a71d-a8535684af38","ios":"levelo://app?vid=e2b942e0-3901-4124-a71d-a8535684af38"},"vehicle_type_id":"4","last_reported":1685819048,"current_range_meters":29600,"station_id":"ce4bhr92rcd13ifvqhrg","pricing_plan_id":"free"},{"bike_id":"0952ac1c-36ae-4d2a-ac86-3fa972f76ba7","system_id":"levelo_inurba_marseille","lat":43.33043,"lon":5.38915,"is_reserved":false,"is_disabled":false,"rental_uris":{"android":"levelo://app?vid=0952ac1c-36ae-4d2a-ac86-3fa972f76ba7","ios":"levelo://app?vid=0952ac1c-36ae-4d2a-ac86-3fa972f76ba7"},"vehicle_type_id":"4","last_reported":1685819048,"current_range_meters":3200,"station_id":"ce4bhr92rcd13ifvqhrg","pricing_plan_id":"free"},{"bike_id":"0456b2c1-8a4f-4e94-ae33-a548e7711bcf","system_id":"levelo_inurba_marseille","lat":43.33045,"lon":5.38915,"is_reserved":false,"is_disabled":false,"rental_uris":{"android":"levelo://app?vid=0456b2c1-8a4f-4e94-ae33-a548e7711bcf","ios":"levelo://app?vid=0456b2c1-8a4f-4e94-ae33-a548e7711bcf"},"vehicle_type_id":"4","last_reported":1685819048,"current_range_meters":15600,"station_id":"ce4bhr92rcd13ifvqhrg","pricing_plan_id":"free"},{"bike_id":"b7add0a3-c9bb-40e6-982c-e45602060c30","system_id":"levelo_inurba_marseille","lat":43.33042,"lon":5.38922,"is_reserved":false,"is_disabled":false,"rental_uris":{"android":"levelo://app?vid=b7add0a3-c9bb-40e6-982c-e45602060c30","ios":"levelo://app?vid=b7add0a3-c9bb-40e6-982c-e45602060c30"},"vehicle_type_id":"4","last_reported":1685819048,"current_range_meters":28000,"station_id":"ce4bhr92rcd13ifvqhrg","pricing_plan_id":"free"},{"bike_id":"7c9d06ff-9787-4d8f-9ecc-0120476db148","system_id":"levelo_inurba_marseille","lat":43.33044,"lon":5.38921,"is_reserved":false,"is_disabled":false,"rental_uris":{"android":"levelo://app?vid=7c9d06ff-9787-4d8f-9ecc-0120476db148","ios":"levelo://app?vid=7c9d06ff-9787-4d8f-9ecc-0120476db148"},"vehicle_type_id":"4","last_reported":1685819048,"current_range_meters":26400,"station_id":"ce4bhr92rcd13ifvqhrg","pricing_plan_id":"free"},{"bike_id":"1c4a5d89-01bc-4130-9591-e3ca4cb1ba1e","system_id":"levelo_inurba_marseille","lat":43.33046,"lon":5.38923,"is_reserved":false,"is_disabled":false,"rental_uris":{"android":"levelo://app?vid=1c4a5d89-01bc-4130-9591-e3ca4cb1ba1e","ios":"levelo://app?vid=1c4a5d89-01bc-4130-9591-e3ca4cb1ba1e"},"vehicle_type_id":"4","last_reported":1685819048,"current_range_meters":28800,"station_id":"ce4bhr92rcd13ifvqhrg","pricing_plan_id":"free"},{"bike_id":"05f1a2c7-d830-495c-86b8-292585194459","system_id":"levelo_inurba_marseille","lat":43.33049,"lon":5.38919,"is_reserved":false,"is_disabled":false,"rental_uris":{"android":"levelo://app?vid=05f1a2c7-d830-495c-86b8-292585194459","ios":"levelo://app?vid=05f1a2c7-d830-495c-86b8-292585194459"},"vehicle_type_id":"4","last_reported":1685819048,"current_range_meters":22000,"station_id":"ce4bhr92rcd13ifvqhrg","pricing_plan_id":"free"},{"bike_id":"880d048f-0aea-4e0c-88fc-1586a33246ea","system_id":"levelo_inurba_marseille","lat":43.29088,"lon":5.38143,"is_reserved":false,"is_disabled":false,"rental_uris":{"android":"levelo://app?vid=880d048f-0aea-4e0c-88fc-1586a33246ea","ios":"levelo://app?vid=880d048f-0aea-4e0c-88fc-1586a33246ea"},"vehicle_type_id":"4","last_reported":1685819048,"current_range_meters":8400,"station_id":"ce4bh512rcd13ifvqe2g","pricing_plan_id":"free"},{"bike_id":"093b73de-66a0-4bcc-81bf-d57c83cddfa5","system_id":"levelo_inurba_marseille","lat":43.297814,"lon":5.393513,"is_reserved":false,"is_disabled":false,"rental_uris":{"android":"levelo://app?vid=093b73de-66a0-4bcc-81bf-d57c83cddfa5","ios":"levelo://app?vid=093b73de-66a0-4bcc-81bf-d57c83cddfa5"},"vehicle_type_id":"4","last_reported":1685819048,"current_range_meters":0,"station_id":"chh1huq6cuj3fo74tm60","pricing_plan_id":"free"},{"bike_id":"2be29c19-e56c-45d0-9b6d-c09a86ff1415","system_id":"levelo_inurba_marseille","lat":43.29523,"lon":5.39055,"is_reserved":false,"is_disabled":false,"rental_uris":{"android":"levelo://app?vid=2be29c19-e56c-45d0-9b6d-c09a86ff1415","ios":"levelo://app?vid=2be29c19-e56c-45d0-9b6d-c09a86ff1415"},"vehicle_type_id":"4","last_reported":1685819048,"current_range_meters":0,"station_id":"ce4bh3p2rcd13ifvqdp0","pricing_plan_id":"free"},{"bike_id":"0a8aba60-b51b-427d-be66-8709066b23d1","system_id":"levelo_inurba_marseille","lat":43.33124,"lon":5.38951,"is_reserved":false,"is_disabled":false,"rental_uris":{"android":"levelo://app?vid=0a8aba60-b51b-427d-be66-8709066b23d1","ios":"levelo://app?vid=0a8aba60-b51b-427d-be66-8709066b23d1"},"vehicle_type_id":"4","last_reported":1685819048,"current_range_meters":28400,"station_id":"","pricing_plan_id":"free"},{"bike_id":"8f950625-af2d-4089-844d-37bd38107aa9","system_id":"levelo_inurba_marseille","lat":43.33744,"lon":5.37441,"is_reserved":false,"is_disabled":false,"rental_uris":{"android":"levelo://app?vid=8f950625-af2d-4089-844d-37bd38107aa9","ios":"levelo://app?vid=8f950625-af2d-4089-844d-37bd38107aa9"},"vehicle_type_id":"4","last_reported":1685819048,"current_range_meters":30800,"station_id":"","pricing_plan_id":"free"},{"bike_id":"675927e0-ab95-41a0-80be-7ee111a218f5","system_id":"levelo_inurba_marseille","lat":43.3375,"lon":5.37472,"is_reserved":false,"is_disabled":false,"rental_uris":{"android":"levelo://app?vid=675927e0-ab95-41a0-80be-7ee111a218f5","ios":"levelo://app?vid=675927e0-ab95-41a0-80be-7ee111a218f5"},"vehicle_type_id":"4","last_reported":1685819048,"current_range_meters":30800,"station_id":"","pricing_plan_id":"free"},{"bike_id":"c3752ddb-7d00-40fb-a9d8-ccdb97650005","system_id":"levelo_inurba_marseille","lat":43.30642,"lon":5.401031,"is_reserved":false,"is_disabled":false,"rental_uris":{"android":"levelo://app?vid=c3752ddb-7d00-40fb-a9d8-ccdb97650005","ios":"levelo://app?vid=c3752ddb-7d00-40fb-a9d8-ccdb97650005"},"vehicle_type_id":"4","last_reported":1685819048,"current_range_meters":28400,"station_id":"ce4bh112rcd13ifvqda0","pricing_plan_id":"free"},{"bike_id":"0ca2ca4f-4300-438e-9c4e-ccd2597237cb","system_id":"levelo_inurba_marseille","lat":43.301117,"lon":5.398795,"is_reserved":false,"is_disabled":false,"rental_uris":{"android":"levelo://app?vid=0ca2ca4f-4300-438e-9c4e-ccd2597237cb","ios":"levelo://app?vid=0ca2ca4f-4300-438e-9c4e-ccd2597237cb"},"vehicle_type_id":"4","last_reported":1685819048,"current_range_meters":11600,"station_id":"ce4bh0h2rcd13ifvqd40","pricing_plan_id":"free"},{"bike_id":"cf0caa37-cec8-408b-98f7-37211a80813c","system_id":"levelo_inurba_marseille","lat":43.3379,"lon":5.37417,"is_reserved":false,"is_disabled":false,"rental_uris":{"android":"levelo://app?vid=cf0caa37-cec8-408b-98f7-37211a80813c","ios":"levelo://app?vid=cf0caa37-cec8-408b-98f7-37211a80813c"},"vehicle_type_id":"4","last_reported":1685819048,"current_range_meters":29600,"station_id":"","pricing_plan_id":"free"},{"bike_id":"b0823a7c-b402-4282-8bad-3a72ceaef828","system_id":"levelo_inurba_marseille","lat":43.286593,"lon":5.363346,"is_reserved":false,"is_disabled":false,"rental_uris":{"android":"levelo://app?vid=b0823a7c-b402-4282-8bad-3a72ceaef828","ios":"levelo://app?vid=b0823a7c-b402-4282-8bad-3a72ceaef828"},"vehicle_type_id":"4","last_reported":1685819048,"current_range_meters":2000,"station_id":"ce4bhah2rcd13ifvqej0","pricing_plan_id":"free"},{"bike_id":"a905ea16-f5a0-4c0f-880e-2f6239ef7e56","system_id":"levelo_inurba_marseille","lat":43.290336,"lon":5.386425,"is_reserved":false,"is_disabled":false,"rental_uris":{"android":"levelo://app?vid=a905ea16-f5a0-4c0f-880e-2f6239ef7e56","ios":"levelo://app?vid=a905ea16-f5a0-4c0f-880e-2f6239ef7e56"},"vehicle_type_id":"4","last_reported":1685819048,"current_range_meters":5200,"station_id":"ce4bh4p2rcd13ifvqe0g","pricing_plan_id":"free"},{"bike_id":"cd59c8c5-b963-4bbe-b444-62d8069abb55","system_id":"levelo_inurba_marseille","lat":43.290336,"lon":5.386425,"is_reserved":false,"is_disabled":false,"rental_uris":{"android":"levelo://app?vid=cd59c8c5-b963-4bbe-b444-62d8069abb55","ios":"levelo://app?vid=cd59c8c5-b963-4bbe-b444-62d8069abb55"},"vehicle_type_id":"4","last_reported":1685819048,"current_range_meters":7600,"station_id":"ce4bh4p2rcd13ifvqe0g","pricing_plan_id":"free"},{"bike_id":"267cd73b-ea4b-42e8-9f0b-271bce9cb24a","system_id":"levelo_inurba_marseille","lat":43.30242,"lon":5.40067,"is_reserved":false,"is_disabled":false,"rental_uris":{"android":"levelo://app?vid=267cd73b-ea4b-42e8-9f0b-271bce9cb24a","ios":"levelo://app?vid=267cd73b-ea4b-42e8-9f0b-271bce9cb24a"},"vehicle_type_id":"4","last_reported":1685819048,"current_range_meters":21600,"station_id":"","pricing_plan_id":"free"},{"bike_id":"0cebd3e4-9ba7-4229-af2e-50aa29eca006","system_id":"levelo_inurba_marseille","lat":43.286039,"lon":5.370681,"is_reserved":false,"is_disabled":false,"rental_uris":{"android":"levelo://app?vid=0cebd3e4-9ba7-4229-af2e-50aa29eca006","ios":"levelo://app?vid=0cebd3e4-9ba7-4229-af2e-50aa29eca006"},"vehicle_type_id":"4","last_reported":1685819048,"current_range_meters":16000,"station_id":"ce4bht12rcd13ifvqi60","pricing_plan_id":"free"},{"bike_id":"6de64cc8-8e25-4431-8f04-87cffab51e59","system_id":"levelo_inurba_marseille","lat":43.286039,"lon":5.370681,"is_reserved":false,"is_disabled":false,"rental_uris":{"android":"levelo://app?vid=6de64cc8-8e25-4431-8f04-87cffab51e59","ios":"levelo://app?vid=6de64cc8-8e25-4431-8f04-87cffab51e59"},"vehicle_type_id":"4","last_reported":1685819048,"current_range_meters":5600,"station_id":"ce4bht12rcd13ifvqi60","pricing_plan_id":"free"},{"bike_id":"c98c1af0-f408-4c64-930f-6a2fa15c058a","system_id":"levelo_inurba_marseille","lat":43.291994,"lon":5.392907,"is_reserved":false,"is_disabled":false,"rental_uris":{"android":"levelo://app?vid=c98c1af0-f408-4c64-930f-6a2fa15c058a","ios":"levelo://app?vid=c98c1af0-f408-4c64-930f-6a2fa15c058a"},"vehicle_type_id":"4","last_reported":1685819048,"current_range_meters":0,"station_id":"ce4bh192rcd13ifvqdd0","pricing_plan_id":"free"},{"bike_id":"dce1844d-be05-41ef-b584-4756f4907959","system_id":"levelo_inurba_marseille","lat":43.295713,"lon":5.399639,"is_reserved":false,"is_disabled":false,"rental_uris":{"android":"levelo://app?vid=dce1844d-be05-41ef-b584-4756f4907959","ios":"levelo://app?vid=dce1844d-be05-41ef-b584-4756f4907959"},"vehicle_type_id":"4","last_reported":1685819048,"current_range_meters":1600,"station_id":"ce4bh312rcd13ifvqdj0","pricing_plan_id":"free"},{"bike_id":"2e0c5304-5087-48ca-8c99-78fc5d50d4ad","system_id":"levelo_inurba_marseille","lat":43.286595,"lon":5.386795,"is_reserved":false,"is_disabled":false,"rental_uris":{"android":"levelo://app?vid=2e0c5304-5087-48ca-8c99-78fc5d50d4ad","ios":"levelo://app?vid=2e0c5304-5087-48ca-8c99-78fc5d50d4ad"},"vehicle_type_id":"4","last_reported":1685819048,"current_range_meters":0,"station_id":"ce4bh492rcd13ifvqdug","pricing_plan_id":"free"},{"bike_id":"b205e703-9cc6-479d-b47b-dcec15459f4d","system_id":"levelo_inurba_marseille","lat":43.3264,"lon":5.40457,"is_reserved":false,"is_disabled":false,"rental_uris":{"android":"levelo://app?vid=b205e703-9cc6-479d-b47b-dcec15459f4d","ios":"levelo://app?vid=b205e703-9cc6-479d-b47b-dcec15459f4d"},"vehicle_type_id":"4","last_reported":1685819048,"current_range_meters":16000,"station_id":"","pricing_plan_id":"free"},{"bike_id":"13fc6b9a-d754-4107-ae5a-e7f7d160a3e2","system_id":"levelo_inurba_marseille","lat":43.28039,"lon":5.369297,"is_reserved":false,"is_disabled":false,"rental_uris":{"android":"levelo://app?vid=13fc6b9a-d754-4107-ae5a-e7f7d160a3e2","ios":"levelo://app?vid=13fc6b9a-d754-4107-ae5a-e7f7d160a3e2"},"vehicle_type_id":"4","last_reported":1685819048,"current_range_meters":0,"station_id":"ce4bha12rcd13ifvqef0","pricing_plan_id":"free"},{"bike_id":"d0ae38ca-20e5-48b8-8f87-cb613f66fb6d","system_id":"levelo_inurba_marseille","lat":43.28039,"lon":5.369297,"is_reserved":false,"is_disabled":false,"rental_uris":{"android":"levelo://app?vid=d0ae38ca-20e5-48b8-8f87-cb613f66fb6d","ios":"levelo://app?vid=d0ae38ca-20e5-48b8-8f87-cb613f66fb6d"},"vehicle_type_id":"4","last_reported":1685819048,"current_range_meters":18800,"station_id":"ce4bha12rcd13ifvqef0","pricing_plan_id":"free"},{"bike_id":"e1d3d640-d733-4874-817f-e9df379d0109","system_id":"levelo_inurba_marseille","lat":43.27923,"lon":5.38371,"is_reserved":false,"is_disabled":false,"rental_uris":{"android":"levelo://app?vid=e1d3d640-d733-4874-817f-e9df379d0109","ios":"levelo://app?vid=e1d3d640-d733-4874-817f-e9df379d0109"},"vehicle_type_id":"4","last_reported":1685819048,"current_range_meters":30800,"station_id":"","pricing_plan_id":"free"},{"bike_id":"59c49635-9b22-4e36-8f08-752ae4fd0c2b","system_id":"levelo_inurba_marseille","lat":43.279742,"lon":5.38744,"is_reserved":false,"is_disabled":false,"rental_uris":{"android":"levelo://app?vid=59c49635-9b22-4e36-8f08-752ae4fd0c2b","ios":"levelo://app?vid=59c49635-9b22-4e36-8f08-752ae4fd0c2b"},"vehicle_type_id":"4","last_reported":1685819048,"current_range_meters":0,"station_id":"ce4bhg12rcd13ifvqf80","pricing_plan_id":"free"},{"bike_id":"6a393bd7-90bb-4794-9445-d37322c69d35","system_id":"levelo_inurba_marseille","lat":43.299579,"lon":5.413255,"is_reserved":false,"is_disabled":false,"rental_uris":{"android":"levelo://app?vid=6a393bd7-90bb-4794-9445-d37322c69d35","ios":"levelo://app?vid=6a393bd7-90bb-4794-9445-d37322c69d35"},"vehicle_type_id":"4","last_reported":1685819048,"current_range_meters":0,"station_id":"ce4bhp12rcd13ifvqh9g","pricing_plan_id":"free"},{"bike_id":"01e77696-e8b5-407b-b04b-2b6912a925c0","system_id":"levelo_inurba_marseille","lat":43.279742,"lon":5.38744,"is_reserved":false,"is_disabled":false,"rental_uris":{"android":"levelo://app?vid=01e77696-e8b5-407b-b04b-2b6912a925c0","ios":"levelo://app?vid=01e77696-e8b5-407b-b04b-2b6912a925c0"},"vehicle_type_id":"4","last_reported":1685819048,"current_range_meters":0,"station_id":"ce4bhg12rcd13ifvqf80","pricing_plan_id":"free"},{"bike_id":"c0a9ca6a-6daf-4adf-bce4-84feafa7a14e","system_id":"levelo_inurba_marseille","lat":43.27382,"lon":5.36254,"is_reserved":false,"is_disabled":false,"rental_uris":{"android":"levelo://app?vid=c0a9ca6a-6daf-4adf-bce4-84feafa7a14e","ios":"levelo://app?vid=c0a9ca6a-6daf-4adf-bce4-84feafa7a14e"},"vehicle_type_id":"4","last_reported":1685819048,"current_range_meters":12400,"station_id":"","pricing_plan_id":"free"},{"bike_id":"14522d85-1bb6-4841-9c91-4ee6bf6f970b","system_id":"levelo_inurba_marseille","lat":43.273613,"lon":5.362705,"is_reserved":false,"is_disabled":false,"rental_uris":{"android":"levelo://app?vid=14522d85-1bb6-4841-9c91-4ee6bf6f970b","ios":"levelo://app?vid=14522d85-1bb6-4841-9c91-4ee6bf6f970b"},"vehicle_type_id":"4","last_reported":1685819048,"current_range_meters":0,"station_id":"ce4bhbh2rcd13ifvqeo0","pricing_plan_id":"free"},{"bike_id":"9908a2eb-cceb-4359-b2f6-31b6ef3dee84","system_id":"levelo_inurba_marseille","lat":43.275243,"lon":5.384237,"is_reserved":false,"is_disabled":false,"rental_uris":{"android":"levelo://app?vid=9908a2eb-cceb-4359-b2f6-31b6ef3dee84","ios":"levelo://app?vid=9908a2eb-cceb-4359-b2f6-31b6ef3dee84"},"vehicle_type_id":"4","last_reported":1685819048,"current_range_meters":25200,"station_id":"ce4bhe12rcd13ifvqf30","pricing_plan_id":"free"},{"bike_id":"12e36152-e90f-428b-92b9-0c1453f6aec9","system_id":"levelo_inurba_marseille","lat":43.317121,"lon":5.423936,"is_reserved":false,"is_disabled":false,"rental_uris":{"android":"levelo://app?vid=12e36152-e90f-428b-92b9-0c1453f6aec9","ios":"levelo://app?vid=12e36152-e90f-428b-92b9-0c1453f6aec9"},"vehicle_type_id":"4","last_reported":1685819048,"current_range_meters":29600,"station_id":"ce4bhp92rcd13ifvqhbg","pricing_plan_id":"free"},{"bike_id":"9db9545d-f63d-42be-a674-9c25625f916b","system_id":"levelo_inurba_marseille","lat":43.29396,"lon":5.4191,"is_reserved":false,"is_disabled":false,"rental_uris":{"android":"levelo://app?vid=9db9545d-f63d-42be-a674-9c25625f916b","ios":"levelo://app?vid=9db9545d-f63d-42be-a674-9c25625f916b"},"vehicle_type_id":"4","last_reported":1685819048,"current_range_meters":11200,"station_id":"","pricing_plan_id":"free"},{"bike_id":"4d80717c-1ab1-4ff1-8e16-4b8981f90281","system_id":"levelo_inurba_marseille","lat":43.32836,"lon":5.42137,"is_reserved":false,"is_disabled":false,"rental_uris":{"android":"levelo://app?vid=4d80717c-1ab1-4ff1-8e16-4b8981f90281","ios":"levelo://app?vid=4d80717c-1ab1-4ff1-8e16-4b8981f90281"},"vehicle_type_id":"4","last_reported":1685819048,"current_range_meters":29200,"station_id":"","pricing_plan_id":"free"},{"bike_id":"1f9d19ce-3d85-498e-9c91-60b4bf41c699","system_id":"levelo_inurba_marseille","lat":43.295511,"lon":5.422926,"is_reserved":false,"is_disabled":false,"rental_uris":{"android":"levelo://app?vid=1f9d19ce-3d85-498e-9c91-60b4bf41c699","ios":"levelo://app?vid=1f9d19ce-3d85-498e-9c91-60b4bf41c699"},"vehicle_type_id":"4","last_reported":1685819048,"current_range_meters":8800,"station_id":"ce4bhph2rcd13ifvqhdg","pricing_plan_id":"free"},{"bike_id":"bb36981f-a00f-4677-830d-aeca0e890253","system_id":"levelo_inurba_marseille","lat":43.278128,"lon":5.407195,"is_reserved":false,"is_disabled":false,"rental_uris":{"android":"levelo://app?vid=bb36981f-a00f-4677-830d-aeca0e890253","ios":"levelo://app?vid=bb36981f-a00f-4677-830d-aeca0e890253"},"vehicle_type_id":"4","last_reported":1685819048,"current_range_meters":8000,"station_id":"ce4bhnh2rcd13ifvqgtg","pricing_plan_id":"free"},{"bike_id":"d64a3bfe-8956-4246-84b9-a69d1f396dea","system_id":"levelo_inurba_marseille","lat":43.26929,"lon":5.38908,"is_reserved":false,"is_disabled":false,"rental_uris":{"android":"levelo://app?vid=d64a3bfe-8956-4246-84b9-a69d1f396dea","ios":"levelo://app?vid=d64a3bfe-8956-4246-84b9-a69d1f396dea"},"vehicle_type_id":"4","last_reported":1685819048,"current_range_meters":400,"station_id":"ce4bhhh2rcd13ifvqfl0","pricing_plan_id":"free"},{"bike_id":"e9c47374-d207-4878-9480-c457d72f5352","system_id":"levelo_inurba_marseille","lat":43.26681,"lon":5.382694,"is_reserved":false,"is_disabled":false,"rental_uris":{"android":"levelo://app?vid=e9c47374-d207-4878-9480-c457d72f5352","ios":"levelo://app?vid=e9c47374-d207-4878-9480-c457d72f5352"},"vehicle_type_id":"4","last_reported":1685819048,"current_range_meters":2000,"station_id":"ce4bhg92rcd13ifvqf90","pricing_plan_id":"free"},{"bike_id":"eb149093-5fcd-49a4-85bf-d19cf87aa54e","system_id":"levelo_inurba_marseille","lat":43.265714,"lon":5.372891,"is_reserved":false,"is_disabled":false,"rental_uris":{"android":"levelo://app?vid=eb149093-5fcd-49a4-85bf-d19cf87aa54e","ios":"levelo://app?vid=eb149093-5fcd-49a4-85bf-d19cf87aa54e"},"vehicle_type_id":"4","last_reported":1685819048,"current_range_meters":4400,"station_id":"ce4bhg12rcd13ifvqf70","pricing_plan_id":"free"},{"bike_id":"477c9b24-a1bd-4af2-9e3a-7a10b9af13d1","system_id":"levelo_inurba_marseille","lat":43.31717,"lon":5.43316,"is_reserved":false,"is_disabled":false,"rental_uris":{"android":"levelo://app?vid=477c9b24-a1bd-4af2-9e3a-7a10b9af13d1","ios":"levelo://app?vid=477c9b24-a1bd-4af2-9e3a-7a10b9af13d1"},"vehicle_type_id":"4","last_reported":1685819048,"current_range_meters":0,"station_id":"","pricing_plan_id":"free"},{"bike_id":"7d4a7782-ae91-48a2-9fc4-afcdce6bed9b","system_id":"levelo_inurba_marseille","lat":43.27996,"lon":5.416624,"is_reserved":false,"is_disabled":false,"rental_uris":{"android":"levelo://app?vid=7d4a7782-ae91-48a2-9fc4-afcdce6bed9b","ios":"levelo://app?vid=7d4a7782-ae91-48a2-9fc4-afcdce6bed9b"},"vehicle_type_id":"4","last_reported":1685819048,"current_range_meters":0,"station_id":"ce4bho12rcd13ifvqh1g","pricing_plan_id":"free"},{"bike_id":"220ef4e7-904f-40d3-b9ad-7bced374de5c","system_id":"levelo_inurba_marseille","lat":43.27996,"lon":5.416624,"is_reserved":false,"is_disabled":false,"rental_uris":{"android":"levelo://app?vid=220ef4e7-904f-40d3-b9ad-7bced374de5c","ios":"levelo://app?vid=220ef4e7-904f-40d3-b9ad-7bced374de5c"},"vehicle_type_id":"4","last_reported":1685819048,"current_range_meters":16800,"station_id":"ce4bho12rcd13ifvqh1g","pricing_plan_id":"free"},{"bike_id":"d9e31b94-1ec1-477c-b2dd-ab89dc003868","system_id":"levelo_inurba_marseille","lat":43.317104,"lon":5.436818,"is_reserved":false,"is_disabled":false,"rental_uris":{"android":"levelo://app?vid=d9e31b94-1ec1-477c-b2dd-ab89dc003868","ios":"levelo://app?vid=d9e31b94-1ec1-477c-b2dd-ab89dc003868"},"vehicle_type_id":"4","last_reported":1685819048,"current_range_meters":26400,"station_id":"ce4bhp92rcd13ifvqhcg","pricing_plan_id":"free"},{"bike_id":"5415e708-7bfa-4989-a5b9-9bb08681b5d9","system_id":"levelo_inurba_marseille","lat":43.267959,"lon":5.402687,"is_reserved":false,"is_disabled":false,"rental_uris":{"android":"levelo://app?vid=5415e708-7bfa-4989-a5b9-9bb08681b5d9","ios":"levelo://app?vid=5415e708-7bfa-4989-a5b9-9bb08681b5d9"},"vehicle_type_id":"4","last_reported":1685819048,"current_range_meters":11600,"station_id":"ce501612rcd8frsf0b60","pricing_plan_id":"free"},{"bike_id":"10e5dada-f9b9-4bff-b505-e174aa8bc2a5","system_id":"levelo_inurba_marseille","lat":43.26807,"lon":5.40271,"is_reserved":false,"is_disabled":false,"rental_uris":{"android":"levelo://app?vid=10e5dada-f9b9-4bff-b505-e174aa8bc2a5","ios":"levelo://app?vid=10e5dada-f9b9-4bff-b505-e174aa8bc2a5"},"vehicle_type_id":"4","last_reported":1685819048,"current_range_meters":24400,"station_id":"ce501612rcd8frsf0b60","pricing_plan_id":"free"},{"bike_id":"d97f5fef-d33e-408b-a68a-ff462754117a","system_id":"levelo_inurba_marseille","lat":43.267959,"lon":5.402687,"is_reserved":false,"is_disabled":false,"rental_uris":{"android":"levelo://app?vid=d97f5fef-d33e-408b-a68a-ff462754117a","ios":"levelo://app?vid=d97f5fef-d33e-408b-a68a-ff462754117a"},"vehicle_type_id":"4","last_reported":1685819048,"current_range_meters":2400,"station_id":"ce501612rcd8frsf0b60","pricing_plan_id":"free"},{"bike_id":"d19d15da-b93e-448e-8392-fdf89fc0fffa","system_id":"levelo_inurba_marseille","lat":43.260219,"lon":5.37546,"is_reserved":false,"is_disabled":false,"rental_uris":{"android":"levelo://app?vid=d19d15da-b93e-448e-8392-fdf89fc0fffa","ios":"levelo://app?vid=d19d15da-b93e-448e-8392-fdf89fc0fffa"},"vehicle_type_id":"4","last_reported":1685819048,"current_range_meters":4800,"station_id":"ce4bhgh2rcd13ifvqfa0","pricing_plan_id":"free"},{"bike_id":"a04e534f-4054-4cb4-b9fd-4a63779d31ec","system_id":"levelo_inurba_marseille","lat":43.260219,"lon":5.37546,"is_reserved":false,"is_disabled":false,"rental_uris":{"android":"levelo://app?vid=a04e534f-4054-4cb4-b9fd-4a63779d31ec","ios":"levelo://app?vid=a04e534f-4054-4cb4-b9fd-4a63779d31ec"},"vehicle_type_id":"4","last_reported":1685819048,"current_range_meters":0,"station_id":"ce4bhgh2rcd13ifvqfa0","pricing_plan_id":"free"},{"bike_id":"2d800b32-bb93-49d4-87a0-688b9766951d","system_id":"levelo_inurba_marseille","lat":43.2607,"lon":5.393983,"is_reserved":false,"is_disabled":false,"rental_uris":{"android":"levelo://app?vid=2d800b32-bb93-49d4-87a0-688b9766951d","ios":"levelo://app?vid=2d800b32-bb93-49d4-87a0-688b9766951d"},"vehicle_type_id":"4","last_reported":1685819048,"current_range_meters":0,"station_id":"ce4bhh92rcd13ifvqfj0","pricing_plan_id":"free"},{"bike_id":"31387b37-3a81-4ff7-8831-8a82788da885","system_id":"levelo_inurba_marseille","lat":43.255756,"lon":5.382303,"is_reserved":false,"is_disabled":false,"rental_uris":{"android":"levelo://app?vid=31387b37-3a81-4ff7-8831-8a82788da885","ios":"levelo://app?vid=31387b37-3a81-4ff7-8831-8a82788da885"},"vehicle_type_id":"4","last_reported":1685819048,"current_range_meters":0,"station_id":"ce4bhih2rcd13ifvqfs0","pricing_plan_id":"free"},{"bike_id":"00dbbdfa-383f-4b1e-8bcc-c4687db6af7a","system_id":"levelo_inurba_marseille","lat":43.25573,"lon":5.38243,"is_reserved":false,"is_disabled":false,"rental_uris":{"android":"levelo://app?vid=00dbbdfa-383f-4b1e-8bcc-c4687db6af7a","ios":"levelo://app?vid=00dbbdfa-383f-4b1e-8bcc-c4687db6af7a"},"vehicle_type_id":"4","last_reported":1685819048,"current_range_meters":20400,"station_id":"ce4bhih2rcd13ifvqfs0","pricing_plan_id":"free"},{"bike_id":"a2717056-5d87-48dd-b30c-1f6e7de51635","system_id":"levelo_inurba_marseille","lat":43.270721,"lon":5.422764,"is_reserved":false,"is_disabled":false,"rental_uris":{"android":"levelo://app?vid=a2717056-5d87-48dd-b30c-1f6e7de51635","ios":"levelo://app?vid=a2717056-5d87-48dd-b30c-1f6e7de51635"},"vehicle_type_id":"4","last_reported":1685819048,"current_range_meters":9600,"station_id":"ce4bhk92rcd13ifvqgb0","pricing_plan_id":"free"},{"bike_id":"41c2590e-164d-41e9-b96b-588d43dd2f8b","system_id":"levelo_inurba_marseille","lat":43.28605,"lon":5.44194,"is_reserved":false,"is_disabled":false,"rental_uris":{"android":"levelo://app?vid=41c2590e-164d-41e9-b96b-588d43dd2f8b","ios":"levelo://app?vid=41c2590e-164d-41e9-b96b-588d43dd2f8b"},"vehicle_type_id":"4","last_reported":1685819048,"current_range_meters":7200,"station_id":"","pricing_plan_id":"free"},{"bike_id":"e370656b-f8e3-4af5-b780-09cad9cf5f70","system_id":"levelo_inurba_marseille","lat":43.25939,"lon":5.40894,"is_reserved":false,"is_disabled":false,"rental_uris":{"android":"levelo://app?vid=e370656b-f8e3-4af5-b780-09cad9cf5f70","ios":"levelo://app?vid=e370656b-f8e3-4af5-b780-09cad9cf5f70"},"vehicle_type_id":"4","last_reported":1685819048,"current_range_meters":22400,"station_id":"","pricing_plan_id":"free"},{"bike_id":"1982f1a1-34c5-46a3-a599-1844dff06ac9","system_id":"levelo_inurba_marseille","lat":43.259009,"lon":5.40929,"is_reserved":false,"is_disabled":false,"rental_uris":{"android":"levelo://app?vid=1982f1a1-34c5-46a3-a599-1844dff06ac9","ios":"levelo://app?vid=1982f1a1-34c5-46a3-a599-1844dff06ac9"},"vehicle_type_id":"4","last_reported":1685819048,"current_range_meters":11600,"station_id":"ce4bhm92rcd13ifvqglg","pricing_plan_id":"free"},{"bike_id":"b8e8339b-01d3-4b1d-b319-f7e80b5be736","system_id":"levelo_inurba_marseille","lat":43.259009,"lon":5.40929,"is_reserved":false,"is_disabled":false,"rental_uris":{"android":"levelo://app?vid=b8e8339b-01d3-4b1d-b319-f7e80b5be736","ios":"levelo://app?vid=b8e8339b-01d3-4b1d-b319-f7e80b5be736"},"vehicle_type_id":"4","last_reported":1685819048,"current_range_meters":25600,"station_id":"ce4bhm92rcd13ifvqglg","pricing_plan_id":"free"},{"bike_id":"b775bb0a-185c-4b34-92a9-66079e8da03a","system_id":"levelo_inurba_marseille","lat":43.2479,"lon":5.374457,"is_reserved":false,"is_disabled":false,"rental_uris":{"android":"levelo://app?vid=b775bb0a-185c-4b34-92a9-66079e8da03a","ios":"levelo://app?vid=b775bb0a-185c-4b34-92a9-66079e8da03a"},"vehicle_type_id":"4","last_reported":1685819048,"current_range_meters":2000,"station_id":"ce4bhgh2rcd13ifvqfb0","pricing_plan_id":"free"},{"bike_id":"b01cc33d-e22a-4aa7-8879-5d2cba73d425","system_id":"levelo_inurba_marseille","lat":43.246467,"lon":5.388984,"is_reserved":false,"is_disabled":false,"rental_uris":{"android":"levelo://app?vid=b01cc33d-e22a-4aa7-8879-5d2cba73d425","ios":"levelo://app?vid=b01cc33d-e22a-4aa7-8879-5d2cba73d425"},"vehicle_type_id":"4","last_reported":1685819048,"current_range_meters":0,"station_id":"ce4bhg12rcd13ifvqf60","pricing_plan_id":"free"},{"bike_id":"8ae77b5e-541a-4803-94e5-50e8fc075cbd","system_id":"levelo_inurba_marseille","lat":43.24452,"lon":5.36924,"is_reserved":false,"is_disabled":false,"rental_uris":{"android":"levelo://app?vid=8ae77b5e-541a-4803-94e5-50e8fc075cbd","ios":"levelo://app?vid=8ae77b5e-541a-4803-94e5-50e8fc075cbd"},"vehicle_type_id":"4","last_reported":1685819048,"current_range_meters":31200,"station_id":"","pricing_plan_id":"free"},{"bike_id":"5d413320-2d93-47df-9016-dd82954c80b5","system_id":"levelo_inurba_marseille","lat":43.24652,"lon":5.39171,"is_reserved":false,"is_disabled":false,"rental_uris":{"android":"levelo://app?vid=5d413320-2d93-47df-9016-dd82954c80b5","ios":"levelo://app?vid=5d413320-2d93-47df-9016-dd82954c80b5"},"vehicle_type_id":"4","last_reported":1685819048,"current_range_meters":27200,"station_id":"","pricing_plan_id":"free"},{"bike_id":"f48f61f2-f413-4add-8bc7-fa009bc0b679","system_id":"levelo_inurba_marseille","lat":43.24643,"lon":5.39158,"is_reserved":false,"is_disabled":false,"rental_uris":{"android":"levelo://app?vid=f48f61f2-f413-4add-8bc7-fa009bc0b679","ios":"levelo://app?vid=f48f61f2-f413-4add-8bc7-fa009bc0b679"},"vehicle_type_id":"4","last_reported":1685819048,"current_range_meters":20000,"station_id":"","pricing_plan_id":"free"},{"bike_id":"90ec6158-08ad-4670-8a96-0a5e300cb0d7","system_id":"levelo_inurba_marseille","lat":43.24597,"lon":5.38974,"is_reserved":false,"is_disabled":false,"rental_uris":{"android":"levelo://app?vid=90ec6158-08ad-4670-8a96-0a5e300cb0d7","ios":"levelo://app?vid=90ec6158-08ad-4670-8a96-0a5e300cb0d7"},"vehicle_type_id":"4","last_reported":1685819048,"current_range_meters":9600,"station_id":"","pricing_plan_id":"free"},{"bike_id":"2c8cb84b-1112-4638-840b-42a6227cf279","system_id":"levelo_inurba_marseille","lat":43.28909,"lon":5.45712,"is_reserved":false,"is_disabled":false,"rental_uris":{"android":"levelo://app?vid=2c8cb84b-1112-4638-840b-42a6227cf279","ios":"levelo://app?vid=2c8cb84b-1112-4638-840b-42a6227cf279"},"vehicle_type_id":"4","last_reported":1685819048,"current_range_meters":10800,"station_id":"","pricing_plan_id":"free"},{"bike_id":"1b8d907b-a6b7-4e4f-8827-6e94940b813f","system_id":"levelo_inurba_marseille","lat":43.239588,"lon":5.366238,"is_reserved":false,"is_disabled":false,"rental_uris":{"android":"levelo://app?vid=1b8d907b-a6b7-4e4f-8827-6e94940b813f","ios":"levelo://app?vid=1b8d907b-a6b7-4e4f-8827-6e94940b813f"},"vehicle_type_id":"4","last_reported":1685819048,"current_range_meters":4400,"station_id":"ce4bhi12rcd13ifvqfp0","pricing_plan_id":"free"},{"bike_id":"b8faed79-f426-43bf-b73d-118acbf26257","system_id":"levelo_inurba_marseille","lat":43.239588,"lon":5.366238,"is_reserved":false,"is_disabled":false,"rental_uris":{"android":"levelo://app?vid=b8faed79-f426-43bf-b73d-118acbf26257","ios":"levelo://app?vid=b8faed79-f426-43bf-b73d-118acbf26257"},"vehicle_type_id":"4","last_reported":1685819048,"current_range_meters":21200,"station_id":"ce4bhi12rcd13ifvqfp0","pricing_plan_id":"free"},{"bike_id":"3d54e830-364c-4b45-8adb-293a0fe4f129","system_id":"levelo_inurba_marseille","lat":43.23959,"lon":5.36623,"is_reserved":false,"is_disabled":false,"rental_uris":{"android":"levelo://app?vid=3d54e830-364c-4b45-8adb-293a0fe4f129","ios":"levelo://app?vid=3d54e830-364c-4b45-8adb-293a0fe4f129"},"vehicle_type_id":"4","last_reported":1685819048,"current_range_meters":25200,"station_id":"ce4bhi12rcd13ifvqfp0","pricing_plan_id":"free"},{"bike_id":"36be0654-a594-495b-a31c-6463ea32f1be","system_id":"levelo_inurba_marseille","lat":43.30383,"lon":5.47465,"is_reserved":false,"is_disabled":false,"rental_uris":{"android":"levelo://app?vid=36be0654-a594-495b-a31c-6463ea32f1be","ios":"levelo://app?vid=36be0654-a594-495b-a31c-6463ea32f1be"},"vehicle_type_id":"4","last_reported":1685819048,"current_range_meters":2800,"station_id":"","pricing_plan_id":"free"},{"bike_id":"97911575-0740-4ace-9259-7ac6b2b09d9e","system_id":"levelo_inurba_marseille","lat":43.28807,"lon":5.47077,"is_reserved":false,"is_disabled":false,"rental_uris":{"android":"levelo://app?vid=97911575-0740-4ace-9259-7ac6b2b09d9e","ios":"levelo://app?vid=97911575-0740-4ace-9259-7ac6b2b09d9e"},"vehicle_type_id":"4","last_reported":1685819048,"current_range_meters":1200,"station_id":"","pricing_plan_id":"free"}]}}