{"last_updated":1725646291,"ttl":30,"version":"2.2","data":{"bikes":[{"bike_id":"0240b0a5-bdd1-4c2a-9b24-4a922bec4561","system_id":"levelo_inurba_marseille","lat":43.312239,"lon":5.368562,"is_reserved":false,"is_disabled":false,"rental_uris":{"android":"levelo://app?vid=0240b0a5-bdd1-4c2a-9b24-4a922bec4561","ios":"levelo://app?vid=0240b0a5-bdd1-4c2a-9b24-4a922bec4561"},"vehicle_type_id":"4","last_reported":1725646291,"current_range_meters":28800,"station_id":"ce4bgl92rcd13ifvqbq0","pricing_plan_id":"cebpf4jnsgd1na2vs0mg"},{"bike_id":"73c754cb-640d-47ed-b4e7-30cca5774045","system_id":"levelo_inurba_marseille","lat":43.312239,"lon":5.368562,"is_reserved":false,"is_disabled":false,"rental_uris":{"android":"levelo://app?vid=73c754cb-640d-47ed-b4e7-30cca5774045","ios":"levelo://app?vid=73c754cb-640d-47ed-b4e7-30cca5774045"},"vehicle_type_id":"4","last_reported":1725646291,"current_range_meters":26800,"station_id":"ce4bgl92rcd13ifvqbq0","pricing_plan_id":"cebpf4jnsgd1na2vs0mg"},{"bike_id":"92f27e6d-f8e0-4dcb-aecf-f10742f4b6f6","system_id":"levelo_inurba_marseille","lat":43.312239,"lon":5.368562,"is_reserved":false,"is_disabled":false,"rental_uris":{"android":"levelo://app?vid=92f27e6d-f8e0-4dcb-aecf-f10742f4b6f6","ios":"levelo://app?vid=92f27e6d-f8e0-4dcb-aecf-f10742f4b6f6"},"vehicle_type_id":"4","last_reported":1725646291,"current_range_meters":0,"station_id":"ce4bgl92rcd13ifvqbq0","pricing_plan_id":"cebpf4jnsgd1na2vs0mg"},{"bike_id":"4043c4f9-401e-48a4-b02f-60b0727ba6ea","system_id":"levelo_inurba_marseille","lat":43.309076,"lon":5.368465,"is_reserved":false,"is_disabled":false,"rental_uris":{"android":"levelo://app?vid=4043c4f9-401e-48a4-b02f-60b0727ba6ea","ios":"levelo://app?vid=4043c4f9-401e-48a4-b02f-60b0727ba6ea"},"vehicle_type_id":"4","last_reported":1725646291,"current_range_meters":18800,"station_id":"ce4bgn92rcd13ifvqbvg","pricing_plan_id":"cebpf4jnsgd1na2vs0mg"},{"bike_id":"08f42f47-ced5-4f5e-b10e-7a7b3cfbca86","system_id":"levelo_inurba_marseille","lat":43.314811,"lon":5.373103,"is_reserved":false,"is_disabled":false,"rental_uris":{"android":"levelo://app?vid=08f42f47-ced5-4f5e-b10e-7a7b3cfbca86","ios":"levelo://app?vid=08f42f47-ced5-4f5e-b10e-7a7b3cfbca86"},"vehicle_type_id":"4","last_reported":1725646291,"current_range_meters":5200,"station_id":"ce4bgt12rcd13ifvqcd0","pricing_plan_id":"cebpf4jnsgd1na2vs0mg"},{"bike_id":"e88398f6-708c-47aa-be0b-e046bc926d2c","system_id":"levelo_inurba_marseille","lat":43.314811,"lon":5.373103,"is_reserved":false,"is_disabled":false,"rental_uris":{"android":"levelo://app?vid=e88398f6-708c-47aa-be0b-e046bc926d2c","ios":"levelo://app?vid=e88398f6-708c-47aa-be0b-e046bc926d2c"},"vehicle_type_id":"4","last_reported":1725646291,"current_range_meters":12000,"station_id":"ce4bgt12rcd13ifvqcd0","pricing_plan_id":"cebpf4jnsgd1na2vs0mg"},{"bike_id":"95870e6b-79b1-4dad-9416-2d17c9f7b99d","system_id":"levelo_inurba_marseille","lat":43.314976,"lon":5.373066,"is_reserved":false,"is_disabled":false,"rental_uris":{"android":"levelo://app?vid=95870e6b-79b1-4dad-9416-2d17c9f7b99d","ios":"levelo://app?vid=95870e6b-79b1-4dad-9416-2d17c9f7b99d"},"vehicle_type_id":"4","last_reported":1725646291,"current_range_meters":31600,"station_id":"ce4bgt12rcd13ifvqcd0","pricing_plan_id":"cebpf4jnsgd1na2vs0mg"},{"bike_id":"0638cb71-ed8f-4fc1-bed7-aa65b44eae34","system_id":"levelo_inurba_marseille","lat":43.31686,"lon":5.373667,"is_reserved":false,"is_disabled":false,"rental_uris":{"android":"levelo://app?vid=0638cb71-ed8f-4fc1-bed7-aa65b44eae34","ios":"levelo://app?vid=0638cb71-ed8f-4fc1-bed7-aa65b44eae34"},"vehicle_type_id":"4","last_reported":1725646291,"current_range_meters":0,"station_id":"","pricing_plan_id":"cebpf4jnsgd1na2vs0mg"},{"bike_id":"9313f9e8-7e3d-4a25-a5ff-c30d282abb55","system_id":"levelo_inurba_marseille","lat":43.30537,"lon":5.367345,"is_reserved":false,"is_disabled":false,"rental_uris":{"android":"levelo://app?vid=9313f9e8-7e3d-4a25-a5ff-c30d282abb55","ios":"levelo://app?vid=9313f9e8-7e3d-4a25-a5ff-c30d282abb55"},"vehicle_type_id":"4","last_reported":1725646291,"current_range_meters":0,"station_id":"ce4bgrp2rcd13ifvqc9g","pricing_plan_id":"cebpf4jnsgd1na2vs0mg"},{"bike_id":"f971f3ec-63d5-45b9-a14e-0e93d4c6d658","system_id":"levelo_inurba_marseille","lat":43.305706,"lon":5.365654,"is_reserved":false,"is_disabled":false,"rental_uris":{"android":"levelo://app?vid=f971f3ec-63d5-45b9-a14e-0e93d4c6d658","ios":"levelo://app?vid=f971f3ec-63d5-45b9-a14e-0e93d4c6d658"},"vehicle_type_id":"4","last_reported":1725646291,"current_range_meters":0,"station_id":"ce4bgs12rcd13ifvqcag","pricing_plan_id":"cebpf4jnsgd1na2vs0mg"},{"bike_id":"bb069563-725b-4660-8e82-ba1f6ffa55bc","system_id":"levelo_inurba_marseille","lat":43.305989,"lon":5.37225,"is_reserved":false,"is_disabled":false,"rental_uris":{"android":"levelo://app?vid=bb069563-725b-4660-8e82-ba1f6ffa55bc","ios":"levelo://app?vid=bb069563-725b-4660-8e82-ba1f6ffa55bc"},"vehicle_type_id":"4","last_reported":1725646291,"current_range_meters":800,"station_id":"ce4bgqh2rcd13ifvqc4g","pricing_plan_id":"cebpf4jnsgd1na2vs0mg"},{"bike_id":"708ef5a4-4e6b-42c9-bca2-ad98be7a1962","system_id":"levelo_inurba_marseille","lat":43.311078,"lon":5.377549,"is_reserved":false,"is_disabled":false,"rental_uris":{"android":"levelo://app?vid=708ef5a4-4e6b-42c9-bca2-ad98be7a1962","ios":"levelo://app?vid=708ef5a4-4e6b-42c9-bca2-ad98be7a1962"},"vehicle_type_id":"4","last_reported":1725646291,"current_range_meters":31200,"station_id":"ce4bgt92rcd13ifvqcg0","pricing_plan_id":"cebpf4jnsgd1na2vs0mg"},{"bike_id":"34f17a00-51eb-4155-9d62-15b310fb3f2d","system_id":"levelo_inurba_marseille","lat":43.31123,"lon":5.37763,"is_reserved":false,"is_disabled":false,"rental_uris":{"android":"levelo://app?vid=34f17a00-51eb-4155-9d62-15b310fb3f2d","ios":"levelo://app?vid=34f17a00-51eb-4155-9d62-15b310fb3f2d"},"vehicle_type_id":"4","last_reported":1725646291,"current_range_meters":31200,"station_id":"ce4bgt92rcd13ifvqcg0","pricing_plan_id":"cebpf4jnsgd1na2vs0mg"},{"bike_id":"34437ee2-2448-4835-a33d-a623c0a3ad8a","system_id":"levelo_inurba_marseille","lat":43.311125,"lon":5.377624,"is_reserved":false,"is_disabled":false,"rental_uris":{"android":"levelo://app?vid=34437ee2-2448-4835-a33d-a623c0a3ad8a","ios":"levelo://app?vid=34437ee2-2448-4835-a33d-a623c0a3ad8a"},"vehicle_type_id":"4","last_reported":1725646291,"current_range_meters":31200,"station_id":"ce4bgt92rcd13ifvqcg0","pricing_plan_id":"cebpf4jnsgd1na2vs0mg"},{"bike_id":"fd1cfeac-e9c1-4bd3-b9ab-1fea6b390f4e","system_id":"levelo_inurba_marseille","lat":43.311125,"lon":5.377624,"is_reserved":false,"is_disabled":false,"rental_uris":{"android":"levelo://app?vid=fd1cfeac-e9c1-4bd3-b9ab-1fea6b390f4e","ios":"levelo://app?vid=fd1cfeac-e9c1-4bd3-b9ab-1fea6b390f4e"},"vehicle_type_id":"4","last_reported":1725646291,"current_range_meters":14400,"station_id":"ce4bgt92rcd13ifvqcg0","pricing_plan_id":"cebpf4jnsgd1na2vs0mg"},{"bike_id":"6b06eef9-a6c4-4cce-b6a4-e6bc0b019885","system_id":"levelo_inurba_marseille","lat":43.311125,"lon":5.377624,"is_reserved":false,"is_disabled":false,"rental_uris":{"android":"levelo://app?vid=6b06eef9-a6c4-4cce-b6a4-e6bc0b019885","ios":"levelo://app?vid=6b06eef9-a6c4-4cce-b6a4-e6bc0b019885"},"vehicle_type_id":"4","last_reported":1725646291,"current_range_meters":31200,"station_id":"ce4bgt92rcd13ifvqcg0","pricing_plan_id":"cebpf4jnsgd1na2vs0mg"},{"bike_id":"8852cb62-e5bc-4e85-adc3-eca6b778cb24","system_id":"levelo_inurba_marseille","lat":43.311125,"lon":5.377624,"is_reserved":false,"is_disabled":false,"rental_uris":{"android":"levelo://app?vid=8852cb62-e5bc-4e85-adc3-eca6b778cb24","ios":"levelo://app?vid=8852cb62-e5bc-4e85-adc3-eca6b778cb24"},"vehicle_type_id":"4","last_reported":1725646291,"current_range_meters":31200,"station_id":"ce4bgt92rcd13ifvqcg0","pricing_plan_id":"cebpf4jnsgd1na2vs0mg"},{"bike_id":"bb08d917-c171-4971-9062-4f71d2183a37","system_id":"levelo_inurba_marseille","lat":43.307945,"lon":5.376487,"is_reserved":false,"is_disabled":false,"rental_uris":{"android":"levelo://app?vid=bb08d917-c171-4971-9062-4f71d2183a37","ios":"levelo://app?vid=bb08d917-c171-4971-9062-4f71d2183a37"},"vehicle_type_id":"4","last_reported":1725646291,"current_range_meters":23600,"station_id":"ce4bgv92rcd13ifvqcq0","pricing_plan_id":"cebpf4jnsgd1na2vs0mg"},{"bike_id":"7bfe4808-9a70-4d48-9d75-f16dbccc0612","system_id":"levelo_inurba_marseille","lat":43.307945,"lon":5.376487,"is_reserved":false,"is_disabled":false,"rental_uris":{"android":"levelo://app?vid=7bfe4808-9a70-4d48-9d75-f16dbccc0612","ios":"levelo://app?vid=7bfe4808-9a70-4d48-9d75-f16dbccc0612"},"vehicle_type_id":"4","last_reported":1725646291,"current_range_meters":11200,"station_id":"ce4bgv92rcd13ifvqcq0","pricing_plan_id":"cebpf4jnsgd1na2vs0mg"},{"bike_id":"66fb23ff-fcb8-497e-b370-1b7537f9eeef","system_id":"levelo_inurba_marseille","lat":43.307945,"lon":5.376487,"is_reserved":false,"is_disabled":false,"rental_uris":{"android":"levelo://app?vid=66fb23ff-fcb8-497e-b370-1b7537f9eeef","ios":"levelo://app?vid=66fb23ff-fcb8-497e-b370-1b7537f9eeef"},"vehicle_type_id":"4","last_reported":1725646291,"current_range_meters":31200,"station_id":"ce4bgv92rcd13ifvqcq0","pricing_plan_id":"cebpf4jnsgd1na2vs0mg"},{"bike_id":"ba499990-a9f9-4034-b459-2864e3c87ce1","system_id":"levelo_inurba_marseille","lat":43.307945,"lon":5.376487,"is_reserved":false,"is_disabled":false,"rental_uris":{"android":"levelo://app?vid=ba499990-a9f9-4034-b459-2864e3c87ce1","ios":"levelo://app?vid=ba499990-a9f9-4034-b459-2864e3c87ce1"},"vehicle_type_id":"4","last_reported":1725646291,"current_range_meters":10800,"station_id":"ce4bgv92rcd13ifvqcq0","pricing_plan_id":"cebpf4jnsgd1na2vs0mg"},{"bike_id":"e5d3c6f0-e36a-4e1d-a881-4635038ada22","system_id":"levelo_inurba_marseille","lat":43.307945,"lon":5.376487,"is_reserved":false,"is_disabled":false,"rental_uris":{"android":"levelo://app?vid=e5d3c6f0-e36a-4e1d-a881-4635038ada22","ios":"levelo://app?vid=e5d3c6f0-e36a-4e1d-a881-4635038ada22"},"vehicle_type_id":"4","last_reported":1725646291,"current_range_meters":32000,"station_id":"ce4bgv92rcd13ifvqcq0","pricing_plan_id":"cebpf4jnsgd1na2vs0mg"},{"bike_id":"e53b5272-eb4f-42bb-afb6-44d73987a389","system_id":"levelo_inurba_marseille","lat":43.311144,"lon":5.378387,"is_reserved":false,"is_disabled":false,"rental_uris":{"android":"levelo://app?vid=e53b5272-eb4f-42bb-afb6-44d73987a389","ios":"levelo://app?vid=e53b5272-eb4f-42bb-afb6-44d73987a389"},"vehicle_type_id":"4","last_reported":1725646291,"current_range_meters":21600,"station_id":"","pricing_plan_id":"cebpf4jnsgd1na2vs0mg"},{"bike_id":"404117de-5831-441c-ae81-5f545759f10a","system_id":"levelo_inurba_marseille","lat":43.317075,"lon":5.377367,"is_reserved":false,"is_disabled":false,"rental_uris":{"android":"levelo://app?vid=404117de-5831-441c-ae81-5f545759f10a","ios":"levelo://app?vid=404117de-5831-441c-ae81-5f545759f10a"},"vehicle_type_id":"4","last_reported":1725646291,"current_range_meters":21200,"station_id":"ce4bgth2rcd13ifvqch0","pricing_plan_id":"cebpf4jnsgd1na2vs0mg"},{"bike_id":"cae40428-93d0-4716-8fa0-9170269476b8","system_id":"levelo_inurba_marseille","lat":43.303977,"lon":5.368107,"is_reserved":false,"is_disabled":false,"rental_uris":{"android":"levelo://app?vid=cae40428-93d0-4716-8fa0-9170269476b8","ios":"levelo://app?vid=cae40428-93d0-4716-8fa0-9170269476b8"},"vehicle_type_id":"4","last_reported":1725646291,"current_range_meters":0,"station_id":"","pricing_plan_id":"cebpf4jnsgd1na2vs0mg"},{"bike_id":"b1eba3b8-b6a7-4395-92ef-0612949acc4f","system_id":"levelo_inurba_marseille","lat":43.30304,"lon":5.368987,"is_reserved":false,"is_disabled":false,"rental_uris":{"android":"levelo://app?vid=b1eba3b8-b6a7-4395-92ef-0612949acc4f","ios":"levelo://app?vid=b1eba3b8-b6a7-4395-92ef-0612949acc4f"},"vehicle_type_id":"4","last_reported":1725646291,"current_range_meters":9600,"station_id":"ce4bgqh2rcd13ifvqc5g","pricing_plan_id":"cebpf4jnsgd1na2vs0mg"},{"bike_id":"db5bfd98-914c-4934-ac2c-dae07f546723","system_id":"levelo_inurba_marseille","lat":43.315289,"lon":5.380349,"is_reserved":false,"is_disabled":false,"rental_uris":{"android":"levelo://app?vid=db5bfd98-914c-4934-ac2c-dae07f546723","ios":"levelo://app?vid=db5bfd98-914c-4934-ac2c-dae07f546723"},"vehicle_type_id":"4","last_reported":1725646291,"current_range_meters":7200,"station_id":"ce4bhsp2rcd13ifvqi50","pricing_plan_id":"cebpf4jnsgd1na2vs0mg"},{"bike_id":"b6945593-3bd7-4b18-b570-7180fb271e8f","system_id":"levelo_inurba_marseille","lat":43.31533,"lon":5.38036,"is_reserved":false,"is_disabled":false,"rental_uris":{"android":"levelo://app?vid=b6945593-3bd7-4b18-b570-7180fb271e8f","ios":"levelo://app?vid=b6945593-3bd7-4b18-b570-7180fb271e8f"},"vehicle_type_id":"4","last_reported":1725646291,"current_range_meters":0,"station_id":"ce4bhsp2rcd13ifvqi50","pricing_plan_id":"cebpf4jnsgd1na2vs0mg"},{"bike_id":"85e9a0e8-4fc9-447d-92b6-f3901c6eb1e6","system_id":"levelo_inurba_marseille","lat":43.315289,"lon":5.380349,"is_reserved":false,"is_disabled":false,"rental_uris":{"android":"levelo://app?vid=85e9a0e8-4fc9-447d-92b6-f3901c6eb1e6","ios":"levelo://app?vid=85e9a0e8-4fc9-447d-92b6-f3901c6eb1e6"},"vehicle_type_id":"4","last_reported":1725646291,"current_range_meters":2800,"station_id":"ce4bhsp2rcd13ifvqi50","pricing_plan_id":"cebpf4jnsgd1na2vs0mg"},{"bike_id":"5c7e602c-f961-461f-96ab-799dea8e8115","system_id":"levelo_inurba_marseille","lat":43.32312,"lon":5.36758,"is_reserved":false,"is_disabled":false,"rental_uris":{"android":"levelo://app?vid=5c7e602c-f961-461f-96ab-799dea8e8115","ios":"levelo://app?vid=5c7e602c-f961-461f-96ab-799dea8e8115"},"vehicle_type_id":"4","last_reported":1725646291,"current_range_meters":18000,"station_id":"","pricing_plan_id":"cebpf4jnsgd1na2vs0mg"},{"bike_id":"112cdb5f-0d67-44f3-8a4f-f6f1f6f3f4d0","system_id":"levelo_inurba_marseille","lat":43.301939,"lon":5.366286,"is_reserved":false,"is_disabled":false,"rental_uris":{"android":"levelo://app?vid=112cdb5f-0d67-44f3-8a4f-f6f1f6f3f4d0","ios":"levelo://app?vid=112cdb5f-0d67-44f3-8a4f-f6f1f6f3f4d0"},"vehicle_type_id":"4","last_reported":1725646291,"current_range_meters":0,"station_id":"ce4bgrh2rcd13ifvqc8g","pricing_plan_id":"cebpf4jnsgd1na2vs0mg"},{"bike_id":"c3a372b4-8857-46ae-8efd-bc000dea34d9","system_id":"levelo_inurba_marseille","lat":43.301939,"lon":5.366286,"is_reserved":false,"is_disabled":false,"rental_uris":{"android":"levelo://app?vid=c3a372b4-8857-46ae-8efd-bc000dea34d9","ios":"levelo://app?vid=c3a372b4-8857-46ae-8efd-bc000dea34d9"},"vehicle_type_id":"4","last_reported":1725646291,"current_range_meters":27200,"station_id":"ce4bgrh2rcd13ifvqc8g","pricing_plan_id":"cebpf4jnsgd1na2vs0mg"},{"bike_id":"e0e899aa-c419-4a30-a340-33db8a72a33e","system_id":"levelo_inurba_marseille","lat":43.301939,"lon":5.366286,"is_reserved":false,"is_disabled":false,"rental_uris":{"android":"levelo://app?vid=e0e899aa-c419-4a30-a340-33db8a72a33e","ios":"levelo://app?vid=e0e899aa-c419-4a30-a340-33db8a72a33e"},"vehicle_type_id":"4","last_reported":1725646291,"current_range_meters":28800,"station_id":"ce4bgrh2rcd13ifvqc8g","pricing_plan_id":"cebpf4jnsgd1na2vs0mg"},{"bike_id":"2bcc66d2-38bb-4b55-ada9-76f65e8b07ae","system_id":"levelo_inurba_marseille","lat":43.308012,"lon":5.381511,"is_reserved":false,"is_disabled":false,"rental_uris":{"android":"levelo://app?vid=2bcc66d2-38bb-4b55-ada9-76f65e8b07ae","ios":"levelo://app?vid=2bcc66d2-38bb-4b55-ada9-76f65e8b07ae"},"vehicle_type_id":"4","last_reported":1725646291,"current_range_meters":15200,"station_id":"ce4bgt12rcd13ifvqce0","pricing_plan_id":"cebpf4jnsgd1na2vs0mg"},{"bike_id":"b3bd09ad-f101-4263-946b-89ff6aca38a8","system_id":"levelo_inurba_marseille","lat":43.308012,"lon":5.381511,"is_reserved":false,"is_disabled":false,"rental_uris":{"android":"levelo://app?vid=b3bd09ad-f101-4263-946b-89ff6aca38a8","ios":"levelo://app?vid=b3bd09ad-f101-4263-946b-89ff6aca38a8"},"vehicle_type_id":"4","last_reported":1725646291,"current_range_meters":0,"station_id":"ce4bgt12rcd13ifvqce0","pricing_plan_id":"cebpf4jnsgd1na2vs0mg"},{"bike_id":"ea5c1f78-a40a-4e83-8ae3-ea477641b2cd","system_id":"levelo_inurba_marseille","lat":43.304606,"lon":5.379026,"is_reserved":false,"is_disabled":false,"rental_uris":{"android":"levelo://app?vid=ea5c1f78-a40a-4e83-8ae3-ea477641b2cd","ios":"levelo://app?vid=ea5c1f78-a40a-4e83-8ae3-ea477641b2cd"},"vehicle_type_id":"4","last_reported":1725646291,"current_range_meters":24000,"station_id":"ce4bgup2rcd13ifvqcn0","pricing_plan_id":"cebpf4jnsgd1na2vs0mg"},{"bike_id":"09947a28-de94-4b78-be44-e8ed9eb6337a","system_id":"levelo_inurba_marseille","lat":43.324771,"lon":5.36557,"is_reserved":false,"is_disabled":false,"rental_uris":{"android":"levelo://app?vid=09947a28-de94-4b78-be44-e8ed9eb6337a","ios":"levelo://app?vid=09947a28-de94-4b78-be44-e8ed9eb6337a"},"vehicle_type_id":"4","last_reported":1725646291,"current_range_meters":4000,"station_id":"ce4bhs12rcd13ifvqhvg","pricing_plan_id":"cebpf4jnsgd1na2vs0mg"},{"bike_id":"1d30093c-ca4f-485d-aac3-6514cb570dc2","system_id":"levelo_inurba_marseille","lat":43.324771,"lon":5.36557,"is_reserved":false,"is_disabled":false,"rental_uris":{"android":"levelo://app?vid=1d30093c-ca4f-485d-aac3-6514cb570dc2","ios":"levelo://app?vid=1d30093c-ca4f-485d-aac3-6514cb570dc2"},"vehicle_type_id":"4","last_reported":1725646291,"current_range_meters":23600,"station_id":"ce4bhs12rcd13ifvqhvg","pricing_plan_id":"cebpf4jnsgd1na2vs0mg"},{"bike_id":"33a5524d-9e06-48a0-b030-c181cf3ce0c9","system_id":"levelo_inurba_marseille","lat":43.324888,"lon":5.365737,"is_reserved":false,"is_disabled":false,"rental_uris":{"android":"levelo://app?vid=33a5524d-9e06-48a0-b030-c181cf3ce0c9","ios":"levelo://app?vid=33a5524d-9e06-48a0-b030-c181cf3ce0c9"},"vehicle_type_id":"4","last_reported":1725646291,"current_range_meters":16400,"station_id":"ce4bhs12rcd13ifvqhvg","pricing_plan_id":"cebpf4jnsgd1na2vs0mg"},{"bike_id":"08e75dd7-cfc7-421d-8e2c-9179ef72bc38","system_id":"levelo_inurba_marseille","lat":43.310804,"lon":5.38359,"is_reserved":false,"is_disabled":false,"rental_uris":{"android":"levelo://app?vid=08e75dd7-cfc7-421d-8e2c-9179ef72bc38","ios":"levelo://app?vid=08e75dd7-cfc7-421d-8e2c-9179ef72bc38"},"vehicle_type_id":"4","last_reported":1725646291,"current_range_meters":31200,"station_id":"ce4bgv92rcd13ifvqcr0","pricing_plan_id":"cebpf4jnsgd1na2vs0mg"},{"bike_id":"b1640384-4aca-47c5-af8b-05cd11714fba","system_id":"levelo_inurba_marseille","lat":43.32492,"lon":5.36565,"is_reserved":false,"is_disabled":false,"rental_uris":{"android":"levelo://app?vid=b1640384-4aca-47c5-af8b-05cd11714fba","ios":"levelo://app?vid=b1640384-4aca-47c5-af8b-05cd11714fba"},"vehicle_type_id":"4","last_reported":1725646291,"current_range_meters":17200,"station_id":"ce4bhs12rcd13ifvqhvg","pricing_plan_id":"cebpf4jnsgd1na2vs0mg"},{"bike_id":"b9a08c6a-cf79-43d7-8a48-156a542f49d9","system_id":"levelo_inurba_marseille","lat":43.310804,"lon":5.38359,"is_reserved":false,"is_disabled":false,"rental_uris":{"android":"levelo://app?vid=b9a08c6a-cf79-43d7-8a48-156a542f49d9","ios":"levelo://app?vid=b9a08c6a-cf79-43d7-8a48-156a542f49d9"},"vehicle_type_id":"4","last_reported":1725646291,"current_range_meters":3200,"station_id":"ce4bgv92rcd13ifvqcr0","pricing_plan_id":"cebpf4jnsgd1na2vs0mg"},{"bike_id":"2f43287f-0af0-4517-9b6f-dde40cecd3e4","system_id":"levelo_inurba_marseille","lat":43.319935,"lon":5.381699,"is_reserved":false,"is_disabled":false,"rental_uris":{"android":"levelo://app?vid=2f43287f-0af0-4517-9b6f-dde40cecd3e4","ios":"levelo://app?vid=2f43287f-0af0-4517-9b6f-dde40cecd3e4"},"vehicle_type_id":"4","last_reported":1725646291,"current_range_meters":1600,"station_id":"ce4bhr12rcd13ifvqhpg","pricing_plan_id":"cebpf4jnsgd1na2vs0mg"},{"bike_id":"226dda00-2b94-43cc-8783-09698966e154","system_id":"levelo_inurba_marseille","lat":43.319935,"lon":5.381699,"is_reserved":false,"is_disabled":false,"rental_uris":{"android":"levelo://app?vid=226dda00-2b94-43cc-8783-09698966e154","ios":"levelo://app?vid=226dda00-2b94-43cc-8783-09698966e154"},"vehicle_type_id":"4","last_reported":1725646291,"current_range_meters":10000,"station_id":"ce4bhr12rcd13ifvqhpg","pricing_plan_id":"cebpf4jnsgd1na2vs0mg"},{"bike_id":"9d9f2042-3026-4094-8014-f44b186bfbee","system_id":"levelo_inurba_marseille","lat":43.319935,"lon":5.381699,"is_reserved":false,"is_disabled":false,"rental_uris":{"android":"levelo://app?vid=9d9f2042-3026-4094-8014-f44b186bfbee","ios":"levelo://app?vid=9d9f2042-3026-4094-8014-f44b186bfbee"},"vehicle_type_id":"4","last_reported":1725646291,"current_range_meters":0,"station_id":"ce4bhr12rcd13ifvqhpg","pricing_plan_id":"cebpf4jnsgd1na2vs0mg"},{"bike_id":"030b44b2-6984-4aac-8190-7e8b668307ad","system_id":"levelo_inurba_marseille","lat":43.313571,"lon":5.384829,"is_reserved":false,"is_disabled":false,"rental_uris":{"android":"levelo://app?vid=030b44b2-6984-4aac-8190-7e8b668307ad","ios":"levelo://app?vid=030b44b2-6984-4aac-8190-7e8b668307ad"},"vehicle_type_id":"4","last_reported":1725646291,"current_range_meters":2800,"station_id":"ce4bgt92rcd13ifvqcf0","pricing_plan_id":"cebpf4jnsgd1na2vs0mg"},{"bike_id":"1aacd12d-a3b1-41e4-995c-47268373fb07","system_id":"levelo_inurba_marseille","lat":43.313571,"lon":5.384829,"is_reserved":false,"is_disabled":false,"rental_uris":{"android":"levelo://app?vid=1aacd12d-a3b1-41e4-995c-47268373fb07","ios":"levelo://app?vid=1aacd12d-a3b1-41e4-995c-47268373fb07"},"vehicle_type_id":"4","last_reported":1725646291,"current_range_meters":6800,"station_id":"ce4bgt92rcd13ifvqcf0","pricing_plan_id":"cebpf4jnsgd1na2vs0mg"},{"bike_id":"5cd8f46d-b3bd-4019-987e-37fe5855e7e3","system_id":"levelo_inurba_marseille","lat":43.299222,"lon":5.365554,"is_reserved":false,"is_disabled":false,"rental_uris":{"android":"levelo://app?vid=5cd8f46d-b3bd-4019-987e-37fe5855e7e3","ios":"levelo://app?vid=5cd8f46d-b3bd-4019-987e-37fe5855e7e3"},"vehicle_type_id":"4","last_reported":1725646291,"current_range_meters":5200,"station_id":"ce4bgm92rcd13ifvqbr0","pricing_plan_id":"cebpf4jnsgd1na2vs0mg"},{"bike_id":"f2dc17a4-7a6e-4467-b51e-942da32eb0e9","system_id":"levelo_inurba_marseille","lat":43.305364,"lon":5.384119,"is_reserved":false,"is_disabled":false,"rental_uris":{"android":"levelo://app?vid=f2dc17a4-7a6e-4467-b51e-942da32eb0e9","ios":"levelo://app?vid=f2dc17a4-7a6e-4467-b51e-942da32eb0e9"},"vehicle_type_id":"4","last_reported":1725646291,"current_range_meters":12000,"station_id":"ce4bgg92rcd13ifvqb30","pricing_plan_id":"cebpf4jnsgd1na2vs0mg"},{"bike_id":"d345a159-8eb7-4ed5-90a3-76c6eb863026","system_id":"levelo_inurba_marseille","lat":43.305364,"lon":5.384119,"is_reserved":false,"is_disabled":false,"rental_uris":{"android":"levelo://app?vid=d345a159-8eb7-4ed5-90a3-76c6eb863026","ios":"levelo://app?vid=d345a159-8eb7-4ed5-90a3-76c6eb863026"},"vehicle_type_id":"4","last_reported":1725646291,"current_range_meters":800,"station_id":"ce4bgg92rcd13ifvqb30","pricing_plan_id":"cebpf4jnsgd1na2vs0mg"},{"bike_id":"c1bcc7a3-d698-4922-b221-eb509388af11","system_id":"levelo_inurba_marseille","lat":43.301417,"lon":5.3809,"is_reserved":false,"is_disabled":false,"rental_uris":{"android":"levelo://app?vid=c1bcc7a3-d698-4922-b221-eb509388af11","ios":"levelo://app?vid=c1bcc7a3-d698-4922-b221-eb509388af11"},"vehicle_type_id":"4","last_reported":1725646291,"current_range_meters":31200,"station_id":"ce4bgjp2rcd13ifvqbh0","pricing_plan_id":"cebpf4jnsgd1na2vs0mg"},{"bike_id":"83d0af4d-2c81-4a8c-bc96-638b03e80920","system_id":"levelo_inurba_marseille","lat":43.301417,"lon":5.3809,"is_reserved":false,"is_disabled":false,"rental_uris":{"android":"levelo://app?vid=83d0af4d-2c81-4a8c-bc96-638b03e80920","ios":"levelo://app?vid=83d0af4d-2c81-4a8c-bc96-638b03e80920"},"vehicle_type_id":"4","last_reported":1725646291,"current_range_meters":31200,"station_id":"ce4bgjp2rcd13ifvqbh0","pricing_plan_id":"cebpf4jnsgd1na2vs0mg"},{"bike_id":"3181b57b-7af9-4015-9d50-17e20d82dbe5","system_id":"levelo_inurba_marseille","lat":43.30154,"lon":5.38086,"is_reserved":false,"is_disabled":false,"rental_uris":{"android":"levelo://app?vid=3181b57b-7af9-4015-9d50-17e20d82dbe5","ios":"levelo://app?vid=3181b57b-7af9-4015-9d50-17e20d82dbe5"},"vehicle_type_id":"4","last_reported":1725646291,"current_range_meters":28800,"station_id":"ce4bgjp2rcd13ifvqbh0","pricing_plan_id":"cebpf4jnsgd1na2vs0mg"},{"bike_id":"9d4d4ad3-9fa4-4394-8995-8a5887e80cc8","system_id":"levelo_inurba_marseille","lat":43.32281,"lon":5.38259,"is_reserved":false,"is_disabled":false,"rental_uris":{"android":"levelo://app?vid=9d4d4ad3-9fa4-4394-8995-8a5887e80cc8","ios":"levelo://app?vid=9d4d4ad3-9fa4-4394-8995-8a5887e80cc8"},"vehicle_type_id":"4","last_reported":1725646291,"current_range_meters":18400,"station_id":"ce4bhr12rcd13ifvqhqg","pricing_plan_id":"cebpf4jnsgd1na2vs0mg"},{"bike_id":"8d27e8e1-314a-4289-b377-687f866b978c","system_id":"levelo_inurba_marseille","lat":43.322872,"lon":5.382756,"is_reserved":false,"is_disabled":false,"rental_uris":{"android":"levelo://app?vid=8d27e8e1-314a-4289-b377-687f866b978c","ios":"levelo://app?vid=8d27e8e1-314a-4289-b377-687f866b978c"},"vehicle_type_id":"4","last_reported":1725646291,"current_range_meters":27600,"station_id":"ce4bhr12rcd13ifvqhqg","pricing_plan_id":"cebpf4jnsgd1na2vs0mg"},{"bike_id":"6cf70e6c-1654-4660-a11d-4eb366dc4243","system_id":"levelo_inurba_marseille","lat":43.32297,"lon":5.38272,"is_reserved":false,"is_disabled":false,"rental_uris":{"android":"levelo://app?vid=6cf70e6c-1654-4660-a11d-4eb366dc4243","ios":"levelo://app?vid=6cf70e6c-1654-4660-a11d-4eb366dc4243"},"vehicle_type_id":"4","last_reported":1725646291,"current_range_meters":18800,"station_id":"ce4bhr12rcd13ifvqhqg","pricing_plan_id":"cebpf4jnsgd1na2vs0mg"},{"bike_id":"5dbbbb33-f8da-4e78-8d0f-5b34d3213321","system_id":"levelo_inurba_marseille","lat":43.297163,"lon":5.365866,"is_reserved":false,"is_disabled":false,"rental_uris":{"android":"levelo://app?vid=5dbbbb33-f8da-4e78-8d0f-5b34d3213321","ios":"levelo://app?vid=5dbbbb33-f8da-4e78-8d0f-5b34d3213321"},"vehicle_type_id":"4","last_reported":1725646291,"current_range_meters":7200,"station_id":"ce4bgn12rcd13ifvqbt0","pricing_plan_id":"cebpf4jnsgd1na2vs0mg"},{"bike_id":"8a8887de-5c7d-4b1c-91b2-78e9c920b48d","system_id":"levelo_inurba_marseille","lat":43.2968,"lon":5.37291,"is_reserved":false,"is_disabled":false,"rental_uris":{"android":"levelo://app?vid=8a8887de-5c7d-4b1c-91b2-78e9c920b48d","ios":"levelo://app?vid=8a8887de-5c7d-4b1c-91b2-78e9c920b48d"},"vehicle_type_id":"4","last_reported":1725646291,"current_range_meters":30400,"station_id":"ce4bgk12rcd13ifvqbj0","pricing_plan_id":"cebpf4jnsgd1na2vs0mg"},{"bike_id":"afac7f4a-b59e-4c70-84e3-ed0508c8967d","system_id":"levelo_inurba_marseille","lat":43.299128,"lon":5.380847,"is_reserved":false,"is_disabled":false,"rental_uris":{"android":"levelo://app?vid=afac7f4a-b59e-4c70-84e3-ed0508c8967d","ios":"levelo://app?vid=afac7f4a-b59e-4c70-84e3-ed0508c8967d"},"vehicle_type_id":"4","last_reported":1725646291,"current_range_meters":0,"station_id":"","pricing_plan_id":"cebpf4jnsgd1na2vs0mg"},{"bike_id":"90301f52-d056-4623-a1ff-4c30063bd47e","system_id":"levelo_inurba_marseille","lat":43.30954,"lon":5.39011,"is_reserved":false,"is_disabled":false,"rental_uris":{"android":"levelo://app?vid=90301f52-d056-4623-a1ff-4c30063bd47e","ios":"levelo://app?vid=90301f52-d056-4623-a1ff-4c30063bd47e"},"vehicle_type_id":"4","last_reported":1725646291,"current_range_meters":31600,"station_id":"ce4bgup2rcd13ifvqco0","pricing_plan_id":"cebpf4jnsgd1na2vs0mg"},{"bike_id":"7e3e813e-f8f0-42b0-ba10-388cf1a04990","system_id":"levelo_inurba_marseille","lat":43.299028,"lon":5.381509,"is_reserved":false,"is_disabled":false,"rental_uris":{"android":"levelo://app?vid=7e3e813e-f8f0-42b0-ba10-388cf1a04990","ios":"levelo://app?vid=7e3e813e-f8f0-42b0-ba10-388cf1a04990"},"vehicle_type_id":"4","last_reported":1725646291,"current_range_meters":3600,"station_id":"ce4bgj12rcd13ifvqbc0","pricing_plan_id":"cebpf4jnsgd1na2vs0mg"},{"bike_id":"c70047e6-fe9d-4603-961b-4fe975d4cd1e","system_id":"levelo_inurba_marseille","lat":43.309589,"lon":5.390258,"is_reserved":false,"is_disabled":false,"rental_uris":{"android":"levelo://app?vid=c70047e6-fe9d-4603-961b-4fe975d4cd1e","ios":"levelo://app?vid=c70047e6-fe9d-4603-961b-4fe975d4cd1e"},"vehicle_type_id":"4","last_reported":1725646291,"current_range_meters":19600,"station_id":"ce4bgup2rcd13ifvqco0","pricing_plan_id":"cebpf4jnsgd1na2vs0mg"},{"bike_id":"d08cea5d-2948-4191-a169-b2cad0ca0a60","system_id":"levelo_inurba_marseille","lat":43.309589,"lon":5.390258,"is_reserved":false,"is_disabled":false,"rental_uris":{"android":"levelo://app?vid=d08cea5d-2948-4191-a169-b2cad0ca0a60","ios":"levelo://app?vid=d08cea5d-2948-4191-a169-b2cad0ca0a60"},"vehicle_type_id":"4","last_reported":1725646291,"current_range_meters":31200,"station_id":"ce4bgup2rcd13ifvqco0","pricing_plan_id":"cebpf4jnsgd1na2vs0mg"},{"bike_id":"7089e989-fc41-4be2-b695-0f042054e464","system_id":"levelo_inurba_marseille","lat":43.309589,"lon":5.390258,"is_reserved":false,"is_disabled":false,"rental_uris":{"android":"levelo://app?vid=7089e989-fc41-4be2-b695-0f042054e464","ios":"levelo://app?vid=7089e989-fc41-4be2-b695-0f042054e464"},"vehicle_type_id":"4","last_reported":1725646291,"current_range_meters":0,"station_id":"ce4bgup2rcd13ifvqco0","pricing_plan_id":"cebpf4jnsgd1na2vs0mg"},{"bike_id":"ccc13b39-dccc-45da-9dea-1f69788d7b37","system_id":"levelo_inurba_marseille","lat":43.309589,"lon":5.390258,"is_reserved":false,"is_disabled":false,"rental_uris":{"android":"levelo://app?vid=ccc13b39-dccc-45da-9dea-1f69788d7b37","ios":"levelo://app?vid=ccc13b39-dccc-45da-9dea-1f69788d7b37"},"vehicle_type_id":"4","last_reported":1725646291,"current_range_meters":6800,"station_id":"ce4bgup2rcd13ifvqco0","pricing_plan_id":"cebpf4jnsgd1na2vs0mg"},{"bike_id":"293a4769-06c6-43c0-aa84-1ba85582bd42","system_id":"levelo_inurba_marseille","lat":43.309589,"lon":5.390258,"is_reserved":false,"is_disabled":false,"rental_uris":{"android":"levelo://app?vid=293a4769-06c6-43c0-aa84-1ba85582bd42","ios":"levelo://app?vid=293a4769-06c6-43c0-aa84-1ba85582bd42"},"vehicle_type_id":"4","last_reported":1725646291,"current_range_meters":16400,"station_id":"ce4bgup2rcd13ifvqco0","pricing_plan_id":"cebpf4jnsgd1na2vs0mg"},{"bike_id":"f0948882-f975-45d9-8ee0-00db54570efe","system_id":"levelo_inurba_marseille","lat":43.309589,"lon":5.390258,"is_reserved":false,"is_disabled":false,"rental_uris":{"android":"levelo://app?vid=f0948882-f975-45d9-8ee0-00db54570efe","ios":"levelo://app?vid=f0948882-f975-45d9-8ee0-00db54570efe"},"vehicle_type_id":"4","last_reported":1725646291,"current_range_meters":31600,"station_id":"ce4bgup2rcd13ifvqco0","pricing_plan_id":"cebpf4jnsgd1na2vs0mg"},{"bike_id":"8d09a080-1cd6-4803-89ab-772bd89c61f6","system_id":"levelo_inurba_marseille","lat":43.30952,"lon":5.39039,"is_reserved":false,"is_disabled":false,"rental_uris":{"android":"levelo://app?vid=8d09a080-1cd6-4803-89ab-772bd89c61f6","ios":"levelo://app?vid=8d09a080-1cd6-4803-89ab-772bd89c61f6"},"vehicle_type_id":"4","last_reported":1725646291,"current_range_meters":5600,"station_id":"ce4bgup2rcd13ifvqco0","pricing_plan_id":"cebpf4jnsgd1na2vs0mg"},{"bike_id":"0b07380a-efef-4f70-bd31-bf769953dd20","system_id":"levelo_inurba_marseille","lat":43.309589,"lon":5.390258,"is_reserved":false,"is_disabled":false,"rental_uris":{"android":"levelo://app?vid=0b07380a-efef-4f70-bd31-bf769953dd20","ios":"levelo://app?vid=0b07380a-efef-4f70-bd31-bf769953dd20"},"vehicle_type_id":"4","last_reported":1725646291,"current_range_meters":30000,"station_id":"ce4bgup2rcd13ifvqco0","pricing_plan_id":"cebpf4jnsgd1na2vs0mg"},{"bike_id":"47cf1a81-b8dc-47dd-84dd-c21cab0700a3","system_id":"levelo_inurba_marseille","lat":43.309589,"lon":5.390258,"is_reserved":false,"is_disabled":false,"rental_uris":{"android":"levelo://app?vid=47cf1a81-b8dc-47dd-84dd-c21cab0700a3","ios":"levelo://app?vid=47cf1a81-b8dc-47dd-84dd-c21cab0700a3"},"vehicle_type_id":"4","last_reported":1725646291,"current_range_meters":22000,"station_id":"ce4bgup2rcd13ifvqco0","pricing_plan_id":"cebpf4jnsgd1na2vs0mg"},{"bike_id":"80a479cf-6e3c-4938-9c8e-f78ad997ce3a","system_id":"levelo_inurba_marseille","lat":43.309589,"lon":5.390258,"is_reserved":false,"is_disabled":false,"rental_uris":{"android":"levelo://app?vid=80a479cf-6e3c-4938-9c8e-f78ad997ce3a","ios":"levelo://app?vid=80a479cf-6e3c-4938-9c8e-f78ad997ce3a"},"vehicle_type_id":"4","last_reported":1725646291,"current_range_meters":21600,"station_id":"ce4bgup2rcd13ifvqco0","pricing_plan_id":"cebpf4jnsgd1na2vs0mg"},{"bike_id":"cdbfecb1-7ce2-4023-9e4a-ec97aba6d6f6","system_id":"levelo_inurba_marseille","lat":43.309589,"lon":5.390258,"is_reserved":false,"is_disabled":false,"rental_uris":{"android":"levelo://app?vid=cdbfecb1-7ce2-4023-9e4a-ec97aba6d6f6","ios":"levelo://app?vid=cdbfecb1-7ce2-4023-9e4a-ec97aba6d6f6"},"vehicle_type_id":"4","last_reported":1725646291,"current_range_meters":1600,"station_id":"ce4bgup2rcd13ifvqco0","pricing_plan_id":"cebpf4jnsgd1na2vs0mg"},{"bike_id":"4a0882f3-0641-4b76-b2bb-f7d64b24593f","system_id":"levelo_inurba_marseille","lat":43.309589,"lon":5.390258,"is_reserved":false,"is_disabled":false,"rental_uris":{"android":"levelo://app?vid=4a0882f3-0641-4b76-b2bb-f7d64b24593f","ios":"levelo://app?vid=4a0882f3-0641-4b76-b2bb-f7d64b24593f"},"vehicle_type_id":"4","last_reported":1725646291,"current_range_meters":29200,"station_id":"ce4bgup2rcd13ifvqco0","pricing_plan_id":"cebpf4jnsgd1na2vs0mg"},{"bike_id":"1af3945a-9b3b-4155-b7c6-ea58590d596b","system_id":"levelo_inurba_marseille","lat":43.317557,"lon":5.390173,"is_reserved":false,"is_disabled":false,"rental_uris":{"android":"levelo://app?vid=1af3945a-9b3b-4155-b7c6-ea58590d596b","ios":"levelo://app?vid=1af3945a-9b3b-4155-b7c6-ea58590d596b"},"vehicle_type_id":"4","last_reported":1725646291,"current_range_meters":31600,"station_id":"ce4bhqp2rcd13ifvqhng","pricing_plan_id":"cebpf4jnsgd1na2vs0mg"},{"bike_id":"10f69fe8-7773-460f-8cbc-84d5043d302b","system_id":"levelo_inurba_marseille","lat":43.32253,"lon":5.387034,"is_reserved":false,"is_disabled":false,"rental_uris":{"android":"levelo://app?vid=10f69fe8-7773-460f-8cbc-84d5043d302b","ios":"levelo://app?vid=10f69fe8-7773-460f-8cbc-84d5043d302b"},"vehicle_type_id":"4","last_reported":1725646291,"current_range_meters":26000,"station_id":"","pricing_plan_id":"cebpf4jnsgd1na2vs0mg"},{"bike_id":"ee98d696-fc8f-4bd7-9acc-ba17f9c78589","system_id":"levelo_inurba_marseille","lat":43.31762,"lon":5.39019,"is_reserved":false,"is_disabled":false,"rental_uris":{"android":"levelo://app?vid=ee98d696-fc8f-4bd7-9acc-ba17f9c78589","ios":"levelo://app?vid=ee98d696-fc8f-4bd7-9acc-ba17f9c78589"},"vehicle_type_id":"4","last_reported":1725646291,"current_range_meters":1600,"station_id":"ce4bhqp2rcd13ifvqhng","pricing_plan_id":"cebpf4jnsgd1na2vs0mg"},{"bike_id":"e0aae909-25f6-4aba-b494-257a01268f0d","system_id":"levelo_inurba_marseille","lat":43.2958,"lon":5.37532,"is_reserved":false,"is_disabled":false,"rental_uris":{"android":"levelo://app?vid=e0aae909-25f6-4aba-b494-257a01268f0d","ios":"levelo://app?vid=e0aae909-25f6-4aba-b494-257a01268f0d"},"vehicle_type_id":"4","last_reported":1725646291,"current_range_meters":0,"station_id":"ce4bgh92rcd13ifvqb50","pricing_plan_id":"cebpf4jnsgd1na2vs0mg"},{"bike_id":"c628cbb3-49e5-425f-a0c9-0bd3a679f4ae","system_id":"levelo_inurba_marseille","lat":43.296263,"lon":5.377094,"is_reserved":false,"is_disabled":false,"rental_uris":{"android":"levelo://app?vid=c628cbb3-49e5-425f-a0c9-0bd3a679f4ae","ios":"levelo://app?vid=c628cbb3-49e5-425f-a0c9-0bd3a679f4ae"},"vehicle_type_id":"4","last_reported":1725646291,"current_range_meters":8800,"station_id":"ce4bgi92rcd13ifvqb90","pricing_plan_id":"cebpf4jnsgd1na2vs0mg"},{"bike_id":"88de2bc9-143d-42ab-8694-1402409496bd","system_id":"levelo_inurba_marseille","lat":43.296263,"lon":5.377094,"is_reserved":false,"is_disabled":false,"rental_uris":{"android":"levelo://app?vid=88de2bc9-143d-42ab-8694-1402409496bd","ios":"levelo://app?vid=88de2bc9-143d-42ab-8694-1402409496bd"},"vehicle_type_id":"4","last_reported":1725646291,"current_range_meters":0,"station_id":"ce4bgi92rcd13ifvqb90","pricing_plan_id":"cebpf4jnsgd1na2vs0mg"},{"bike_id":"c939dbd0-4e58-41dc-a032-ac61869d5b8c","system_id":"levelo_inurba_marseille","lat":43.29541,"lon":5.37497,"is_reserved":false,"is_disabled":false,"rental_uris":{"android":"levelo://app?vid=c939dbd0-4e58-41dc-a032-ac61869d5b8c","ios":"levelo://app?vid=c939dbd0-4e58-41dc-a032-ac61869d5b8c"},"vehicle_type_id":"4","last_reported":1725646291,"current_range_meters":14400,"station_id":"ce4bgkp2rcd13ifvqbmg","pricing_plan_id":"cebpf4jnsgd1na2vs0mg"},{"bike_id":"69548f11-15db-4da2-8cb5-073b06000880","system_id":"levelo_inurba_marseille","lat":43.299707,"lon":5.384859,"is_reserved":false,"is_disabled":false,"rental_uris":{"android":"levelo://app?vid=69548f11-15db-4da2-8cb5-073b06000880","ios":"levelo://app?vid=69548f11-15db-4da2-8cb5-073b06000880"},"vehicle_type_id":"4","last_reported":1725646291,"current_range_meters":0,"station_id":"ce4bgj92rcd13ifvqbd0","pricing_plan_id":"cebpf4jnsgd1na2vs0mg"},{"bike_id":"45d7b1e5-e356-4b8e-bdd6-c4f8dc1e2d64","system_id":"levelo_inurba_marseille","lat":43.295279,"lon":5.375048,"is_reserved":false,"is_disabled":false,"rental_uris":{"android":"levelo://app?vid=45d7b1e5-e356-4b8e-bdd6-c4f8dc1e2d64","ios":"levelo://app?vid=45d7b1e5-e356-4b8e-bdd6-c4f8dc1e2d64"},"vehicle_type_id":"4","last_reported":1725646291,"current_range_meters":0,"station_id":"ce4bgkp2rcd13ifvqbmg","pricing_plan_id":"cebpf4jnsgd1na2vs0mg"},{"bike_id":"631b5287-23ee-4f76-841a-7fb78a93b98d","system_id":"levelo_inurba_marseille","lat":43.304278,"lon":5.388868,"is_reserved":false,"is_disabled":false,"rental_uris":{"android":"levelo://app?vid=631b5287-23ee-4f76-841a-7fb78a93b98d","ios":"levelo://app?vid=631b5287-23ee-4f76-841a-7fb78a93b98d"},"vehicle_type_id":"4","last_reported":1725646291,"current_range_meters":17200,"station_id":"ce4bgk12rcd13ifvqbi0","pricing_plan_id":"cebpf4jnsgd1na2vs0mg"},{"bike_id":"1aa18c85-afb7-42ab-8da9-ce63f77bce8a","system_id":"levelo_inurba_marseille","lat":43.32367,"lon":5.388836,"is_reserved":false,"is_disabled":false,"rental_uris":{"android":"levelo://app?vid=1aa18c85-afb7-42ab-8da9-ce63f77bce8a","ios":"levelo://app?vid=1aa18c85-afb7-42ab-8da9-ce63f77bce8a"},"vehicle_type_id":"4","last_reported":1725646291,"current_range_meters":3200,"station_id":"ce4bhqp2rcd13ifvqhog","pricing_plan_id":"cebpf4jnsgd1na2vs0mg"},{"bike_id":"81a98824-2008-44d6-9c81-2be30d9e0932","system_id":"levelo_inurba_marseille","lat":43.32367,"lon":5.38892,"is_reserved":false,"is_disabled":false,"rental_uris":{"android":"levelo://app?vid=81a98824-2008-44d6-9c81-2be30d9e0932","ios":"levelo://app?vid=81a98824-2008-44d6-9c81-2be30d9e0932"},"vehicle_type_id":"4","last_reported":1725646291,"current_range_meters":0,"station_id":"ce4bhqp2rcd13ifvqhog","pricing_plan_id":"cebpf4jnsgd1na2vs0mg"},{"bike_id":"1389f4a0-fe8c-45a8-89e1-761602337135","system_id":"levelo_inurba_marseille","lat":43.32367,"lon":5.38925,"is_reserved":false,"is_disabled":false,"rental_uris":{"android":"levelo://app?vid=1389f4a0-fe8c-45a8-89e1-761602337135","ios":"levelo://app?vid=1389f4a0-fe8c-45a8-89e1-761602337135"},"vehicle_type_id":"4","last_reported":1725646291,"current_range_meters":23200,"station_id":"ce4bhqp2rcd13ifvqhog","pricing_plan_id":"cebpf4jnsgd1na2vs0mg"},{"bike_id":"974dd4ac-df50-4dce-8630-117e0e6e002a","system_id":"levelo_inurba_marseille","lat":43.3237,"lon":5.38926,"is_reserved":false,"is_disabled":false,"rental_uris":{"android":"levelo://app?vid=974dd4ac-df50-4dce-8630-117e0e6e002a","ios":"levelo://app?vid=974dd4ac-df50-4dce-8630-117e0e6e002a"},"vehicle_type_id":"4","last_reported":1725646291,"current_range_meters":28400,"station_id":"ce4bhqp2rcd13ifvqhog","pricing_plan_id":"cebpf4jnsgd1na2vs0mg"},{"bike_id":"41704600-e9e6-4869-aefd-a4a12996605b","system_id":"levelo_inurba_marseille","lat":43.3237,"lon":5.38926,"is_reserved":false,"is_disabled":false,"rental_uris":{"android":"levelo://app?vid=41704600-e9e6-4869-aefd-a4a12996605b","ios":"levelo://app?vid=41704600-e9e6-4869-aefd-a4a12996605b"},"vehicle_type_id":"4","last_reported":1725646291,"current_range_meters":16000,"station_id":"ce4bhqp2rcd13ifvqhog","pricing_plan_id":"cebpf4jnsgd1na2vs0mg"},{"bike_id":"ab316338-59e0-43f1-8d6a-e73fa0a9afa2","system_id":"levelo_inurba_marseille","lat":43.29596,"lon":5.3809,"is_reserved":false,"is_disabled":false,"rental_uris":{"android":"levelo://app?vid=ab316338-59e0-43f1-8d6a-e73fa0a9afa2","ios":"levelo://app?vid=ab316338-59e0-43f1-8d6a-e73fa0a9afa2"},"vehicle_type_id":"4","last_reported":1725646291,"current_range_meters":0,"station_id":"ce4bgl12rcd13ifvqbo0","pricing_plan_id":"cebpf4jnsgd1na2vs0mg"},{"bike_id":"fcd32e5f-c570-43ee-9806-4ead66d3fb00","system_id":"levelo_inurba_marseille","lat":43.29602,"lon":5.381084,"is_reserved":false,"is_disabled":false,"rental_uris":{"android":"levelo://app?vid=fcd32e5f-c570-43ee-9806-4ead66d3fb00","ios":"levelo://app?vid=fcd32e5f-c570-43ee-9806-4ead66d3fb00"},"vehicle_type_id":"4","last_reported":1725646291,"current_range_meters":0,"station_id":"ce4bgl12rcd13ifvqbo0","pricing_plan_id":"cebpf4jnsgd1na2vs0mg"},{"bike_id":"6844b284-fcf4-49b2-b570-2bc5b94aa312","system_id":"levelo_inurba_marseille","lat":43.293259,"lon":5.371586,"is_reserved":false,"is_disabled":false,"rental_uris":{"android":"levelo://app?vid=6844b284-fcf4-49b2-b570-2bc5b94aa312","ios":"levelo://app?vid=6844b284-fcf4-49b2-b570-2bc5b94aa312"},"vehicle_type_id":"4","last_reported":1725646291,"current_range_meters":26800,"station_id":"ce4bgh92rcd13ifvqb40","pricing_plan_id":"cebpf4jnsgd1na2vs0mg"},{"bike_id":"aca91a6b-7e5e-49af-a10e-ca651326843c","system_id":"levelo_inurba_marseille","lat":43.293259,"lon":5.371586,"is_reserved":false,"is_disabled":false,"rental_uris":{"android":"levelo://app?vid=aca91a6b-7e5e-49af-a10e-ca651326843c","ios":"levelo://app?vid=aca91a6b-7e5e-49af-a10e-ca651326843c"},"vehicle_type_id":"4","last_reported":1725646291,"current_range_meters":2400,"station_id":"ce4bgh92rcd13ifvqb40","pricing_plan_id":"cebpf4jnsgd1na2vs0mg"},{"bike_id":"f4a29c19-2cdf-489b-bbaa-a166f1edbd89","system_id":"levelo_inurba_marseille","lat":43.292749,"lon":5.368402,"is_reserved":false,"is_disabled":false,"rental_uris":{"android":"levelo://app?vid=f4a29c19-2cdf-489b-bbaa-a166f1edbd89","ios":"levelo://app?vid=f4a29c19-2cdf-489b-bbaa-a166f1edbd89"},"vehicle_type_id":"4","last_reported":1725646291,"current_range_meters":1600,"station_id":"ce4bhbp2rcd13ifvqesg","pricing_plan_id":"cebpf4jnsgd1na2vs0mg"},{"bike_id":"de216316-1575-40f5-a616-814ee44aaa56","system_id":"levelo_inurba_marseille","lat":43.29256,"lon":5.36642,"is_reserved":false,"is_disabled":false,"rental_uris":{"android":"levelo://app?vid=de216316-1575-40f5-a616-814ee44aaa56","ios":"levelo://app?vid=de216316-1575-40f5-a616-814ee44aaa56"},"vehicle_type_id":"4","last_reported":1725646291,"current_range_meters":26800,"station_id":"","pricing_plan_id":"cebpf4jnsgd1na2vs0mg"},{"bike_id":"93e08171-4c94-43d6-8470-729fb76cd0f6","system_id":"levelo_inurba_marseille","lat":43.293009,"lon":5.374584,"is_reserved":false,"is_disabled":false,"rental_uris":{"android":"levelo://app?vid=93e08171-4c94-43d6-8470-729fb76cd0f6","ios":"levelo://app?vid=93e08171-4c94-43d6-8470-729fb76cd0f6"},"vehicle_type_id":"4","last_reported":1725646291,"current_range_meters":16800,"station_id":"ce4bgi12rcd13ifvqb70","pricing_plan_id":"cebpf4jnsgd1na2vs0mg"},{"bike_id":"c0c49f5d-2ee3-4fa7-89d5-f23441664153","system_id":"levelo_inurba_marseille","lat":43.305994,"lon":5.393687,"is_reserved":false,"is_disabled":false,"rental_uris":{"android":"levelo://app?vid=c0c49f5d-2ee3-4fa7-89d5-f23441664153","ios":"levelo://app?vid=c0c49f5d-2ee3-4fa7-89d5-f23441664153"},"vehicle_type_id":"4","last_reported":1725646291,"current_range_meters":28000,"station_id":"ce4bh0p2rcd13ifvqd80","pricing_plan_id":"cebpf4jnsgd1na2vs0mg"},{"bike_id":"e7eabeeb-d012-4e27-b777-cdf5d7bd75d7","system_id":"levelo_inurba_marseille","lat":43.305994,"lon":5.393687,"is_reserved":false,"is_disabled":false,"rental_uris":{"android":"levelo://app?vid=e7eabeeb-d012-4e27-b777-cdf5d7bd75d7","ios":"levelo://app?vid=e7eabeeb-d012-4e27-b777-cdf5d7bd75d7"},"vehicle_type_id":"4","last_reported":1725646291,"current_range_meters":26400,"station_id":"ce4bh0p2rcd13ifvqd80","pricing_plan_id":"cebpf4jnsgd1na2vs0mg"},{"bike_id":"dd0bba2f-5666-46cc-8620-fd704acbe3c8","system_id":"levelo_inurba_marseille","lat":43.29298,"lon":5.37463,"is_reserved":false,"is_disabled":false,"rental_uris":{"android":"levelo://app?vid=dd0bba2f-5666-46cc-8620-fd704acbe3c8","ios":"levelo://app?vid=dd0bba2f-5666-46cc-8620-fd704acbe3c8"},"vehicle_type_id":"4","last_reported":1725646291,"current_range_meters":0,"station_id":"ce4bgi12rcd13ifvqb70","pricing_plan_id":"cebpf4jnsgd1na2vs0mg"},{"bike_id":"cc52f4df-4b55-4d0d-8117-0dbe5c3d4287","system_id":"levelo_inurba_marseille","lat":43.29288,"lon":5.37457,"is_reserved":false,"is_disabled":false,"rental_uris":{"android":"levelo://app?vid=cc52f4df-4b55-4d0d-8117-0dbe5c3d4287","ios":"levelo://app?vid=cc52f4df-4b55-4d0d-8117-0dbe5c3d4287"},"vehicle_type_id":"4","last_reported":1725646291,"current_range_meters":0,"station_id":"ce4bgi12rcd13ifvqb70","pricing_plan_id":"cebpf4jnsgd1na2vs0mg"},{"bike_id":"d6a89400-d20e-4020-b1a8-a7af447fea30","system_id":"levelo_inurba_marseille","lat":43.29285,"lon":5.37464,"is_reserved":false,"is_disabled":false,"rental_uris":{"android":"levelo://app?vid=d6a89400-d20e-4020-b1a8-a7af447fea30","ios":"levelo://app?vid=d6a89400-d20e-4020-b1a8-a7af447fea30"},"vehicle_type_id":"4","last_reported":1725646291,"current_range_meters":0,"station_id":"ce4bgi12rcd13ifvqb70","pricing_plan_id":"cebpf4jnsgd1na2vs0mg"},{"bike_id":"0ce15987-6a2a-45a7-a7ca-621f7592898d","system_id":"levelo_inurba_marseille","lat":43.302992,"lon":5.392136,"is_reserved":false,"is_disabled":false,"rental_uris":{"android":"levelo://app?vid=0ce15987-6a2a-45a7-a7ca-621f7592898d","ios":"levelo://app?vid=0ce15987-6a2a-45a7-a7ca-621f7592898d"},"vehicle_type_id":"4","last_reported":1725646291,"current_range_meters":21200,"station_id":"ce4bgkh2rcd13ifvqbk0","pricing_plan_id":"cebpf4jnsgd1na2vs0mg"},{"bike_id":"481a8d22-ac2c-4b79-a8b2-5d532876572c","system_id":"levelo_inurba_marseille","lat":43.302992,"lon":5.392136,"is_reserved":false,"is_disabled":false,"rental_uris":{"android":"levelo://app?vid=481a8d22-ac2c-4b79-a8b2-5d532876572c","ios":"levelo://app?vid=481a8d22-ac2c-4b79-a8b2-5d532876572c"},"vehicle_type_id":"4","last_reported":1725646291,"current_range_meters":1200,"station_id":"ce4bgkh2rcd13ifvqbk0","pricing_plan_id":"cebpf4jnsgd1na2vs0mg"},{"bike_id":"aa0fa382-043a-4911-a286-a1e12b33d14c","system_id":"levelo_inurba_marseille","lat":43.2936,"lon":5.37835,"is_reserved":false,"is_disabled":false,"rental_uris":{"android":"levelo://app?vid=aa0fa382-043a-4911-a286-a1e12b33d14c","ios":"levelo://app?vid=aa0fa382-043a-4911-a286-a1e12b33d14c"},"vehicle_type_id":"4","last_reported":1725646291,"current_range_meters":0,"station_id":"ce4bgjh2rcd13ifvqbf0","pricing_plan_id":"cebpf4jnsgd1na2vs0mg"},{"bike_id":"02c6a459-8376-4a4f-ab52-6341b2843633","system_id":"levelo_inurba_marseille","lat":43.2936,"lon":5.37835,"is_reserved":false,"is_disabled":false,"rental_uris":{"android":"levelo://app?vid=02c6a459-8376-4a4f-ab52-6341b2843633","ios":"levelo://app?vid=02c6a459-8376-4a4f-ab52-6341b2843633"},"vehicle_type_id":"4","last_reported":1725646291,"current_range_meters":12000,"station_id":"ce4bgjh2rcd13ifvqbf0","pricing_plan_id":"cebpf4jnsgd1na2vs0mg"},{"bike_id":"be905224-649b-491f-85b8-cbd6c186d92e","system_id":"levelo_inurba_marseille","lat":43.29244,"lon":5.36057,"is_reserved":false,"is_disabled":false,"rental_uris":{"android":"levelo://app?vid=be905224-649b-491f-85b8-cbd6c186d92e","ios":"levelo://app?vid=be905224-649b-491f-85b8-cbd6c186d92e"},"vehicle_type_id":"4","last_reported":1725646291,"current_range_meters":31200,"station_id":"ce4bhbh2rcd13ifvqeqg","pricing_plan_id":"cebpf4jnsgd1na2vs0mg"},{"bike_id":"98db5349-ab6f-4b7e-80de-7e1c6f03d2f0","system_id":"levelo_inurba_marseille","lat":43.292332,"lon":5.360756,"is_reserved":false,"is_disabled":false,"rental_uris":{"android":"levelo://app?vid=98db5349-ab6f-4b7e-80de-7e1c6f03d2f0","ios":"levelo://app?vid=98db5349-ab6f-4b7e-80de-7e1c6f03d2f0"},"vehicle_type_id":"4","last_reported":1725646291,"current_range_meters":6400,"station_id":"ce4bhbh2rcd13ifvqeqg","pricing_plan_id":"cebpf4jnsgd1na2vs0mg"},{"bike_id":"e8b1b999-e110-4041-bc07-d605620d30fc","system_id":"levelo_inurba_marseille","lat":43.29236,"lon":5.36056,"is_reserved":false,"is_disabled":false,"rental_uris":{"android":"levelo://app?vid=e8b1b999-e110-4041-bc07-d605620d30fc","ios":"levelo://app?vid=e8b1b999-e110-4041-bc07-d605620d30fc"},"vehicle_type_id":"4","last_reported":1725646291,"current_range_meters":30800,"station_id":"ce4bhbh2rcd13ifvqeqg","pricing_plan_id":"cebpf4jnsgd1na2vs0mg"},{"bike_id":"15766bc2-ac47-4c3a-a0b1-8b430ec63456","system_id":"levelo_inurba_marseille","lat":43.29232,"lon":5.36063,"is_reserved":false,"is_disabled":false,"rental_uris":{"android":"levelo://app?vid=15766bc2-ac47-4c3a-a0b1-8b430ec63456","ios":"levelo://app?vid=15766bc2-ac47-4c3a-a0b1-8b430ec63456"},"vehicle_type_id":"4","last_reported":1725646291,"current_range_meters":31200,"station_id":"ce4bhbh2rcd13ifvqeqg","pricing_plan_id":"cebpf4jnsgd1na2vs0mg"},{"bike_id":"8fadf316-bcd6-41c2-a367-5282e423d8f0","system_id":"levelo_inurba_marseille","lat":43.292311,"lon":5.360731,"is_reserved":false,"is_disabled":false,"rental_uris":{"android":"levelo://app?vid=8fadf316-bcd6-41c2-a367-5282e423d8f0","ios":"levelo://app?vid=8fadf316-bcd6-41c2-a367-5282e423d8f0"},"vehicle_type_id":"4","last_reported":1725646291,"current_range_meters":31200,"station_id":"ce4bhbh2rcd13ifvqeqg","pricing_plan_id":"cebpf4jnsgd1na2vs0mg"},{"bike_id":"40b6359f-7713-4280-b0bc-a2a30fda96b9","system_id":"levelo_inurba_marseille","lat":43.29231,"lon":5.36061,"is_reserved":false,"is_disabled":false,"rental_uris":{"android":"levelo://app?vid=40b6359f-7713-4280-b0bc-a2a30fda96b9","ios":"levelo://app?vid=40b6359f-7713-4280-b0bc-a2a30fda96b9"},"vehicle_type_id":"4","last_reported":1725646291,"current_range_meters":31200,"station_id":"ce4bhbh2rcd13ifvqeqg","pricing_plan_id":"cebpf4jnsgd1na2vs0mg"},{"bike_id":"80af3280-92cb-4f9d-8537-0b50e3e7ca43","system_id":"levelo_inurba_marseille","lat":43.2923,"lon":5.3606,"is_reserved":false,"is_disabled":false,"rental_uris":{"android":"levelo://app?vid=80af3280-92cb-4f9d-8537-0b50e3e7ca43","ios":"levelo://app?vid=80af3280-92cb-4f9d-8537-0b50e3e7ca43"},"vehicle_type_id":"4","last_reported":1725646291,"current_range_meters":13600,"station_id":"ce4bhbh2rcd13ifvqeqg","pricing_plan_id":"cebpf4jnsgd1na2vs0mg"},{"bike_id":"1cd3a36f-a608-4ef6-82e8-1371cbf5f3e1","system_id":"levelo_inurba_marseille","lat":43.29229,"lon":5.36059,"is_reserved":false,"is_disabled":false,"rental_uris":{"android":"levelo://app?vid=1cd3a36f-a608-4ef6-82e8-1371cbf5f3e1","ios":"levelo://app?vid=1cd3a36f-a608-4ef6-82e8-1371cbf5f3e1"},"vehicle_type_id":"4","last_reported":1725646291,"current_range_meters":19600,"station_id":"ce4bhbh2rcd13ifvqeqg","pricing_plan_id":"cebpf4jnsgd1na2vs0mg"},{"bike_id":"b0fbcc5c-72bd-459a-bd19-29389ae8e56f","system_id":"levelo_inurba_marseille","lat":43.29227,"lon":5.36058,"is_reserved":false,"is_disabled":false,"rental_uris":{"android":"levelo://app?vid=b0fbcc5c-72bd-459a-bd19-29389ae8e56f","ios":"levelo://app?vid=b0fbcc5c-72bd-459a-bd19-29389ae8e56f"},"vehicle_type_id":"4","last_reported":1725646291,"current_range_meters":0,"station_id":"ce4bhbh2rcd13ifvqeqg","pricing_plan_id":"cebpf4jnsgd1na2vs0mg"},{"bike_id":"e0acf116-45a5-4832-bbc2-1cc7d111e8d1","system_id":"levelo_inurba_marseille","lat":43.29225,"lon":5.36067,"is_reserved":false,"is_disabled":false,"rental_uris":{"android":"levelo://app?vid=e0acf116-45a5-4832-bbc2-1cc7d111e8d1","ios":"levelo://app?vid=e0acf116-45a5-4832-bbc2-1cc7d111e8d1"},"vehicle_type_id":"4","last_reported":1725646291,"current_range_meters":12000,"station_id":"ce4bhbh2rcd13ifvqeqg","pricing_plan_id":"cebpf4jnsgd1na2vs0mg"},{"bike_id":"19714391-f345-4956-afd3-b6daa2c31a50","system_id":"levelo_inurba_marseille","lat":43.29227,"lon":5.36054,"is_reserved":false,"is_disabled":false,"rental_uris":{"android":"levelo://app?vid=19714391-f345-4956-afd3-b6daa2c31a50","ios":"levelo://app?vid=19714391-f345-4956-afd3-b6daa2c31a50"},"vehicle_type_id":"4","last_reported":1725646291,"current_range_meters":16800,"station_id":"ce4bhbh2rcd13ifvqeqg","pricing_plan_id":"cebpf4jnsgd1na2vs0mg"},{"bike_id":"21e3d190-0470-4230-837f-f8a44709a602","system_id":"levelo_inurba_marseille","lat":43.292264,"lon":5.360501,"is_reserved":false,"is_disabled":false,"rental_uris":{"android":"levelo://app?vid=21e3d190-0470-4230-837f-f8a44709a602","ios":"levelo://app?vid=21e3d190-0470-4230-837f-f8a44709a602"},"vehicle_type_id":"4","last_reported":1725646291,"current_range_meters":27600,"station_id":"ce4bhbh2rcd13ifvqeqg","pricing_plan_id":"cebpf4jnsgd1na2vs0mg"},{"bike_id":"7c1f2fcc-c291-4621-9629-9aead6b149a0","system_id":"levelo_inurba_marseille","lat":43.29224,"lon":5.36062,"is_reserved":false,"is_disabled":false,"rental_uris":{"android":"levelo://app?vid=7c1f2fcc-c291-4621-9629-9aead6b149a0","ios":"levelo://app?vid=7c1f2fcc-c291-4621-9629-9aead6b149a0"},"vehicle_type_id":"4","last_reported":1725646291,"current_range_meters":0,"station_id":"ce4bhbh2rcd13ifvqeqg","pricing_plan_id":"cebpf4jnsgd1na2vs0mg"},{"bike_id":"9ece11fd-82a4-40aa-90a8-b4760cf9ddd6","system_id":"levelo_inurba_marseille","lat":43.29222,"lon":5.36047,"is_reserved":false,"is_disabled":false,"rental_uris":{"android":"levelo://app?vid=9ece11fd-82a4-40aa-90a8-b4760cf9ddd6","ios":"levelo://app?vid=9ece11fd-82a4-40aa-90a8-b4760cf9ddd6"},"vehicle_type_id":"4","last_reported":1725646291,"current_range_meters":31200,"station_id":"ce4bhbh2rcd13ifvqeqg","pricing_plan_id":"cebpf4jnsgd1na2vs0mg"},{"bike_id":"aa883a34-e4b2-4498-b9dd-a146c116ca54","system_id":"levelo_inurba_marseille","lat":43.291671,"lon":5.371575,"is_reserved":false,"is_disabled":false,"rental_uris":{"android":"levelo://app?vid=aa883a34-e4b2-4498-b9dd-a146c116ca54","ios":"levelo://app?vid=aa883a34-e4b2-4498-b9dd-a146c116ca54"},"vehicle_type_id":"4","last_reported":1725646291,"current_range_meters":0,"station_id":"ce4bha92rcd13ifvqeh0","pricing_plan_id":"cebpf4jnsgd1na2vs0mg"},{"bike_id":"b87fb4d3-1cab-4e4e-97be-fd4b17796125","system_id":"levelo_inurba_marseille","lat":43.292005,"lon":5.357875,"is_reserved":false,"is_disabled":false,"rental_uris":{"android":"levelo://app?vid=b87fb4d3-1cab-4e4e-97be-fd4b17796125","ios":"levelo://app?vid=b87fb4d3-1cab-4e4e-97be-fd4b17796125"},"vehicle_type_id":"4","last_reported":1725646291,"current_range_meters":26400,"station_id":"ce4bhb12rcd13ifvqel0","pricing_plan_id":"cebpf4jnsgd1na2vs0mg"},{"bike_id":"3616e990-bb8c-4935-a3c9-b9100024ef04","system_id":"levelo_inurba_marseille","lat":43.2919,"lon":5.35803,"is_reserved":false,"is_disabled":false,"rental_uris":{"android":"levelo://app?vid=3616e990-bb8c-4935-a3c9-b9100024ef04","ios":"levelo://app?vid=3616e990-bb8c-4935-a3c9-b9100024ef04"},"vehicle_type_id":"4","last_reported":1725646291,"current_range_meters":0,"station_id":"ce4bhb12rcd13ifvqel0","pricing_plan_id":"cebpf4jnsgd1na2vs0mg"},{"bike_id":"9792a336-0b2e-4ecd-ada1-a398b316f22c","system_id":"levelo_inurba_marseille","lat":43.309038,"lon":5.396546,"is_reserved":false,"is_disabled":false,"rental_uris":{"android":"levelo://app?vid=9792a336-0b2e-4ecd-ada1-a398b316f22c","ios":"levelo://app?vid=9792a336-0b2e-4ecd-ada1-a398b316f22c"},"vehicle_type_id":"4","last_reported":1725646291,"current_range_meters":1200,"station_id":"ce4bh012rcd13ifvqcv0","pricing_plan_id":"cebpf4jnsgd1na2vs0mg"},{"bike_id":"a6e95634-17ef-4e37-be13-5a9d500cb9ed","system_id":"levelo_inurba_marseille","lat":43.29529,"lon":5.385581,"is_reserved":false,"is_disabled":false,"rental_uris":{"android":"levelo://app?vid=a6e95634-17ef-4e37-be13-5a9d500cb9ed","ios":"levelo://app?vid=a6e95634-17ef-4e37-be13-5a9d500cb9ed"},"vehicle_type_id":"4","last_reported":1725646291,"current_range_meters":17600,"station_id":"ce4bgih2rcd13ifvqba0","pricing_plan_id":"cebpf4jnsgd1na2vs0mg"},{"bike_id":"dd2bc735-eb73-4a66-a7d1-3b716fddbc87","system_id":"levelo_inurba_marseille","lat":43.29527,"lon":5.38545,"is_reserved":false,"is_disabled":false,"rental_uris":{"android":"levelo://app?vid=dd2bc735-eb73-4a66-a7d1-3b716fddbc87","ios":"levelo://app?vid=dd2bc735-eb73-4a66-a7d1-3b716fddbc87"},"vehicle_type_id":"4","last_reported":1725646291,"current_range_meters":28000,"station_id":"ce4bgih2rcd13ifvqba0","pricing_plan_id":"cebpf4jnsgd1na2vs0mg"},{"bike_id":"7897300e-1276-4d1a-a53b-91360e4bf1ba","system_id":"levelo_inurba_marseille","lat":43.290779,"lon":5.371482,"is_reserved":false,"is_disabled":false,"rental_uris":{"android":"levelo://app?vid=7897300e-1276-4d1a-a53b-91360e4bf1ba","ios":"levelo://app?vid=7897300e-1276-4d1a-a53b-91360e4bf1ba"},"vehicle_type_id":"4","last_reported":1725646291,"current_range_meters":31600,"station_id":"ce4bh5p2rcd13ifvqe4g","pricing_plan_id":"cebpf4jnsgd1na2vs0mg"},{"bike_id":"a7f1b83e-bbf5-4053-a9ad-896ffab8364e","system_id":"levelo_inurba_marseille","lat":43.2907,"lon":5.37166,"is_reserved":false,"is_disabled":false,"rental_uris":{"android":"levelo://app?vid=a7f1b83e-bbf5-4053-a9ad-896ffab8364e","ios":"levelo://app?vid=a7f1b83e-bbf5-4053-a9ad-896ffab8364e"},"vehicle_type_id":"4","last_reported":1725646291,"current_range_meters":0,"station_id":"ce4bh5p2rcd13ifvqe4g","pricing_plan_id":"cebpf4jnsgd1na2vs0mg"},{"bike_id":"bc250751-eb7e-40b9-a9cc-5626e8c212cb","system_id":"levelo_inurba_marseille","lat":43.294153,"lon":5.386305,"is_reserved":false,"is_disabled":false,"rental_uris":{"android":"levelo://app?vid=bc250751-eb7e-40b9-a9cc-5626e8c212cb","ios":"levelo://app?vid=bc250751-eb7e-40b9-a9cc-5626e8c212cb"},"vehicle_type_id":"4","last_reported":1725646291,"current_range_meters":0,"station_id":"ce4bh2h2rcd13ifvqdh0","pricing_plan_id":"cebpf4jnsgd1na2vs0mg"},{"bike_id":"0a4149c3-4912-4e36-beab-a073077c7c90","system_id":"levelo_inurba_marseille","lat":43.294162,"lon":5.386292,"is_reserved":false,"is_disabled":false,"rental_uris":{"android":"levelo://app?vid=0a4149c3-4912-4e36-beab-a073077c7c90","ios":"levelo://app?vid=0a4149c3-4912-4e36-beab-a073077c7c90"},"vehicle_type_id":"4","last_reported":1725646291,"current_range_meters":0,"station_id":"ce4bh2h2rcd13ifvqdh0","pricing_plan_id":"cebpf4jnsgd1na2vs0mg"},{"bike_id":"e28797b0-0171-44e3-9395-4c1115de3d9d","system_id":"levelo_inurba_marseille","lat":43.294153,"lon":5.386305,"is_reserved":false,"is_disabled":false,"rental_uris":{"android":"levelo://app?vid=e28797b0-0171-44e3-9395-4c1115de3d9d","ios":"levelo://app?vid=e28797b0-0171-44e3-9395-4c1115de3d9d"},"vehicle_type_id":"4","last_reported":1725646291,"current_range_meters":0,"station_id":"ce4bh2h2rcd13ifvqdh0","pricing_plan_id":"cebpf4jnsgd1na2vs0mg"},{"bike_id":"90b78cbe-3a36-4479-9cf1-cb1470deca48","system_id":"levelo_inurba_marseille","lat":43.29036,"lon":5.375778,"is_reserved":false,"is_disabled":false,"rental_uris":{"android":"levelo://app?vid=90b78cbe-3a36-4479-9cf1-cb1470deca48","ios":"levelo://app?vid=90b78cbe-3a36-4479-9cf1-cb1470deca48"},"vehicle_type_id":"4","last_reported":1725646291,"current_range_meters":0,"station_id":"ce4bh692rcd13ifvqe90","pricing_plan_id":"cebpf4jnsgd1na2vs0mg"},{"bike_id":"6eec2f81-99cd-4029-8b4c-bbb001efd381","system_id":"levelo_inurba_marseille","lat":43.289468,"lon":5.363719,"is_reserved":false,"is_disabled":false,"rental_uris":{"android":"levelo://app?vid=6eec2f81-99cd-4029-8b4c-bbb001efd381","ios":"levelo://app?vid=6eec2f81-99cd-4029-8b4c-bbb001efd381"},"vehicle_type_id":"4","last_reported":1725646291,"current_range_meters":5600,"station_id":"ce4bhc92rcd13ifvqetg","pricing_plan_id":"cebpf4jnsgd1na2vs0mg"},{"bike_id":"a948ea84-b3c6-4f96-b5d2-0a171b27f7e0","system_id":"levelo_inurba_marseille","lat":43.289184,"lon":5.366408,"is_reserved":false,"is_disabled":false,"rental_uris":{"android":"levelo://app?vid=a948ea84-b3c6-4f96-b5d2-0a171b27f7e0","ios":"levelo://app?vid=a948ea84-b3c6-4f96-b5d2-0a171b27f7e0"},"vehicle_type_id":"4","last_reported":1725646291,"current_range_meters":30800,"station_id":"ce4bhap2rcd13ifvqek0","pricing_plan_id":"cebpf4jnsgd1na2vs0mg"},{"bike_id":"5fa28558-66f2-40ff-8361-a71d98ab9463","system_id":"levelo_inurba_marseille","lat":43.289184,"lon":5.366408,"is_reserved":false,"is_disabled":false,"rental_uris":{"android":"levelo://app?vid=5fa28558-66f2-40ff-8361-a71d98ab9463","ios":"levelo://app?vid=5fa28558-66f2-40ff-8361-a71d98ab9463"},"vehicle_type_id":"4","last_reported":1725646291,"current_range_meters":1200,"station_id":"ce4bhap2rcd13ifvqek0","pricing_plan_id":"cebpf4jnsgd1na2vs0mg"},{"bike_id":"6cf36533-e9af-41a0-8588-19a8c8ffef96","system_id":"levelo_inurba_marseille","lat":43.289184,"lon":5.366408,"is_reserved":false,"is_disabled":false,"rental_uris":{"android":"levelo://app?vid=6cf36533-e9af-41a0-8588-19a8c8ffef96","ios":"levelo://app?vid=6cf36533-e9af-41a0-8588-19a8c8ffef96"},"vehicle_type_id":"4","last_reported":1725646291,"current_range_meters":14400,"station_id":"ce4bhap2rcd13ifvqek0","pricing_plan_id":"cebpf4jnsgd1na2vs0mg"},{"bike_id":"04b4b8dd-c7fa-4c7b-98d3-46faa88ba04a","system_id":"levelo_inurba_marseille","lat":43.289184,"lon":5.366408,"is_reserved":false,"is_disabled":false,"rental_uris":{"android":"levelo://app?vid=04b4b8dd-c7fa-4c7b-98d3-46faa88ba04a","ios":"levelo://app?vid=04b4b8dd-c7fa-4c7b-98d3-46faa88ba04a"},"vehicle_type_id":"4","last_reported":1725646291,"current_range_meters":20000,"station_id":"ce4bhap2rcd13ifvqek0","pricing_plan_id":"cebpf4jnsgd1na2vs0mg"},{"bike_id":"830d7d3c-6b1a-4292-b864-3037d9df36f4","system_id":"levelo_inurba_marseille","lat":43.2927,"lon":5.38451,"is_reserved":false,"is_disabled":false,"rental_uris":{"android":"levelo://app?vid=830d7d3c-6b1a-4292-b864-3037d9df36f4","ios":"levelo://app?vid=830d7d3c-6b1a-4292-b864-3037d9df36f4"},"vehicle_type_id":"4","last_reported":1725646291,"current_range_meters":0,"station_id":"ce4bh692rcd13ifvqea0","pricing_plan_id":"cebpf4jnsgd1na2vs0mg"},{"bike_id":"278e8774-b35e-4c63-968d-04edfd62f350","system_id":"levelo_inurba_marseille","lat":43.29257,"lon":5.38433,"is_reserved":false,"is_disabled":false,"rental_uris":{"android":"levelo://app?vid=278e8774-b35e-4c63-968d-04edfd62f350","ios":"levelo://app?vid=278e8774-b35e-4c63-968d-04edfd62f350"},"vehicle_type_id":"4","last_reported":1725646291,"current_range_meters":0,"station_id":"ce4bh692rcd13ifvqea0","pricing_plan_id":"cebpf4jnsgd1na2vs0mg"},{"bike_id":"fd355fb1-3439-4f3d-a552-ce4d7605b464","system_id":"levelo_inurba_marseille","lat":43.29113,"lon":5.3808,"is_reserved":false,"is_disabled":false,"rental_uris":{"android":"levelo://app?vid=fd355fb1-3439-4f3d-a552-ce4d7605b464","ios":"levelo://app?vid=fd355fb1-3439-4f3d-a552-ce4d7605b464"},"vehicle_type_id":"4","last_reported":1725646291,"current_range_meters":0,"station_id":"ce4bh512rcd13ifvqe2g","pricing_plan_id":"cebpf4jnsgd1na2vs0mg"},{"bike_id":"be640fc7-0788-44db-b771-0a5d716d7911","system_id":"levelo_inurba_marseille","lat":43.29004,"lon":5.35611,"is_reserved":false,"is_disabled":false,"rental_uris":{"android":"levelo://app?vid=be640fc7-0788-44db-b771-0a5d716d7911","ios":"levelo://app?vid=be640fc7-0788-44db-b771-0a5d716d7911"},"vehicle_type_id":"4","last_reported":1725646291,"current_range_meters":0,"station_id":"ce4bhb92rcd13ifvqen0","pricing_plan_id":"cebpf4jnsgd1na2vs0mg"},{"bike_id":"2c46dc6f-d112-43d2-8342-34e9aab9245b","system_id":"levelo_inurba_marseille","lat":43.290104,"lon":5.356111,"is_reserved":false,"is_disabled":false,"rental_uris":{"android":"levelo://app?vid=2c46dc6f-d112-43d2-8342-34e9aab9245b","ios":"levelo://app?vid=2c46dc6f-d112-43d2-8342-34e9aab9245b"},"vehicle_type_id":"4","last_reported":1725646291,"current_range_meters":0,"station_id":"ce4bhb92rcd13ifvqen0","pricing_plan_id":"cebpf4jnsgd1na2vs0mg"},{"bike_id":"f8a54539-267b-44da-913b-3efed790a862","system_id":"levelo_inurba_marseille","lat":43.29103,"lon":5.38141,"is_reserved":false,"is_disabled":false,"rental_uris":{"android":"levelo://app?vid=f8a54539-267b-44da-913b-3efed790a862","ios":"levelo://app?vid=f8a54539-267b-44da-913b-3efed790a862"},"vehicle_type_id":"4","last_reported":1725646291,"current_range_meters":0,"station_id":"ce4bh512rcd13ifvqe2g","pricing_plan_id":"cebpf4jnsgd1na2vs0mg"},{"bike_id":"1fd78426-0dc1-4850-84d4-55413d8db715","system_id":"levelo_inurba_marseille","lat":43.28989,"lon":5.35608,"is_reserved":false,"is_disabled":false,"rental_uris":{"android":"levelo://app?vid=1fd78426-0dc1-4850-84d4-55413d8db715","ios":"levelo://app?vid=1fd78426-0dc1-4850-84d4-55413d8db715"},"vehicle_type_id":"4","last_reported":1725646291,"current_range_meters":0,"station_id":"ce4bhb92rcd13ifvqen0","pricing_plan_id":"cebpf4jnsgd1na2vs0mg"},{"bike_id":"283dc65a-01b2-4032-8f92-d7903e79d667","system_id":"levelo_inurba_marseille","lat":43.289743,"lon":5.378304,"is_reserved":false,"is_disabled":false,"rental_uris":{"android":"levelo://app?vid=283dc65a-01b2-4032-8f92-d7903e79d667","ios":"levelo://app?vid=283dc65a-01b2-4032-8f92-d7903e79d667"},"vehicle_type_id":"4","last_reported":1725646291,"current_range_meters":0,"station_id":"ce4bh9p2rcd13ifvqed0","pricing_plan_id":"cebpf4jnsgd1na2vs0mg"},{"bike_id":"1aaea0a3-088a-4135-88a5-6cf89c8cce77","system_id":"levelo_inurba_marseille","lat":43.330241,"lon":5.390421,"is_reserved":false,"is_disabled":false,"rental_uris":{"android":"levelo://app?vid=1aaea0a3-088a-4135-88a5-6cf89c8cce77","ios":"levelo://app?vid=1aaea0a3-088a-4135-88a5-6cf89c8cce77"},"vehicle_type_id":"4","last_reported":1725646291,"current_range_meters":0,"station_id":"ce4bhr92rcd13ifvqhrg","pricing_plan_id":"cebpf4jnsgd1na2vs0mg"},{"bike_id":"48d1e25a-1cf7-4f32-a27d-cc5fcb8a80e2","system_id":"levelo_inurba_marseille","lat":43.330442,"lon":5.389148,"is_reserved":false,"is_disabled":false,"rental_uris":{"android":"levelo://app?vid=48d1e25a-1cf7-4f32-a27d-cc5fcb8a80e2","ios":"levelo://app?vid=48d1e25a-1cf7-4f32-a27d-cc5fcb8a80e2"},"vehicle_type_id":"4","last_reported":1725646291,"current_range_meters":22000,"station_id":"ce4bhr92rcd13ifvqhrg","pricing_plan_id":"cebpf4jnsgd1na2vs0mg"},{"bike_id":"bc9434c0-249d-46fe-b37d-2c92dab52112","system_id":"levelo_inurba_marseille","lat":43.294162,"lon":5.386292,"is_reserved":false,"is_disabled":false,"rental_uris":{"android":"levelo://app?vid=bc9434c0-249d-46fe-b37d-2c92dab52112","ios":"levelo://app?vid=bc9434c0-249d-46fe-b37d-2c92dab52112"},"vehicle_type_id":"4","last_reported":1725646291,"current_range_meters":15200,"station_id":"ce4bh2h2rcd13ifvqdh0","pricing_plan_id":"cebpf4jnsgd1na2vs0mg"},{"bike_id":"f4b585ad-5789-489d-9718-bb04a5be32da","system_id":"levelo_inurba_marseille","lat":43.28856,"lon":5.358371,"is_reserved":false,"is_disabled":false,"rental_uris":{"android":"levelo://app?vid=f4b585ad-5789-489d-9718-bb04a5be32da","ios":"levelo://app?vid=f4b585ad-5789-489d-9718-bb04a5be32da"},"vehicle_type_id":"4","last_reported":1725646291,"current_range_meters":0,"station_id":"ce4bhb12rcd13ifvqem0","pricing_plan_id":"cebpf4jnsgd1na2vs0mg"},{"bike_id":"fe806469-8d43-4180-98e4-e30fcfb3f878","system_id":"levelo_inurba_marseille","lat":43.28856,"lon":5.358371,"is_reserved":false,"is_disabled":false,"rental_uris":{"android":"levelo://app?vid=fe806469-8d43-4180-98e4-e30fcfb3f878","ios":"levelo://app?vid=fe806469-8d43-4180-98e4-e30fcfb3f878"},"vehicle_type_id":"4","last_reported":1725646291,"current_range_meters":0,"station_id":"ce4bhb12rcd13ifvqem0","pricing_plan_id":"cebpf4jnsgd1na2vs0mg"},{"bike_id":"e10105c8-2baf-4bcb-a17b-2b7a0edd5a44","system_id":"levelo_inurba_marseille","lat":43.28856,"lon":5.358371,"is_reserved":false,"is_disabled":false,"rental_uris":{"android":"levelo://app?vid=e10105c8-2baf-4bcb-a17b-2b7a0edd5a44","ios":"levelo://app?vid=e10105c8-2baf-4bcb-a17b-2b7a0edd5a44"},"vehicle_type_id":"4","last_reported":1725646291,"current_range_meters":0,"station_id":"ce4bhb12rcd13ifvqem0","pricing_plan_id":"cebpf4jnsgd1na2vs0mg"},{"bike_id":"588661c8-4dc7-4a4d-b068-bf0811cd658f","system_id":"levelo_inurba_marseille","lat":43.28856,"lon":5.358371,"is_reserved":false,"is_disabled":false,"rental_uris":{"android":"levelo://app?vid=588661c8-4dc7-4a4d-b068-bf0811cd658f","ios":"levelo://app?vid=588661c8-4dc7-4a4d-b068-bf0811cd658f"},"vehicle_type_id":"4","last_reported":1725646291,"current_range_meters":0,"station_id":"ce4bhb12rcd13ifvqem0","pricing_plan_id":"cebpf4jnsgd1na2vs0mg"},{"bike_id":"17082352-a41a-4992-b9fe-77b005b002ac","system_id":"levelo_inurba_marseille","lat":43.312609,"lon":5.401662,"is_reserved":false,"is_disabled":false,"rental_uris":{"android":"levelo://app?vid=17082352-a41a-4992-b9fe-77b005b002ac","ios":"levelo://app?vid=17082352-a41a-4992-b9fe-77b005b002ac"},"vehicle_type_id":"4","last_reported":1725646291,"current_range_meters":2400,"station_id":"ce4bh092rcd13ifvqd30","pricing_plan_id":"cebpf4jnsgd1na2vs0mg"},{"bike_id":"3f3244df-bee4-4437-b2a1-ab9135c8e39a","system_id":"levelo_inurba_marseille","lat":43.33752,"lon":5.37463,"is_reserved":false,"is_disabled":false,"rental_uris":{"android":"levelo://app?vid=3f3244df-bee4-4437-b2a1-ab9135c8e39a","ios":"levelo://app?vid=3f3244df-bee4-4437-b2a1-ab9135c8e39a"},"vehicle_type_id":"4","last_reported":1725646291,"current_range_meters":25200,"station_id":"","pricing_plan_id":"cebpf4jnsgd1na2vs0mg"},{"bike_id":"af1102ff-c64f-4a24-b04e-1d75790c6f96","system_id":"levelo_inurba_marseille","lat":43.30642,"lon":5.401031,"is_reserved":false,"is_disabled":false,"rental_uris":{"android":"levelo://app?vid=af1102ff-c64f-4a24-b04e-1d75790c6f96","ios":"levelo://app?vid=af1102ff-c64f-4a24-b04e-1d75790c6f96"},"vehicle_type_id":"4","last_reported":1725646291,"current_range_meters":28000,"station_id":"ce4bh112rcd13ifvqda0","pricing_plan_id":"cebpf4jnsgd1na2vs0mg"},{"bike_id":"050fdf8e-8dfa-4529-8a97-ac8255a6c7dd","system_id":"levelo_inurba_marseille","lat":43.30642,"lon":5.401031,"is_reserved":false,"is_disabled":false,"rental_uris":{"android":"levelo://app?vid=050fdf8e-8dfa-4529-8a97-ac8255a6c7dd","ios":"levelo://app?vid=050fdf8e-8dfa-4529-8a97-ac8255a6c7dd"},"vehicle_type_id":"4","last_reported":1725646291,"current_range_meters":0,"station_id":"ce4bh112rcd13ifvqda0","pricing_plan_id":"cebpf4jnsgd1na2vs0mg"},{"bike_id":"027ef4b8-a45c-42f2-8656-36250348da25","system_id":"levelo_inurba_marseille","lat":43.33755,"lon":5.37488,"is_reserved":false,"is_disabled":false,"rental_uris":{"android":"levelo://app?vid=027ef4b8-a45c-42f2-8656-36250348da25","ios":"levelo://app?vid=027ef4b8-a45c-42f2-8656-36250348da25"},"vehicle_type_id":"4","last_reported":1725646291,"current_range_meters":24800,"station_id":"","pricing_plan_id":"cebpf4jnsgd1na2vs0mg"},{"bike_id":"fbdfb63b-783c-410f-88c9-fb28e29f4fe6","system_id":"levelo_inurba_marseille","lat":43.312609,"lon":5.401662,"is_reserved":false,"is_disabled":false,"rental_uris":{"android":"levelo://app?vid=fbdfb63b-783c-410f-88c9-fb28e29f4fe6","ios":"levelo://app?vid=fbdfb63b-783c-410f-88c9-fb28e29f4fe6"},"vehicle_type_id":"4","last_reported":1725646291,"current_range_meters":2400,"station_id":"ce4bh092rcd13ifvqd30","pricing_plan_id":"cebpf4jnsgd1na2vs0mg"},{"bike_id":"83e1febb-afb7-49bb-a33c-998468ff1d2f","system_id":"levelo_inurba_marseille","lat":43.301353,"lon":5.398667,"is_reserved":false,"is_disabled":false,"rental_uris":{"android":"levelo://app?vid=83e1febb-afb7-49bb-a33c-998468ff1d2f","ios":"levelo://app?vid=83e1febb-afb7-49bb-a33c-998468ff1d2f"},"vehicle_type_id":"4","last_reported":1725646291,"current_range_meters":0,"station_id":"ce4bh0h2rcd13ifvqd40","pricing_plan_id":"cebpf4jnsgd1na2vs0mg"},{"bike_id":"77ef42ac-01ae-426b-a44c-369cd375d8d9","system_id":"levelo_inurba_marseille","lat":43.301117,"lon":5.398795,"is_reserved":false,"is_disabled":false,"rental_uris":{"android":"levelo://app?vid=77ef42ac-01ae-426b-a44c-369cd375d8d9","ios":"levelo://app?vid=77ef42ac-01ae-426b-a44c-369cd375d8d9"},"vehicle_type_id":"4","last_reported":1725646291,"current_range_meters":22800,"station_id":"ce4bh0h2rcd13ifvqd40","pricing_plan_id":"cebpf4jnsgd1na2vs0mg"},{"bike_id":"0f80d76e-6c44-46ce-97a0-a6fe6702e515","system_id":"levelo_inurba_marseille","lat":43.286591,"lon":5.363346,"is_reserved":false,"is_disabled":false,"rental_uris":{"android":"levelo://app?vid=0f80d76e-6c44-46ce-97a0-a6fe6702e515","ios":"levelo://app?vid=0f80d76e-6c44-46ce-97a0-a6fe6702e515"},"vehicle_type_id":"4","last_reported":1725646291,"current_range_meters":24800,"station_id":"ce4bhah2rcd13ifvqej0","pricing_plan_id":"cebpf4jnsgd1na2vs0mg"},{"bike_id":"ccf2ab0a-77ec-433d-8fe6-f0e29bd43e21","system_id":"levelo_inurba_marseille","lat":43.289223,"lon":5.382563,"is_reserved":false,"is_disabled":false,"rental_uris":{"android":"levelo://app?vid=ccf2ab0a-77ec-433d-8fe6-f0e29bd43e21","ios":"levelo://app?vid=ccf2ab0a-77ec-433d-8fe6-f0e29bd43e21"},"vehicle_type_id":"4","last_reported":1725646291,"current_range_meters":1200,"station_id":"","pricing_plan_id":"cebpf4jnsgd1na2vs0mg"},{"bike_id":"af41446e-dd4b-4c2b-a737-f2fdfcba7147","system_id":"levelo_inurba_marseille","lat":43.286961,"lon":5.373785,"is_reserved":false,"is_disabled":false,"rental_uris":{"android":"levelo://app?vid=af41446e-dd4b-4c2b-a737-f2fdfcba7147","ios":"levelo://app?vid=af41446e-dd4b-4c2b-a737-f2fdfcba7147"},"vehicle_type_id":"4","last_reported":1725646291,"current_range_meters":0,"station_id":"ce4bh3p2rcd13ifvqdq0","pricing_plan_id":"cebpf4jnsgd1na2vs0mg"},{"bike_id":"a428c545-7321-4c77-9f6b-85f1a6c404ac","system_id":"levelo_inurba_marseille","lat":43.298747,"lon":5.39733,"is_reserved":false,"is_disabled":false,"rental_uris":{"android":"levelo://app?vid=a428c545-7321-4c77-9f6b-85f1a6c404ac","ios":"levelo://app?vid=a428c545-7321-4c77-9f6b-85f1a6c404ac"},"vehicle_type_id":"4","last_reported":1725646291,"current_range_meters":0,"station_id":"ce4bh0h2rcd13ifvqd50","pricing_plan_id":"cebpf4jnsgd1na2vs0mg"},{"bike_id":"a5d9653d-d4af-4bc1-9d38-879df1e9ba6e","system_id":"levelo_inurba_marseille","lat":43.286591,"lon":5.363346,"is_reserved":false,"is_disabled":false,"rental_uris":{"android":"levelo://app?vid=a5d9653d-d4af-4bc1-9d38-879df1e9ba6e","ios":"levelo://app?vid=a5d9653d-d4af-4bc1-9d38-879df1e9ba6e"},"vehicle_type_id":"4","last_reported":1725646291,"current_range_meters":20400,"station_id":"ce4bhah2rcd13ifvqej0","pricing_plan_id":"cebpf4jnsgd1na2vs0mg"},{"bike_id":"d6750b13-0e93-451e-acee-97aec96cc6f6","system_id":"levelo_inurba_marseille","lat":43.28667,"lon":5.363477,"is_reserved":false,"is_disabled":false,"rental_uris":{"android":"levelo://app?vid=d6750b13-0e93-451e-acee-97aec96cc6f6","ios":"levelo://app?vid=d6750b13-0e93-451e-acee-97aec96cc6f6"},"vehicle_type_id":"4","last_reported":1725646291,"current_range_meters":0,"station_id":"ce4bhah2rcd13ifvqej0","pricing_plan_id":"cebpf4jnsgd1na2vs0mg"},{"bike_id":"9da9c190-cc52-4707-90d6-e66d7d7f961b","system_id":"levelo_inurba_marseille","lat":43.298681,"lon":5.397225,"is_reserved":false,"is_disabled":false,"rental_uris":{"android":"levelo://app?vid=9da9c190-cc52-4707-90d6-e66d7d7f961b","ios":"levelo://app?vid=9da9c190-cc52-4707-90d6-e66d7d7f961b"},"vehicle_type_id":"4","last_reported":1725646291,"current_range_meters":0,"station_id":"ce4bh0h2rcd13ifvqd50","pricing_plan_id":"cebpf4jnsgd1na2vs0mg"},{"bike_id":"d7c28f11-7cb8-495f-a4e7-31c40237dd0f","system_id":"levelo_inurba_marseille","lat":43.286961,"lon":5.373785,"is_reserved":false,"is_disabled":false,"rental_uris":{"android":"levelo://app?vid=d7c28f11-7cb8-495f-a4e7-31c40237dd0f","ios":"levelo://app?vid=d7c28f11-7cb8-495f-a4e7-31c40237dd0f"},"vehicle_type_id":"4","last_reported":1725646291,"current_range_meters":13600,"station_id":"ce4bh3p2rcd13ifvqdq0","pricing_plan_id":"cebpf4jnsgd1na2vs0mg"},{"bike_id":"4d9de833-ee34-4cf6-8415-2d7d3a641542","system_id":"levelo_inurba_marseille","lat":43.286591,"lon":5.363346,"is_reserved":false,"is_disabled":false,"rental_uris":{"android":"levelo://app?vid=4d9de833-ee34-4cf6-8415-2d7d3a641542","ios":"levelo://app?vid=4d9de833-ee34-4cf6-8415-2d7d3a641542"},"vehicle_type_id":"4","last_reported":1725646291,"current_range_meters":15600,"station_id":"ce4bhah2rcd13ifvqej0","pricing_plan_id":"cebpf4jnsgd1na2vs0mg"},{"bike_id":"2230ab28-72e0-4852-8273-346fccd992ac","system_id":"levelo_inurba_marseille","lat":43.295196,"lon":5.39397,"is_reserved":false,"is_disabled":false,"rental_uris":{"android":"levelo://app?vid=2230ab28-72e0-4852-8273-346fccd992ac","ios":"levelo://app?vid=2230ab28-72e0-4852-8273-346fccd992ac"},"vehicle_type_id":"4","last_reported":1725646291,"current_range_meters":0,"station_id":"ce4bh292rcd13ifvqdf0","pricing_plan_id":"cebpf4jnsgd1na2vs0mg"},{"bike_id":"f299f356-0efb-4d39-b53d-93c38da9e9c4","system_id":"levelo_inurba_marseille","lat":43.290373,"lon":5.3864,"is_reserved":false,"is_disabled":false,"rental_uris":{"android":"levelo://app?vid=f299f356-0efb-4d39-b53d-93c38da9e9c4","ios":"levelo://app?vid=f299f356-0efb-4d39-b53d-93c38da9e9c4"},"vehicle_type_id":"4","last_reported":1725646291,"current_range_meters":31200,"station_id":"ce4bh4p2rcd13ifvqe0g","pricing_plan_id":"cebpf4jnsgd1na2vs0mg"},{"bike_id":"a1c06e06-58ce-47e9-964b-7761e973f8e2","system_id":"levelo_inurba_marseille","lat":43.290354,"lon":5.386431,"is_reserved":false,"is_disabled":false,"rental_uris":{"android":"levelo://app?vid=a1c06e06-58ce-47e9-964b-7761e973f8e2","ios":"levelo://app?vid=a1c06e06-58ce-47e9-964b-7761e973f8e2"},"vehicle_type_id":"4","last_reported":1725646291,"current_range_meters":31200,"station_id":"ce4bh4p2rcd13ifvqe0g","pricing_plan_id":"cebpf4jnsgd1na2vs0mg"},{"bike_id":"89494ac6-4196-4ae4-8195-be5d1d244e61","system_id":"levelo_inurba_marseille","lat":43.29033,"lon":5.38644,"is_reserved":false,"is_disabled":false,"rental_uris":{"android":"levelo://app?vid=89494ac6-4196-4ae4-8195-be5d1d244e61","ios":"levelo://app?vid=89494ac6-4196-4ae4-8195-be5d1d244e61"},"vehicle_type_id":"4","last_reported":1725646291,"current_range_meters":31200,"station_id":"ce4bh4p2rcd13ifvqe0g","pricing_plan_id":"cebpf4jnsgd1na2vs0mg"},{"bike_id":"6f821e1e-f304-449f-9c15-b3fe86a77178","system_id":"levelo_inurba_marseille","lat":43.290345,"lon":5.38646,"is_reserved":false,"is_disabled":false,"rental_uris":{"android":"levelo://app?vid=6f821e1e-f304-449f-9c15-b3fe86a77178","ios":"levelo://app?vid=6f821e1e-f304-449f-9c15-b3fe86a77178"},"vehicle_type_id":"4","last_reported":1725646291,"current_range_meters":0,"station_id":"ce4bh4p2rcd13ifvqe0g","pricing_plan_id":"cebpf4jnsgd1na2vs0mg"},{"bike_id":"e44777e8-bfbc-45c9-a2ab-4106cee95846","system_id":"levelo_inurba_marseille","lat":43.28923,"lon":5.38384,"is_reserved":false,"is_disabled":false,"rental_uris":{"android":"levelo://app?vid=e44777e8-bfbc-45c9-a2ab-4106cee95846","ios":"levelo://app?vid=e44777e8-bfbc-45c9-a2ab-4106cee95846"},"vehicle_type_id":"4","last_reported":1725646291,"current_range_meters":3200,"station_id":"ce4bh612rcd13ifvqe6g","pricing_plan_id":"cebpf4jnsgd1na2vs0mg"},{"bike_id":"2fdbed3f-5938-421f-9096-b229ad2e93e0","system_id":"levelo_inurba_marseille","lat":43.289303,"lon":5.38403,"is_reserved":false,"is_disabled":false,"rental_uris":{"android":"levelo://app?vid=2fdbed3f-5938-421f-9096-b229ad2e93e0","ios":"levelo://app?vid=2fdbed3f-5938-421f-9096-b229ad2e93e0"},"vehicle_type_id":"4","last_reported":1725646291,"current_range_meters":0,"station_id":"ce4bh612rcd13ifvqe6g","pricing_plan_id":"cebpf4jnsgd1na2vs0mg"},{"bike_id":"24073367-5140-47cd-88a5-093287b36cae","system_id":"levelo_inurba_marseille","lat":43.290336,"lon":5.386425,"is_reserved":false,"is_disabled":false,"rental_uris":{"android":"levelo://app?vid=24073367-5140-47cd-88a5-093287b36cae","ios":"levelo://app?vid=24073367-5140-47cd-88a5-093287b36cae"},"vehicle_type_id":"4","last_reported":1725646291,"current_range_meters":0,"station_id":"ce4bh4p2rcd13ifvqe0g","pricing_plan_id":"cebpf4jnsgd1na2vs0mg"},{"bike_id":"6c2c2e65-ec14-4d9a-ba01-84422ad409e4","system_id":"levelo_inurba_marseille","lat":43.29031,"lon":5.3865,"is_reserved":false,"is_disabled":false,"rental_uris":{"android":"levelo://app?vid=6c2c2e65-ec14-4d9a-ba01-84422ad409e4","ios":"levelo://app?vid=6c2c2e65-ec14-4d9a-ba01-84422ad409e4"},"vehicle_type_id":"4","last_reported":1725646291,"current_range_meters":21600,"station_id":"ce4bh4p2rcd13ifvqe0g","pricing_plan_id":"cebpf4jnsgd1na2vs0mg"},{"bike_id":"243e0664-58f9-41c5-a5a7-b7d405d66e2c","system_id":"levelo_inurba_marseille","lat":43.290291,"lon":5.386466,"is_reserved":false,"is_disabled":false,"rental_uris":{"android":"levelo://app?vid=243e0664-58f9-41c5-a5a7-b7d405d66e2c","ios":"levelo://app?vid=243e0664-58f9-41c5-a5a7-b7d405d66e2c"},"vehicle_type_id":"4","last_reported":1725646291,"current_range_meters":31200,"station_id":"ce4bh4p2rcd13ifvqe0g","pricing_plan_id":"cebpf4jnsgd1na2vs0mg"},{"bike_id":"1c63b981-6d1c-4119-8cc2-f799b866e609","system_id":"levelo_inurba_marseille","lat":43.286039,"lon":5.370679,"is_reserved":false,"is_disabled":false,"rental_uris":{"android":"levelo://app?vid=1c63b981-6d1c-4119-8cc2-f799b866e609","ios":"levelo://app?vid=1c63b981-6d1c-4119-8cc2-f799b866e609"},"vehicle_type_id":"4","last_reported":1725646291,"current_range_meters":4800,"station_id":"ce4bht12rcd13ifvqi60","pricing_plan_id":"cebpf4jnsgd1na2vs0mg"},{"bike_id":"2724a1aa-f569-46dd-a9be-8862a62f26d8","system_id":"levelo_inurba_marseille","lat":43.286039,"lon":5.370679,"is_reserved":false,"is_disabled":false,"rental_uris":{"android":"levelo://app?vid=2724a1aa-f569-46dd-a9be-8862a62f26d8","ios":"levelo://app?vid=2724a1aa-f569-46dd-a9be-8862a62f26d8"},"vehicle_type_id":"4","last_reported":1725646291,"current_range_meters":0,"station_id":"ce4bht12rcd13ifvqi60","pricing_plan_id":"cebpf4jnsgd1na2vs0mg"},{"bike_id":"0fc14e58-b773-4859-8155-3a75790ae4d4","system_id":"levelo_inurba_marseille","lat":43.286039,"lon":5.370679,"is_reserved":false,"is_disabled":false,"rental_uris":{"android":"levelo://app?vid=0fc14e58-b773-4859-8155-3a75790ae4d4","ios":"levelo://app?vid=0fc14e58-b773-4859-8155-3a75790ae4d4"},"vehicle_type_id":"4","last_reported":1725646291,"current_range_meters":0,"station_id":"ce4bht12rcd13ifvqi60","pricing_plan_id":"cebpf4jnsgd1na2vs0mg"},{"bike_id":"89e8eee8-0102-4c39-8754-29db0d56631c","system_id":"levelo_inurba_marseille","lat":43.28609,"lon":5.37063,"is_reserved":false,"is_disabled":false,"rental_uris":{"android":"levelo://app?vid=89e8eee8-0102-4c39-8754-29db0d56631c","ios":"levelo://app?vid=89e8eee8-0102-4c39-8754-29db0d56631c"},"vehicle_type_id":"4","last_reported":1725646291,"current_range_meters":4800,"station_id":"ce4bht12rcd13ifvqi60","pricing_plan_id":"cebpf4jnsgd1na2vs0mg"},{"bike_id":"9a473161-b0f3-4a48-aa33-28f00bf4d3a5","system_id":"levelo_inurba_marseille","lat":43.295713,"lon":5.399639,"is_reserved":false,"is_disabled":false,"rental_uris":{"android":"levelo://app?vid=9a473161-b0f3-4a48-aa33-28f00bf4d3a5","ios":"levelo://app?vid=9a473161-b0f3-4a48-aa33-28f00bf4d3a5"},"vehicle_type_id":"4","last_reported":1725646291,"current_range_meters":20800,"station_id":"ce4bh312rcd13ifvqdj0","pricing_plan_id":"cebpf4jnsgd1na2vs0mg"},{"bike_id":"fafbc21a-440f-43cd-810b-176200bc7228","system_id":"levelo_inurba_marseille","lat":43.316828,"lon":5.404723,"is_reserved":false,"is_disabled":false,"rental_uris":{"android":"levelo://app?vid=fafbc21a-440f-43cd-810b-176200bc7228","ios":"levelo://app?vid=fafbc21a-440f-43cd-810b-176200bc7228"},"vehicle_type_id":"4","last_reported":1725646291,"current_range_meters":0,"station_id":"ce4bh012rcd13ifvqd00","pricing_plan_id":"cebpf4jnsgd1na2vs0mg"},{"bike_id":"61ce9000-5ec8-47d8-9dc1-17c7a5a5238f","system_id":"levelo_inurba_marseille","lat":43.28801,"lon":5.38452,"is_reserved":false,"is_disabled":false,"rental_uris":{"android":"levelo://app?vid=61ce9000-5ec8-47d8-9dc1-17c7a5a5238f","ios":"levelo://app?vid=61ce9000-5ec8-47d8-9dc1-17c7a5a5238f"},"vehicle_type_id":"4","last_reported":1725646291,"current_range_meters":0,"station_id":"ce4bhq92rcd13ifvqhkg","pricing_plan_id":"cebpf4jnsgd1na2vs0mg"},{"bike_id":"049d92c5-b604-4e21-9dc0-fe9ca7b6ffb8","system_id":"levelo_inurba_marseille","lat":43.29201,"lon":5.39315,"is_reserved":false,"is_disabled":false,"rental_uris":{"android":"levelo://app?vid=049d92c5-b604-4e21-9dc0-fe9ca7b6ffb8","ios":"levelo://app?vid=049d92c5-b604-4e21-9dc0-fe9ca7b6ffb8"},"vehicle_type_id":"4","last_reported":1725646291,"current_range_meters":0,"station_id":"ce4bh192rcd13ifvqdd0","pricing_plan_id":"cebpf4jnsgd1na2vs0mg"},{"bike_id":"4f8fb58b-f210-41d3-9156-04f6d485bd67","system_id":"levelo_inurba_marseille","lat":43.28464,"lon":5.35892,"is_reserved":false,"is_disabled":false,"rental_uris":{"android":"levelo://app?vid=4f8fb58b-f210-41d3-9156-04f6d485bd67","ios":"levelo://app?vid=4f8fb58b-f210-41d3-9156-04f6d485bd67"},"vehicle_type_id":"4","last_reported":1725646291,"current_range_meters":0,"station_id":"ce4bhah2rcd13ifvqei0","pricing_plan_id":"cebpf4jnsgd1na2vs0mg"},{"bike_id":"38bbd7ee-5ad1-4203-86c1-cd00f36aecf2","system_id":"levelo_inurba_marseille","lat":43.28463,"lon":5.35892,"is_reserved":false,"is_disabled":false,"rental_uris":{"android":"levelo://app?vid=38bbd7ee-5ad1-4203-86c1-cd00f36aecf2","ios":"levelo://app?vid=38bbd7ee-5ad1-4203-86c1-cd00f36aecf2"},"vehicle_type_id":"4","last_reported":1725646291,"current_range_meters":0,"station_id":"ce4bhah2rcd13ifvqei0","pricing_plan_id":"cebpf4jnsgd1na2vs0mg"},{"bike_id":"8b00c1d0-9efa-42bf-86f0-49875af283a1","system_id":"levelo_inurba_marseille","lat":43.284534,"lon":5.358662,"is_reserved":false,"is_disabled":false,"rental_uris":{"android":"levelo://app?vid=8b00c1d0-9efa-42bf-86f0-49875af283a1","ios":"levelo://app?vid=8b00c1d0-9efa-42bf-86f0-49875af283a1"},"vehicle_type_id":"4","last_reported":1725646291,"current_range_meters":0,"station_id":"ce4bhah2rcd13ifvqei0","pricing_plan_id":"cebpf4jnsgd1na2vs0mg"},{"bike_id":"098b734d-6ead-4e6c-af54-ebbcec4d358c","system_id":"levelo_inurba_marseille","lat":43.303256,"lon":5.404389,"is_reserved":false,"is_disabled":false,"rental_uris":{"android":"levelo://app?vid=098b734d-6ead-4e6c-af54-ebbcec4d358c","ios":"levelo://app?vid=098b734d-6ead-4e6c-af54-ebbcec4d358c"},"vehicle_type_id":"4","last_reported":1725646291,"current_range_meters":31200,"station_id":"ce4bh012rcd13ifvqd10","pricing_plan_id":"cebpf4jnsgd1na2vs0mg"},{"bike_id":"df79789f-3909-4000-8600-0ea120013ff7","system_id":"levelo_inurba_marseille","lat":43.284155,"lon":5.3716,"is_reserved":false,"is_disabled":false,"rental_uris":{"android":"levelo://app?vid=df79789f-3909-4000-8600-0ea120013ff7","ios":"levelo://app?vid=df79789f-3909-4000-8600-0ea120013ff7"},"vehicle_type_id":"4","last_reported":1725646291,"current_range_meters":1200,"station_id":"","pricing_plan_id":"cebpf4jnsgd1na2vs0mg"},{"bike_id":"5afb6ed7-a03e-4b7d-88df-35540e7d5d8e","system_id":"levelo_inurba_marseille","lat":43.294314,"lon":5.397498,"is_reserved":false,"is_disabled":false,"rental_uris":{"android":"levelo://app?vid=5afb6ed7-a03e-4b7d-88df-35540e7d5d8e","ios":"levelo://app?vid=5afb6ed7-a03e-4b7d-88df-35540e7d5d8e"},"vehicle_type_id":"4","last_reported":1725646291,"current_range_meters":1600,"station_id":"ce4bh3h2rcd13ifvqdo0","pricing_plan_id":"cebpf4jnsgd1na2vs0mg"},{"bike_id":"95da5aa2-5837-4598-afaf-9777b06bcb63","system_id":"levelo_inurba_marseille","lat":43.294314,"lon":5.397498,"is_reserved":false,"is_disabled":false,"rental_uris":{"android":"levelo://app?vid=95da5aa2-5837-4598-afaf-9777b06bcb63","ios":"levelo://app?vid=95da5aa2-5837-4598-afaf-9777b06bcb63"},"vehicle_type_id":"4","last_reported":1725646291,"current_range_meters":4800,"station_id":"ce4bh3h2rcd13ifvqdo0","pricing_plan_id":"cebpf4jnsgd1na2vs0mg"},{"bike_id":"d58ac93c-068b-4c3b-a537-5eb6ff7e73ac","system_id":"levelo_inurba_marseille","lat":43.28618,"lon":5.35108,"is_reserved":false,"is_disabled":false,"rental_uris":{"android":"levelo://app?vid=d58ac93c-068b-4c3b-a537-5eb6ff7e73ac","ios":"levelo://app?vid=d58ac93c-068b-4c3b-a537-5eb6ff7e73ac"},"vehicle_type_id":"4","last_reported":1725646291,"current_range_meters":0,"station_id":"ce4bhch2rcd13ifvqeug","pricing_plan_id":"cebpf4jnsgd1na2vs0mg"},{"bike_id":"9556ccef-370c-4164-8f57-2dda8f49757e","system_id":"levelo_inurba_marseille","lat":43.28614,"lon":5.35107,"is_reserved":false,"is_disabled":false,"rental_uris":{"android":"levelo://app?vid=9556ccef-370c-4164-8f57-2dda8f49757e","ios":"levelo://app?vid=9556ccef-370c-4164-8f57-2dda8f49757e"},"vehicle_type_id":"4","last_reported":1725646291,"current_range_meters":0,"station_id":"ce4bhch2rcd13ifvqeug","pricing_plan_id":"cebpf4jnsgd1na2vs0mg"},{"bike_id":"71a4e5f7-1f69-42c6-825a-773bd54f01e0","system_id":"levelo_inurba_marseille","lat":43.285856,"lon":5.350771,"is_reserved":false,"is_disabled":false,"rental_uris":{"android":"levelo://app?vid=71a4e5f7-1f69-42c6-825a-773bd54f01e0","ios":"levelo://app?vid=71a4e5f7-1f69-42c6-825a-773bd54f01e0"},"vehicle_type_id":"4","last_reported":1725646291,"current_range_meters":0,"station_id":"ce4bhch2rcd13ifvqeug","pricing_plan_id":"cebpf4jnsgd1na2vs0mg"},{"bike_id":"62ae443d-679d-4cab-86b4-41cd336ce59e","system_id":"levelo_inurba_marseille","lat":43.29568,"lon":5.3996,"is_reserved":false,"is_disabled":false,"rental_uris":{"android":"levelo://app?vid=62ae443d-679d-4cab-86b4-41cd336ce59e","ios":"levelo://app?vid=62ae443d-679d-4cab-86b4-41cd336ce59e"},"vehicle_type_id":"4","last_reported":1725646291,"current_range_meters":0,"station_id":"ce4bh312rcd13ifvqdj0","pricing_plan_id":"cebpf4jnsgd1na2vs0mg"},{"bike_id":"50d78cd3-d978-42ba-922e-f3bd4ea26089","system_id":"levelo_inurba_marseille","lat":43.283998,"lon":5.375062,"is_reserved":false,"is_disabled":false,"rental_uris":{"android":"levelo://app?vid=50d78cd3-d978-42ba-922e-f3bd4ea26089","ios":"levelo://app?vid=50d78cd3-d978-42ba-922e-f3bd4ea26089"},"vehicle_type_id":"4","last_reported":1725646291,"current_range_meters":3600,"station_id":"ce4bh412rcd13ifvqds0","pricing_plan_id":"cebpf4jnsgd1na2vs0mg"},{"bike_id":"a19196e3-d688-46aa-8806-d9fb0f547b13","system_id":"levelo_inurba_marseille","lat":43.286595,"lon":5.386795,"is_reserved":false,"is_disabled":false,"rental_uris":{"android":"levelo://app?vid=a19196e3-d688-46aa-8806-d9fb0f547b13","ios":"levelo://app?vid=a19196e3-d688-46aa-8806-d9fb0f547b13"},"vehicle_type_id":"4","last_reported":1725646291,"current_range_meters":2800,"station_id":"ce4bh492rcd13ifvqdug","pricing_plan_id":"cebpf4jnsgd1na2vs0mg"},{"bike_id":"e3243427-1446-41f9-8b6b-84726651b912","system_id":"levelo_inurba_marseille","lat":43.28665,"lon":5.38669,"is_reserved":false,"is_disabled":false,"rental_uris":{"android":"levelo://app?vid=e3243427-1446-41f9-8b6b-84726651b912","ios":"levelo://app?vid=e3243427-1446-41f9-8b6b-84726651b912"},"vehicle_type_id":"4","last_reported":1725646291,"current_range_meters":0,"station_id":"ce4bh492rcd13ifvqdug","pricing_plan_id":"cebpf4jnsgd1na2vs0mg"},{"bike_id":"0ae2fec8-7f04-43b7-bfa1-2eeeb091365d","system_id":"levelo_inurba_marseille","lat":43.283494,"lon":5.380945,"is_reserved":false,"is_disabled":false,"rental_uris":{"android":"levelo://app?vid=0ae2fec8-7f04-43b7-bfa1-2eeeb091365d","ios":"levelo://app?vid=0ae2fec8-7f04-43b7-bfa1-2eeeb091365d"},"vehicle_type_id":"4","last_reported":1725646291,"current_range_meters":4000,"station_id":"ce4bh412rcd13ifvqdr0","pricing_plan_id":"cebpf4jnsgd1na2vs0mg"},{"bike_id":"09b13e4e-f256-44fc-9192-8a08334e54ad","system_id":"levelo_inurba_marseille","lat":43.28821,"lon":5.39133,"is_reserved":false,"is_disabled":false,"rental_uris":{"android":"levelo://app?vid=09b13e4e-f256-44fc-9192-8a08334e54ad","ios":"levelo://app?vid=09b13e4e-f256-44fc-9192-8a08334e54ad"},"vehicle_type_id":"4","last_reported":1725646291,"current_range_meters":2400,"station_id":"","pricing_plan_id":"cebpf4jnsgd1na2vs0mg"},{"bike_id":"1a6996d0-f0c0-41c1-ad7b-44c27c37ec9c","system_id":"levelo_inurba_marseille","lat":43.337168,"lon":5.391825,"is_reserved":false,"is_disabled":false,"rental_uris":{"android":"levelo://app?vid=1a6996d0-f0c0-41c1-ad7b-44c27c37ec9c","ios":"levelo://app?vid=1a6996d0-f0c0-41c1-ad7b-44c27c37ec9c"},"vehicle_type_id":"4","last_reported":1725646291,"current_range_meters":16000,"station_id":"ce4bhr92rcd13ifvqhsg","pricing_plan_id":"cebpf4jnsgd1na2vs0mg"},{"bike_id":"bffc8792-255b-41bf-9f3e-3bfb2ab438ed","system_id":"levelo_inurba_marseille","lat":43.284807,"lon":5.38405,"is_reserved":false,"is_disabled":false,"rental_uris":{"android":"levelo://app?vid=bffc8792-255b-41bf-9f3e-3bfb2ab438ed","ios":"levelo://app?vid=bffc8792-255b-41bf-9f3e-3bfb2ab438ed"},"vehicle_type_id":"4","last_reported":1725646291,"current_range_meters":0,"station_id":"ce4bh512rcd13ifvqe3g","pricing_plan_id":"cebpf4jnsgd1na2vs0mg"},{"bike_id":"2246238a-181e-4b00-a455-eebcb2fc8905","system_id":"levelo_inurba_marseille","lat":43.284787,"lon":5.384116,"is_reserved":false,"is_disabled":false,"rental_uris":{"android":"levelo://app?vid=2246238a-181e-4b00-a455-eebcb2fc8905","ios":"levelo://app?vid=2246238a-181e-4b00-a455-eebcb2fc8905"},"vehicle_type_id":"4","last_reported":1725646291,"current_range_meters":11200,"station_id":"ce4bh512rcd13ifvqe3g","pricing_plan_id":"cebpf4jnsgd1na2vs0mg"},{"bike_id":"4d8a5e29-1d04-4aae-bf3a-403a8d8b9b5d","system_id":"levelo_inurba_marseille","lat":43.288497,"lon":5.393089,"is_reserved":false,"is_disabled":false,"rental_uris":{"android":"levelo://app?vid=4d8a5e29-1d04-4aae-bf3a-403a8d8b9b5d","ios":"levelo://app?vid=4d8a5e29-1d04-4aae-bf3a-403a8d8b9b5d"},"vehicle_type_id":"4","last_reported":1725646291,"current_range_meters":16800,"station_id":"ce4bh2p2rcd13ifvqdi0","pricing_plan_id":"cebpf4jnsgd1na2vs0mg"},{"bike_id":"5797d0be-8288-4695-b1cc-dee0aab09234","system_id":"levelo_inurba_marseille","lat":43.284214,"lon":5.349706,"is_reserved":false,"is_disabled":false,"rental_uris":{"android":"levelo://app?vid=5797d0be-8288-4695-b1cc-dee0aab09234","ios":"levelo://app?vid=5797d0be-8288-4695-b1cc-dee0aab09234"},"vehicle_type_id":"4","last_reported":1725646291,"current_range_meters":0,"station_id":"ce4bhbh2rcd13ifvqepg","pricing_plan_id":"cebpf4jnsgd1na2vs0mg"},{"bike_id":"e12693c4-0edc-4d91-8207-bd02e42f6290","system_id":"levelo_inurba_marseille","lat":43.28414,"lon":5.3498,"is_reserved":false,"is_disabled":false,"rental_uris":{"android":"levelo://app?vid=e12693c4-0edc-4d91-8207-bd02e42f6290","ios":"levelo://app?vid=e12693c4-0edc-4d91-8207-bd02e42f6290"},"vehicle_type_id":"4","last_reported":1725646291,"current_range_meters":0,"station_id":"ce4bhbh2rcd13ifvqepg","pricing_plan_id":"cebpf4jnsgd1na2vs0mg"},{"bike_id":"5b8ad6c1-9689-4d94-88a2-4f2d096fc149","system_id":"levelo_inurba_marseille","lat":43.280382,"lon":5.369291,"is_reserved":false,"is_disabled":false,"rental_uris":{"android":"levelo://app?vid=5b8ad6c1-9689-4d94-88a2-4f2d096fc149","ios":"levelo://app?vid=5b8ad6c1-9689-4d94-88a2-4f2d096fc149"},"vehicle_type_id":"4","last_reported":1725646291,"current_range_meters":11600,"station_id":"ce4bha12rcd13ifvqef0","pricing_plan_id":"cebpf4jnsgd1na2vs0mg"},{"bike_id":"eafe10de-f7f7-4320-96f0-1955c0eab859","system_id":"levelo_inurba_marseille","lat":43.282658,"lon":5.35071,"is_reserved":false,"is_disabled":false,"rental_uris":{"android":"levelo://app?vid=eafe10de-f7f7-4320-96f0-1955c0eab859","ios":"levelo://app?vid=eafe10de-f7f7-4320-96f0-1955c0eab859"},"vehicle_type_id":"4","last_reported":1725646291,"current_range_meters":0,"station_id":"ce4bhbp2rcd13ifvqerg","pricing_plan_id":"cebpf4jnsgd1na2vs0mg"},{"bike_id":"bb9c54b2-eef1-41bb-ac93-5917f1a67446","system_id":"levelo_inurba_marseille","lat":43.28042,"lon":5.36941,"is_reserved":false,"is_disabled":false,"rental_uris":{"android":"levelo://app?vid=bb9c54b2-eef1-41bb-ac93-5917f1a67446","ios":"levelo://app?vid=bb9c54b2-eef1-41bb-ac93-5917f1a67446"},"vehicle_type_id":"4","last_reported":1725646291,"current_range_meters":21600,"station_id":"ce4bha12rcd13ifvqef0","pricing_plan_id":"cebpf4jnsgd1na2vs0mg"},{"bike_id":"df865174-1be1-43be-881f-3bfdc6c4b449","system_id":"levelo_inurba_marseille","lat":43.28039,"lon":5.369297,"is_reserved":false,"is_disabled":false,"rental_uris":{"android":"levelo://app?vid=df865174-1be1-43be-881f-3bfdc6c4b449","ios":"levelo://app?vid=df865174-1be1-43be-881f-3bfdc6c4b449"},"vehicle_type_id":"4","last_reported":1725646291,"current_range_meters":4800,"station_id":"ce4bha12rcd13ifvqef0","pricing_plan_id":"cebpf4jnsgd1na2vs0mg"},{"bike_id":"d73d454f-cccd-4e84-9a39-462420a58ec1","system_id":"levelo_inurba_marseille","lat":43.28035,"lon":5.36934,"is_reserved":false,"is_disabled":false,"rental_uris":{"android":"levelo://app?vid=d73d454f-cccd-4e84-9a39-462420a58ec1","ios":"levelo://app?vid=d73d454f-cccd-4e84-9a39-462420a58ec1"},"vehicle_type_id":"4","last_reported":1725646291,"current_range_meters":26800,"station_id":"ce4bha12rcd13ifvqef0","pricing_plan_id":"cebpf4jnsgd1na2vs0mg"},{"bike_id":"279917fa-2ddf-401b-8c7a-55512ac428d9","system_id":"levelo_inurba_marseille","lat":43.280382,"lon":5.369291,"is_reserved":false,"is_disabled":false,"rental_uris":{"android":"levelo://app?vid=279917fa-2ddf-401b-8c7a-55512ac428d9","ios":"levelo://app?vid=279917fa-2ddf-401b-8c7a-55512ac428d9"},"vehicle_type_id":"4","last_reported":1725646291,"current_range_meters":6800,"station_id":"ce4bha12rcd13ifvqef0","pricing_plan_id":"cebpf4jnsgd1na2vs0mg"},{"bike_id":"eea53211-d14b-4fef-9a69-93805bb01b95","system_id":"levelo_inurba_marseille","lat":43.290523,"lon":5.399637,"is_reserved":false,"is_disabled":false,"rental_uris":{"android":"levelo://app?vid=eea53211-d14b-4fef-9a69-93805bb01b95","ios":"levelo://app?vid=eea53211-d14b-4fef-9a69-93805bb01b95"},"vehicle_type_id":"4","last_reported":1725646291,"current_range_meters":0,"station_id":"ce4bh392rcd13ifvqdm0","pricing_plan_id":"cebpf4jnsgd1na2vs0mg"},{"bike_id":"c4363675-0727-4984-990c-7dd53a9a19e0","system_id":"levelo_inurba_marseille","lat":43.290453,"lon":5.39963,"is_reserved":false,"is_disabled":false,"rental_uris":{"android":"levelo://app?vid=c4363675-0727-4984-990c-7dd53a9a19e0","ios":"levelo://app?vid=c4363675-0727-4984-990c-7dd53a9a19e0"},"vehicle_type_id":"4","last_reported":1725646291,"current_range_meters":0,"station_id":"ce4bh392rcd13ifvqdm0","pricing_plan_id":"cebpf4jnsgd1na2vs0mg"},{"bike_id":"c382284b-ae67-4303-81f0-e996bb5a0b6a","system_id":"levelo_inurba_marseille","lat":43.29043,"lon":5.39977,"is_reserved":false,"is_disabled":false,"rental_uris":{"android":"levelo://app?vid=c382284b-ae67-4303-81f0-e996bb5a0b6a","ios":"levelo://app?vid=c382284b-ae67-4303-81f0-e996bb5a0b6a"},"vehicle_type_id":"4","last_reported":1725646291,"current_range_meters":0,"station_id":"ce4bh392rcd13ifvqdm0","pricing_plan_id":"cebpf4jnsgd1na2vs0mg"},{"bike_id":"9052c31c-afb4-4e2b-a592-408b1c69c0ea","system_id":"levelo_inurba_marseille","lat":43.29041,"lon":5.399634,"is_reserved":false,"is_disabled":false,"rental_uris":{"android":"levelo://app?vid=9052c31c-afb4-4e2b-a592-408b1c69c0ea","ios":"levelo://app?vid=9052c31c-afb4-4e2b-a592-408b1c69c0ea"},"vehicle_type_id":"4","last_reported":1725646291,"current_range_meters":400,"station_id":"ce4bh392rcd13ifvqdm0","pricing_plan_id":"cebpf4jnsgd1na2vs0mg"},{"bike_id":"e45dea38-fc84-4d11-965d-8dd623657028","system_id":"levelo_inurba_marseille","lat":43.281588,"lon":5.381903,"is_reserved":false,"is_disabled":false,"rental_uris":{"android":"levelo://app?vid=e45dea38-fc84-4d11-965d-8dd623657028","ios":"levelo://app?vid=e45dea38-fc84-4d11-965d-8dd623657028"},"vehicle_type_id":"4","last_reported":1725646291,"current_range_meters":0,"station_id":"","pricing_plan_id":"cebpf4jnsgd1na2vs0mg"},{"bike_id":"adaf1ed2-a4b7-48c1-aaf1-9ebe572e7b86","system_id":"levelo_inurba_marseille","lat":43.341214,"lon":5.390288,"is_reserved":false,"is_disabled":false,"rental_uris":{"android":"levelo://app?vid=adaf1ed2-a4b7-48c1-aaf1-9ebe572e7b86","ios":"levelo://app?vid=adaf1ed2-a4b7-48c1-aaf1-9ebe572e7b86"},"vehicle_type_id":"4","last_reported":1725646291,"current_range_meters":23200,"station_id":"","pricing_plan_id":"cebpf4jnsgd1na2vs0mg"},