{"last_updated":1747142743,"ttl":60,"version":"2.2","data":{"bikes":[{"bike_id":"af3a3e53-4d5a-45b9-9355-bc523c2ddd74","system_id":"levelo_inurba_marseille","lat":43.29224,"lon":5.37484,"is_reserved":false,"is_disabled":false,"rental_uris":{"android":"levelo://app?vid=af3a3e53-4d5a-45b9-9355-bc523c2ddd74","ios":"levelo://app?vid=af3a3e53-4d5a-45b9-9355-bc523c2ddd74"},"vehicle_type_id":"4","last_reported":1747142743,"current_range_meters":2800,"station_id":"","pricing_plan_id":"cebpf4jnsgd1na2vs0mg"},{"bike_id":"d663cce3-a75f-4009-9572-cc6217fa5dc3","system_id":"levelo_inurba_marseille","lat":43.297109,"lon":5.366177,"is_reserved":false,"is_disabled":false,"rental_uris":{"android":"levelo://app?vid=d663cce3-a75f-4009-9572-cc6217fa5dc3","ios":"levelo://app?vid=d663cce3-a75f-4009-9572-cc6217fa5dc3"},"vehicle_type_id":"4","last_reported":1747142743,"current_range_meters":2800,"station_id":"ce4bgn12rcd13ifvqbt0","pricing_plan_id":"cebpf4jnsgd1na2vs0mg"},{"bike_id":"2b6f9867-a501-4515-a923-f8b711c89e10","system_id":"levelo_inurba_marseille","lat":43.29062,"lon":5.35905,"is_reserved":false,"is_disabled":false,"rental_uris":{"android":"levelo://app?vid=2b6f9867-a501-4515-a923-f8b711c89e10","ios":"levelo://app?vid=2b6f9867-a501-4515-a923-f8b711c89e10"},"vehicle_type_id":"4","last_reported":1747142743,"current_range_meters":2800,"station_id":"ce4bha92rcd13ifvqeg0","pricing_plan_id":"cebpf4jnsgd1na2vs0mg"},{"bike_id":"f208f95a-7526-4d0e-bb11-09727ae34ce4","system_id":"levelo_inurba_marseille","lat":43.2798,"lon":5.38701,"is_reserved":false,"is_disabled":false,"rental_uris":{"android":"levelo://app?vid=f208f95a-7526-4d0e-bb11-09727ae34ce4","ios":"levelo://app?vid=f208f95a-7526-4d0e-bb11-09727ae34ce4"},"vehicle_type_id":"4","last_reported":1747142743,"current_range_meters":2800,"station_id":"ce4bhg12rcd13ifvqf80","pricing_plan_id":"cebpf4jnsgd1na2vs0mg"},{"bike_id":"04d43387-e863-476b-ae17-b62953ab80e4","system_id":"levelo_inurba_marseille","lat":43.2736,"lon":5.36214,"is_reserved":false,"is_disabled":false,"rental_uris":{"android":"levelo://app?vid=04d43387-e863-476b-ae17-b62953ab80e4","ios":"levelo://app?vid=04d43387-e863-476b-ae17-b62953ab80e4"},"vehicle_type_id":"4","last_reported":1747142743,"current_range_meters":2800,"station_id":"ce4bhbh2rcd13ifvqeo0","pricing_plan_id":"cebpf4jnsgd1na2vs0mg"},{"bike_id":"b34a53c8-4450-4497-be18-f2eadd48d7f7","system_id":"levelo_inurba_marseille","lat":43.27326,"lon":5.39109,"is_reserved":false,"is_disabled":false,"rental_uris":{"android":"levelo://app?vid=b34a53c8-4450-4497-be18-f2eadd48d7f7","ios":"levelo://app?vid=b34a53c8-4450-4497-be18-f2eadd48d7f7"},"vehicle_type_id":"4","last_reported":1747142743,"current_range_meters":3200,"station_id":"ce4bhgp2rcd13ifvqfe0","pricing_plan_id":"cebpf4jnsgd1na2vs0mg"},{"bike_id":"35b9bcc1-dbcb-43d6-ac49-daaa9afa096d","system_id":"levelo_inurba_marseille","lat":43.28354,"lon":5.381,"is_reserved":false,"is_disabled":false,"rental_uris":{"android":"levelo://app?vid=35b9bcc1-dbcb-43d6-ac49-daaa9afa096d","ios":"levelo://app?vid=35b9bcc1-dbcb-43d6-ac49-daaa9afa096d"},"vehicle_type_id":"4","last_reported":1747142743,"current_range_meters":3600,"station_id":"ce4bh412rcd13ifvqdr0","pricing_plan_id":"cebpf4jnsgd1na2vs0mg"},{"bike_id":"2f2808f9-72d5-4e29-a4a0-cbbaffbbe57a","system_id":"levelo_inurba_marseille","lat":43.27379,"lon":5.36257,"is_reserved":false,"is_disabled":false,"rental_uris":{"android":"levelo://app?vid=2f2808f9-72d5-4e29-a4a0-cbbaffbbe57a","ios":"levelo://app?vid=2f2808f9-72d5-4e29-a4a0-cbbaffbbe57a"},"vehicle_type_id":"4","last_reported":1747142743,"current_range_meters":3600,"station_id":"ce4bhbh2rcd13ifvqeo0","pricing_plan_id":"cebpf4jnsgd1na2vs0mg"},{"bike_id":"d7e71fa7-972c-4b15-9ad4-f3d97dee966c","system_id":"levelo_inurba_marseille","lat":43.26956,"lon":5.38632,"is_reserved":false,"is_disabled":false,"rental_uris":{"android":"levelo://app?vid=d7e71fa7-972c-4b15-9ad4-f3d97dee966c","ios":"levelo://app?vid=d7e71fa7-972c-4b15-9ad4-f3d97dee966c"},"vehicle_type_id":"4","last_reported":1747142743,"current_range_meters":4000,"station_id":"ce4bhh92rcd13ifvqfh0","pricing_plan_id":"cebpf4jnsgd1na2vs0mg"},{"bike_id":"f946ef2d-0d80-4ec1-8fb6-65f79d249390","system_id":"levelo_inurba_marseille","lat":43.24645,"lon":5.38886,"is_reserved":false,"is_disabled":false,"rental_uris":{"android":"levelo://app?vid=f946ef2d-0d80-4ec1-8fb6-65f79d249390","ios":"levelo://app?vid=f946ef2d-0d80-4ec1-8fb6-65f79d249390"},"vehicle_type_id":"4","last_reported":1747142743,"current_range_meters":4000,"station_id":"ce4bhg12rcd13ifvqf60","pricing_plan_id":"cebpf4jnsgd1na2vs0mg"},{"bike_id":"be45ae69-d9a2-48f6-b427-0a77af9f9b5d","system_id":"levelo_inurba_marseille","lat":43.30143,"lon":5.3807,"is_reserved":false,"is_disabled":false,"rental_uris":{"android":"levelo://app?vid=be45ae69-d9a2-48f6-b427-0a77af9f9b5d","ios":"levelo://app?vid=be45ae69-d9a2-48f6-b427-0a77af9f9b5d"},"vehicle_type_id":"4","last_reported":1747142743,"current_range_meters":4000,"station_id":"ce4bgjp2rcd13ifvqbh0","pricing_plan_id":"cebpf4jnsgd1na2vs0mg"},{"bike_id":"c8943a11-9366-4c69-8805-601978e2b748","system_id":"levelo_inurba_marseille","lat":43.28269,"lon":5.35063,"is_reserved":false,"is_disabled":false,"rental_uris":{"android":"levelo://app?vid=c8943a11-9366-4c69-8805-601978e2b748","ios":"levelo://app?vid=c8943a11-9366-4c69-8805-601978e2b748"},"vehicle_type_id":"4","last_reported":1747142743,"current_range_meters":4000,"station_id":"ce4bhbp2rcd13ifvqerg","pricing_plan_id":"cebpf4jnsgd1na2vs0mg"},{"bike_id":"62e07c2d-4312-47b2-a3ba-bf1a3538dbc0","system_id":"levelo_inurba_marseille","lat":43.29276,"lon":5.36846,"is_reserved":false,"is_disabled":false,"rental_uris":{"android":"levelo://app?vid=62e07c2d-4312-47b2-a3ba-bf1a3538dbc0","ios":"levelo://app?vid=62e07c2d-4312-47b2-a3ba-bf1a3538dbc0"},"vehicle_type_id":"4","last_reported":1747142743,"current_range_meters":4000,"station_id":"ce4bhbp2rcd13ifvqesg","pricing_plan_id":"cebpf4jnsgd1na2vs0mg"},{"bike_id":"ddcbbddf-48c7-4e6c-b3c5-c36dbb8c7908","system_id":"levelo_inurba_marseille","lat":43.29271,"lon":5.36842,"is_reserved":false,"is_disabled":false,"rental_uris":{"android":"levelo://app?vid=ddcbbddf-48c7-4e6c-b3c5-c36dbb8c7908","ios":"levelo://app?vid=ddcbbddf-48c7-4e6c-b3c5-c36dbb8c7908"},"vehicle_type_id":"4","last_reported":1747142743,"current_range_meters":4000,"station_id":"ce4bhbp2rcd13ifvqesg","pricing_plan_id":"cebpf4jnsgd1na2vs0mg"},{"bike_id":"4c4ec8cd-9f2d-4382-8844-c7bfe94f1ec4","system_id":"levelo_inurba_marseille","lat":43.32466,"lon":5.36573,"is_reserved":false,"is_disabled":false,"rental_uris":{"android":"levelo://app?vid=4c4ec8cd-9f2d-4382-8844-c7bfe94f1ec4","ios":"levelo://app?vid=4c4ec8cd-9f2d-4382-8844-c7bfe94f1ec4"},"vehicle_type_id":"4","last_reported":1747142743,"current_range_meters":4400,"station_id":"ce4bhs12rcd13ifvqhvg","pricing_plan_id":"cebpf4jnsgd1na2vs0mg"},{"bike_id":"0d819378-776a-472b-9e2a-c3ce0178baf1","system_id":"levelo_inurba_marseille","lat":43.2572,"lon":5.41111,"is_reserved":false,"is_disabled":false,"rental_uris":{"android":"levelo://app?vid=0d819378-776a-472b-9e2a-c3ce0178baf1","ios":"levelo://app?vid=0d819378-776a-472b-9e2a-c3ce0178baf1"},"vehicle_type_id":"4","last_reported":1747142743,"current_range_meters":4800,"station_id":"ce4bhkp2rcd13ifvqgd0","pricing_plan_id":"cebpf4jnsgd1na2vs0mg"},{"bike_id":"cf14e4c4-6d8d-407a-b441-8f5b0b09b3f8","system_id":"levelo_inurba_marseille","lat":43.2808,"lon":5.39661,"is_reserved":false,"is_disabled":false,"rental_uris":{"android":"levelo://app?vid=cf14e4c4-6d8d-407a-b441-8f5b0b09b3f8","ios":"levelo://app?vid=cf14e4c4-6d8d-407a-b441-8f5b0b09b3f8"},"vehicle_type_id":"4","last_reported":1747142743,"current_range_meters":4800,"station_id":"ce4bho12rcd13ifvqh2g","pricing_plan_id":"cebpf4jnsgd1na2vs0mg"},{"bike_id":"cf0ba3a6-200e-49be-a844-b844a93a45d8","system_id":"levelo_inurba_marseille","lat":43.30304,"lon":5.36888,"is_reserved":false,"is_disabled":false,"rental_uris":{"android":"levelo://app?vid=cf0ba3a6-200e-49be-a844-b844a93a45d8","ios":"levelo://app?vid=cf0ba3a6-200e-49be-a844-b844a93a45d8"},"vehicle_type_id":"4","last_reported":1747142743,"current_range_meters":4800,"station_id":"ce4bgqh2rcd13ifvqc5g","pricing_plan_id":"cebpf4jnsgd1na2vs0mg"},{"bike_id":"a20c55d7-6315-4d9d-8fe4-df63b2d6a174","system_id":"levelo_inurba_marseille","lat":43.2397,"lon":5.36634,"is_reserved":false,"is_disabled":false,"rental_uris":{"android":"levelo://app?vid=a20c55d7-6315-4d9d-8fe4-df63b2d6a174","ios":"levelo://app?vid=a20c55d7-6315-4d9d-8fe4-df63b2d6a174"},"vehicle_type_id":"4","last_reported":1747142743,"current_range_meters":4800,"station_id":"ce4bhi12rcd13ifvqfp0","pricing_plan_id":"cebpf4jnsgd1na2vs0mg"},{"bike_id":"68c92bf4-5e01-4df5-879c-de3fe259e412","system_id":"levelo_inurba_marseille","lat":43.26203,"lon":5.40445,"is_reserved":false,"is_disabled":false,"rental_uris":{"android":"levelo://app?vid=68c92bf4-5e01-4df5-879c-de3fe259e412","ios":"levelo://app?vid=68c92bf4-5e01-4df5-879c-de3fe259e412"},"vehicle_type_id":"4","last_reported":1747142743,"current_range_meters":5600,"station_id":"ce4bhmh2rcd13ifvqgmg","pricing_plan_id":"cebpf4jnsgd1na2vs0mg"},{"bike_id":"a194a514-c198-488e-8bbb-bb59f4825c8a","system_id":"levelo_inurba_marseille","lat":43.28615,"lon":5.35111,"is_reserved":false,"is_disabled":false,"rental_uris":{"android":"levelo://app?vid=a194a514-c198-488e-8bbb-bb59f4825c8a","ios":"levelo://app?vid=a194a514-c198-488e-8bbb-bb59f4825c8a"},"vehicle_type_id":"4","last_reported":1747142743,"current_range_meters":5600,"station_id":"ce4bhch2rcd13ifvqeug","pricing_plan_id":"cebpf4jnsgd1na2vs0mg"},{"bike_id":"49fca326-1ade-4ea7-811a-0e7b07089734","system_id":"levelo_inurba_marseille","lat":43.29266,"lon":5.38432,"is_reserved":false,"is_disabled":false,"rental_uris":{"android":"levelo://app?vid=49fca326-1ade-4ea7-811a-0e7b07089734","ios":"levelo://app?vid=49fca326-1ade-4ea7-811a-0e7b07089734"},"vehicle_type_id":"4","last_reported":1747142743,"current_range_meters":6000,"station_id":"ce4bh692rcd13ifvqea0","pricing_plan_id":"cebpf4jnsgd1na2vs0mg"},{"bike_id":"4dbefd3f-d61e-4a06-8faf-789a4b1aefa3","system_id":"levelo_inurba_marseille","lat":43.30267,"lon":5.37725,"is_reserved":false,"is_disabled":false,"rental_uris":{"android":"levelo://app?vid=4dbefd3f-d61e-4a06-8faf-789a4b1aefa3","ios":"levelo://app?vid=4dbefd3f-d61e-4a06-8faf-789a4b1aefa3"},"vehicle_type_id":"4","last_reported":1747142743,"current_range_meters":5600,"station_id":"ce4bguh2rcd13ifvqcj0","pricing_plan_id":"cebpf4jnsgd1na2vs0mg"},{"bike_id":"5edaac88-7240-4b9c-bbf8-05da68cfe0c7","system_id":"levelo_inurba_marseille","lat":43.28475,"lon":5.38415,"is_reserved":false,"is_disabled":false,"rental_uris":{"android":"levelo://app?vid=5edaac88-7240-4b9c-bbf8-05da68cfe0c7","ios":"levelo://app?vid=5edaac88-7240-4b9c-bbf8-05da68cfe0c7"},"vehicle_type_id":"4","last_reported":1747142743,"current_range_meters":6000,"station_id":"","pricing_plan_id":"cebpf4jnsgd1na2vs0mg"},{"bike_id":"0a2cb71a-146c-41e7-9dd6-29dcb7568080","system_id":"levelo_inurba_marseille","lat":43.30899,"lon":5.36871,"is_reserved":false,"is_disabled":false,"rental_uris":{"android":"levelo://app?vid=0a2cb71a-146c-41e7-9dd6-29dcb7568080","ios":"levelo://app?vid=0a2cb71a-146c-41e7-9dd6-29dcb7568080"},"vehicle_type_id":"4","last_reported":1747142743,"current_range_meters":6000,"station_id":"ce4bgn92rcd13ifvqbvg","pricing_plan_id":"cebpf4jnsgd1na2vs0mg"},{"bike_id":"ae7ab1da-92bc-4fc7-b5cc-daa88618df0f","system_id":"levelo_inurba_marseille","lat":43.25003,"lon":5.38924,"is_reserved":false,"is_disabled":false,"rental_uris":{"android":"levelo://app?vid=ae7ab1da-92bc-4fc7-b5cc-daa88618df0f","ios":"levelo://app?vid=ae7ab1da-92bc-4fc7-b5cc-daa88618df0f"},"vehicle_type_id":"4","last_reported":1747142743,"current_range_meters":6400,"station_id":"ce4bhgp2rcd13ifvqfd0","pricing_plan_id":"cebpf4jnsgd1na2vs0mg"},{"bike_id":"7c587c1d-6963-4e9b-946a-4fc12bc7f78e","system_id":"levelo_inurba_marseille","lat":43.293641,"lon":5.37838,"is_reserved":false,"is_disabled":false,"rental_uris":{"android":"levelo://app?vid=7c587c1d-6963-4e9b-946a-4fc12bc7f78e","ios":"levelo://app?vid=7c587c1d-6963-4e9b-946a-4fc12bc7f78e"},"vehicle_type_id":"4","last_reported":1747142743,"current_range_meters":6400,"station_id":"","pricing_plan_id":"cebpf4jnsgd1na2vs0mg"},{"bike_id":"e7c7aaeb-ee91-428d-896f-463d20d6846f","system_id":"levelo_inurba_marseille","lat":43.284119,"lon":5.349704,"is_reserved":false,"is_disabled":false,"rental_uris":{"android":"levelo://app?vid=e7c7aaeb-ee91-428d-896f-463d20d6846f","ios":"levelo://app?vid=e7c7aaeb-ee91-428d-896f-463d20d6846f"},"vehicle_type_id":"4","last_reported":1747142743,"current_range_meters":6400,"station_id":"ce4bhbh2rcd13ifvqepg","pricing_plan_id":"cebpf4jnsgd1na2vs0mg"},{"bike_id":"f38259b1-d476-4383-8e07-46abda6d44e3","system_id":"levelo_inurba_marseille","lat":43.28467,"lon":5.3589,"is_reserved":false,"is_disabled":false,"rental_uris":{"android":"levelo://app?vid=f38259b1-d476-4383-8e07-46abda6d44e3","ios":"levelo://app?vid=f38259b1-d476-4383-8e07-46abda6d44e3"},"vehicle_type_id":"4","last_reported":1747142743,"current_range_meters":6400,"station_id":"ce4bhah2rcd13ifvqei0","pricing_plan_id":"cebpf4jnsgd1na2vs0mg"},{"bike_id":"831aa21e-7eed-48a7-8fee-11df5950f587","system_id":"levelo_inurba_marseille","lat":43.2842,"lon":5.34988,"is_reserved":false,"is_disabled":false,"rental_uris":{"android":"levelo://app?vid=831aa21e-7eed-48a7-8fee-11df5950f587","ios":"levelo://app?vid=831aa21e-7eed-48a7-8fee-11df5950f587"},"vehicle_type_id":"4","last_reported":1747142743,"current_range_meters":6800,"station_id":"ce4bhbh2rcd13ifvqepg","pricing_plan_id":"cebpf4jnsgd1na2vs0mg"},{"bike_id":"4fb1d9bc-fbee-4c4d-9742-5fa04d86c4b6","system_id":"levelo_inurba_marseille","lat":43.24159,"lon":5.36414,"is_reserved":false,"is_disabled":false,"rental_uris":{"android":"levelo://app?vid=4fb1d9bc-fbee-4c4d-9742-5fa04d86c4b6","ios":"levelo://app?vid=4fb1d9bc-fbee-4c4d-9742-5fa04d86c4b6"},"vehicle_type_id":"4","last_reported":1747142743,"current_range_meters":6800,"station_id":"cpo36qri1sfpv3e86is0","pricing_plan_id":"cebpf4jnsgd1na2vs0mg"},{"bike_id":"ae856680-55aa-4c84-bb68-9a749b77d64c","system_id":"levelo_inurba_marseille","lat":43.29858,"lon":5.36293,"is_reserved":false,"is_disabled":false,"rental_uris":{"android":"levelo://app?vid=ae856680-55aa-4c84-bb68-9a749b77d64c","ios":"levelo://app?vid=ae856680-55aa-4c84-bb68-9a749b77d64c"},"vehicle_type_id":"4","last_reported":1747142743,"current_range_meters":6800,"station_id":"ce4bgpp2rcd13ifvqc3g","pricing_plan_id":"cebpf4jnsgd1na2vs0mg"},{"bike_id":"01c28854-6c3e-4fe6-846d-e8723809c7f9","system_id":"levelo_inurba_marseille","lat":43.28146,"lon":5.42648,"is_reserved":false,"is_disabled":false,"rental_uris":{"android":"levelo://app?vid=01c28854-6c3e-4fe6-846d-e8723809c7f9","ios":"levelo://app?vid=01c28854-6c3e-4fe6-846d-e8723809c7f9"},"vehicle_type_id":"4","last_reported":1747142743,"current_range_meters":6800,"station_id":"ce4bhnh2rcd13ifvqgug","pricing_plan_id":"cebpf4jnsgd1na2vs0mg"},{"bike_id":"8b8a8aed-3dae-49e5-a8a3-97e747792538","system_id":"levelo_inurba_marseille","lat":43.29418,"lon":5.38625,"is_reserved":false,"is_disabled":false,"rental_uris":{"android":"levelo://app?vid=8b8a8aed-3dae-49e5-a8a3-97e747792538","ios":"levelo://app?vid=8b8a8aed-3dae-49e5-a8a3-97e747792538"},"vehicle_type_id":"4","last_reported":1747142743,"current_range_meters":6800,"station_id":"ce4bh2h2rcd13ifvqdh0","pricing_plan_id":"cebpf4jnsgd1na2vs0mg"},{"bike_id":"6f599c26-d7cd-46a5-a5d4-44f69f16dd2b","system_id":"levelo_inurba_marseille","lat":43.29372,"lon":5.37815,"is_reserved":false,"is_disabled":false,"rental_uris":{"android":"levelo://app?vid=6f599c26-d7cd-46a5-a5d4-44f69f16dd2b","ios":"levelo://app?vid=6f599c26-d7cd-46a5-a5d4-44f69f16dd2b"},"vehicle_type_id":"4","last_reported":1747142743,"current_range_meters":7200,"station_id":"ce4bgjh2rcd13ifvqbf0","pricing_plan_id":"cebpf4jnsgd1na2vs0mg"},{"bike_id":"71ed3f58-475a-4bd6-8189-b1e991f5a520","system_id":"levelo_inurba_marseille","lat":43.2937,"lon":5.37818,"is_reserved":false,"is_disabled":false,"rental_uris":{"android":"levelo://app?vid=71ed3f58-475a-4bd6-8189-b1e991f5a520","ios":"levelo://app?vid=71ed3f58-475a-4bd6-8189-b1e991f5a520"},"vehicle_type_id":"4","last_reported":1747142743,"current_range_meters":7200,"station_id":"ce4bgjh2rcd13ifvqbf0","pricing_plan_id":"cebpf4jnsgd1na2vs0mg"},{"bike_id":"be03c842-7afb-4382-ad52-190546331032","system_id":"levelo_inurba_marseille","lat":43.24168,"lon":5.36394,"is_reserved":false,"is_disabled":false,"rental_uris":{"android":"levelo://app?vid=be03c842-7afb-4382-ad52-190546331032","ios":"levelo://app?vid=be03c842-7afb-4382-ad52-190546331032"},"vehicle_type_id":"4","last_reported":1747142743,"current_range_meters":7200,"station_id":"cpo36qri1sfpv3e86is0","pricing_plan_id":"cebpf4jnsgd1na2vs0mg"},{"bike_id":"0385ffc9-0e53-4106-abd7-810b94359dd6","system_id":"levelo_inurba_marseille","lat":43.290851,"lon":5.380881,"is_reserved":false,"is_disabled":false,"rental_uris":{"android":"levelo://app?vid=0385ffc9-0e53-4106-abd7-810b94359dd6","ios":"levelo://app?vid=0385ffc9-0e53-4106-abd7-810b94359dd6"},"vehicle_type_id":"4","last_reported":1747142743,"current_range_meters":7200,"station_id":"ce4bh512rcd13ifvqe3g","pricing_plan_id":"cebpf4jnsgd1na2vs0mg"},{"bike_id":"2f09ecb5-f0d9-4b93-ab43-fefe32b781df","system_id":"levelo_inurba_marseille","lat":43.2621,"lon":5.37441,"is_reserved":false,"is_disabled":false,"rental_uris":{"android":"levelo://app?vid=2f09ecb5-f0d9-4b93-ab43-fefe32b781df","ios":"levelo://app?vid=2f09ecb5-f0d9-4b93-ab43-fefe32b781df"},"vehicle_type_id":"4","last_reported":1747142743,"current_range_meters":7200,"station_id":"","pricing_plan_id":"cebpf4jnsgd1na2vs0mg"},{"bike_id":"74795a7c-45fc-4b29-b5e3-e55edd562156","system_id":"levelo_inurba_marseille","lat":43.29594,"lon":5.37826,"is_reserved":false,"is_disabled":false,"rental_uris":{"android":"levelo://app?vid=74795a7c-45fc-4b29-b5e3-e55edd562156","ios":"levelo://app?vid=74795a7c-45fc-4b29-b5e3-e55edd562156"},"vehicle_type_id":"4","last_reported":1747142743,"current_range_meters":7200,"station_id":"","pricing_plan_id":"cebpf4jnsgd1na2vs0mg"},{"bike_id":"af0f1381-a3a4-4358-b93d-337d4076c348","system_id":"levelo_inurba_marseille","lat":43.29523,"lon":5.39046,"is_reserved":false,"is_disabled":false,"rental_uris":{"android":"levelo://app?vid=af0f1381-a3a4-4358-b93d-337d4076c348","ios":"levelo://app?vid=af0f1381-a3a4-4358-b93d-337d4076c348"},"vehicle_type_id":"4","last_reported":1747142743,"current_range_meters":8000,"station_id":"ce4bh3p2rcd13ifvqdp0","pricing_plan_id":"cebpf4jnsgd1na2vs0mg"},{"bike_id":"577dda86-ba61-4194-ab07-2a6b25ebdc6d","system_id":"levelo_inurba_marseille","lat":43.32368,"lon":5.388973,"is_reserved":false,"is_disabled":false,"rental_uris":{"android":"levelo://app?vid=577dda86-ba61-4194-ab07-2a6b25ebdc6d","ios":"levelo://app?vid=577dda86-ba61-4194-ab07-2a6b25ebdc6d"},"vehicle_type_id":"4","last_reported":1747142743,"current_range_meters":8000,"station_id":"ce4bhqp2rcd13ifvqhog","pricing_plan_id":"cebpf4jnsgd1na2vs0mg"},{"bike_id":"2ee4d910-0ee1-4bc5-86c8-c77afad12b4f","system_id":"levelo_inurba_marseille","lat":43.321028,"lon":5.367637,"is_reserved":false,"is_disabled":false,"rental_uris":{"android":"levelo://app?vid=2ee4d910-0ee1-4bc5-86c8-c77afad12b4f","ios":"levelo://app?vid=2ee4d910-0ee1-4bc5-86c8-c77afad12b4f"},"vehicle_type_id":"4","last_reported":1747142743,"current_range_meters":8000,"station_id":"ce4bhrh2rcd13ifvqhug","pricing_plan_id":"cebpf4jnsgd1na2vs0mg"},{"bike_id":"095038c5-171b-47aa-b452-ea84e255eace","system_id":"levelo_inurba_marseille","lat":43.3252,"lon":5.36579,"is_reserved":false,"is_disabled":false,"rental_uris":{"android":"levelo://app?vid=095038c5-171b-47aa-b452-ea84e255eace","ios":"levelo://app?vid=095038c5-171b-47aa-b452-ea84e255eace"},"vehicle_type_id":"4","last_reported":1747142743,"current_range_meters":8400,"station_id":"","pricing_plan_id":"cebpf4jnsgd1na2vs0mg"},{"bike_id":"9ce1ce84-2e79-488d-90d7-8794344f6f53","system_id":"levelo_inurba_marseille","lat":43.29788,"lon":5.38096,"is_reserved":false,"is_disabled":false,"rental_uris":{"android":"levelo://app?vid=9ce1ce84-2e79-488d-90d7-8794344f6f53","ios":"levelo://app?vid=9ce1ce84-2e79-488d-90d7-8794344f6f53"},"vehicle_type_id":"4","last_reported":1747142743,"current_range_meters":8400,"station_id":"ce4bgip2rcd13ifvqbb0","pricing_plan_id":"cebpf4jnsgd1na2vs0mg"},{"bike_id":"6bd7ac33-dd60-4dcc-8ff1-a44008c2e6cd","system_id":"levelo_inurba_marseille","lat":43.2842,"lon":5.34976,"is_reserved":false,"is_disabled":false,"rental_uris":{"android":"levelo://app?vid=6bd7ac33-dd60-4dcc-8ff1-a44008c2e6cd","ios":"levelo://app?vid=6bd7ac33-dd60-4dcc-8ff1-a44008c2e6cd"},"vehicle_type_id":"4","last_reported":1747142743,"current_range_meters":8400,"station_id":"ce4bhbh2rcd13ifvqepg","pricing_plan_id":"cebpf4jnsgd1na2vs0mg"},{"bike_id":"cdfabeee-88c4-4535-ab6b-31c88ba67d2e","system_id":"levelo_inurba_marseille","lat":43.29802,"lon":5.38109,"is_reserved":false,"is_disabled":false,"rental_uris":{"android":"levelo://app?vid=cdfabeee-88c4-4535-ab6b-31c88ba67d2e","ios":"levelo://app?vid=cdfabeee-88c4-4535-ab6b-31c88ba67d2e"},"vehicle_type_id":"4","last_reported":1747142743,"current_range_meters":8400,"station_id":"ce4bgip2rcd13ifvqbb0","pricing_plan_id":"cebpf4jnsgd1na2vs0mg"},{"bike_id":"ff803671-7258-463a-beda-53a6c1d01120","system_id":"levelo_inurba_marseille","lat":43.24168,"lon":5.36391,"is_reserved":false,"is_disabled":false,"rental_uris":{"android":"levelo://app?vid=ff803671-7258-463a-beda-53a6c1d01120","ios":"levelo://app?vid=ff803671-7258-463a-beda-53a6c1d01120"},"vehicle_type_id":"4","last_reported":1747142743,"current_range_meters":8400,"station_id":"cpo36qri1sfpv3e86is0","pricing_plan_id":"cebpf4jnsgd1na2vs0mg"},{"bike_id":"4e60f90f-a662-4cf9-9c15-9e5ee7566357","system_id":"levelo_inurba_marseille","lat":43.2119,"lon":5.35078,"is_reserved":false,"is_disabled":false,"rental_uris":{"android":"levelo://app?vid=4e60f90f-a662-4cf9-9c15-9e5ee7566357","ios":"levelo://app?vid=4e60f90f-a662-4cf9-9c15-9e5ee7566357"},"vehicle_type_id":"4","last_reported":1747142743,"current_range_meters":8400,"station_id":"st_cvj6sg6p6f1abm77japg","pricing_plan_id":"cebpf4jnsgd1na2vs0mg"},{"bike_id":"90ec861e-b833-44d2-a250-b62c13762776","system_id":"levelo_inurba_marseille","lat":43.30797,"lon":5.38157,"is_reserved":false,"is_disabled":false,"rental_uris":{"android":"levelo://app?vid=90ec861e-b833-44d2-a250-b62c13762776","ios":"levelo://app?vid=90ec861e-b833-44d2-a250-b62c13762776"},"vehicle_type_id":"4","last_reported":1747142743,"current_range_meters":8400,"station_id":"ce4bgt12rcd13ifvqce0","pricing_plan_id":"cebpf4jnsgd1na2vs0mg"},{"bike_id":"5c3eb281-6976-45b8-9526-7dac96f521d6","system_id":"levelo_inurba_marseille","lat":43.29008,"lon":5.35614,"is_reserved":false,"is_disabled":false,"rental_uris":{"android":"levelo://app?vid=5c3eb281-6976-45b8-9526-7dac96f521d6","ios":"levelo://app?vid=5c3eb281-6976-45b8-9526-7dac96f521d6"},"vehicle_type_id":"4","last_reported":1747142743,"current_range_meters":8800,"station_id":"ce4bhb92rcd13ifvqen0","pricing_plan_id":"cebpf4jnsgd1na2vs0mg"},{"bike_id":"28a82a84-faf1-4ac2-ac11-d673ce29d7d8","system_id":"levelo_inurba_marseille","lat":43.29529,"lon":5.38539,"is_reserved":false,"is_disabled":false,"rental_uris":{"android":"levelo://app?vid=28a82a84-faf1-4ac2-ac11-d673ce29d7d8","ios":"levelo://app?vid=28a82a84-faf1-4ac2-ac11-d673ce29d7d8"},"vehicle_type_id":"4","last_reported":1747142743,"current_range_meters":8800,"station_id":"ce4bgih2rcd13ifvqba0","pricing_plan_id":"cebpf4jnsgd1na2vs0mg"},{"bike_id":"d82fa027-114f-4ce0-aecf-6f55c1aa5eba","system_id":"levelo_inurba_marseille","lat":43.27074,"lon":5.42285,"is_reserved":false,"is_disabled":false,"rental_uris":{"android":"levelo://app?vid=d82fa027-114f-4ce0-aecf-6f55c1aa5eba","ios":"levelo://app?vid=d82fa027-114f-4ce0-aecf-6f55c1aa5eba"},"vehicle_type_id":"4","last_reported":1747142743,"current_range_meters":9200,"station_id":"ce4bhk92rcd13ifvqgb0","pricing_plan_id":"cebpf4jnsgd1na2vs0mg"},{"bike_id":"c44d0673-589d-4384-820c-4862d7dc2e6d","system_id":"levelo_inurba_marseille","lat":43.2397,"lon":5.36637,"is_reserved":false,"is_disabled":false,"rental_uris":{"android":"levelo://app?vid=c44d0673-589d-4384-820c-4862d7dc2e6d","ios":"levelo://app?vid=c44d0673-589d-4384-820c-4862d7dc2e6d"},"vehicle_type_id":"4","last_reported":1747142743,"current_range_meters":9200,"station_id":"ce4bhi12rcd13ifvqfp0","pricing_plan_id":"cebpf4jnsgd1na2vs0mg"},{"bike_id":"ce4325af-2448-4172-bdec-81d552ee0b62","system_id":"levelo_inurba_marseille","lat":43.26162,"lon":5.42026,"is_reserved":false,"is_disabled":false,"rental_uris":{"android":"levelo://app?vid=ce4325af-2448-4172-bdec-81d552ee0b62","ios":"levelo://app?vid=ce4325af-2448-4172-bdec-81d552ee0b62"},"vehicle_type_id":"4","last_reported":1747142743,"current_range_meters":9200,"station_id":"","pricing_plan_id":"cebpf4jnsgd1na2vs0mg"},{"bike_id":"581fa52b-d332-45e3-9d7f-f18fbfd08e95","system_id":"levelo_inurba_marseille","lat":43.34162,"lon":5.40931,"is_reserved":false,"is_disabled":true,"rental_uris":{"android":"levelo://app?vid=581fa52b-d332-45e3-9d7f-f18fbfd08e95","ios":"levelo://app?vid=581fa52b-d332-45e3-9d7f-f18fbfd08e95"},"vehicle_type_id":"4","last_reported":1747142743,"current_range_meters":9200,"station_id":"ce4bhqh2rcd13ifvqhlg","pricing_plan_id":"cebpf4jnsgd1na2vs0mg"},{"bike_id":"2f0003e5-659f-480d-97f9-1a3780036638","system_id":"levelo_inurba_marseille","lat":43.24165,"lon":5.36406,"is_reserved":false,"is_disabled":false,"rental_uris":{"android":"levelo://app?vid=2f0003e5-659f-480d-97f9-1a3780036638","ios":"levelo://app?vid=2f0003e5-659f-480d-97f9-1a3780036638"},"vehicle_type_id":"4","last_reported":1747142743,"current_range_meters":9200,"station_id":"cpo36qri1sfpv3e86is0","pricing_plan_id":"cebpf4jnsgd1na2vs0mg"},{"bike_id":"ad66bcc5-beff-451b-ab19-ab906245712f","system_id":"levelo_inurba_marseille","lat":43.31489,"lon":5.37307,"is_reserved":false,"is_disabled":false,"rental_uris":{"android":"levelo://app?vid=ad66bcc5-beff-451b-ab19-ab906245712f","ios":"levelo://app?vid=ad66bcc5-beff-451b-ab19-ab906245712f"},"vehicle_type_id":"4","last_reported":1747142743,"current_range_meters":9200,"station_id":"ce4bgt12rcd13ifvqcd0","pricing_plan_id":"cebpf4jnsgd1na2vs0mg"},{"bike_id":"c56cce72-c26b-4cbf-865e-16824353c279","system_id":"levelo_inurba_marseille","lat":43.28429,"lon":5.34999,"is_reserved":false,"is_disabled":false,"rental_uris":{"android":"levelo://app?vid=c56cce72-c26b-4cbf-865e-16824353c279","ios":"levelo://app?vid=c56cce72-c26b-4cbf-865e-16824353c279"},"vehicle_type_id":"4","last_reported":1747142743,"current_range_meters":9200,"station_id":"ce4bhbh2rcd13ifvqepg","pricing_plan_id":"cebpf4jnsgd1na2vs0mg"},{"bike_id":"346a1a96-8736-4fff-9eee-856823779434","system_id":"levelo_inurba_marseille","lat":43.27811,"lon":5.40705,"is_reserved":false,"is_disabled":false,"rental_uris":{"android":"levelo://app?vid=346a1a96-8736-4fff-9eee-856823779434","ios":"levelo://app?vid=346a1a96-8736-4fff-9eee-856823779434"},"vehicle_type_id":"4","last_reported":1747142743,"current_range_meters":9200,"station_id":"ce4bhnh2rcd13ifvqgtg","pricing_plan_id":"cebpf4jnsgd1na2vs0mg"},{"bike_id":"83ce1828-b007-4a00-9713-07076729150f","system_id":"levelo_inurba_marseille","lat":43.29194,"lon":5.35804,"is_reserved":false,"is_disabled":false,"rental_uris":{"android":"levelo://app?vid=83ce1828-b007-4a00-9713-07076729150f","ios":"levelo://app?vid=83ce1828-b007-4a00-9713-07076729150f"},"vehicle_type_id":"4","last_reported":1747142743,"current_range_meters":9600,"station_id":"ce4bhb12rcd13ifvqel0","pricing_plan_id":"cebpf4jnsgd1na2vs0mg"},{"bike_id":"54d9692e-189c-4038-aff8-0ac56b1cf8b6","system_id":"levelo_inurba_marseille","lat":43.28417,"lon":5.34996,"is_reserved":false,"is_disabled":false,"rental_uris":{"android":"levelo://app?vid=54d9692e-189c-4038-aff8-0ac56b1cf8b6","ios":"levelo://app?vid=54d9692e-189c-4038-aff8-0ac56b1cf8b6"},"vehicle_type_id":"4","last_reported":1747142743,"current_range_meters":9600,"station_id":"ce4bhbh2rcd13ifvqepg","pricing_plan_id":"cebpf4jnsgd1na2vs0mg"},{"bike_id":"35aaf3a9-f3f3-4907-8472-d2a9a4e29a32","system_id":"levelo_inurba_marseille","lat":43.28039,"lon":5.36945,"is_reserved":false,"is_disabled":false,"rental_uris":{"android":"levelo://app?vid=35aaf3a9-f3f3-4907-8472-d2a9a4e29a32","ios":"levelo://app?vid=35aaf3a9-f3f3-4907-8472-d2a9a4e29a32"},"vehicle_type_id":"4","last_reported":1747142743,"current_range_meters":9600,"station_id":"ce4bha12rcd13ifvqef0","pricing_plan_id":"cebpf4jnsgd1na2vs0mg"},{"bike_id":"763c5813-a5b9-4925-ac43-f3d5a3e0b884","system_id":"levelo_inurba_marseille","lat":43.30318,"lon":5.36891,"is_reserved":false,"is_disabled":false,"rental_uris":{"android":"levelo://app?vid=763c5813-a5b9-4925-ac43-f3d5a3e0b884","ios":"levelo://app?vid=763c5813-a5b9-4925-ac43-f3d5a3e0b884"},"vehicle_type_id":"4","last_reported":1747142743,"current_range_meters":10000,"station_id":"ce4bgqh2rcd13ifvqc5g","pricing_plan_id":"cebpf4jnsgd1na2vs0mg"},{"bike_id":"0e89a721-196d-4572-b905-e39e1dafff7a","system_id":"levelo_inurba_marseille","lat":43.32105,"lon":5.36775,"is_reserved":false,"is_disabled":false,"rental_uris":{"android":"levelo://app?vid=0e89a721-196d-4572-b905-e39e1dafff7a","ios":"levelo://app?vid=0e89a721-196d-4572-b905-e39e1dafff7a"},"vehicle_type_id":"4","last_reported":1747142743,"current_range_meters":10000,"station_id":"ce4bhrh2rcd13ifvqhug","pricing_plan_id":"cebpf4jnsgd1na2vs0mg"},{"bike_id":"65495929-3126-4eca-9839-c117cc573c9b","system_id":"levelo_inurba_marseille","lat":43.28701,"lon":5.37393,"is_reserved":false,"is_disabled":false,"rental_uris":{"android":"levelo://app?vid=65495929-3126-4eca-9839-c117cc573c9b","ios":"levelo://app?vid=65495929-3126-4eca-9839-c117cc573c9b"},"vehicle_type_id":"4","last_reported":1747142743,"current_range_meters":10000,"station_id":"ce4bh3p2rcd13ifvqdq0","pricing_plan_id":"cebpf4jnsgd1na2vs0mg"},{"bike_id":"27994014-45b8-4b29-9e0b-f874a482fc95","system_id":"levelo_inurba_marseille","lat":43.25577,"lon":5.38242,"is_reserved":false,"is_disabled":false,"rental_uris":{"android":"levelo://app?vid=27994014-45b8-4b29-9e0b-f874a482fc95","ios":"levelo://app?vid=27994014-45b8-4b29-9e0b-f874a482fc95"},"vehicle_type_id":"4","last_reported":1747142743,"current_range_meters":10000,"station_id":"ce4bhih2rcd13ifvqfs0","pricing_plan_id":"cebpf4jnsgd1na2vs0mg"},{"bike_id":"e0d5df57-dd41-4cca-8b4a-9acfee3bced0","system_id":"levelo_inurba_marseille","lat":43.31487,"lon":5.37306,"is_reserved":false,"is_disabled":false,"rental_uris":{"android":"levelo://app?vid=e0d5df57-dd41-4cca-8b4a-9acfee3bced0","ios":"levelo://app?vid=e0d5df57-dd41-4cca-8b4a-9acfee3bced0"},"vehicle_type_id":"4","last_reported":1747142743,"current_range_meters":10000,"station_id":"ce4bgt12rcd13ifvqcd0","pricing_plan_id":"cebpf4jnsgd1na2vs0mg"},{"bike_id":"2dde6395-d1f6-4afb-840e-8c30381f782f","system_id":"levelo_inurba_marseille","lat":43.232,"lon":5.39922,"is_reserved":false,"is_disabled":false,"rental_uris":{"android":"levelo://app?vid=2dde6395-d1f6-4afb-840e-8c30381f782f","ios":"levelo://app?vid=2dde6395-d1f6-4afb-840e-8c30381f782f"},"vehicle_type_id":"4","last_reported":1747142743,"current_range_meters":10000,"station_id":"ce4bhn12rcd13ifvqgqg","pricing_plan_id":"cebpf4jnsgd1na2vs0mg"},{"bike_id":"5de1e8df-cec1-47cf-b554-41f6e726d337","system_id":"levelo_inurba_marseille","lat":43.27422,"lon":5.40607,"is_reserved":false,"is_disabled":false,"rental_uris":{"android":"levelo://app?vid=5de1e8df-cec1-47cf-b554-41f6e726d337","ios":"levelo://app?vid=5de1e8df-cec1-47cf-b554-41f6e726d337"},"vehicle_type_id":"4","last_reported":1747142743,"current_range_meters":10000,"station_id":"","pricing_plan_id":"cebpf4jnsgd1na2vs0mg"},{"bike_id":"5b58691a-51a3-45d4-b386-85998ba79bcd","system_id":"levelo_inurba_marseille","lat":43.28001,"lon":5.41662,"is_reserved":false,"is_disabled":false,"rental_uris":{"android":"levelo://app?vid=5b58691a-51a3-45d4-b386-85998ba79bcd","ios":"levelo://app?vid=5b58691a-51a3-45d4-b386-85998ba79bcd"},"vehicle_type_id":"4","last_reported":1747142743,"current_range_meters":10800,"station_id":"ce4bho12rcd13ifvqh1g","pricing_plan_id":"cebpf4jnsgd1na2vs0mg"},{"bike_id":"40bf7cfe-6379-4136-85b8-058579cd2abf","system_id":"levelo_inurba_marseille","lat":43.27376,"lon":5.36261,"is_reserved":false,"is_disabled":false,"rental_uris":{"android":"levelo://app?vid=40bf7cfe-6379-4136-85b8-058579cd2abf","ios":"levelo://app?vid=40bf7cfe-6379-4136-85b8-058579cd2abf"},"vehicle_type_id":"4","last_reported":1747142743,"current_range_meters":10800,"station_id":"ce4bhbh2rcd13ifvqeo0","pricing_plan_id":"cebpf4jnsgd1na2vs0mg"},{"bike_id":"fef6a6ee-95aa-4f77-8b69-1720df2ce098","system_id":"levelo_inurba_marseille","lat":43.32104,"lon":5.36791,"is_reserved":false,"is_disabled":false,"rental_uris":{"android":"levelo://app?vid=fef6a6ee-95aa-4f77-8b69-1720df2ce098","ios":"levelo://app?vid=fef6a6ee-95aa-4f77-8b69-1720df2ce098"},"vehicle_type_id":"4","last_reported":1747142743,"current_range_meters":10800,"station_id":"ce4bhrh2rcd13ifvqhug","pricing_plan_id":"cebpf4jnsgd1na2vs0mg"},{"bike_id":"38079793-4e59-4300-bb0d-a6c8a729a3b3","system_id":"levelo_inurba_marseille","lat":43.30608,"lon":5.37218,"is_reserved":false,"is_disabled":false,"rental_uris":{"android":"levelo://app?vid=38079793-4e59-4300-bb0d-a6c8a729a3b3","ios":"levelo://app?vid=38079793-4e59-4300-bb0d-a6c8a729a3b3"},"vehicle_type_id":"4","last_reported":1747142743,"current_range_meters":10800,"station_id":"ce4bgqh2rcd13ifvqc4g","pricing_plan_id":"cebpf4jnsgd1na2vs0mg"},{"bike_id":"1a42d993-48e9-4496-ad89-573980ac9d57","system_id":"levelo_inurba_marseille","lat":43.29276,"lon":5.36855,"is_reserved":false,"is_disabled":false,"rental_uris":{"android":"levelo://app?vid=1a42d993-48e9-4496-ad89-573980ac9d57","ios":"levelo://app?vid=1a42d993-48e9-4496-ad89-573980ac9d57"},"vehicle_type_id":"4","last_reported":1747142743,"current_range_meters":10800,"station_id":"ce4bhbp2rcd13ifvqesg","pricing_plan_id":"cebpf4jnsgd1na2vs0mg"},{"bike_id":"25d2f4a6-5190-4aa9-9a2c-0552f3d90600","system_id":"levelo_inurba_marseille","lat":43.26554,"lon":5.3728,"is_reserved":false,"is_disabled":false,"rental_uris":{"android":"levelo://app?vid=25d2f4a6-5190-4aa9-9a2c-0552f3d90600","ios":"levelo://app?vid=25d2f4a6-5190-4aa9-9a2c-0552f3d90600"},"vehicle_type_id":"4","last_reported":1747142743,"current_range_meters":11200,"station_id":"ce4bhg12rcd13ifvqf70","pricing_plan_id":"cebpf4jnsgd1na2vs0mg"},{"bike_id":"f61bb6ef-119d-4f0e-b5e2-40e948a607d7","system_id":"levelo_inurba_marseille","lat":43.29203,"lon":5.39318,"is_reserved":false,"is_disabled":false,"rental_uris":{"android":"levelo://app?vid=f61bb6ef-119d-4f0e-b5e2-40e948a607d7","ios":"levelo://app?vid=f61bb6ef-119d-4f0e-b5e2-40e948a607d7"},"vehicle_type_id":"4","last_reported":1747142743,"current_range_meters":11200,"station_id":"ce4bh192rcd13ifvqdd0","pricing_plan_id":"cebpf4jnsgd1na2vs0mg"},{"bike_id":"e9fe3f6f-b9fc-45e5-b6c6-d7a76eade6ad","system_id":"levelo_inurba_marseille","lat":43.284,"lon":5.34975,"is_reserved":false,"is_disabled":false,"rental_uris":{"android":"levelo://app?vid=e9fe3f6f-b9fc-45e5-b6c6-d7a76eade6ad","ios":"levelo://app?vid=e9fe3f6f-b9fc-45e5-b6c6-d7a76eade6ad"},"vehicle_type_id":"4","last_reported":1747142743,"current_range_meters":11200,"station_id":"ce4bhbh2rcd13ifvqepg","pricing_plan_id":"cebpf4jnsgd1na2vs0mg"},{"bike_id":"29c8859c-b7c3-408e-aa83-fb6a1aa0968c","system_id":"levelo_inurba_marseille","lat":43.24545,"lon":5.39517,"is_reserved":false,"is_disabled":false,"rental_uris":{"android":"levelo://app?vid=29c8859c-b7c3-408e-aa83-fb6a1aa0968c","ios":"levelo://app?vid=29c8859c-b7c3-408e-aa83-fb6a1aa0968c"},"vehicle_type_id":"4","last_reported":1747142743,"current_range_meters":11600,"station_id":"ce4bhlp2rcd13ifvqgjg","pricing_plan_id":"cebpf4jnsgd1na2vs0mg"},{"bike_id":"a6e0fe84-1666-45ce-a69a-b61c3c8e9163","system_id":"levelo_inurba_marseille","lat":43.21193,"lon":5.35071,"is_reserved":false,"is_disabled":false,"rental_uris":{"android":"levelo://app?vid=a6e0fe84-1666-45ce-a69a-b61c3c8e9163","ios":"levelo://app?vid=a6e0fe84-1666-45ce-a69a-b61c3c8e9163"},"vehicle_type_id":"4","last_reported":1747142743,"current_range_meters":11600,"station_id":"st_cvj6sg6p6f1abm77japg","pricing_plan_id":"cebpf4jnsgd1na2vs0mg"},{"bike_id":"a9c062e9-1789-4af6-83fa-579146bedd02","system_id":"levelo_inurba_marseille","lat":43.30545,"lon":5.36555,"is_reserved":false,"is_disabled":false,"rental_uris":{"android":"levelo://app?vid=a9c062e9-1789-4af6-83fa-579146bedd02","ios":"levelo://app?vid=a9c062e9-1789-4af6-83fa-579146bedd02"},"vehicle_type_id":"4","last_reported":1747142743,"current_range_meters":11600,"station_id":"ce4bgs12rcd13ifvqcag","pricing_plan_id":"cebpf4jnsgd1na2vs0mg"},{"bike_id":"b196a7c2-ea26-4b9a-99fe-6e3562b7fc13","system_id":"levelo_inurba_marseille","lat":43.30599,"lon":5.36531,"is_reserved":false,"is_disabled":false,"rental_uris":{"android":"levelo://app?vid=b196a7c2-ea26-4b9a-99fe-6e3562b7fc13","ios":"levelo://app?vid=b196a7c2-ea26-4b9a-99fe-6e3562b7fc13"},"vehicle_type_id":"4","last_reported":1747142743,"current_range_meters":11600,"station_id":"ce4bgs12rcd13ifvqcag","pricing_plan_id":"cebpf4jnsgd1na2vs0mg"},{"bike_id":"0c195a18-1742-45fb-bb9d-cb3c99fc3eb4","system_id":"levelo_inurba_marseille","lat":43.27623,"lon":5.36111,"is_reserved":false,"is_disabled":false,"rental_uris":{"android":"levelo://app?vid=0c195a18-1742-45fb-bb9d-cb3c99fc3eb4","ios":"levelo://app?vid=0c195a18-1742-45fb-bb9d-cb3c99fc3eb4"},"vehicle_type_id":"4","last_reported":1747142743,"current_range_meters":12000,"station_id":"ce4bgj92rcd13ifvqbe0","pricing_plan_id":"cebpf4jnsgd1na2vs0mg"},{"bike_id":"de1ebfc2-bb52-4103-a3ba-b707b2d897c6","system_id":"levelo_inurba_marseille","lat":43.30531,"lon":5.3653,"is_reserved":false,"is_disabled":false,"rental_uris":{"android":"levelo://app?vid=de1ebfc2-bb52-4103-a3ba-b707b2d897c6","ios":"levelo://app?vid=de1ebfc2-bb52-4103-a3ba-b707b2d897c6"},"vehicle_type_id":"4","last_reported":1747142743,"current_range_meters":12000,"station_id":"ce4bgs12rcd13ifvqcag","pricing_plan_id":"cebpf4jnsgd1na2vs0mg"},{"bike_id":"61f6e22b-9079-4b76-b07a-883bcc5ebd55","system_id":"levelo_inurba_marseille","lat":43.30188,"lon":5.36626,"is_reserved":false,"is_disabled":false,"rental_uris":{"android":"levelo://app?vid=61f6e22b-9079-4b76-b07a-883bcc5ebd55","ios":"levelo://app?vid=61f6e22b-9079-4b76-b07a-883bcc5ebd55"},"vehicle_type_id":"4","last_reported":1747142743,"current_range_meters":12000,"station_id":"ce4bgrh2rcd13ifvqc8g","pricing_plan_id":"cebpf4jnsgd1na2vs0mg"},{"bike_id":"c23bb007-b287-43e2-b74e-65a7794cd401","system_id":"levelo_inurba_marseille","lat":43.30549,"lon":5.36508,"is_reserved":false,"is_disabled":false,"rental_uris":{"android":"levelo://app?vid=c23bb007-b287-43e2-b74e-65a7794cd401","ios":"levelo://app?vid=c23bb007-b287-43e2-b74e-65a7794cd401"},"vehicle_type_id":"4","last_reported":1747142743,"current_range_meters":12000,"station_id":"ce4bgs12rcd13ifvqcag","pricing_plan_id":"cebpf4jnsgd1na2vs0mg"},{"bike_id":"8231946d-d59e-4ad5-8548-12b982baa2ae","system_id":"levelo_inurba_marseille","lat":43.32538,"lon":5.41427,"is_reserved":false,"is_disabled":false,"rental_uris":{"android":"levelo://app?vid=8231946d-d59e-4ad5-8548-12b982baa2ae","ios":"levelo://app?vid=8231946d-d59e-4ad5-8548-12b982baa2ae"},"vehicle_type_id":"4","last_reported":1747142743,"current_range_meters":12000,"station_id":"","pricing_plan_id":"cebpf4jnsgd1na2vs0mg"},{"bike_id":"4b6986ae-8487-4332-8a02-e84a9b1081bf","system_id":"levelo_inurba_marseille","lat":43.23187,"lon":5.40001,"is_reserved":false,"is_disabled":false,"rental_uris":{"android":"levelo://app?vid=4b6986ae-8487-4332-8a02-e84a9b1081bf","ios":"levelo://app?vid=4b6986ae-8487-4332-8a02-e84a9b1081bf"},"vehicle_type_id":"4","last_reported":1747142743,"current_range_meters":12000,"station_id":"ce4bhn12rcd13ifvqgqg","pricing_plan_id":"cebpf4jnsgd1na2vs0mg"},{"bike_id":"e81cd155-96d3-45fe-8ac0-7b18868fbcf7","system_id":"levelo_inurba_marseille","lat":43.29614,"lon":5.37158,"is_reserved":false,"is_disabled":false,"rental_uris":{"android":"levelo://app?vid=e81cd155-96d3-45fe-8ac0-7b18868fbcf7","ios":"levelo://app?vid=e81cd155-96d3-45fe-8ac0-7b18868fbcf7"},"vehicle_type_id":"4","last_reported":1747142743,"current_range_meters":12000,"station_id":"ce4bgnh2rcd13ifvqc0g","pricing_plan_id":"cebpf4jnsgd1na2vs0mg"},{"bike_id":"5c559fd4-845d-4c69-ba5d-10647e7455b4","system_id":"levelo_inurba_marseille","lat":43.29796,"lon":5.38092,"is_reserved":false,"is_disabled":false,"rental_uris":{"android":"levelo://app?vid=5c559fd4-845d-4c69-ba5d-10647e7455b4","ios":"levelo://app?vid=5c559fd4-845d-4c69-ba5d-10647e7455b4"},"vehicle_type_id":"4","last_reported":1747142743,"current_range_meters":12000,"station_id":"ce4bgip2rcd13ifvqbb0","pricing_plan_id":"cebpf4jnsgd1na2vs0mg"},{"bike_id":"5a0d08fc-2f36-4d33-b6bc-20e780aeb750","system_id":"levelo_inurba_marseille","lat":43.278393,"lon":5.392003,"is_reserved":false,"is_disabled":false,"rental_uris":{"android":"levelo://app?vid=5a0d08fc-2f36-4d33-b6bc-20e780aeb750","ios":"levelo://app?vid=5a0d08fc-2f36-4d33-b6bc-20e780aeb750"},"vehicle_type_id":"4","last_reported":1747142743,"current_range_meters":12400,"station_id":"ce4bhjp2rcd13ifvqga0","pricing_plan_id":"cebpf4jnsgd1na2vs0mg"},{"bike_id":"f30fca62-1b8a-4948-a175-0d127d6beac3","system_id":"levelo_inurba_marseille","lat":43.26808,"lon":5.40265,"is_reserved":false,"is_disabled":false,"rental_uris":{"android":"levelo://app?vid=f30fca62-1b8a-4948-a175-0d127d6beac3","ios":"levelo://app?vid=f30fca62-1b8a-4948-a175-0d127d6beac3"},"vehicle_type_id":"4","last_reported":1747142743,"current_range_meters":12800,"station_id":"ce501612rcd8frsf0b60","pricing_plan_id":"cebpf4jnsgd1na2vs0mg"},{"bike_id":"be9d7173-259c-4135-9d9c-8c986fb02ebe","system_id":"levelo_inurba_marseille","lat":43.292874,"lon":5.375012,"is_reserved":false,"is_disabled":false,"rental_uris":{"android":"levelo://app?vid=be9d7173-259c-4135-9d9c-8c986fb02ebe","ios":"levelo://app?vid=be9d7173-259c-4135-9d9c-8c986fb02ebe"},"vehicle_type_id":"4","last_reported":1747142743,"current_range_meters":12400,"station_id":"ce4bgk12rcd13ifvqbj0","pricing_plan_id":"cebpf4jnsgd1na2vs0mg"},{"bike_id":"5e49e38b-4267-4f5e-843f-a25a16e8d389","system_id":"levelo_inurba_marseille","lat":43.29963,"lon":5.38489,"is_reserved":false,"is_disabled":false,"rental_uris":{"android":"levelo://app?vid=5e49e38b-4267-4f5e-843f-a25a16e8d389","ios":"levelo://app?vid=5e49e38b-4267-4f5e-843f-a25a16e8d389"},"vehicle_type_id":"4","last_reported":1747142743,"current_range_meters":13600,"station_id":"ce4bgj92rcd13ifvqbd0","pricing_plan_id":"cebpf4jnsgd1na2vs0mg"},{"bike_id":"6a284704-4a41-4845-bab1-4078e80da025","system_id":"levelo_inurba_marseille","lat":43.25115,"lon":5.40346,"is_reserved":false,"is_disabled":false,"rental_uris":{"android":"levelo://app?vid=6a284704-4a41-4845-bab1-4078e80da025","ios":"levelo://app?vid=6a284704-4a41-4845-bab1-4078e80da025"},"vehicle_type_id":"4","last_reported":1747142743,"current_range_meters":13600,"station_id":"ce4bhlh2rcd13ifvqgig","pricing_plan_id":"cebpf4jnsgd1na2vs0mg"},{"bike_id":"f9732a28-e4c6-43c2-8d80-e6fc960fe684","system_id":"levelo_inurba_marseille","lat":43.24166,"lon":5.36401,"is_reserved":false,"is_disabled":false,"rental_uris":{"android":"levelo://app?vid=f9732a28-e4c6-43c2-8d80-e6fc960fe684","ios":"levelo://app?vid=f9732a28-e4c6-43c2-8d80-e6fc960fe684"},"vehicle_type_id":"4","last_reported":1747142743,"current_range_meters":14000,"station_id":"cpo36qri1sfpv3e86is0","pricing_plan_id":"cebpf4jnsgd1na2vs0mg"},{"bike_id":"af482389-e24e-4d94-84c5-c14774258823","system_id":"levelo_inurba_marseille","lat":43.30529,"lon":5.36535,"is_reserved":false,"is_disabled":false,"rental_uris":{"android":"levelo://app?vid=af482389-e24e-4d94-84c5-c14774258823","ios":"levelo://app?vid=af482389-e24e-4d94-84c5-c14774258823"},"vehicle_type_id":"4","last_reported":1747142743,"current_range_meters":14000,"station_id":"ce4bgs12rcd13ifvqcag","pricing_plan_id":"cebpf4jnsgd1na2vs0mg"},{"bike_id":"39a41b68-d2f4-479b-be42-023c7222af7e","system_id":"levelo_inurba_marseille","lat":43.28489,"lon":5.38412,"is_reserved":false,"is_disabled":false,"rental_uris":{"android":"levelo://app?vid=39a41b68-d2f4-479b-be42-023c7222af7e","ios":"levelo://app?vid=39a41b68-d2f4-479b-be42-023c7222af7e"},"vehicle_type_id":"4","last_reported":1747142743,"current_range_meters":14000,"station_id":"ce4bh512rcd13ifvqe3g","pricing_plan_id":"cebpf4jnsgd1na2vs0mg"},{"bike_id":"d0a2d10c-49ed-4335-aa24-beb021406c92","system_id":"levelo_inurba_marseille","lat":43.23618,"lon":5.362061,"is_reserved":false,"is_disabled":false,"rental_uris":{"android":"levelo://app?vid=d0a2d10c-49ed-4335-aa24-beb021406c92","ios":"levelo://app?vid=d0a2d10c-49ed-4335-aa24-beb021406c92"},"vehicle_type_id":"4","last_reported":1747142743,"current_range_meters":14400,"station_id":"ce4bhbh2rcd13ifvqeo0","pricing_plan_id":"cebpf4jnsgd1na2vs0mg"},{"bike_id":"233fcc44-eba3-43df-b7c2-6ef09c4617de","system_id":"levelo_inurba_marseille","lat":43.30551,"lon":5.36525,"is_reserved":false,"is_disabled":false,"rental_uris":{"android":"levelo://app?vid=233fcc44-eba3-43df-b7c2-6ef09c4617de","ios":"levelo://app?vid=233fcc44-eba3-43df-b7c2-6ef09c4617de"},"vehicle_type_id":"4","last_reported":1747142743,"current_range_meters":14400,"station_id":"ce4bgs12rcd13ifvqcag","pricing_plan_id":"cebpf4jnsgd1na2vs0mg"},{"bike_id":"c5c4b2c1-cd58-4ee4-b557-ef4a1affea9a","system_id":"levelo_inurba_marseille","lat":43.28278,"lon":5.35085,"is_reserved":false,"is_disabled":false,"rental_uris":{"android":"levelo://app?vid=c5c4b2c1-cd58-4ee4-b557-ef4a1affea9a","ios":"levelo://app?vid=c5c4b2c1-cd58-4ee4-b557-ef4a1affea9a"},"vehicle_type_id":"4","last_reported":1747142743,"current_range_meters":14400,"station_id":"ce4bhbp2rcd13ifvqerg","pricing_plan_id":"cebpf4jnsgd1na2vs0mg"},{"bike_id":"852d46e3-da07-4d0f-9e3c-3e3f009d0763","system_id":"levelo_inurba_marseille","lat":43.2862,"lon":5.35099,"is_reserved":false,"is_disabled":false,"rental_uris":{"android":"levelo://app?vid=852d46e3-da07-4d0f-9e3c-3e3f009d0763","ios":"levelo://app?vid=852d46e3-da07-4d0f-9e3c-3e3f009d0763"},"vehicle_type_id":"4","last_reported":1747142743,"current_range_meters":14400,"station_id":"ce4bhch2rcd13ifvqeug","pricing_plan_id":"cebpf4jnsgd1na2vs0mg"},{"bike_id":"6849816a-14a2-4736-aae2-e7373738bc80","system_id":"levelo_inurba_marseille","lat":43.25945,"lon":5.40911,"is_reserved":false,"is_disabled":false,"rental_uris":{"android":"levelo://app?vid=6849816a-14a2-4736-aae2-e7373738bc80","ios":"levelo://app?vid=6849816a-14a2-4736-aae2-e7373738bc80"},"vehicle_type_id":"4","last_reported":1747142743,"current_range_meters":14800,"station_id":"ce4bhm92rcd13ifvqglg","pricing_plan_id":"cebpf4jnsgd1na2vs0mg"},{"bike_id":"d98623c0-cd1b-431b-a39e-a6ba12d00114","system_id":"levelo_inurba_marseille","lat":43.26702,"lon":5.38235,"is_reserved":false,"is_disabled":false,"rental_uris":{"android":"levelo://app?vid=d98623c0-cd1b-431b-a39e-a6ba12d00114","ios":"levelo://app?vid=d98623c0-cd1b-431b-a39e-a6ba12d00114"},"vehicle_type_id":"4","last_reported":1747142743,"current_range_meters":14800,"station_id":"ce4bhg92rcd13ifvqf90","pricing_plan_id":"cebpf4jnsgd1na2vs0mg"},{"bike_id":"c8747c89-b35f-4348-87e6-c594a932c995","system_id":"levelo_inurba_marseille","lat":43.28422,"lon":5.34991,"is_reserved":false,"is_disabled":false,"rental_uris":{"android":"levelo://app?vid=c8747c89-b35f-4348-87e6-c594a932c995","ios":"levelo://app?vid=c8747c89-b35f-4348-87e6-c594a932c995"},"vehicle_type_id":"4","last_reported":1747142743,"current_range_meters":14800,"station_id":"ce4bhbh2rcd13ifvqepg","pricing_plan_id":"cebpf4jnsgd1na2vs0mg"},{"bike_id":"3dd0c74b-385c-407e-a1ce-89ddb3f05589","system_id":"levelo_inurba_marseille","lat":43.2396,"lon":5.36645,"is_reserved":false,"is_disabled":false,"rental_uris":{"android":"levelo://app?vid=3dd0c74b-385c-407e-a1ce-89ddb3f05589","ios":"levelo://app?vid=3dd0c74b-385c-407e-a1ce-89ddb3f05589"},"vehicle_type_id":"4","last_reported":1747142743,"current_range_meters":15200,"station_id":"ce4bhi12rcd13ifvqfp0","pricing_plan_id":"cebpf4jnsgd1na2vs0mg"},{"bike_id":"5fe85995-ae04-439f-b169-6f869f90558e","system_id":"levelo_inurba_marseille","lat":43.30914,"lon":5.36847,"is_reserved":false,"is_disabled":false,"rental_uris":{"android":"levelo://app?vid=5fe85995-ae04-439f-b169-6f869f90558e","ios":"levelo://app?vid=5fe85995-ae04-439f-b169-6f869f90558e"},"vehicle_type_id":"4","last_reported":1747142743,"current_range_meters":15200,"station_id":"ce4bgn92rcd13ifvqbvg","pricing_plan_id":"cebpf4jnsgd1na2vs0mg"},{"bike_id":"54da364f-ef07-49f2-8101-b31daed61b77","system_id":"levelo_inurba_marseille","lat":43.291984,"lon":5.357985,"is_reserved":false,"is_disabled":false,"rental_uris":{"android":"levelo://app?vid=54da364f-ef07-49f2-8101-b31daed61b77","ios":"levelo://app?vid=54da364f-ef07-49f2-8101-b31daed61b77"},"vehicle_type_id":"4","last_reported":1747142743,"current_range_meters":15200,"station_id":"ce4bgip2rcd13ifvqbb0","pricing_plan_id":"cebpf4jnsgd1na2vs0mg"},{"bike_id":"c7df1b7f-8113-48a7-bf83-7a2771c60483","system_id":"levelo_inurba_marseille","lat":43.28271,"lon":5.3507,"is_reserved":false,"is_disabled":false,"rental_uris":{"android":"levelo://app?vid=c7df1b7f-8113-48a7-bf83-7a2771c60483","ios":"levelo://app?vid=c7df1b7f-8113-48a7-bf83-7a2771c60483"},"vehicle_type_id":"4","last_reported":1747142743,"current_range_meters":15200,"station_id":"ce4bhbp2rcd13ifvqerg","pricing_plan_id":"cebpf4jnsgd1na2vs0mg"},{"bike_id":"12e0d706-8be1-4efd-a787-7bc186ad39b0","system_id":"levelo_inurba_marseille","lat":43.26063,"lon":5.394,"is_reserved":false,"is_disabled":false,"rental_uris":{"android":"levelo://app?vid=12e0d706-8be1-4efd-a787-7bc186ad39b0","ios":"levelo://app?vid=12e0d706-8be1-4efd-a787-7bc186ad39b0"},"vehicle_type_id":"4","last_reported":1747142743,"current_range_meters":15200,"station_id":"ce4bhh92rcd13ifvqfj0","pricing_plan_id":"cebpf4jnsgd1na2vs0mg"},{"bike_id":"d47e0ef5-128e-4c82-8e08-c07c79e20732","system_id":"levelo_inurba_marseille","lat":43.32489,"lon":5.36574,"is_reserved":false,"is_disabled":false,"rental_uris":{"android":"levelo://app?vid=d47e0ef5-128e-4c82-8e08-c07c79e20732","ios":"levelo://app?vid=d47e0ef5-128e-4c82-8e08-c07c79e20732"},"vehicle_type_id":"4","last_reported":1747142743,"current_range_meters":16000,"station_id":"ce4bhs12rcd13ifvqhvg","pricing_plan_id":"cebpf4jnsgd1na2vs0mg"},{"bike_id":"ee95d7b1-23aa-4ba2-8604-c3c7e16b2172","system_id":"levelo_inurba_marseille","lat":43.289133,"lon":5.366528,"is_reserved":false,"is_disabled":false,"rental_uris":{"android":"levelo://app?vid=ee95d7b1-23aa-4ba2-8604-c3c7e16b2172","ios":"levelo://app?vid=ee95d7b1-23aa-4ba2-8604-c3c7e16b2172"},"vehicle_type_id":"4","last_reported":1747142743,"current_range_meters":16000,"station_id":"ce4bhap2rcd13ifvqek0","pricing_plan_id":"cebpf4jnsgd1na2vs0mg"},{"bike_id":"db3606b5-fffc-4542-b660-4154de60e805","system_id":"levelo_inurba_marseille","lat":43.23958,"lon":5.36634,"is_reserved":false,"is_disabled":false,"rental_uris":{"android":"levelo://app?vid=db3606b5-fffc-4542-b660-4154de60e805","ios":"levelo://app?vid=db3606b5-fffc-4542-b660-4154de60e805"},"vehicle_type_id":"4","last_reported":1747142743,"current_range_meters":16000,"station_id":"ce4bhi12rcd13ifvqfp0","pricing_plan_id":"cebpf4jnsgd1na2vs0mg"},{"bike_id":"9dab13b7-297a-4149-81b0-b33c6ba6adca","system_id":"levelo_inurba_marseille","lat":43.2909,"lon":5.38115,"is_reserved":false,"is_disabled":false,"rental_uris":{"android":"levelo://app?vid=9dab13b7-297a-4149-81b0-b33c6ba6adca","ios":"levelo://app?vid=9dab13b7-297a-4149-81b0-b33c6ba6adca"},"vehicle_type_id":"4","last_reported":1747142743,"current_range_meters":16000,"station_id":"ce4bh512rcd13ifvqe2g","pricing_plan_id":"cebpf4jnsgd1na2vs0mg"},{"bike_id":"02d1499b-18b8-4e97-aa09-5f1adb69a9db","system_id":"levelo_inurba_marseille","lat":43.29305,"lon":5.37462,"is_reserved":false,"is_disabled":false,"rental_uris":{"android":"levelo://app?vid=02d1499b-18b8-4e97-aa09-5f1adb69a9db","ios":"levelo://app?vid=02d1499b-18b8-4e97-aa09-5f1adb69a9db"},"vehicle_type_id":"4","last_reported":1747142743,"current_range_meters":16000,"station_id":"ce4bgi12rcd13ifvqb70","pricing_plan_id":"cebpf4jnsgd1na2vs0mg"},{"bike_id":"37307f12-2e72-4509-8295-02f2d9f75c6a","system_id":"levelo_inurba_marseille","lat":43.231964,"lon":5.355541,"is_reserved":false,"is_disabled":false,"rental_uris":{"android":"levelo://app?vid=37307f12-2e72-4509-8295-02f2d9f75c6a","ios":"levelo://app?vid=37307f12-2e72-4509-8295-02f2d9f75c6a"},"vehicle_type_id":"4","last_reported":1747142743,"current_range_meters":16000,"station_id":"ce4bhu92rcd13ifvqi70","pricing_plan_id":"cebpf4jnsgd1na2vs0mg"},{"bike_id":"af7378f2-5574-4580-8919-9220d94ad1cc","system_id":"levelo_inurba_marseille","lat":43.23203,"lon":5.35551,"is_reserved":false,"is_disabled":false,"rental_uris":{"android":"levelo://app?vid=af7378f2-5574-4580-8919-9220d94ad1cc","ios":"levelo://app?vid=af7378f2-5574-4580-8919-9220d94ad1cc"},"vehicle_type_id":"4","last_reported":1747142743,"current_range_meters":16000,"station_id":"ce4bhu92rcd13ifvqi70","pricing_plan_id":"cebpf4jnsgd1na2vs0mg"},{"bike_id":"42cfaabc-d4d4-405c-ab84-52ce3ce3032a","system_id":"levelo_inurba_marseille","lat":43.31686,"lon":5.43593,"is_reserved":false,"is_disabled":false,"rental_uris":{"android":"levelo://app?vid=42cfaabc-d4d4-405c-ab84-52ce3ce3032a","ios":"levelo://app?vid=42cfaabc-d4d4-405c-ab84-52ce3ce3032a"},"vehicle_type_id":"4","last_reported":1747142743,"current_range_meters":16000,"station_id":"","pricing_plan_id":"cebpf4jnsgd1na2vs0mg"},{"bike_id":"7f6895be-c975-43e2-bd64-db08213bb035","system_id":"levelo_inurba_marseille","lat":43.287095,"lon":5.379335,"is_reserved":false,"is_disabled":false,"rental_uris":{"android":"levelo://app?vid=7f6895be-c975-43e2-bd64-db08213bb035","ios":"levelo://app?vid=7f6895be-c975-43e2-bd64-db08213bb035"},"vehicle_type_id":"4","last_reported":1747142743,"current_range_meters":16400,"station_id":"ce4bh9p2rcd13ifvqec0","pricing_plan_id":"cebpf4jnsgd1na2vs0mg"},{"bike_id":"bf38503f-eba0-4329-87c9-c3e16cdee1ca","system_id":"levelo_inurba_marseille","lat":43.30789,"lon":5.38157,"is_reserved":false,"is_disabled":false,"rental_uris":{"android":"levelo://app?vid=bf38503f-eba0-4329-87c9-c3e16cdee1ca","ios":"levelo://app?vid=bf38503f-eba0-4329-87c9-c3e16cdee1ca"},"vehicle_type_id":"4","last_reported":1747142743,"current_range_meters":16800,"station_id":"ce4bgt12rcd13ifvqce0","pricing_plan_id":"cebpf4jnsgd1na2vs0mg"},{"bike_id":"c8742d51-26c3-4dd1-aa7a-7e92aedabcbb","system_id":"levelo_inurba_marseille","lat":43.29043,"lon":5.35916,"is_reserved":false,"is_disabled":false,"rental_uris":{"android":"levelo://app?vid=c8742d51-26c3-4dd1-aa7a-7e92aedabcbb","ios":"levelo://app?vid=c8742d51-26c3-4dd1-aa7a-7e92aedabcbb"},"vehicle_type_id":"4","last_reported":1747142743,"current_range_meters":16800,"station_id":"ce4bha92rcd13ifvqeg0","pricing_plan_id":"cebpf4jnsgd1na2vs0mg"},{"bike_id":"dd07e3e0-ae84-499b-aec4-c483f7ba7a54","system_id":"levelo_inurba_marseille","lat":43.27495,"lon":5.42467,"is_reserved":false,"is_disabled":false,"rental_uris":{"android":"levelo://app?vid=dd07e3e0-ae84-499b-aec4-c483f7ba7a54","ios":"levelo://app?vid=dd07e3e0-ae84-499b-aec4-c483f7ba7a54"},"vehicle_type_id":"4","last_reported":1747142743,"current_range_meters":16800,"station_id":"ce4bhn92rcd13ifvqgrg","pricing_plan_id":"cebpf4jnsgd1na2vs0mg"},{"bike_id":"e3c53fd8-ed88-42a8-b7f9-e3a08e3724bf","system_id":"levelo_inurba_marseille","lat":43.29971,"lon":5.38494,"is_reserved":false,"is_disabled":false,"rental_uris":{"android":"levelo://app?vid=e3c53fd8-ed88-42a8-b7f9-e3a08e3724bf","ios":"levelo://app?vid=e3c53fd8-ed88-42a8-b7f9-e3a08e3724bf"},"vehicle_type_id":"4","last_reported":1747142743,"current_range_meters":16400,"station_id":"ce4bgj92rcd13ifvqbd0","pricing_plan_id":"cebpf4jnsgd1na2vs0mg"},{"bike_id":"9ab41883-70b0-49d6-a562-3e4aa19819e8","system_id":"levelo_inurba_marseille","lat":43.30917,"lon":5.36842,"is_reserved":false,"is_disabled":false,"rental_uris":{"android":"levelo://app?vid=9ab41883-70b0-49d6-a562-3e4aa19819e8","ios":"levelo://app?vid=9ab41883-70b0-49d6-a562-3e4aa19819e8"},"vehicle_type_id":"4","last_reported":1747142743,"current_range_meters":16800,"station_id":"ce4bgn92rcd13ifvqbvg","pricing_plan_id":"cebpf4jnsgd1na2vs0mg"},{"bike_id":"503a61d3-6165-4e8f-b681-1e471f81fd76","system_id":"levelo_inurba_marseille","lat":43.28477,"lon":5.38425,"is_reserved":false,"is_disabled":false,"rental_uris":{"android":"levelo://app?vid=503a61d3-6165-4e8f-b681-1e471f81fd76","ios":"levelo://app?vid=503a61d3-6165-4e8f-b681-1e471f81fd76"},"vehicle_type_id":"4","last_reported":1747142743,"current_range_meters":17200,"station_id":"ce4bh512rcd13ifvqe3g","pricing_plan_id":"cebpf4jnsgd1na2vs0mg"},{"bike_id":"9d76660f-c284-49a2-8765-48337aa51471","system_id":"levelo_inurba_marseille","lat":43.32112,"lon":5.36779,"is_reserved":false,"is_disabled":false,"rental_uris":{"android":"levelo://app?vid=9d76660f-c284-49a2-8765-48337aa51471","ios":"levelo://app?vid=9d76660f-c284-49a2-8765-48337aa51471"},"vehicle_type_id":"4","last_reported":1747142743,"current_range_meters":17200,"station_id":"ce4bhrh2rcd13ifvqhug","pricing_plan_id":"cebpf4jnsgd1na2vs0mg"},{"bike_id":"fafe9230-73f3-4f82-9b35-135a8da5320c","system_id":"levelo_inurba_marseille","lat":43.30545,"lon":5.36527,"is_reserved":false,"is_disabled":false,"rental_uris":{"android":"levelo://app?vid=fafe9230-73f3-4f82-9b35-135a8da5320c","ios":"levelo://app?vid=fafe9230-73f3-4f82-9b35-135a8da5320c"},"vehicle_type_id":"4","last_reported":1747142743,"current_range_meters":17200,"station_id":"ce4bgs12rcd13ifvqcag","pricing_plan_id":"cebpf4jnsgd1na2vs0mg"},{"bike_id":"a929493b-2052-4f5c-a4b3-cf0c791fb898","system_id":"levelo_inurba_marseille","lat":43.31121,"lon":5.37764,"is_reserved":false,"is_disabled":false,"rental_uris":{"android":"levelo://app?vid=a929493b-2052-4f5c-a4b3-cf0c791fb898","ios":"levelo://app?vid=a929493b-2052-4f5c-a4b3-cf0c791fb898"},"vehicle_type_id":"4","last_reported":1747142743,"current_range_meters":17200,"station_id":"ce4bgt92rcd13ifvqcg0","pricing_plan_id":"cebpf4jnsgd1na2vs0mg"},{"bike_id":"5f1406e1-516a-458a-b395-e6434d775900","system_id":"levelo_inurba_marseille","lat":43.28446,"lon":5.3919,"is_reserved":false,"is_disabled":false,"rental_uris":{"android":"levelo://app?vid=5f1406e1-516a-458a-b395-e6434d775900","ios":"levelo://app?vid=5f1406e1-516a-458a-b395-e6434d775900"},"vehicle_type_id":"4","last_reported":1747142743,"current_range_meters":17600,"station_id":"ce4bhoh2rcd13ifvqh5g","pricing_plan_id":"cebpf4jnsgd1na2vs0mg"},{"bike_id":"ae7fb61a-f2a7-4544-a462-03a9ff58f1cd","system_id":"levelo_inurba_marseille","lat":43.311187,"lon":5.377786,"is_reserved":false,"is_disabled":false,"rental_uris":{"android":"levelo://app?vid=ae7fb61a-f2a7-4544-a462-03a9ff58f1cd","ios":"levelo://app?vid=ae7fb61a-f2a7-4544-a462-03a9ff58f1cd"},"vehicle_type_id":"4","last_reported":1747142743,"current_range_meters":17600,"station_id":"ce4bgt92rcd13ifvqcg0","pricing_plan_id":"cebpf4jnsgd1na2vs0mg"},{"bike_id":"0c893fb7-8626-4706-85bf-f404b871dea5","system_id":"levelo_inurba_marseille","lat":43.28125,"lon":5.44578,"is_reserved":false,"is_disabled":false,"rental_uris":{"android":"levelo://app?vid=0c893fb7-8626-4706-85bf-f404b871dea5","ios":"levelo://app?vid=0c893fb7-8626-4706-85bf-f404b871dea5"},"vehicle_type_id":"4","last_reported":1747142743,"current_range_meters":17600,"station_id":"","pricing_plan_id":"cebpf4jnsgd1na2vs0mg"},{"bike_id":"37e07d17-1b13-4975-9957-ebc4c45c8580","system_id":"levelo_inurba_marseille","lat":43.27496,"lon":5.42447,"is_reserved":false,"is_disabled":false,"rental_uris":{"android":"levelo://app?vid=37e07d17-1b13-4975-9957-ebc4c45c8580","ios":"levelo://app?vid=37e07d17-1b13-4975-9957-ebc4c45c8580"},"vehicle_type_id":"4","last_reported":1747142743,"current_range_meters":17600,"station_id":"ce4bhn92rcd13ifvqgrg","pricing_plan_id":"cebpf4jnsgd1na2vs0mg"},{"bike_id":"e1398d2e-b20a-4dd0-a762-35580e0632b4","system_id":"levelo_inurba_marseille","lat":43.312244,"lon":5.368628,"is_reserved":false,"is_disabled":false,"rental_uris":{"android":"levelo://app?vid=e1398d2e-b20a-4dd0-a762-35580e0632b4","ios":"levelo://app?vid=e1398d2e-b20a-4dd0-a762-35580e0632b4"},"vehicle_type_id":"4","last_reported":1747142743,"current_range_meters":17600,"station_id":"ce4bgl92rcd13ifvqbq0","pricing_plan_id":"cebpf4jnsgd1na2vs0mg"},{"bike_id":"20615a2b-4d41-4ccd-84f5-69a7a2f3f4ab","system_id":"levelo_inurba_marseille","lat":43.29006,"lon":5.35614,"is_reserved":false,"is_disabled":false,"rental_uris":{"android":"levelo://app?vid=20615a2b-4d41-4ccd-84f5-69a7a2f3f4ab","ios":"levelo://app?vid=20615a2b-4d41-4ccd-84f5-69a7a2f3f4ab"},"vehicle_type_id":"4","last_reported":1747142743,"current_range_meters":17600,"station_id":"ce4bhb92rcd13ifvqen0","pricing_plan_id":"cebpf4jnsgd1na2vs0mg"},{"bike_id":"bd88d41b-f29d-44c2-8d5d-19a0735af1da","system_id":"levelo_inurba_marseille","lat":43.25937,"lon":5.40893,"is_reserved":false,"is_disabled":false,"rental_uris":{"android":"levelo://app?vid=bd88d41b-f29d-44c2-8d5d-19a0735af1da","ios":"levelo://app?vid=bd88d41b-f29d-44c2-8d5d-19a0735af1da"},"vehicle_type_id":"4","last_reported":1747142743,"current_range_meters":17600,"station_id":"ce4bhm92rcd13ifvqglg","pricing_plan_id":"cebpf4jnsgd1na2vs0mg"},{"bike_id":"0e98889c-e9b4-454b-8aa8-9d80967e050f","system_id":"levelo_inurba_marseille","lat":43.23971,"lon":5.36671,"is_reserved":false,"is_disabled":false,"rental_uris":{"android":"levelo://app?vid=0e98889c-e9b4-454b-8aa8-9d80967e050f","ios":"levelo://app?vid=0e98889c-e9b4-454b-8aa8-9d80967e050f"},"vehicle_type_id":"4","last_reported":1747142743,"current_range_meters":18000,"station_id":"ce4bhi12rcd13ifvqfp0","pricing_plan_id":"cebpf4jnsgd1na2vs0mg"},{"bike_id":"1e297e0e-a907-489c-9a22-1dfb89bfb64f","system_id":"levelo_inurba_marseille","lat":43.29244,"lon":5.36419,"is_reserved":false,"is_disabled":false,"rental_uris":{"android":"levelo://app?vid=1e297e0e-a907-489c-9a22-1dfb89bfb64f","ios":"levelo://app?vid=1e297e0e-a907-489c-9a22-1dfb89bfb64f"},"vehicle_type_id":"4","last_reported":1747142743,"current_range_meters":18000,"station_id":"","pricing_plan_id":"cebpf4jnsgd1na2vs0mg"},{"bike_id":"90a28b7f-461f-4e9c-a457-bbbd6c1126c9","system_id":"levelo_inurba_marseille","lat":43.32339,"lon":5.40625,"is_reserved":false,"is_disabled":false,"rental_uris":{"android":"levelo://app?vid=90a28b7f-461f-4e9c-a457-bbbd6c1126c9","ios":"levelo://app?vid=90a28b7f-461f-4e9c-a457-bbbd6c1126c9"},"vehicle_type_id":"4","last_reported":1747142743,"current_range_meters":18000,"station_id":"ce4bhq92rcd13ifvqhjg","pricing_plan_id":"cebpf4jnsgd1na2vs0mg"},{"bike_id":"9e7ebd91-af82-4549-976b-c088b359c00b","system_id":"levelo_inurba_marseille","lat":43.32123,"lon":5.3682,"is_reserved":false,"is_disabled":false,"rental_uris":{"android":"levelo://app?vid=9e7ebd91-af82-4549-976b-c088b359c00b","ios":"levelo://app?vid=9e7ebd91-af82-4549-976b-c088b359c00b"},"vehicle_type_id":"4","last_reported":1747142743,"current_range_meters":18000,"station_id":"","pricing_plan_id":"cebpf4jnsgd1na2vs0mg"},{"bike_id":"eeb882a8-fe36-4d5c-a964-fc0d0f965523","system_id":"levelo_inurba_marseille","lat":43.30692,"lon":5.36694,"is_reserved":false,"is_disabled":false,"rental_uris":{"android":"levelo://app?vid=eeb882a8-fe36-4d5c-a964-fc0d0f965523","ios":"levelo://app?vid=eeb882a8-fe36-4d5c-a964-fc0d0f965523"},"vehicle_type_id":"4","last_reported":1747142743,"current_range_meters":18000,"station_id":"","pricing_plan_id":"cebpf4jnsgd1na2vs0mg"},{"bike_id":"581a76c6-406f-436c-80cf-424046378536","system_id":"levelo_inurba_marseille","lat":43.23142,"lon":5.43735,"is_reserved":false,"is_disabled":false,"rental_uris":{"android":"levelo://app?vid=581a76c6-406f-436c-80cf-424046378536","ios":"levelo://app?vid=581a76c6-406f-436c-80cf-424046378536"},"vehicle_type_id":"4","last_reported":1747142743,"current_range_meters":18000,"station_id":"ce4bhmp2rcd13ifvqgog","pricing_plan_id":"cebpf4jnsgd1na2vs0mg"},{"bike_id":"75f8dca5-ebbb-4231-a4a7-da615667c2f2","system_id":"levelo_inurba_marseille","lat":43.30548,"lon":5.36538,"is_reserved":false,"is_disabled":false,"rental_uris":{"android":"levelo://app?vid=75f8dca5-ebbb-4231-a4a7-da615667c2f2","ios":"levelo://app?vid=75f8dca5-ebbb-4231-a4a7-da615667c2f2"},"vehicle_type_id":"4","last_reported":1747142743,"current_range_meters":18800,"station_id":"ce4bgs12rcd13ifvqcag","pricing_plan_id":"cebpf4jnsgd1na2vs0mg"},{"bike_id":"557d6431-31e7-441a-b219-25a560bcf84a","system_id":"levelo_inurba_marseille","lat":43.24083,"lon":5.3776,"is_reserved":false,"is_disabled":false,"rental_uris":{"android":"levelo://app?vid=557d6431-31e7-441a-b219-25a560bcf84a","ios":"levelo://app?vid=557d6431-31e7-441a-b219-25a560bcf84a"},"vehicle_type_id":"4","last_reported":1747142743,"current_range_meters":18800,"station_id":"ce4bhnp2rcd13ifvqgvg","pricing_plan_id":"cebpf4jnsgd1na2vs0mg"},{"bike_id":"b96d0f09-8f6f-4b8f-80b0-b74402332574","system_id":"levelo_inurba_marseille","lat":43.23961,"lon":5.36621,"is_reserved":false,"is_disabled":false,"rental_uris":{"android":"levelo://app?vid=b96d0f09-8f6f-4b8f-80b0-b74402332574","ios":"levelo://app?vid=b96d0f09-8f6f-4b8f-80b0-b74402332574"},"vehicle_type_id":"4","last_reported":1747142743,"current_range_meters":18800,"station_id":"ce4bhi12rcd13ifvqfp0","pricing_plan_id":"cebpf4jnsgd1na2vs0mg"},{"bike_id":"07e7b709-9450-420a-81d6-d1fed616c9ed","system_id":"levelo_inurba_marseille","lat":43.28415,"lon":5.375057,"is_reserved":false,"is_disabled":false,"rental_uris":{"android":"levelo://app?vid=07e7b709-9450-420a-81d6-d1fed616c9ed","ios":"levelo://app?vid=07e7b709-9450-420a-81d6-d1fed616c9ed"},"vehicle_type_id":"4","last_reported":1747142743,"current_range_meters":18800,"station_id":"ce4bh412rcd13ifvqds0","pricing_plan_id":"cebpf4jnsgd1na2vs0mg"},{"bike_id":"549aaac2-2861-4d0a-93d6-d169b4555aa9","system_id":"levelo_inurba_marseille","lat":43.2958,"lon":5.37522,"is_reserved":false,"is_disabled":false,"rental_uris":{"android":"levelo://app?vid=549aaac2-2861-4d0a-93d6-d169b4555aa9","ios":"levelo://app?vid=549aaac2-2861-4d0a-93d6-d169b4555aa9"},"vehicle_type_id":"4","last_reported":1747142743,"current_range_meters":18800,"station_id":"ce4bgh92rcd13ifvqb50","pricing_plan_id":"cebpf4jnsgd1na2vs0mg"},{"bike_id":"e64ccb21-b07c-4dc1-a129-1e19c593a376","system_id":"levelo_inurba_marseille","lat":43.23139,"lon":5.43715,"is_reserved":false,"is_disabled":false,"rental_uris":{"android":"levelo://app?vid=e64ccb21-b07c-4dc1-a129-1e19c593a376","ios":"levelo://app?vid=e64ccb21-b07c-4dc1-a129-1e19c593a376"},"vehicle_type_id":"4","last_reported":1747142743,"current_range_meters":18800,"station_id":"ce4bhmp2rcd13ifvqgog","pricing_plan_id":"cebpf4jnsgd1na2vs0mg"},{"bike_id":"c19933f5-fbb8-45ea-a77d-13e1a6ea394c","system_id":"levelo_inurba_marseille","lat":43.28376,"lon":5.3862,"is_reserved":false,"is_disabled":false,"rental_uris":{"android":"levelo://app?vid=c19933f5-fbb8-45ea-a77d-13e1a6ea394c","ios":"levelo://app?vid=c19933f5-fbb8-45ea-a77d-13e1a6ea394c"},"vehicle_type_id":"4","last_reported":1747142743,"current_range_meters":18800,"station_id":"ce4bh492rcd13ifvqdvg","pricing_plan_id":"cebpf4jnsgd1na2vs0mg"},{"bike_id":"62816de1-5e9c-4682-891d-137eeaea562b","system_id":"levelo_inurba_marseille","lat":43.27389,"lon":5.3625,"is_reserved":false,"is_disabled":false,"rental_uris":{"android":"levelo://app?vid=62816de1-5e9c-4682-891d-137eeaea562b","ios":"levelo://app?vid=62816de1-5e9c-4682-891d-137eeaea562b"},"vehicle_type_id":"4","last_reported":1747142743,"current_range_meters":18800,"station_id":"ce4bhbh2rcd13ifvqeo0","pricing_plan_id":"cebpf4jnsgd1na2vs0mg"},{"bike_id":"04861429-1928-4e73-b78f-6f4da11231a1","system_id":"levelo_inurba_marseille","lat":43.26194,"lon":5.37448,"is_reserved":false,"is_disabled":false,"rental_uris":{"android":"levelo://app?vid=04861429-1928-4e73-b78f-6f4da11231a1","ios":"levelo://app?vid=04861429-1928-4e73-b78f-6f4da11231a1"},"vehicle_type_id":"4","last_reported":1747142743,"current_range_meters":19200,"station_id":"ce4bhgp2rcd13ifvqfc0","pricing_plan_id":"cebpf4jnsgd1na2vs0mg"},{"bike_id":"6e3094ae-584b-4b23-8747-809792d486b5","system_id":"levelo_inurba_marseille","lat":43.21209,"lon":5.35101,"is_reserved":false,"is_disabled":false,"rental_uris":{"android":"levelo://app?vid=6e3094ae-584b-4b23-8747-809792d486b5","ios":"levelo://app?vid=6e3094ae-584b-4b23-8747-809792d486b5"},"vehicle_type_id":"4","last_reported":1747142743,"current_range_meters":19200,"station_id":"st_cvj6sg6p6f1abm77japg","pricing_plan_id":"cebpf4jnsgd1na2vs0mg"},{"bike_id":"a5e11739-9f4e-4a5c-a67a-316bdd3705d0","system_id":"levelo_inurba_marseille","lat":43.26824,"lon":5.40242,"is_reserved":false,"is_disabled":false,"rental_uris":{"android":"levelo://app?vid=a5e11739-9f4e-4a5c-a67a-316bdd3705d0","ios":"levelo://app?vid=a5e11739-9f4e-4a5c-a67a-316bdd3705d0"},"vehicle_type_id":"4","last_reported":1747142743,"current_range_meters":19200,"station_id":"ce501612rcd8frsf0b60","pricing_plan_id":"cebpf4jnsgd1na2vs0mg"},{"bike_id":"f3aaef77-e3c5-47a6-8145-3753ae491741","system_id":"levelo_inurba_marseille","lat":43.26201,"lon":5.37929,"is_reserved":false,"is_disabled":false,"rental_uris":{"android":"levelo://app?vid=f3aaef77-e3c5-47a6-8145-3753ae491741","ios":"levelo://app?vid=f3aaef77-e3c5-47a6-8145-3753ae491741"},"vehicle_type_id":"4","last_reported":1747142743,"current_range_meters":19200,"station_id":"ce4bhjp2rcd13ifvqg90","pricing_plan_id":"cebpf4jnsgd1na2vs0mg"},{"bike_id":"7471ae41-13b3-4cf7-ad07-5944ca16ee74","system_id":"levelo_inurba_marseille","lat":43.28422,"lon":5.34993,"is_reserved":false,"is_disabled":false,"rental_uris":{"android":"levelo://app?vid=7471ae41-13b3-4cf7-ad07-5944ca16ee74","ios":"levelo://app?vid=7471ae41-13b3-4cf7-ad07-5944ca16ee74"},"vehicle_type_id":"4","last_reported":1747142743,"current_range_meters":19600,"station_id":"ce4bhbh2rcd13ifvqepg","pricing_plan_id":"cebpf4jnsgd1na2vs0mg"},{"bike_id":"9ca16b35-4429-4455-9ca9-a8402de94187","system_id":"levelo_inurba_marseille","lat":43.29055,"lon":5.35894,"is_reserved":false,"is_disabled":false,"rental_uris":{"android":"levelo://app?vid=9ca16b35-4429-4455-9ca9-a8402de94187","ios":"levelo://app?vid=9ca16b35-4429-4455-9ca9-a8402de94187"},"vehicle_type_id":"4","last_reported":1747142743,"current_range_meters":19600,"station_id":"ce4bha92rcd13ifvqeg0","pricing_plan_id":"cebpf4jnsgd1na2vs0mg"},{"bike_id":"87292699-755c-455d-a269-ad0042d94c7b","system_id":"levelo_inurba_marseille","lat":43.21189,"lon":5.35061,"is_reserved":false,"is_disabled":false,"rental_uris":{"android":"levelo://app?vid=87292699-755c-455d-a269-ad0042d94c7b","ios":"levelo://app?vid=87292699-755c-455d-a269-ad0042d94c7b"},"vehicle_type_id":"4","last_reported":1747142743,"current_range_meters":19600,"station_id":"st_cvj6sg6p6f1abm77japg","pricing_plan_id":"cebpf4jnsgd1na2vs0mg"},{"bike_id":"34801bb5-ebc4-4bb9-8e0b-96b1204fe806","system_id":"levelo_inurba_marseille","lat":43.24806,"lon":5.37454,"is_reserved":false,"is_disabled":false,"rental_uris":{"android":"levelo://app?vid=34801bb5-ebc4-4bb9-8e0b-96b1204fe806","ios":"levelo://app?vid=34801bb5-ebc4-4bb9-8e0b-96b1204fe806"},"vehicle_type_id":"4","last_reported":1747142743,"current_range_meters":19600,"station_id":"ce4bhgh2rcd13ifvqfb0","pricing_plan_id":"cebpf4jnsgd1na2vs0mg"},{"bike_id":"37813c64-48ac-4206-a8fd-273418794854","system_id":"levelo_inurba_marseille","lat":43.30923,"lon":5.40167,"is_reserved":false,"is_disabled":false,"rental_uris":{"android":"levelo://app?vid=37813c64-48ac-4206-a8fd-273418794854","ios":"levelo://app?vid=37813c64-48ac-4206-a8fd-273418794854"},"vehicle_type_id":"4","last_reported":1747142743,"current_range_meters":19600,"station_id":"ce4bgvp2rcd13ifvqct0","pricing_plan_id":"cebpf4jnsgd1na2vs0mg"},{"bike_id":"995b6502-9a4f-4150-822f-178690fca4ba","system_id":"levelo_inurba_marseille","lat":43.21194,"lon":5.350772,"is_reserved":false,"is_disabled":false,"rental_uris":{"android":"levelo://app?vid=995b6502-9a4f-4150-822f-178690fca4ba","ios":"levelo://app?vid=995b6502-9a4f-4150-822f-178690fca4ba"},"vehicle_type_id":"4","last_reported":1747142743,"current_range_meters":19600,"station_id":"st_cvj6sg6p6f1abm77japg","pricing_plan_id":"cebpf4jnsgd1na2vs0mg"},{"bike_id":"a9f02b19-c176-448d-bbd7-70872e29aab1","system_id":"levelo_inurba_marseille","lat":43.23157,"lon":5.43719,"is_reserved":false,"is_disabled":false,"rental_uris":{"android":"levelo://app?vid=a9f02b19-c176-448d-bbd7-70872e29aab1","ios":"levelo://app?vid=a9f02b19-c176-448d-bbd7-70872e29aab1"},"vehicle_type_id":"4","last_reported":1747142743,"current_range_meters":19600,"station_id":"ce4bhmp2rcd13ifvqgog","pricing_plan_id":"cebpf4jnsgd1na2vs0mg"},{"bike_id":"fccb11b8-3dad-4f8e-b4da-ab2bd0512e33","system_id":"levelo_inurba_marseille","lat":43.29231,"lon":5.36068,"is_reserved":false,"is_disabled":false,"rental_uris":{"android":"levelo://app?vid=fccb11b8-3dad-4f8e-b4da-ab2bd0512e33","ios":"levelo://app?vid=fccb11b8-3dad-4f8e-b4da-ab2bd0512e33"},"vehicle_type_id":"4","last_reported":1747142743,"current_range_meters":20000,"station_id":"ce4bhbh2rcd13ifvqeqg","pricing_plan_id":"cebpf4jnsgd1na2vs0mg"},{"bike_id":"ae0510dd-41be-4f58-95f7-feea4be11841","system_id":"levelo_inurba_marseille","lat":43.23173,"lon":5.43744,"is_reserved":false,"is_disabled":false,"rental_uris":{"android":"levelo://app?vid=ae0510dd-41be-4f58-95f7-feea4be11841","ios":"levelo://app?vid=ae0510dd-41be-4f58-95f7-feea4be11841"},"vehicle_type_id":"4","last_reported":1747142743,"current_range_meters":20000,"station_id":"ce4bhmp2rcd13ifvqgog","pricing_plan_id":"cebpf4jnsgd1na2vs0mg"},{"bike_id":"be711c9b-b6b6-49e4-a1d9-74d04fc9ce5a","system_id":"levelo_inurba_marseille","lat":43.299768,"lon":5.38493,"is_reserved":false,"is_disabled":false,"rental_uris":{"android":"levelo://app?vid=be711c9b-b6b6-49e4-a1d9-74d04fc9ce5a","ios":"levelo://app?vid=be711c9b-b6b6-49e4-a1d9-74d04fc9ce5a"},"vehicle_type_id":"4","last_reported":1747142743,"current_range_meters":20000,"station_id":"ce4bgj92rcd13ifvqbd0","pricing_plan_id":"cebpf4jnsgd1na2vs0mg"},{"bike_id":"f9f9a01f-687f-421b-b887-5733ebc49a37","system_id":"levelo_inurba_marseille","lat":43.24999,"lon":5.38927,"is_reserved":false,"is_disabled":false,"rental_uris":{"android":"levelo://app?vid=f9f9a01f-687f-421b-b887-5733ebc49a37","ios":"levelo://app?vid=f9f9a01f-687f-421b-b887-5733ebc49a37"},"vehicle_type_id":"4","last_reported":1747142743,"current_range_meters":20000,"station_id":"ce4bhgp2rcd13ifvqfd0","pricing_plan_id":"cebpf4jnsgd1na2vs0mg"},{"bike_id":"f104820f-5bdb-45e2-bfcb-fe8ee543f79c","system_id":"levelo_inurba_marseille","lat":43.28421,"lon":5.34975,"is_reserved":false,"is_disabled":false,"rental_uris":{"android":"levelo://app?vid=f104820f-5bdb-45e2-bfcb-fe8ee543f79c","ios":"levelo://app?vid=f104820f-5bdb-45e2-bfcb-fe8ee543f79c"},"vehicle_type_id":"4","last_reported":1747142743,"current_range_meters":20000,"station_id":"ce4bhbh2rcd13ifvqepg","pricing_plan_id":"cebpf4jnsgd1na2vs0mg"},{"bike_id":"ecdc5eb1-7184-4fb1-b390-8b3d2977affa","system_id":"levelo_inurba_marseille","lat":43.31082,"lon":5.37602,"is_reserved":false,"is_disabled":false,"rental_uris":{"android":"levelo://app?vid=ecdc5eb1-7184-4fb1-b390-8b3d2977affa","ios":"levelo://app?vid=ecdc5eb1-7184-4fb1-b390-8b3d2977affa"},"vehicle_type_id":"4","last_reported":1747142743,"current_range_meters":20000,"station_id":"","pricing_plan_id":"cebpf4jnsgd1na2vs0mg"},{"bike_id":"c5a6038e-e242-4c42-a6da-186787771b16","system_id":"levelo_inurba_marseille","lat":43.21761,"lon":5.34609,"is_reserved":false,"is_disabled":false,"rental_uris":{"android":"levelo://app?vid=c5a6038e-e242-4c42-a6da-186787771b16","ios":"levelo://app?vid=c5a6038e-e242-4c42-a6da-186787771b16"},"vehicle_type_id":"4","last_reported":1747142743,"current_range_meters":20400,"station_id":"st_cvj6r9ubvosntc0bgbag","pricing_plan_id":"cebpf4jnsgd1na2vs0mg"},{"bike_id":"291dc009-ac44-46d4-a86a-c6252d842e03","system_id":"levelo_inurba_marseille","lat":43.28471,"lon":5.38429,"is_reserved":false,"is_disabled":false,"rental_uris":{"android":"levelo://app?vid=291dc009-ac44-46d4-a86a-c6252d842e03","ios":"levelo://app?vid=291dc009-ac44-46d4-a86a-c6252d842e03"},"vehicle_type_id":"4","last_reported":1747142743,"current_range_meters":20400,"station_id":"ce4bh512rcd13ifvqe3g","pricing_plan_id":"cebpf4jnsgd1na2vs0mg"},{"bike_id":"5f4689d8-17b2-41f4-8da2-8a6a1886f01a","system_id":"levelo_inurba_marseille","lat":43.2586,"lon":5.39908,"is_reserved":false,"is_disabled":false,"rental_uris":{"android":"levelo://app?vid=5f4689d8-17b2-41f4-8da2-8a6a1886f01a","ios":"levelo://app?vid=5f4689d8-17b2-41f4-8da2-8a6a1886f01a"},"vehicle_type_id":"4","last_reported":1747142743,"current_range_meters":20400,"station_id":"ce4bhl92rcd13ifvqghg","pricing_plan_id":"cebpf4jnsgd1na2vs0mg"},{"bike_id":"4e251657-6f30-424b-98a3-34ecda8b88d6","system_id":"levelo_inurba_marseille","lat":43.27378,"lon":5.36255,"is_reserved":false,"is_disabled":false,"rental_uris":{"android":"levelo://app?vid=4e251657-6f30-424b-98a3-34ecda8b88d6","ios":"levelo://app?vid=4e251657-6f30-424b-98a3-34ecda8b88d6"},"vehicle_type_id":"4","last_reported":1747142743,"current_range_meters":20400,"station_id":"ce4bhbh2rcd13ifvqeo0","pricing_plan_id":"cebpf4jnsgd1na2vs0mg"},{"bike_id":"b334cba1-669b-4ba4-b288-ab14a40de0d1","system_id":"levelo_inurba_marseille","lat":43.23197,"lon":5.35548,"is_reserved":false,"is_disabled":false,"rental_uris":{"android":"levelo://app?vid=b334cba1-669b-4ba4-b288-ab14a40de0d1","ios":"levelo://app?vid=b334cba1-669b-4ba4-b288-ab14a40de0d1"},"vehicle_type_id":"4","last_reported":1747142743,"current_range_meters":20400,"station_id":"ce4bhu92rcd13ifvqi70","pricing_plan_id":"cebpf4jnsgd1na2vs0mg"},{"bike_id":"2efdb3e4-2d79-4849-b252-04c6cca818ca","system_id":"levelo_inurba_marseille","lat":43.29447,"lon":5.39745,"is_reserved":false,"is_disabled":false,"rental_uris":{"android":"levelo://app?vid=2efdb3e4-2d79-4849-b252-04c6cca818ca","ios":"levelo://app?vid=2efdb3e4-2d79-4849-b252-04c6cca818ca"},"vehicle_type_id":"4","last_reported":1747142743,"current_range_meters":20400,"station_id":"ce4bh3h2rcd13ifvqdo0","pricing_plan_id":"cebpf4jnsgd1na2vs0mg"},{"bike_id":"05669342-cb45-4c08-a397-74c64938fdba","system_id":"levelo_inurba_marseille","lat":43.25964,"lon":5.40914,"is_reserved":false,"is_disabled":false,"rental_uris":{"android":"levelo://app?vid=05669342-cb45-4c08-a397-74c64938fdba","ios":"levelo://app?vid=05669342-cb45-4c08-a397-74c64938fdba"},"vehicle_type_id":"4","last_reported":1747142743,"current_range_meters":20400,"station_id":"ce4bhm92rcd13ifvqglg","pricing_plan_id":"cebpf4jnsgd1na2vs0mg"},{"bike_id":"75b67caf-e242-478d-b409-4dd7e1f62030","system_id":"levelo_inurba_marseille","lat":43.28665,"lon":5.3635,"is_reserved":false,"is_disabled":false,"rental_uris":{"android":"levelo://app?vid=75b67caf-e242-478d-b409-4dd7e1f62030","ios":"levelo://app?vid=75b67caf-e242-478d-b409-4dd7e1f62030"},"vehicle_type_id":"4","last_reported":1747142743,"current_range_meters":20800,"station_id":"ce4bhah2rcd13ifvqej0","pricing_plan_id":"cebpf4jnsgd1na2vs0mg"},{"bike_id":"f6b205c8-9216-4c61-9753-6646b1e73340","system_id":"levelo_inurba_marseille","lat":43.3031,"lon":5.36903,"is_reserved":false,"is_disabled":false,"rental_uris":{"android":"levelo://app?vid=f6b205c8-9216-4c61-9753-6646b1e73340","ios":"levelo://app?vid=f6b205c8-9216-4c61-9753-6646b1e73340"},"vehicle_type_id":"4","last_reported":1747142743,"current_range_meters":20800,"station_id":"ce4bgqh2rcd13ifvqc5g","pricing_plan_id":"cebpf4jnsgd1na2vs0mg"},{"bike_id":"e09219b5-e234-4aaf-bd00-4132250667b0","system_id":"levelo_inurba_marseille","lat":43.2717,"lon":5.40995,"is_reserved":false,"is_disabled":false,"rental_uris":{"android":"levelo://app?vid=e09219b5-e234-4aaf-bd00-4132250667b0","ios":"levelo://app?vid=e09219b5-e234-4aaf-bd00-4132250667b0"},"vehicle_type_id":"4","last_reported":1747142743,"current_range_meters":20800,"station_id":"ce4bhl12rcd13ifvqgf0","pricing_plan_id":"cebpf4jnsgd1na2vs0mg"},{"bike_id":"b01d3454-14a5-488e-96c8-107c9ca2d8cc","system_id":"levelo_inurba_marseille","lat":43.31718,"lon":5.4048,"is_reserved":false,"is_disabled":false,"rental_uris":{"android":"levelo://app?vid=b01d3454-14a5-488e-96c8-107c9ca2d8cc","ios":"levelo://app?vid=b01d3454-14a5-488e-96c8-107c9ca2d8cc"},"vehicle_type_id":"4","last_reported":1747142743,"current_range_meters":20800,"station_id":"ce4bh012rcd13ifvqd00","pricing_plan_id":"cebpf4jnsgd1na2vs0mg"},{"bike_id":"6a67cf86-2941-4a31-bab3-4eca7454c785","system_id":"levelo_inurba_marseille","lat":43.290894,"lon":5.381336,"is_reserved":false,"is_disabled":false,"rental_uris":{"android":"levelo://app?vid=6a67cf86-2941-4a31-bab3-4eca7454c785","ios":"levelo://app?vid=6a67cf86-2941-4a31-bab3-4eca7454c785"},"vehicle_type_id":"4","last_reported":1747142743,"current_range_meters":20800,"station_id":"ce4bh512rcd13ifvqe2g","pricing_plan_id":"cebpf4jnsgd1na2vs0mg"},{"bike_id":"22ede95f-b7b6-4db2-95c2-c00628519443","system_id":"levelo_inurba_marseille","lat":43.27619,"lon":5.36106,"is_reserved":false,"is_disabled":false,"rental_uris":{"android":"levelo://app?vid=22ede95f-b7b6-4db2-95c2-c00628519443","ios":"levelo://app?vid=22ede95f-b7b6-4db2-95c2-c00628519443"},"vehicle_type_id":"4","last_reported":1747142743,"current_range_meters":20800,"station_id":"ce4bgj92rcd13ifvqbe0","pricing_plan_id":"cebpf4jnsgd1na2vs0mg"},{"bike_id":"89857dad-000e-4ee8-8730-8ff256ecef3d","system_id":"levelo_inurba_marseille","lat":43.27369,"lon":5.3625,"is_reserved":false,"is_disabled":false,"rental_uris":{"android":"levelo://app?vid=89857dad-000e-4ee8-8730-8ff256ecef3d","ios":"levelo://app?vid=89857dad-000e-4ee8-8730-8ff256ecef3d"},"vehicle_type_id":"4","last_reported":1747142743,"current_range_meters":20800,"station_id":"ce4bhbh2rcd13ifvqeo0","pricing_plan_id":"cebpf4jnsgd1na2vs0mg"},{"bike_id":"427812ca-60c0-4bf0-8be4-d537502f6282","system_id":"levelo_inurba_marseille","lat":43.28852,"lon":5.39314,"is_reserved":false,"is_disabled":false,"rental_uris":{"android":"levelo://app?vid=427812ca-60c0-4bf0-8be4-d537502f6282","ios":"levelo://app?vid=427812ca-60c0-4bf0-8be4-d537502f6282"},"vehicle_type_id":"4","last_reported":1747142743,"current_range_meters":21600,"station_id":"ce4bh2p2rcd13ifvqdi0","pricing_plan_id":"cebpf4jnsgd1na2vs0mg"},{"bike_id":"63188453-9731-434d-9558-3217addda22d","system_id":"levelo_inurba_marseille","lat":43.292,"lon":5.35811,"is_reserved":false,"is_disabled":false,"rental_uris":{"android":"levelo://app?vid=63188453-9731-434d-9558-3217addda22d","ios":"levelo://app?vid=63188453-9731-434d-9558-3217addda22d"},"vehicle_type_id":"4","last_reported":1747142743,"current_range_meters":21600,"station_id":"ce4bhb12rcd13ifvqel0","pricing_plan_id":"cebpf4jnsgd1na2vs0mg"},{"bike_id":"7e7825cc-fe31-4f55-b6e5-07f5e903632d","system_id":"levelo_inurba_marseille","lat":43.24805,"lon":5.37462,"is_reserved":false,"is_disabled":false,"rental_uris":{"android":"levelo://app?vid=7e7825cc-fe31-4f55-b6e5-07f5e903632d","ios":"levelo://app?vid=7e7825cc-fe31-4f55-b6e5-07f5e903632d"},"vehicle_type_id":"4","last_reported":1747142743,"current_range_meters":21600,"station_id":"ce4bhgh2rcd13ifvqfb0","pricing_plan_id":"cebpf4jnsgd1na2vs0mg"},{"bike_id":"bfb0ba93-f4cc-4494-b5cc-6824644415cf","system_id":"levelo_inurba_marseille","lat":43.30918,"lon":5.36849,"is_reserved":false,"is_disabled":false,"rental_uris":{"android":"levelo://app?vid=bfb0ba93-f4cc-4494-b5cc-6824644415cf","ios":"levelo://app?vid=bfb0ba93-f4cc-4494-b5cc-6824644415cf"},"vehicle_type_id":"4","last_reported":1747142743,"current_range_meters":21600,"station_id":"ce4bgn92rcd13ifvqbvg","pricing_plan_id":"cebpf4jnsgd1na2vs0mg"},{"bike_id":"81759df7-0b71-428c-bae4-4b87a68e03dd","system_id":"levelo_inurba_marseille","lat":43.23194,"lon":5.35555,"is_reserved":false,"is_disabled":false,"rental_uris":{"android":"levelo://app?vid=81759df7-0b71-428c-bae4-4b87a68e03dd","ios":"levelo://app?vid=81759df7-0b71-428c-bae4-4b87a68e03dd"},"vehicle_type_id":"4","last_reported":1747142743,"current_range_meters":21600,"station_id":"ce4bhu92rcd13ifvqi70","pricing_plan_id":"cebpf4jnsgd1na2vs0mg"},{"bike_id":"b5a4ba42-9365-4baf-bcef-ff30c39404e5","system_id":"levelo_inurba_marseille","lat":43.26556,"lon":5.37284,"is_reserved":false,"is_disabled":false,"rental_uris":{"android":"levelo://app?vid=b5a4ba42-9365-4baf-bcef-ff30c39404e5","ios":"levelo://app?vid=b5a4ba42-9365-4baf-bcef-ff30c39404e5"},"vehicle_type_id":"4","last_reported":1747142743,"current_range_meters":21600,"station_id":"ce4bhg12rcd13ifvqf70","pricing_plan_id":"cebpf4jnsgd1na2vs0mg"},{"bike_id":"5647a91f-31a6-41fb-82bb-83893a94fc73","system_id":"levelo_inurba_marseille","lat":43.21192,"lon":5.35077,"is_reserved":false,"is_disabled":false,"rental_uris":{"android":"levelo://app?vid=5647a91f-31a6-41fb-82bb-83893a94fc73","ios":"levelo://app?vid=5647a91f-31a6-41fb-82bb-83893a94fc73"},"vehicle_type_id":"4","last_reported":1747142743,"current_range_meters":22000,"station_id":"st_cvj6sg6p6f1abm77japg","pricing_plan_id":"cebpf4jnsgd1na2vs0mg"},{"bike_id":"a7f226fd-0171-46e0-b55b-335d5a5f6bc1","system_id":"levelo_inurba_marseille","lat":43.27365,"lon":5.36245,"is_reserved":false,"is_disabled":false,"rental_uris":{"android":"levelo://app?vid=a7f226fd-0171-46e0-b55b-335d5a5f6bc1","ios":"levelo://app?vid=a7f226fd-0171-46e0-b55b-335d5a5f6bc1"},"vehicle_type_id":"4","last_reported":1747142743,"current_range_meters":22000,"station_id":"","pricing_plan_id":"cebpf4jnsgd1na2vs0mg"},{"bike_id":"71523186-a632-4433-a770-7f60cdb4e49a","system_id":"levelo_inurba_marseille","lat":43.28933,"lon":5.36636,"is_reserved":false,"is_disabled":false,"rental_uris":{"android":"levelo://app?vid=71523186-a632-4433-a770-7f60cdb4e49a","ios":"levelo://app?vid=71523186-a632-4433-a770-7f60cdb4e49a"},"vehicle_type_id":"4","last_reported":1747142743,"current_range_meters":22000,"station_id":"ce4bhap2rcd13ifvqek0","pricing_plan_id":"cebpf4jnsgd1na2vs0mg"},{"bike_id":"79913b54-f54b-4d15-be5f-1f6790e6da19","system_id":"levelo_inurba_marseille","lat":43.29534,"lon":5.39037,"is_reserved":false,"is_disabled":false,"rental_uris":{"android":"levelo://app?vid=79913b54-f54b-4d15-be5f-1f6790e6da19","ios":"levelo://app?vid=79913b54-f54b-4d15-be5f-1f6790e6da19"},"vehicle_type_id":"4","last_reported":1747142743,"current_range_meters":22000,"station_id":"ce4bh3p2rcd13ifvqdp0","pricing_plan_id":"cebpf4jnsgd1na2vs0mg"},{"bike_id":"18688f5b-b378-4b63-bd7d-99a3fcdb809a","system_id":"levelo_inurba_marseille","lat":43.30271,"lon":5.37699,"is_reserved":false,"is_disabled":false,"rental_uris":{"android":"levelo://app?vid=18688f5b-b378-4b63-bd7d-99a3fcdb809a","ios":"levelo://app?vid=18688f5b-b378-4b63-bd7d-99a3fcdb809a"},"vehicle_type_id":"4","last_reported":1747142743,"current_range_meters":22000,"station_id":"ce4bguh2rcd13ifvqcj0","pricing_plan_id":"cebpf4jnsgd1na2vs0mg"},{"bike_id":"ac0112c9-313e-422c-910b-a3523b05b0c9","system_id":"levelo_inurba_marseille","lat":43.23057,"lon":5.35492,"is_reserved":false,"is_disabled":false,"rental_uris":{"android":"levelo://app?vid=ac0112c9-313e-422c-910b-a3523b05b0c9","ios":"levelo://app?vid=ac0112c9-313e-422c-910b-a3523b05b0c9"},"vehicle_type_id":"4","last_reported":1747142743,"current_range_meters":22400,"station_id":"cpo3342slgdg3j2ifvpg","pricing_plan_id":"cebpf4jnsgd1na2vs0mg"},{"bike_id":"40a1c000-90a0-4865-a7e7-3a2a723ed018","system_id":"levelo_inurba_marseille","lat":43.25934,"lon":5.40897,"is_reserved":false,"is_disabled":false,"rental_uris":{"android":"levelo://app?vid=40a1c000-90a0-4865-a7e7-3a2a723ed018","ios":"levelo://app?vid=40a1c000-90a0-4865-a7e7-3a2a723ed018"},"vehicle_type_id":"4","last_reported":1747142743,"current_range_meters":22400,"station_id":"ce4bhm92rcd13ifvqglg","pricing_plan_id":"cebpf4jnsgd1na2vs0mg"},{"bike_id":"71df54ad-5506-465f-a07c-0f5a84029e1e","system_id":"levelo_inurba_marseille","lat":43.23964,"lon":5.36627,"is_reserved":false,"is_disabled":false,"rental_uris":{"android":"levelo://app?vid=71df54ad-5506-465f-a07c-0f5a84029e1e","ios":"levelo://app?vid=71df54ad-5506-465f-a07c-0f5a84029e1e"},"vehicle_type_id":"4","last_reported":1747142743,"current_range_meters":22400,"station_id":"ce4bhi12rcd13ifvqfp0","pricing_plan_id":"cebpf4jnsgd1na2vs0mg"},{"bike_id":"8abac1d8-e78f-44b3-afa8-71323de8dd59","system_id":"levelo_inurba_marseille","lat":43.29199,"lon":5.35801,"is_reserved":false,"is_disabled":false,"rental_uris":{"android":"levelo://app?vid=8abac1d8-e78f-44b3-afa8-71323de8dd59","ios":"levelo://app?vid=8abac1d8-e78f-44b3-afa8-71323de8dd59"},"vehicle_type_id":"4","last_reported":1747142743,"current_range_meters":22400,"station_id":"ce4bhb12rcd13ifvqel0","pricing_plan_id":"cebpf4jnsgd1na2vs0mg"},{"bike_id":"2c770375-4ade-4296-9ccd-dad9c8614119","system_id":"levelo_inurba_marseille","lat":43.29529,"lon":5.38548,"is_reserved":false,"is_disabled":false,"rental_uris":{"android":"levelo://app?vid=2c770375-4ade-4296-9ccd-dad9c8614119","ios":"levelo://app?vid=2c770375-4ade-4296-9ccd-dad9c8614119"},"vehicle_type_id":"4","last_reported":1747142743,"current_range_meters":22400,"station_id":"ce4bgih2rcd13ifvqba0","pricing_plan_id":"cebpf4jnsgd1na2vs0mg"},{"bike_id":"6053afdd-3f4a-490e-9545-625f8c9256d8","system_id":"levelo_inurba_marseille","lat":43.30618,"lon":5.37232,"is_reserved":false,"is_disabled":false,"rental_uris":{"android":"levelo://app?vid=6053afdd-3f4a-490e-9545-625f8c9256d8","ios":"levelo://app?vid=6053afdd-3f4a-490e-9545-625f8c9256d8"},"vehicle_type_id":"4","last_reported":1747142743,"current_range_meters":22800,"station_id":"ce4bgqh2rcd13ifvqc4g","pricing_plan_id":"cebpf4jnsgd1na2vs0mg"},{"bike_id":"b044b041-fe46-44c4-9924-c2321867ee36","system_id":"levelo_inurba_marseille","lat":43.23139,"lon":5.4371,"is_reserved":false,"is_disabled":false,"rental_uris":{"android":"levelo://app?vid=b044b041-fe46-44c4-9924-c2321867ee36","ios":"levelo://app?vid=b044b041-fe46-44c4-9924-c2321867ee36"},"vehicle_type_id":"4","last_reported":1747142743,"current_range_meters":22800,"station_id":"ce4bhmp2rcd13ifvqgog","pricing_plan_id":"cebpf4jnsgd1na2vs0mg"},{"bike_id":"832d130e-a2a9-46ad-a5dd-4a207bfeeb9f","system_id":"levelo_inurba_marseille","lat":43.292139,"lon":5.390596,"is_reserved":false,"is_disabled":false,"rental_uris":{"android":"levelo://app?vid=832d130e-a2a9-46ad-a5dd-4a207bfeeb9f","ios":"levelo://app?vid=832d130e-a2a9-46ad-a5dd-4a207bfeeb9f"},"vehicle_type_id":"4","last_reported":1747142743,"current_range_meters":22800,"station_id":"","pricing_plan_id":"cebpf4jnsgd1na2vs0mg"},{"bike_id":"1311b7be-7448-4e46-8540-0cecbf3a9518","system_id":"levelo_inurba_marseille","lat":43.321041,"lon":5.367733,"is_reserved":false,"is_disabled":false,"rental_uris":{"android":"levelo://app?vid=1311b7be-7448-4e46-8540-0cecbf3a9518","ios":"levelo://app?vid=1311b7be-7448-4e46-8540-0cecbf3a9518"},"vehicle_type_id":"4","last_reported":1747142743,"current_range_meters":22800,"station_id":"ce4bhrh2rcd13ifvqhug","pricing_plan_id":"cebpf4jnsgd1na2vs0mg"},{"bike_id":"826d0e47-39ca-4a2a-b439-a372eef297c8","system_id":"levelo_inurba_marseille","lat":43.295315,"lon":5.3904,"is_reserved":false,"is_disabled":false,"rental_uris":{"android":"levelo://app?vid=826d0e47-39ca-4a2a-b439-a372eef297c8","ios":"levelo://app?vid=826d0e47-39ca-4a2a-b439-a372eef297c8"},"vehicle_type_id":"4","last_reported":1747142743,"current_range_meters":22400,"station_id":"ce4bh3p2rcd13ifvqdp0","pricing_plan_id":"cebpf4jnsgd1na2vs0mg"},{"bike_id":"32c4297d-700e-456e-b1ab-9788fe2e644b","system_id":"levelo_inurba_marseille","lat":43.31506,"lon":5.372992,"is_reserved":false,"is_disabled":true,"rental_uris":{"android":"levelo://app?vid=32c4297d-700e-456e-b1ab-9788fe2e644b","ios":"levelo://app?vid=32c4297d-700e-456e-b1ab-9788fe2e644b"},"vehicle_type_id":"4","last_reported":1747142743,"current_range_meters":22800,"station_id":"ce4bgt12rcd13ifvqcd0","pricing_plan_id":"cebpf4jnsgd1na2vs0mg"},{"bike_id":"0a0b7067-20e8-4993-b91a-706f6d8c3551","system_id":"levelo_inurba_marseille","lat":43.29198,"lon":5.35808,"is_reserved":false,"is_disabled":false,"rental_uris":{"android":"levelo://app?vid=0a0b7067-20e8-4993-b91a-706f6d8c3551","ios":"levelo://app?vid=0a0b7067-20e8-4993-b91a-706f6d8c3551"},"vehicle_type_id":"4","last_reported":1747142743,"current_range_meters":22800,"station_id":"ce4bhb12rcd13ifvqel0","pricing_plan_id":"cebpf4jnsgd1na2vs0mg"},{"bike_id":"fcf38415-7e5f-4b47-b6d9-653f0300824e","system_id":"levelo_inurba_marseille","lat":43.25869,"lon":5.39914,"is_reserved":false,"is_disabled":false,"rental_uris":{"android":"levelo://app?vid=fcf38415-7e5f-4b47-b6d9-653f0300824e","ios":"levelo://app?vid=fcf38415-7e5f-4b47-b6d9-653f0300824e"},"vehicle_type_id":"4","last_reported":1747142743,"current_range_meters":22800,"station_id":"ce4bhl92rcd13ifvqghg","pricing_plan_id":"cebpf4jnsgd1na2vs0mg"},{"bike_id":"59920f9b-8f7a-4ad0-9a3b-cb7f0c335ee0","system_id":"levelo_inurba_marseille","lat":43.299763,"lon":5.384929,"is_reserved":false,"is_disabled":false,"rental_uris":{"android":"levelo://app?vid=59920f9b-8f7a-4ad0-9a3b-cb7f0c335ee0","ios":"levelo://app?vid=59920f9b-8f7a-4ad0-9a3b-cb7f0c335ee0"},"vehicle_type_id":"4","last_reported":1747142743,"current_range_meters":22800,"station_id":"ce4bgj92rcd13ifvqbd0","pricing_plan_id":"cebpf4jnsgd1na2vs0mg"},{"bike_id":"be462ed6-d5fa-4f65-ae2b-24a1b920368f","system_id":"levelo_inurba_marseille","lat":43.28473,"lon":5.384263,"is_reserved":false,"is_disabled":false,"rental_uris":{"android":"levelo://app?vid=be462ed6-d5fa-4f65-ae2b-24a1b920368f","ios":"levelo://app?vid=be462ed6-d5fa-4f65-ae2b-24a1b920368f"},"vehicle_type_id":"4","last_reported":1747142743,"current_range_meters":23200,"station_id":"ce4bh512rcd13ifvqe3g","pricing_plan_id":"cebpf4jnsgd1na2vs0mg"},{"bike_id":"e9c4473d-4bf1-48d7-be7b-f01cb07478b3","system_id":"levelo_inurba_marseille","lat":43.25956,"lon":5.4089,"is_reserved":false,"is_disabled":false,"rental_uris":{"android":"levelo://app?vid=e9c4473d-4bf1-48d7-be7b-f01cb07478b3","ios":"levelo://app?vid=e9c4473d-4bf1-48d7-be7b-f01cb07478b3"},"vehicle_type_id":"4","last_reported":1747142743,"current_range_meters":23200,"station_id":"ce4bhm92rcd13ifvqglg","pricing_plan_id":"cebpf4jnsgd1na2vs0mg"},{"bike_id":"19090350-ee53-4aed-8e99-2913ea1d55b1","system_id":"levelo_inurba_marseille","lat":43.24997,"lon":5.38928,"is_reserved":false,"is_disabled":false,"rental_uris":{"android":"levelo://app?vid=19090350-ee53-4aed-8e99-2913ea1d55b1","ios":"levelo://app?vid=19090350-ee53-4aed-8e99-2913ea1d55b1"},"vehicle_type_id":"4","last_reported":1747142743,"current_range_meters":23200,"station_id":"ce4bhgp2rcd13ifvqfd0","pricing_plan_id":"cebpf4jnsgd1na2vs0mg"},{"bike_id":"55992eab-9678-4507-a54c-2f0db50fe495","system_id":"levelo_inurba_marseille","lat":43.26209,"lon":5.3744,"is_reserved":false,"is_disabled":false,"rental_uris":{"android":"levelo://app?vid=55992eab-9678-4507-a54c-2f0db50fe495","ios":"levelo://app?vid=55992eab-9678-4507-a54c-2f0db50fe495"},"vehicle_type_id":"4","last_reported":1747142743,"current_range_meters":23200,"station_id":"ce4bhgp2rcd13ifvqfc0","pricing_plan_id":"cebpf4jnsgd1na2vs0mg"},{"bike_id":"45f4457a-2c5a-44e5-aa87-39106030b236","system_id":"levelo_inurba_marseille","lat":43.25929,"lon":5.40918,"is_reserved":false,"is_disabled":false,"rental_uris":{"android":"levelo://app?vid=45f4457a-2c5a-44e5-aa87-39106030b236","ios":"levelo://app?vid=45f4457a-2c5a-44e5-aa87-39106030b236"},"vehicle_type_id":"4","last_reported":1747142743,"current_range_meters":23200,"station_id":"ce4bhm92rcd13ifvqglg","pricing_plan_id":"cebpf4jnsgd1na2vs0mg"},{"bike_id":"b0a88558-462a-45f7-9fd1-dd814a9d32f3","system_id":"levelo_inurba_marseille","lat":43.21191,"lon":5.3507,"is_reserved":false,"is_disabled":false,"rental_uris":{"android":"levelo://app?vid=b0a88558-462a-45f7-9fd1-dd814a9d32f3","ios":"levelo://app?vid=b0a88558-462a-45f7-9fd1-dd814a9d32f3"},"vehicle_type_id":"4","last_reported":1747142743,"current_range_meters":23200,"station_id":"st_cvj6sg6p6f1abm77japg","pricing_plan_id":"cebpf4jnsgd1na2vs0mg"},{"bike_id":"9670f60b-d981-469e-87fd-010a1d3c3a6e","system_id":"levelo_inurba_marseille","lat":43.32106,"lon":5.36775,"is_reserved":false,"is_disabled":false,"rental_uris":{"android":"levelo://app?vid=9670f60b-d981-469e-87fd-010a1d3c3a6e","ios":"levelo://app?vid=9670f60b-d981-469e-87fd-010a1d3c3a6e"},"vehicle_type_id":"4","last_reported":1747142743,"current_range_meters":23200,"station_id":"ce4bhrh2rcd13ifvqhug","pricing_plan_id":"cebpf4jnsgd1na2vs0mg"},{"bike_id":"c0b9fd4f-e181-46ce-b0bf-f5119973334f","system_id":"levelo_inurba_marseille","lat":43.33771,"lon":5.37424,"is_reserved":false,"is_disabled":false,"rental_uris":{"android":"levelo://app?vid=c0b9fd4f-e181-46ce-b0bf-f5119973334f","ios":"levelo://app?vid=c0b9fd4f-e181-46ce-b0bf-f5119973334f"},"vehicle_type_id":"4","last_reported":1747142743,"current_range_meters":23200,"station_id":"","pricing_plan_id":"cebpf4jnsgd1na2vs0mg"},{"bike_id":"18556955-6e5e-44de-8de6-34b971734618","system_id":"levelo_inurba_marseille","lat":43.32113,"lon":5.36794,"is_reserved":false,"is_disabled":false,"rental_uris":{"android":"levelo://app?vid=18556955-6e5e-44de-8de6-34b971734618","ios":"levelo://app?vid=18556955-6e5e-44de-8de6-34b971734618"},"vehicle_type_id":"4","last_reported":1747142743,"current_range_meters":24000,"station_id":"ce4bhrh2rcd13ifvqhug","pricing_plan_id":"cebpf4jnsgd1na2vs0mg"},{"bike_id":"c553784e-2637-45b2-b7ea-444ec3d04d46","system_id":"levelo_inurba_marseille","lat":43.26545,"lon":5.37278,"is_reserved":false,"is_disabled":false,"rental_uris":{"android":"levelo://app?vid=c553784e-2637-45b2-b7ea-444ec3d04d46","ios":"levelo://app?vid=c553784e-2637-45b2-b7ea-444ec3d04d46"},"vehicle_type_id":"4","last_reported":1747142743,"current_range_meters":24000,"station_id":"ce4bhg12rcd13ifvqf70","pricing_plan_id":"cebpf4jnsgd1na2vs0mg"},{"bike_id":"08a93b84-f9e2-4480-b23a-2ee7a592645e","system_id":"levelo_inurba_marseille","lat":43.21752,"lon":5.34603,"is_reserved":false,"is_disabled":false,"rental_uris":{"android":"levelo://app?vid=08a93b84-f9e2-4480-b23a-2ee7a592645e","ios":"levelo://app?vid=08a93b84-f9e2-4480-b23a-2ee7a592645e"},"vehicle_type_id":"4","last_reported":1747142743,"current_range_meters":24000,"station_id":"st_cvj6r9ubvosntc0bgbag","pricing_plan_id":"cebpf4jnsgd1na2vs0mg"},{"bike_id":"ded7b097-caf0-4e3f-8060-7912287c5c14","system_id":"levelo_inurba_marseille","lat":43.27358,"lon":5.36237,"is_reserved":false,"is_disabled":false,"rental_uris":{"android":"levelo://app?vid=ded7b097-caf0-4e3f-8060-7912287c5c14","ios":"levelo://app?vid=ded7b097-caf0-4e3f-8060-7912287c5c14"},"vehicle_type_id":"4","last_reported":1747142743,"current_range_meters":24000,"station_id":"ce4bhbh2rcd13ifvqeo0","pricing_plan_id":"cebpf4jnsgd1na2vs0mg"},{"bike_id":"c54acd2f-cb48-4ca7-8d70-6b9009b38e31","system_id":"levelo_inurba_marseille","lat":43.24809,"lon":5.37458,"is_reserved":false,"is_disabled":false,"rental_uris":{"android":"levelo://app?vid=c54acd2f-cb48-4ca7-8d70-6b9009b38e31","ios":"levelo://app?vid=c54acd2f-cb48-4ca7-8d70-6b9009b38e31"},"vehicle_type_id":"4","last_reported":1747142743,"current_range_meters":24000,"station_id":"ce4bhgh2rcd13ifvqfb0","pricing_plan_id":"cebpf4jnsgd1na2vs0mg"},{"bike_id":"ca1e5c03-110f-4433-9218-1db161e7a51b","system_id":"levelo_inurba_marseille","lat":43.30542,"lon":5.36518,"is_reserved":false,"is_disabled":false,"rental_uris":{"android":"levelo://app?vid=ca1e5c03-110f-4433-9218-1db161e7a51b","ios":"levelo://app?vid=ca1e5c03-110f-4433-9218-1db161e7a51b"},"vehicle_type_id":"4","last_reported":1747142743,"current_range_meters":24000,"station_id":"ce4bgs12rcd13ifvqcag","pricing_plan_id":"cebpf4jnsgd1na2vs0mg"},