{"last_updated":1693062353,"ttl":30,"version":"2.2","data":{"bikes":[{"bike_id":"c1e0977b-c6a9-41ce-9b05-f6dc365173c4","system_id":"levelo_inurba_marseille","lat":43.31341,"lon":5.367098,"is_reserved":false,"is_disabled":false,"rental_uris":{"android":"levelo://app?vid=c1e0977b-c6a9-41ce-9b05-f6dc365173c4","ios":"levelo://app?vid=c1e0977b-c6a9-41ce-9b05-f6dc365173c4"},"vehicle_type_id":"4","last_reported":1693062359,"current_range_meters":30400,"station_id":"ce4bgr92rcd13ifvqc6g","pricing_plan_id":"free"},{"bike_id":"d5ab019b-3955-48c4-8601-5e6f20fa1c02","system_id":"levelo_inurba_marseille","lat":43.31341,"lon":5.367098,"is_reserved":false,"is_disabled":false,"rental_uris":{"android":"levelo://app?vid=d5ab019b-3955-48c4-8601-5e6f20fa1c02","ios":"levelo://app?vid=d5ab019b-3955-48c4-8601-5e6f20fa1c02"},"vehicle_type_id":"4","last_reported":1693062359,"current_range_meters":30800,"station_id":"ce4bgr92rcd13ifvqc6g","pricing_plan_id":"free"},{"bike_id":"507c0db6-06cf-4065-865e-fe630915f321","system_id":"levelo_inurba_marseille","lat":43.313391,"lon":5.36706,"is_reserved":false,"is_disabled":false,"rental_uris":{"android":"levelo://app?vid=507c0db6-06cf-4065-865e-fe630915f321","ios":"levelo://app?vid=507c0db6-06cf-4065-865e-fe630915f321"},"vehicle_type_id":"4","last_reported":1693062359,"current_range_meters":31600,"station_id":"ce4bgr92rcd13ifvqc6g","pricing_plan_id":"free"},{"bike_id":"95dc1dba-ff80-4347-a1eb-6f3b2999a1d3","system_id":"levelo_inurba_marseille","lat":43.313391,"lon":5.36706,"is_reserved":false,"is_disabled":false,"rental_uris":{"android":"levelo://app?vid=95dc1dba-ff80-4347-a1eb-6f3b2999a1d3","ios":"levelo://app?vid=95dc1dba-ff80-4347-a1eb-6f3b2999a1d3"},"vehicle_type_id":"4","last_reported":1693062359,"current_range_meters":30800,"station_id":"ce4bgr92rcd13ifvqc6g","pricing_plan_id":"free"},{"bike_id":"5c6da945-6ed4-476e-86f0-67ba640879c6","system_id":"levelo_inurba_marseille","lat":43.313391,"lon":5.36706,"is_reserved":false,"is_disabled":false,"rental_uris":{"android":"levelo://app?vid=5c6da945-6ed4-476e-86f0-67ba640879c6","ios":"levelo://app?vid=5c6da945-6ed4-476e-86f0-67ba640879c6"},"vehicle_type_id":"4","last_reported":1693062359,"current_range_meters":28800,"station_id":"ce4bgr92rcd13ifvqc6g","pricing_plan_id":"free"},{"bike_id":"0b7f2c7e-0631-4180-8806-a25875ac89b9","system_id":"levelo_inurba_marseille","lat":43.313391,"lon":5.36706,"is_reserved":false,"is_disabled":false,"rental_uris":{"android":"levelo://app?vid=0b7f2c7e-0631-4180-8806-a25875ac89b9","ios":"levelo://app?vid=0b7f2c7e-0631-4180-8806-a25875ac89b9"},"vehicle_type_id":"4","last_reported":1693062359,"current_range_meters":18800,"station_id":"ce4bgr92rcd13ifvqc6g","pricing_plan_id":"free"},{"bike_id":"2ef92a9d-1fb1-4eb1-a0fc-9f9718a74faa","system_id":"levelo_inurba_marseille","lat":43.312239,"lon":5.368562,"is_reserved":false,"is_disabled":false,"rental_uris":{"android":"levelo://app?vid=2ef92a9d-1fb1-4eb1-a0fc-9f9718a74faa","ios":"levelo://app?vid=2ef92a9d-1fb1-4eb1-a0fc-9f9718a74faa"},"vehicle_type_id":"4","last_reported":1693062359,"current_range_meters":24000,"station_id":"ce4bgl92rcd13ifvqbq0","pricing_plan_id":"free"},{"bike_id":"20d3cd1c-18f2-4c6a-9434-ef986322e064","system_id":"levelo_inurba_marseille","lat":43.31222,"lon":5.36855,"is_reserved":false,"is_disabled":false,"rental_uris":{"android":"levelo://app?vid=20d3cd1c-18f2-4c6a-9434-ef986322e064","ios":"levelo://app?vid=20d3cd1c-18f2-4c6a-9434-ef986322e064"},"vehicle_type_id":"4","last_reported":1693062359,"current_range_meters":10400,"station_id":"ce4bgl92rcd13ifvqbq0","pricing_plan_id":"free"},{"bike_id":"65674239-bfb7-4928-84de-b7277febf7c2","system_id":"levelo_inurba_marseille","lat":43.312239,"lon":5.368562,"is_reserved":false,"is_disabled":false,"rental_uris":{"android":"levelo://app?vid=65674239-bfb7-4928-84de-b7277febf7c2","ios":"levelo://app?vid=65674239-bfb7-4928-84de-b7277febf7c2"},"vehicle_type_id":"4","last_reported":1693062359,"current_range_meters":31200,"station_id":"ce4bgl92rcd13ifvqbq0","pricing_plan_id":"free"},{"bike_id":"c9ba57ff-cbda-4187-a15e-8de37f1b9acb","system_id":"levelo_inurba_marseille","lat":43.31228,"lon":5.36861,"is_reserved":false,"is_disabled":false,"rental_uris":{"android":"levelo://app?vid=c9ba57ff-cbda-4187-a15e-8de37f1b9acb","ios":"levelo://app?vid=c9ba57ff-cbda-4187-a15e-8de37f1b9acb"},"vehicle_type_id":"4","last_reported":1693062359,"current_range_meters":20000,"station_id":"","pricing_plan_id":"free"},{"bike_id":"f22ca441-4e4e-4660-b824-b2f46943e54d","system_id":"levelo_inurba_marseille","lat":43.312239,"lon":5.368562,"is_reserved":false,"is_disabled":false,"rental_uris":{"android":"levelo://app?vid=f22ca441-4e4e-4660-b824-b2f46943e54d","ios":"levelo://app?vid=f22ca441-4e4e-4660-b824-b2f46943e54d"},"vehicle_type_id":"4","last_reported":1693062359,"current_range_meters":31600,"station_id":"ce4bgl92rcd13ifvqbq0","pricing_plan_id":"free"},{"bike_id":"5ef04239-a32c-4598-8e85-ead589d19799","system_id":"levelo_inurba_marseille","lat":43.309076,"lon":5.368465,"is_reserved":false,"is_disabled":false,"rental_uris":{"android":"levelo://app?vid=5ef04239-a32c-4598-8e85-ead589d19799","ios":"levelo://app?vid=5ef04239-a32c-4598-8e85-ead589d19799"},"vehicle_type_id":"4","last_reported":1693062359,"current_range_meters":15600,"station_id":"ce4bgn92rcd13ifvqbvg","pricing_plan_id":"free"},{"bike_id":"1679480f-336d-451d-90ca-f8617b0ae61e","system_id":"levelo_inurba_marseille","lat":43.309076,"lon":5.368465,"is_reserved":false,"is_disabled":false,"rental_uris":{"android":"levelo://app?vid=1679480f-336d-451d-90ca-f8617b0ae61e","ios":"levelo://app?vid=1679480f-336d-451d-90ca-f8617b0ae61e"},"vehicle_type_id":"4","last_reported":1693062359,"current_range_meters":10800,"station_id":"ce4bgn92rcd13ifvqbvg","pricing_plan_id":"free"},{"bike_id":"e3c4aad0-7b99-4a09-ad94-863437ff0df5","system_id":"levelo_inurba_marseille","lat":43.31402,"lon":5.37255,"is_reserved":false,"is_disabled":false,"rental_uris":{"android":"levelo://app?vid=e3c4aad0-7b99-4a09-ad94-863437ff0df5","ios":"levelo://app?vid=e3c4aad0-7b99-4a09-ad94-863437ff0df5"},"vehicle_type_id":"4","last_reported":1693062359,"current_range_meters":8400,"station_id":"","pricing_plan_id":"free"},{"bike_id":"d2be997d-44d2-40a5-bb20-02aeaaf65fa5","system_id":"levelo_inurba_marseille","lat":43.314811,"lon":5.373103,"is_reserved":false,"is_disabled":false,"rental_uris":{"android":"levelo://app?vid=d2be997d-44d2-40a5-bb20-02aeaaf65fa5","ios":"levelo://app?vid=d2be997d-44d2-40a5-bb20-02aeaaf65fa5"},"vehicle_type_id":"4","last_reported":1693062359,"current_range_meters":31200,"station_id":"ce4bgt12rcd13ifvqcd0","pricing_plan_id":"free"},{"bike_id":"b974c868-91d8-4957-9e21-c14d7990c4a2","system_id":"levelo_inurba_marseille","lat":43.30539,"lon":5.36701,"is_reserved":false,"is_disabled":false,"rental_uris":{"android":"levelo://app?vid=b974c868-91d8-4957-9e21-c14d7990c4a2","ios":"levelo://app?vid=b974c868-91d8-4957-9e21-c14d7990c4a2"},"vehicle_type_id":"4","last_reported":1693062359,"current_range_meters":2400,"station_id":"ce4bgrp2rcd13ifvqc9g","pricing_plan_id":"free"},{"bike_id":"e0130c14-8c06-4644-8540-88484234ea41","system_id":"levelo_inurba_marseille","lat":43.30537,"lon":5.36553,"is_reserved":false,"is_disabled":false,"rental_uris":{"android":"levelo://app?vid=e0130c14-8c06-4644-8540-88484234ea41","ios":"levelo://app?vid=e0130c14-8c06-4644-8540-88484234ea41"},"vehicle_type_id":"4","last_reported":1693062359,"current_range_meters":800,"station_id":"ce4bgs12rcd13ifvqcag","pricing_plan_id":"free"},{"bike_id":"c56bb459-00ce-40c8-94b5-7acf3fbb20dc","system_id":"levelo_inurba_marseille","lat":43.306131,"lon":5.372365,"is_reserved":false,"is_disabled":false,"rental_uris":{"android":"levelo://app?vid=c56bb459-00ce-40c8-94b5-7acf3fbb20dc","ios":"levelo://app?vid=c56bb459-00ce-40c8-94b5-7acf3fbb20dc"},"vehicle_type_id":"4","last_reported":1693062359,"current_range_meters":26400,"station_id":"ce4bgqh2rcd13ifvqc4g","pricing_plan_id":"free"},{"bike_id":"8c2cc655-81bc-4fb7-8948-b11d4e3b3326","system_id":"levelo_inurba_marseille","lat":43.311131,"lon":5.377651,"is_reserved":false,"is_disabled":false,"rental_uris":{"android":"levelo://app?vid=8c2cc655-81bc-4fb7-8948-b11d4e3b3326","ios":"levelo://app?vid=8c2cc655-81bc-4fb7-8948-b11d4e3b3326"},"vehicle_type_id":"4","last_reported":1693062359,"current_range_meters":21600,"station_id":"ce4bgt92rcd13ifvqcg0","pricing_plan_id":"free"},{"bike_id":"8d8d7d7f-9872-492e-aa4b-6830b744c763","system_id":"levelo_inurba_marseille","lat":43.311125,"lon":5.377624,"is_reserved":false,"is_disabled":false,"rental_uris":{"android":"levelo://app?vid=8d8d7d7f-9872-492e-aa4b-6830b744c763","ios":"levelo://app?vid=8d8d7d7f-9872-492e-aa4b-6830b744c763"},"vehicle_type_id":"4","last_reported":1693062359,"current_range_meters":26000,"station_id":"ce4bgt92rcd13ifvqcg0","pricing_plan_id":"free"},{"bike_id":"daec13e2-4670-467f-a8b3-7eef8534d4f8","system_id":"levelo_inurba_marseille","lat":43.307945,"lon":5.376487,"is_reserved":false,"is_disabled":false,"rental_uris":{"android":"levelo://app?vid=daec13e2-4670-467f-a8b3-7eef8534d4f8","ios":"levelo://app?vid=daec13e2-4670-467f-a8b3-7eef8534d4f8"},"vehicle_type_id":"4","last_reported":1693062359,"current_range_meters":0,"station_id":"ce4bgv92rcd13ifvqcq0","pricing_plan_id":"free"},{"bike_id":"7fa199d2-d4cf-484e-91cf-8fae70e23071","system_id":"levelo_inurba_marseille","lat":43.317075,"lon":5.377367,"is_reserved":false,"is_disabled":false,"rental_uris":{"android":"levelo://app?vid=7fa199d2-d4cf-484e-91cf-8fae70e23071","ios":"levelo://app?vid=7fa199d2-d4cf-484e-91cf-8fae70e23071"},"vehicle_type_id":"4","last_reported":1693062359,"current_range_meters":4800,"station_id":"ce4bgth2rcd13ifvqch0","pricing_plan_id":"free"},{"bike_id":"0aa9816b-a243-4957-9b2f-7ecf7fe13a29","system_id":"levelo_inurba_marseille","lat":43.317075,"lon":5.377367,"is_reserved":false,"is_disabled":false,"rental_uris":{"android":"levelo://app?vid=0aa9816b-a243-4957-9b2f-7ecf7fe13a29","ios":"levelo://app?vid=0aa9816b-a243-4957-9b2f-7ecf7fe13a29"},"vehicle_type_id":"4","last_reported":1693062359,"current_range_meters":31200,"station_id":"ce4bgth2rcd13ifvqch0","pricing_plan_id":"free"},{"bike_id":"7aed7dd7-64c1-4f32-9021-f1e41eefb4fe","system_id":"levelo_inurba_marseille","lat":43.3106,"lon":5.37874,"is_reserved":false,"is_disabled":false,"rental_uris":{"android":"levelo://app?vid=7aed7dd7-64c1-4f32-9021-f1e41eefb4fe","ios":"levelo://app?vid=7aed7dd7-64c1-4f32-9021-f1e41eefb4fe"},"vehicle_type_id":"4","last_reported":1693062359,"current_range_meters":14000,"station_id":"","pricing_plan_id":"free"},{"bike_id":"f743ff6d-63db-469f-83e8-d47d76baa8e6","system_id":"levelo_inurba_marseille","lat":43.30185,"lon":5.36615,"is_reserved":false,"is_disabled":false,"rental_uris":{"android":"levelo://app?vid=f743ff6d-63db-469f-83e8-d47d76baa8e6","ios":"levelo://app?vid=f743ff6d-63db-469f-83e8-d47d76baa8e6"},"vehicle_type_id":"4","last_reported":1693062359,"current_range_meters":11600,"station_id":"ce4bgrh2rcd13ifvqc8g","pricing_plan_id":"free"},{"bike_id":"ef399823-f9cb-4907-8fad-aaf36903d0e7","system_id":"levelo_inurba_marseille","lat":43.308012,"lon":5.381511,"is_reserved":false,"is_disabled":false,"rental_uris":{"android":"levelo://app?vid=ef399823-f9cb-4907-8fad-aaf36903d0e7","ios":"levelo://app?vid=ef399823-f9cb-4907-8fad-aaf36903d0e7"},"vehicle_type_id":"4","last_reported":1693062359,"current_range_meters":5200,"station_id":"ce4bgt12rcd13ifvqce0","pricing_plan_id":"free"},{"bike_id":"10efd65a-78ad-4b5b-93df-0aae72c840cd","system_id":"levelo_inurba_marseille","lat":43.304606,"lon":5.379026,"is_reserved":false,"is_disabled":false,"rental_uris":{"android":"levelo://app?vid=10efd65a-78ad-4b5b-93df-0aae72c840cd","ios":"levelo://app?vid=10efd65a-78ad-4b5b-93df-0aae72c840cd"},"vehicle_type_id":"4","last_reported":1693062359,"current_range_meters":31200,"station_id":"ce4bgup2rcd13ifvqcn0","pricing_plan_id":"free"},{"bike_id":"a80b8656-bf8c-45bd-a324-b37c9cfa19e0","system_id":"levelo_inurba_marseille","lat":43.304606,"lon":5.379026,"is_reserved":false,"is_disabled":false,"rental_uris":{"android":"levelo://app?vid=a80b8656-bf8c-45bd-a324-b37c9cfa19e0","ios":"levelo://app?vid=a80b8656-bf8c-45bd-a324-b37c9cfa19e0"},"vehicle_type_id":"4","last_reported":1693062359,"current_range_meters":2400,"station_id":"ce4bgup2rcd13ifvqcn0","pricing_plan_id":"free"},{"bike_id":"490f42cd-2542-4095-8488-b6db0097c654","system_id":"levelo_inurba_marseille","lat":43.304606,"lon":5.379026,"is_reserved":false,"is_disabled":false,"rental_uris":{"android":"levelo://app?vid=490f42cd-2542-4095-8488-b6db0097c654","ios":"levelo://app?vid=490f42cd-2542-4095-8488-b6db0097c654"},"vehicle_type_id":"4","last_reported":1693062359,"current_range_meters":17200,"station_id":"ce4bgup2rcd13ifvqcn0","pricing_plan_id":"free"},{"bike_id":"4e21c3e2-b408-4f24-a6a8-04dff922976a","system_id":"levelo_inurba_marseille","lat":43.304606,"lon":5.379026,"is_reserved":false,"is_disabled":false,"rental_uris":{"android":"levelo://app?vid=4e21c3e2-b408-4f24-a6a8-04dff922976a","ios":"levelo://app?vid=4e21c3e2-b408-4f24-a6a8-04dff922976a"},"vehicle_type_id":"4","last_reported":1693062359,"current_range_meters":2800,"station_id":"ce4bgup2rcd13ifvqcn0","pricing_plan_id":"free"},{"bike_id":"ba7d2ddd-a8d4-4210-8a04-fdfd5f34ced5","system_id":"levelo_inurba_marseille","lat":43.30136,"lon":5.37414,"is_reserved":false,"is_disabled":false,"rental_uris":{"android":"levelo://app?vid=ba7d2ddd-a8d4-4210-8a04-fdfd5f34ced5","ios":"levelo://app?vid=ba7d2ddd-a8d4-4210-8a04-fdfd5f34ced5"},"vehicle_type_id":"4","last_reported":1693062359,"current_range_meters":11600,"station_id":"ce4bgs92rcd13ifvqcc0","pricing_plan_id":"free"},{"bike_id":"cbc42db7-5c3a-48e5-a916-b0046195ca0d","system_id":"levelo_inurba_marseille","lat":43.299411,"lon":5.365614,"is_reserved":false,"is_disabled":false,"rental_uris":{"android":"levelo://app?vid=cbc42db7-5c3a-48e5-a916-b0046195ca0d","ios":"levelo://app?vid=cbc42db7-5c3a-48e5-a916-b0046195ca0d"},"vehicle_type_id":"4","last_reported":1693062359,"current_range_meters":15200,"station_id":"","pricing_plan_id":"free"},{"bike_id":"ea628102-f413-4421-a451-01c3055a1ca3","system_id":"levelo_inurba_marseille","lat":43.30542,"lon":5.38423,"is_reserved":false,"is_disabled":false,"rental_uris":{"android":"levelo://app?vid=ea628102-f413-4421-a451-01c3055a1ca3","ios":"levelo://app?vid=ea628102-f413-4421-a451-01c3055a1ca3"},"vehicle_type_id":"4","last_reported":1693062359,"current_range_meters":22400,"station_id":"ce4bgg92rcd13ifvqb30","pricing_plan_id":"free"},{"bike_id":"d33833fc-1832-4a43-8c70-5bbddc275d7d","system_id":"levelo_inurba_marseille","lat":43.29926,"lon":5.37457,"is_reserved":false,"is_disabled":false,"rental_uris":{"android":"levelo://app?vid=d33833fc-1832-4a43-8c70-5bbddc275d7d","ios":"levelo://app?vid=d33833fc-1832-4a43-8c70-5bbddc275d7d"},"vehicle_type_id":"4","last_reported":1693062359,"current_range_meters":30400,"station_id":"ce4bgjh2rcd13ifvqbg0","pricing_plan_id":"free"},{"bike_id":"35eec3a1-aa54-4990-8eb4-78e6c0dd24d0","system_id":"levelo_inurba_marseille","lat":43.299243,"lon":5.374807,"is_reserved":false,"is_disabled":false,"rental_uris":{"android":"levelo://app?vid=35eec3a1-aa54-4990-8eb4-78e6c0dd24d0","ios":"levelo://app?vid=35eec3a1-aa54-4990-8eb4-78e6c0dd24d0"},"vehicle_type_id":"4","last_reported":1693062359,"current_range_meters":29600,"station_id":"ce4bgjh2rcd13ifvqbg0","pricing_plan_id":"free"},{"bike_id":"e42d8fb3-3d39-4090-ae12-67624d827595","system_id":"levelo_inurba_marseille","lat":43.311722,"lon":5.387247,"is_reserved":false,"is_disabled":false,"rental_uris":{"android":"levelo://app?vid=e42d8fb3-3d39-4090-ae12-67624d827595","ios":"levelo://app?vid=e42d8fb3-3d39-4090-ae12-67624d827595"},"vehicle_type_id":"4","last_reported":1693062359,"current_range_meters":13600,"station_id":"ce4bgv12rcd13ifvqcp0","pricing_plan_id":"free"},{"bike_id":"2f9e2def-2173-4eb4-a460-9a385f59debe","system_id":"levelo_inurba_marseille","lat":43.299243,"lon":5.37481,"is_reserved":false,"is_disabled":false,"rental_uris":{"android":"levelo://app?vid=2f9e2def-2173-4eb4-a460-9a385f59debe","ios":"levelo://app?vid=2f9e2def-2173-4eb4-a460-9a385f59debe"},"vehicle_type_id":"4","last_reported":1693062359,"current_range_meters":31200,"station_id":"ce4bgjh2rcd13ifvqbg0","pricing_plan_id":"free"},{"bike_id":"74bb8e6c-4d66-4dad-992e-bd7bea15b2f1","system_id":"levelo_inurba_marseille","lat":43.311648,"lon":5.387257,"is_reserved":false,"is_disabled":false,"rental_uris":{"android":"levelo://app?vid=74bb8e6c-4d66-4dad-992e-bd7bea15b2f1","ios":"levelo://app?vid=74bb8e6c-4d66-4dad-992e-bd7bea15b2f1"},"vehicle_type_id":"4","last_reported":1693062359,"current_range_meters":0,"station_id":"ce4bgv12rcd13ifvqcp0","pricing_plan_id":"free"},{"bike_id":"8057ac88-8d25-428e-84e9-d8292b70b67a","system_id":"levelo_inurba_marseille","lat":43.328371,"lon":5.366909,"is_reserved":false,"is_disabled":false,"rental_uris":{"android":"levelo://app?vid=8057ac88-8d25-428e-84e9-d8292b70b67a","ios":"levelo://app?vid=8057ac88-8d25-428e-84e9-d8292b70b67a"},"vehicle_type_id":"4","last_reported":1693062359,"current_range_meters":31200,"station_id":"ce4bhs92rcd13ifvqi0g","pricing_plan_id":"free"},{"bike_id":"b2a6fc0b-fe04-43b7-8835-223f314ba282","system_id":"levelo_inurba_marseille","lat":43.32829,"lon":5.366933,"is_reserved":false,"is_disabled":false,"rental_uris":{"android":"levelo://app?vid=b2a6fc0b-fe04-43b7-8835-223f314ba282","ios":"levelo://app?vid=b2a6fc0b-fe04-43b7-8835-223f314ba282"},"vehicle_type_id":"4","last_reported":1693062359,"current_range_meters":18800,"station_id":"ce4bhs92rcd13ifvqi0g","pricing_plan_id":"free"},{"bike_id":"cd446b24-0605-47e8-a42c-868f9f929a8b","system_id":"levelo_inurba_marseille","lat":43.3283,"lon":5.36687,"is_reserved":false,"is_disabled":false,"rental_uris":{"android":"levelo://app?vid=cd446b24-0605-47e8-a42c-868f9f929a8b","ios":"levelo://app?vid=cd446b24-0605-47e8-a42c-868f9f929a8b"},"vehicle_type_id":"4","last_reported":1693062359,"current_range_meters":30000,"station_id":"ce4bhs92rcd13ifvqi0g","pricing_plan_id":"free"},{"bike_id":"48757815-bf0c-4a41-880d-cbf92ac43027","system_id":"levelo_inurba_marseille","lat":43.3283,"lon":5.36685,"is_reserved":false,"is_disabled":false,"rental_uris":{"android":"levelo://app?vid=48757815-bf0c-4a41-880d-cbf92ac43027","ios":"levelo://app?vid=48757815-bf0c-4a41-880d-cbf92ac43027"},"vehicle_type_id":"4","last_reported":1693062359,"current_range_meters":29200,"station_id":"ce4bhs92rcd13ifvqi0g","pricing_plan_id":"free"},{"bike_id":"2ddc5d1c-4a62-4d0b-b125-a6c57642f6bb","system_id":"levelo_inurba_marseille","lat":43.3283,"lon":5.36679,"is_reserved":false,"is_disabled":false,"rental_uris":{"android":"levelo://app?vid=2ddc5d1c-4a62-4d0b-b125-a6c57642f6bb","ios":"levelo://app?vid=2ddc5d1c-4a62-4d0b-b125-a6c57642f6bb"},"vehicle_type_id":"4","last_reported":1693062359,"current_range_meters":26000,"station_id":"ce4bhs92rcd13ifvqi0g","pricing_plan_id":"free"},{"bike_id":"704c0286-52b4-4880-abba-175a138f0784","system_id":"levelo_inurba_marseille","lat":43.328371,"lon":5.366909,"is_reserved":false,"is_disabled":false,"rental_uris":{"android":"levelo://app?vid=704c0286-52b4-4880-abba-175a138f0784","ios":"levelo://app?vid=704c0286-52b4-4880-abba-175a138f0784"},"vehicle_type_id":"4","last_reported":1693062359,"current_range_meters":22800,"station_id":"ce4bhs92rcd13ifvqi0g","pricing_plan_id":"free"},{"bike_id":"7713fce6-61f5-48dd-a139-0a91fcbcc973","system_id":"levelo_inurba_marseille","lat":43.328371,"lon":5.366909,"is_reserved":false,"is_disabled":false,"rental_uris":{"android":"levelo://app?vid=7713fce6-61f5-48dd-a139-0a91fcbcc973","ios":"levelo://app?vid=7713fce6-61f5-48dd-a139-0a91fcbcc973"},"vehicle_type_id":"4","last_reported":1693062359,"current_range_meters":30800,"station_id":"ce4bhs92rcd13ifvqi0g","pricing_plan_id":"free"},{"bike_id":"dd789220-e7b5-42c1-b9dc-dc4243148021","system_id":"levelo_inurba_marseille","lat":43.297163,"lon":5.365866,"is_reserved":false,"is_disabled":false,"rental_uris":{"android":"levelo://app?vid=dd789220-e7b5-42c1-b9dc-dc4243148021","ios":"levelo://app?vid=dd789220-e7b5-42c1-b9dc-dc4243148021"},"vehicle_type_id":"4","last_reported":1693062359,"current_range_meters":31200,"station_id":"ce4bgn12rcd13ifvqbt0","pricing_plan_id":"free"},{"bike_id":"bd0bd295-6ecc-40c4-a4d0-89f645593756","system_id":"levelo_inurba_marseille","lat":43.297163,"lon":5.365866,"is_reserved":false,"is_disabled":false,"rental_uris":{"android":"levelo://app?vid=bd0bd295-6ecc-40c4-a4d0-89f645593756","ios":"levelo://app?vid=bd0bd295-6ecc-40c4-a4d0-89f645593756"},"vehicle_type_id":"4","last_reported":1693062359,"current_range_meters":23200,"station_id":"ce4bgn12rcd13ifvqbt0","pricing_plan_id":"free"},{"bike_id":"159b9c1b-30b8-4bb8-83cb-bf2c982ae633","system_id":"levelo_inurba_marseille","lat":43.2968,"lon":5.37291,"is_reserved":false,"is_disabled":false,"rental_uris":{"android":"levelo://app?vid=159b9c1b-30b8-4bb8-83cb-bf2c982ae633","ios":"levelo://app?vid=159b9c1b-30b8-4bb8-83cb-bf2c982ae633"},"vehicle_type_id":"4","last_reported":1693062359,"current_range_meters":21600,"station_id":"ce4bgk12rcd13ifvqbj0","pricing_plan_id":"free"},{"bike_id":"703ac813-5032-457d-97cf-c3c5856df136","system_id":"levelo_inurba_marseille","lat":43.2968,"lon":5.37291,"is_reserved":false,"is_disabled":false,"rental_uris":{"android":"levelo://app?vid=703ac813-5032-457d-97cf-c3c5856df136","ios":"levelo://app?vid=703ac813-5032-457d-97cf-c3c5856df136"},"vehicle_type_id":"4","last_reported":1693062359,"current_range_meters":14800,"station_id":"ce4bgk12rcd13ifvqbj0","pricing_plan_id":"free"},{"bike_id":"d3139180-8ba9-4c91-b6e4-8baae3c22113","system_id":"levelo_inurba_marseille","lat":43.296131,"lon":5.370791,"is_reserved":false,"is_disabled":false,"rental_uris":{"android":"levelo://app?vid=d3139180-8ba9-4c91-b6e4-8baae3c22113","ios":"levelo://app?vid=d3139180-8ba9-4c91-b6e4-8baae3c22113"},"vehicle_type_id":"4","last_reported":1693062359,"current_range_meters":31200,"station_id":"ce4bgnh2rcd13ifvqc0g","pricing_plan_id":"free"},{"bike_id":"65d934c8-ea94-404c-b991-a012f59c0b64","system_id":"levelo_inurba_marseille","lat":43.296131,"lon":5.370773,"is_reserved":false,"is_disabled":false,"rental_uris":{"android":"levelo://app?vid=65d934c8-ea94-404c-b991-a012f59c0b64","ios":"levelo://app?vid=65d934c8-ea94-404c-b991-a012f59c0b64"},"vehicle_type_id":"4","last_reported":1693062359,"current_range_meters":28400,"station_id":"ce4bgnh2rcd13ifvqc0g","pricing_plan_id":"free"},{"bike_id":"577cf1c6-4d07-4c6c-b7e2-4bf828af87b3","system_id":"levelo_inurba_marseille","lat":43.299028,"lon":5.381509,"is_reserved":false,"is_disabled":false,"rental_uris":{"android":"levelo://app?vid=577cf1c6-4d07-4c6c-b7e2-4bf828af87b3","ios":"levelo://app?vid=577cf1c6-4d07-4c6c-b7e2-4bf828af87b3"},"vehicle_type_id":"4","last_reported":1693062359,"current_range_meters":13600,"station_id":"ce4bgj12rcd13ifvqbc0","pricing_plan_id":"free"},{"bike_id":"78d18e22-74f0-448e-928b-17a6898509bc","system_id":"levelo_inurba_marseille","lat":43.296921,"lon":5.376579,"is_reserved":false,"is_disabled":false,"rental_uris":{"android":"levelo://app?vid=78d18e22-74f0-448e-928b-17a6898509bc","ios":"levelo://app?vid=78d18e22-74f0-448e-928b-17a6898509bc"},"vehicle_type_id":"4","last_reported":1693062359,"current_range_meters":10000,"station_id":"ce4bgkh2rcd13ifvqbl0","pricing_plan_id":"free"},{"bike_id":"584be591-3fa1-4692-8c73-51b44e6ffb30","system_id":"levelo_inurba_marseille","lat":43.296935,"lon":5.376544,"is_reserved":false,"is_disabled":false,"rental_uris":{"android":"levelo://app?vid=584be591-3fa1-4692-8c73-51b44e6ffb30","ios":"levelo://app?vid=584be591-3fa1-4692-8c73-51b44e6ffb30"},"vehicle_type_id":"4","last_reported":1693062359,"current_range_meters":28400,"station_id":"ce4bgkh2rcd13ifvqbl0","pricing_plan_id":"free"},{"bike_id":"c31c8613-c87f-4bad-975d-40dd860c4f31","system_id":"levelo_inurba_marseille","lat":43.30959,"lon":5.39021,"is_reserved":false,"is_disabled":false,"rental_uris":{"android":"levelo://app?vid=c31c8613-c87f-4bad-975d-40dd860c4f31","ios":"levelo://app?vid=c31c8613-c87f-4bad-975d-40dd860c4f31"},"vehicle_type_id":"4","last_reported":1693062359,"current_range_meters":31200,"station_id":"ce4bgup2rcd13ifvqco0","pricing_plan_id":"free"},{"bike_id":"64ecbfc8-ff67-4eb0-b8ff-1234008507fa","system_id":"levelo_inurba_marseille","lat":43.317557,"lon":5.390173,"is_reserved":false,"is_disabled":false,"rental_uris":{"android":"levelo://app?vid=64ecbfc8-ff67-4eb0-b8ff-1234008507fa","ios":"levelo://app?vid=64ecbfc8-ff67-4eb0-b8ff-1234008507fa"},"vehicle_type_id":"4","last_reported":1693062359,"current_range_meters":16000,"station_id":"ce4bhqp2rcd13ifvqhng","pricing_plan_id":"free"},{"bike_id":"d2612f93-4d67-4063-bece-84f523bf8653","system_id":"levelo_inurba_marseille","lat":43.317557,"lon":5.390173,"is_reserved":false,"is_disabled":false,"rental_uris":{"android":"levelo://app?vid=d2612f93-4d67-4063-bece-84f523bf8653","ios":"levelo://app?vid=d2612f93-4d67-4063-bece-84f523bf8653"},"vehicle_type_id":"4","last_reported":1693062359,"current_range_meters":27600,"station_id":"ce4bhqp2rcd13ifvqhng","pricing_plan_id":"free"},{"bike_id":"2c93ce6f-c5e1-4ec9-9941-ebb7469bb8f2","system_id":"levelo_inurba_marseille","lat":43.317557,"lon":5.390173,"is_reserved":false,"is_disabled":false,"rental_uris":{"android":"levelo://app?vid=2c93ce6f-c5e1-4ec9-9941-ebb7469bb8f2","ios":"levelo://app?vid=2c93ce6f-c5e1-4ec9-9941-ebb7469bb8f2"},"vehicle_type_id":"4","last_reported":1693062359,"current_range_meters":31200,"station_id":"ce4bhqp2rcd13ifvqhng","pricing_plan_id":"free"},{"bike_id":"13de743a-38bd-4d9e-a06e-b61cadc8e9a4","system_id":"levelo_inurba_marseille","lat":43.296277,"lon":5.377108,"is_reserved":false,"is_disabled":false,"rental_uris":{"android":"levelo://app?vid=13de743a-38bd-4d9e-a06e-b61cadc8e9a4","ios":"levelo://app?vid=13de743a-38bd-4d9e-a06e-b61cadc8e9a4"},"vehicle_type_id":"4","last_reported":1693062359,"current_range_meters":13600,"station_id":"ce4bgi92rcd13ifvqb90","pricing_plan_id":"free"},{"bike_id":"952a19e7-6602-41c3-942f-79cfb514366f","system_id":"levelo_inurba_marseille","lat":43.296263,"lon":5.377094,"is_reserved":false,"is_disabled":false,"rental_uris":{"android":"levelo://app?vid=952a19e7-6602-41c3-942f-79cfb514366f","ios":"levelo://app?vid=952a19e7-6602-41c3-942f-79cfb514366f"},"vehicle_type_id":"4","last_reported":1693062359,"current_range_meters":30400,"station_id":"ce4bgi92rcd13ifvqb90","pricing_plan_id":"free"},{"bike_id":"329b52da-6179-4119-8885-76b50cbdc2a9","system_id":"levelo_inurba_marseille","lat":43.299707,"lon":5.384859,"is_reserved":false,"is_disabled":false,"rental_uris":{"android":"levelo://app?vid=329b52da-6179-4119-8885-76b50cbdc2a9","ios":"levelo://app?vid=329b52da-6179-4119-8885-76b50cbdc2a9"},"vehicle_type_id":"4","last_reported":1693062359,"current_range_meters":23200,"station_id":"ce4bgj92rcd13ifvqbd0","pricing_plan_id":"free"},{"bike_id":"3bb87ff0-e989-4f05-9309-9659a8065b33","system_id":"levelo_inurba_marseille","lat":43.299724,"lon":5.384848,"is_reserved":false,"is_disabled":false,"rental_uris":{"android":"levelo://app?vid=3bb87ff0-e989-4f05-9309-9659a8065b33","ios":"levelo://app?vid=3bb87ff0-e989-4f05-9309-9659a8065b33"},"vehicle_type_id":"4","last_reported":1693062359,"current_range_meters":12400,"station_id":"ce4bgj92rcd13ifvqbd0","pricing_plan_id":"free"},{"bike_id":"7b694443-f8bd-415b-8543-e7ff248e2b5f","system_id":"levelo_inurba_marseille","lat":43.32363,"lon":5.38877,"is_reserved":false,"is_disabled":false,"rental_uris":{"android":"levelo://app?vid=7b694443-f8bd-415b-8543-e7ff248e2b5f","ios":"levelo://app?vid=7b694443-f8bd-415b-8543-e7ff248e2b5f"},"vehicle_type_id":"4","last_reported":1693062359,"current_range_meters":13600,"station_id":"ce4bhqp2rcd13ifvqhog","pricing_plan_id":"free"},{"bike_id":"00883cd9-a56a-4720-bb55-237d0136a4a1","system_id":"levelo_inurba_marseille","lat":43.32367,"lon":5.388836,"is_reserved":false,"is_disabled":false,"rental_uris":{"android":"levelo://app?vid=00883cd9-a56a-4720-bb55-237d0136a4a1","ios":"levelo://app?vid=00883cd9-a56a-4720-bb55-237d0136a4a1"},"vehicle_type_id":"4","last_reported":1693062359,"current_range_meters":16400,"station_id":"ce4bhqp2rcd13ifvqhog","pricing_plan_id":"free"},{"bike_id":"200aaa7a-91c8-43a3-8d7a-7ab4227c2ada","system_id":"levelo_inurba_marseille","lat":43.32366,"lon":5.38878,"is_reserved":false,"is_disabled":false,"rental_uris":{"android":"levelo://app?vid=200aaa7a-91c8-43a3-8d7a-7ab4227c2ada","ios":"levelo://app?vid=200aaa7a-91c8-43a3-8d7a-7ab4227c2ada"},"vehicle_type_id":"4","last_reported":1693062359,"current_range_meters":15600,"station_id":"ce4bhqp2rcd13ifvqhog","pricing_plan_id":"free"},{"bike_id":"e79b3b5e-66ee-491c-8c75-ced80876f171","system_id":"levelo_inurba_marseille","lat":43.32367,"lon":5.388836,"is_reserved":false,"is_disabled":false,"rental_uris":{"android":"levelo://app?vid=e79b3b5e-66ee-491c-8c75-ced80876f171","ios":"levelo://app?vid=e79b3b5e-66ee-491c-8c75-ced80876f171"},"vehicle_type_id":"4","last_reported":1693062359,"current_range_meters":19200,"station_id":"ce4bhqp2rcd13ifvqhog","pricing_plan_id":"free"},{"bike_id":"4c4c1eac-3ee0-415a-9977-dd90a394fdd4","system_id":"levelo_inurba_marseille","lat":43.32359,"lon":5.3889,"is_reserved":false,"is_disabled":false,"rental_uris":{"android":"levelo://app?vid=4c4c1eac-3ee0-415a-9977-dd90a394fdd4","ios":"levelo://app?vid=4c4c1eac-3ee0-415a-9977-dd90a394fdd4"},"vehicle_type_id":"4","last_reported":1693062359,"current_range_meters":16800,"station_id":"ce4bhqp2rcd13ifvqhog","pricing_plan_id":"free"},{"bike_id":"7fc7692c-aca5-4dc0-a60c-eb50a60f5179","system_id":"levelo_inurba_marseille","lat":43.32368,"lon":5.38882,"is_reserved":false,"is_disabled":false,"rental_uris":{"android":"levelo://app?vid=7fc7692c-aca5-4dc0-a60c-eb50a60f5179","ios":"levelo://app?vid=7fc7692c-aca5-4dc0-a60c-eb50a60f5179"},"vehicle_type_id":"4","last_reported":1693062359,"current_range_meters":8800,"station_id":"ce4bhqp2rcd13ifvqhog","pricing_plan_id":"free"},{"bike_id":"f910f113-d32f-4a8b-a00f-a96762bf6fc9","system_id":"levelo_inurba_marseille","lat":43.32362,"lon":5.38888,"is_reserved":false,"is_disabled":false,"rental_uris":{"android":"levelo://app?vid=f910f113-d32f-4a8b-a00f-a96762bf6fc9","ios":"levelo://app?vid=f910f113-d32f-4a8b-a00f-a96762bf6fc9"},"vehicle_type_id":"4","last_reported":1693062359,"current_range_meters":25200,"station_id":"ce4bhqp2rcd13ifvqhog","pricing_plan_id":"free"},{"bike_id":"cacd3475-4f52-4393-95ca-751300d3437b","system_id":"levelo_inurba_marseille","lat":43.29601,"lon":5.381084,"is_reserved":false,"is_disabled":false,"rental_uris":{"android":"levelo://app?vid=cacd3475-4f52-4393-95ca-751300d3437b","ios":"levelo://app?vid=cacd3475-4f52-4393-95ca-751300d3437b"},"vehicle_type_id":"4","last_reported":1693062359,"current_range_meters":0,"station_id":"ce4bgl12rcd13ifvqbo0","pricing_plan_id":"free"},{"bike_id":"34312f35-9d72-423d-86c3-f4673a16d5d5","system_id":"levelo_inurba_marseille","lat":43.29601,"lon":5.381084,"is_reserved":false,"is_disabled":false,"rental_uris":{"android":"levelo://app?vid=34312f35-9d72-423d-86c3-f4673a16d5d5","ios":"levelo://app?vid=34312f35-9d72-423d-86c3-f4673a16d5d5"},"vehicle_type_id":"4","last_reported":1693062359,"current_range_meters":0,"station_id":"ce4bgl12rcd13ifvqbo0","pricing_plan_id":"free"},{"bike_id":"7690e7ac-b908-4fc0-ade2-e7f727ef62a4","system_id":"levelo_inurba_marseille","lat":43.293249,"lon":5.371578,"is_reserved":false,"is_disabled":false,"rental_uris":{"android":"levelo://app?vid=7690e7ac-b908-4fc0-ade2-e7f727ef62a4","ios":"levelo://app?vid=7690e7ac-b908-4fc0-ade2-e7f727ef62a4"},"vehicle_type_id":"4","last_reported":1693062359,"current_range_meters":18000,"station_id":"ce4bgh92rcd13ifvqb40","pricing_plan_id":"free"},{"bike_id":"2d324543-c0dc-4778-bbf2-0ac8ee7494db","system_id":"levelo_inurba_marseille","lat":43.292749,"lon":5.368398,"is_reserved":false,"is_disabled":false,"rental_uris":{"android":"levelo://app?vid=2d324543-c0dc-4778-bbf2-0ac8ee7494db","ios":"levelo://app?vid=2d324543-c0dc-4778-bbf2-0ac8ee7494db"},"vehicle_type_id":"4","last_reported":1693062359,"current_range_meters":19200,"station_id":"ce4bhbp2rcd13ifvqesg","pricing_plan_id":"free"},{"bike_id":"66ad4b17-a7b3-45e7-9bd3-f9342aa4ccba","system_id":"levelo_inurba_marseille","lat":43.292749,"lon":5.368398,"is_reserved":false,"is_disabled":false,"rental_uris":{"android":"levelo://app?vid=66ad4b17-a7b3-45e7-9bd3-f9342aa4ccba","ios":"levelo://app?vid=66ad4b17-a7b3-45e7-9bd3-f9342aa4ccba"},"vehicle_type_id":"4","last_reported":1693062359,"current_range_meters":18400,"station_id":"ce4bhbp2rcd13ifvqesg","pricing_plan_id":"free"},{"bike_id":"38fef587-7cc5-4800-b069-87b8f296a10a","system_id":"levelo_inurba_marseille","lat":43.293009,"lon":5.374584,"is_reserved":false,"is_disabled":false,"rental_uris":{"android":"levelo://app?vid=38fef587-7cc5-4800-b069-87b8f296a10a","ios":"levelo://app?vid=38fef587-7cc5-4800-b069-87b8f296a10a"},"vehicle_type_id":"4","last_reported":1693062359,"current_range_meters":31200,"station_id":"ce4bgi12rcd13ifvqb70","pricing_plan_id":"free"},{"bike_id":"6533c646-1091-4458-9ef2-bc9d36dce22d","system_id":"levelo_inurba_marseille","lat":43.29302,"lon":5.37452,"is_reserved":false,"is_disabled":false,"rental_uris":{"android":"levelo://app?vid=6533c646-1091-4458-9ef2-bc9d36dce22d","ios":"levelo://app?vid=6533c646-1091-4458-9ef2-bc9d36dce22d"},"vehicle_type_id":"4","last_reported":1693062359,"current_range_meters":29200,"station_id":"ce4bgi12rcd13ifvqb70","pricing_plan_id":"free"},{"bike_id":"41edf2b8-8e3f-40b7-8702-d83ad3d76c0c","system_id":"levelo_inurba_marseille","lat":43.302757,"lon":5.39166,"is_reserved":false,"is_disabled":false,"rental_uris":{"android":"levelo://app?vid=41edf2b8-8e3f-40b7-8702-d83ad3d76c0c","ios":"levelo://app?vid=41edf2b8-8e3f-40b7-8702-d83ad3d76c0c"},"vehicle_type_id":"4","last_reported":1693062359,"current_range_meters":800,"station_id":"","pricing_plan_id":"free"},{"bike_id":"101868bb-583b-441a-be2b-f7f216e0b623","system_id":"levelo_inurba_marseille","lat":43.29288,"lon":5.37454,"is_reserved":false,"is_disabled":false,"rental_uris":{"android":"levelo://app?vid=101868bb-583b-441a-be2b-f7f216e0b623","ios":"levelo://app?vid=101868bb-583b-441a-be2b-f7f216e0b623"},"vehicle_type_id":"4","last_reported":1693062359,"current_range_meters":29600,"station_id":"ce4bgi12rcd13ifvqb70","pricing_plan_id":"free"},{"bike_id":"59d4a7cc-c4d8-47e1-a63f-2e26b5d209c3","system_id":"levelo_inurba_marseille","lat":43.2936,"lon":5.37835,"is_reserved":false,"is_disabled":false,"rental_uris":{"android":"levelo://app?vid=59d4a7cc-c4d8-47e1-a63f-2e26b5d209c3","ios":"levelo://app?vid=59d4a7cc-c4d8-47e1-a63f-2e26b5d209c3"},"vehicle_type_id":"4","last_reported":1693062359,"current_range_meters":30800,"station_id":"ce4bgjh2rcd13ifvqbf0","pricing_plan_id":"free"},{"bike_id":"0724f352-a262-45b7-9b71-9a09ff17d945","system_id":"levelo_inurba_marseille","lat":43.303,"lon":5.39216,"is_reserved":false,"is_disabled":false,"rental_uris":{"android":"levelo://app?vid=0724f352-a262-45b7-9b71-9a09ff17d945","ios":"levelo://app?vid=0724f352-a262-45b7-9b71-9a09ff17d945"},"vehicle_type_id":"4","last_reported":1693062359,"current_range_meters":12400,"station_id":"ce4bgkh2rcd13ifvqbk0","pricing_plan_id":"free"},{"bike_id":"54e63122-b639-4ca2-b305-27c6f86d61f3","system_id":"levelo_inurba_marseille","lat":43.300852,"lon":5.390859,"is_reserved":false,"is_disabled":false,"rental_uris":{"android":"levelo://app?vid=54e63122-b639-4ca2-b305-27c6f86d61f3","ios":"levelo://app?vid=54e63122-b639-4ca2-b305-27c6f86d61f3"},"vehicle_type_id":"4","last_reported":1693062359,"current_range_meters":800,"station_id":"ce4bh192rcd13ifvqdb0","pricing_plan_id":"free"},{"bike_id":"2b4fcd45-87bd-4b59-a517-edb041451a97","system_id":"levelo_inurba_marseille","lat":43.292311,"lon":5.360731,"is_reserved":false,"is_disabled":false,"rental_uris":{"android":"levelo://app?vid=2b4fcd45-87bd-4b59-a517-edb041451a97","ios":"levelo://app?vid=2b4fcd45-87bd-4b59-a517-edb041451a97"},"vehicle_type_id":"4","last_reported":1693062359,"current_range_meters":29600,"station_id":"ce4bhbh2rcd13ifvqeqg","pricing_plan_id":"free"},{"bike_id":"76af8d34-d8ec-4ca6-9946-3f0a9cb43ea4","system_id":"levelo_inurba_marseille","lat":43.300852,"lon":5.390859,"is_reserved":false,"is_disabled":false,"rental_uris":{"android":"levelo://app?vid=76af8d34-d8ec-4ca6-9946-3f0a9cb43ea4","ios":"levelo://app?vid=76af8d34-d8ec-4ca6-9946-3f0a9cb43ea4"},"vehicle_type_id":"4","last_reported":1693062359,"current_range_meters":18400,"station_id":"ce4bh192rcd13ifvqdb0","pricing_plan_id":"free"},{"bike_id":"3764ee4f-5949-4cff-8d2e-a41c7bc276d9","system_id":"levelo_inurba_marseille","lat":43.302008,"lon":5.394694,"is_reserved":false,"is_disabled":false,"rental_uris":{"android":"levelo://app?vid=3764ee4f-5949-4cff-8d2e-a41c7bc276d9","ios":"levelo://app?vid=3764ee4f-5949-4cff-8d2e-a41c7bc276d9"},"vehicle_type_id":"4","last_reported":1693062359,"current_range_meters":16400,"station_id":"ce4bh0p2rcd13ifvqd70","pricing_plan_id":"free"},{"bike_id":"dc5c3ba1-09bc-4f64-af35-0b1696fba5f4","system_id":"levelo_inurba_marseille","lat":43.302174,"lon":5.394733,"is_reserved":false,"is_disabled":false,"rental_uris":{"android":"levelo://app?vid=dc5c3ba1-09bc-4f64-af35-0b1696fba5f4","ios":"levelo://app?vid=dc5c3ba1-09bc-4f64-af35-0b1696fba5f4"},"vehicle_type_id":"4","last_reported":1693062359,"current_range_meters":18400,"station_id":"","pricing_plan_id":"free"},{"bike_id":"2f93318d-a393-4e93-88c9-60d3ec241b0e","system_id":"levelo_inurba_marseille","lat":43.289184,"lon":5.366408,"is_reserved":false,"is_disabled":false,"rental_uris":{"android":"levelo://app?vid=2f93318d-a393-4e93-88c9-60d3ec241b0e","ios":"levelo://app?vid=2f93318d-a393-4e93-88c9-60d3ec241b0e"},"vehicle_type_id":"4","last_reported":1693062359,"current_range_meters":31200,"station_id":"ce4bhap2rcd13ifvqek0","pricing_plan_id":"free"},{"bike_id":"64966240-7aa1-495b-98d5-d519e4d23eeb","system_id":"levelo_inurba_marseille","lat":43.289184,"lon":5.366408,"is_reserved":false,"is_disabled":false,"rental_uris":{"android":"levelo://app?vid=64966240-7aa1-495b-98d5-d519e4d23eeb","ios":"levelo://app?vid=64966240-7aa1-495b-98d5-d519e4d23eeb"},"vehicle_type_id":"4","last_reported":1693062359,"current_range_meters":1200,"station_id":"ce4bhap2rcd13ifvqek0","pricing_plan_id":"free"},{"bike_id":"20ffba7b-269c-4189-a2ed-202399a6b20f","system_id":"levelo_inurba_marseille","lat":43.290104,"lon":5.356111,"is_reserved":false,"is_disabled":false,"rental_uris":{"android":"levelo://app?vid=20ffba7b-269c-4189-a2ed-202399a6b20f","ios":"levelo://app?vid=20ffba7b-269c-4189-a2ed-202399a6b20f"},"vehicle_type_id":"4","last_reported":1693062359,"current_range_meters":3200,"station_id":"ce4bhb92rcd13ifvqen0","pricing_plan_id":"free"},{"bike_id":"1895038e-acdb-4d35-aa35-e1291f23a30a","system_id":"levelo_inurba_marseille","lat":43.290103,"lon":5.356114,"is_reserved":false,"is_disabled":false,"rental_uris":{"android":"levelo://app?vid=1895038e-acdb-4d35-aa35-e1291f23a30a","ios":"levelo://app?vid=1895038e-acdb-4d35-aa35-e1291f23a30a"},"vehicle_type_id":"4","last_reported":1693062359,"current_range_meters":32000,"station_id":"ce4bhb92rcd13ifvqen0","pricing_plan_id":"free"},{"bike_id":"d50a4995-8e10-4632-8ef7-bf14237faa27","system_id":"levelo_inurba_marseille","lat":43.290103,"lon":5.356114,"is_reserved":false,"is_disabled":false,"rental_uris":{"android":"levelo://app?vid=d50a4995-8e10-4632-8ef7-bf14237faa27","ios":"levelo://app?vid=d50a4995-8e10-4632-8ef7-bf14237faa27"},"vehicle_type_id":"4","last_reported":1693062359,"current_range_meters":7600,"station_id":"ce4bhb92rcd13ifvqen0","pricing_plan_id":"free"},{"bike_id":"1c07e25f-84db-4513-bedb-11b97c6ec9b6","system_id":"levelo_inurba_marseille","lat":43.33049,"lon":5.38915,"is_reserved":false,"is_disabled":false,"rental_uris":{"android":"levelo://app?vid=1c07e25f-84db-4513-bedb-11b97c6ec9b6","ios":"levelo://app?vid=1c07e25f-84db-4513-bedb-11b97c6ec9b6"},"vehicle_type_id":"4","last_reported":1693062359,"current_range_meters":24000,"station_id":"ce4bhr92rcd13ifvqhrg","pricing_plan_id":"free"},{"bike_id":"f10717b1-2d8e-45e1-9f93-7c87584a474a","system_id":"levelo_inurba_marseille","lat":43.33044,"lon":5.38923,"is_reserved":false,"is_disabled":false,"rental_uris":{"android":"levelo://app?vid=f10717b1-2d8e-45e1-9f93-7c87584a474a","ios":"levelo://app?vid=f10717b1-2d8e-45e1-9f93-7c87584a474a"},"vehicle_type_id":"4","last_reported":1693062359,"current_range_meters":29200,"station_id":"ce4bhr92rcd13ifvqhrg","pricing_plan_id":"free"},{"bike_id":"6093d433-f9d6-48fe-897b-a1be7c29ef34","system_id":"levelo_inurba_marseille","lat":43.29003,"lon":5.356165,"is_reserved":false,"is_disabled":false,"rental_uris":{"android":"levelo://app?vid=6093d433-f9d6-48fe-897b-a1be7c29ef34","ios":"levelo://app?vid=6093d433-f9d6-48fe-897b-a1be7c29ef34"},"vehicle_type_id":"4","last_reported":1693062359,"current_range_meters":31200,"station_id":"ce4bhb92rcd13ifvqen0","pricing_plan_id":"free"},{"bike_id":"a4df99ce-0488-49dd-a888-94686f562e88","system_id":"levelo_inurba_marseille","lat":43.290104,"lon":5.356111,"is_reserved":false,"is_disabled":false,"rental_uris":{"android":"levelo://app?vid=a4df99ce-0488-49dd-a888-94686f562e88","ios":"levelo://app?vid=a4df99ce-0488-49dd-a888-94686f562e88"},"vehicle_type_id":"4","last_reported":1693062359,"current_range_meters":30400,"station_id":"ce4bhb92rcd13ifvqen0","pricing_plan_id":"free"},{"bike_id":"d9f31020-183b-47a9-a3dd-67b0607cd809","system_id":"levelo_inurba_marseille","lat":43.290104,"lon":5.356111,"is_reserved":false,"is_disabled":false,"rental_uris":{"android":"levelo://app?vid=d9f31020-183b-47a9-a3dd-67b0607cd809","ios":"levelo://app?vid=d9f31020-183b-47a9-a3dd-67b0607cd809"},"vehicle_type_id":"4","last_reported":1693062359,"current_range_meters":25600,"station_id":"ce4bhb92rcd13ifvqen0","pricing_plan_id":"free"},{"bike_id":"9346843c-3d2c-4c6e-9c40-d523aa4883ce","system_id":"levelo_inurba_marseille","lat":43.295169,"lon":5.390426,"is_reserved":false,"is_disabled":false,"rental_uris":{"android":"levelo://app?vid=9346843c-3d2c-4c6e-9c40-d523aa4883ce","ios":"levelo://app?vid=9346843c-3d2c-4c6e-9c40-d523aa4883ce"},"vehicle_type_id":"4","last_reported":1693062359,"current_range_meters":19600,"station_id":"ce4bh3p2rcd13ifvqdp0","pricing_plan_id":"free"},{"bike_id":"1d3969b0-3323-405d-87e4-e78baa00c737","system_id":"levelo_inurba_marseille","lat":43.295169,"lon":5.390426,"is_reserved":false,"is_disabled":false,"rental_uris":{"android":"levelo://app?vid=1d3969b0-3323-405d-87e4-e78baa00c737","ios":"levelo://app?vid=1d3969b0-3323-405d-87e4-e78baa00c737"},"vehicle_type_id":"4","last_reported":1693062359,"current_range_meters":16000,"station_id":"ce4bh3p2rcd13ifvqdp0","pricing_plan_id":"free"},{"bike_id":"326a75a0-bd1a-4843-b465-85c955b25713","system_id":"levelo_inurba_marseille","lat":43.28843,"lon":5.3584,"is_reserved":false,"is_disabled":false,"rental_uris":{"android":"levelo://app?vid=326a75a0-bd1a-4843-b465-85c955b25713","ios":"levelo://app?vid=326a75a0-bd1a-4843-b465-85c955b25713"},"vehicle_type_id":"4","last_reported":1693062359,"current_range_meters":0,"station_id":"ce4bhb12rcd13ifvqem0","pricing_plan_id":"free"},{"bike_id":"23dc53a3-fae6-436c-a8b8-40fef784c08a","system_id":"levelo_inurba_marseille","lat":43.30933,"lon":5.40139,"is_reserved":false,"is_disabled":false,"rental_uris":{"android":"levelo://app?vid=23dc53a3-fae6-436c-a8b8-40fef784c08a","ios":"levelo://app?vid=23dc53a3-fae6-436c-a8b8-40fef784c08a"},"vehicle_type_id":"4","last_reported":1693062359,"current_range_meters":26400,"station_id":"ce4bgvp2rcd13ifvqct0","pricing_plan_id":"free"},{"bike_id":"0c3fe754-7f33-4abd-bf78-51a9b801cc34","system_id":"levelo_inurba_marseille","lat":43.33779,"lon":5.37438,"is_reserved":false,"is_disabled":false,"rental_uris":{"android":"levelo://app?vid=0c3fe754-7f33-4abd-bf78-51a9b801cc34","ios":"levelo://app?vid=0c3fe754-7f33-4abd-bf78-51a9b801cc34"},"vehicle_type_id":"4","last_reported":1693062359,"current_range_meters":15200,"station_id":"","pricing_plan_id":"free"},{"bike_id":"c2fb3b32-5230-46dc-b7c4-a921b2c88e7d","system_id":"levelo_inurba_marseille","lat":43.301117,"lon":5.398795,"is_reserved":false,"is_disabled":false,"rental_uris":{"android":"levelo://app?vid=c2fb3b32-5230-46dc-b7c4-a921b2c88e7d","ios":"levelo://app?vid=c2fb3b32-5230-46dc-b7c4-a921b2c88e7d"},"vehicle_type_id":"4","last_reported":1693062359,"current_range_meters":25200,"station_id":"ce4bh0h2rcd13ifvqd40","pricing_plan_id":"free"},{"bike_id":"75199276-b705-4ad7-b6a9-49aeaa84628a","system_id":"levelo_inurba_marseille","lat":43.286591,"lon":5.363346,"is_reserved":false,"is_disabled":false,"rental_uris":{"android":"levelo://app?vid=75199276-b705-4ad7-b6a9-49aeaa84628a","ios":"levelo://app?vid=75199276-b705-4ad7-b6a9-49aeaa84628a"},"vehicle_type_id":"4","last_reported":1693062359,"current_range_meters":30400,"station_id":"ce4bhah2rcd13ifvqej0","pricing_plan_id":"free"},{"bike_id":"2365150f-73ab-4507-aea4-76016e6109c8","system_id":"levelo_inurba_marseille","lat":43.286593,"lon":5.363346,"is_reserved":false,"is_disabled":false,"rental_uris":{"android":"levelo://app?vid=2365150f-73ab-4507-aea4-76016e6109c8","ios":"levelo://app?vid=2365150f-73ab-4507-aea4-76016e6109c8"},"vehicle_type_id":"4","last_reported":1693062359,"current_range_meters":31200,"station_id":"ce4bhah2rcd13ifvqej0","pricing_plan_id":"free"},{"bike_id":"83e5270c-6e46-4da4-bee9-09a873efdb5a","system_id":"levelo_inurba_marseille","lat":43.286039,"lon":5.370679,"is_reserved":false,"is_disabled":false,"rental_uris":{"android":"levelo://app?vid=83e5270c-6e46-4da4-bee9-09a873efdb5a","ios":"levelo://app?vid=83e5270c-6e46-4da4-bee9-09a873efdb5a"},"vehicle_type_id":"4","last_reported":1693062359,"current_range_meters":26400,"station_id":"ce4bht12rcd13ifvqi60","pricing_plan_id":"free"},{"bike_id":"c6383863-2c04-4511-9a4b-a00a12397e80","system_id":"levelo_inurba_marseille","lat":43.28608,"lon":5.37058,"is_reserved":false,"is_disabled":false,"rental_uris":{"android":"levelo://app?vid=c6383863-2c04-4511-9a4b-a00a12397e80","ios":"levelo://app?vid=c6383863-2c04-4511-9a4b-a00a12397e80"},"vehicle_type_id":"4","last_reported":1693062359,"current_range_meters":25200,"station_id":"ce4bht12rcd13ifvqi60","pricing_plan_id":"free"},{"bike_id":"a9306cfc-7388-4ce6-8d68-4d47b0fa789b","system_id":"levelo_inurba_marseille","lat":43.286039,"lon":5.370681,"is_reserved":false,"is_disabled":false,"rental_uris":{"android":"levelo://app?vid=a9306cfc-7388-4ce6-8d68-4d47b0fa789b","ios":"levelo://app?vid=a9306cfc-7388-4ce6-8d68-4d47b0fa789b"},"vehicle_type_id":"4","last_reported":1693062359,"current_range_meters":11600,"station_id":"ce4bht12rcd13ifvqi60","pricing_plan_id":"free"},{"bike_id":"06d2cf2b-d531-45d0-b08c-8c2f9031f58d","system_id":"levelo_inurba_marseille","lat":43.286039,"lon":5.370681,"is_reserved":false,"is_disabled":false,"rental_uris":{"android":"levelo://app?vid=06d2cf2b-d531-45d0-b08c-8c2f9031f58d","ios":"levelo://app?vid=06d2cf2b-d531-45d0-b08c-8c2f9031f58d"},"vehicle_type_id":"4","last_reported":1693062359,"current_range_meters":10400,"station_id":"ce4bht12rcd13ifvqi60","pricing_plan_id":"free"},{"bike_id":"7da9e437-1e79-4b5f-9ab0-65254ac17dd7","system_id":"levelo_inurba_marseille","lat":43.31649,"lon":5.40438,"is_reserved":false,"is_disabled":false,"rental_uris":{"android":"levelo://app?vid=7da9e437-1e79-4b5f-9ab0-65254ac17dd7","ios":"levelo://app?vid=7da9e437-1e79-4b5f-9ab0-65254ac17dd7"},"vehicle_type_id":"4","last_reported":1693062359,"current_range_meters":12800,"station_id":"ce4bh012rcd13ifvqd00","pricing_plan_id":"free"},{"bike_id":"dc6c3ee8-283f-4020-999d-520a007f4db2","system_id":"levelo_inurba_marseille","lat":43.291994,"lon":5.392907,"is_reserved":false,"is_disabled":false,"rental_uris":{"android":"levelo://app?vid=dc6c3ee8-283f-4020-999d-520a007f4db2","ios":"levelo://app?vid=dc6c3ee8-283f-4020-999d-520a007f4db2"},"vehicle_type_id":"4","last_reported":1693062359,"current_range_meters":1600,"station_id":"ce4bh192rcd13ifvqdd0","pricing_plan_id":"free"},{"bike_id":"7836959f-06dd-454a-bafd-7f9f0e1f2900","system_id":"levelo_inurba_marseille","lat":43.291994,"lon":5.392907,"is_reserved":false,"is_disabled":false,"rental_uris":{"android":"levelo://app?vid=7836959f-06dd-454a-bafd-7f9f0e1f2900","ios":"levelo://app?vid=7836959f-06dd-454a-bafd-7f9f0e1f2900"},"vehicle_type_id":"4","last_reported":1693062359,"current_range_meters":0,"station_id":"ce4bh192rcd13ifvqdd0","pricing_plan_id":"free"},{"bike_id":"217bb5de-ff4f-4f52-815a-b930dffb0478","system_id":"levelo_inurba_marseille","lat":43.285856,"lon":5.350771,"is_reserved":false,"is_disabled":false,"rental_uris":{"android":"levelo://app?vid=217bb5de-ff4f-4f52-815a-b930dffb0478","ios":"levelo://app?vid=217bb5de-ff4f-4f52-815a-b930dffb0478"},"vehicle_type_id":"4","last_reported":1693062359,"current_range_meters":31200,"station_id":"ce4bhch2rcd13ifvqeug","pricing_plan_id":"free"},{"bike_id":"ea352798-36ff-4aaa-9ddc-7f72ef160cbe","system_id":"levelo_inurba_marseille","lat":43.285856,"lon":5.350771,"is_reserved":false,"is_disabled":false,"rental_uris":{"android":"levelo://app?vid=ea352798-36ff-4aaa-9ddc-7f72ef160cbe","ios":"levelo://app?vid=ea352798-36ff-4aaa-9ddc-7f72ef160cbe"},"vehicle_type_id":"4","last_reported":1693062359,"current_range_meters":0,"station_id":"ce4bhch2rcd13ifvqeug","pricing_plan_id":"free"},{"bike_id":"b02b5d09-cfe9-4169-a8cf-a57c0c90c488","system_id":"levelo_inurba_marseille","lat":43.28613,"lon":5.35099,"is_reserved":false,"is_disabled":false,"rental_uris":{"android":"levelo://app?vid=b02b5d09-cfe9-4169-a8cf-a57c0c90c488","ios":"levelo://app?vid=b02b5d09-cfe9-4169-a8cf-a57c0c90c488"},"vehicle_type_id":"4","last_reported":1693062359,"current_range_meters":0,"station_id":"ce4bhch2rcd13ifvqeug","pricing_plan_id":"free"},{"bike_id":"01b67355-15b5-4f46-a303-7713caf0c69d","system_id":"levelo_inurba_marseille","lat":43.28613,"lon":5.35098,"is_reserved":false,"is_disabled":false,"rental_uris":{"android":"levelo://app?vid=01b67355-15b5-4f46-a303-7713caf0c69d","ios":"levelo://app?vid=01b67355-15b5-4f46-a303-7713caf0c69d"},"vehicle_type_id":"4","last_reported":1693062359,"current_range_meters":31200,"station_id":"ce4bhch2rcd13ifvqeug","pricing_plan_id":"free"},{"bike_id":"fc9a057d-8c4b-4819-addd-ee01ce55875b","system_id":"levelo_inurba_marseille","lat":43.28611,"lon":5.35101,"is_reserved":false,"is_disabled":false,"rental_uris":{"android":"levelo://app?vid=fc9a057d-8c4b-4819-addd-ee01ce55875b","ios":"levelo://app?vid=fc9a057d-8c4b-4819-addd-ee01ce55875b"},"vehicle_type_id":"4","last_reported":1693062359,"current_range_meters":12800,"station_id":"ce4bhch2rcd13ifvqeug","pricing_plan_id":"free"},{"bike_id":"f6781245-266a-44c6-a603-14161d792a35","system_id":"levelo_inurba_marseille","lat":43.28604,"lon":5.351,"is_reserved":false,"is_disabled":false,"rental_uris":{"android":"levelo://app?vid=f6781245-266a-44c6-a603-14161d792a35","ios":"levelo://app?vid=f6781245-266a-44c6-a603-14161d792a35"},"vehicle_type_id":"4","last_reported":1693062359,"current_range_meters":14800,"station_id":"ce4bhch2rcd13ifvqeug","pricing_plan_id":"free"},{"bike_id":"2363d3b5-6c15-401a-a59c-ee80bd4af927","system_id":"levelo_inurba_marseille","lat":43.28415,"lon":5.37522,"is_reserved":false,"is_disabled":false,"rental_uris":{"android":"levelo://app?vid=2363d3b5-6c15-401a-a59c-ee80bd4af927","ios":"levelo://app?vid=2363d3b5-6c15-401a-a59c-ee80bd4af927"},"vehicle_type_id":"4","last_reported":1693062359,"current_range_meters":0,"station_id":"ce4bh412rcd13ifvqds0","pricing_plan_id":"free"},{"bike_id":"07be739b-ad9b-4c34-9922-f87cfa849104","system_id":"levelo_inurba_marseille","lat":43.28402,"lon":5.37854,"is_reserved":false,"is_disabled":false,"rental_uris":{"android":"levelo://app?vid=07be739b-ad9b-4c34-9922-f87cfa849104","ios":"levelo://app?vid=07be739b-ad9b-4c34-9922-f87cfa849104"},"vehicle_type_id":"4","last_reported":1693062359,"current_range_meters":14000,"station_id":"","pricing_plan_id":"free"},{"bike_id":"fbafa583-df2f-4beb-bbab-161640a3afd5","system_id":"levelo_inurba_marseille","lat":43.33717,"lon":5.391857,"is_reserved":false,"is_disabled":false,"rental_uris":{"android":"levelo://app?vid=fbafa583-df2f-4beb-bbab-161640a3afd5","ios":"levelo://app?vid=fbafa583-df2f-4beb-bbab-161640a3afd5"},"vehicle_type_id":"4","last_reported":1693062359,"current_range_meters":14800,"station_id":"ce4bhr92rcd13ifvqhsg","pricing_plan_id":"free"},{"bike_id":"180b8d82-e769-43df-afb4-0eaef17259b0","system_id":"levelo_inurba_marseille","lat":43.33725,"lon":5.39173,"is_reserved":false,"is_disabled":false,"rental_uris":{"android":"levelo://app?vid=180b8d82-e769-43df-afb4-0eaef17259b0","ios":"levelo://app?vid=180b8d82-e769-43df-afb4-0eaef17259b0"},"vehicle_type_id":"4","last_reported":1693062359,"current_range_meters":17200,"station_id":"ce4bhr92rcd13ifvqhsg","pricing_plan_id":"free"},{"bike_id":"531d6e23-0278-4a54-a610-21397a86f1a4","system_id":"levelo_inurba_marseille","lat":43.337168,"lon":5.391825,"is_reserved":false,"is_disabled":false,"rental_uris":{"android":"levelo://app?vid=531d6e23-0278-4a54-a610-21397a86f1a4","ios":"levelo://app?vid=531d6e23-0278-4a54-a610-21397a86f1a4"},"vehicle_type_id":"4","last_reported":1693062359,"current_range_meters":24800,"station_id":"ce4bhr92rcd13ifvqhsg","pricing_plan_id":"free"},{"bike_id":"261eaadf-6347-42f2-b9c2-72bd0b4a7c63","system_id":"levelo_inurba_marseille","lat":43.337168,"lon":5.391825,"is_reserved":false,"is_disabled":false,"rental_uris":{"android":"levelo://app?vid=261eaadf-6347-42f2-b9c2-72bd0b4a7c63","ios":"levelo://app?vid=261eaadf-6347-42f2-b9c2-72bd0b4a7c63"},"vehicle_type_id":"4","last_reported":1693062359,"current_range_meters":29600,"station_id":"ce4bhr92rcd13ifvqhsg","pricing_plan_id":"free"},{"bike_id":"db7ab961-c1f9-47c0-81c9-6839f354a493","system_id":"levelo_inurba_marseille","lat":43.323464,"lon":5.406297,"is_reserved":false,"is_disabled":false,"rental_uris":{"android":"levelo://app?vid=db7ab961-c1f9-47c0-81c9-6839f354a493","ios":"levelo://app?vid=db7ab961-c1f9-47c0-81c9-6839f354a493"},"vehicle_type_id":"4","last_reported":1693062359,"current_range_meters":31600,"station_id":"ce4bhq92rcd13ifvqhjg","pricing_plan_id":"free"},{"bike_id":"fe9c607c-9c3d-4a87-a3d9-ff4f95f909fb","system_id":"levelo_inurba_marseille","lat":43.323464,"lon":5.406297,"is_reserved":false,"is_disabled":false,"rental_uris":{"android":"levelo://app?vid=fe9c607c-9c3d-4a87-a3d9-ff4f95f909fb","ios":"levelo://app?vid=fe9c607c-9c3d-4a87-a3d9-ff4f95f909fb"},"vehicle_type_id":"4","last_reported":1693062359,"current_range_meters":12800,"station_id":"ce4bhq92rcd13ifvqhjg","pricing_plan_id":"free"},{"bike_id":"966d3711-7249-4631-b9e7-f03e2a1891bb","system_id":"levelo_inurba_marseille","lat":43.323464,"lon":5.406297,"is_reserved":false,"is_disabled":false,"rental_uris":{"android":"levelo://app?vid=966d3711-7249-4631-b9e7-f03e2a1891bb","ios":"levelo://app?vid=966d3711-7249-4631-b9e7-f03e2a1891bb"},"vehicle_type_id":"4","last_reported":1693062359,"current_range_meters":28800,"station_id":"ce4bhq92rcd13ifvqhjg","pricing_plan_id":"free"},{"bike_id":"cb01a8a3-0d33-478d-bbe8-f8f6720769cc","system_id":"levelo_inurba_marseille","lat":43.33728,"lon":5.39178,"is_reserved":false,"is_disabled":false,"rental_uris":{"android":"levelo://app?vid=cb01a8a3-0d33-478d-bbe8-f8f6720769cc","ios":"levelo://app?vid=cb01a8a3-0d33-478d-bbe8-f8f6720769cc"},"vehicle_type_id":"4","last_reported":1693062359,"current_range_meters":22800,"station_id":"ce4bhr92rcd13ifvqhsg","pricing_plan_id":"free"},{"bike_id":"8320de35-3946-4a47-9f14-9a6122ee86fc","system_id":"levelo_inurba_marseille","lat":43.323464,"lon":5.406297,"is_reserved":false,"is_disabled":false,"rental_uris":{"android":"levelo://app?vid=8320de35-3946-4a47-9f14-9a6122ee86fc","ios":"levelo://app?vid=8320de35-3946-4a47-9f14-9a6122ee86fc"},"vehicle_type_id":"4","last_reported":1693062359,"current_range_meters":31600,"station_id":"ce4bhq92rcd13ifvqhjg","pricing_plan_id":"free"},{"bike_id":"b79037f8-5eba-48e9-808a-72ef86cb97be","system_id":"levelo_inurba_marseille","lat":43.323464,"lon":5.406297,"is_reserved":false,"is_disabled":false,"rental_uris":{"android":"levelo://app?vid=b79037f8-5eba-48e9-808a-72ef86cb97be","ios":"levelo://app?vid=b79037f8-5eba-48e9-808a-72ef86cb97be"},"vehicle_type_id":"4","last_reported":1693062359,"current_range_meters":31600,"station_id":"ce4bhq92rcd13ifvqhjg","pricing_plan_id":"free"},{"bike_id":"7e4b49c2-f4de-4644-9176-19b326f1db26","system_id":"levelo_inurba_marseille","lat":43.337168,"lon":5.391825,"is_reserved":false,"is_disabled":false,"rental_uris":{"android":"levelo://app?vid=7e4b49c2-f4de-4644-9176-19b326f1db26","ios":"levelo://app?vid=7e4b49c2-f4de-4644-9176-19b326f1db26"},"vehicle_type_id":"4","last_reported":1693062359,"current_range_meters":24000,"station_id":"ce4bhr92rcd13ifvqhsg","pricing_plan_id":"free"},{"bike_id":"b9178fa1-3d9f-472a-a834-0e7c633bb4af","system_id":"levelo_inurba_marseille","lat":43.33731,"lon":5.3918,"is_reserved":false,"is_disabled":false,"rental_uris":{"android":"levelo://app?vid=b9178fa1-3d9f-472a-a834-0e7c633bb4af","ios":"levelo://app?vid=b9178fa1-3d9f-472a-a834-0e7c633bb4af"},"vehicle_type_id":"4","last_reported":1693062359,"current_range_meters":10800,"station_id":"ce4bhr92rcd13ifvqhsg","pricing_plan_id":"free"},{"bike_id":"6581accc-682b-41d5-94d7-cad946dcd558","system_id":"levelo_inurba_marseille","lat":43.323464,"lon":5.406297,"is_reserved":false,"is_disabled":false,"rental_uris":{"android":"levelo://app?vid=6581accc-682b-41d5-94d7-cad946dcd558","ios":"levelo://app?vid=6581accc-682b-41d5-94d7-cad946dcd558"},"vehicle_type_id":"4","last_reported":1693062359,"current_range_meters":28800,"station_id":"ce4bhq92rcd13ifvqhjg","pricing_plan_id":"free"},{"bike_id":"414290bd-353b-41b2-bd9a-1d3c2c5739df","system_id":"levelo_inurba_marseille","lat":43.284793,"lon":5.384113,"is_reserved":false,"is_disabled":false,"rental_uris":{"android":"levelo://app?vid=414290bd-353b-41b2-bd9a-1d3c2c5739df","ios":"levelo://app?vid=414290bd-353b-41b2-bd9a-1d3c2c5739df"},"vehicle_type_id":"4","last_reported":1693062359,"current_range_meters":30000,"station_id":"ce4bh512rcd13ifvqe3g","pricing_plan_id":"free"},{"bike_id":"7b6f38e1-a68c-4a6b-b306-26cd89546fb7","system_id":"levelo_inurba_marseille","lat":43.29795,"lon":5.404086,"is_reserved":false,"is_disabled":false,"rental_uris":{"android":"levelo://app?vid=7b6f38e1-a68c-4a6b-b306-26cd89546fb7","ios":"levelo://app?vid=7b6f38e1-a68c-4a6b-b306-26cd89546fb7"},"vehicle_type_id":"4","last_reported":1693062359,"current_range_meters":4800,"station_id":"ce4bh112rcd13ifvqd90","pricing_plan_id":"free"},{"bike_id":"81207e02-e329-4cea-9b6c-33ba9c0267d2","system_id":"levelo_inurba_marseille","lat":43.284787,"lon":5.384116,"is_reserved":false,"is_disabled":false,"rental_uris":{"android":"levelo://app?vid=81207e02-e329-4cea-9b6c-33ba9c0267d2","ios":"levelo://app?vid=81207e02-e329-4cea-9b6c-33ba9c0267d2"},"vehicle_type_id":"4","last_reported":1693062359,"current_range_meters":31200,"station_id":"ce4bh512rcd13ifvqe3g","pricing_plan_id":"free"},{"bike_id":"8f1bb7ca-fcdd-4904-84f5-ac3f2d2671e6","system_id":"levelo_inurba_marseille","lat":43.32549,"lon":5.40548,"is_reserved":false,"is_disabled":false,"rental_uris":{"android":"levelo://app?vid=8f1bb7ca-fcdd-4904-84f5-ac3f2d2671e6","ios":"levelo://app?vid=8f1bb7ca-fcdd-4904-84f5-ac3f2d2671e6"},"vehicle_type_id":"4","last_reported":1693062359,"current_range_meters":6800,"station_id":"","pricing_plan_id":"free"},{"bike_id":"e69ca5da-710c-47d4-85b8-7934bc769c29","system_id":"levelo_inurba_marseille","lat":43.284219,"lon":5.3497,"is_reserved":false,"is_disabled":false,"rental_uris":{"android":"levelo://app?vid=e69ca5da-710c-47d4-85b8-7934bc769c29","ios":"levelo://app?vid=e69ca5da-710c-47d4-85b8-7934bc769c29"},"vehicle_type_id":"4","last_reported":1693062359,"current_range_meters":13600,"station_id":"ce4bhbh2rcd13ifvqepg","pricing_plan_id":"free"},{"bike_id":"4c5855a0-2062-4c2f-8de9-9e5459bafa05","system_id":"levelo_inurba_marseille","lat":43.284219,"lon":5.3497,"is_reserved":false,"is_disabled":false,"rental_uris":{"android":"levelo://app?vid=4c5855a0-2062-4c2f-8de9-9e5459bafa05","ios":"levelo://app?vid=4c5855a0-2062-4c2f-8de9-9e5459bafa05"},"vehicle_type_id":"4","last_reported":1693062359,"current_range_meters":14800,"station_id":"ce4bhbh2rcd13ifvqepg","pricing_plan_id":"free"},{"bike_id":"d64f978f-5a9c-4976-954a-4f1280e23340","system_id":"levelo_inurba_marseille","lat":43.28422,"lon":5.34993,"is_reserved":false,"is_disabled":false,"rental_uris":{"android":"levelo://app?vid=d64f978f-5a9c-4976-954a-4f1280e23340","ios":"levelo://app?vid=d64f978f-5a9c-4976-954a-4f1280e23340"},"vehicle_type_id":"4","last_reported":1693062359,"current_range_meters":17200,"station_id":"ce4bhbh2rcd13ifvqepg","pricing_plan_id":"free"},{"bike_id":"686dd8fe-0539-4be4-bc87-72c81b11017a","system_id":"levelo_inurba_marseille","lat":43.28424,"lon":5.34985,"is_reserved":false,"is_disabled":false,"rental_uris":{"android":"levelo://app?vid=686dd8fe-0539-4be4-bc87-72c81b11017a","ios":"levelo://app?vid=686dd8fe-0539-4be4-bc87-72c81b11017a"},"vehicle_type_id":"4","last_reported":1693062359,"current_range_meters":21600,"station_id":"ce4bhbh2rcd13ifvqepg","pricing_plan_id":"free"},{"bike_id":"9218c187-cc39-48e7-9306-ccb55cefd0c3","system_id":"levelo_inurba_marseille","lat":43.28424,"lon":5.34981,"is_reserved":false,"is_disabled":false,"rental_uris":{"android":"levelo://app?vid=9218c187-cc39-48e7-9306-ccb55cefd0c3","ios":"levelo://app?vid=9218c187-cc39-48e7-9306-ccb55cefd0c3"},"vehicle_type_id":"4","last_reported":1693062359,"current_range_meters":800,"station_id":"ce4bhbh2rcd13ifvqepg","pricing_plan_id":"free"},{"bike_id":"5d7f8857-063a-473c-8c47-0302ad3b63f5","system_id":"levelo_inurba_marseille","lat":43.28419,"lon":5.34995,"is_reserved":false,"is_disabled":false,"rental_uris":{"android":"levelo://app?vid=5d7f8857-063a-473c-8c47-0302ad3b63f5","ios":"levelo://app?vid=5d7f8857-063a-473c-8c47-0302ad3b63f5"},"vehicle_type_id":"4","last_reported":1693062359,"current_range_meters":28400,"station_id":"ce4bhbh2rcd13ifvqepg","pricing_plan_id":"free"},{"bike_id":"edca9cab-3d49-4a0a-bddd-f0e20f10ac8a","system_id":"levelo_inurba_marseille","lat":43.28424,"lon":5.34979,"is_reserved":false,"is_disabled":false,"rental_uris":{"android":"levelo://app?vid=edca9cab-3d49-4a0a-bddd-f0e20f10ac8a","ios":"levelo://app?vid=edca9cab-3d49-4a0a-bddd-f0e20f10ac8a"},"vehicle_type_id":"4","last_reported":1693062359,"current_range_meters":26400,"station_id":"ce4bhbh2rcd13ifvqepg","pricing_plan_id":"free"},{"bike_id":"4faf0224-da6e-45de-bbcd-b0b7cf9a062e","system_id":"levelo_inurba_marseille","lat":43.284219,"lon":5.3497,"is_reserved":false,"is_disabled":false,"rental_uris":{"android":"levelo://app?vid=4faf0224-da6e-45de-bbcd-b0b7cf9a062e","ios":"levelo://app?vid=4faf0224-da6e-45de-bbcd-b0b7cf9a062e"},"vehicle_type_id":"4","last_reported":1693062359,"current_range_meters":32000,"station_id":"ce4bhbh2rcd13ifvqepg","pricing_plan_id":"free"},{"bike_id":"0b164d58-4528-4145-9b64-d1fc9787ba5a","system_id":"levelo_inurba_marseille","lat":43.284219,"lon":5.3497,"is_reserved":false,"is_disabled":false,"rental_uris":{"android":"levelo://app?vid=0b164d58-4528-4145-9b64-d1fc9787ba5a","ios":"levelo://app?vid=0b164d58-4528-4145-9b64-d1fc9787ba5a"},"vehicle_type_id":"4","last_reported":1693062359,"current_range_meters":32000,"station_id":"ce4bhbh2rcd13ifvqepg","pricing_plan_id":"free"},{"bike_id":"0f18c82b-4a81-4580-bf7c-db03223a3fc8","system_id":"levelo_inurba_marseille","lat":43.284219,"lon":5.3497,"is_reserved":false,"is_disabled":false,"rental_uris":{"android":"levelo://app?vid=0f18c82b-4a81-4580-bf7c-db03223a3fc8","ios":"levelo://app?vid=0f18c82b-4a81-4580-bf7c-db03223a3fc8"},"vehicle_type_id":"4","last_reported":1693062359,"current_range_meters":21600,"station_id":"ce4bhbh2rcd13ifvqepg","pricing_plan_id":"free"},{"bike_id":"e83f6f76-c4d3-45cd-b98e-63de94248f56","system_id":"levelo_inurba_marseille","lat":43.284219,"lon":5.3497,"is_reserved":false,"is_disabled":false,"rental_uris":{"android":"levelo://app?vid=e83f6f76-c4d3-45cd-b98e-63de94248f56","ios":"levelo://app?vid=e83f6f76-c4d3-45cd-b98e-63de94248f56"},"vehicle_type_id":"4","last_reported":1693062359,"current_range_meters":26000,"station_id":"ce4bhbh2rcd13ifvqepg","pricing_plan_id":"free"},{"bike_id":"64d3c53c-947e-4e78-9403-8a193edce984","system_id":"levelo_inurba_marseille","lat":43.28419,"lon":5.34984,"is_reserved":false,"is_disabled":false,"rental_uris":{"android":"levelo://app?vid=64d3c53c-947e-4e78-9403-8a193edce984","ios":"levelo://app?vid=64d3c53c-947e-4e78-9403-8a193edce984"},"vehicle_type_id":"4","last_reported":1693062359,"current_range_meters":31200,"station_id":"ce4bhbh2rcd13ifvqepg","pricing_plan_id":"free"},{"bike_id":"9597f5e3-e206-48bb-b3b9-d82dd810cca2","system_id":"levelo_inurba_marseille","lat":43.28416,"lon":5.34991,"is_reserved":false,"is_disabled":false,"rental_uris":{"android":"levelo://app?vid=9597f5e3-e206-48bb-b3b9-d82dd810cca2","ios":"levelo://app?vid=9597f5e3-e206-48bb-b3b9-d82dd810cca2"},"vehicle_type_id":"4","last_reported":1693062359,"current_range_meters":25200,"station_id":"ce4bhbh2rcd13ifvqepg","pricing_plan_id":"free"},{"bike_id":"b1fd103e-a6c8-46f4-ad8e-28f7d93c20b2","system_id":"levelo_inurba_marseille","lat":43.28418,"lon":5.34982,"is_reserved":false,"is_disabled":false,"rental_uris":{"android":"levelo://app?vid=b1fd103e-a6c8-46f4-ad8e-28f7d93c20b2","ios":"levelo://app?vid=b1fd103e-a6c8-46f4-ad8e-28f7d93c20b2"},"vehicle_type_id":"4","last_reported":1693062359,"current_range_meters":28400,"station_id":"ce4bhbh2rcd13ifvqepg","pricing_plan_id":"free"},{"bike_id":"ee91668a-fb90-46a3-b36c-2c86380e563a","system_id":"levelo_inurba_marseille","lat":43.28417,"lon":5.34985,"is_reserved":false,"is_disabled":false,"rental_uris":{"android":"levelo://app?vid=ee91668a-fb90-46a3-b36c-2c86380e563a","ios":"levelo://app?vid=ee91668a-fb90-46a3-b36c-2c86380e563a"},"vehicle_type_id":"4","last_reported":1693062359,"current_range_meters":17200,"station_id":"ce4bhbh2rcd13ifvqepg","pricing_plan_id":"free"},{"bike_id":"822b00ef-b660-4af0-97f2-62ef4bfe71c7","system_id":"levelo_inurba_marseille","lat":43.284219,"lon":5.3497,"is_reserved":false,"is_disabled":false,"rental_uris":{"android":"levelo://app?vid=822b00ef-b660-4af0-97f2-62ef4bfe71c7","ios":"levelo://app?vid=822b00ef-b660-4af0-97f2-62ef4bfe71c7"},"vehicle_type_id":"4","last_reported":1693062359,"current_range_meters":20000,"station_id":"ce4bhbh2rcd13ifvqepg","pricing_plan_id":"free"},{"bike_id":"a5ba01a7-ebb3-46dd-abed-3fc647e56acc","system_id":"levelo_inurba_marseille","lat":43.284217,"lon":5.349697,"is_reserved":false,"is_disabled":false,"rental_uris":{"android":"levelo://app?vid=a5ba01a7-ebb3-46dd-abed-3fc647e56acc","ios":"levelo://app?vid=a5ba01a7-ebb3-46dd-abed-3fc647e56acc"},"vehicle_type_id":"4","last_reported":1693062359,"current_range_meters":28000,"station_id":"ce4bhbh2rcd13ifvqepg","pricing_plan_id":"free"},{"bike_id":"124797f3-6b8d-4c4d-a93f-52441d51a049","system_id":"levelo_inurba_marseille","lat":43.284219,"lon":5.3497,"is_reserved":false,"is_disabled":false,"rental_uris":{"android":"levelo://app?vid=124797f3-6b8d-4c4d-a93f-52441d51a049","ios":"levelo://app?vid=124797f3-6b8d-4c4d-a93f-52441d51a049"},"vehicle_type_id":"4","last_reported":1693062359,"current_range_meters":20000,"station_id":"ce4bhbh2rcd13ifvqepg","pricing_plan_id":"free"},{"bike_id":"d2f55048-2148-4894-9c84-b00f7ea80f20","system_id":"levelo_inurba_marseille","lat":43.284219,"lon":5.3497,"is_reserved":false,"is_disabled":false,"rental_uris":{"android":"levelo://app?vid=d2f55048-2148-4894-9c84-b00f7ea80f20","ios":"levelo://app?vid=d2f55048-2148-4894-9c84-b00f7ea80f20"},"vehicle_type_id":"4","last_reported":1693062359,"current_range_meters":30000,"station_id":"ce4bhbh2rcd13ifvqepg","pricing_plan_id":"free"},{"bike_id":"4c8e5593-47a1-4c6e-b5e7-c04d5a1dd964","system_id":"levelo_inurba_marseille","lat":43.28415,"lon":5.34984,"is_reserved":false,"is_disabled":false,"rental_uris":{"android":"levelo://app?vid=4c8e5593-47a1-4c6e-b5e7-c04d5a1dd964","ios":"levelo://app?vid=4c8e5593-47a1-4c6e-b5e7-c04d5a1dd964"},"vehicle_type_id":"4","last_reported":1693062359,"current_range_meters":27200,"station_id":"ce4bhbh2rcd13ifvqepg","pricing_plan_id":"free"},{"bike_id":"b06bf0d8-c6ae-4a65-bd28-67e12bb84c99","system_id":"levelo_inurba_marseille","lat":43.284219,"lon":5.3497,"is_reserved":false,"is_disabled":false,"rental_uris":{"android":"levelo://app?vid=b06bf0d8-c6ae-4a65-bd28-67e12bb84c99","ios":"levelo://app?vid=b06bf0d8-c6ae-4a65-bd28-67e12bb84c99"},"vehicle_type_id":"4","last_reported":1693062359,"current_range_meters":32000,"station_id":"ce4bhbh2rcd13ifvqepg","pricing_plan_id":"free"},{"bike_id":"f50aca5f-cf5b-4020-925f-826a2e34874f","system_id":"levelo_inurba_marseille","lat":43.289363,"lon":5.396322,"is_reserved":false,"is_disabled":false,"rental_uris":{"android":"levelo://app?vid=f50aca5f-cf5b-4020-925f-826a2e34874f","ios":"levelo://app?vid=f50aca5f-cf5b-4020-925f-826a2e34874f"},"vehicle_type_id":"4","last_reported":1693062359,"current_range_meters":31200,"station_id":"ce4bh3h2rcd13ifvqdn0","pricing_plan_id":"free"},{"bike_id":"71c0ada9-0014-4945-8cc2-12cfbe9f8e48","system_id":"levelo_inurba_marseille","lat":43.28274,"lon":5.35064,"is_reserved":false,"is_disabled":false,"rental_uris":{"android":"levelo://app?vid=71c0ada9-0014-4945-8cc2-12cfbe9f8e48","ios":"levelo://app?vid=71c0ada9-0014-4945-8cc2-12cfbe9f8e48"},"vehicle_type_id":"4","last_reported":1693062359,"current_range_meters":17200,"station_id":"ce4bhbp2rcd13ifvqerg","pricing_plan_id":"free"},{"bike_id":"f1d250a8-e01e-4599-96f9-005c3cc9496d","system_id":"levelo_inurba_marseille","lat":43.28272,"lon":5.35066,"is_reserved":false,"is_disabled":false,"rental_uris":{"android":"levelo://app?vid=f1d250a8-e01e-4599-96f9-005c3cc9496d","ios":"levelo://app?vid=f1d250a8-e01e-4599-96f9-005c3cc9496d"},"vehicle_type_id":"4","last_reported":1693062359,"current_range_meters":16400,"station_id":"ce4bhbp2rcd13ifvqerg","pricing_plan_id":"free"},{"bike_id":"b08a0387-9f07-45f7-a021-7befe3d7dc9d","system_id":"levelo_inurba_marseille","lat":43.28272,"lon":5.35064,"is_reserved":false,"is_disabled":false,"rental_uris":{"android":"levelo://app?vid=b08a0387-9f07-45f7-a021-7befe3d7dc9d","ios":"levelo://app?vid=b08a0387-9f07-45f7-a021-7befe3d7dc9d"},"vehicle_type_id":"4","last_reported":1693062359,"current_range_meters":0,"station_id":"ce4bhbp2rcd13ifvqerg","pricing_plan_id":"free"},{"bike_id":"be1518cb-a3da-4275-a38e-711ebfecbe38","system_id":"levelo_inurba_marseille","lat":43.282754,"lon":5.350519,"is_reserved":false,"is_disabled":false,"rental_uris":{"android":"levelo://app?vid=be1518cb-a3da-4275-a38e-711ebfecbe38","ios":"levelo://app?vid=be1518cb-a3da-4275-a38e-711ebfecbe38"},"vehicle_type_id":"4","last_reported":1693062359,"current_range_meters":28800,"station_id":"ce4bhbp2rcd13ifvqerg","pricing_plan_id":"free"},{"bike_id":"c0fe458d-5f9c-4921-a5f8-e1645fee67c1","system_id":"levelo_inurba_marseille","lat":43.282754,"lon":5.350519,"is_reserved":false,"is_disabled":false,"rental_uris":{"android":"levelo://app?vid=c0fe458d-5f9c-4921-a5f8-e1645fee67c1","ios":"levelo://app?vid=c0fe458d-5f9c-4921-a5f8-e1645fee67c1"},"vehicle_type_id":"4","last_reported":1693062359,"current_range_meters":30400,"station_id":"ce4bhbp2rcd13ifvqerg","pricing_plan_id":"free"},{"bike_id":"af99224a-ae56-4f9b-8495-b53bcfd99100","system_id":"levelo_inurba_marseille","lat":43.28039,"lon":5.369297,"is_reserved":false,"is_disabled":false,"rental_uris":{"android":"levelo://app?vid=af99224a-ae56-4f9b-8495-b53bcfd99100","ios":"levelo://app?vid=af99224a-ae56-4f9b-8495-b53bcfd99100"},"vehicle_type_id":"4","last_reported":1693062359,"current_range_meters":23600,"station_id":"ce4bha12rcd13ifvqef0","pricing_plan_id":"free"},{"bike_id":"06e56c65-b555-4c51-814f-5c311712dd13","system_id":"levelo_inurba_marseille","lat":43.28039,"lon":5.369297,"is_reserved":false,"is_disabled":false,"rental_uris":{"android":"levelo://app?vid=06e56c65-b555-4c51-814f-5c311712dd13","ios":"levelo://app?vid=06e56c65-b555-4c51-814f-5c311712dd13"},"vehicle_type_id":"4","last_reported":1693062359,"current_range_meters":4800,"station_id":"ce4bha12rcd13ifvqef0","pricing_plan_id":"free"},{"bike_id":"6e57ee41-a96c-4e53-bcfe-2a351f169066","system_id":"levelo_inurba_marseille","lat":43.28037,"lon":5.36943,"is_reserved":false,"is_disabled":false,"rental_uris":{"android":"levelo://app?vid=6e57ee41-a96c-4e53-bcfe-2a351f169066","ios":"levelo://app?vid=6e57ee41-a96c-4e53-bcfe-2a351f169066"},"vehicle_type_id":"4","last_reported":1693062359,"current_range_meters":15200,"station_id":"","pricing_plan_id":"free"},{"bike_id":"1c38bebb-39db-46ff-9dcf-d962a0556658","system_id":"levelo_inurba_marseille","lat":43.28039,"lon":5.369297,"is_reserved":false,"is_disabled":false,"rental_uris":{"android":"levelo://app?vid=1c38bebb-39db-46ff-9dcf-d962a0556658","ios":"levelo://app?vid=1c38bebb-39db-46ff-9dcf-d962a0556658"},"vehicle_type_id":"4","last_reported":1693062359,"current_range_meters":19600,"station_id":"ce4bha12rcd13ifvqef0","pricing_plan_id":"free"},{"bike_id":"9f46cfde-4f76-4076-bade-5765c2d3d473","system_id":"levelo_inurba_marseille","lat":43.280382,"lon":5.369291,"is_reserved":false,"is_disabled":false,"rental_uris":{"android":"levelo://app?vid=9f46cfde-4f76-4076-bade-5765c2d3d473","ios":"levelo://app?vid=9f46cfde-4f76-4076-bade-5765c2d3d473"},"vehicle_type_id":"4","last_reported":1693062359,"current_range_meters":31200,"station_id":"ce4bha12rcd13ifvqef0","pricing_plan_id":"free"},{"bike_id":"17e4815d-6188-4d0c-94a9-14be3b87a2e6","system_id":"levelo_inurba_marseille","lat":43.32655,"lon":5.40973,"is_reserved":false,"is_disabled":false,"rental_uris":{"android":"levelo://app?vid=17e4815d-6188-4d0c-94a9-14be3b87a2e6","ios":"levelo://app?vid=17e4815d-6188-4d0c-94a9-14be3b87a2e6"},"vehicle_type_id":"4","last_reported":1693062359,"current_range_meters":14800,"station_id":"ce4bhpp2rcd13ifvqhgg","pricing_plan_id":"free"},{"bike_id":"2dbf7aad-8c79-4af0-b2e0-2fbc5162540f","system_id":"levelo_inurba_marseille","lat":43.32656,"lon":5.40989,"is_reserved":false,"is_disabled":false,"rental_uris":{"android":"levelo://app?vid=2dbf7aad-8c79-4af0-b2e0-2fbc5162540f","ios":"levelo://app?vid=2dbf7aad-8c79-4af0-b2e0-2fbc5162540f"},"vehicle_type_id":"4","last_reported":1693062359,"current_range_meters":20800,"station_id":"ce4bhpp2rcd13ifvqhgg","pricing_plan_id":"free"},{"bike_id":"32dd43cb-c7d2-4030-aee4-6b5f9e076e80","system_id":"levelo_inurba_marseille","lat":43.32655,"lon":5.40991,"is_reserved":false,"is_disabled":false,"rental_uris":{"android":"levelo://app?vid=32dd43cb-c7d2-4030-aee4-6b5f9e076e80","ios":"levelo://app?vid=32dd43cb-c7d2-4030-aee4-6b5f9e076e80"},"vehicle_type_id":"4","last_reported":1693062359,"current_range_meters":21600,"station_id":"ce4bhpp2rcd13ifvqhgg","pricing_plan_id":"free"},{"bike_id":"5f1d2d6a-9756-486c-8820-a4ded5a8dfc4","system_id":"levelo_inurba_marseille","lat":43.326605,"lon":5.409903,"is_reserved":false,"is_disabled":false,"rental_uris":{"android":"levelo://app?vid=5f1d2d6a-9756-486c-8820-a4ded5a8dfc4","ios":"levelo://app?vid=5f1d2d6a-9756-486c-8820-a4ded5a8dfc4"},"vehicle_type_id":"4","last_reported":1693062359,"current_range_meters":10000,"station_id":"ce4bhpp2rcd13ifvqhgg","pricing_plan_id":"free"},{"bike_id":"a75a9d4b-b42c-4e86-b393-030be18770b7","system_id":"levelo_inurba_marseille","lat":43.30413,"lon":5.41279,"is_reserved":false,"is_disabled":false,"rental_uris":{"android":"levelo://app?vid=a75a9d4b-b42c-4e86-b393-030be18770b7","ios":"levelo://app?vid=a75a9d4b-b42c-4e86-b393-030be18770b7"},"vehicle_type_id":"4","last_reported":1693062359,"current_range_meters":10800,"station_id":"ce4bhop2rcd13ifvqh8g","pricing_plan_id":"free"},{"bike_id":"905c7781-4598-4ceb-b7e6-922aab7c9592","system_id":"levelo_inurba_marseille","lat":43.30418,"lon":5.41281,"is_reserved":false,"is_disabled":false,"rental_uris":{"android":"levelo://app?vid=905c7781-4598-4ceb-b7e6-922aab7c9592","ios":"levelo://app?vid=905c7781-4598-4ceb-b7e6-922aab7c9592"},"vehicle_type_id":"4","last_reported":1693062359,"current_range_meters":28800,"station_id":"ce4bhop2rcd13ifvqh8g","pricing_plan_id":"free"},{"bike_id":"7f386664-a3cc-4805-ba94-759d24037a82","system_id":"levelo_inurba_marseille","lat":43.30411,"lon":5.4128,"is_reserved":false,"is_disabled":false,"rental_uris":{"android":"levelo://app?vid=7f386664-a3cc-4805-ba94-759d24037a82","ios":"levelo://app?vid=7f386664-a3cc-4805-ba94-759d24037a82"},"vehicle_type_id":"4","last_reported":1693062359,"current_range_meters":26800,"station_id":"ce4bhop2rcd13ifvqh8g","pricing_plan_id":"free"},{"bike_id":"354eead7-2a3f-4bb3-8f46-6c79137aa73e","system_id":"levelo_inurba_marseille","lat":43.304188,"lon":5.412904,"is_reserved":false,"is_disabled":false,"rental_uris":{"android":"levelo://app?vid=354eead7-2a3f-4bb3-8f46-6c79137aa73e","ios":"levelo://app?vid=354eead7-2a3f-4bb3-8f46-6c79137aa73e"},"vehicle_type_id":"4","last_reported":1693062359,"current_range_meters":31200,"station_id":"ce4bhop2rcd13ifvqh8g","pricing_plan_id":"free"},{"bike_id":"94210661-0155-4536-bf74-8ceec731d04d","system_id":"levelo_inurba_marseille","lat":43.304188,"lon":5.412904,"is_reserved":false,"is_disabled":false,"rental_uris":{"android":"levelo://app?vid=94210661-0155-4536-bf74-8ceec731d04d","ios":"levelo://app?vid=94210661-0155-4536-bf74-8ceec731d04d"},"vehicle_type_id":"4","last_reported":1693062359,"current_range_meters":18800,"station_id":"ce4bhop2rcd13ifvqh8g","pricing_plan_id":"free"},{"bike_id":"aefa222d-1382-497e-a3c7-161a0d95bdb4","system_id":"levelo_inurba_marseille","lat":43.29971,"lon":5.41314,"is_reserved":false,"is_disabled":false,"rental_uris":{"android":"levelo://app?vid=aefa222d-1382-497e-a3c7-161a0d95bdb4","ios":"levelo://app?vid=aefa222d-1382-497e-a3c7-161a0d95bdb4"},"vehicle_type_id":"4","last_reported":1693062359,"current_range_meters":31200,"station_id":"ce4bhp12rcd13ifvqh9g","pricing_plan_id":"free"},{"bike_id":"f4219b32-6655-4f16-9089-17ca2946fea9","system_id":"levelo_inurba_marseille","lat":43.32096,"lon":5.4152,"is_reserved":false,"is_disabled":false,"rental_uris":{"android":"levelo://app?vid=f4219b32-6655-4f16-9089-17ca2946fea9","ios":"levelo://app?vid=f4219b32-6655-4f16-9089-17ca2946fea9"},"vehicle_type_id":"4","last_reported":1693062359,"current_range_meters":31200,"station_id":"","pricing_plan_id":"free"},{"bike_id":"9313f3f7-0553-42c9-a9b1-b70f96124687","system_id":"levelo_inurba_marseille","lat":43.29965,"lon":5.41312,"is_reserved":false,"is_disabled":false,"rental_uris":{"android":"levelo://app?vid=9313f3f7-0553-42c9-a9b1-b70f96124687","ios":"levelo://app?vid=9313f3f7-0553-42c9-a9b1-b70f96124687"},"vehicle_type_id":"4","last_reported":1693062359,"current_range_meters":31200,"station_id":"ce4bhp12rcd13ifvqh9g","pricing_plan_id":"free"},{"bike_id":"abdebbb4-86ba-4803-8bd6-2f7ba9249734","system_id":"levelo_inurba_marseille","lat":43.29962,"lon":5.41317,"is_reserved":false,"is_disabled":false,"rental_uris":{"android":"levelo://app?vid=abdebbb4-86ba-4803-8bd6-2f7ba9249734","ios":"levelo://app?vid=abdebbb4-86ba-4803-8bd6-2f7ba9249734"},"vehicle_type_id":"4","last_reported":1693062359,"current_range_meters":31200,"station_id":"ce4bhp12rcd13ifvqh9g","pricing_plan_id":"free"},{"bike_id":"12788446-de45-45d3-b8fe-e7718bd1c32e","system_id":"levelo_inurba_marseille","lat":43.32052,"lon":5.41546,"is_reserved":false,"is_disabled":false,"rental_uris":{"android":"levelo://app?vid=12788446-de45-45d3-b8fe-e7718bd1c32e","ios":"levelo://app?vid=12788446-de45-45d3-b8fe-e7718bd1c32e"},"vehicle_type_id":"4","last_reported":1693062359,"current_range_meters":28800,"station_id":"ce4bhq92rcd13ifvqhkg","pricing_plan_id":"free"},{"bike_id":"04dcf2d0-b79f-43e7-a8ac-7f59e1101c20","system_id":"levelo_inurba_marseille","lat":43.320045,"lon":5.415046,"is_reserved":false,"is_disabled":false,"rental_uris":{"android":"levelo://app?vid=04dcf2d0-b79f-43e7-a8ac-7f59e1101c20","ios":"levelo://app?vid=04dcf2d0-b79f-43e7-a8ac-7f59e1101c20"},"vehicle_type_id":"4","last_reported":1693062359,"current_range_meters":31200,"station_id":"ce4bhq92rcd13ifvqhkg","pricing_plan_id":"free"},{"bike_id":"403e8d32-26b8-4058-b835-ac822188e883","system_id":"levelo_inurba_marseille","lat":43.320045,"lon":5.415048,"is_reserved":false,"is_disabled":false,"rental_uris":{"android":"levelo://app?vid=403e8d32-26b8-4058-b835-ac822188e883","ios":"levelo://app?vid=403e8d32-26b8-4058-b835-ac822188e883"},"vehicle_type_id":"4","last_reported":1693062359,"current_range_meters":31200,"station_id":"ce4bhq92rcd13ifvqhkg","pricing_plan_id":"free"},{"bike_id":"38bc3f08-9c36-4f6f-94fe-d47050306a2b","system_id":"levelo_inurba_marseille","lat":43.279742,"lon":5.38744,"is_reserved":false,"is_disabled":false,"rental_uris":{"android":"levelo://app?vid=38bc3f08-9c36-4f6f-94fe-d47050306a2b","ios":"levelo://app?vid=38bc3f08-9c36-4f6f-94fe-d47050306a2b"},"vehicle_type_id":"4","last_reported":1693062359,"current_range_meters":7200,"station_id":"ce4bhg12rcd13ifvqf80","pricing_plan_id":"free"},{"bike_id":"c327718a-8fe6-4791-a349-aba0f8f94e82","system_id":"levelo_inurba_marseille","lat":43.279742,"lon":5.38744,"is_reserved":false,"is_disabled":false,"rental_uris":{"android":"levelo://app?vid=c327718a-8fe6-4791-a349-aba0f8f94e82","ios":"levelo://app?vid=c327718a-8fe6-4791-a349-aba0f8f94e82"},"vehicle_type_id":"4","last_reported":1693062359,"current_range_meters":24000,"station_id":"ce4bhg12rcd13ifvqf80","pricing_plan_id":"free"},{"bike_id":"9aa2c19c-ff3a-49d2-a359-d0a84a64e055","system_id":"levelo_inurba_marseille","lat":43.276213,"lon":5.361089,"is_reserved":false,"is_disabled":false,"rental_uris":{"android":"levelo://app?vid=9aa2c19c-ff3a-49d2-a359-d0a84a64e055","ios":"levelo://app?vid=9aa2c19c-ff3a-49d2-a359-d0a84a64e055"},"vehicle_type_id":"4","last_reported":1693062359,"current_range_meters":5600,"station_id":"ce4bgj92rcd13ifvqbe0","pricing_plan_id":"free"},{"bike_id":"e74b0899-f2cf-46ca-b956-87242612fba1","system_id":"levelo_inurba_marseille","lat":43.27618,"lon":5.361009,"is_reserved":false,"is_disabled":false,"rental_uris":{"android":"levelo://app?vid=e74b0899-f2cf-46ca-b956-87242612fba1","ios":"levelo://app?vid=e74b0899-f2cf-46ca-b956-87242612fba1"},"vehicle_type_id":"4","last_reported":1693062359,"current_range_meters":7600,"station_id":"ce4bgj92rcd13ifvqbe0","pricing_plan_id":"free"},{"bike_id":"3563d8b3-8312-4911-80be-32759d84381f","system_id":"levelo_inurba_marseille","lat":43.32525,"lon":5.41447,"is_reserved":false,"is_disabled":false,"rental_uris":{"android":"levelo://app?vid=3563d8b3-8312-4911-80be-32759d84381f","ios":"levelo://app?vid=3563d8b3-8312-4911-80be-32759d84381f"},"vehicle_type_id":"4","last_reported":1693062359,"current_range_meters":24400,"station_id":"ce4bhq12rcd13ifvqhhg","pricing_plan_id":"free"},{"bike_id":"06202ef5-5855-4621-80f2-ccbd04587da4","system_id":"levelo_inurba_marseille","lat":43.27618,"lon":5.36119,"is_reserved":false,"is_disabled":false,"rental_uris":{"android":"levelo://app?vid=06202ef5-5855-4621-80f2-ccbd04587da4","ios":"levelo://app?vid=06202ef5-5855-4621-80f2-ccbd04587da4"},"vehicle_type_id":"4","last_reported":1693062359,"current_range_meters":2000,"station_id":"ce4bgj92rcd13ifvqbe0","pricing_plan_id":"free"},{"bike_id":"ed22aae5-2f17-44e5-9132-a62ff19a2e0f","system_id":"levelo_inurba_marseille","lat":43.27836,"lon":5.39205,"is_reserved":false,"is_disabled":false,"rental_uris":{"android":"levelo://app?vid=ed22aae5-2f17-44e5-9132-a62ff19a2e0f","ios":"levelo://app?vid=ed22aae5-2f17-44e5-9132-a62ff19a2e0f"},"vehicle_type_id":"4","last_reported":1693062359,"current_range_meters":18800,"station_id":"ce4bhjp2rcd13ifvqga0","pricing_plan_id":"free"},{"bike_id":"d205452c-f9cd-4e4f-8c99-680eb23ec1e1","system_id":"levelo_inurba_marseille","lat":43.27385,"lon":5.36264,"is_reserved":false,"is_disabled":false,"rental_uris":{"android":"levelo://app?vid=d205452c-f9cd-4e4f-8c99-680eb23ec1e1","ios":"levelo://app?vid=d205452c-f9cd-4e4f-8c99-680eb23ec1e1"},"vehicle_type_id":"4","last_reported":1693062359,"current_range_meters":25200,"station_id":"ce4bhbh2rcd13ifvqeo0","pricing_plan_id":"free"},{"bike_id":"19ff30ef-c434-428f-800c-08c694186b8a","system_id":"levelo_inurba_marseille","lat":43.27383,"lon":5.36255,"is_reserved":false,"is_disabled":false,"rental_uris":{"android":"levelo://app?vid=19ff30ef-c434-428f-800c-08c694186b8a","ios":"levelo://app?vid=19ff30ef-c434-428f-800c-08c694186b8a"},"vehicle_type_id":"4","last_reported":1693062359,"current_range_meters":0,"station_id":"ce4bhbh2rcd13ifvqeo0","pricing_plan_id":"free"},{"bike_id":"b81da804-9904-443e-8fa1-002883c0b8dd","system_id":"levelo_inurba_marseille","lat":43.27381,"lon":5.36252,"is_reserved":false,"is_disabled":false,"rental_uris":{"android":"levelo://app?vid=b81da804-9904-443e-8fa1-002883c0b8dd","ios":"levelo://app?vid=b81da804-9904-443e-8fa1-002883c0b8dd"},"vehicle_type_id":"4","last_reported":1693062359,"current_range_meters":31200,"station_id":"ce4bhbh2rcd13ifvqeo0","pricing_plan_id":"free"},{"bike_id":"770ebb5a-3337-45c2-aafb-6818fb496fbe","system_id":"levelo_inurba_marseille","lat":43.27377,"lon":5.36253,"is_reserved":false,"is_disabled":false,"rental_uris":{"android":"levelo://app?vid=770ebb5a-3337-45c2-aafb-6818fb496fbe","ios":"levelo://app?vid=770ebb5a-3337-45c2-aafb-6818fb496fbe"},"vehicle_type_id":"4","last_reported":1693062359,"current_range_meters":28400,"station_id":"ce4bhbh2rcd13ifvqeo0","pricing_plan_id":"free"},{"bike_id":"71760d9d-4571-4107-8b22-c253a22f0be9","system_id":"levelo_inurba_marseille","lat":43.273613,"lon":5.362705,"is_reserved":false,"is_disabled":false,"rental_uris":{"android":"levelo://app?vid=71760d9d-4571-4107-8b22-c253a22f0be9","ios":"levelo://app?vid=71760d9d-4571-4107-8b22-c253a22f0be9"},"vehicle_type_id":"4","last_reported":1693062359,"current_range_meters":12000,"station_id":"ce4bhbh2rcd13ifvqeo0","pricing_plan_id":"free"},{"bike_id":"a8cb269c-10f3-4629-847b-d789f21801cc","system_id":"levelo_inurba_marseille","lat":43.273613,"lon":5.362705,"is_reserved":false,"is_disabled":false,"rental_uris":{"android":"levelo://app?vid=a8cb269c-10f3-4629-847b-d789f21801cc","ios":"levelo://app?vid=a8cb269c-10f3-4629-847b-d789f21801cc"},"vehicle_type_id":"4","last_reported":1693062359,"current_range_meters":14000,"station_id":"ce4bhbh2rcd13ifvqeo0","pricing_plan_id":"free"},{"bike_id":"39b5b5cf-86ef-48ea-a176-58e554756417","system_id":"levelo_inurba_marseille","lat":43.273613,"lon":5.362705,"is_reserved":false,"is_disabled":false,"rental_uris":{"android":"levelo://app?vid=39b5b5cf-86ef-48ea-a176-58e554756417","ios":"levelo://app?vid=39b5b5cf-86ef-48ea-a176-58e554756417"},"vehicle_type_id":"4","last_reported":1693062359,"current_range_meters":31600,"station_id":"ce4bhbh2rcd13ifvqeo0","pricing_plan_id":"free"},{"bike_id":"9624a9bc-cc35-4746-88f0-501f249efcea","system_id":"levelo_inurba_marseille","lat":43.273609,"lon":5.362708,"is_reserved":false,"is_disabled":false,"rental_uris":{"android":"levelo://app?vid=9624a9bc-cc35-4746-88f0-501f249efcea","ios":"levelo://app?vid=9624a9bc-cc35-4746-88f0-501f249efcea"},"vehicle_type_id":"4","last_reported":1693062359,"current_range_meters":28400,"station_id":"ce4bhbh2rcd13ifvqeo0","pricing_plan_id":"free"},{"bike_id":"19d6600b-0614-4368-ad58-b69e055ded6c","system_id":"levelo_inurba_marseille","lat":43.33612,"lon":5.410321,"is_reserved":false,"is_disabled":false,"rental_uris":{"android":"levelo://app?vid=19d6600b-0614-4368-ad58-b69e055ded6c","ios":"levelo://app?vid=19d6600b-0614-4368-ad58-b69e055ded6c"},"vehicle_type_id":"4","last_reported":1693062359,"current_range_meters":30000,"station_id":"ce4bhqh2rcd13ifvqhmg","pricing_plan_id":"free"},{"bike_id":"66c3aeb9-8f56-4cc3-9c9a-aab43780a097","system_id":"levelo_inurba_marseille","lat":43.33612,"lon":5.410321,"is_reserved":false,"is_disabled":false,"rental_uris":{"android":"levelo://app?vid=66c3aeb9-8f56-4cc3-9c9a-aab43780a097","ios":"levelo://app?vid=66c3aeb9-8f56-4cc3-9c9a-aab43780a097"},"vehicle_type_id":"4","last_reported":1693062359,"current_range_meters":31200,"station_id":"ce4bhqh2rcd13ifvqhmg","pricing_plan_id":"free"},{"bike_id":"9278726e-fbb6-4d1c-afd8-9bbbcc5e3810","system_id":"levelo_inurba_marseille","lat":43.336134,"lon":5.410341,"is_reserved":false,"is_disabled":false,"rental_uris":{"android":"levelo://app?vid=9278726e-fbb6-4d1c-afd8-9bbbcc5e3810","ios":"levelo://app?vid=9278726e-fbb6-4d1c-afd8-9bbbcc5e3810"},"vehicle_type_id":"4","last_reported":1693062359,"current_range_meters":30800,"station_id":"ce4bhqh2rcd13ifvqhmg","pricing_plan_id":"free"},{"bike_id":"cca21038-7a31-4cfa-b61b-72304ec64573","system_id":"levelo_inurba_marseille","lat":43.336134,"lon":5.410341,"is_reserved":false,"is_disabled":false,"rental_uris":{"android":"levelo://app?vid=cca21038-7a31-4cfa-b61b-72304ec64573","ios":"levelo://app?vid=cca21038-7a31-4cfa-b61b-72304ec64573"},"vehicle_type_id":"4","last_reported":1693062359,"current_range_meters":31200,"station_id":"ce4bhqh2rcd13ifvqhmg","pricing_plan_id":"free"},{"bike_id":"81e91cfe-a4c6-471d-a4ac-cdb60671a384","system_id":"levelo_inurba_marseille","lat":43.27659,"lon":5.38853,"is_reserved":false,"is_disabled":false,"rental_uris":{"android":"levelo://app?vid=81e91cfe-a4c6-471d-a4ac-cdb60671a384","ios":"levelo://app?vid=81e91cfe-a4c6-471d-a4ac-cdb60671a384"},"vehicle_type_id":"4","last_reported":1693062359,"current_range_meters":28400,"station_id":"ce4bhi12rcd13ifvqfo0","pricing_plan_id":"free"},{"bike_id":"2c002134-e4d2-41d1-b436-28e8e2ea24ca","system_id":"levelo_inurba_marseille","lat":43.276771,"lon":5.388799,"is_reserved":false,"is_disabled":false,"rental_uris":{"android":"levelo://app?vid=2c002134-e4d2-41d1-b436-28e8e2ea24ca","ios":"levelo://app?vid=2c002134-e4d2-41d1-b436-28e8e2ea24ca"},"vehicle_type_id":"4","last_reported":1693062359,"current_range_meters":28400,"station_id":"ce4bhi12rcd13ifvqfo0","pricing_plan_id":"free"},{"bike_id":"c4e4a360-a2e6-493f-aa2d-8d3c774694db","system_id":"levelo_inurba_marseille","lat":43.3172,"lon":5.42396,"is_reserved":false,"is_disabled":false,"rental_uris":{"android":"levelo://app?vid=c4e4a360-a2e6-493f-aa2d-8d3c774694db","ios":"levelo://app?vid=c4e4a360-a2e6-493f-aa2d-8d3c774694db"},"vehicle_type_id":"4","last_reported":1693062359,"current_range_meters":30400,"station_id":"ce4bhp92rcd13ifvqhbg","pricing_plan_id":"free"},{"bike_id":"3951468d-1e2d-48ca-8eef-a7b4827c2bb5","system_id":"levelo_inurba_marseille","lat":43.317121,"lon":5.423936,"is_reserved":false,"is_disabled":false,"rental_uris":{"android":"levelo://app?vid=3951468d-1e2d-48ca-8eef-a7b4827c2bb5","ios":"levelo://app?vid=3951468d-1e2d-48ca-8eef-a7b4827c2bb5"},"vehicle_type_id":"4","last_reported":1693062359,"current_range_meters":30400,"station_id":"ce4bhp92rcd13ifvqhbg","pricing_plan_id":"free"},{"bike_id":"9e1b75ef-9c6d-41fd-980d-cd3c637889ef","system_id":"levelo_inurba_marseille","lat":43.317121,"lon":5.423936,"is_reserved":false,"is_disabled":false,"rental_uris":{"android":"levelo://app?vid=9e1b75ef-9c6d-41fd-980d-cd3c637889ef","ios":"levelo://app?vid=9e1b75ef-9c6d-41fd-980d-cd3c637889ef"},"vehicle_type_id":"4","last_reported":1693062359,"current_range_meters":29200,"station_id":"ce4bhp92rcd13ifvqhbg","pricing_plan_id":"free"},{"bike_id":"e8e1c99c-2429-4133-8cc0-95715fa6ef0b","system_id":"levelo_inurba_marseille","lat":43.310785,"lon":5.424305,"is_reserved":false,"is_disabled":false,"rental_uris":{"android":"levelo://app?vid=e8e1c99c-2429-4133-8cc0-95715fa6ef0b","ios":"levelo://app?vid=e8e1c99c-2429-4133-8cc0-95715fa6ef0b"},"vehicle_type_id":"4","last_reported":1693062359,"current_range_meters":20000,"station_id":"ce4bhp92rcd13ifvqhag","pricing_plan_id":"free"},{"bike_id":"450df05c-e2ec-406d-9e53-1cd3a7c5a8f4","system_id":"levelo_inurba_marseille","lat":43.34136,"lon":5.40898,"is_reserved":false,"is_disabled":false,"rental_uris":{"android":"levelo://app?vid=450df05c-e2ec-406d-9e53-1cd3a7c5a8f4","ios":"levelo://app?vid=450df05c-e2ec-406d-9e53-1cd3a7c5a8f4"},"vehicle_type_id":"4","last_reported":1693062359,"current_range_meters":7600,"station_id":"ce4bhqh2rcd13ifvqhlg","pricing_plan_id":"free"},{"bike_id":"aee6c311-4dd8-42c2-a236-8e8ef20ad03e","system_id":"levelo_inurba_marseille","lat":43.3414,"lon":5.40899,"is_reserved":false,"is_disabled":false,"rental_uris":{"android":"levelo://app?vid=aee6c311-4dd8-42c2-a236-8e8ef20ad03e","ios":"levelo://app?vid=aee6c311-4dd8-42c2-a236-8e8ef20ad03e"},"vehicle_type_id":"4","last_reported":1693062359,"current_range_meters":16000,"station_id":"ce4bhqh2rcd13ifvqhlg","pricing_plan_id":"free"},{"bike_id":"67c71529-c420-4fcb-9268-639cae704f90","system_id":"levelo_inurba_marseille","lat":43.340804,"lon":5.410219,"is_reserved":false,"is_disabled":false,"rental_uris":{"android":"levelo://app?vid=67c71529-c420-4fcb-9268-639cae704f90","ios":"levelo://app?vid=67c71529-c420-4fcb-9268-639cae704f90"},"vehicle_type_id":"4","last_reported":1693062359,"current_range_meters":29600,"station_id":"ce4bhqh2rcd13ifvqhlg","pricing_plan_id":"free"},{"bike_id":"ce5e959b-48e0-480e-994b-c9b4a87e8547","system_id":"levelo_inurba_marseille","lat":43.340804,"lon":5.410219,"is_reserved":false,"is_disabled":false,"rental_uris":{"android":"levelo://app?vid=ce5e959b-48e0-480e-994b-c9b4a87e8547","ios":"levelo://app?vid=ce5e959b-48e0-480e-994b-c9b4a87e8547"},"vehicle_type_id":"4","last_reported":1693062359,"current_range_meters":18400,"station_id":"ce4bhqh2rcd13ifvqhlg","pricing_plan_id":"free"},{"bike_id":"735e3849-26f0-4caf-bb19-1fc657bac7c7","system_id":"levelo_inurba_marseille","lat":43.34142,"lon":5.40901,"is_reserved":false,"is_disabled":false,"rental_uris":{"android":"levelo://app?vid=735e3849-26f0-4caf-bb19-1fc657bac7c7","ios":"levelo://app?vid=735e3849-26f0-4caf-bb19-1fc657bac7c7"},"vehicle_type_id":"4","last_reported":1693062359,"current_range_meters":20800,"station_id":"ce4bhqh2rcd13ifvqhlg","pricing_plan_id":"free"},{"bike_id":"8ddb69cb-8f57-4c3c-bc3e-37fd98e75be7","system_id":"levelo_inurba_marseille","lat":43.34142,"lon":5.40904,"is_reserved":false,"is_disabled":false,"rental_uris":{"android":"levelo://app?vid=8ddb69cb-8f57-4c3c-bc3e-37fd98e75be7","ios":"levelo://app?vid=8ddb69cb-8f57-4c3c-bc3e-37fd98e75be7"},"vehicle_type_id":"4","last_reported":1693062359,"current_range_meters":2800,"station_id":"ce4bhqh2rcd13ifvqhlg","pricing_plan_id":"free"},{"bike_id":"e70b76ea-5268-4e50-abe3-2f0407cbacc6","system_id":"levelo_inurba_marseille","lat":43.34142,"lon":5.40904,"is_reserved":false,"is_disabled":false,"rental_uris":{"android":"levelo://app?vid=e70b76ea-5268-4e50-abe3-2f0407cbacc6","ios":"levelo://app?vid=e70b76ea-5268-4e50-abe3-2f0407cbacc6"},"vehicle_type_id":"4","last_reported":1693062359,"current_range_meters":22800,"station_id":"ce4bhqh2rcd13ifvqhlg","pricing_plan_id":"free"},{"bike_id":"56fae68c-5275-441a-9dc9-be69facb353e","system_id":"levelo_inurba_marseille","lat":43.340804,"lon":5.410219,"is_reserved":false,"is_disabled":false,"rental_uris":{"android":"levelo://app?vid=56fae68c-5275-441a-9dc9-be69facb353e","ios":"levelo://app?vid=56fae68c-5275-441a-9dc9-be69facb353e"},"vehicle_type_id":"4","last_reported":1693062359,"current_range_meters":16000,"station_id":"ce4bhqh2rcd13ifvqhlg","pricing_plan_id":"free"},{"bike_id":"b3e5f6f6-fdda-43cf-915e-bb162824458b","system_id":"levelo_inurba_marseille","lat":43.34144,"lon":5.40906,"is_reserved":false,"is_disabled":false,"rental_uris":{"android":"levelo://app?vid=b3e5f6f6-fdda-43cf-915e-bb162824458b","ios":"levelo://app?vid=b3e5f6f6-fdda-43cf-915e-bb162824458b"},"vehicle_type_id":"4","last_reported":1693062359,"current_range_meters":12800,"station_id":"ce4bhqh2rcd13ifvqhlg","pricing_plan_id":"free"},{"bike_id":"76f9f427-5fce-454b-a9f9-ac21cebba9f4","system_id":"levelo_inurba_marseille","lat":43.34144,"lon":5.40907,"is_reserved":false,"is_disabled":false,"rental_uris":{"android":"levelo://app?vid=76f9f427-5fce-454b-a9f9-ac21cebba9f4","ios":"levelo://app?vid=76f9f427-5fce-454b-a9f9-ac21cebba9f4"},"vehicle_type_id":"4","last_reported":1693062359,"current_range_meters":16000,"station_id":"ce4bhqh2rcd13ifvqhlg","pricing_plan_id":"free"},{"bike_id":"73c58ad4-9273-4758-8948-6e207a6d1385","system_id":"levelo_inurba_marseille","lat":43.34146,"lon":5.40906,"is_reserved":false,"is_disabled":false,"rental_uris":{"android":"levelo://app?vid=73c58ad4-9273-4758-8948-6e207a6d1385","ios":"levelo://app?vid=73c58ad4-9273-4758-8948-6e207a6d1385"},"vehicle_type_id":"4","last_reported":1693062359,"current_range_meters":18000,"station_id":"ce4bhqh2rcd13ifvqhlg","pricing_plan_id":"free"},{"bike_id":"262542b3-a0f3-4a54-95f6-f034c91a9b7a","system_id":"levelo_inurba_marseille","lat":43.34146,"lon":5.4091,"is_reserved":false,"is_disabled":false,"rental_uris":{"android":"levelo://app?vid=262542b3-a0f3-4a54-95f6-f034c91a9b7a","ios":"levelo://app?vid=262542b3-a0f3-4a54-95f6-f034c91a9b7a"},"vehicle_type_id":"4","last_reported":1693062359,"current_range_meters":30000,"station_id":"ce4bhqh2rcd13ifvqhlg","pricing_plan_id":"free"},{"bike_id":"df69c421-75ff-45ee-b05d-1ea5b3c083e0","system_id":"levelo_inurba_marseille","lat":43.273125,"lon":5.390731,"is_reserved":false,"is_disabled":false,"rental_uris":{"android":"levelo://app?vid=df69c421-75ff-45ee-b05d-1ea5b3c083e0","ios":"levelo://app?vid=df69c421-75ff-45ee-b05d-1ea5b3c083e0"},"vehicle_type_id":"4","last_reported":1693062359,"current_range_meters":24000,"station_id":"ce4bhgp2rcd13ifvqfe0","pricing_plan_id":"free"},{"bike_id":"ecab50a2-2585-4dff-b2ef-3e11af39ad2f","system_id":"levelo_inurba_marseille","lat":43.273125,"lon":5.390731,"is_reserved":false,"is_disabled":false,"rental_uris":{"android":"levelo://app?vid=ecab50a2-2585-4dff-b2ef-3e11af39ad2f","ios":"levelo://app?vid=ecab50a2-2585-4dff-b2ef-3e11af39ad2f"},"vehicle_type_id":"4","last_reported":1693062359,"current_range_meters":16800,"station_id":"ce4bhgp2rcd13ifvqfe0","pricing_plan_id":"free"},{"bike_id":"6997ab98-b62b-4647-b858-204f8d12a998","system_id":"levelo_inurba_marseille","lat":43.27318,"lon":5.39072,"is_reserved":false,"is_disabled":false,"rental_uris":{"android":"levelo://app?vid=6997ab98-b62b-4647-b858-204f8d12a998","ios":"levelo://app?vid=6997ab98-b62b-4647-b858-204f8d12a998"},"vehicle_type_id":"4","last_reported":1693062359,"current_range_meters":0,"station_id":"ce4bhgp2rcd13ifvqfe0","pricing_plan_id":"free"},{"bike_id":"562cd6a0-ef03-453c-9628-69284c497c1b","system_id":"levelo_inurba_marseille","lat":43.27318,"lon":5.39078,"is_reserved":false,"is_disabled":false,"rental_uris":{"android":"levelo://app?vid=562cd6a0-ef03-453c-9628-69284c497c1b","ios":"levelo://app?vid=562cd6a0-ef03-453c-9628-69284c497c1b"},"vehicle_type_id":"4","last_reported":1693062359,"current_range_meters":12400,"station_id":"ce4bhgp2rcd13ifvqfe0","pricing_plan_id":"free"},{"bike_id":"098c6da6-ba2e-41f5-be05-d07cc382597a","system_id":"levelo_inurba_marseille","lat":43.274103,"lon":5.394016,"is_reserved":false,"is_disabled":false,"rental_uris":{"android":"levelo://app?vid=098c6da6-ba2e-41f5-be05-d07cc382597a","ios":"levelo://app?vid=098c6da6-ba2e-41f5-be05-d07cc382597a"},"vehicle_type_id":"4","last_reported":1693062359,"current_range_meters":12800,"station_id":"ce4bhdp2rcd13ifvqf20","pricing_plan_id":"free"},{"bike_id":"5da0c739-1928-4f6d-8b67-1eb005871374","system_id":"levelo_inurba_marseille","lat":43.273125,"lon":5.390731,"is_reserved":false,"is_disabled":false,"rental_uris":{"android":"levelo://app?vid=5da0c739-1928-4f6d-8b67-1eb005871374","ios":"levelo://app?vid=5da0c739-1928-4f6d-8b67-1eb005871374"},"vehicle_type_id":"4","last_reported":1693062359,"current_range_meters":12800,"station_id":"ce4bhgp2rcd13ifvqfe0","pricing_plan_id":"free"},{"bike_id":"f6a2296e-e22a-474d-a66e-1c5214c73bc6","system_id":"levelo_inurba_marseille","lat":43.30414,"lon":5.42542,"is_reserved":false,"is_disabled":false,"rental_uris":{"android":"levelo://app?vid=f6a2296e-e22a-474d-a66e-1c5214c73bc6","ios":"levelo://app?vid=f6a2296e-e22a-474d-a66e-1c5214c73bc6"},