{"last_updated":1739535433,"ttl":60,"version":"2.2","data":{"bikes":[{"bike_id":"b73d4a7d-494a-4490-bb91-a503ace0a774","system_id":"levelo_inurba_marseille","lat":43.29035,"lon":5.38637,"is_reserved":false,"is_disabled":false,"rental_uris":{"android":"levelo://app?vid=b73d4a7d-494a-4490-bb91-a503ace0a774","ios":"levelo://app?vid=b73d4a7d-494a-4490-bb91-a503ace0a774"},"vehicle_type_id":"4","last_reported":1739535434,"current_range_meters":28000,"station_id":"ce4bh4p2rcd13ifvqe0g","pricing_plan_id":"cebpf4jnsgd1na2vs0mg"},{"bike_id":"23c37aa2-d86d-4e05-ba0a-9558b2f6ea2e","system_id":"levelo_inurba_marseille","lat":43.25939,"lon":5.40902,"is_reserved":false,"is_disabled":false,"rental_uris":{"android":"levelo://app?vid=23c37aa2-d86d-4e05-ba0a-9558b2f6ea2e","ios":"levelo://app?vid=23c37aa2-d86d-4e05-ba0a-9558b2f6ea2e"},"vehicle_type_id":"4","last_reported":1739535434,"current_range_meters":35600,"station_id":"ce4bhm92rcd13ifvqglg","pricing_plan_id":"cebpf4jnsgd1na2vs0mg"},{"bike_id":"9b6ca1cf-9d2c-4514-978f-aabd8a4c512c","system_id":"levelo_inurba_marseille","lat":43.27815,"lon":5.40713,"is_reserved":false,"is_disabled":false,"rental_uris":{"android":"levelo://app?vid=9b6ca1cf-9d2c-4514-978f-aabd8a4c512c","ios":"levelo://app?vid=9b6ca1cf-9d2c-4514-978f-aabd8a4c512c"},"vehicle_type_id":"4","last_reported":1739535434,"current_range_meters":32000,"station_id":"ce4bhnh2rcd13ifvqgtg","pricing_plan_id":"cebpf4jnsgd1na2vs0mg"},{"bike_id":"fabe0dc0-e9b8-4510-811e-856b5cccb082","system_id":"levelo_inurba_marseille","lat":43.25519,"lon":5.37643,"is_reserved":false,"is_disabled":false,"rental_uris":{"android":"levelo://app?vid=fabe0dc0-e9b8-4510-811e-856b5cccb082","ios":"levelo://app?vid=fabe0dc0-e9b8-4510-811e-856b5cccb082"},"vehicle_type_id":"4","last_reported":1739535434,"current_range_meters":39200,"station_id":"ce4bhh12rcd13ifvqff0","pricing_plan_id":"cebpf4jnsgd1na2vs0mg"},{"bike_id":"1d4165b9-e8af-42e7-8e88-54a0f84b4f26","system_id":"levelo_inurba_marseille","lat":43.23191,"lon":5.39973,"is_reserved":false,"is_disabled":false,"rental_uris":{"android":"levelo://app?vid=1d4165b9-e8af-42e7-8e88-54a0f84b4f26","ios":"levelo://app?vid=1d4165b9-e8af-42e7-8e88-54a0f84b4f26"},"vehicle_type_id":"4","last_reported":1739535434,"current_range_meters":30000,"station_id":"ce4bhn12rcd13ifvqgqg","pricing_plan_id":"cebpf4jnsgd1na2vs0mg"},{"bike_id":"2c55c208-b82c-483a-b4de-f1557a794637","system_id":"levelo_inurba_marseille","lat":43.25002,"lon":5.38929,"is_reserved":false,"is_disabled":false,"rental_uris":{"android":"levelo://app?vid=2c55c208-b82c-483a-b4de-f1557a794637","ios":"levelo://app?vid=2c55c208-b82c-483a-b4de-f1557a794637"},"vehicle_type_id":"4","last_reported":1739535434,"current_range_meters":6400,"station_id":"ce4bhgp2rcd13ifvqfd0","pricing_plan_id":"cebpf4jnsgd1na2vs0mg"},{"bike_id":"c427046f-d2b1-453c-87e9-5f846e361540","system_id":"levelo_inurba_marseille","lat":43.29534,"lon":5.38541,"is_reserved":false,"is_disabled":false,"rental_uris":{"android":"levelo://app?vid=c427046f-d2b1-453c-87e9-5f846e361540","ios":"levelo://app?vid=c427046f-d2b1-453c-87e9-5f846e361540"},"vehicle_type_id":"4","last_reported":1739535434,"current_range_meters":28400,"station_id":"ce4bgih2rcd13ifvqba0","pricing_plan_id":"cebpf4jnsgd1na2vs0mg"},{"bike_id":"3d55dfbc-79dc-4a16-8c46-cf49fec8982e","system_id":"levelo_inurba_marseille","lat":43.24398,"lon":5.3706,"is_reserved":false,"is_disabled":false,"rental_uris":{"android":"levelo://app?vid=3d55dfbc-79dc-4a16-8c46-cf49fec8982e","ios":"levelo://app?vid=3d55dfbc-79dc-4a16-8c46-cf49fec8982e"},"vehicle_type_id":"4","last_reported":1739535434,"current_range_meters":39200,"station_id":"ce4bhhh2rcd13ifvqfk0","pricing_plan_id":"cebpf4jnsgd1na2vs0mg"},{"bike_id":"3fca5721-9f55-4786-83f5-bfed46a93e86","system_id":"levelo_inurba_marseille","lat":43.2958,"lon":5.3999,"is_reserved":false,"is_disabled":true,"rental_uris":{"android":"levelo://app?vid=3fca5721-9f55-4786-83f5-bfed46a93e86","ios":"levelo://app?vid=3fca5721-9f55-4786-83f5-bfed46a93e86"},"vehicle_type_id":"4","last_reported":1739535434,"current_range_meters":0,"station_id":"ce4bh312rcd13ifvqdj0","pricing_plan_id":"cebpf4jnsgd1na2vs0mg"},{"bike_id":"df62fe5a-a7e7-43ea-8ab8-bcda4c47b946","system_id":"levelo_inurba_marseille","lat":43.31002,"lon":5.40074,"is_reserved":false,"is_disabled":false,"rental_uris":{"android":"levelo://app?vid=df62fe5a-a7e7-43ea-8ab8-bcda4c47b946","ios":"levelo://app?vid=df62fe5a-a7e7-43ea-8ab8-bcda4c47b946"},"vehicle_type_id":"4","last_reported":1739535434,"current_range_meters":29600,"station_id":"ce4bh092rcd13ifvqd30","pricing_plan_id":"cebpf4jnsgd1na2vs0mg"},{"bike_id":"c74f8124-73dc-4bd8-a98e-9fa42c510bc4","system_id":"levelo_inurba_marseille","lat":43.23189,"lon":5.3998,"is_reserved":false,"is_disabled":false,"rental_uris":{"android":"levelo://app?vid=c74f8124-73dc-4bd8-a98e-9fa42c510bc4","ios":"levelo://app?vid=c74f8124-73dc-4bd8-a98e-9fa42c510bc4"},"vehicle_type_id":"4","last_reported":1739535434,"current_range_meters":27600,"station_id":"ce4bhn12rcd13ifvqgqg","pricing_plan_id":"cebpf4jnsgd1na2vs0mg"},{"bike_id":"eace11fc-366d-49db-ab9f-2f957d528477","system_id":"levelo_inurba_marseille","lat":43.25528,"lon":5.37641,"is_reserved":false,"is_disabled":false,"rental_uris":{"android":"levelo://app?vid=eace11fc-366d-49db-ab9f-2f957d528477","ios":"levelo://app?vid=eace11fc-366d-49db-ab9f-2f957d528477"},"vehicle_type_id":"4","last_reported":1739535434,"current_range_meters":34800,"station_id":"ce4bhh12rcd13ifvqff0","pricing_plan_id":"cebpf4jnsgd1na2vs0mg"},{"bike_id":"e444f62f-44b2-48d6-8056-b01b67c19f42","system_id":"levelo_inurba_marseille","lat":43.29583,"lon":5.39963,"is_reserved":false,"is_disabled":false,"rental_uris":{"android":"levelo://app?vid=e444f62f-44b2-48d6-8056-b01b67c19f42","ios":"levelo://app?vid=e444f62f-44b2-48d6-8056-b01b67c19f42"},"vehicle_type_id":"4","last_reported":1739535434,"current_range_meters":32800,"station_id":"ce4bh312rcd13ifvqdj0","pricing_plan_id":"cebpf4jnsgd1na2vs0mg"},{"bike_id":"6b42f4f1-2360-420a-81a5-fa8f868ac30d","system_id":"levelo_inurba_marseille","lat":43.27166,"lon":5.39028,"is_reserved":false,"is_disabled":false,"rental_uris":{"android":"levelo://app?vid=6b42f4f1-2360-420a-81a5-fa8f868ac30d","ios":"levelo://app?vid=6b42f4f1-2360-420a-81a5-fa8f868ac30d"},"vehicle_type_id":"4","last_reported":1739535434,"current_range_meters":37600,"station_id":"","pricing_plan_id":"cebpf4jnsgd1na2vs0mg"},{"bike_id":"30d78ee8-300b-48df-91e6-b69f3a99f469","system_id":"levelo_inurba_marseille","lat":43.2847,"lon":5.38537,"is_reserved":false,"is_disabled":true,"rental_uris":{"android":"levelo://app?vid=30d78ee8-300b-48df-91e6-b69f3a99f469","ios":"levelo://app?vid=30d78ee8-300b-48df-91e6-b69f3a99f469"},"vehicle_type_id":"4","last_reported":1739535434,"current_range_meters":19600,"station_id":"ce4bh8p2rcd13ifvqeb0","pricing_plan_id":"cebpf4jnsgd1na2vs0mg"},{"bike_id":"4416670a-2735-42c7-8ca0-eb6556dc27c8","system_id":"levelo_inurba_marseille","lat":43.30937,"lon":5.4014,"is_reserved":false,"is_disabled":false,"rental_uris":{"android":"levelo://app?vid=4416670a-2735-42c7-8ca0-eb6556dc27c8","ios":"levelo://app?vid=4416670a-2735-42c7-8ca0-eb6556dc27c8"},"vehicle_type_id":"4","last_reported":1739535434,"current_range_meters":38800,"station_id":"ce4bgvp2rcd13ifvqct0","pricing_plan_id":"cebpf4jnsgd1na2vs0mg"},{"bike_id":"811df968-3e13-4688-8138-09f1e216b706","system_id":"levelo_inurba_marseille","lat":43.30623,"lon":5.37206,"is_reserved":false,"is_disabled":false,"rental_uris":{"android":"levelo://app?vid=811df968-3e13-4688-8138-09f1e216b706","ios":"levelo://app?vid=811df968-3e13-4688-8138-09f1e216b706"},"vehicle_type_id":"4","last_reported":1739535434,"current_range_meters":38000,"station_id":"ce4bgqh2rcd13ifvqc4g","pricing_plan_id":"cebpf4jnsgd1na2vs0mg"},{"bike_id":"cca59307-c860-40be-b39b-00111f113d2c","system_id":"levelo_inurba_marseille","lat":43.296,"lon":5.37731,"is_reserved":false,"is_disabled":false,"rental_uris":{"android":"levelo://app?vid=cca59307-c860-40be-b39b-00111f113d2c","ios":"levelo://app?vid=cca59307-c860-40be-b39b-00111f113d2c"},"vehicle_type_id":"4","last_reported":1739535434,"current_range_meters":36800,"station_id":"ce4bgi92rcd13ifvqb90","pricing_plan_id":"cebpf4jnsgd1na2vs0mg"},{"bike_id":"b34c6303-752a-46a1-93ad-ddbc991e20b6","system_id":"levelo_inurba_marseille","lat":43.23054,"lon":5.35497,"is_reserved":false,"is_disabled":false,"rental_uris":{"android":"levelo://app?vid=b34c6303-752a-46a1-93ad-ddbc991e20b6","ios":"levelo://app?vid=b34c6303-752a-46a1-93ad-ddbc991e20b6"},"vehicle_type_id":"4","last_reported":1739535434,"current_range_meters":4800,"station_id":"cpo3342slgdg3j2ifvpg","pricing_plan_id":"cebpf4jnsgd1na2vs0mg"},{"bike_id":"e2dd2144-631e-4fb6-8efc-dc9e00f38b38","system_id":"levelo_inurba_marseille","lat":43.30128,"lon":5.3742,"is_reserved":false,"is_disabled":false,"rental_uris":{"android":"levelo://app?vid=e2dd2144-631e-4fb6-8efc-dc9e00f38b38","ios":"levelo://app?vid=e2dd2144-631e-4fb6-8efc-dc9e00f38b38"},"vehicle_type_id":"4","last_reported":1739535434,"current_range_meters":37600,"station_id":"ce4bgs92rcd13ifvqcc0","pricing_plan_id":"cebpf4jnsgd1na2vs0mg"},{"bike_id":"a6d22002-9977-46ab-96b3-9865bfd1ef0e","system_id":"levelo_inurba_marseille","lat":43.32497,"lon":5.36565,"is_reserved":false,"is_disabled":false,"rental_uris":{"android":"levelo://app?vid=a6d22002-9977-46ab-96b3-9865bfd1ef0e","ios":"levelo://app?vid=a6d22002-9977-46ab-96b3-9865bfd1ef0e"},"vehicle_type_id":"4","last_reported":1739535434,"current_range_meters":38800,"station_id":"ce4bhs12rcd13ifvqhvg","pricing_plan_id":"cebpf4jnsgd1na2vs0mg"},{"bike_id":"0e2b51af-8b98-46c4-8c5c-6ea78469b63d","system_id":"levelo_inurba_marseille","lat":43.33609,"lon":5.41029,"is_reserved":false,"is_disabled":false,"rental_uris":{"android":"levelo://app?vid=0e2b51af-8b98-46c4-8c5c-6ea78469b63d","ios":"levelo://app?vid=0e2b51af-8b98-46c4-8c5c-6ea78469b63d"},"vehicle_type_id":"4","last_reported":1739535434,"current_range_meters":12800,"station_id":"ce4bhqh2rcd13ifvqhmg","pricing_plan_id":"cebpf4jnsgd1na2vs0mg"},{"bike_id":"2103d830-e4e6-4cb2-b340-70559a08c4cf","system_id":"levelo_inurba_marseille","lat":43.27426,"lon":5.39406,"is_reserved":false,"is_disabled":true,"rental_uris":{"android":"levelo://app?vid=2103d830-e4e6-4cb2-b340-70559a08c4cf","ios":"levelo://app?vid=2103d830-e4e6-4cb2-b340-70559a08c4cf"},"vehicle_type_id":"4","last_reported":1739535434,"current_range_meters":38800,"station_id":"ce4bhdp2rcd13ifvqf20","pricing_plan_id":"cebpf4jnsgd1na2vs0mg"},{"bike_id":"db0c59a5-e36c-460d-a199-b553cfb8a418","system_id":"levelo_inurba_marseille","lat":43.27818,"lon":5.40697,"is_reserved":false,"is_disabled":false,"rental_uris":{"android":"levelo://app?vid=db0c59a5-e36c-460d-a199-b553cfb8a418","ios":"levelo://app?vid=db0c59a5-e36c-460d-a199-b553cfb8a418"},"vehicle_type_id":"4","last_reported":1739535434,"current_range_meters":31200,"station_id":"ce4bhnh2rcd13ifvqgtg","pricing_plan_id":"cebpf4jnsgd1na2vs0mg"},{"bike_id":"5b94872e-e8e0-48b1-a4f8-764a45f452f2","system_id":"levelo_inurba_marseille","lat":43.30568,"lon":5.36704,"is_reserved":false,"is_disabled":false,"rental_uris":{"android":"levelo://app?vid=5b94872e-e8e0-48b1-a4f8-764a45f452f2","ios":"levelo://app?vid=5b94872e-e8e0-48b1-a4f8-764a45f452f2"},"vehicle_type_id":"4","last_reported":1739535434,"current_range_meters":39200,"station_id":"ce4bgrp2rcd13ifvqc9g","pricing_plan_id":"cebpf4jnsgd1na2vs0mg"},{"bike_id":"fdd15c22-ec63-442b-b8f8-c9917e08521f","system_id":"levelo_inurba_marseille","lat":43.30285,"lon":5.37704,"is_reserved":false,"is_disabled":false,"rental_uris":{"android":"levelo://app?vid=fdd15c22-ec63-442b-b8f8-c9917e08521f","ios":"levelo://app?vid=fdd15c22-ec63-442b-b8f8-c9917e08521f"},"vehicle_type_id":"4","last_reported":1739535434,"current_range_meters":38000,"station_id":"ce4bguh2rcd13ifvqcj0","pricing_plan_id":"cebpf4jnsgd1na2vs0mg"},{"bike_id":"a7e4baf1-6372-4095-bd89-8ac2e4d94235","system_id":"levelo_inurba_marseille","lat":43.29557,"lon":5.42288,"is_reserved":false,"is_disabled":false,"rental_uris":{"android":"levelo://app?vid=a7e4baf1-6372-4095-bd89-8ac2e4d94235","ios":"levelo://app?vid=a7e4baf1-6372-4095-bd89-8ac2e4d94235"},"vehicle_type_id":"4","last_reported":1739535434,"current_range_meters":17200,"station_id":"ce4bhph2rcd13ifvqhdg","pricing_plan_id":"cebpf4jnsgd1na2vs0mg"},{"bike_id":"fb9dfa09-3d2f-4781-b8cd-e624f89d8963","system_id":"levelo_inurba_marseille","lat":43.34142,"lon":5.40909,"is_reserved":false,"is_disabled":false,"rental_uris":{"android":"levelo://app?vid=fb9dfa09-3d2f-4781-b8cd-e624f89d8963","ios":"levelo://app?vid=fb9dfa09-3d2f-4781-b8cd-e624f89d8963"},"vehicle_type_id":"4","last_reported":1739535434,"current_range_meters":36000,"station_id":"ce4bhqh2rcd13ifvqhlg","pricing_plan_id":"cebpf4jnsgd1na2vs0mg"},{"bike_id":"77199d23-32e6-4212-95ff-7ee9972b2938","system_id":"levelo_inurba_marseille","lat":43.2668,"lon":5.38272,"is_reserved":false,"is_disabled":false,"rental_uris":{"android":"levelo://app?vid=77199d23-32e6-4212-95ff-7ee9972b2938","ios":"levelo://app?vid=77199d23-32e6-4212-95ff-7ee9972b2938"},"vehicle_type_id":"4","last_reported":1739535434,"current_range_meters":7200,"station_id":"ce4bhg92rcd13ifvqf90","pricing_plan_id":"cebpf4jnsgd1na2vs0mg"},{"bike_id":"ca2b0724-d99b-47e2-b01b-e36943c9425f","system_id":"levelo_inurba_marseille","lat":43.23968,"lon":5.36642,"is_reserved":false,"is_disabled":false,"rental_uris":{"android":"levelo://app?vid=ca2b0724-d99b-47e2-b01b-e36943c9425f","ios":"levelo://app?vid=ca2b0724-d99b-47e2-b01b-e36943c9425f"},"vehicle_type_id":"4","last_reported":1739535434,"current_range_meters":24400,"station_id":"ce4bhi12rcd13ifvqfp0","pricing_plan_id":"cebpf4jnsgd1na2vs0mg"},{"bike_id":"8810c5ca-48ab-4f5e-8177-ae6a3a565963","system_id":"levelo_inurba_marseille","lat":43.30172,"lon":5.37419,"is_reserved":false,"is_disabled":false,"rental_uris":{"android":"levelo://app?vid=8810c5ca-48ab-4f5e-8177-ae6a3a565963","ios":"levelo://app?vid=8810c5ca-48ab-4f5e-8177-ae6a3a565963"},"vehicle_type_id":"4","last_reported":1739535434,"current_range_meters":38800,"station_id":"ce4bgs92rcd13ifvqcc0","pricing_plan_id":"cebpf4jnsgd1na2vs0mg"},{"bike_id":"1b70a548-d753-47c6-adbb-7eed5f6da95d","system_id":"levelo_inurba_marseille","lat":43.29875,"lon":5.39744,"is_reserved":false,"is_disabled":false,"rental_uris":{"android":"levelo://app?vid=1b70a548-d753-47c6-adbb-7eed5f6da95d","ios":"levelo://app?vid=1b70a548-d753-47c6-adbb-7eed5f6da95d"},"vehicle_type_id":"4","last_reported":1739535434,"current_range_meters":13600,"station_id":"ce4bh0h2rcd13ifvqd50","pricing_plan_id":"cebpf4jnsgd1na2vs0mg"},{"bike_id":"a8bfe5a3-a0f9-4ed5-91cb-da4b66e2443e","system_id":"levelo_inurba_marseille","lat":43.25953,"lon":5.4089,"is_reserved":false,"is_disabled":false,"rental_uris":{"android":"levelo://app?vid=a8bfe5a3-a0f9-4ed5-91cb-da4b66e2443e","ios":"levelo://app?vid=a8bfe5a3-a0f9-4ed5-91cb-da4b66e2443e"},"vehicle_type_id":"4","last_reported":1739535434,"current_range_meters":37600,"station_id":"ce4bhm92rcd13ifvqglg","pricing_plan_id":"cebpf4jnsgd1na2vs0mg"},{"bike_id":"4e7c594c-b631-4f1a-a586-221c9c7f641d","system_id":"levelo_inurba_marseille","lat":43.2782,"lon":5.40726,"is_reserved":false,"is_disabled":false,"rental_uris":{"android":"levelo://app?vid=4e7c594c-b631-4f1a-a586-221c9c7f641d","ios":"levelo://app?vid=4e7c594c-b631-4f1a-a586-221c9c7f641d"},"vehicle_type_id":"4","last_reported":1739535434,"current_range_meters":18800,"station_id":"ce4bhnh2rcd13ifvqgtg","pricing_plan_id":"cebpf4jnsgd1na2vs0mg"},{"bike_id":"28e98ea2-b96a-4e52-a200-0d4558d3fdfa","system_id":"levelo_inurba_marseille","lat":43.28621,"lon":5.37061,"is_reserved":false,"is_disabled":false,"rental_uris":{"android":"levelo://app?vid=28e98ea2-b96a-4e52-a200-0d4558d3fdfa","ios":"levelo://app?vid=28e98ea2-b96a-4e52-a200-0d4558d3fdfa"},"vehicle_type_id":"4","last_reported":1739535434,"current_range_meters":36000,"station_id":"ce4bht12rcd13ifvqi60","pricing_plan_id":"cebpf4jnsgd1na2vs0mg"},{"bike_id":"f92e748a-9f9b-4e54-8084-07e33515f3d5","system_id":"levelo_inurba_marseille","lat":43.27068,"lon":5.39348,"is_reserved":false,"is_disabled":true,"rental_uris":{"android":"levelo://app?vid=f92e748a-9f9b-4e54-8084-07e33515f3d5","ios":"levelo://app?vid=f92e748a-9f9b-4e54-8084-07e33515f3d5"},"vehicle_type_id":"4","last_reported":1739535434,"current_range_meters":0,"station_id":"","pricing_plan_id":"cebpf4jnsgd1na2vs0mg"},{"bike_id":"7634e086-f6e0-474c-af09-9f19e7449c6e","system_id":"levelo_inurba_marseille","lat":43.26941,"lon":5.40239,"is_reserved":false,"is_disabled":false,"rental_uris":{"android":"levelo://app?vid=7634e086-f6e0-474c-af09-9f19e7449c6e","ios":"levelo://app?vid=7634e086-f6e0-474c-af09-9f19e7449c6e"},"vehicle_type_id":"4","last_reported":1739535434,"current_range_meters":10000,"station_id":"cjm6bp8fraef2m0cb0m0","pricing_plan_id":"cebpf4jnsgd1na2vs0mg"},{"bike_id":"704ec19d-e7c0-4858-a423-dcfa560220a5","system_id":"levelo_inurba_marseille","lat":43.23182,"lon":5.39979,"is_reserved":false,"is_disabled":false,"rental_uris":{"android":"levelo://app?vid=704ec19d-e7c0-4858-a423-dcfa560220a5","ios":"levelo://app?vid=704ec19d-e7c0-4858-a423-dcfa560220a5"},"vehicle_type_id":"4","last_reported":1739535434,"current_range_meters":33600,"station_id":"ce4bhn12rcd13ifvqgqg","pricing_plan_id":"cebpf4jnsgd1na2vs0mg"},{"bike_id":"5c31f567-3052-407e-90e7-b0ad6252e100","system_id":"levelo_inurba_marseille","lat":43.30173,"lon":5.3989,"is_reserved":false,"is_disabled":true,"rental_uris":{"android":"levelo://app?vid=5c31f567-3052-407e-90e7-b0ad6252e100","ios":"levelo://app?vid=5c31f567-3052-407e-90e7-b0ad6252e100"},"vehicle_type_id":"4","last_reported":1739535434,"current_range_meters":38800,"station_id":"ce4bh0h2rcd13ifvqd40","pricing_plan_id":"cebpf4jnsgd1na2vs0mg"},{"bike_id":"3b65282a-f1d0-4275-aeb0-d72b1002d850","system_id":"levelo_inurba_marseille","lat":43.30117,"lon":5.37423,"is_reserved":false,"is_disabled":false,"rental_uris":{"android":"levelo://app?vid=3b65282a-f1d0-4275-aeb0-d72b1002d850","ios":"levelo://app?vid=3b65282a-f1d0-4275-aeb0-d72b1002d850"},"vehicle_type_id":"4","last_reported":1739535434,"current_range_meters":38800,"station_id":"ce4bgs92rcd13ifvqcc0","pricing_plan_id":"cebpf4jnsgd1na2vs0mg"},{"bike_id":"9ffe0681-9ede-4d8e-8df5-acca9b5ea6d7","system_id":"levelo_inurba_marseille","lat":43.29253,"lon":5.40823,"is_reserved":false,"is_disabled":false,"rental_uris":{"android":"levelo://app?vid=9ffe0681-9ede-4d8e-8df5-acca9b5ea6d7","ios":"levelo://app?vid=9ffe0681-9ede-4d8e-8df5-acca9b5ea6d7"},"vehicle_type_id":"4","last_reported":1739535434,"current_range_meters":37600,"station_id":"","pricing_plan_id":"cebpf4jnsgd1na2vs0mg"},{"bike_id":"9cf8e6d9-67b8-441b-8ab4-08ef8560d2b0","system_id":"levelo_inurba_marseille","lat":43.33514,"lon":5.35585,"is_reserved":false,"is_disabled":true,"rental_uris":{"android":"levelo://app?vid=9cf8e6d9-67b8-441b-8ab4-08ef8560d2b0","ios":"levelo://app?vid=9cf8e6d9-67b8-441b-8ab4-08ef8560d2b0"},"vehicle_type_id":"4","last_reported":1739535434,"current_range_meters":0,"station_id":"","pricing_plan_id":"cebpf4jnsgd1na2vs0mg"},{"bike_id":"0b8828fb-bf18-4d96-8c4f-d797f9591c5c","system_id":"levelo_inurba_marseille","lat":43.29968,"lon":5.41316,"is_reserved":false,"is_disabled":false,"rental_uris":{"android":"levelo://app?vid=0b8828fb-bf18-4d96-8c4f-d797f9591c5c","ios":"levelo://app?vid=0b8828fb-bf18-4d96-8c4f-d797f9591c5c"},"vehicle_type_id":"4","last_reported":1739535434,"current_range_meters":39200,"station_id":"ce4bhp12rcd13ifvqh9g","pricing_plan_id":"cebpf4jnsgd1na2vs0mg"},{"bike_id":"2c48ff90-037d-4332-be30-c6a93d1c5594","system_id":"levelo_inurba_marseille","lat":43.26502,"lon":5.39531,"is_reserved":false,"is_disabled":false,"rental_uris":{"android":"levelo://app?vid=2c48ff90-037d-4332-be30-c6a93d1c5594","ios":"levelo://app?vid=2c48ff90-037d-4332-be30-c6a93d1c5594"},"vehicle_type_id":"4","last_reported":1739535434,"current_range_meters":33600,"station_id":"ce4bhi12rcd13ifvqfq0","pricing_plan_id":"cebpf4jnsgd1na2vs0mg"},{"bike_id":"6279f888-1d4b-4ebb-b3f2-c7248902b00f","system_id":"levelo_inurba_marseille","lat":43.2545,"lon":5.37654,"is_reserved":false,"is_disabled":false,"rental_uris":{"android":"levelo://app?vid=6279f888-1d4b-4ebb-b3f2-c7248902b00f","ios":"levelo://app?vid=6279f888-1d4b-4ebb-b3f2-c7248902b00f"},"vehicle_type_id":"4","last_reported":1739535434,"current_range_meters":17600,"station_id":"","pricing_plan_id":"cebpf4jnsgd1na2vs0mg"},{"bike_id":"9b830a51-acd7-456e-8054-0034a62a06ba","system_id":"levelo_inurba_marseille","lat":43.32102,"lon":5.36783,"is_reserved":false,"is_disabled":false,"rental_uris":{"android":"levelo://app?vid=9b830a51-acd7-456e-8054-0034a62a06ba","ios":"levelo://app?vid=9b830a51-acd7-456e-8054-0034a62a06ba"},"vehicle_type_id":"4","last_reported":1739535434,"current_range_meters":30400,"station_id":"ce4bhrh2rcd13ifvqhug","pricing_plan_id":"cebpf4jnsgd1na2vs0mg"},{"bike_id":"2b39e138-29d5-424b-a9b1-8fe8e03fc52b","system_id":"levelo_inurba_marseille","lat":43.29277,"lon":5.40127,"is_reserved":false,"is_disabled":true,"rental_uris":{"android":"levelo://app?vid=2b39e138-29d5-424b-a9b1-8fe8e03fc52b","ios":"levelo://app?vid=2b39e138-29d5-424b-a9b1-8fe8e03fc52b"},"vehicle_type_id":"4","last_reported":1739535434,"current_range_meters":25600,"station_id":"ce4bh312rcd13ifvqdk0","pricing_plan_id":"cebpf4jnsgd1na2vs0mg"},{"bike_id":"51fd558a-5a23-44b6-8960-826ef6bb2954","system_id":"levelo_inurba_marseille","lat":43.26032,"lon":5.3756,"is_reserved":false,"is_disabled":false,"rental_uris":{"android":"levelo://app?vid=51fd558a-5a23-44b6-8960-826ef6bb2954","ios":"levelo://app?vid=51fd558a-5a23-44b6-8960-826ef6bb2954"},"vehicle_type_id":"4","last_reported":1739535434,"current_range_meters":36800,"station_id":"ce4bhgh2rcd13ifvqfa0","pricing_plan_id":"cebpf4jnsgd1na2vs0mg"},{"bike_id":"03be7ba3-10b4-41a6-9ced-70928951fbb1","system_id":"levelo_inurba_marseille","lat":43.34144,"lon":5.40907,"is_reserved":false,"is_disabled":false,"rental_uris":{"android":"levelo://app?vid=03be7ba3-10b4-41a6-9ced-70928951fbb1","ios":"levelo://app?vid=03be7ba3-10b4-41a6-9ced-70928951fbb1"},"vehicle_type_id":"4","last_reported":1739535434,"current_range_meters":27600,"station_id":"ce4bhqh2rcd13ifvqhlg","pricing_plan_id":"cebpf4jnsgd1na2vs0mg"},{"bike_id":"bc156546-6a4f-4ee1-9757-374bfd3651e2","system_id":"levelo_inurba_marseille","lat":43.29274,"lon":5.3684,"is_reserved":false,"is_disabled":true,"rental_uris":{"android":"levelo://app?vid=bc156546-6a4f-4ee1-9757-374bfd3651e2","ios":"levelo://app?vid=bc156546-6a4f-4ee1-9757-374bfd3651e2"},"vehicle_type_id":"4","last_reported":1739535434,"current_range_meters":400,"station_id":"ce4bhbp2rcd13ifvqesg","pricing_plan_id":"cebpf4jnsgd1na2vs0mg"},{"bike_id":"259de09a-b5ee-4e76-8ffa-e8674aa4605f","system_id":"levelo_inurba_marseille","lat":43.28366,"lon":5.38627,"is_reserved":false,"is_disabled":false,"rental_uris":{"android":"levelo://app?vid=259de09a-b5ee-4e76-8ffa-e8674aa4605f","ios":"levelo://app?vid=259de09a-b5ee-4e76-8ffa-e8674aa4605f"},"vehicle_type_id":"4","last_reported":1739535434,"current_range_meters":38800,"station_id":"ce4bh492rcd13ifvqdvg","pricing_plan_id":"cebpf4jnsgd1na2vs0mg"},{"bike_id":"51ab7186-5043-4bed-baca-73708608a302","system_id":"levelo_inurba_marseille","lat":43.29584,"lon":5.37026,"is_reserved":false,"is_disabled":true,"rental_uris":{"android":"levelo://app?vid=51ab7186-5043-4bed-baca-73708608a302","ios":"levelo://app?vid=51ab7186-5043-4bed-baca-73708608a302"},"vehicle_type_id":"4","last_reported":1739535434,"current_range_meters":0,"station_id":"","pricing_plan_id":"cebpf4jnsgd1na2vs0mg"},{"bike_id":"ec90184e-fc78-41d7-ba71-28f8166549c1","system_id":"levelo_inurba_marseille","lat":43.312199,"lon":5.368623,"is_reserved":false,"is_disabled":false,"rental_uris":{"android":"levelo://app?vid=ec90184e-fc78-41d7-ba71-28f8166549c1","ios":"levelo://app?vid=ec90184e-fc78-41d7-ba71-28f8166549c1"},"vehicle_type_id":"4","last_reported":1739535434,"current_range_meters":28400,"station_id":"ce4bgl92rcd13ifvqbq0","pricing_plan_id":"cebpf4jnsgd1na2vs0mg"},{"bike_id":"486bbb86-cdfa-4a1a-afca-c4640c461267","system_id":"levelo_inurba_marseille","lat":43.29202,"lon":5.39316,"is_reserved":false,"is_disabled":false,"rental_uris":{"android":"levelo://app?vid=486bbb86-cdfa-4a1a-afca-c4640c461267","ios":"levelo://app?vid=486bbb86-cdfa-4a1a-afca-c4640c461267"},"vehicle_type_id":"4","last_reported":1739535434,"current_range_meters":5600,"station_id":"ce4bh192rcd13ifvqdd0","pricing_plan_id":"cebpf4jnsgd1na2vs0mg"},{"bike_id":"d3fc5f7e-9983-4343-a9af-f36df7d45f29","system_id":"levelo_inurba_marseille","lat":43.23252,"lon":5.40074,"is_reserved":false,"is_disabled":false,"rental_uris":{"android":"levelo://app?vid=d3fc5f7e-9983-4343-a9af-f36df7d45f29","ios":"levelo://app?vid=d3fc5f7e-9983-4343-a9af-f36df7d45f29"},"vehicle_type_id":"4","last_reported":1739535434,"current_range_meters":19600,"station_id":"ce4bhn12rcd13ifvqgqg","pricing_plan_id":"cebpf4jnsgd1na2vs0mg"},{"bike_id":"d01cfddf-7881-4b7c-815e-f570bddc475f","system_id":"levelo_inurba_marseille","lat":43.2796,"lon":5.41049,"is_reserved":false,"is_disabled":false,"rental_uris":{"android":"levelo://app?vid=d01cfddf-7881-4b7c-815e-f570bddc475f","ios":"levelo://app?vid=d01cfddf-7881-4b7c-815e-f570bddc475f"},"vehicle_type_id":"4","last_reported":1739535434,"current_range_meters":38000,"station_id":"ce4bhnp2rcd13ifvqh0g","pricing_plan_id":"cebpf4jnsgd1na2vs0mg"},{"bike_id":"3726052c-435c-4e9a-97b4-6741247fd797","system_id":"levelo_inurba_marseille","lat":43.2842,"lon":5.34978,"is_reserved":false,"is_disabled":false,"rental_uris":{"android":"levelo://app?vid=3726052c-435c-4e9a-97b4-6741247fd797","ios":"levelo://app?vid=3726052c-435c-4e9a-97b4-6741247fd797"},"vehicle_type_id":"4","last_reported":1739535434,"current_range_meters":33200,"station_id":"ce4bhbh2rcd13ifvqepg","pricing_plan_id":"cebpf4jnsgd1na2vs0mg"},{"bike_id":"a957ceea-f9ee-4522-a714-0b9b1ae52161","system_id":"levelo_inurba_marseille","lat":43.27067,"lon":5.40271,"is_reserved":false,"is_disabled":false,"rental_uris":{"android":"levelo://app?vid=a957ceea-f9ee-4522-a714-0b9b1ae52161","ios":"levelo://app?vid=a957ceea-f9ee-4522-a714-0b9b1ae52161"},"vehicle_type_id":"4","last_reported":1739535434,"current_range_meters":32000,"station_id":"ce4bhk92rcd13ifvqgc0","pricing_plan_id":"cebpf4jnsgd1na2vs0mg"},{"bike_id":"66824c47-adb5-4a99-af0b-7bbc08c699fb","system_id":"levelo_inurba_marseille","lat":43.29996,"lon":5.385,"is_reserved":false,"is_disabled":false,"rental_uris":{"android":"levelo://app?vid=66824c47-adb5-4a99-af0b-7bbc08c699fb","ios":"levelo://app?vid=66824c47-adb5-4a99-af0b-7bbc08c699fb"},"vehicle_type_id":"4","last_reported":1739535434,"current_range_meters":38800,"station_id":"ce4bgj92rcd13ifvqbd0","pricing_plan_id":"cebpf4jnsgd1na2vs0mg"},{"bike_id":"c40e2cb9-b89c-4dbd-956b-535ef79f1d37","system_id":"levelo_inurba_marseille","lat":43.2482,"lon":5.37461,"is_reserved":false,"is_disabled":false,"rental_uris":{"android":"levelo://app?vid=c40e2cb9-b89c-4dbd-956b-535ef79f1d37","ios":"levelo://app?vid=c40e2cb9-b89c-4dbd-956b-535ef79f1d37"},"vehicle_type_id":"4","last_reported":1739535434,"current_range_meters":28000,"station_id":"ce4bhgh2rcd13ifvqfb0","pricing_plan_id":"cebpf4jnsgd1na2vs0mg"},{"bike_id":"7ae3cd7b-1f66-4d10-b8d0-bbba15d2f500","system_id":"levelo_inurba_marseille","lat":43.26804,"lon":5.40266,"is_reserved":false,"is_disabled":false,"rental_uris":{"android":"levelo://app?vid=7ae3cd7b-1f66-4d10-b8d0-bbba15d2f500","ios":"levelo://app?vid=7ae3cd7b-1f66-4d10-b8d0-bbba15d2f500"},"vehicle_type_id":"4","last_reported":1739535434,"current_range_meters":24800,"station_id":"ce501612rcd8frsf0b60","pricing_plan_id":"cebpf4jnsgd1na2vs0mg"},{"bike_id":"87ca7809-d97f-4887-849b-ad9b5c1f247b","system_id":"levelo_inurba_marseille","lat":43.29031,"lon":5.38629,"is_reserved":false,"is_disabled":false,"rental_uris":{"android":"levelo://app?vid=87ca7809-d97f-4887-849b-ad9b5c1f247b","ios":"levelo://app?vid=87ca7809-d97f-4887-849b-ad9b5c1f247b"},"vehicle_type_id":"4","last_reported":1739535434,"current_range_meters":32000,"station_id":"ce4bh4p2rcd13ifvqe0g","pricing_plan_id":"cebpf4jnsgd1na2vs0mg"},{"bike_id":"24f066ed-96fc-400a-8097-8aa15d926f47","system_id":"levelo_inurba_marseille","lat":43.33033,"lon":5.39038,"is_reserved":false,"is_disabled":false,"rental_uris":{"android":"levelo://app?vid=24f066ed-96fc-400a-8097-8aa15d926f47","ios":"levelo://app?vid=24f066ed-96fc-400a-8097-8aa15d926f47"},"vehicle_type_id":"4","last_reported":1739535434,"current_range_meters":37600,"station_id":"ce4bhr92rcd13ifvqhrg","pricing_plan_id":"cebpf4jnsgd1na2vs0mg"},{"bike_id":"1fa82dc6-47d4-4356-bbca-393bf4461726","system_id":"levelo_inurba_marseille","lat":43.23968,"lon":5.366303,"is_reserved":false,"is_disabled":false,"rental_uris":{"android":"levelo://app?vid=1fa82dc6-47d4-4356-bbca-393bf4461726","ios":"levelo://app?vid=1fa82dc6-47d4-4356-bbca-393bf4461726"},"vehicle_type_id":"4","last_reported":1739535434,"current_range_meters":36800,"station_id":"ce4bhi12rcd13ifvqfp0","pricing_plan_id":"cebpf4jnsgd1na2vs0mg"},{"bike_id":"709b678b-bb0b-444a-8fef-a3f5bfff6d35","system_id":"levelo_inurba_marseille","lat":43.30909,"lon":5.36858,"is_reserved":false,"is_disabled":false,"rental_uris":{"android":"levelo://app?vid=709b678b-bb0b-444a-8fef-a3f5bfff6d35","ios":"levelo://app?vid=709b678b-bb0b-444a-8fef-a3f5bfff6d35"},"vehicle_type_id":"4","last_reported":1739535434,"current_range_meters":28000,"station_id":"ce4bgn92rcd13ifvqbvg","pricing_plan_id":"cebpf4jnsgd1na2vs0mg"},{"bike_id":"7e128b0d-c795-40c2-ac33-324f74638a1b","system_id":"levelo_inurba_marseille","lat":43.28498,"lon":5.38429,"is_reserved":false,"is_disabled":false,"rental_uris":{"android":"levelo://app?vid=7e128b0d-c795-40c2-ac33-324f74638a1b","ios":"levelo://app?vid=7e128b0d-c795-40c2-ac33-324f74638a1b"},"vehicle_type_id":"4","last_reported":1739535434,"current_range_meters":35600,"station_id":"ce4bh512rcd13ifvqe3g","pricing_plan_id":"cebpf4jnsgd1na2vs0mg"},{"bike_id":"2c9c57ef-929c-405c-9304-3c7204914b97","system_id":"levelo_inurba_marseille","lat":43.23965,"lon":5.36655,"is_reserved":false,"is_disabled":false,"rental_uris":{"android":"levelo://app?vid=2c9c57ef-929c-405c-9304-3c7204914b97","ios":"levelo://app?vid=2c9c57ef-929c-405c-9304-3c7204914b97"},"vehicle_type_id":"4","last_reported":1739535434,"current_range_meters":20400,"station_id":"ce4bhi12rcd13ifvqfp0","pricing_plan_id":"cebpf4jnsgd1na2vs0mg"},{"bike_id":"0bd1a399-2480-469c-91cd-e64288e63568","system_id":"levelo_inurba_marseille","lat":43.30361,"lon":5.41884,"is_reserved":false,"is_disabled":false,"rental_uris":{"android":"levelo://app?vid=0bd1a399-2480-469c-91cd-e64288e63568","ios":"levelo://app?vid=0bd1a399-2480-469c-91cd-e64288e63568"},"vehicle_type_id":"4","last_reported":1739535434,"current_range_meters":38800,"station_id":"ce4bhop2rcd13ifvqh7g","pricing_plan_id":"cebpf4jnsgd1na2vs0mg"},{"bike_id":"c7937d63-0bc6-4cc7-8965-f4e46a90b88c","system_id":"levelo_inurba_marseille","lat":43.30609,"lon":5.37236,"is_reserved":false,"is_disabled":false,"rental_uris":{"android":"levelo://app?vid=c7937d63-0bc6-4cc7-8965-f4e46a90b88c","ios":"levelo://app?vid=c7937d63-0bc6-4cc7-8965-f4e46a90b88c"},"vehicle_type_id":"4","last_reported":1739535434,"current_range_meters":30400,"station_id":"ce4bgqh2rcd13ifvqc4g","pricing_plan_id":"cebpf4jnsgd1na2vs0mg"},{"bike_id":"a5817ebf-12a4-4ec4-9a6d-e4f4a693e562","system_id":"levelo_inurba_marseille","lat":43.30335,"lon":5.36902,"is_reserved":false,"is_disabled":false,"rental_uris":{"android":"levelo://app?vid=a5817ebf-12a4-4ec4-9a6d-e4f4a693e562","ios":"levelo://app?vid=a5817ebf-12a4-4ec4-9a6d-e4f4a693e562"},"vehicle_type_id":"4","last_reported":1739535434,"current_range_meters":32000,"station_id":"ce4bgqh2rcd13ifvqc5g","pricing_plan_id":"cebpf4jnsgd1na2vs0mg"},{"bike_id":"69901931-b51c-453f-987f-21137ab8ac55","system_id":"levelo_inurba_marseille","lat":43.26831,"lon":5.40307,"is_reserved":false,"is_disabled":false,"rental_uris":{"android":"levelo://app?vid=69901931-b51c-453f-987f-21137ab8ac55","ios":"levelo://app?vid=69901931-b51c-453f-987f-21137ab8ac55"},"vehicle_type_id":"4","last_reported":1739535434,"current_range_meters":28800,"station_id":"","pricing_plan_id":"cebpf4jnsgd1na2vs0mg"},{"bike_id":"ca5093a4-273d-4700-a58b-5c1b2e69b436","system_id":"levelo_inurba_marseille","lat":43.29815,"lon":5.3809,"is_reserved":false,"is_disabled":false,"rental_uris":{"android":"levelo://app?vid=ca5093a4-273d-4700-a58b-5c1b2e69b436","ios":"levelo://app?vid=ca5093a4-273d-4700-a58b-5c1b2e69b436"},"vehicle_type_id":"4","last_reported":1739535434,"current_range_meters":38800,"station_id":"ce4bgip2rcd13ifvqbb0","pricing_plan_id":"cebpf4jnsgd1na2vs0mg"},{"bike_id":"de061c90-bc9c-40fa-9e34-754106ab7a68","system_id":"levelo_inurba_marseille","lat":43.27834,"lon":5.40722,"is_reserved":false,"is_disabled":false,"rental_uris":{"android":"levelo://app?vid=de061c90-bc9c-40fa-9e34-754106ab7a68","ios":"levelo://app?vid=de061c90-bc9c-40fa-9e34-754106ab7a68"},"vehicle_type_id":"4","last_reported":1739535434,"current_range_meters":26000,"station_id":"ce4bhnh2rcd13ifvqgtg","pricing_plan_id":"cebpf4jnsgd1na2vs0mg"},{"bike_id":"cb2c880d-6099-4e99-b126-5db2ed775e84","system_id":"levelo_inurba_marseille","lat":43.2501,"lon":5.38926,"is_reserved":false,"is_disabled":false,"rental_uris":{"android":"levelo://app?vid=cb2c880d-6099-4e99-b126-5db2ed775e84","ios":"levelo://app?vid=cb2c880d-6099-4e99-b126-5db2ed775e84"},"vehicle_type_id":"4","last_reported":1739535434,"current_range_meters":38800,"station_id":"ce4bhgp2rcd13ifvqfd0","pricing_plan_id":"cebpf4jnsgd1na2vs0mg"},{"bike_id":"49fa15bb-24fd-418e-972a-73184b9029cb","system_id":"levelo_inurba_marseille","lat":43.29895,"lon":5.43657,"is_reserved":false,"is_disabled":false,"rental_uris":{"android":"levelo://app?vid=49fa15bb-24fd-418e-972a-73184b9029cb","ios":"levelo://app?vid=49fa15bb-24fd-418e-972a-73184b9029cb"},"vehicle_type_id":"4","last_reported":1739535434,"current_range_meters":6800,"station_id":"ce4bhpp2rcd13ifvqhfg","pricing_plan_id":"cebpf4jnsgd1na2vs0mg"},{"bike_id":"477b9caf-0469-4b1e-b428-4df5f150159e","system_id":"levelo_inurba_marseille","lat":43.27851,"lon":5.40723,"is_reserved":false,"is_disabled":false,"rental_uris":{"android":"levelo://app?vid=477b9caf-0469-4b1e-b428-4df5f150159e","ios":"levelo://app?vid=477b9caf-0469-4b1e-b428-4df5f150159e"},"vehicle_type_id":"4","last_reported":1739535434,"current_range_meters":18000,"station_id":"ce4bhnh2rcd13ifvqgtg","pricing_plan_id":"cebpf4jnsgd1na2vs0mg"},{"bike_id":"7cfd58e2-772a-400a-a607-e82b88390380","system_id":"levelo_inurba_marseille","lat":43.29307,"lon":5.37441,"is_reserved":false,"is_disabled":false,"rental_uris":{"android":"levelo://app?vid=7cfd58e2-772a-400a-a607-e82b88390380","ios":"levelo://app?vid=7cfd58e2-772a-400a-a607-e82b88390380"},"vehicle_type_id":"4","last_reported":1739535434,"current_range_meters":30400,"station_id":"ce4bgi12rcd13ifvqb70","pricing_plan_id":"cebpf4jnsgd1na2vs0mg"},{"bike_id":"6a435339-cee5-42c4-8d6a-42a59e9a80b5","system_id":"levelo_inurba_marseille","lat":43.24665,"lon":5.38897,"is_reserved":false,"is_disabled":false,"rental_uris":{"android":"levelo://app?vid=6a435339-cee5-42c4-8d6a-42a59e9a80b5","ios":"levelo://app?vid=6a435339-cee5-42c4-8d6a-42a59e9a80b5"},"vehicle_type_id":"4","last_reported":1739535434,"current_range_meters":38000,"station_id":"ce4bhg12rcd13ifvqf60","pricing_plan_id":"cebpf4jnsgd1na2vs0mg"},{"bike_id":"0c9f491e-2c2e-4a66-985f-4b2dd1fa46b1","system_id":"levelo_inurba_marseille","lat":43.30312,"lon":5.37784,"is_reserved":false,"is_disabled":false,"rental_uris":{"android":"levelo://app?vid=0c9f491e-2c2e-4a66-985f-4b2dd1fa46b1","ios":"levelo://app?vid=0c9f491e-2c2e-4a66-985f-4b2dd1fa46b1"},"vehicle_type_id":"4","last_reported":1739535434,"current_range_meters":38800,"station_id":"ce4bguh2rcd13ifvqcj0","pricing_plan_id":"cebpf4jnsgd1na2vs0mg"},{"bike_id":"f7722aa8-7dbb-40b4-8785-faf5a2e7b631","system_id":"levelo_inurba_marseille","lat":43.24997,"lon":5.38934,"is_reserved":false,"is_disabled":false,"rental_uris":{"android":"levelo://app?vid=f7722aa8-7dbb-40b4-8785-faf5a2e7b631","ios":"levelo://app?vid=f7722aa8-7dbb-40b4-8785-faf5a2e7b631"},"vehicle_type_id":"4","last_reported":1739535434,"current_range_meters":38800,"station_id":"ce4bhgp2rcd13ifvqfd0","pricing_plan_id":"cebpf4jnsgd1na2vs0mg"},{"bike_id":"46feb551-4b30-4151-808a-af06a0cc6e11","system_id":"levelo_inurba_marseille","lat":43.29035,"lon":5.3811,"is_reserved":false,"is_disabled":false,"rental_uris":{"android":"levelo://app?vid=46feb551-4b30-4151-808a-af06a0cc6e11","ios":"levelo://app?vid=46feb551-4b30-4151-808a-af06a0cc6e11"},"vehicle_type_id":"4","last_reported":1739535434,"current_range_meters":38800,"station_id":"ce4bh4p2rcd13ifvqe1g","pricing_plan_id":"cebpf4jnsgd1na2vs0mg"},{"bike_id":"ec496d4a-c31a-4f2c-947b-b17f6dc6b31a","system_id":"levelo_inurba_marseille","lat":43.24991,"lon":5.38956,"is_reserved":false,"is_disabled":false,"rental_uris":{"android":"levelo://app?vid=ec496d4a-c31a-4f2c-947b-b17f6dc6b31a","ios":"levelo://app?vid=ec496d4a-c31a-4f2c-947b-b17f6dc6b31a"},"vehicle_type_id":"4","last_reported":1739535434,"current_range_meters":38800,"station_id":"ce4bhgp2rcd13ifvqfd0","pricing_plan_id":"cebpf4jnsgd1na2vs0mg"},{"bike_id":"6fca0150-25d1-4efa-845f-3c63f11d5320","system_id":"levelo_inurba_marseille","lat":43.30563,"lon":5.36693,"is_reserved":false,"is_disabled":false,"rental_uris":{"android":"levelo://app?vid=6fca0150-25d1-4efa-845f-3c63f11d5320","ios":"levelo://app?vid=6fca0150-25d1-4efa-845f-3c63f11d5320"},"vehicle_type_id":"4","last_reported":1739535434,"current_range_meters":27600,"station_id":"ce4bgrp2rcd13ifvqc9g","pricing_plan_id":"cebpf4jnsgd1na2vs0mg"},{"bike_id":"bc2c6d0b-979c-4d49-90de-d1948830f44b","system_id":"levelo_inurba_marseille","lat":43.26804,"lon":5.39479,"is_reserved":false,"is_disabled":false,"rental_uris":{"android":"levelo://app?vid=bc2c6d0b-979c-4d49-90de-d1948830f44b","ios":"levelo://app?vid=bc2c6d0b-979c-4d49-90de-d1948830f44b"},"vehicle_type_id":"4","last_reported":1739535434,"current_range_meters":21600,"station_id":"","pricing_plan_id":"cebpf4jnsgd1na2vs0mg"},{"bike_id":"f09d03d3-ae08-4e55-8424-9a3389b01a14","system_id":"levelo_inurba_marseille","lat":43.336042,"lon":5.410262,"is_reserved":false,"is_disabled":false,"rental_uris":{"android":"levelo://app?vid=f09d03d3-ae08-4e55-8424-9a3389b01a14","ios":"levelo://app?vid=f09d03d3-ae08-4e55-8424-9a3389b01a14"},"vehicle_type_id":"4","last_reported":1739535434,"current_range_meters":32800,"station_id":"ce4bhqh2rcd13ifvqhmg","pricing_plan_id":"cebpf4jnsgd1na2vs0mg"},{"bike_id":"23849fcd-4bc4-44f6-8337-e9a9a16fe0e7","system_id":"levelo_inurba_marseille","lat":43.29759,"lon":5.47959,"is_reserved":false,"is_disabled":false,"rental_uris":{"android":"levelo://app?vid=23849fcd-4bc4-44f6-8337-e9a9a16fe0e7","ios":"levelo://app?vid=23849fcd-4bc4-44f6-8337-e9a9a16fe0e7"},"vehicle_type_id":"4","last_reported":1739535434,"current_range_meters":3600,"station_id":"","pricing_plan_id":"cebpf4jnsgd1na2vs0mg"},{"bike_id":"b9cf6ea9-95ee-46f8-b845-52cb5a2eb86a","system_id":"levelo_inurba_marseille","lat":43.30516,"lon":5.37846,"is_reserved":false,"is_disabled":false,"rental_uris":{"android":"levelo://app?vid=b9cf6ea9-95ee-46f8-b845-52cb5a2eb86a","ios":"levelo://app?vid=b9cf6ea9-95ee-46f8-b845-52cb5a2eb86a"},"vehicle_type_id":"4","last_reported":1739535434,"current_range_meters":33200,"station_id":"","pricing_plan_id":"cebpf4jnsgd1na2vs0mg"},{"bike_id":"d67c062d-c410-427d-8753-8e02fa76aa8f","system_id":"levelo_inurba_marseille","lat":43.30496,"lon":5.39769,"is_reserved":false,"is_disabled":false,"rental_uris":{"android":"levelo://app?vid=d67c062d-c410-427d-8753-8e02fa76aa8f","ios":"levelo://app?vid=d67c062d-c410-427d-8753-8e02fa76aa8f"},"vehicle_type_id":"4","last_reported":1739535434,"current_range_meters":7200,"station_id":"ce4bh092rcd13ifvqd20","pricing_plan_id":"cebpf4jnsgd1na2vs0mg"},{"bike_id":"1924fab5-7997-4537-9de9-833227a9f744","system_id":"levelo_inurba_marseille","lat":43.29175,"lon":5.37737,"is_reserved":false,"is_disabled":false,"rental_uris":{"android":"levelo://app?vid=1924fab5-7997-4537-9de9-833227a9f744","ios":"levelo://app?vid=1924fab5-7997-4537-9de9-833227a9f744"},"vehicle_type_id":"4","last_reported":1739535434,"current_range_meters":28400,"station_id":"","pricing_plan_id":"cebpf4jnsgd1na2vs0mg"},{"bike_id":"d1b7e7c3-d876-4585-aa93-a701646b8c19","system_id":"levelo_inurba_marseille","lat":43.23187,"lon":5.39983,"is_reserved":false,"is_disabled":false,"rental_uris":{"android":"levelo://app?vid=d1b7e7c3-d876-4585-aa93-a701646b8c19","ios":"levelo://app?vid=d1b7e7c3-d876-4585-aa93-a701646b8c19"},"vehicle_type_id":"4","last_reported":1739535434,"current_range_meters":33600,"station_id":"ce4bhn12rcd13ifvqgqg","pricing_plan_id":"cebpf4jnsgd1na2vs0mg"},{"bike_id":"17dcf9e7-ab23-4799-a0b4-0a47648783be","system_id":"levelo_inurba_marseille","lat":43.30159,"lon":5.38091,"is_reserved":false,"is_disabled":false,"rental_uris":{"android":"levelo://app?vid=17dcf9e7-ab23-4799-a0b4-0a47648783be","ios":"levelo://app?vid=17dcf9e7-ab23-4799-a0b4-0a47648783be"},"vehicle_type_id":"4","last_reported":1739535434,"current_range_meters":37600,"station_id":"ce4bgjp2rcd13ifvqbh0","pricing_plan_id":"cebpf4jnsgd1na2vs0mg"},{"bike_id":"f4819c25-3e00-41ce-8105-106f04d74119","system_id":"levelo_inurba_marseille","lat":43.25586,"lon":5.38229,"is_reserved":false,"is_disabled":true,"rental_uris":{"android":"levelo://app?vid=f4819c25-3e00-41ce-8105-106f04d74119","ios":"levelo://app?vid=f4819c25-3e00-41ce-8105-106f04d74119"},"vehicle_type_id":"4","last_reported":1739535434,"current_range_meters":0,"station_id":"ce4bhih2rcd13ifvqfs0","pricing_plan_id":"cebpf4jnsgd1na2vs0mg"},{"bike_id":"0654ea6f-23d6-45e7-95d1-9acdb05bffd0","system_id":"levelo_inurba_marseille","lat":43.27428,"lon":5.39413,"is_reserved":false,"is_disabled":false,"rental_uris":{"android":"levelo://app?vid=0654ea6f-23d6-45e7-95d1-9acdb05bffd0","ios":"levelo://app?vid=0654ea6f-23d6-45e7-95d1-9acdb05bffd0"},"vehicle_type_id":"4","last_reported":1739535434,"current_range_meters":37600,"station_id":"ce4bhdp2rcd13ifvqf20","pricing_plan_id":"cebpf4jnsgd1na2vs0mg"},{"bike_id":"9e14a459-ea3f-4c8d-b681-ddd390ee11dc","system_id":"levelo_inurba_marseille","lat":43.30159,"lon":5.38068,"is_reserved":false,"is_disabled":false,"rental_uris":{"android":"levelo://app?vid=9e14a459-ea3f-4c8d-b681-ddd390ee11dc","ios":"levelo://app?vid=9e14a459-ea3f-4c8d-b681-ddd390ee11dc"},"vehicle_type_id":"4","last_reported":1739535434,"current_range_meters":22800,"station_id":"ce4bgjp2rcd13ifvqbh0","pricing_plan_id":"cebpf4jnsgd1na2vs0mg"},{"bike_id":"beac9c86-7f89-477f-a427-59318137cfc6","system_id":"levelo_inurba_marseille","lat":43.27205,"lon":5.39184,"is_reserved":false,"is_disabled":false,"rental_uris":{"android":"levelo://app?vid=beac9c86-7f89-477f-a427-59318137cfc6","ios":"levelo://app?vid=beac9c86-7f89-477f-a427-59318137cfc6"},"vehicle_type_id":"4","last_reported":1739535434,"current_range_meters":12800,"station_id":"ce4bhhp2rcd13ifvqfm0","pricing_plan_id":"cebpf4jnsgd1na2vs0mg"},{"bike_id":"6c46d406-85f4-4985-b248-2179f4f183f8","system_id":"levelo_inurba_marseille","lat":43.33784,"lon":5.37436,"is_reserved":false,"is_disabled":false,"rental_uris":{"android":"levelo://app?vid=6c46d406-85f4-4985-b248-2179f4f183f8","ios":"levelo://app?vid=6c46d406-85f4-4985-b248-2179f4f183f8"},"vehicle_type_id":"4","last_reported":1739535434,"current_range_meters":38800,"station_id":"","pricing_plan_id":"cebpf4jnsgd1na2vs0mg"},{"bike_id":"722c03d4-5f09-4a1d-bb2e-829c66405a32","system_id":"levelo_inurba_marseille","lat":43.27926,"lon":5.39575,"is_reserved":false,"is_disabled":true,"rental_uris":{"android":"levelo://app?vid=722c03d4-5f09-4a1d-bb2e-829c66405a32","ios":"levelo://app?vid=722c03d4-5f09-4a1d-bb2e-829c66405a32"},"vehicle_type_id":"4","last_reported":1739535434,"current_range_meters":36800,"station_id":"ce4bhf92rcd13ifvqf40","pricing_plan_id":"cebpf4jnsgd1na2vs0mg"},{"bike_id":"7f734ab2-b15e-4f24-b454-759a7869849d","system_id":"levelo_inurba_marseille","lat":43.30888,"lon":5.37192,"is_reserved":false,"is_disabled":false,"rental_uris":{"android":"levelo://app?vid=7f734ab2-b15e-4f24-b454-759a7869849d","ios":"levelo://app?vid=7f734ab2-b15e-4f24-b454-759a7869849d"},"vehicle_type_id":"4","last_reported":1739535434,"current_range_meters":38800,"station_id":"ce4bguh2rcd13ifvqckg","pricing_plan_id":"cebpf4jnsgd1na2vs0mg"},{"bike_id":"ace34ffd-44df-41f7-90a6-92039b1ec78a","system_id":"levelo_inurba_marseille","lat":43.27683,"lon":5.38885,"is_reserved":false,"is_disabled":false,"rental_uris":{"android":"levelo://app?vid=ace34ffd-44df-41f7-90a6-92039b1ec78a","ios":"levelo://app?vid=ace34ffd-44df-41f7-90a6-92039b1ec78a"},"vehicle_type_id":"4","last_reported":1739535434,"current_range_meters":38800,"station_id":"ce4bhi12rcd13ifvqfo0","pricing_plan_id":"cebpf4jnsgd1na2vs0mg"},{"bike_id":"d904dc3f-aa78-43c3-b7c4-53703520b1fa","system_id":"levelo_inurba_marseille","lat":43.27947,"lon":5.41044,"is_reserved":false,"is_disabled":false,"rental_uris":{"android":"levelo://app?vid=d904dc3f-aa78-43c3-b7c4-53703520b1fa","ios":"levelo://app?vid=d904dc3f-aa78-43c3-b7c4-53703520b1fa"},"vehicle_type_id":"4","last_reported":1739535434,"current_range_meters":37600,"station_id":"ce4bhnp2rcd13ifvqh0g","pricing_plan_id":"cebpf4jnsgd1na2vs0mg"},{"bike_id":"9192f7da-07ce-4941-97f7-270efa9071fe","system_id":"levelo_inurba_marseille","lat":43.25594,"lon":5.38243,"is_reserved":false,"is_disabled":false,"rental_uris":{"android":"levelo://app?vid=9192f7da-07ce-4941-97f7-270efa9071fe","ios":"levelo://app?vid=9192f7da-07ce-4941-97f7-270efa9071fe"},"vehicle_type_id":"4","last_reported":1739535434,"current_range_meters":14400,"station_id":"ce4bhih2rcd13ifvqfs0","pricing_plan_id":"cebpf4jnsgd1na2vs0mg"},{"bike_id":"5016e875-414a-41bd-8f00-6a5845e39ba6","system_id":"levelo_inurba_marseille","lat":43.30803,"lon":5.4352,"is_reserved":false,"is_disabled":false,"rental_uris":{"android":"levelo://app?vid=5016e875-414a-41bd-8f00-6a5845e39ba6","ios":"levelo://app?vid=5016e875-414a-41bd-8f00-6a5845e39ba6"},"vehicle_type_id":"4","last_reported":1739535434,"current_range_meters":34800,"station_id":"ce4bhph2rcd13ifvqheg","pricing_plan_id":"cebpf4jnsgd1na2vs0mg"},{"bike_id":"4e9c2eda-8f2a-4c63-93ad-0565717dc6be","system_id":"levelo_inurba_marseille","lat":43.2419,"lon":5.39704,"is_reserved":false,"is_disabled":false,"rental_uris":{"android":"levelo://app?vid=4e9c2eda-8f2a-4c63-93ad-0565717dc6be","ios":"levelo://app?vid=4e9c2eda-8f2a-4c63-93ad-0565717dc6be"},"vehicle_type_id":"4","last_reported":1739535434,"current_range_meters":29600,"station_id":"ce4bhn12rcd13ifvqgpg","pricing_plan_id":"cebpf4jnsgd1na2vs0mg"},{"bike_id":"ff8749b7-0eea-4328-bc71-3e358c410784","system_id":"levelo_inurba_marseille","lat":43.30143,"lon":5.38772,"is_reserved":false,"is_disabled":false,"rental_uris":{"android":"levelo://app?vid=ff8749b7-0eea-4328-bc71-3e358c410784","ios":"levelo://app?vid=ff8749b7-0eea-4328-bc71-3e358c410784"},"vehicle_type_id":"4","last_reported":1739535434,"current_range_meters":37600,"station_id":"ce4bhoh2rcd13ifvqh6g","pricing_plan_id":"cebpf4jnsgd1na2vs0mg"},{"bike_id":"db4f80bb-9106-4b57-9781-23c16951baf1","system_id":"levelo_inurba_marseille","lat":43.31066,"lon":5.38354,"is_reserved":false,"is_disabled":true,"rental_uris":{"android":"levelo://app?vid=db4f80bb-9106-4b57-9781-23c16951baf1","ios":"levelo://app?vid=db4f80bb-9106-4b57-9781-23c16951baf1"},"vehicle_type_id":"4","last_reported":1739535434,"current_range_meters":800,"station_id":"ce4bgv92rcd13ifvqcr0","pricing_plan_id":"cebpf4jnsgd1na2vs0mg"},{"bike_id":"78b3b244-f24d-4543-a87d-c62470b1c8d7","system_id":"levelo_inurba_marseille","lat":43.23967,"lon":5.36622,"is_reserved":false,"is_disabled":false,"rental_uris":{"android":"levelo://app?vid=78b3b244-f24d-4543-a87d-c62470b1c8d7","ios":"levelo://app?vid=78b3b244-f24d-4543-a87d-c62470b1c8d7"},"vehicle_type_id":"4","last_reported":1739535434,"current_range_meters":18000,"station_id":"ce4bhi12rcd13ifvqfp0","pricing_plan_id":"cebpf4jnsgd1na2vs0mg"},{"bike_id":"1df839a8-bbf3-48a5-aa8b-c302eb7b048e","system_id":"levelo_inurba_marseille","lat":43.26499,"lon":5.39534,"is_reserved":false,"is_disabled":false,"rental_uris":{"android":"levelo://app?vid=1df839a8-bbf3-48a5-aa8b-c302eb7b048e","ios":"levelo://app?vid=1df839a8-bbf3-48a5-aa8b-c302eb7b048e"},"vehicle_type_id":"4","last_reported":1739535434,"current_range_meters":30800,"station_id":"ce4bhi12rcd13ifvqfq0","pricing_plan_id":"cebpf4jnsgd1na2vs0mg"},{"bike_id":"deea5289-b933-4f90-92c0-641face5c8ba","system_id":"levelo_inurba_marseille","lat":43.28417,"lon":5.3752,"is_reserved":false,"is_disabled":false,"rental_uris":{"android":"levelo://app?vid=deea5289-b933-4f90-92c0-641face5c8ba","ios":"levelo://app?vid=deea5289-b933-4f90-92c0-641face5c8ba"},"vehicle_type_id":"4","last_reported":1739535434,"current_range_meters":16000,"station_id":"ce4bh412rcd13ifvqds0","pricing_plan_id":"cebpf4jnsgd1na2vs0mg"},{"bike_id":"bd1fbd17-5ecd-4c2a-9290-d1ffd1a70214","system_id":"levelo_inurba_marseille","lat":43.2956,"lon":5.4227,"is_reserved":false,"is_disabled":false,"rental_uris":{"android":"levelo://app?vid=bd1fbd17-5ecd-4c2a-9290-d1ffd1a70214","ios":"levelo://app?vid=bd1fbd17-5ecd-4c2a-9290-d1ffd1a70214"},"vehicle_type_id":"4","last_reported":1739535434,"current_range_meters":37600,"station_id":"ce4bhph2rcd13ifvqhdg","pricing_plan_id":"cebpf4jnsgd1na2vs0mg"},{"bike_id":"492e558b-0ce5-4984-b6b1-1d33f225a96b","system_id":"levelo_inurba_marseille","lat":43.24172,"lon":5.36398,"is_reserved":false,"is_disabled":false,"rental_uris":{"android":"levelo://app?vid=492e558b-0ce5-4984-b6b1-1d33f225a96b","ios":"levelo://app?vid=492e558b-0ce5-4984-b6b1-1d33f225a96b"},"vehicle_type_id":"4","last_reported":1739535434,"current_range_meters":37600,"station_id":"cpo36qri1sfpv3e86is0","pricing_plan_id":"cebpf4jnsgd1na2vs0mg"},{"bike_id":"8e7ffc47-222f-48a5-8360-69fa1d6df853","system_id":"levelo_inurba_marseille","lat":43.27056,"lon":5.40256,"is_reserved":false,"is_disabled":false,"rental_uris":{"android":"levelo://app?vid=8e7ffc47-222f-48a5-8360-69fa1d6df853","ios":"levelo://app?vid=8e7ffc47-222f-48a5-8360-69fa1d6df853"},"vehicle_type_id":"4","last_reported":1739535434,"current_range_meters":6400,"station_id":"ce4bhk92rcd13ifvqgc0","pricing_plan_id":"cebpf4jnsgd1na2vs0mg"},{"bike_id":"0133997a-574a-4e2f-8442-4260912e9cbb","system_id":"levelo_inurba_marseille","lat":43.29689,"lon":5.373,"is_reserved":false,"is_disabled":false,"rental_uris":{"android":"levelo://app?vid=0133997a-574a-4e2f-8442-4260912e9cbb","ios":"levelo://app?vid=0133997a-574a-4e2f-8442-4260912e9cbb"},"vehicle_type_id":"4","last_reported":1739535434,"current_range_meters":38000,"station_id":"ce4bgk12rcd13ifvqbj0","pricing_plan_id":"cebpf4jnsgd1na2vs0mg"},{"bike_id":"53e65d51-dfc7-47c2-8757-53654bf6fbf2","system_id":"levelo_inurba_marseille","lat":43.29579,"lon":5.3749,"is_reserved":false,"is_disabled":false,"rental_uris":{"android":"levelo://app?vid=53e65d51-dfc7-47c2-8757-53654bf6fbf2","ios":"levelo://app?vid=53e65d51-dfc7-47c2-8757-53654bf6fbf2"},"vehicle_type_id":"4","last_reported":1739535434,"current_range_meters":34800,"station_id":"ce4bgh92rcd13ifvqb50","pricing_plan_id":"cebpf4jnsgd1na2vs0mg"},{"bike_id":"17359da5-754b-4c1f-9974-59fc1ea40a51","system_id":"levelo_inurba_marseille","lat":43.30455,"lon":5.37915,"is_reserved":false,"is_disabled":false,"rental_uris":{"android":"levelo://app?vid=17359da5-754b-4c1f-9974-59fc1ea40a51","ios":"levelo://app?vid=17359da5-754b-4c1f-9974-59fc1ea40a51"},"vehicle_type_id":"4","last_reported":1739535434,"current_range_meters":36800,"station_id":"ce4bgup2rcd13ifvqcn0","pricing_plan_id":"cebpf4jnsgd1na2vs0mg"},{"bike_id":"1637a0cf-bf29-4186-90ff-2a16e918aeaf","system_id":"levelo_inurba_marseille","lat":43.29237,"lon":5.40896,"is_reserved":false,"is_disabled":false,"rental_uris":{"android":"levelo://app?vid=1637a0cf-bf29-4186-90ff-2a16e918aeaf","ios":"levelo://app?vid=1637a0cf-bf29-4186-90ff-2a16e918aeaf"},"vehicle_type_id":"4","last_reported":1739535434,"current_range_meters":18000,"station_id":"ce4bh192rcd13ifvqdc0","pricing_plan_id":"cebpf4jnsgd1na2vs0mg"},{"bike_id":"3e364230-e791-4719-a976-7d1bf64b79a1","system_id":"levelo_inurba_marseille","lat":43.31281,"lon":5.36847,"is_reserved":false,"is_disabled":false,"rental_uris":{"android":"levelo://app?vid=3e364230-e791-4719-a976-7d1bf64b79a1","ios":"levelo://app?vid=3e364230-e791-4719-a976-7d1bf64b79a1"},"vehicle_type_id":"4","last_reported":1739535434,"current_range_meters":39200,"station_id":"ce4bgl92rcd13ifvqbq0","pricing_plan_id":"cebpf4jnsgd1na2vs0mg"},{"bike_id":"ff489825-db76-49d3-aa98-c1c0aaa6bdad","system_id":"levelo_inurba_marseille","lat":43.2923,"lon":5.36674,"is_reserved":false,"is_disabled":false,"rental_uris":{"android":"levelo://app?vid=ff489825-db76-49d3-aa98-c1c0aaa6bdad","ios":"levelo://app?vid=ff489825-db76-49d3-aa98-c1c0aaa6bdad"},"vehicle_type_id":"4","last_reported":1739535434,"current_range_meters":6800,"station_id":"","pricing_plan_id":"cebpf4jnsgd1na2vs0mg"},{"bike_id":"fe0203ab-42ae-4443-9dba-87696cc5868f","system_id":"levelo_inurba_marseille","lat":43.27821,"lon":5.40709,"is_reserved":false,"is_disabled":false,"rental_uris":{"android":"levelo://app?vid=fe0203ab-42ae-4443-9dba-87696cc5868f","ios":"levelo://app?vid=fe0203ab-42ae-4443-9dba-87696cc5868f"},"vehicle_type_id":"4","last_reported":1739535434,"current_range_meters":14000,"station_id":"ce4bhnh2rcd13ifvqgtg","pricing_plan_id":"cebpf4jnsgd1na2vs0mg"},{"bike_id":"a9c4c552-d309-4413-a6ab-3e36d19516cd","system_id":"levelo_inurba_marseille","lat":43.29919,"lon":5.37478,"is_reserved":false,"is_disabled":false,"rental_uris":{"android":"levelo://app?vid=a9c4c552-d309-4413-a6ab-3e36d19516cd","ios":"levelo://app?vid=a9c4c552-d309-4413-a6ab-3e36d19516cd"},"vehicle_type_id":"4","last_reported":1739535434,"current_range_meters":17200,"station_id":"ce4bgjh2rcd13ifvqbg0","pricing_plan_id":"cebpf4jnsgd1na2vs0mg"},{"bike_id":"bb45e6ab-956b-45d2-9cff-3b77ddfcb704","system_id":"levelo_inurba_marseille","lat":43.28275,"lon":5.35063,"is_reserved":false,"is_disabled":false,"rental_uris":{"android":"levelo://app?vid=bb45e6ab-956b-45d2-9cff-3b77ddfcb704","ios":"levelo://app?vid=bb45e6ab-956b-45d2-9cff-3b77ddfcb704"},"vehicle_type_id":"4","last_reported":1739535434,"current_range_meters":23200,"station_id":"ce4bhbp2rcd13ifvqerg","pricing_plan_id":"cebpf4jnsgd1na2vs0mg"},{"bike_id":"1f20f252-6887-45f2-9881-8e93e6f221d0","system_id":"levelo_inurba_marseille","lat":43.2622,"lon":5.37893,"is_reserved":false,"is_disabled":false,"rental_uris":{"android":"levelo://app?vid=1f20f252-6887-45f2-9881-8e93e6f221d0","ios":"levelo://app?vid=1f20f252-6887-45f2-9881-8e93e6f221d0"},"vehicle_type_id":"4","last_reported":1739535434,"current_range_meters":38800,"station_id":"ce4bhjp2rcd13ifvqg90","pricing_plan_id":"cebpf4jnsgd1na2vs0mg"},{"bike_id":"9da2d165-9b8e-41b8-936f-42602fd4f180","system_id":"levelo_inurba_marseille","lat":43.28431,"lon":5.37516,"is_reserved":false,"is_disabled":false,"rental_uris":{"android":"levelo://app?vid=9da2d165-9b8e-41b8-936f-42602fd4f180","ios":"levelo://app?vid=9da2d165-9b8e-41b8-936f-42602fd4f180"},"vehicle_type_id":"4","last_reported":1739535434,"current_range_meters":36400,"station_id":"ce4bh412rcd13ifvqds0","pricing_plan_id":"cebpf4jnsgd1na2vs0mg"},{"bike_id":"64827720-c2e5-4d81-bfed-1c4da7e9a69c","system_id":"levelo_inurba_marseille","lat":43.26504,"lon":5.39532,"is_reserved":false,"is_disabled":false,"rental_uris":{"android":"levelo://app?vid=64827720-c2e5-4d81-bfed-1c4da7e9a69c","ios":"levelo://app?vid=64827720-c2e5-4d81-bfed-1c4da7e9a69c"},"vehicle_type_id":"4","last_reported":1739535434,"current_range_meters":19200,"station_id":"ce4bhi12rcd13ifvqfq0","pricing_plan_id":"cebpf4jnsgd1na2vs0mg"},{"bike_id":"cf894fc9-8e0d-476a-b719-a8f58d9b9df5","system_id":"levelo_inurba_marseille","lat":43.2885,"lon":5.358023,"is_reserved":false,"is_disabled":false,"rental_uris":{"android":"levelo://app?vid=cf894fc9-8e0d-476a-b719-a8f58d9b9df5","ios":"levelo://app?vid=cf894fc9-8e0d-476a-b719-a8f58d9b9df5"},"vehicle_type_id":"4","last_reported":1739535434,"current_range_meters":16400,"station_id":"ce4bhb12rcd13ifvqem0","pricing_plan_id":"cebpf4jnsgd1na2vs0mg"},{"bike_id":"4dbc26c6-2a15-45e7-b1cd-4e0586d88b2f","system_id":"levelo_inurba_marseille","lat":43.27374,"lon":5.36251,"is_reserved":false,"is_disabled":false,"rental_uris":{"android":"levelo://app?vid=4dbc26c6-2a15-45e7-b1cd-4e0586d88b2f","ios":"levelo://app?vid=4dbc26c6-2a15-45e7-b1cd-4e0586d88b2f"},"vehicle_type_id":"4","last_reported":1739535434,"current_range_meters":38000,"station_id":"ce4bhbh2rcd13ifvqeo0","pricing_plan_id":"cebpf4jnsgd1na2vs0mg"},{"bike_id":"6d5a124a-5ef9-4ef5-9f28-d40c1219dcc1","system_id":"levelo_inurba_marseille","lat":43.32375,"lon":5.38917,"is_reserved":false,"is_disabled":false,"rental_uris":{"android":"levelo://app?vid=6d5a124a-5ef9-4ef5-9f28-d40c1219dcc1","ios":"levelo://app?vid=6d5a124a-5ef9-4ef5-9f28-d40c1219dcc1"},"vehicle_type_id":"4","last_reported":1739535434,"current_range_meters":14800,"station_id":"ce4bhqp2rcd13ifvqhog","pricing_plan_id":"cebpf4jnsgd1na2vs0mg"},{"bike_id":"5ebb3644-b72f-48c0-830d-4aed4bab0b8b","system_id":"levelo_inurba_marseille","lat":43.27921,"lon":5.39582,"is_reserved":false,"is_disabled":false,"rental_uris":{"android":"levelo://app?vid=5ebb3644-b72f-48c0-830d-4aed4bab0b8b","ios":"levelo://app?vid=5ebb3644-b72f-48c0-830d-4aed4bab0b8b"},"vehicle_type_id":"4","last_reported":1739535434,"current_range_meters":37600,"station_id":"ce4bhf92rcd13ifvqf40","pricing_plan_id":"cebpf4jnsgd1na2vs0mg"},{"bike_id":"c5d833da-7f3d-4020-8720-afd26d9540ed","system_id":"levelo_inurba_marseille","lat":43.28172,"lon":5.42631,"is_reserved":false,"is_disabled":false,"rental_uris":{"android":"levelo://app?vid=c5d833da-7f3d-4020-8720-afd26d9540ed","ios":"levelo://app?vid=c5d833da-7f3d-4020-8720-afd26d9540ed"},"vehicle_type_id":"4","last_reported":1739535434,"current_range_meters":36400,"station_id":"ce4bhnh2rcd13ifvqgug","pricing_plan_id":"cebpf4jnsgd1na2vs0mg"},{"bike_id":"6fc7235b-f0a6-4bf5-aed0-5b9b2d472961","system_id":"levelo_inurba_marseille","lat":43.30525,"lon":5.36712,"is_reserved":false,"is_disabled":false,"rental_uris":{"android":"levelo://app?vid=6fc7235b-f0a6-4bf5-aed0-5b9b2d472961","ios":"levelo://app?vid=6fc7235b-f0a6-4bf5-aed0-5b9b2d472961"},"vehicle_type_id":"4","last_reported":1739535434,"current_range_meters":37600,"station_id":"ce4bgrp2rcd13ifvqc9g","pricing_plan_id":"cebpf4jnsgd1na2vs0mg"},{"bike_id":"3baf6e6d-2d5c-47a6-8eb1-a8105b21e908","system_id":"levelo_inurba_marseille","lat":43.29007,"lon":5.35615,"is_reserved":false,"is_disabled":false,"rental_uris":{"android":"levelo://app?vid=3baf6e6d-2d5c-47a6-8eb1-a8105b21e908","ios":"levelo://app?vid=3baf6e6d-2d5c-47a6-8eb1-a8105b21e908"},"vehicle_type_id":"4","last_reported":1739535434,"current_range_meters":38000,"station_id":"ce4bhb92rcd13ifvqen0","pricing_plan_id":"cebpf4jnsgd1na2vs0mg"},{"bike_id":"5429a055-5c17-4863-ac08-ee7234bc7af8","system_id":"levelo_inurba_marseille","lat":43.32276,"lon":5.36852,"is_reserved":false,"is_disabled":false,"rental_uris":{"android":"levelo://app?vid=5429a055-5c17-4863-ac08-ee7234bc7af8","ios":"levelo://app?vid=5429a055-5c17-4863-ac08-ee7234bc7af8"},"vehicle_type_id":"4","last_reported":1739535434,"current_range_meters":36800,"station_id":"","pricing_plan_id":"cebpf4jnsgd1na2vs0mg"},{"bike_id":"1955166a-1167-4670-8c53-c50159104419","system_id":"levelo_inurba_marseille","lat":43.29602,"lon":5.38096,"is_reserved":false,"is_disabled":true,"rental_uris":{"android":"levelo://app?vid=1955166a-1167-4670-8c53-c50159104419","ios":"levelo://app?vid=1955166a-1167-4670-8c53-c50159104419"},"vehicle_type_id":"4","last_reported":1739535434,"current_range_meters":23200,"station_id":"ce4bgl12rcd13ifvqbo0","pricing_plan_id":"cebpf4jnsgd1na2vs0mg"},{"bike_id":"6c54bd98-99ce-4c61-b914-dd19c3edf238","system_id":"levelo_inurba_marseille","lat":43.24806,"lon":5.37456,"is_reserved":false,"is_disabled":false,"rental_uris":{"android":"levelo://app?vid=6c54bd98-99ce-4c61-b914-dd19c3edf238","ios":"levelo://app?vid=6c54bd98-99ce-4c61-b914-dd19c3edf238"},"vehicle_type_id":"4","last_reported":1739535434,"current_range_meters":34000,"station_id":"ce4bhgh2rcd13ifvqfb0","pricing_plan_id":"cebpf4jnsgd1na2vs0mg"},{"bike_id":"859c79c3-9c5b-47b3-94ad-94355d1f1457","system_id":"levelo_inurba_marseille","lat":43.24402,"lon":5.37035,"is_reserved":false,"is_disabled":false,"rental_uris":{"android":"levelo://app?vid=859c79c3-9c5b-47b3-94ad-94355d1f1457","ios":"levelo://app?vid=859c79c3-9c5b-47b3-94ad-94355d1f1457"},"vehicle_type_id":"4","last_reported":1739535434,"current_range_meters":12400,"station_id":"ce4bhhh2rcd13ifvqfk0","pricing_plan_id":"cebpf4jnsgd1na2vs0mg"},{"bike_id":"0728e810-84a1-48e3-b5c2-d043f3ff3b47","system_id":"levelo_inurba_marseille","lat":43.29292,"lon":5.37432,"is_reserved":false,"is_disabled":false,"rental_uris":{"android":"levelo://app?vid=0728e810-84a1-48e3-b5c2-d043f3ff3b47","ios":"levelo://app?vid=0728e810-84a1-48e3-b5c2-d043f3ff3b47"},"vehicle_type_id":"4","last_reported":1739535434,"current_range_meters":16000,"station_id":"ce4bgi12rcd13ifvqb70","pricing_plan_id":"cebpf4jnsgd1na2vs0mg"},{"bike_id":"529acbbc-5659-4bde-b077-52e59a7ff7ac","system_id":"levelo_inurba_marseille","lat":43.29852,"lon":5.36282,"is_reserved":false,"is_disabled":false,"rental_uris":{"android":"levelo://app?vid=529acbbc-5659-4bde-b077-52e59a7ff7ac","ios":"levelo://app?vid=529acbbc-5659-4bde-b077-52e59a7ff7ac"},"vehicle_type_id":"4","last_reported":1739535434,"current_range_meters":21600,"station_id":"ce4bgpp2rcd13ifvqc3g","pricing_plan_id":"cebpf4jnsgd1na2vs0mg"},{"bike_id":"c9b3dfe5-db4b-4f89-8848-36650c305632","system_id":"levelo_inurba_marseille","lat":43.309061,"lon":5.36851,"is_reserved":false,"is_disabled":false,"rental_uris":{"android":"levelo://app?vid=c9b3dfe5-db4b-4f89-8848-36650c305632","ios":"levelo://app?vid=c9b3dfe5-db4b-4f89-8848-36650c305632"},"vehicle_type_id":"4","last_reported":1739535434,"current_range_meters":24000,"station_id":"ce4bgn92rcd13ifvqbvg","pricing_plan_id":"cebpf4jnsgd1na2vs0mg"},{"bike_id":"b3daed02-743a-4d9a-8885-f36f20bf02ce","system_id":"levelo_inurba_marseille","lat":43.32654,"lon":5.40994,"is_reserved":false,"is_disabled":false,"rental_uris":{"android":"levelo://app?vid=b3daed02-743a-4d9a-8885-f36f20bf02ce","ios":"levelo://app?vid=b3daed02-743a-4d9a-8885-f36f20bf02ce"},"vehicle_type_id":"4","last_reported":1739535434,"current_range_meters":38800,"station_id":"ce4bhpp2rcd13ifvqhgg","pricing_plan_id":"cebpf4jnsgd1na2vs0mg"},{"bike_id":"330013d8-fa3c-4b4a-9e46-2409fd62687c","system_id":"levelo_inurba_marseille","lat":43.28364,"lon":5.38088,"is_reserved":false,"is_disabled":false,"rental_uris":{"android":"levelo://app?vid=330013d8-fa3c-4b4a-9e46-2409fd62687c","ios":"levelo://app?vid=330013d8-fa3c-4b4a-9e46-2409fd62687c"},"vehicle_type_id":"4","last_reported":1739535434,"current_range_meters":16000,"station_id":"ce4bh412rcd13ifvqdr0","pricing_plan_id":"cebpf4jnsgd1na2vs0mg"},{"bike_id":"fd20bddc-d49d-41f9-a9c1-d3d9b04f7a45","system_id":"levelo_inurba_marseille","lat":43.31277,"lon":5.36871,"is_reserved":false,"is_disabled":false,"rental_uris":{"android":"levelo://app?vid=fd20bddc-d49d-41f9-a9c1-d3d9b04f7a45","ios":"levelo://app?vid=fd20bddc-d49d-41f9-a9c1-d3d9b04f7a45"},"vehicle_type_id":"4","last_reported":1739535434,"current_range_meters":36800,"station_id":"ce4bgl92rcd13ifvqbq0","pricing_plan_id":"cebpf4jnsgd1na2vs0mg"},{"bike_id":"597695db-34cf-4af3-af18-42027af8bca3","system_id":"levelo_inurba_marseille","lat":43.29027,"lon":5.35886,"is_reserved":false,"is_disabled":false,"rental_uris":{"android":"levelo://app?vid=597695db-34cf-4af3-af18-42027af8bca3","ios":"levelo://app?vid=597695db-34cf-4af3-af18-42027af8bca3"},"vehicle_type_id":"4","last_reported":1739535434,"current_range_meters":36400,"station_id":"ce4bha92rcd13ifvqeg0","pricing_plan_id":"cebpf4jnsgd1na2vs0mg"},{"bike_id":"c9339ed0-8cd9-4eef-ae5e-83b05e5e27a1","system_id":"levelo_inurba_marseille","lat":43.29033,"lon":5.39971,"is_reserved":false,"is_disabled":false,"rental_uris":{"android":"levelo://app?vid=c9339ed0-8cd9-4eef-ae5e-83b05e5e27a1","ios":"levelo://app?vid=c9339ed0-8cd9-4eef-ae5e-83b05e5e27a1"},"vehicle_type_id":"4","last_reported":1739535434,"current_range_meters":7200,"station_id":"ce4bh392rcd13ifvqdm0","pricing_plan_id":"cebpf4jnsgd1na2vs0mg"},{"bike_id":"9fe907ee-be20-4d9f-97d2-4d173f819e3b","system_id":"levelo_inurba_marseille","lat":43.29645,"lon":5.3714,"is_reserved":false,"is_disabled":false,"rental_uris":{"android":"levelo://app?vid=9fe907ee-be20-4d9f-97d2-4d173f819e3b","ios":"levelo://app?vid=9fe907ee-be20-4d9f-97d2-4d173f819e3b"},"vehicle_type_id":"4","last_reported":1739535434,"current_range_meters":8000,"station_id":"ce4bgnh2rcd13ifvqc0g","pricing_plan_id":"cebpf4jnsgd1na2vs0mg"},{"bike_id":"d6f38d8d-bb5a-4b27-b5d4-6029f0946ece","system_id":"levelo_inurba_marseille","lat":43.27485,"lon":5.4353,"is_reserved":false,"is_disabled":false,"rental_uris":{"android":"levelo://app?vid=d6f38d8d-bb5a-4b27-b5d4-6029f0946ece","ios":"levelo://app?vid=d6f38d8d-bb5a-4b27-b5d4-6029f0946ece"},"vehicle_type_id":"4","last_reported":1739535434,"current_range_meters":8800,"station_id":"","pricing_plan_id":"cebpf4jnsgd1na2vs0mg"},{"bike_id":"a41f36b2-e522-470c-a22a-3577e787edc5","system_id":"levelo_inurba_marseille","lat":43.27182,"lon":5.4099,"is_reserved":false,"is_disabled":false,"rental_uris":{"android":"levelo://app?vid=a41f36b2-e522-470c-a22a-3577e787edc5","ios":"levelo://app?vid=a41f36b2-e522-470c-a22a-3577e787edc5"},"vehicle_type_id":"4","last_reported":1739535434,"current_range_meters":18800,"station_id":"ce4bhl12rcd13ifvqgf0","pricing_plan_id":"cebpf4jnsgd1na2vs0mg"},{"bike_id":"eb74081f-8035-495f-a073-abb8444b5eb2","system_id":"levelo_inurba_marseille","lat":43.23959,"lon":5.366315,"is_reserved":false,"is_disabled":false,"rental_uris":{"android":"levelo://app?vid=eb74081f-8035-495f-a073-abb8444b5eb2","ios":"levelo://app?vid=eb74081f-8035-495f-a073-abb8444b5eb2"},"vehicle_type_id":"4","last_reported":1739535434,"current_range_meters":36400,"station_id":"ce4bhi12rcd13ifvqfp0","pricing_plan_id":"cebpf4jnsgd1na2vs0mg"},{"bike_id":"e103375e-2969-40df-823a-e17faf1e7759","system_id":"levelo_inurba_marseille","lat":43.29596,"lon":5.37511,"is_reserved":false,"is_disabled":false,"rental_uris":{"android":"levelo://app?vid=e103375e-2969-40df-823a-e17faf1e7759","ios":"levelo://app?vid=e103375e-2969-40df-823a-e17faf1e7759"},"vehicle_type_id":"4","last_reported":1739535434,"current_range_meters":38000,"station_id":"ce4bgh92rcd13ifvqb50","pricing_plan_id":"cebpf4jnsgd1na2vs0mg"},{"bike_id":"5ad1677f-f5e8-4698-a47b-b4212c972dbf","system_id":"levelo_inurba_marseille","lat":43.29977,"lon":5.37174,"is_reserved":false,"is_disabled":false,"rental_uris":{"android":"levelo://app?vid=5ad1677f-f5e8-4698-a47b-b4212c972dbf","ios":"levelo://app?vid=5ad1677f-f5e8-4698-a47b-b4212c972dbf"},"vehicle_type_id":"4","last_reported":1739535434,"current_range_meters":6400,"station_id":"ce4bgr92rcd13ifvqc7g","pricing_plan_id":"cebpf4jnsgd1na2vs0mg"},{"bike_id":"d55a9866-f32d-4ff7-8223-0b3fcd8e3341","system_id":"levelo_inurba_marseille","lat":43.32508,"lon":5.3656,"is_reserved":false,"is_disabled":false,"rental_uris":{"android":"levelo://app?vid=d55a9866-f32d-4ff7-8223-0b3fcd8e3341","ios":"levelo://app?vid=d55a9866-f32d-4ff7-8223-0b3fcd8e3341"},"vehicle_type_id":"4","last_reported":1739535434,"current_range_meters":30400,"station_id":"ce4bhs12rcd13ifvqhvg","pricing_plan_id":"cebpf4jnsgd1na2vs0mg"},{"bike_id":"5432c8b4-ca85-4cb1-ae85-3fed69e9666b","system_id":"levelo_inurba_marseille","lat":43.30456,"lon":5.37898,"is_reserved":false,"is_disabled":false,"rental_uris":{"android":"levelo://app?vid=5432c8b4-ca85-4cb1-ae85-3fed69e9666b","ios":"levelo://app?vid=5432c8b4-ca85-4cb1-ae85-3fed69e9666b"},"vehicle_type_id":"4","last_reported":1739535434,"current_range_meters":35600,"station_id":"ce4bgup2rcd13ifvqcn0","pricing_plan_id":"cebpf4jnsgd1na2vs0mg"},{"bike_id":"6e58a69c-2a4e-4c49-840d-6e728a603acb","system_id":"levelo_inurba_marseille","lat":43.23068,"lon":5.35495,"is_reserved":false,"is_disabled":false,"rental_uris":{"android":"levelo://app?vid=6e58a69c-2a4e-4c49-840d-6e728a603acb","ios":"levelo://app?vid=6e58a69c-2a4e-4c49-840d-6e728a603acb"},"vehicle_type_id":"4","last_reported":1739535434,"current_range_meters":36800,"station_id":"cpo3342slgdg3j2ifvpg","pricing_plan_id":"cebpf4jnsgd1na2vs0mg"},{"bike_id":"bac1ce9a-935c-4598-8f5d-5e5fde99cd5a","system_id":"levelo_inurba_marseille","lat":43.2512,"lon":5.4032,"is_reserved":false,"is_disabled":false,"rental_uris":{"android":"levelo://app?vid=bac1ce9a-935c-4598-8f5d-5e5fde99cd5a","ios":"levelo://app?vid=bac1ce9a-935c-4598-8f5d-5e5fde99cd5a"},"vehicle_type_id":"4","last_reported":1739535434,"current_range_meters":11600,"station_id":"ce4bhlh2rcd13ifvqgig","pricing_plan_id":"cebpf4jnsgd1na2vs0mg"},{"bike_id":"1fdab9eb-8902-4627-b735-852b19377c1f","system_id":"levelo_inurba_marseille","lat":43.23974,"lon":5.3663,"is_reserved":false,"is_disabled":false,"rental_uris":{"android":"levelo://app?vid=1fdab9eb-8902-4627-b735-852b19377c1f","ios":"levelo://app?vid=1fdab9eb-8902-4627-b735-852b19377c1f"},"vehicle_type_id":"4","last_reported":1739535434,"current_range_meters":16800,"station_id":"ce4bhi12rcd13ifvqfp0","pricing_plan_id":"cebpf4jnsgd1na2vs0mg"},{"bike_id":"91bfb347-9fc6-4b86-b29f-d7bdc6f3a798","system_id":"levelo_inurba_marseille","lat":43.266,"lon":5.39085,"is_reserved":false,"is_disabled":false,"rental_uris":{"android":"levelo://app?vid=91bfb347-9fc6-4b86-b29f-d7bdc6f3a798","ios":"levelo://app?vid=91bfb347-9fc6-4b86-b29f-d7bdc6f3a798"},"vehicle_type_id":"4","last_reported":1739535434,"current_range_meters":27600,"station_id":"ce4bhe12rcd13ifvqf30","pricing_plan_id":"cebpf4jnsgd1na2vs0mg"},{"bike_id":"099f4b0a-853f-4d9c-8de1-0710be40a762","system_id":"levelo_inurba_marseille","lat":43.29916,"lon":5.37473,"is_reserved":false,"is_disabled":false,"rental_uris":{"android":"levelo://app?vid=099f4b0a-853f-4d9c-8de1-0710be40a762","ios":"levelo://app?vid=099f4b0a-853f-4d9c-8de1-0710be40a762"},"vehicle_type_id":"4","last_reported":1739535434,"current_range_meters":30000,"station_id":"ce4bgjh2rcd13ifvqbg0","pricing_plan_id":"cebpf4jnsgd1na2vs0mg"},{"bike_id":"8afc87c0-1fce-4e30-bf68-d14746764f12","system_id":"levelo_inurba_marseille","lat":43.312251,"lon":5.368407,"is_reserved":false,"is_disabled":false,"rental_uris":{"android":"levelo://app?vid=8afc87c0-1fce-4e30-bf68-d14746764f12","ios":"levelo://app?vid=8afc87c0-1fce-4e30-bf68-d14746764f12"},"vehicle_type_id":"4","last_reported":1739535434,"current_range_meters":39200,"station_id":"ce4bgl92rcd13ifvqbq0","pricing_plan_id":"cebpf4jnsgd1na2vs0mg"},{"bike_id":"b9a26ac3-3594-4e9b-a997-8c63f7e9faaa","system_id":"levelo_inurba_marseille","lat":43.29048,"lon":5.37547,"is_reserved":false,"is_disabled":true,"rental_uris":{"android":"levelo://app?vid=b9a26ac3-3594-4e9b-a997-8c63f7e9faaa","ios":"levelo://app?vid=b9a26ac3-3594-4e9b-a997-8c63f7e9faaa"},"vehicle_type_id":"4","last_reported":1739535434,"current_range_meters":38800,"station_id":"ce4bh692rcd13ifvqe90","pricing_plan_id":"cebpf4jnsgd1na2vs0mg"},{"bike_id":"4450d397-c7c4-4c68-aed9-fa811598c082","system_id":"levelo_inurba_marseille","lat":43.325376,"lon":5.365064,"is_reserved":false,"is_disabled":false,"rental_uris":{"android":"levelo://app?vid=4450d397-c7c4-4c68-aed9-fa811598c082","ios":"levelo://app?vid=4450d397-c7c4-4c68-aed9-fa811598c082"},"vehicle_type_id":"4","last_reported":1739535434,"current_range_meters":30800,"station_id":"","pricing_plan_id":"cebpf4jnsgd1na2vs0mg"},{"bike_id":"0908035c-42bd-429d-a353-adfc8057e71f","system_id":"levelo_inurba_marseille","lat":43.29016,"lon":5.35612,"is_reserved":false,"is_disabled":false,"rental_uris":{"android":"levelo://app?vid=0908035c-42bd-429d-a353-adfc8057e71f","ios":"levelo://app?vid=0908035c-42bd-429d-a353-adfc8057e71f"},"vehicle_type_id":"4","last_reported":1739535434,"current_range_meters":36800,"station_id":"ce4bhb92rcd13ifvqen0","pricing_plan_id":"cebpf4jnsgd1na2vs0mg"},{"bike_id":"3ab01d35-3d3c-439a-a32b-4640897af889","system_id":"levelo_inurba_marseille","lat":43.2315,"lon":5.43722,"is_reserved":false,"is_disabled":false,"rental_uris":{"android":"levelo://app?vid=3ab01d35-3d3c-439a-a32b-4640897af889","ios":"levelo://app?vid=3ab01d35-3d3c-439a-a32b-4640897af889"},"vehicle_type_id":"4","last_reported":1739535434,"current_range_meters":38000,"station_id":"ce4bhmp2rcd13ifvqgog","pricing_plan_id":"cebpf4jnsgd1na2vs0mg"},{"bike_id":"67fb0345-8e61-456a-b864-f19dbba85e32","system_id":"levelo_inurba_marseille","lat":43.27823,"lon":5.40749,"is_reserved":false,"is_disabled":false,"rental_uris":{"android":"levelo://app?vid=67fb0345-8e61-456a-b864-f19dbba85e32","ios":"levelo://app?vid=67fb0345-8e61-456a-b864-f19dbba85e32"},"vehicle_type_id":"4","last_reported":1739535434,"current_range_meters":12800,"station_id":"ce4bhnh2rcd13ifvqgtg","pricing_plan_id":"cebpf4jnsgd1na2vs0mg"},{"bike_id":"6b656e81-a99f-458b-b133-2509327cf097","system_id":"levelo_inurba_marseille","lat":43.2825,"lon":5.36106,"is_reserved":false,"is_disabled":false,"rental_uris":{"android":"levelo://app?vid=6b656e81-a99f-458b-b133-2509327cf097","ios":"levelo://app?vid=6b656e81-a99f-458b-b133-2509327cf097"},"vehicle_type_id":"4","last_reported":1739535434,"current_range_meters":14400,"station_id":"","pricing_plan_id":"cebpf4jnsgd1na2vs0mg"},{"bike_id":"11343b64-303d-404e-a3e8-66743238f271","system_id":"levelo_inurba_marseille","lat":43.29006,"lon":5.35602,"is_reserved":false,"is_disabled":false,"rental_uris":{"android":"levelo://app?vid=11343b64-303d-404e-a3e8-66743238f271","ios":"levelo://app?vid=11343b64-303d-404e-a3e8-66743238f271"},"vehicle_type_id":"4","last_reported":1739535434,"current_range_meters":26000,"station_id":"ce4bhb92rcd13ifvqen0","pricing_plan_id":"cebpf4jnsgd1na2vs0mg"},{"bike_id":"b64cb318-9a9d-45df-b9e1-d16ce258851f","system_id":"levelo_inurba_marseille","lat":43.28154,"lon":5.42653,"is_reserved":false,"is_disabled":true,"rental_uris":{"android":"levelo://app?vid=b64cb318-9a9d-45df-b9e1-d16ce258851f","ios":"levelo://app?vid=b64cb318-9a9d-45df-b9e1-d16ce258851f"},"vehicle_type_id":"4","last_reported":1739535434,"current_range_meters":1200,"station_id":"ce4bhnh2rcd13ifvqgug","pricing_plan_id":"cebpf4jnsgd1na2vs0mg"},{"bike_id":"e37e3851-2ffa-40ab-a685-f0087f097083","system_id":"levelo_inurba_marseille","lat":43.2672,"lon":5.38257,"is_reserved":false,"is_disabled":true,"rental_uris":{"android":"levelo://app?vid=e37e3851-2ffa-40ab-a685-f0087f097083","ios":"levelo://app?vid=e37e3851-2ffa-40ab-a685-f0087f097083"},"vehicle_type_id":"4","last_reported":1739535434,"current_range_meters":30800,"station_id":"ce4bhg92rcd13ifvqf90","pricing_plan_id":"cebpf4jnsgd1na2vs0mg"},{"bike_id":"0793e09f-605c-48cc-bc40-f867c28feb55","system_id":"levelo_inurba_marseille","lat":43.33028,"lon":5.39039,"is_reserved":false,"is_disabled":false,"rental_uris":{"android":"levelo://app?vid=0793e09f-605c-48cc-bc40-f867c28feb55","ios":"levelo://app?vid=0793e09f-605c-48cc-bc40-f867c28feb55"},"vehicle_type_id":"4","last_reported":1739535434,"current_range_meters":24800,"station_id":"ce4bhr92rcd13ifvqhrg","pricing_plan_id":"cebpf4jnsgd1na2vs0mg"},{"bike_id":"62862006-05b4-4c32-b74d-3d73ca0f3a49","system_id":"levelo_inurba_marseille","lat":43.29493,"lon":5.36395,"is_reserved":false,"is_disabled":true,"rental_uris":{"android":"levelo://app?vid=62862006-05b4-4c32-b74d-3d73ca0f3a49","ios":"levelo://app?vid=62862006-05b4-4c32-b74d-3d73ca0f3a49"},"vehicle_type_id":"4","last_reported":1739535434,"current_range_meters":26800,"station_id":"","pricing_plan_id":"cebpf4jnsgd1na2vs0mg"},{"bike_id":"ad5ba8e1-a049-441a-9333-2b5bdef497ad","system_id":"levelo_inurba_marseille","lat":43.28708,"lon":5.37389,"is_reserved":false,"is_disabled":false,"rental_uris":{"android":"levelo://app?vid=ad5ba8e1-a049-441a-9333-2b5bdef497ad","ios":"levelo://app?vid=ad5ba8e1-a049-441a-9333-2b5bdef497ad"},"vehicle_type_id":"4","last_reported":1739535434,"current_range_meters":38800,"station_id":"ce4bh3p2rcd13ifvqdq0","pricing_plan_id":"cebpf4jnsgd1na2vs0mg"},{"bike_id":"63dcde03-1c93-4b06-98de-c17e2e2a1b80","system_id":"levelo_inurba_marseille","lat":43.30366,"lon":5.41881,"is_reserved":false,"is_disabled":false,"rental_uris":{"android":"levelo://app?vid=63dcde03-1c93-4b06-98de-c17e2e2a1b80","ios":"levelo://app?vid=63dcde03-1c93-4b06-98de-c17e2e2a1b80"},"vehicle_type_id":"4","last_reported":1739535434,"current_range_meters":38000,"station_id":"ce4bhop2rcd13ifvqh7g","pricing_plan_id":"cebpf4jnsgd1na2vs0mg"},{"bike_id":"c04ac249-dc10-4dab-92dc-2ad767cf01f6","system_id":"levelo_inurba_marseille","lat":43.30467,"lon":5.37915,"is_reserved":false,"is_disabled":false,"rental_uris":{"android":"levelo://app?vid=c04ac249-dc10-4dab-92dc-2ad767cf01f6","ios":"levelo://app?vid=c04ac249-dc10-4dab-92dc-2ad767cf01f6"},"vehicle_type_id":"4","last_reported":1739535434,"current_range_meters":34800,"station_id":"ce4bgup2rcd13ifvqcn0","pricing_plan_id":"cebpf4jnsgd1na2vs0mg"},{"bike_id":"498fb7b9-d884-4ab2-9d53-0c31ae9ec3e1","system_id":"levelo_inurba_marseille","lat":43.2894,"lon":5.39635,"is_reserved":false,"is_disabled":false,"rental_uris":{"android":"levelo://app?vid=498fb7b9-d884-4ab2-9d53-0c31ae9ec3e1","ios":"levelo://app?vid=498fb7b9-d884-4ab2-9d53-0c31ae9ec3e1"},"vehicle_type_id":"4","last_reported":1739535434,"current_range_meters":26800,"station_id":"ce4bh3h2rcd13ifvqdn0","pricing_plan_id":"cebpf4jnsgd1na2vs0mg"},{"bike_id":"c338d21c-2442-4b58-aadc-564d7faddd7e","system_id":"levelo_inurba_marseille","lat":43.3247,"lon":5.36632,"is_reserved":false,"is_disabled":false,"rental_uris":{"android":"levelo://app?vid=c338d21c-2442-4b58-aadc-564d7faddd7e","ios":"levelo://app?vid=c338d21c-2442-4b58-aadc-564d7faddd7e"},"vehicle_type_id":"4","last_reported":1739535434,"current_range_meters":20400,"station_id":"","pricing_plan_id":"cebpf4jnsgd1na2vs0mg"},{"bike_id":"ffb67bcb-d901-4271-8ec4-d8fc7399c026","system_id":"levelo_inurba_marseille","lat":43.30946,"lon":5.40151,"is_reserved":false,"is_disabled":false,"rental_uris":{"android":"levelo://app?vid=ffb67bcb-d901-4271-8ec4-d8fc7399c026","ios":"levelo://app?vid=ffb67bcb-d901-4271-8ec4-d8fc7399c026"},"vehicle_type_id":"4","last_reported":1739535434,"current_range_meters":26800,"station_id":"ce4bgvp2rcd13ifvqct0","pricing_plan_id":"cebpf4jnsgd1na2vs0mg"},{"bike_id":"e031351b-efdb-4640-8255-b69e1640bbff","system_id":"levelo_inurba_marseille","lat":43.24177,"lon":5.3639,"is_reserved":false,"is_disabled":false,"rental_uris":{"android":"levelo://app?vid=e031351b-efdb-4640-8255-b69e1640bbff","ios":"levelo://app?vid=e031351b-efdb-4640-8255-b69e1640bbff"},"vehicle_type_id":"4","last_reported":1739535434,"current_range_meters":34000,"station_id":"cpo36qri1sfpv3e86is0","pricing_plan_id":"cebpf4jnsgd1na2vs0mg"},{"bike_id":"e9f11eaf-e630-4af6-b92e-f960f7592e9a","system_id":"levelo_inurba_marseille","lat":43.29583,"lon":5.37724,"is_reserved":false,"is_disabled":false,"rental_uris":{"android":"levelo://app?vid=e9f11eaf-e630-4af6-b92e-f960f7592e9a","ios":"levelo://app?vid=e9f11eaf-e630-4af6-b92e-f960f7592e9a"},"vehicle_type_id":"4","last_reported":1739535434,"current_range_meters":12400,"station_id":"","pricing_plan_id":"cebpf4jnsgd1na2vs0mg"},{"bike_id":"469ec595-d539-44ce-b5e7-b970dbdf72ba","system_id":"levelo_inurba_marseille","lat":43.32042,"lon":5.41559,"is_reserved":false,"is_disabled":false,"rental_uris":{"android":"levelo://app?vid=469ec595-d539-44ce-b5e7-b970dbdf72ba","ios":"levelo://app?vid=469ec595-d539-44ce-b5e7-b970dbdf72ba"},"vehicle_type_id":"4","last_reported":1739535434,"current_range_meters":39200,"station_id":"ce4bhq92rcd13ifvqhkg","pricing_plan_id":"cebpf4jnsgd1na2vs0mg"},{"bike_id":"ee566f3d-0e78-4ced-ac1b-e3b33c18e89e","system_id":"levelo_inurba_marseille","lat":43.24401,"lon":5.37047,"is_reserved":false,"is_disabled":false,"rental_uris":{"android":"levelo://app?vid=ee566f3d-0e78-4ced-ac1b-e3b33c18e89e","ios":"levelo://app?vid=ee566f3d-0e78-4ced-ac1b-e3b33c18e89e"},"vehicle_type_id":"4","last_reported":1739535434,"current_range_meters":17600,"station_id":"ce4bhhh2rcd13ifvqfk0","pricing_plan_id":"cebpf4jnsgd1na2vs0mg"},{"bike_id":"da7f2fae-5747-45f2-981c-2899a6e7dc68","system_id":"levelo_inurba_marseille","lat":43.25593,"lon":5.38245,"is_reserved":false,"is_disabled":false,"rental_uris":{"android":"levelo://app?vid=da7f2fae-5747-45f2-981c-2899a6e7dc68","ios":"levelo://app?vid=da7f2fae-5747-45f2-981c-2899a6e7dc68"},"vehicle_type_id":"4","last_reported":1739535434,"current_range_meters":25600,"station_id":"ce4bhih2rcd13ifvqfs0","pricing_plan_id":"cebpf4jnsgd1na2vs0mg"},{"bike_id":"c640fc38-e54b-4af1-92ad-d2c50e20e738","system_id":"levelo_inurba_marseille","lat":43.24993,"lon":5.38936,"is_reserved":false,"is_disabled":false,"rental_uris":{"android":"levelo://app?vid=c640fc38-e54b-4af1-92ad-d2c50e20e738","ios":"levelo://app?vid=c640fc38-e54b-4af1-92ad-d2c50e20e738"},"vehicle_type_id":"4","last_reported":1739535434,"current_range_meters":38800,"station_id":"ce4bhgp2rcd13ifvqfd0","pricing_plan_id":"cebpf4jnsgd1na2vs0mg"},{"bike_id":"1e4ff974-65fa-4cfa-8f08-84123b9dc532","system_id":"levelo_inurba_marseille","lat":43.30089,"lon":5.39077,"is_reserved":false,"is_disabled":false,"rental_uris":{"android":"levelo://app?vid=1e4ff974-65fa-4cfa-8f08-84123b9dc532","ios":"levelo://app?vid=1e4ff974-65fa-4cfa-8f08-84123b9dc532"},"vehicle_type_id":"4","last_reported":1739535434,"current_range_meters":19600,"station_id":"ce4bh192rcd13ifvqdb0","pricing_plan_id":"cebpf4jnsgd1na2vs0mg"},{"bike_id":"5befaa08-25a5-49bd-afcd-8980db8935aa","system_id":"levelo_inurba_marseille","lat":43.29977,"lon":5.37102,"is_reserved":false,"is_disabled":false,"rental_uris":{"android":"levelo://app?vid=5befaa08-25a5-49bd-afcd-8980db8935aa","ios":"levelo://app?vid=5befaa08-25a5-49bd-afcd-8980db8935aa"},"vehicle_type_id":"4","last_reported":1739535434,"current_range_meters":32800,"station_id":"ce4bgr92rcd13ifvqc7g","pricing_plan_id":"cebpf4jnsgd1na2vs0mg"},{"bike_id":"d2390134-cb0a-4e75-9b5a-5182f3230d9e","system_id":"levelo_inurba_marseille","lat":43.30143,"lon":5.37412,"is_reserved":false,"is_disabled":false,"rental_uris":{"android":"levelo://app?vid=d2390134-cb0a-4e75-9b5a-5182f3230d9e","ios":"levelo://app?vid=d2390134-cb0a-4e75-9b5a-5182f3230d9e"},"vehicle_type_id":"4","last_reported":1739535434,"current_range_meters":38800,"station_id":"ce4bgs92rcd13ifvqcc0","pricing_plan_id":"cebpf4jnsgd1na2vs0mg"},{"bike_id":"2924424d-634e-4af5-8f50-3da5a42450ed","system_id":"levelo_inurba_marseille","lat":43.29526,"lon":5.37509,"is_reserved":false,"is_disabled":false,"rental_uris":{"android":"levelo://app?vid=2924424d-634e-4af5-8f50-3da5a42450ed","ios":"levelo://app?vid=2924424d-634e-4af5-8f50-3da5a42450ed"},"vehicle_type_id":"4","last_reported":1739535434,"current_range_meters":27600,"station_id":"ce4bgkp2rcd13ifvqbmg","pricing_plan_id":"cebpf4jnsgd1na2vs0mg"},{"bike_id":"332a81cd-bced-4860-88fd-ebcee5e61513","system_id":"levelo_inurba_marseille","lat":43.27823,"lon":5.40729,"is_reserved":false,"is_disabled":false,"rental_uris":{"android":"levelo://app?vid=332a81cd-bced-4860-88fd-ebcee5e61513","ios":"levelo://app?vid=332a81cd-bced-4860-88fd-ebcee5e61513"},"vehicle_type_id":"4","last_reported":1739535434,"current_range_meters":38800,"station_id":"ce4bhnh2rcd13ifvqgtg","pricing_plan_id":"cebpf4jnsgd1na2vs0mg"},{"bike_id":"523cf9ea-40e8-4b12-b781-d7a3dab4dcd0","system_id":"levelo_inurba_marseille","lat":43.301372,"lon":5.38059,"is_reserved":false,"is_disabled":false,"rental_uris":{"android":"levelo://app?vid=523cf9ea-40e8-4b12-b781-d7a3dab4dcd0","ios":"levelo://app?vid=523cf9ea-40e8-4b12-b781-d7a3dab4dcd0"},"vehicle_type_id":"4","last_reported":1739535434,"current_range_meters":30800,"station_id":"ce4bgjp2rcd13ifvqbh0","pricing_plan_id":"cebpf4jnsgd1na2vs0mg"},{"bike_id":"5659bf41-4cae-4136-bee8-78fe202573fb","system_id":"levelo_inurba_marseille","lat":43.304707,"lon":5.379012,"is_reserved":false,"is_disabled":false,"rental_uris":{"android":"levelo://app?vid=5659bf41-4cae-4136-bee8-78fe202573fb","ios":"levelo://app?vid=5659bf41-4cae-4136-bee8-78fe202573fb"},"vehicle_type_id":"4","last_reported":1739535434,"current_range_meters":38800,"station_id":"ce4bgup2rcd13ifvqcn0","pricing_plan_id":"cebpf4jnsgd1na2vs0mg"},{"bike_id":"170d2661-6fd4-416a-bed8-edf435474169","system_id":"levelo_inurba_marseille","lat":43.24073,"lon":5.37727,"is_reserved":false,"is_disabled":false,"rental_uris":{"android":"levelo://app?vid=170d2661-6fd4-416a-bed8-edf435474169","ios":"levelo://app?vid=170d2661-6fd4-416a-bed8-edf435474169"},"vehicle_type_id":"4","last_reported":1739535434,"current_range_meters":12400,"station_id":"ce4bhnp2rcd13ifvqgvg","pricing_plan_id":"cebpf4jnsgd1na2vs0mg"},{"bike_id":"e5ef80dd-4702-46bb-bfde-5dd61590a716","system_id":"levelo_inurba_marseille","lat":43.29246,"lon":5.40918,"is_reserved":false,"is_disabled":false,"rental_uris":{"android":"levelo://app?vid=e5ef80dd-4702-46bb-bfde-5dd61590a716","ios":"levelo://app?vid=e5ef80dd-4702-46bb-bfde-5dd61590a716"},"vehicle_type_id":"4","last_reported":1739535434,"current_range_meters":36800,"station_id":"ce4bh192rcd13ifvqdc0","pricing_plan_id":"cebpf4jnsgd1na2vs0mg"},{"bike_id":"a1c072f7-9b8b-4acb-a6b4-290a3668b1e1","system_id":"levelo_inurba_marseille","lat":43.30197,"lon":5.36628,"is_reserved":false,"is_disabled":false,"rental_uris":{"android":"levelo://app?vid=a1c072f7-9b8b-4acb-a6b4-290a3668b1e1","ios":"levelo://app?vid=a1c072f7-9b8b-4acb-a6b4-290a3668b1e1"},"vehicle_type_id":"4","last_reported":1739535434,"current_range_meters":36400,"station_id":"ce4bgrh2rcd13ifvqc8g","pricing_plan_id":"cebpf4jnsgd1na2vs0mg"},{"bike_id":"c8b7701c-9930-4092-9c5f-73860fabe226","system_id":"levelo_inurba_marseille","lat":43.28941,"lon":5.36646,"is_reserved":false,"is_disabled":false,"rental_uris":{"android":"levelo://app?vid=c8b7701c-9930-4092-9c5f-73860fabe226","ios":"levelo://app?vid=c8b7701c-9930-4092-9c5f-73860fabe226"},"vehicle_type_id":"4","last_reported":1739535434,"current_range_meters":22800,"station_id":"ce4bhap2rcd13ifvqek0","pricing_plan_id":"cebpf4jnsgd1na2vs0mg"},{"bike_id":"8ffffd24-0083-48de-8c2b-3f16f3c46251","system_id":"levelo_inurba_marseille","lat":43.30142,"lon":5.38087,"is_reserved":false,"is_disabled":false,"rental_uris":{"android":"levelo://app?vid=8ffffd24-0083-48de-8c2b-3f16f3c46251","ios":"levelo://app?vid=8ffffd24-0083-48de-8c2b-3f16f3c46251"},"vehicle_type_id":"4","last_reported":1739535434,"current_range_meters":36000,"station_id":"ce4bgjp2rcd13ifvqbh0","pricing_plan_id":"cebpf4jnsgd1na2vs0mg"},{"bike_id":"a4d7012d-3e03-491e-919c-f78756ae7083","system_id":"levelo_inurba_marseille","lat":43.29066,"lon":5.35918,"is_reserved":false,"is_disabled":false,"rental_uris":{"android":"levelo://app?vid=a4d7012d-3e03-491e-919c-f78756ae7083","ios":"levelo://app?vid=a4d7012d-3e03-491e-919c-f78756ae7083"},"vehicle_type_id":"4","last_reported":1739535434,"current_range_meters":20000,"station_id":"ce4bha92rcd13ifvqeg0","pricing_plan_id":"cebpf4jnsgd1na2vs0mg"},{"bike_id":"ac3de1d1-d270-4132-ac11-2c071f4b6f68","system_id":"levelo_inurba_marseille","lat":43.29901,"lon":5.39737,"is_reserved":false,"is_disabled":false,"rental_uris":{"android":"levelo://app?vid=ac3de1d1-d270-4132-ac11-2c071f4b6f68","ios":"levelo://app?vid=ac3de1d1-d270-4132-ac11-2c071f4b6f68"},"vehicle_type_id":"4","last_reported":1739535434,"current_range_meters":10000,"station_id":"ce4bh0h2rcd13ifvqd50","pricing_plan_id":"cebpf4jnsgd1na2vs0mg"},{"bike_id":"34871b78-7c6b-4a45-854a-a794af1498d9","system_id":"levelo_inurba_marseille","lat":43.26683,"lon":5.38248,"is_reserved":false,"is_disabled":true,"rental_uris":{"android":"levelo://app?vid=34871b78-7c6b-4a45-854a-a794af1498d9","ios":"levelo://app?vid=34871b78-7c6b-4a45-854a-a794af1498d9"},"vehicle_type_id":"4","last_reported":1739535434,"current_range_meters":2000,"station_id":"ce4bhg92rcd13ifvqf90","pricing_plan_id":"cebpf4jnsgd1na2vs0mg"},{"bike_id":"90d6b28b-d2ff-499b-949c-5a4f2ff008b1","system_id":"levelo_inurba_marseille","lat":43.243921,"lon":5.370489,"is_reserved":false,"is_disabled":false,"rental_uris":{"android":"levelo://app?vid=90d6b28b-d2ff-499b-949c-5a4f2ff008b1","ios":"levelo://app?vid=90d6b28b-d2ff-499b-949c-5a4f2ff008b1"},"vehicle_type_id":"4","last_reported":1739535434,"current_range_meters":39200,"station_id":"ce4bhhh2rcd13ifvqfk0","pricing_plan_id":"cebpf4jnsgd1na2vs0mg"},{"bike_id":"34141518-2329-4810-b031-afbbcd35d40a","system_id":"levelo_inurba_marseille","lat":43.25913,"lon":5.40884,"is_reserved":false,"is_disabled":false,"rental_uris":{"android":"levelo://app?vid=34141518-2329-4810-b031-afbbcd35d40a","ios":"levelo://app?vid=34141518-2329-4810-b031-afbbcd35d40a"},"vehicle_type_id":"4","last_reported":1739535434,"current_range_meters":30800,"station_id":"ce4bhm92rcd13ifvqglg","pricing_plan_id":"cebpf4jnsgd1na2vs0mg"},{"bike_id":"c1665b9a-8804-49fb-a2e7-87ab5bdd8b6d","system_id":"levelo_inurba_marseille","lat":43.33725,"lon":5.39185,"is_reserved":false,"is_disabled":false,"rental_uris":{"android":"levelo://app?vid=c1665b9a-8804-49fb-a2e7-87ab5bdd8b6d","ios":"levelo://app?vid=c1665b9a-8804-49fb-a2e7-87ab5bdd8b6d"},"vehicle_type_id":"4","last_reported":1739535434,"current_range_meters":22000,"station_id":"ce4bhr92rcd13ifvqhsg","pricing_plan_id":"cebpf4jnsgd1na2vs0mg"},{"bike_id":"c2eca563-3b97-4a60-b7ba-0225300f0bff","system_id":"levelo_inurba_marseille","lat":43.30148,"lon":5.38778,"is_reserved":false,"is_disabled":false,"rental_uris":{"android":"levelo://app?vid=c2eca563-3b97-4a60-b7ba-0225300f0bff","ios":"levelo://app?vid=c2eca563-3b97-4a60-b7ba-0225300f0bff"},"vehicle_type_id":"4","last_reported":1739535434,"current_range_meters":38800,"station_id":"ce4bghh2rcd13ifvqb60","pricing_plan_id":"cebpf4jnsgd1na2vs0mg"},{"bike_id":"1787a334-960d-4d0d-80d6-a35131adce16","system_id":"levelo_inurba_marseille","lat":43.30563,"lon":5.36707,"is_reserved":false,"is_disabled":false,"rental_uris":{"android":"levelo://app?vid=1787a334-960d-4d0d-80d6-a35131adce16","ios":"levelo://app?vid=1787a334-960d-4d0d-80d6-a35131adce16"},"vehicle_type_id":"4","last_reported":1739535434,"current_range_meters":28800,"station_id":"ce4bgrp2rcd13ifvqc9g","pricing_plan_id":"cebpf4jnsgd1na2vs0mg"},{"bike_id":"58ca8d36-3abf-4f9b-bf3f-e62ed0e7a978","system_id":"levelo_inurba_marseille","lat":43.23969,"lon":5.36643,"is_reserved":false,"is_disabled":false,"rental_uris":{"android":"levelo://app?vid=58ca8d36-3abf-4f9b-bf3f-e62ed0e7a978","ios":"levelo://app?vid=58ca8d36-3abf-4f9b-bf3f-e62ed0e7a978"},"vehicle_type_id":"4","last_reported":1739535434,"current_range_meters":38800,"station_id":"ce4bhi12rcd13ifvqfp0","pricing_plan_id":"cebpf4jnsgd1na2vs0mg"},{"bike_id":"57469eb7-78e0-40b4-9953-5ca256ee3dc2","system_id":"levelo_inurba_marseille","lat":43.29627,"lon":5.37141,"is_reserved":false,"is_disabled":false,"rental_uris":{"android":"levelo://app?vid=57469eb7-78e0-40b4-9953-5ca256ee3dc2","ios":"levelo://app?vid=57469eb7-78e0-40b4-9953-5ca256ee3dc2"},"vehicle_type_id":"4","last_reported":1739535434,"current_range_meters":38000,"station_id":"ce4bgnh2rcd13ifvqc0g","pricing_plan_id":"cebpf4jnsgd1na2vs0mg"},{"bike_id":"1fe4fc41-3ba8-411f-85f4-acf1ab827466","system_id":"levelo_inurba_marseille","lat":43.28857,"lon":5.39323,"is_reserved":false,"is_disabled":true,"rental_uris":{"android":"levelo://app?vid=1fe4fc41-3ba8-411f-85f4-acf1ab827466","ios":"levelo://app?vid=1fe4fc41-3ba8-411f-85f4-acf1ab827466"},"vehicle_type_id":"4","last_reported":1739535434,"current_range_meters":34000,"station_id":"ce4bh2p2rcd13ifvqdi0","pricing_plan_id":"cebpf4jnsgd1na2vs0mg"},{"bike_id":"1d4c980e-5927-4a29-b2e3-24557b9061dd","system_id":"levelo_inurba_marseille","lat":43.29617,"lon":5.40593,"is_reserved":false,"is_disabled":false,"rental_uris":{"android":"levelo://app?vid=1d4c980e-5927-4a29-b2e3-24557b9061dd","ios":"levelo://app?vid=1d4c980e-5927-4a29-b2e3-24557b9061dd"},"vehicle_type_id":"4","last_reported":1739535434,"current_range_meters":18800,"station_id":"ce4bh0h2rcd13ifvqd60","pricing_plan_id":"cebpf4jnsgd1na2vs0mg"},{"bike_id":"b85ce5af-a1fc-4f35-b6e0-bfe92d04f088","system_id":"levelo_inurba_marseille","lat":43.30884,"lon":5.37202,"is_reserved":false,"is_disabled":false,"rental_uris":{"android":"levelo://app?vid=b85ce5af-a1fc-4f35-b6e0-bfe92d04f088","ios":"levelo://app?vid=b85ce5af-a1fc-4f35-b6e0-bfe92d04f088"},"vehicle_type_id":"4","last_reported":1739535434,"current_range_meters":20400,"station_id":"ce4bguh2rcd13ifvqckg","pricing_plan_id":"cebpf4jnsgd1na2vs0mg"},{"bike_id":"d157203c-3a5b-4bbc-9638-6eefce740d5e","system_id":"levelo_inurba_marseille","lat":43.232014,"lon":5.35567,"is_reserved":false,"is_disabled":false,"rental_uris":{"android":"levelo://app?vid=d157203c-3a5b-4bbc-9638-6eefce740d5e","ios":"levelo://app?vid=d157203c-3a5b-4bbc-9638-6eefce740d5e"},"vehicle_type_id":"4","last_reported":1739535434,"current_range_meters":28000,"station_id":"ce4bhu92rcd13ifvqi70","pricing_plan_id":"cebpf4jnsgd1na2vs0mg"},{"bike_id":"78d5db11-1ddc-4faf-b1eb-abd3360d86f8","system_id":"levelo_inurba_marseille","lat":43.29056,"lon":5.39974,"is_reserved":false,"is_disabled":true,"rental_uris":{"android":"levelo://app?vid=78d5db11-1ddc-4faf-b1eb-abd3360d86f8","ios":"levelo://app?vid=78d5db11-1ddc-4faf-b1eb-abd3360d86f8"},"vehicle_type_id":"4","last_reported":1739535434,"current_range_meters":28000,"station_id":"ce4bh392rcd13ifvqdm0","pricing_plan_id":"cebpf4jnsgd1na2vs0mg"},{"bike_id":"a7ea1f34-cd70-4495-86d4-a66fabfd5b54","system_id":"levelo_inurba_marseille","lat":43.29292,"lon":5.37437,"is_reserved":false,"is_disabled":false,"rental_uris":{"android":"levelo://app?vid=a7ea1f34-cd70-4495-86d4-a66fabfd5b54","ios":"levelo://app?vid=a7ea1f34-cd70-4495-86d4-a66fabfd5b54"},"vehicle_type_id":"4","last_reported":1739535434,"current_range_meters":38000,"station_id":"ce4bgi12rcd13ifvqb70","pricing_plan_id":"cebpf4jnsgd1na2vs0mg"},{"bike_id":"f1049c47-4583-4bbf-a8cb-e9291a346e64","system_id":"levelo_inurba_marseille","lat":43.25729,"lon":5.41109,"is_reserved":false,"is_disabled":false,"rental_uris":{"android":"levelo://app?vid=f1049c47-4583-4bbf-a8cb-e9291a346e64","ios":"levelo://app?vid=f1049c47-4583-4bbf-a8cb-e9291a346e64"},"vehicle_type_id":"4","last_reported":1739535434,"current_range_meters":36000,"station_id":"ce4bhkp2rcd13ifvqgd0","pricing_plan_id":"cebpf4jnsgd1na2vs0mg"},{"bike_id":"0ff48bc7-3e58-4a4e-939c-2245642945a9","system_id":"levelo_inurba_marseille","lat":43.30458,"lon":5.37897,"is_reserved":false,"is_disabled":false,"rental_uris":{"android":"levelo://app?vid=0ff48bc7-3e58-4a4e-939c-2245642945a9","ios":"levelo://app?vid=0ff48bc7-3e58-4a4e-939c-2245642945a9"},"vehicle_type_id":"4","last_reported":1739535434,"current_range_meters":33600,"station_id":"ce4bgup2rcd13ifvqcn0","pricing_plan_id":"cebpf4jnsgd1na2vs0mg"},{"bike_id":"74a9f2cd-231b-46ca-b15c-632533777a7c","system_id":"levelo_inurba_marseille","lat":43.30524,"lon":5.36548,"is_reserved":false,"is_disabled":false,"rental_uris":{"android":"levelo://app?vid=74a9f2cd-231b-46ca-b15c-632533777a7c","ios":"levelo://app?vid=74a9f2cd-231b-46ca-b15c-632533777a7c"},"vehicle_type_id":"4","last_reported":1739535434,"current_range_meters":39200,"station_id":"ce4bgs12rcd13ifvqcag","pricing_plan_id":"cebpf4jnsgd1na2vs0mg"},{"bike_id":"409636b7-a676-4711-9f59-b59336ebcdfc","system_id":"levelo_inurba_marseille","lat":43.246475,"lon":5.389043,"is_reserved":false,"is_disabled":false,"rental_uris":{"android":"levelo://app?vid=409636b7-a676-4711-9f59-b59336ebcdfc","ios":"levelo://app?vid=409636b7-a676-4711-9f59-b59336ebcdfc"},"vehicle_type_id":"4","last_reported":1739535434,"current_range_meters":38800,"station_id":"ce4bhg12rcd13ifvqf60","pricing_plan_id":"cebpf4jnsgd1na2vs0mg"},{"bike_id":"3d493f5a-fd74-4653-90bc-25b116a3f476","system_id":"levelo_inurba_marseille","lat":43.30093,"lon":5.39094,"is_reserved":false,"is_disabled":false,"rental_uris":{"android":"levelo://app?vid=3d493f5a-fd74-4653-90bc-25b116a3f476","ios":"levelo://app?vid=3d493f5a-fd74-4653-90bc-25b116a3f476"},"vehicle_type_id":"4","last_reported":1739535434,"current_range_meters":36000,"station_id":"ce4bh192rcd13ifvqdb0","pricing_plan_id":"cebpf4jnsgd1na2vs0mg"},{"bike_id":"d80860fa-7cf7-4ae7-befb-26e8065381a1","system_id":"levelo_inurba_marseille","lat":43.23206,"lon":5.35549,"is_reserved":false,"is_disabled":false,"rental_uris":{"android":"levelo://app?vid=d80860fa-7cf7-4ae7-befb-26e8065381a1","ios":"levelo://app?vid=d80860fa-7cf7-4ae7-befb-26e8065381a1"},"vehicle_type_id":"4","last_reported":1739535434,"current_range_meters":27200,"station_id":"ce4bhu92rcd13ifvqi70","pricing_plan_id":"cebpf4jnsgd1na2vs0mg"},{"bike_id":"4104f2fa-1771-45dc-ba25-e6cb966508a0","system_id":"levelo_inurba_marseille","lat":43.28365,"lon":5.38632,"is_reserved":false,"is_disabled":false,"rental_uris":{"android":"levelo://app?vid=4104f2fa-1771-45dc-ba25-e6cb966508a0","ios":"levelo://app?vid=4104f2fa-1771-45dc-ba25-e6cb966508a0"},"vehicle_type_id":"4","last_reported":1739535434,"current_range_meters":22400,"station_id":"ce4bh492rcd13ifvqdvg","pricing_plan_id":"cebpf4jnsgd1na2vs0mg"},{"bike_id":"10d9cc3d-d363-427b-ad15-7535dc8cf089","system_id":"levelo_inurba_marseille","lat":43.31886,"lon":5.4074,"is_reserved":false,"is_disabled":false,"rental_uris":{"android":"levelo://app?vid=10d9cc3d-d363-427b-ad15-7535dc8cf089","ios":"levelo://app?vid=10d9cc3d-d363-427b-ad15-7535dc8cf089"},"vehicle_type_id":"4","last_reported":1739535434,"current_range_meters":32800,"station_id":"ce4bhq12rcd13ifvqhig","pricing_plan_id":"cebpf4jnsgd1na2vs0mg"},{"bike_id":"a61301d3-f1d2-4d88-8683-7aa2e634f500","system_id":"levelo_inurba_marseille","lat":43.32482,"lon":5.36552,"is_reserved":false,"is_disabled":false,"rental_uris":{"android":"levelo://app?vid=a61301d3-f1d2-4d88-8683-7aa2e634f500","ios":"levelo://app?vid=a61301d3-f1d2-4d88-8683-7aa2e634f500"},"vehicle_type_id":"4","last_reported":1739535434,"current_range_meters":22800,"station_id":"ce4bhs12rcd13ifvqhvg","pricing_plan_id":"cebpf4jnsgd1na2vs0mg"},{"bike_id":"2ef6098b-2171-48c6-8148-8dd98b83651a","system_id":"levelo_inurba_marseille","lat":43.24207,"lon":5.39728,"is_reserved":false,"is_disabled":false,"rental_uris":{"android":"levelo://app?vid=2ef6098b-2171-48c6-8148-8dd98b83651a","ios":"levelo://app?vid=2ef6098b-2171-48c6-8148-8dd98b83651a"},"vehicle_type_id":"4","last_reported":1739535434,"current_range_meters":17600,"station_id":"ce4bhn12rcd13ifvqgpg","pricing_plan_id":"cebpf4jnsgd1na2vs0mg"},{"bike_id":"c78501ca-7dfb-4cf7-b4a0-458f72b8657b","system_id":"levelo_inurba_marseille","lat":43.31723,"lon":5.42411,"is_reserved":false,"is_disabled":false,"rental_uris":{"android":"levelo://app?vid=c78501ca-7dfb-4cf7-b4a0-458f72b8657b","ios":"levelo://app?vid=c78501ca-7dfb-4cf7-b4a0-458f72b8657b"},"vehicle_type_id":"4","last_reported":1739535434,"current_range_meters":6800,"station_id":"ce4bhp92rcd13ifvqhbg","pricing_plan_id":"cebpf4jnsgd1na2vs0mg"},{"bike_id":"0ee71362-4954-4798-b9b4-e154a15cc75e","system_id":"levelo_inurba_marseille","lat":43.32338,"lon":5.40615,"is_reserved":false,"is_disabled":false,"rental_uris":{"android":"levelo://app?vid=0ee71362-4954-4798-b9b4-e154a15cc75e","ios":"levelo://app?vid=0ee71362-4954-4798-b9b4-e154a15cc75e"},"vehicle_type_id":"4","last_reported":1739535434,"current_range_meters":38400,"station_id":"ce4bhq92rcd13ifvqhjg","pricing_plan_id":"cebpf4jnsgd1na2vs0mg"},{"bike_id":"fbc84812-d995-4511-8639-24c7389d7a68","system_id":"levelo_inurba_marseille","lat":43.3014,"lon":5.38101,"is_reserved":false,"is_disabled":false,"rental_uris":{"android":"levelo://app?vid=fbc84812-d995-4511-8639-24c7389d7a68","ios":"levelo://app?vid=fbc84812-d995-4511-8639-24c7389d7a68"},