{"last_updated":1753446108,"ttl":60,"version":"2.2","data":{"bikes":[{"bike_id":"2522a2b1-6c3d-47b7-ac19-de3cc538eb74","system_id":"levelo_inurba_marseille","lat":43.25498,"lon":5.37652,"is_reserved":false,"is_disabled":false,"rental_uris":{"android":"levelo://app?vid=2522a2b1-6c3d-47b7-ac19-de3cc538eb74","ios":"levelo://app?vid=2522a2b1-6c3d-47b7-ac19-de3cc538eb74"},"vehicle_type_id":"4","last_reported":1753446108,"current_range_meters":2800,"station_id":"ce4bhh12rcd13ifvqff0","pricing_plan_id":"cebpf4jnsgd1na2vs0mg"},{"bike_id":"51c630bd-a0bd-4c33-8d8b-574c765ff60b","system_id":"levelo_inurba_marseille","lat":43.22923,"lon":5.35384,"is_reserved":false,"is_disabled":false,"rental_uris":{"android":"levelo://app?vid=51c630bd-a0bd-4c33-8d8b-574c765ff60b","ios":"levelo://app?vid=51c630bd-a0bd-4c33-8d8b-574c765ff60b"},"vehicle_type_id":"4","last_reported":1753446108,"current_range_meters":3200,"station_id":"cpo3532slgdg3j2ikp40","pricing_plan_id":"cebpf4jnsgd1na2vs0mg"},{"bike_id":"2bf6bffe-b207-4557-83a8-5416ffb85e3b","system_id":"levelo_inurba_marseille","lat":43.297752,"lon":5.371104,"is_reserved":false,"is_disabled":false,"rental_uris":{"android":"levelo://app?vid=2bf6bffe-b207-4557-83a8-5416ffb85e3b","ios":"levelo://app?vid=2bf6bffe-b207-4557-83a8-5416ffb85e3b"},"vehicle_type_id":"4","last_reported":1753446108,"current_range_meters":3600,"station_id":"","pricing_plan_id":"cebpf4jnsgd1na2vs0mg"},{"bike_id":"194696cd-250d-4a73-8f47-7a6a72f279e4","system_id":"levelo_inurba_marseille","lat":43.26555,"lon":5.37294,"is_reserved":false,"is_disabled":false,"rental_uris":{"android":"levelo://app?vid=194696cd-250d-4a73-8f47-7a6a72f279e4","ios":"levelo://app?vid=194696cd-250d-4a73-8f47-7a6a72f279e4"},"vehicle_type_id":"4","last_reported":1753446108,"current_range_meters":3600,"station_id":"ce4bhg12rcd13ifvqf70","pricing_plan_id":"cebpf4jnsgd1na2vs0mg"},{"bike_id":"e9d3743a-3688-4789-b659-4e98edad8b72","system_id":"levelo_inurba_marseille","lat":43.26059,"lon":5.39391,"is_reserved":false,"is_disabled":false,"rental_uris":{"android":"levelo://app?vid=e9d3743a-3688-4789-b659-4e98edad8b72","ios":"levelo://app?vid=e9d3743a-3688-4789-b659-4e98edad8b72"},"vehicle_type_id":"4","last_reported":1753446108,"current_range_meters":4400,"station_id":"ce4bhh92rcd13ifvqfj0","pricing_plan_id":"cebpf4jnsgd1na2vs0mg"},{"bike_id":"3bd255cc-1ce5-4943-a9cd-3102d86cb512","system_id":"levelo_inurba_marseille","lat":43.29543,"lon":5.38509,"is_reserved":false,"is_disabled":false,"rental_uris":{"android":"levelo://app?vid=3bd255cc-1ce5-4943-a9cd-3102d86cb512","ios":"levelo://app?vid=3bd255cc-1ce5-4943-a9cd-3102d86cb512"},"vehicle_type_id":"4","last_reported":1753446108,"current_range_meters":4400,"station_id":"ce4bgih2rcd13ifvqba0","pricing_plan_id":"cebpf4jnsgd1na2vs0mg"},{"bike_id":"3b8709d5-fad6-438a-b47c-3e2547db1574","system_id":"levelo_inurba_marseille","lat":43.29284,"lon":5.40122,"is_reserved":false,"is_disabled":false,"rental_uris":{"android":"levelo://app?vid=3b8709d5-fad6-438a-b47c-3e2547db1574","ios":"levelo://app?vid=3b8709d5-fad6-438a-b47c-3e2547db1574"},"vehicle_type_id":"4","last_reported":1753446108,"current_range_meters":4400,"station_id":"ce4bh312rcd13ifvqdk0","pricing_plan_id":"cebpf4jnsgd1na2vs0mg"},{"bike_id":"fe65d7d6-638d-40a5-bccf-533e7cf482a6","system_id":"levelo_inurba_marseille","lat":43.28352,"lon":5.43268,"is_reserved":false,"is_disabled":false,"rental_uris":{"android":"levelo://app?vid=fe65d7d6-638d-40a5-bccf-533e7cf482a6","ios":"levelo://app?vid=fe65d7d6-638d-40a5-bccf-533e7cf482a6"},"vehicle_type_id":"4","last_reported":1753446108,"current_range_meters":4800,"station_id":"","pricing_plan_id":"cebpf4jnsgd1na2vs0mg"},{"bike_id":"daa079a5-bde3-489b-be9e-7897ad9321d9","system_id":"levelo_inurba_marseille","lat":43.262115,"lon":5.374423,"is_reserved":false,"is_disabled":false,"rental_uris":{"android":"levelo://app?vid=daa079a5-bde3-489b-be9e-7897ad9321d9","ios":"levelo://app?vid=daa079a5-bde3-489b-be9e-7897ad9321d9"},"vehicle_type_id":"4","last_reported":1753446108,"current_range_meters":5600,"station_id":"ce4bhgp2rcd13ifvqfc0","pricing_plan_id":"cebpf4jnsgd1na2vs0mg"},{"bike_id":"51f000ed-2061-44c0-b4bd-d3b168720b47","system_id":"levelo_inurba_marseille","lat":43.297095,"lon":5.366102,"is_reserved":false,"is_disabled":false,"rental_uris":{"android":"levelo://app?vid=51f000ed-2061-44c0-b4bd-d3b168720b47","ios":"levelo://app?vid=51f000ed-2061-44c0-b4bd-d3b168720b47"},"vehicle_type_id":"4","last_reported":1753446108,"current_range_meters":6400,"station_id":"ce4bgn12rcd13ifvqbt0","pricing_plan_id":"cebpf4jnsgd1na2vs0mg"},{"bike_id":"d62fa972-cf10-438d-898e-a03e121f6ffa","system_id":"levelo_inurba_marseille","lat":43.29182,"lon":5.4081,"is_reserved":false,"is_disabled":false,"rental_uris":{"android":"levelo://app?vid=d62fa972-cf10-438d-898e-a03e121f6ffa","ios":"levelo://app?vid=d62fa972-cf10-438d-898e-a03e121f6ffa"},"vehicle_type_id":"4","last_reported":1753446108,"current_range_meters":6400,"station_id":"","pricing_plan_id":"cebpf4jnsgd1na2vs0mg"},{"bike_id":"a934ef3e-da94-46de-9c17-37e52480ec49","system_id":"levelo_inurba_marseille","lat":43.292005,"lon":5.357968,"is_reserved":false,"is_disabled":false,"rental_uris":{"android":"levelo://app?vid=a934ef3e-da94-46de-9c17-37e52480ec49","ios":"levelo://app?vid=a934ef3e-da94-46de-9c17-37e52480ec49"},"vehicle_type_id":"4","last_reported":1753446108,"current_range_meters":6400,"station_id":"ce4bhb12rcd13ifvqel0","pricing_plan_id":"cebpf4jnsgd1na2vs0mg"},{"bike_id":"86579a21-0ce2-441a-adae-be3730f0bcc4","system_id":"levelo_inurba_marseille","lat":43.31756,"lon":5.39013,"is_reserved":false,"is_disabled":false,"rental_uris":{"android":"levelo://app?vid=86579a21-0ce2-441a-adae-be3730f0bcc4","ios":"levelo://app?vid=86579a21-0ce2-441a-adae-be3730f0bcc4"},"vehicle_type_id":"4","last_reported":1753446108,"current_range_meters":6800,"station_id":"ce4bhqp2rcd13ifvqhng","pricing_plan_id":"cebpf4jnsgd1na2vs0mg"},{"bike_id":"2937f6cf-27e3-444b-80a2-fa5fde1689d0","system_id":"levelo_inurba_marseille","lat":43.28755,"lon":5.38491,"is_reserved":false,"is_disabled":false,"rental_uris":{"android":"levelo://app?vid=2937f6cf-27e3-444b-80a2-fa5fde1689d0","ios":"levelo://app?vid=2937f6cf-27e3-444b-80a2-fa5fde1689d0"},"vehicle_type_id":"4","last_reported":1753446108,"current_range_meters":6800,"station_id":"","pricing_plan_id":"cebpf4jnsgd1na2vs0mg"},{"bike_id":"9c077b1e-549b-4f39-a690-e7485d0ecb2e","system_id":"levelo_inurba_marseille","lat":43.27174,"lon":5.40997,"is_reserved":false,"is_disabled":false,"rental_uris":{"android":"levelo://app?vid=9c077b1e-549b-4f39-a690-e7485d0ecb2e","ios":"levelo://app?vid=9c077b1e-549b-4f39-a690-e7485d0ecb2e"},"vehicle_type_id":"4","last_reported":1753446108,"current_range_meters":6800,"station_id":"ce4bhl12rcd13ifvqgf0","pricing_plan_id":"cebpf4jnsgd1na2vs0mg"},{"bike_id":"d87b56f9-aec8-4c18-8340-d7aba9319bde","system_id":"levelo_inurba_marseille","lat":43.27493,"lon":5.39639,"is_reserved":false,"is_disabled":false,"rental_uris":{"android":"levelo://app?vid=d87b56f9-aec8-4c18-8340-d7aba9319bde","ios":"levelo://app?vid=d87b56f9-aec8-4c18-8340-d7aba9319bde"},"vehicle_type_id":"4","last_reported":1753446108,"current_range_meters":7200,"station_id":"","pricing_plan_id":"cebpf4jnsgd1na2vs0mg"},{"bike_id":"e5573671-8715-4611-9cdb-0d822e7515f9","system_id":"levelo_inurba_marseille","lat":43.31755,"lon":5.39018,"is_reserved":false,"is_disabled":false,"rental_uris":{"android":"levelo://app?vid=e5573671-8715-4611-9cdb-0d822e7515f9","ios":"levelo://app?vid=e5573671-8715-4611-9cdb-0d822e7515f9"},"vehicle_type_id":"4","last_reported":1753446108,"current_range_meters":6800,"station_id":"ce4bhqp2rcd13ifvqhng","pricing_plan_id":"cebpf4jnsgd1na2vs0mg"},{"bike_id":"e19cd9bd-8f1f-4909-a624-5af678243303","system_id":"levelo_inurba_marseille","lat":43.29036,"lon":5.3993,"is_reserved":false,"is_disabled":false,"rental_uris":{"android":"levelo://app?vid=e19cd9bd-8f1f-4909-a624-5af678243303","ios":"levelo://app?vid=e19cd9bd-8f1f-4909-a624-5af678243303"},"vehicle_type_id":"4","last_reported":1753446108,"current_range_meters":8000,"station_id":"ce4bh392rcd13ifvqdm0","pricing_plan_id":"cebpf4jnsgd1na2vs0mg"},{"bike_id":"cb314d3f-ab96-4881-9dcf-85fbea976f67","system_id":"levelo_inurba_marseille","lat":43.29032,"lon":5.37572,"is_reserved":false,"is_disabled":false,"rental_uris":{"android":"levelo://app?vid=cb314d3f-ab96-4881-9dcf-85fbea976f67","ios":"levelo://app?vid=cb314d3f-ab96-4881-9dcf-85fbea976f67"},"vehicle_type_id":"4","last_reported":1753446108,"current_range_meters":7200,"station_id":"ce4bh692rcd13ifvqe90","pricing_plan_id":"cebpf4jnsgd1na2vs0mg"},{"bike_id":"8aca7720-8871-48d8-8bb9-85a31c42f8a8","system_id":"levelo_inurba_marseille","lat":43.24072,"lon":5.37767,"is_reserved":false,"is_disabled":false,"rental_uris":{"android":"levelo://app?vid=8aca7720-8871-48d8-8bb9-85a31c42f8a8","ios":"levelo://app?vid=8aca7720-8871-48d8-8bb9-85a31c42f8a8"},"vehicle_type_id":"4","last_reported":1753446108,"current_range_meters":8000,"station_id":"ce4bhnp2rcd13ifvqgvg","pricing_plan_id":"cebpf4jnsgd1na2vs0mg"},{"bike_id":"3843a00f-81d8-45fd-a52a-64868b9c8532","system_id":"levelo_inurba_marseille","lat":43.29751,"lon":5.37727,"is_reserved":false,"is_disabled":true,"rental_uris":{"android":"levelo://app?vid=3843a00f-81d8-45fd-a52a-64868b9c8532","ios":"levelo://app?vid=3843a00f-81d8-45fd-a52a-64868b9c8532"},"vehicle_type_id":"4","last_reported":1753446108,"current_range_meters":8000,"station_id":"","pricing_plan_id":"cebpf4jnsgd1na2vs0mg"},{"bike_id":"abecaf0c-e031-4a9b-a6b6-69d67d74c125","system_id":"levelo_inurba_marseille","lat":43.28546,"lon":5.37786,"is_reserved":false,"is_disabled":false,"rental_uris":{"android":"levelo://app?vid=abecaf0c-e031-4a9b-a6b6-69d67d74c125","ios":"levelo://app?vid=abecaf0c-e031-4a9b-a6b6-69d67d74c125"},"vehicle_type_id":"4","last_reported":1753446108,"current_range_meters":8000,"station_id":"","pricing_plan_id":"cebpf4jnsgd1na2vs0mg"},{"bike_id":"4a5be72c-c203-4f38-ab99-1933c1ea2269","system_id":"levelo_inurba_marseille","lat":43.29276,"lon":5.40119,"is_reserved":false,"is_disabled":false,"rental_uris":{"android":"levelo://app?vid=4a5be72c-c203-4f38-ab99-1933c1ea2269","ios":"levelo://app?vid=4a5be72c-c203-4f38-ab99-1933c1ea2269"},"vehicle_type_id":"4","last_reported":1753446108,"current_range_meters":8400,"station_id":"ce4bh312rcd13ifvqdk0","pricing_plan_id":"cebpf4jnsgd1na2vs0mg"},{"bike_id":"2e8e7fa4-47bc-4567-b903-96abfb4fdf66","system_id":"levelo_inurba_marseille","lat":43.29281,"lon":5.4458,"is_reserved":false,"is_disabled":false,"rental_uris":{"android":"levelo://app?vid=2e8e7fa4-47bc-4567-b903-96abfb4fdf66","ios":"levelo://app?vid=2e8e7fa4-47bc-4567-b903-96abfb4fdf66"},"vehicle_type_id":"4","last_reported":1753446108,"current_range_meters":8400,"station_id":"","pricing_plan_id":"cebpf4jnsgd1na2vs0mg"},{"bike_id":"702a9530-fba1-43fc-9bb5-1de019d72e5b","system_id":"levelo_inurba_marseille","lat":43.29566,"lon":5.39966,"is_reserved":false,"is_disabled":false,"rental_uris":{"android":"levelo://app?vid=702a9530-fba1-43fc-9bb5-1de019d72e5b","ios":"levelo://app?vid=702a9530-fba1-43fc-9bb5-1de019d72e5b"},"vehicle_type_id":"4","last_reported":1753446108,"current_range_meters":8400,"station_id":"ce4bh312rcd13ifvqdj0","pricing_plan_id":"cebpf4jnsgd1na2vs0mg"},{"bike_id":"ff377cd1-bb83-4c84-920d-0cc197075b74","system_id":"levelo_inurba_marseille","lat":43.28152,"lon":5.42649,"is_reserved":false,"is_disabled":false,"rental_uris":{"android":"levelo://app?vid=ff377cd1-bb83-4c84-920d-0cc197075b74","ios":"levelo://app?vid=ff377cd1-bb83-4c84-920d-0cc197075b74"},"vehicle_type_id":"4","last_reported":1753446108,"current_range_meters":8400,"station_id":"ce4bhnh2rcd13ifvqgug","pricing_plan_id":"cebpf4jnsgd1na2vs0mg"},{"bike_id":"fd4ba70a-7bfa-434e-8564-04bf25cc9f63","system_id":"levelo_inurba_marseille","lat":43.281087,"lon":5.441112,"is_reserved":false,"is_disabled":false,"rental_uris":{"android":"levelo://app?vid=fd4ba70a-7bfa-434e-8564-04bf25cc9f63","ios":"levelo://app?vid=fd4ba70a-7bfa-434e-8564-04bf25cc9f63"},"vehicle_type_id":"4","last_reported":1753446108,"current_range_meters":8400,"station_id":"","pricing_plan_id":"cebpf4jnsgd1na2vs0mg"},{"bike_id":"51979a68-a8cc-400e-b7b9-cd8004031e65","system_id":"levelo_inurba_marseille","lat":43.22513,"lon":5.34773,"is_reserved":false,"is_disabled":false,"rental_uris":{"android":"levelo://app?vid=51979a68-a8cc-400e-b7b9-cd8004031e65","ios":"levelo://app?vid=51979a68-a8cc-400e-b7b9-cd8004031e65"},"vehicle_type_id":"4","last_reported":1753446108,"current_range_meters":8400,"station_id":"st_cvj5dfep6f1abm77gieg","pricing_plan_id":"cebpf4jnsgd1na2vs0mg"},{"bike_id":"f1b31204-7023-4930-b11a-951604838c3b","system_id":"levelo_inurba_marseille","lat":43.27552,"lon":5.38432,"is_reserved":false,"is_disabled":false,"rental_uris":{"android":"levelo://app?vid=f1b31204-7023-4930-b11a-951604838c3b","ios":"levelo://app?vid=f1b31204-7023-4930-b11a-951604838c3b"},"vehicle_type_id":"4","last_reported":1753446108,"current_range_meters":8800,"station_id":"ce4bhh92rcd13ifvqfi0","pricing_plan_id":"cebpf4jnsgd1na2vs0mg"},{"bike_id":"852cd8e7-2a75-4b67-b5a7-95ce50abb18d","system_id":"levelo_inurba_marseille","lat":43.27431,"lon":5.39414,"is_reserved":false,"is_disabled":false,"rental_uris":{"android":"levelo://app?vid=852cd8e7-2a75-4b67-b5a7-95ce50abb18d","ios":"levelo://app?vid=852cd8e7-2a75-4b67-b5a7-95ce50abb18d"},"vehicle_type_id":"4","last_reported":1753446108,"current_range_meters":8400,"station_id":"ce4bhdp2rcd13ifvqf20","pricing_plan_id":"cebpf4jnsgd1na2vs0mg"},{"bike_id":"bcfeb788-eed8-4a22-9566-78b3af0fa09b","system_id":"levelo_inurba_marseille","lat":43.29915,"lon":5.37577,"is_reserved":false,"is_disabled":false,"rental_uris":{"android":"levelo://app?vid=bcfeb788-eed8-4a22-9566-78b3af0fa09b","ios":"levelo://app?vid=bcfeb788-eed8-4a22-9566-78b3af0fa09b"},"vehicle_type_id":"4","last_reported":1753446108,"current_range_meters":8800,"station_id":"","pricing_plan_id":"cebpf4jnsgd1na2vs0mg"},{"bike_id":"b93c0803-f824-4cb7-a4ed-57da1403b68e","system_id":"levelo_inurba_marseille","lat":43.325583,"lon":5.379059,"is_reserved":false,"is_disabled":true,"rental_uris":{"android":"levelo://app?vid=b93c0803-f824-4cb7-a4ed-57da1403b68e","ios":"levelo://app?vid=b93c0803-f824-4cb7-a4ed-57da1403b68e"},"vehicle_type_id":"4","last_reported":1753446108,"current_range_meters":8800,"station_id":"","pricing_plan_id":"cebpf4jnsgd1na2vs0mg"},{"bike_id":"50360c78-473b-4af0-bf13-02b530b5006a","system_id":"levelo_inurba_marseille","lat":43.27493,"lon":5.42451,"is_reserved":false,"is_disabled":false,"rental_uris":{"android":"levelo://app?vid=50360c78-473b-4af0-bf13-02b530b5006a","ios":"levelo://app?vid=50360c78-473b-4af0-bf13-02b530b5006a"},"vehicle_type_id":"4","last_reported":1753446108,"current_range_meters":8800,"station_id":"ce4bhn92rcd13ifvqgrg","pricing_plan_id":"cebpf4jnsgd1na2vs0mg"},{"bike_id":"f28d2bb9-4217-4196-a573-ba6f4c172497","system_id":"levelo_inurba_marseille","lat":43.281574,"lon":5.361092,"is_reserved":false,"is_disabled":false,"rental_uris":{"android":"levelo://app?vid=f28d2bb9-4217-4196-a573-ba6f4c172497","ios":"levelo://app?vid=f28d2bb9-4217-4196-a573-ba6f4c172497"},"vehicle_type_id":"4","last_reported":1753446108,"current_range_meters":9200,"station_id":"","pricing_plan_id":"cebpf4jnsgd1na2vs0mg"},{"bike_id":"79079a9a-8322-4f6c-a9e6-9aba90ee17ba","system_id":"levelo_inurba_marseille","lat":43.33762,"lon":5.37461,"is_reserved":false,"is_disabled":false,"rental_uris":{"android":"levelo://app?vid=79079a9a-8322-4f6c-a9e6-9aba90ee17ba","ios":"levelo://app?vid=79079a9a-8322-4f6c-a9e6-9aba90ee17ba"},"vehicle_type_id":"4","last_reported":1753446108,"current_range_meters":9200,"station_id":"","pricing_plan_id":"cebpf4jnsgd1na2vs0mg"},{"bike_id":"650cb458-8e59-4504-90a6-51022f2633a4","system_id":"levelo_inurba_marseille","lat":43.30795,"lon":5.38163,"is_reserved":false,"is_disabled":false,"rental_uris":{"android":"levelo://app?vid=650cb458-8e59-4504-90a6-51022f2633a4","ios":"levelo://app?vid=650cb458-8e59-4504-90a6-51022f2633a4"},"vehicle_type_id":"4","last_reported":1753446108,"current_range_meters":9600,"station_id":"ce4bgt12rcd13ifvqce0","pricing_plan_id":"cebpf4jnsgd1na2vs0mg"},{"bike_id":"32dce35c-7995-4965-ab2a-b2a21e7a45ce","system_id":"levelo_inurba_marseille","lat":43.23961,"lon":5.36634,"is_reserved":false,"is_disabled":false,"rental_uris":{"android":"levelo://app?vid=32dce35c-7995-4965-ab2a-b2a21e7a45ce","ios":"levelo://app?vid=32dce35c-7995-4965-ab2a-b2a21e7a45ce"},"vehicle_type_id":"4","last_reported":1753446108,"current_range_meters":9600,"station_id":"ce4bhi12rcd13ifvqfp0","pricing_plan_id":"cebpf4jnsgd1na2vs0mg"},{"bike_id":"babb16fd-dd3f-4641-aff9-7fa858b3cc6f","system_id":"levelo_inurba_marseille","lat":43.251401,"lon":5.403191,"is_reserved":false,"is_disabled":false,"rental_uris":{"android":"levelo://app?vid=babb16fd-dd3f-4641-aff9-7fa858b3cc6f","ios":"levelo://app?vid=babb16fd-dd3f-4641-aff9-7fa858b3cc6f"},"vehicle_type_id":"4","last_reported":1753446108,"current_range_meters":9600,"station_id":"ce4bhlh2rcd13ifvqgig","pricing_plan_id":"cebpf4jnsgd1na2vs0mg"},{"bike_id":"2d663086-1164-44e6-9222-9350bfdb917a","system_id":"levelo_inurba_marseille","lat":43.29245,"lon":5.38255,"is_reserved":false,"is_disabled":false,"rental_uris":{"android":"levelo://app?vid=2d663086-1164-44e6-9222-9350bfdb917a","ios":"levelo://app?vid=2d663086-1164-44e6-9222-9350bfdb917a"},"vehicle_type_id":"4","last_reported":1753446108,"current_range_meters":10000,"station_id":"","pricing_plan_id":"cebpf4jnsgd1na2vs0mg"},{"bike_id":"d763ff48-ba09-40b9-b740-2bbdc8b1f208","system_id":"levelo_inurba_marseille","lat":43.28475,"lon":5.38422,"is_reserved":false,"is_disabled":false,"rental_uris":{"android":"levelo://app?vid=d763ff48-ba09-40b9-b740-2bbdc8b1f208","ios":"levelo://app?vid=d763ff48-ba09-40b9-b740-2bbdc8b1f208"},"vehicle_type_id":"4","last_reported":1753446108,"current_range_meters":10000,"station_id":"ce4bh512rcd13ifvqe3g","pricing_plan_id":"cebpf4jnsgd1na2vs0mg"},{"bike_id":"a1676a90-aeae-4e28-8472-3e88e730a66f","system_id":"levelo_inurba_marseille","lat":43.29031,"lon":5.43969,"is_reserved":false,"is_disabled":false,"rental_uris":{"android":"levelo://app?vid=a1676a90-aeae-4e28-8472-3e88e730a66f","ios":"levelo://app?vid=a1676a90-aeae-4e28-8472-3e88e730a66f"},"vehicle_type_id":"4","last_reported":1753446108,"current_range_meters":10800,"station_id":"","pricing_plan_id":"cebpf4jnsgd1na2vs0mg"},{"bike_id":"ad58b4ab-8268-4a41-b9ad-3eab7d484388","system_id":"levelo_inurba_marseille","lat":43.27986,"lon":5.41661,"is_reserved":false,"is_disabled":false,"rental_uris":{"android":"levelo://app?vid=ad58b4ab-8268-4a41-b9ad-3eab7d484388","ios":"levelo://app?vid=ad58b4ab-8268-4a41-b9ad-3eab7d484388"},"vehicle_type_id":"4","last_reported":1753446108,"current_range_meters":10800,"station_id":"ce4bho12rcd13ifvqh1g","pricing_plan_id":"cebpf4jnsgd1na2vs0mg"},{"bike_id":"c3f011a9-77b9-4c4a-b3fa-64f6bcd52bc0","system_id":"levelo_inurba_marseille","lat":43.29293,"lon":5.3746,"is_reserved":false,"is_disabled":false,"rental_uris":{"android":"levelo://app?vid=c3f011a9-77b9-4c4a-b3fa-64f6bcd52bc0","ios":"levelo://app?vid=c3f011a9-77b9-4c4a-b3fa-64f6bcd52bc0"},"vehicle_type_id":"4","last_reported":1753446108,"current_range_meters":10800,"station_id":"ce4bgi12rcd13ifvqb70","pricing_plan_id":"cebpf4jnsgd1na2vs0mg"},{"bike_id":"d0c215a6-c5cf-4e8d-aad6-14a066581ee4","system_id":"levelo_inurba_marseille","lat":43.296923,"lon":5.366068,"is_reserved":false,"is_disabled":false,"rental_uris":{"android":"levelo://app?vid=d0c215a6-c5cf-4e8d-aad6-14a066581ee4","ios":"levelo://app?vid=d0c215a6-c5cf-4e8d-aad6-14a066581ee4"},"vehicle_type_id":"4","last_reported":1753446108,"current_range_meters":10800,"station_id":"ce4bgn12rcd13ifvqbt0","pricing_plan_id":"cebpf4jnsgd1na2vs0mg"},{"bike_id":"d31d2e38-be33-44a5-a6da-930f36e88bba","system_id":"levelo_inurba_marseille","lat":43.29719,"lon":5.37681,"is_reserved":false,"is_disabled":false,"rental_uris":{"android":"levelo://app?vid=d31d2e38-be33-44a5-a6da-930f36e88bba","ios":"levelo://app?vid=d31d2e38-be33-44a5-a6da-930f36e88bba"},"vehicle_type_id":"4","last_reported":1753446108,"current_range_meters":10800,"station_id":"ce4bgkh2rcd13ifvqbl0","pricing_plan_id":"cebpf4jnsgd1na2vs0mg"},{"bike_id":"740d1c13-3c05-480d-921d-94096a061796","system_id":"levelo_inurba_marseille","lat":43.30367,"lon":5.42494,"is_reserved":false,"is_disabled":false,"rental_uris":{"android":"levelo://app?vid=740d1c13-3c05-480d-921d-94096a061796","ios":"levelo://app?vid=740d1c13-3c05-480d-921d-94096a061796"},"vehicle_type_id":"4","last_reported":1753446108,"current_range_meters":11200,"station_id":"ce4bhoh2rcd13ifvqh6g","pricing_plan_id":"cebpf4jnsgd1na2vs0mg"},{"bike_id":"2a65692a-75b1-4c83-a160-77f9c6f14f24","system_id":"levelo_inurba_marseille","lat":43.2963,"lon":5.40601,"is_reserved":false,"is_disabled":false,"rental_uris":{"android":"levelo://app?vid=2a65692a-75b1-4c83-a160-77f9c6f14f24","ios":"levelo://app?vid=2a65692a-75b1-4c83-a160-77f9c6f14f24"},"vehicle_type_id":"4","last_reported":1753446108,"current_range_meters":11200,"station_id":"ce4bh0h2rcd13ifvqd60","pricing_plan_id":"cebpf4jnsgd1na2vs0mg"},{"bike_id":"2fbebfe0-2712-45fd-9d8d-fc37278c5131","system_id":"levelo_inurba_marseille","lat":43.30892,"lon":5.37193,"is_reserved":false,"is_disabled":false,"rental_uris":{"android":"levelo://app?vid=2fbebfe0-2712-45fd-9d8d-fc37278c5131","ios":"levelo://app?vid=2fbebfe0-2712-45fd-9d8d-fc37278c5131"},"vehicle_type_id":"4","last_reported":1753446108,"current_range_meters":10800,"station_id":"ce4bguh2rcd13ifvqckg","pricing_plan_id":"cebpf4jnsgd1na2vs0mg"},{"bike_id":"5b94eff9-2e0f-4c0e-b3f6-ab7ca2eca31a","system_id":"levelo_inurba_marseille","lat":43.27376,"lon":5.36263,"is_reserved":false,"is_disabled":false,"rental_uris":{"android":"levelo://app?vid=5b94eff9-2e0f-4c0e-b3f6-ab7ca2eca31a","ios":"levelo://app?vid=5b94eff9-2e0f-4c0e-b3f6-ab7ca2eca31a"},"vehicle_type_id":"4","last_reported":1753446108,"current_range_meters":11200,"station_id":"ce4bhbh2rcd13ifvqeo0","pricing_plan_id":"cebpf4jnsgd1na2vs0mg"},{"bike_id":"6dd68c4d-6a0d-4209-a3af-a888e6b87c99","system_id":"levelo_inurba_marseille","lat":43.297916,"lon":5.381026,"is_reserved":false,"is_disabled":false,"rental_uris":{"android":"levelo://app?vid=6dd68c4d-6a0d-4209-a3af-a888e6b87c99","ios":"levelo://app?vid=6dd68c4d-6a0d-4209-a3af-a888e6b87c99"},"vehicle_type_id":"4","last_reported":1753446108,"current_range_meters":11200,"station_id":"","pricing_plan_id":"cebpf4jnsgd1na2vs0mg"},{"bike_id":"e4e1b198-f2c7-4fd1-94aa-a20683d44ce2","system_id":"levelo_inurba_marseille","lat":43.26208,"lon":5.37439,"is_reserved":false,"is_disabled":false,"rental_uris":{"android":"levelo://app?vid=e4e1b198-f2c7-4fd1-94aa-a20683d44ce2","ios":"levelo://app?vid=e4e1b198-f2c7-4fd1-94aa-a20683d44ce2"},"vehicle_type_id":"4","last_reported":1753446108,"current_range_meters":11200,"station_id":"ce4bhgp2rcd13ifvqfc0","pricing_plan_id":"cebpf4jnsgd1na2vs0mg"},{"bike_id":"ff30a5ee-0e9d-4bfa-a593-c7beaf9df463","system_id":"levelo_inurba_marseille","lat":43.33537,"lon":5.36202,"is_reserved":false,"is_disabled":false,"rental_uris":{"android":"levelo://app?vid=ff30a5ee-0e9d-4bfa-a593-c7beaf9df463","ios":"levelo://app?vid=ff30a5ee-0e9d-4bfa-a593-c7beaf9df463"},"vehicle_type_id":"4","last_reported":1753446108,"current_range_meters":11200,"station_id":"","pricing_plan_id":"cebpf4jnsgd1na2vs0mg"},{"bike_id":"806cf976-4109-494e-87f9-ea7dd7958790","system_id":"levelo_inurba_marseille","lat":43.284174,"lon":5.349844,"is_reserved":false,"is_disabled":false,"rental_uris":{"android":"levelo://app?vid=806cf976-4109-494e-87f9-ea7dd7958790","ios":"levelo://app?vid=806cf976-4109-494e-87f9-ea7dd7958790"},"vehicle_type_id":"4","last_reported":1753446108,"current_range_meters":11600,"station_id":"ce4bhbh2rcd13ifvqepg","pricing_plan_id":"cebpf4jnsgd1na2vs0mg"},{"bike_id":"bc630041-2272-4cc0-87a3-743462585624","system_id":"levelo_inurba_marseille","lat":43.30518,"lon":5.36689,"is_reserved":false,"is_disabled":false,"rental_uris":{"android":"levelo://app?vid=bc630041-2272-4cc0-87a3-743462585624","ios":"levelo://app?vid=bc630041-2272-4cc0-87a3-743462585624"},"vehicle_type_id":"4","last_reported":1753446108,"current_range_meters":11600,"station_id":"ce4bgrp2rcd13ifvqc9g","pricing_plan_id":"cebpf4jnsgd1na2vs0mg"},{"bike_id":"f7623b57-5f88-4ef7-8535-1d8b44f90d27","system_id":"levelo_inurba_marseille","lat":43.22502,"lon":5.34772,"is_reserved":false,"is_disabled":false,"rental_uris":{"android":"levelo://app?vid=f7623b57-5f88-4ef7-8535-1d8b44f90d27","ios":"levelo://app?vid=f7623b57-5f88-4ef7-8535-1d8b44f90d27"},"vehicle_type_id":"4","last_reported":1753446108,"current_range_meters":11600,"station_id":"","pricing_plan_id":"cebpf4jnsgd1na2vs0mg"},{"bike_id":"ac7f3c2f-452c-4620-beb4-96f9c8da3434","system_id":"levelo_inurba_marseille","lat":43.306058,"lon":5.38525,"is_reserved":false,"is_disabled":false,"rental_uris":{"android":"levelo://app?vid=ac7f3c2f-452c-4620-beb4-96f9c8da3434","ios":"levelo://app?vid=ac7f3c2f-452c-4620-beb4-96f9c8da3434"},"vehicle_type_id":"4","last_reported":1753446108,"current_range_meters":11600,"station_id":"","pricing_plan_id":"cebpf4jnsgd1na2vs0mg"},{"bike_id":"b0642f06-95ff-41f6-9f4a-0722c8309d1c","system_id":"levelo_inurba_marseille","lat":43.26886,"lon":5.36871,"is_reserved":false,"is_disabled":false,"rental_uris":{"android":"levelo://app?vid=b0642f06-95ff-41f6-9f4a-0722c8309d1c","ios":"levelo://app?vid=b0642f06-95ff-41f6-9f4a-0722c8309d1c"},"vehicle_type_id":"4","last_reported":1753446108,"current_range_meters":12000,"station_id":"","pricing_plan_id":"cebpf4jnsgd1na2vs0mg"},{"bike_id":"fb12b058-4abf-4342-9dd3-18d7a88cadba","system_id":"levelo_inurba_marseille","lat":43.24052,"lon":5.3774,"is_reserved":false,"is_disabled":false,"rental_uris":{"android":"levelo://app?vid=fb12b058-4abf-4342-9dd3-18d7a88cadba","ios":"levelo://app?vid=fb12b058-4abf-4342-9dd3-18d7a88cadba"},"vehicle_type_id":"4","last_reported":1753446108,"current_range_meters":12000,"station_id":"ce4bhnp2rcd13ifvqgvg","pricing_plan_id":"cebpf4jnsgd1na2vs0mg"},{"bike_id":"6f025ee8-3ce4-48ff-afbb-05d349b1be40","system_id":"levelo_inurba_marseille","lat":43.31322,"lon":5.36771,"is_reserved":false,"is_disabled":false,"rental_uris":{"android":"levelo://app?vid=6f025ee8-3ce4-48ff-afbb-05d349b1be40","ios":"levelo://app?vid=6f025ee8-3ce4-48ff-afbb-05d349b1be40"},"vehicle_type_id":"4","last_reported":1753446108,"current_range_meters":12000,"station_id":"ce4bgr92rcd13ifvqc6g","pricing_plan_id":"cebpf4jnsgd1na2vs0mg"},{"bike_id":"554f3a30-25c7-4007-a3d5-e4f3c49c7beb","system_id":"levelo_inurba_marseille","lat":43.32371,"lon":5.36778,"is_reserved":false,"is_disabled":false,"rental_uris":{"android":"levelo://app?vid=554f3a30-25c7-4007-a3d5-e4f3c49c7beb","ios":"levelo://app?vid=554f3a30-25c7-4007-a3d5-e4f3c49c7beb"},"vehicle_type_id":"4","last_reported":1753446108,"current_range_meters":12000,"station_id":"ce4bhsh2rcd13ifvqi2g","pricing_plan_id":"cebpf4jnsgd1na2vs0mg"},{"bike_id":"7ea1d604-3f9c-4cca-b901-479f89c18dbc","system_id":"levelo_inurba_marseille","lat":43.295197,"lon":5.375092,"is_reserved":false,"is_disabled":false,"rental_uris":{"android":"levelo://app?vid=7ea1d604-3f9c-4cca-b901-479f89c18dbc","ios":"levelo://app?vid=7ea1d604-3f9c-4cca-b901-479f89c18dbc"},"vehicle_type_id":"4","last_reported":1753446108,"current_range_meters":8400,"station_id":"ce4bho12rcd13ifvqh1g","pricing_plan_id":"cebpf4jnsgd1na2vs0mg"},{"bike_id":"c7c85d55-4608-45bc-afb8-19b0ccb8f1e0","system_id":"levelo_inurba_marseille","lat":43.26777,"lon":5.39415,"is_reserved":false,"is_disabled":false,"rental_uris":{"android":"levelo://app?vid=c7c85d55-4608-45bc-afb8-19b0ccb8f1e0","ios":"levelo://app?vid=c7c85d55-4608-45bc-afb8-19b0ccb8f1e0"},"vehicle_type_id":"4","last_reported":1753446108,"current_range_meters":12000,"station_id":"ce4bhh12rcd13ifvqfg0","pricing_plan_id":"cebpf4jnsgd1na2vs0mg"},{"bike_id":"07b4dc1a-513a-4eb8-9eb4-6bd93945ec47","system_id":"levelo_inurba_marseille","lat":43.24803,"lon":5.37463,"is_reserved":false,"is_disabled":false,"rental_uris":{"android":"levelo://app?vid=07b4dc1a-513a-4eb8-9eb4-6bd93945ec47","ios":"levelo://app?vid=07b4dc1a-513a-4eb8-9eb4-6bd93945ec47"},"vehicle_type_id":"4","last_reported":1753446108,"current_range_meters":12000,"station_id":"ce4bhgh2rcd13ifvqfb0","pricing_plan_id":"cebpf4jnsgd1na2vs0mg"},{"bike_id":"c460b65b-ed42-49df-9e6e-65621394f6d7","system_id":"levelo_inurba_marseille","lat":43.30429,"lon":5.39738,"is_reserved":false,"is_disabled":false,"rental_uris":{"android":"levelo://app?vid=c460b65b-ed42-49df-9e6e-65621394f6d7","ios":"levelo://app?vid=c460b65b-ed42-49df-9e6e-65621394f6d7"},"vehicle_type_id":"4","last_reported":1753446108,"current_range_meters":12000,"station_id":"ce4bh092rcd13ifvqd20","pricing_plan_id":"cebpf4jnsgd1na2vs0mg"},{"bike_id":"4d63f320-133b-4d6a-a351-94063e36dd6a","system_id":"levelo_inurba_marseille","lat":43.30544,"lon":5.36709,"is_reserved":false,"is_disabled":false,"rental_uris":{"android":"levelo://app?vid=4d63f320-133b-4d6a-a351-94063e36dd6a","ios":"levelo://app?vid=4d63f320-133b-4d6a-a351-94063e36dd6a"},"vehicle_type_id":"4","last_reported":1753446108,"current_range_meters":12000,"station_id":"ce4bgrp2rcd13ifvqc9g","pricing_plan_id":"cebpf4jnsgd1na2vs0mg"},{"bike_id":"2fe871f2-92ed-44ca-9ba1-33133eb9f0fd","system_id":"levelo_inurba_marseille","lat":43.29676,"lon":5.37325,"is_reserved":false,"is_disabled":false,"rental_uris":{"android":"levelo://app?vid=2fe871f2-92ed-44ca-9ba1-33133eb9f0fd","ios":"levelo://app?vid=2fe871f2-92ed-44ca-9ba1-33133eb9f0fd"},"vehicle_type_id":"4","last_reported":1753446108,"current_range_meters":12400,"station_id":"ce4bgk12rcd13ifvqbj0","pricing_plan_id":"cebpf4jnsgd1na2vs0mg"},{"bike_id":"1c31f24b-2b9e-48c3-b103-bffd32b92420","system_id":"levelo_inurba_marseille","lat":43.33507,"lon":5.40821,"is_reserved":false,"is_disabled":false,"rental_uris":{"android":"levelo://app?vid=1c31f24b-2b9e-48c3-b103-bffd32b92420","ios":"levelo://app?vid=1c31f24b-2b9e-48c3-b103-bffd32b92420"},"vehicle_type_id":"4","last_reported":1753446108,"current_range_meters":12400,"station_id":"","pricing_plan_id":"cebpf4jnsgd1na2vs0mg"},{"bike_id":"a12459fb-772e-4b74-9514-784297907c96","system_id":"levelo_inurba_marseille","lat":43.270691,"lon":5.422741,"is_reserved":false,"is_disabled":false,"rental_uris":{"android":"levelo://app?vid=a12459fb-772e-4b74-9514-784297907c96","ios":"levelo://app?vid=a12459fb-772e-4b74-9514-784297907c96"},"vehicle_type_id":"4","last_reported":1753446108,"current_range_meters":12400,"station_id":"ce4bhk92rcd13ifvqgb0","pricing_plan_id":"cebpf4jnsgd1na2vs0mg"},{"bike_id":"35ee41ab-1155-4c5d-a3ff-d1e05b86be8c","system_id":"levelo_inurba_marseille","lat":43.313035,"lon":5.431475,"is_reserved":false,"is_disabled":false,"rental_uris":{"android":"levelo://app?vid=35ee41ab-1155-4c5d-a3ff-d1e05b86be8c","ios":"levelo://app?vid=35ee41ab-1155-4c5d-a3ff-d1e05b86be8c"},"vehicle_type_id":"4","last_reported":1753446108,"current_range_meters":12400,"station_id":"","pricing_plan_id":"cebpf4jnsgd1na2vs0mg"},{"bike_id":"4fffd713-5d76-4194-a77f-14316058c5a2","system_id":"levelo_inurba_marseille","lat":43.21743,"lon":5.34603,"is_reserved":false,"is_disabled":false,"rental_uris":{"android":"levelo://app?vid=4fffd713-5d76-4194-a77f-14316058c5a2","ios":"levelo://app?vid=4fffd713-5d76-4194-a77f-14316058c5a2"},"vehicle_type_id":"4","last_reported":1753446108,"current_range_meters":12400,"station_id":"st_cvj6r9ubvosntc0bgbag","pricing_plan_id":"cebpf4jnsgd1na2vs0mg"},{"bike_id":"9e805a49-afd9-42f1-96aa-930fc4ba3ae2","system_id":"levelo_inurba_marseille","lat":43.27663,"lon":5.38891,"is_reserved":false,"is_disabled":false,"rental_uris":{"android":"levelo://app?vid=9e805a49-afd9-42f1-96aa-930fc4ba3ae2","ios":"levelo://app?vid=9e805a49-afd9-42f1-96aa-930fc4ba3ae2"},"vehicle_type_id":"4","last_reported":1753446108,"current_range_meters":12400,"station_id":"ce4bhi12rcd13ifvqfo0","pricing_plan_id":"cebpf4jnsgd1na2vs0mg"},{"bike_id":"fc8ce755-9ac4-4fdd-91f6-1828b1e8e467","system_id":"levelo_inurba_marseille","lat":43.2991,"lon":5.38137,"is_reserved":false,"is_disabled":false,"rental_uris":{"android":"levelo://app?vid=fc8ce755-9ac4-4fdd-91f6-1828b1e8e467","ios":"levelo://app?vid=fc8ce755-9ac4-4fdd-91f6-1828b1e8e467"},"vehicle_type_id":"4","last_reported":1753446108,"current_range_meters":12400,"station_id":"ce4bgj12rcd13ifvqbc0","pricing_plan_id":"cebpf4jnsgd1na2vs0mg"},{"bike_id":"9ff32a1e-620f-4201-9fff-e3ad947340d8","system_id":"levelo_inurba_marseille","lat":43.29914,"lon":5.381437,"is_reserved":false,"is_disabled":false,"rental_uris":{"android":"levelo://app?vid=9ff32a1e-620f-4201-9fff-e3ad947340d8","ios":"levelo://app?vid=9ff32a1e-620f-4201-9fff-e3ad947340d8"},"vehicle_type_id":"4","last_reported":1753446108,"current_range_meters":12400,"station_id":"ce4bgj12rcd13ifvqbc0","pricing_plan_id":"cebpf4jnsgd1na2vs0mg"},{"bike_id":"fd49b862-7002-4cf2-87c4-05e8a9b51427","system_id":"levelo_inurba_marseille","lat":43.24167,"lon":5.3639,"is_reserved":false,"is_disabled":false,"rental_uris":{"android":"levelo://app?vid=fd49b862-7002-4cf2-87c4-05e8a9b51427","ios":"levelo://app?vid=fd49b862-7002-4cf2-87c4-05e8a9b51427"},"vehicle_type_id":"4","last_reported":1753446108,"current_range_meters":12800,"station_id":"cpo36qri1sfpv3e86is0","pricing_plan_id":"cebpf4jnsgd1na2vs0mg"},{"bike_id":"c4c822ad-8e0e-4d74-9ddf-179aadcf0cbd","system_id":"levelo_inurba_marseille","lat":43.284127,"lon":5.349903,"is_reserved":false,"is_disabled":false,"rental_uris":{"android":"levelo://app?vid=c4c822ad-8e0e-4d74-9ddf-179aadcf0cbd","ios":"levelo://app?vid=c4c822ad-8e0e-4d74-9ddf-179aadcf0cbd"},"vehicle_type_id":"4","last_reported":1753446108,"current_range_meters":12800,"station_id":"ce4bhbh2rcd13ifvqepg","pricing_plan_id":"cebpf4jnsgd1na2vs0mg"},{"bike_id":"c8ed02cd-0e54-4dfd-a76d-e4f584fff91b","system_id":"levelo_inurba_marseille","lat":43.30154,"lon":5.381,"is_reserved":false,"is_disabled":false,"rental_uris":{"android":"levelo://app?vid=c8ed02cd-0e54-4dfd-a76d-e4f584fff91b","ios":"levelo://app?vid=c8ed02cd-0e54-4dfd-a76d-e4f584fff91b"},"vehicle_type_id":"4","last_reported":1753446108,"current_range_meters":13600,"station_id":"ce4bgjp2rcd13ifvqbh0","pricing_plan_id":"cebpf4jnsgd1na2vs0mg"},{"bike_id":"d546a976-e559-4001-8b76-0cf6cd3e518d","system_id":"levelo_inurba_marseille","lat":43.305501,"lon":5.367404,"is_reserved":false,"is_disabled":false,"rental_uris":{"android":"levelo://app?vid=d546a976-e559-4001-8b76-0cf6cd3e518d","ios":"levelo://app?vid=d546a976-e559-4001-8b76-0cf6cd3e518d"},"vehicle_type_id":"4","last_reported":1753446108,"current_range_meters":13600,"station_id":"ce4bgrp2rcd13ifvqc9g","pricing_plan_id":"cebpf4jnsgd1na2vs0mg"},{"bike_id":"00635749-65df-46f0-a6bd-c1ea9f227918","system_id":"levelo_inurba_marseille","lat":43.31734,"lon":5.40428,"is_reserved":false,"is_disabled":false,"rental_uris":{"android":"levelo://app?vid=00635749-65df-46f0-a6bd-c1ea9f227918","ios":"levelo://app?vid=00635749-65df-46f0-a6bd-c1ea9f227918"},"vehicle_type_id":"4","last_reported":1753446108,"current_range_meters":13600,"station_id":"ce4bh012rcd13ifvqd00","pricing_plan_id":"cebpf4jnsgd1na2vs0mg"},{"bike_id":"c017b4de-074c-46ed-bc0a-5b7912813135","system_id":"levelo_inurba_marseille","lat":43.26077,"lon":5.37298,"is_reserved":false,"is_disabled":false,"rental_uris":{"android":"levelo://app?vid=c017b4de-074c-46ed-bc0a-5b7912813135","ios":"levelo://app?vid=c017b4de-074c-46ed-bc0a-5b7912813135"},"vehicle_type_id":"4","last_reported":1753446108,"current_range_meters":13600,"station_id":"","pricing_plan_id":"cebpf4jnsgd1na2vs0mg"},{"bike_id":"a453f505-44d4-4522-b6b8-527c0ce84e16","system_id":"levelo_inurba_marseille","lat":43.29969,"lon":5.37176,"is_reserved":false,"is_disabled":false,"rental_uris":{"android":"levelo://app?vid=a453f505-44d4-4522-b6b8-527c0ce84e16","ios":"levelo://app?vid=a453f505-44d4-4522-b6b8-527c0ce84e16"},"vehicle_type_id":"4","last_reported":1753446108,"current_range_meters":12800,"station_id":"ce4bgr92rcd13ifvqc7g","pricing_plan_id":"cebpf4jnsgd1na2vs0mg"},{"bike_id":"0e6f0930-33ba-4d1c-a2fc-e9a24827484a","system_id":"levelo_inurba_marseille","lat":43.29621,"lon":5.37177,"is_reserved":false,"is_disabled":false,"rental_uris":{"android":"levelo://app?vid=0e6f0930-33ba-4d1c-a2fc-e9a24827484a","ios":"levelo://app?vid=0e6f0930-33ba-4d1c-a2fc-e9a24827484a"},"vehicle_type_id":"4","last_reported":1753446108,"current_range_meters":14000,"station_id":"ce4bgnh2rcd13ifvqc0g","pricing_plan_id":"cebpf4jnsgd1na2vs0mg"},{"bike_id":"078febbd-6d49-4abf-8b46-d33f87f8da46","system_id":"levelo_inurba_marseille","lat":43.25445,"lon":5.37992,"is_reserved":false,"is_disabled":false,"rental_uris":{"android":"levelo://app?vid=078febbd-6d49-4abf-8b46-d33f87f8da46","ios":"levelo://app?vid=078febbd-6d49-4abf-8b46-d33f87f8da46"},"vehicle_type_id":"4","last_reported":1753446108,"current_range_meters":14000,"station_id":"","pricing_plan_id":"cebpf4jnsgd1na2vs0mg"},{"bike_id":"71258c65-3dee-4a65-a037-dcda1783505a","system_id":"levelo_inurba_marseille","lat":43.31475,"lon":5.36937,"is_reserved":false,"is_disabled":false,"rental_uris":{"android":"levelo://app?vid=71258c65-3dee-4a65-a037-dcda1783505a","ios":"levelo://app?vid=71258c65-3dee-4a65-a037-dcda1783505a"},"vehicle_type_id":"4","last_reported":1753446108,"current_range_meters":14000,"station_id":"","pricing_plan_id":"cebpf4jnsgd1na2vs0mg"},{"bike_id":"be4bd258-669b-4fab-b2a0-b19162d3f474","system_id":"levelo_inurba_marseille","lat":43.23058,"lon":5.3549,"is_reserved":false,"is_disabled":false,"rental_uris":{"android":"levelo://app?vid=be4bd258-669b-4fab-b2a0-b19162d3f474","ios":"levelo://app?vid=be4bd258-669b-4fab-b2a0-b19162d3f474"},"vehicle_type_id":"4","last_reported":1753446108,"current_range_meters":14000,"station_id":"cpo3342slgdg3j2ifvpg","pricing_plan_id":"cebpf4jnsgd1na2vs0mg"},{"bike_id":"3185ef6d-2ce7-45e8-9b8b-b88f53239af4","system_id":"levelo_inurba_marseille","lat":43.30908,"lon":5.36852,"is_reserved":false,"is_disabled":false,"rental_uris":{"android":"levelo://app?vid=3185ef6d-2ce7-45e8-9b8b-b88f53239af4","ios":"levelo://app?vid=3185ef6d-2ce7-45e8-9b8b-b88f53239af4"},"vehicle_type_id":"4","last_reported":1753446108,"current_range_meters":14000,"station_id":"ce4bgn92rcd13ifvqbvg","pricing_plan_id":"cebpf4jnsgd1na2vs0mg"},{"bike_id":"12f1ccbe-caad-447a-81e6-68f78b4f48b3","system_id":"levelo_inurba_marseille","lat":43.286234,"lon":5.351136,"is_reserved":false,"is_disabled":false,"rental_uris":{"android":"levelo://app?vid=12f1ccbe-caad-447a-81e6-68f78b4f48b3","ios":"levelo://app?vid=12f1ccbe-caad-447a-81e6-68f78b4f48b3"},"vehicle_type_id":"4","last_reported":1753446108,"current_range_meters":14400,"station_id":"ce4bhch2rcd13ifvqeug","pricing_plan_id":"cebpf4jnsgd1na2vs0mg"},{"bike_id":"525d6a51-9ad2-4de9-af22-2550dc72f102","system_id":"levelo_inurba_marseille","lat":43.304692,"lon":5.379363,"is_reserved":false,"is_disabled":false,"rental_uris":{"android":"levelo://app?vid=525d6a51-9ad2-4de9-af22-2550dc72f102","ios":"levelo://app?vid=525d6a51-9ad2-4de9-af22-2550dc72f102"},"vehicle_type_id":"4","last_reported":1753446108,"current_range_meters":14000,"station_id":"ce4bgup2rcd13ifvqcn0","pricing_plan_id":"cebpf4jnsgd1na2vs0mg"},{"bike_id":"591fb768-7e78-4b54-88b5-e73a5af76b19","system_id":"levelo_inurba_marseille","lat":43.22922,"lon":5.35365,"is_reserved":false,"is_disabled":false,"rental_uris":{"android":"levelo://app?vid=591fb768-7e78-4b54-88b5-e73a5af76b19","ios":"levelo://app?vid=591fb768-7e78-4b54-88b5-e73a5af76b19"},"vehicle_type_id":"4","last_reported":1753446108,"current_range_meters":14400,"station_id":"cpo3532slgdg3j2ikp40","pricing_plan_id":"cebpf4jnsgd1na2vs0mg"},{"bike_id":"afa18de7-db28-4337-a657-4fb9bac2523b","system_id":"levelo_inurba_marseille","lat":43.29626,"lon":5.37721,"is_reserved":false,"is_disabled":false,"rental_uris":{"android":"levelo://app?vid=afa18de7-db28-4337-a657-4fb9bac2523b","ios":"levelo://app?vid=afa18de7-db28-4337-a657-4fb9bac2523b"},"vehicle_type_id":"4","last_reported":1753446108,"current_range_meters":14400,"station_id":"ce4bgi92rcd13ifvqb90","pricing_plan_id":"cebpf4jnsgd1na2vs0mg"},{"bike_id":"b73df31c-d6a5-4eac-8e99-c8b311b6848f","system_id":"levelo_inurba_marseille","lat":43.28694,"lon":5.37388,"is_reserved":false,"is_disabled":false,"rental_uris":{"android":"levelo://app?vid=b73df31c-d6a5-4eac-8e99-c8b311b6848f","ios":"levelo://app?vid=b73df31c-d6a5-4eac-8e99-c8b311b6848f"},"vehicle_type_id":"4","last_reported":1753446108,"current_range_meters":14800,"station_id":"ce4bh3p2rcd13ifvqdq0","pricing_plan_id":"cebpf4jnsgd1na2vs0mg"},{"bike_id":"3905a451-3ca5-4c8d-992c-e76d7da42101","system_id":"levelo_inurba_marseille","lat":43.28264,"lon":5.35075,"is_reserved":false,"is_disabled":false,"rental_uris":{"android":"levelo://app?vid=3905a451-3ca5-4c8d-992c-e76d7da42101","ios":"levelo://app?vid=3905a451-3ca5-4c8d-992c-e76d7da42101"},"vehicle_type_id":"4","last_reported":1753446108,"current_range_meters":14800,"station_id":"ce4bhbp2rcd13ifvqerg","pricing_plan_id":"cebpf4jnsgd1na2vs0mg"},{"bike_id":"235ab99e-3f21-41bb-b324-995acf4654c3","system_id":"levelo_inurba_marseille","lat":43.27175,"lon":5.40996,"is_reserved":false,"is_disabled":false,"rental_uris":{"android":"levelo://app?vid=235ab99e-3f21-41bb-b324-995acf4654c3","ios":"levelo://app?vid=235ab99e-3f21-41bb-b324-995acf4654c3"},"vehicle_type_id":"4","last_reported":1753446108,"current_range_meters":14800,"station_id":"ce4bhl12rcd13ifvqgf0","pricing_plan_id":"cebpf4jnsgd1na2vs0mg"},{"bike_id":"ccca3042-9358-40fc-ac03-e327e01c225f","system_id":"levelo_inurba_marseille","lat":43.23296,"lon":5.36113,"is_reserved":false,"is_disabled":false,"rental_uris":{"android":"levelo://app?vid=ccca3042-9358-40fc-ac03-e327e01c225f","ios":"levelo://app?vid=ccca3042-9358-40fc-ac03-e327e01c225f"},"vehicle_type_id":"4","last_reported":1753446108,"current_range_meters":14800,"station_id":"","pricing_plan_id":"cebpf4jnsgd1na2vs0mg"},{"bike_id":"dd4669b8-7a1e-455c-921c-cef6ea4213f0","system_id":"levelo_inurba_marseille","lat":43.29741,"lon":5.37632,"is_reserved":false,"is_disabled":false,"rental_uris":{"android":"levelo://app?vid=dd4669b8-7a1e-455c-921c-cef6ea4213f0","ios":"levelo://app?vid=dd4669b8-7a1e-455c-921c-cef6ea4213f0"},"vehicle_type_id":"4","last_reported":1753446108,"current_range_meters":14800,"station_id":"","pricing_plan_id":"cebpf4jnsgd1na2vs0mg"},{"bike_id":"36abd050-8e58-4a15-8275-bcebc937ea28","system_id":"levelo_inurba_marseille","lat":43.32336,"lon":5.40619,"is_reserved":false,"is_disabled":false,"rental_uris":{"android":"levelo://app?vid=36abd050-8e58-4a15-8275-bcebc937ea28","ios":"levelo://app?vid=36abd050-8e58-4a15-8275-bcebc937ea28"},"vehicle_type_id":"4","last_reported":1753446108,"current_range_meters":15200,"station_id":"ce4bhq92rcd13ifvqhjg","pricing_plan_id":"cebpf4jnsgd1na2vs0mg"},{"bike_id":"3eca17e3-dd0e-41cc-9faa-99da2d2049e3","system_id":"levelo_inurba_marseille","lat":43.33611,"lon":5.41013,"is_reserved":false,"is_disabled":false,"rental_uris":{"android":"levelo://app?vid=3eca17e3-dd0e-41cc-9faa-99da2d2049e3","ios":"levelo://app?vid=3eca17e3-dd0e-41cc-9faa-99da2d2049e3"},"vehicle_type_id":"4","last_reported":1753446108,"current_range_meters":15200,"station_id":"ce4bhqh2rcd13ifvqhmg","pricing_plan_id":"cebpf4jnsgd1na2vs0mg"},{"bike_id":"e4dbeadf-3753-46d1-8f03-d27dbdb2b615","system_id":"levelo_inurba_marseille","lat":43.24162,"lon":5.36388,"is_reserved":false,"is_disabled":false,"rental_uris":{"android":"levelo://app?vid=e4dbeadf-3753-46d1-8f03-d27dbdb2b615","ios":"levelo://app?vid=e4dbeadf-3753-46d1-8f03-d27dbdb2b615"},"vehicle_type_id":"4","last_reported":1753446108,"current_range_meters":15200,"station_id":"cpo36qri1sfpv3e86is0","pricing_plan_id":"cebpf4jnsgd1na2vs0mg"},{"bike_id":"ce76957b-3790-47c8-a2a5-d6fa0b943630","system_id":"levelo_inurba_marseille","lat":43.289285,"lon":5.36642,"is_reserved":false,"is_disabled":false,"rental_uris":{"android":"levelo://app?vid=ce76957b-3790-47c8-a2a5-d6fa0b943630","ios":"levelo://app?vid=ce76957b-3790-47c8-a2a5-d6fa0b943630"},"vehicle_type_id":"4","last_reported":1753446108,"current_range_meters":16000,"station_id":"ce4bhap2rcd13ifvqek0","pricing_plan_id":"cebpf4jnsgd1na2vs0mg"},{"bike_id":"22abd279-ac3d-4b7c-8221-b68bbacaab0e","system_id":"levelo_inurba_marseille","lat":43.26212,"lon":5.37421,"is_reserved":false,"is_disabled":false,"rental_uris":{"android":"levelo://app?vid=22abd279-ac3d-4b7c-8221-b68bbacaab0e","ios":"levelo://app?vid=22abd279-ac3d-4b7c-8221-b68bbacaab0e"},"vehicle_type_id":"4","last_reported":1753446108,"current_range_meters":16000,"station_id":"ce4bhgp2rcd13ifvqfc0","pricing_plan_id":"cebpf4jnsgd1na2vs0mg"},{"bike_id":"998111db-eeca-4c77-9e0c-e081b470aa34","system_id":"levelo_inurba_marseille","lat":43.27802,"lon":5.40756,"is_reserved":false,"is_disabled":false,"rental_uris":{"android":"levelo://app?vid=998111db-eeca-4c77-9e0c-e081b470aa34","ios":"levelo://app?vid=998111db-eeca-4c77-9e0c-e081b470aa34"},"vehicle_type_id":"4","last_reported":1753446108,"current_range_meters":16000,"station_id":"ce4bhnh2rcd13ifvqgtg","pricing_plan_id":"cebpf4jnsgd1na2vs0mg"},{"bike_id":"d6b834d9-5f4f-445c-9a8d-5ea38c349287","system_id":"levelo_inurba_marseille","lat":43.22943,"lon":5.35365,"is_reserved":false,"is_disabled":false,"rental_uris":{"android":"levelo://app?vid=d6b834d9-5f4f-445c-9a8d-5ea38c349287","ios":"levelo://app?vid=d6b834d9-5f4f-445c-9a8d-5ea38c349287"},"vehicle_type_id":"4","last_reported":1753446108,"current_range_meters":16000,"station_id":"cpo3532slgdg3j2ikp40","pricing_plan_id":"cebpf4jnsgd1na2vs0mg"},{"bike_id":"fb7e1105-0a1d-4aaf-b5e6-7f8ead08f8d1","system_id":"levelo_inurba_marseille","lat":43.28425,"lon":5.39205,"is_reserved":false,"is_disabled":false,"rental_uris":{"android":"levelo://app?vid=fb7e1105-0a1d-4aaf-b5e6-7f8ead08f8d1","ios":"levelo://app?vid=fb7e1105-0a1d-4aaf-b5e6-7f8ead08f8d1"},"vehicle_type_id":"4","last_reported":1753446108,"current_range_meters":16000,"station_id":"ce4bhoh2rcd13ifvqh5g","pricing_plan_id":"cebpf4jnsgd1na2vs0mg"},{"bike_id":"f3874552-67ae-42b2-8118-9593cfbe8355","system_id":"levelo_inurba_marseille","lat":43.2417,"lon":5.36403,"is_reserved":false,"is_disabled":false,"rental_uris":{"android":"levelo://app?vid=f3874552-67ae-42b2-8118-9593cfbe8355","ios":"levelo://app?vid=f3874552-67ae-42b2-8118-9593cfbe8355"},"vehicle_type_id":"4","last_reported":1753446108,"current_range_meters":16400,"station_id":"cpo36qri1sfpv3e86is0","pricing_plan_id":"cebpf4jnsgd1na2vs0mg"},{"bike_id":"22dca147-1260-44d8-822d-d9d1d50cce31","system_id":"levelo_inurba_marseille","lat":43.27473,"lon":5.396,"is_reserved":false,"is_disabled":false,"rental_uris":{"android":"levelo://app?vid=22dca147-1260-44d8-822d-d9d1d50cce31","ios":"levelo://app?vid=22dca147-1260-44d8-822d-d9d1d50cce31"},"vehicle_type_id":"4","last_reported":1753446108,"current_range_meters":16400,"station_id":"","pricing_plan_id":"cebpf4jnsgd1na2vs0mg"},{"bike_id":"44b406b4-2cb6-4c28-bd48-185bd835f4e2","system_id":"levelo_inurba_marseille","lat":43.21424,"lon":5.34916,"is_reserved":false,"is_disabled":false,"rental_uris":{"android":"levelo://app?vid=44b406b4-2cb6-4c28-bd48-185bd835f4e2","ios":"levelo://app?vid=44b406b4-2cb6-4c28-bd48-185bd835f4e2"},"vehicle_type_id":"4","last_reported":1753446108,"current_range_meters":16400,"station_id":"","pricing_plan_id":"cebpf4jnsgd1na2vs0mg"},{"bike_id":"9575837e-b363-4708-9b96-c153c5fc2eb1","system_id":"levelo_inurba_marseille","lat":43.32352,"lon":5.36761,"is_reserved":false,"is_disabled":false,"rental_uris":{"android":"levelo://app?vid=9575837e-b363-4708-9b96-c153c5fc2eb1","ios":"levelo://app?vid=9575837e-b363-4708-9b96-c153c5fc2eb1"},"vehicle_type_id":"4","last_reported":1753446108,"current_range_meters":16400,"station_id":"ce4bhsh2rcd13ifvqi2g","pricing_plan_id":"cebpf4jnsgd1na2vs0mg"},{"bike_id":"21a22bc7-65fe-4b97-a005-517b211a0b98","system_id":"levelo_inurba_marseille","lat":43.23052,"lon":5.354955,"is_reserved":false,"is_disabled":false,"rental_uris":{"android":"levelo://app?vid=21a22bc7-65fe-4b97-a005-517b211a0b98","ios":"levelo://app?vid=21a22bc7-65fe-4b97-a005-517b211a0b98"},"vehicle_type_id":"4","last_reported":1753446108,"current_range_meters":16400,"station_id":"cpo3342slgdg3j2ifvpg","pricing_plan_id":"cebpf4jnsgd1na2vs0mg"},{"bike_id":"605a26a7-be30-47d9-81e5-e981767b1778","system_id":"levelo_inurba_marseille","lat":43.26965,"lon":5.38641,"is_reserved":false,"is_disabled":false,"rental_uris":{"android":"levelo://app?vid=605a26a7-be30-47d9-81e5-e981767b1778","ios":"levelo://app?vid=605a26a7-be30-47d9-81e5-e981767b1778"},"vehicle_type_id":"4","last_reported":1753446108,"current_range_meters":16400,"station_id":"ce4bhh92rcd13ifvqfh0","pricing_plan_id":"cebpf4jnsgd1na2vs0mg"},{"bike_id":"c54ff59d-c443-4efe-88ce-ec43b99b22b7","system_id":"levelo_inurba_marseille","lat":43.22927,"lon":5.35374,"is_reserved":false,"is_disabled":false,"rental_uris":{"android":"levelo://app?vid=c54ff59d-c443-4efe-88ce-ec43b99b22b7","ios":"levelo://app?vid=c54ff59d-c443-4efe-88ce-ec43b99b22b7"},"vehicle_type_id":"4","last_reported":1753446108,"current_range_meters":16400,"station_id":"cpo3532slgdg3j2ikp40","pricing_plan_id":"cebpf4jnsgd1na2vs0mg"},{"bike_id":"4d72a855-a15c-4b80-87db-d5d3b8786584","system_id":"levelo_inurba_marseille","lat":43.28617,"lon":5.35105,"is_reserved":false,"is_disabled":false,"rental_uris":{"android":"levelo://app?vid=4d72a855-a15c-4b80-87db-d5d3b8786584","ios":"levelo://app?vid=4d72a855-a15c-4b80-87db-d5d3b8786584"},"vehicle_type_id":"4","last_reported":1753446108,"current_range_meters":16800,"station_id":"ce4bhch2rcd13ifvqeug","pricing_plan_id":"cebpf4jnsgd1na2vs0mg"},{"bike_id":"9d03fff0-c1f0-45b6-903f-959fdb58c3ec","system_id":"levelo_inurba_marseille","lat":43.29974,"lon":5.38493,"is_reserved":false,"is_disabled":false,"rental_uris":{"android":"levelo://app?vid=9d03fff0-c1f0-45b6-903f-959fdb58c3ec","ios":"levelo://app?vid=9d03fff0-c1f0-45b6-903f-959fdb58c3ec"},"vehicle_type_id":"4","last_reported":1753446108,"current_range_meters":16800,"station_id":"ce4bgj92rcd13ifvqbd0","pricing_plan_id":"cebpf4jnsgd1na2vs0mg"},{"bike_id":"351557f1-0566-4a9d-ac25-ad86ec7490b5","system_id":"levelo_inurba_marseille","lat":43.33755,"lon":5.37439,"is_reserved":false,"is_disabled":false,"rental_uris":{"android":"levelo://app?vid=351557f1-0566-4a9d-ac25-ad86ec7490b5","ios":"levelo://app?vid=351557f1-0566-4a9d-ac25-ad86ec7490b5"},"vehicle_type_id":"4","last_reported":1753446108,"current_range_meters":16800,"station_id":"","pricing_plan_id":"cebpf4jnsgd1na2vs0mg"},{"bike_id":"6ed02b13-8cda-4507-b8d9-e2393156eb69","system_id":"levelo_inurba_marseille","lat":43.300803,"lon":5.386917,"is_reserved":false,"is_disabled":false,"rental_uris":{"android":"levelo://app?vid=6ed02b13-8cda-4507-b8d9-e2393156eb69","ios":"levelo://app?vid=6ed02b13-8cda-4507-b8d9-e2393156eb69"},"vehicle_type_id":"4","last_reported":1753446108,"current_range_meters":16800,"station_id":"","pricing_plan_id":"cebpf4jnsgd1na2vs0mg"},{"bike_id":"ede3165f-102f-494b-b40e-a787428d58aa","system_id":"levelo_inurba_marseille","lat":43.270859,"lon":5.392085,"is_reserved":false,"is_disabled":false,"rental_uris":{"android":"levelo://app?vid=ede3165f-102f-494b-b40e-a787428d58aa","ios":"levelo://app?vid=ede3165f-102f-494b-b40e-a787428d58aa"},"vehicle_type_id":"4","last_reported":1753446108,"current_range_meters":16800,"station_id":"ce4bhhp2rcd13ifvqfm0","pricing_plan_id":"cebpf4jnsgd1na2vs0mg"},{"bike_id":"23bf5a22-c660-4077-9986-2d1ddad1f051","system_id":"levelo_inurba_marseille","lat":43.28416,"lon":5.37514,"is_reserved":false,"is_disabled":false,"rental_uris":{"android":"levelo://app?vid=23bf5a22-c660-4077-9986-2d1ddad1f051","ios":"levelo://app?vid=23bf5a22-c660-4077-9986-2d1ddad1f051"},"vehicle_type_id":"4","last_reported":1753446108,"current_range_meters":16800,"station_id":"ce4bh412rcd13ifvqds0","pricing_plan_id":"cebpf4jnsgd1na2vs0mg"},{"bike_id":"d42fd1d9-8599-4423-8a25-1889aaf7e28d","system_id":"levelo_inurba_marseille","lat":43.2292,"lon":5.35386,"is_reserved":false,"is_disabled":false,"rental_uris":{"android":"levelo://app?vid=d42fd1d9-8599-4423-8a25-1889aaf7e28d","ios":"levelo://app?vid=d42fd1d9-8599-4423-8a25-1889aaf7e28d"},"vehicle_type_id":"4","last_reported":1753446108,"current_range_meters":16800,"station_id":"cpo3532slgdg3j2ikp40","pricing_plan_id":"cebpf4jnsgd1na2vs0mg"},{"bike_id":"36f324cb-a9ad-46b7-afb0-26f814934e1f","system_id":"levelo_inurba_marseille","lat":43.26219,"lon":5.3744,"is_reserved":false,"is_disabled":false,"rental_uris":{"android":"levelo://app?vid=36f324cb-a9ad-46b7-afb0-26f814934e1f","ios":"levelo://app?vid=36f324cb-a9ad-46b7-afb0-26f814934e1f"},"vehicle_type_id":"4","last_reported":1753446108,"current_range_meters":16800,"station_id":"ce4bhgp2rcd13ifvqfc0","pricing_plan_id":"cebpf4jnsgd1na2vs0mg"},{"bike_id":"dc33a292-13ef-434d-af06-632dc0059b3a","system_id":"levelo_inurba_marseille","lat":43.27318,"lon":5.39084,"is_reserved":false,"is_disabled":false,"rental_uris":{"android":"levelo://app?vid=dc33a292-13ef-434d-af06-632dc0059b3a","ios":"levelo://app?vid=dc33a292-13ef-434d-af06-632dc0059b3a"},"vehicle_type_id":"4","last_reported":1753446108,"current_range_meters":16800,"station_id":"ce4bhgp2rcd13ifvqfe0","pricing_plan_id":"cebpf4jnsgd1na2vs0mg"},{"bike_id":"8f62dcd6-535c-4ee5-933a-a80ecb1138ab","system_id":"levelo_inurba_marseille","lat":43.27558,"lon":5.38442,"is_reserved":false,"is_disabled":false,"rental_uris":{"android":"levelo://app?vid=8f62dcd6-535c-4ee5-933a-a80ecb1138ab","ios":"levelo://app?vid=8f62dcd6-535c-4ee5-933a-a80ecb1138ab"},"vehicle_type_id":"4","last_reported":1753446108,"current_range_meters":16800,"station_id":"ce4bhh92rcd13ifvqfi0","pricing_plan_id":"cebpf4jnsgd1na2vs0mg"},{"bike_id":"2f7aa8ee-b17f-447e-ac1c-06bff5e89da8","system_id":"levelo_inurba_marseille","lat":43.299,"lon":5.4366,"is_reserved":false,"is_disabled":false,"rental_uris":{"android":"levelo://app?vid=2f7aa8ee-b17f-447e-ac1c-06bff5e89da8","ios":"levelo://app?vid=2f7aa8ee-b17f-447e-ac1c-06bff5e89da8"},"vehicle_type_id":"4","last_reported":1753446108,"current_range_meters":16800,"station_id":"ce4bhpp2rcd13ifvqhfg","pricing_plan_id":"cebpf4jnsgd1na2vs0mg"},{"bike_id":"4150f367-c77b-49d6-9460-8034f7438f5c","system_id":"levelo_inurba_marseille","lat":43.262054,"lon":5.374491,"is_reserved":false,"is_disabled":false,"rental_uris":{"android":"levelo://app?vid=4150f367-c77b-49d6-9460-8034f7438f5c","ios":"levelo://app?vid=4150f367-c77b-49d6-9460-8034f7438f5c"},"vehicle_type_id":"4","last_reported":1753446108,"current_range_meters":16800,"station_id":"","pricing_plan_id":"cebpf4jnsgd1na2vs0mg"},{"bike_id":"3f2d981f-7bc9-4409-8a00-a5d5222181c0","system_id":"levelo_inurba_marseille","lat":43.26575,"lon":5.39023,"is_reserved":false,"is_disabled":false,"rental_uris":{"android":"levelo://app?vid=3f2d981f-7bc9-4409-8a00-a5d5222181c0","ios":"levelo://app?vid=3f2d981f-7bc9-4409-8a00-a5d5222181c0"},"vehicle_type_id":"4","last_reported":1753446108,"current_range_meters":17200,"station_id":"ce4bhe12rcd13ifvqf30","pricing_plan_id":"cebpf4jnsgd1na2vs0mg"},{"bike_id":"de99b14c-9afd-4bdd-bc56-50354c110c3d","system_id":"levelo_inurba_marseille","lat":43.25467,"lon":5.37687,"is_reserved":false,"is_disabled":false,"rental_uris":{"android":"levelo://app?vid=de99b14c-9afd-4bdd-bc56-50354c110c3d","ios":"levelo://app?vid=de99b14c-9afd-4bdd-bc56-50354c110c3d"},"vehicle_type_id":"4","last_reported":1753446108,"current_range_meters":17200,"station_id":"","pricing_plan_id":"cebpf4jnsgd1na2vs0mg"},{"bike_id":"a1fc3e45-ca45-4bf5-a147-d253d9713db3","system_id":"levelo_inurba_marseille","lat":43.2962,"lon":5.37169,"is_reserved":false,"is_disabled":false,"rental_uris":{"android":"levelo://app?vid=a1fc3e45-ca45-4bf5-a147-d253d9713db3","ios":"levelo://app?vid=a1fc3e45-ca45-4bf5-a147-d253d9713db3"},"vehicle_type_id":"4","last_reported":1753446108,"current_range_meters":17200,"station_id":"ce4bgnh2rcd13ifvqc0g","pricing_plan_id":"cebpf4jnsgd1na2vs0mg"},{"bike_id":"e4758bdf-cf42-4efa-b967-d2d8f06662b0","system_id":"levelo_inurba_marseille","lat":43.29929,"lon":5.37439,"is_reserved":false,"is_disabled":false,"rental_uris":{"android":"levelo://app?vid=e4758bdf-cf42-4efa-b967-d2d8f06662b0","ios":"levelo://app?vid=e4758bdf-cf42-4efa-b967-d2d8f06662b0"},"vehicle_type_id":"4","last_reported":1753446108,"current_range_meters":17200,"station_id":"ce4bgjh2rcd13ifvqbg0","pricing_plan_id":"cebpf4jnsgd1na2vs0mg"},{"bike_id":"830ac2da-3449-4c4f-88c4-7edd782ac2a3","system_id":"levelo_inurba_marseille","lat":43.22938,"lon":5.35373,"is_reserved":false,"is_disabled":false,"rental_uris":{"android":"levelo://app?vid=830ac2da-3449-4c4f-88c4-7edd782ac2a3","ios":"levelo://app?vid=830ac2da-3449-4c4f-88c4-7edd782ac2a3"},"vehicle_type_id":"4","last_reported":1753446108,"current_range_meters":17200,"station_id":"cpo3532slgdg3j2ikp40","pricing_plan_id":"cebpf4jnsgd1na2vs0mg"},{"bike_id":"57755280-973c-4ff3-9c25-8f15e2c5b510","system_id":"levelo_inurba_marseille","lat":43.31872,"lon":5.37373,"is_reserved":false,"is_disabled":false,"rental_uris":{"android":"levelo://app?vid=57755280-973c-4ff3-9c25-8f15e2c5b510","ios":"levelo://app?vid=57755280-973c-4ff3-9c25-8f15e2c5b510"},"vehicle_type_id":"4","last_reported":1753446108,"current_range_meters":17200,"station_id":"","pricing_plan_id":"cebpf4jnsgd1na2vs0mg"},{"bike_id":"36e72d7a-306d-4d7d-83d8-b68354b31865","system_id":"levelo_inurba_marseille","lat":43.27377,"lon":5.36257,"is_reserved":false,"is_disabled":false,"rental_uris":{"android":"levelo://app?vid=36e72d7a-306d-4d7d-83d8-b68354b31865","ios":"levelo://app?vid=36e72d7a-306d-4d7d-83d8-b68354b31865"},"vehicle_type_id":"4","last_reported":1753446108,"current_range_meters":17600,"station_id":"ce4bhbh2rcd13ifvqeo0","pricing_plan_id":"cebpf4jnsgd1na2vs0mg"},{"bike_id":"09b7f600-cb1e-4ea0-adc2-9c3dcb778794","system_id":"levelo_inurba_marseille","lat":43.22495,"lon":5.34802,"is_reserved":false,"is_disabled":false,"rental_uris":{"android":"levelo://app?vid=09b7f600-cb1e-4ea0-adc2-9c3dcb778794","ios":"levelo://app?vid=09b7f600-cb1e-4ea0-adc2-9c3dcb778794"},"vehicle_type_id":"4","last_reported":1753446108,"current_range_meters":17600,"station_id":"st_cvj5dfep6f1abm77gieg","pricing_plan_id":"cebpf4jnsgd1na2vs0mg"},{"bike_id":"7f7a4770-cb44-4cbe-afee-f7531a238fa9","system_id":"levelo_inurba_marseille","lat":43.225059,"lon":5.347842,"is_reserved":false,"is_disabled":false,"rental_uris":{"android":"levelo://app?vid=7f7a4770-cb44-4cbe-afee-f7531a238fa9","ios":"levelo://app?vid=7f7a4770-cb44-4cbe-afee-f7531a238fa9"},"vehicle_type_id":"4","last_reported":1753446108,"current_range_meters":17600,"station_id":"st_cvj5dfep6f1abm77gieg","pricing_plan_id":"cebpf4jnsgd1na2vs0mg"},{"bike_id":"7528e0ee-3254-4380-8007-ffef61e356ca","system_id":"levelo_inurba_marseille","lat":43.265585,"lon":5.372963,"is_reserved":false,"is_disabled":false,"rental_uris":{"android":"levelo://app?vid=7528e0ee-3254-4380-8007-ffef61e356ca","ios":"levelo://app?vid=7528e0ee-3254-4380-8007-ffef61e356ca"},"vehicle_type_id":"4","last_reported":1753446108,"current_range_meters":17600,"station_id":"ce4bhg12rcd13ifvqf70","pricing_plan_id":"cebpf4jnsgd1na2vs0mg"},{"bike_id":"efcbd3df-55fd-49e4-9a28-a8230285eba6","system_id":"levelo_inurba_marseille","lat":43.29255,"lon":5.40907,"is_reserved":false,"is_disabled":false,"rental_uris":{"android":"levelo://app?vid=efcbd3df-55fd-49e4-9a28-a8230285eba6","ios":"levelo://app?vid=efcbd3df-55fd-49e4-9a28-a8230285eba6"},"vehicle_type_id":"4","last_reported":1753446108,"current_range_meters":17200,"station_id":"ce4bh192rcd13ifvqdc0","pricing_plan_id":"cebpf4jnsgd1na2vs0mg"},{"bike_id":"f8a5258a-c32a-4c32-9d50-8d119f529a04","system_id":"levelo_inurba_marseille","lat":43.22931,"lon":5.3537,"is_reserved":false,"is_disabled":false,"rental_uris":{"android":"levelo://app?vid=f8a5258a-c32a-4c32-9d50-8d119f529a04","ios":"levelo://app?vid=f8a5258a-c32a-4c32-9d50-8d119f529a04"},"vehicle_type_id":"4","last_reported":1753446108,"current_range_meters":17600,"station_id":"cpo3532slgdg3j2ikp40","pricing_plan_id":"cebpf4jnsgd1na2vs0mg"},{"bike_id":"5ec0c64f-b3b2-4d4f-bba1-8753a83f96a8","system_id":"levelo_inurba_marseille","lat":43.2175,"lon":5.34584,"is_reserved":false,"is_disabled":false,"rental_uris":{"android":"levelo://app?vid=5ec0c64f-b3b2-4d4f-bba1-8753a83f96a8","ios":"levelo://app?vid=5ec0c64f-b3b2-4d4f-bba1-8753a83f96a8"},"vehicle_type_id":"4","last_reported":1753446108,"current_range_meters":18000,"station_id":"st_cvj6r9ubvosntc0bgbag","pricing_plan_id":"cebpf4jnsgd1na2vs0mg"},{"bike_id":"771b320c-6bc9-4621-b33c-8183dd826197","system_id":"levelo_inurba_marseille","lat":43.29531,"lon":5.38534,"is_reserved":false,"is_disabled":false,"rental_uris":{"android":"levelo://app?vid=771b320c-6bc9-4621-b33c-8183dd826197","ios":"levelo://app?vid=771b320c-6bc9-4621-b33c-8183dd826197"},"vehicle_type_id":"4","last_reported":1753446108,"current_range_meters":18000,"station_id":"ce4bgih2rcd13ifvqba0","pricing_plan_id":"cebpf4jnsgd1na2vs0mg"},{"bike_id":"0f20b6fd-7e6a-4861-aa06-05e19bb114af","system_id":"levelo_inurba_marseille","lat":43.26556,"lon":5.37284,"is_reserved":false,"is_disabled":false,"rental_uris":{"android":"levelo://app?vid=0f20b6fd-7e6a-4861-aa06-05e19bb114af","ios":"levelo://app?vid=0f20b6fd-7e6a-4861-aa06-05e19bb114af"},"vehicle_type_id":"4","last_reported":1753446108,"current_range_meters":18000,"station_id":"ce4bhg12rcd13ifvqf70","pricing_plan_id":"cebpf4jnsgd1na2vs0mg"},{"bike_id":"4832d53c-7019-4796-ac75-317b72f889e1","system_id":"levelo_inurba_marseille","lat":43.29895,"lon":5.43672,"is_reserved":false,"is_disabled":false,"rental_uris":{"android":"levelo://app?vid=4832d53c-7019-4796-ac75-317b72f889e1","ios":"levelo://app?vid=4832d53c-7019-4796-ac75-317b72f889e1"},"vehicle_type_id":"4","last_reported":1753446108,"current_range_meters":18000,"station_id":"ce4bhpp2rcd13ifvqhfg","pricing_plan_id":"cebpf4jnsgd1na2vs0mg"},{"bike_id":"801a46e1-b7d5-4e78-8be9-08d0266948fd","system_id":"levelo_inurba_marseille","lat":43.32662,"lon":5.40989,"is_reserved":false,"is_disabled":false,"rental_uris":{"android":"levelo://app?vid=801a46e1-b7d5-4e78-8be9-08d0266948fd","ios":"levelo://app?vid=801a46e1-b7d5-4e78-8be9-08d0266948fd"},"vehicle_type_id":"4","last_reported":1753446108,"current_range_meters":18000,"station_id":"ce4bhpp2rcd13ifvqhgg","pricing_plan_id":"cebpf4jnsgd1na2vs0mg"},{"bike_id":"173c7979-3321-47ea-8a86-a6cd190511a5","system_id":"levelo_inurba_marseille","lat":43.2396,"lon":5.36631,"is_reserved":false,"is_disabled":false,"rental_uris":{"android":"levelo://app?vid=173c7979-3321-47ea-8a86-a6cd190511a5","ios":"levelo://app?vid=173c7979-3321-47ea-8a86-a6cd190511a5"},"vehicle_type_id":"4","last_reported":1753446108,"current_range_meters":18000,"station_id":"ce4bhi12rcd13ifvqfp0","pricing_plan_id":"cebpf4jnsgd1na2vs0mg"},{"bike_id":"b5faf0f0-8a73-4fc4-b6fc-daffce16b582","system_id":"levelo_inurba_marseille","lat":43.3015,"lon":5.38087,"is_reserved":false,"is_disabled":false,"rental_uris":{"android":"levelo://app?vid=b5faf0f0-8a73-4fc4-b6fc-daffce16b582","ios":"levelo://app?vid=b5faf0f0-8a73-4fc4-b6fc-daffce16b582"},"vehicle_type_id":"4","last_reported":1753446108,"current_range_meters":18000,"station_id":"ce4bgjp2rcd13ifvqbh0","pricing_plan_id":"cebpf4jnsgd1na2vs0mg"},{"bike_id":"329c8f00-9fb0-47d7-84ef-1bc64e291f9c","system_id":"levelo_inurba_marseille","lat":43.292789,"lon":5.36837,"is_reserved":false,"is_disabled":false,"rental_uris":{"android":"levelo://app?vid=329c8f00-9fb0-47d7-84ef-1bc64e291f9c","ios":"levelo://app?vid=329c8f00-9fb0-47d7-84ef-1bc64e291f9c"},"vehicle_type_id":"4","last_reported":1753446108,"current_range_meters":18000,"station_id":"","pricing_plan_id":"cebpf4jnsgd1na2vs0mg"},{"bike_id":"80acebb2-0350-48ac-b0aa-274664838171","system_id":"levelo_inurba_marseille","lat":43.241658,"lon":5.364063,"is_reserved":false,"is_disabled":false,"rental_uris":{"android":"levelo://app?vid=80acebb2-0350-48ac-b0aa-274664838171","ios":"levelo://app?vid=80acebb2-0350-48ac-b0aa-274664838171"},"vehicle_type_id":"4","last_reported":1753446108,"current_range_meters":18000,"station_id":"cpo36qri1sfpv3e86is0","pricing_plan_id":"cebpf4jnsgd1na2vs0mg"},{"bike_id":"af5d66e4-f0e5-4e79-aea3-313cacc90bb9","system_id":"levelo_inurba_marseille","lat":43.25003,"lon":5.38934,"is_reserved":false,"is_disabled":false,"rental_uris":{"android":"levelo://app?vid=af5d66e4-f0e5-4e79-aea3-313cacc90bb9","ios":"levelo://app?vid=af5d66e4-f0e5-4e79-aea3-313cacc90bb9"},"vehicle_type_id":"4","last_reported":1753446108,"current_range_meters":18800,"station_id":"ce4bhgp2rcd13ifvqfd0","pricing_plan_id":"cebpf4jnsgd1na2vs0mg"},{"bike_id":"16971f4c-ccac-4993-ad28-795396f2377f","system_id":"levelo_inurba_marseille","lat":43.24169,"lon":5.36401,"is_reserved":false,"is_disabled":false,"rental_uris":{"android":"levelo://app?vid=16971f4c-ccac-4993-ad28-795396f2377f","ios":"levelo://app?vid=16971f4c-ccac-4993-ad28-795396f2377f"},"vehicle_type_id":"4","last_reported":1753446108,"current_range_meters":18800,"station_id":"cpo36qri1sfpv3e86is0","pricing_plan_id":"cebpf4jnsgd1na2vs0mg"},{"bike_id":"c54c7470-7323-445b-86e5-5b5ce2f05a24","system_id":"levelo_inurba_marseille","lat":43.21752,"lon":5.34598,"is_reserved":false,"is_disabled":false,"rental_uris":{"android":"levelo://app?vid=c54c7470-7323-445b-86e5-5b5ce2f05a24","ios":"levelo://app?vid=c54c7470-7323-445b-86e5-5b5ce2f05a24"},"vehicle_type_id":"4","last_reported":1753446108,"current_range_meters":18800,"station_id":"st_cvj6r9ubvosntc0bgbag","pricing_plan_id":"cebpf4jnsgd1na2vs0mg"},{"bike_id":"152247a2-6f09-485f-acf9-4f6bd27a046c","system_id":"levelo_inurba_marseille","lat":43.281545,"lon":5.426416,"is_reserved":false,"is_disabled":false,"rental_uris":{"android":"levelo://app?vid=152247a2-6f09-485f-acf9-4f6bd27a046c","ios":"levelo://app?vid=152247a2-6f09-485f-acf9-4f6bd27a046c"},"vehicle_type_id":"4","last_reported":1753446108,"current_range_meters":18800,"station_id":"ce4bhnh2rcd13ifvqgug","pricing_plan_id":"cebpf4jnsgd1na2vs0mg"},{"bike_id":"95006c4f-6607-4c99-b22e-cd41f2dcf099","system_id":"levelo_inurba_marseille","lat":43.27173,"lon":5.40995,"is_reserved":false,"is_disabled":false,"rental_uris":{"android":"levelo://app?vid=95006c4f-6607-4c99-b22e-cd41f2dcf099","ios":"levelo://app?vid=95006c4f-6607-4c99-b22e-cd41f2dcf099"},"vehicle_type_id":"4","last_reported":1753446108,"current_range_meters":18800,"station_id":"ce4bhl12rcd13ifvqgf0","pricing_plan_id":"cebpf4jnsgd1na2vs0mg"},{"bike_id":"b845a012-1338-4d73-8720-771153f2a4b7","system_id":"levelo_inurba_marseille","lat":43.30883,"lon":5.3966,"is_reserved":false,"is_disabled":false,"rental_uris":{"android":"levelo://app?vid=b845a012-1338-4d73-8720-771153f2a4b7","ios":"levelo://app?vid=b845a012-1338-4d73-8720-771153f2a4b7"},"vehicle_type_id":"4","last_reported":1753446108,"current_range_meters":18800,"station_id":"ce4bh012rcd13ifvqcv0","pricing_plan_id":"cebpf4jnsgd1na2vs0mg"},{"bike_id":"ec74f06a-40dc-4c39-a0cb-57d6f568a4e5","system_id":"levelo_inurba_marseille","lat":43.22923,"lon":5.35381,"is_reserved":false,"is_disabled":false,"rental_uris":{"android":"levelo://app?vid=ec74f06a-40dc-4c39-a0cb-57d6f568a4e5","ios":"levelo://app?vid=ec74f06a-40dc-4c39-a0cb-57d6f568a4e5"},"vehicle_type_id":"4","last_reported":1753446108,"current_range_meters":18800,"station_id":"cpo3532slgdg3j2ikp40","pricing_plan_id":"cebpf4jnsgd1na2vs0mg"},{"bike_id":"99c53b1c-62c6-4f7e-8952-f1d503932c8f","system_id":"levelo_inurba_marseille","lat":43.29706,"lon":5.36611,"is_reserved":false,"is_disabled":false,"rental_uris":{"android":"levelo://app?vid=99c53b1c-62c6-4f7e-8952-f1d503932c8f","ios":"levelo://app?vid=99c53b1c-62c6-4f7e-8952-f1d503932c8f"},"vehicle_type_id":"4","last_reported":1753446108,"current_range_meters":18800,"station_id":"ce4bgn12rcd13ifvqbt0","pricing_plan_id":"cebpf4jnsgd1na2vs0mg"},{"bike_id":"2f762bd5-2373-416e-87fa-b6a645009b60","system_id":"levelo_inurba_marseille","lat":43.26549,"lon":5.37279,"is_reserved":false,"is_disabled":false,"rental_uris":{"android":"levelo://app?vid=2f762bd5-2373-416e-87fa-b6a645009b60","ios":"levelo://app?vid=2f762bd5-2373-416e-87fa-b6a645009b60"},"vehicle_type_id":"4","last_reported":1753446108,"current_range_meters":18800,"station_id":"ce4bhg12rcd13ifvqf70","pricing_plan_id":"cebpf4jnsgd1na2vs0mg"},{"bike_id":"2de6df84-4a65-421c-a610-eefd67edb8aa","system_id":"levelo_inurba_marseille","lat":43.324861,"lon":5.365669,"is_reserved":false,"is_disabled":false,"rental_uris":{"android":"levelo://app?vid=2de6df84-4a65-421c-a610-eefd67edb8aa","ios":"levelo://app?vid=2de6df84-4a65-421c-a610-eefd67edb8aa"},"vehicle_type_id":"4","last_reported":1753446108,"current_range_meters":18800,"station_id":"ce4bhs12rcd13ifvqhvg","pricing_plan_id":"cebpf4jnsgd1na2vs0mg"},{"bike_id":"f73f9e1b-7834-467d-98ae-b862831b7429","system_id":"levelo_inurba_marseille","lat":43.23064,"lon":5.3549,"is_reserved":false,"is_disabled":false,"rental_uris":{"android":"levelo://app?vid=f73f9e1b-7834-467d-98ae-b862831b7429","ios":"levelo://app?vid=f73f9e1b-7834-467d-98ae-b862831b7429"},"vehicle_type_id":"4","last_reported":1753446108,"current_range_meters":18000,"station_id":"cpo3342slgdg3j2ifvpg","pricing_plan_id":"cebpf4jnsgd1na2vs0mg"},{"bike_id":"f60ac0b4-f7c9-4a68-b03a-019a9b3eb0fe","system_id":"levelo_inurba_marseille","lat":43.28263,"lon":5.35075,"is_reserved":false,"is_disabled":false,"rental_uris":{"android":"levelo://app?vid=f60ac0b4-f7c9-4a68-b03a-019a9b3eb0fe","ios":"levelo://app?vid=f60ac0b4-f7c9-4a68-b03a-019a9b3eb0fe"},"vehicle_type_id":"4","last_reported":1753446108,"current_range_meters":18800,"station_id":"ce4bhbp2rcd13ifvqerg","pricing_plan_id":"cebpf4jnsgd1na2vs0mg"},{"bike_id":"ac8ce396-3dab-4f02-af68-0ee9b6d1d3cb","system_id":"levelo_inurba_marseille","lat":43.31233,"lon":5.36901,"is_reserved":false,"is_disabled":false,"rental_uris":{"android":"levelo://app?vid=ac8ce396-3dab-4f02-af68-0ee9b6d1d3cb","ios":"levelo://app?vid=ac8ce396-3dab-4f02-af68-0ee9b6d1d3cb"},"vehicle_type_id":"4","last_reported":1753446108,"current_range_meters":18800,"station_id":"ce4bgl92rcd13ifvqbq0","pricing_plan_id":"cebpf4jnsgd1na2vs0mg"},{"bike_id":"df6cc189-f7a3-4975-8709-e8cdfc749338","system_id":"levelo_inurba_marseille","lat":43.25574,"lon":5.38228,"is_reserved":false,"is_disabled":false,"rental_uris":{"android":"levelo://app?vid=df6cc189-f7a3-4975-8709-e8cdfc749338","ios":"levelo://app?vid=df6cc189-f7a3-4975-8709-e8cdfc749338"},"vehicle_type_id":"4","last_reported":1753446108,"current_range_meters":18800,"station_id":"ce4bhih2rcd13ifvqfs0","pricing_plan_id":"cebpf4jnsgd1na2vs0mg"},{"bike_id":"8f4ca69e-9621-4ffd-91af-41f939f5f71e","system_id":"levelo_inurba_marseille","lat":43.2396,"lon":5.36633,"is_reserved":false,"is_disabled":false,"rental_uris":{"android":"levelo://app?vid=8f4ca69e-9621-4ffd-91af-41f939f5f71e","ios":"levelo://app?vid=8f4ca69e-9621-4ffd-91af-41f939f5f71e"},"vehicle_type_id":"4","last_reported":1753446108,"current_range_meters":19200,"station_id":"ce4bhi12rcd13ifvqfp0","pricing_plan_id":"cebpf4jnsgd1na2vs0mg"},{"bike_id":"c3c2652b-f2d7-4ed4-89ec-9559feb01451","system_id":"levelo_inurba_marseille","lat":43.292236,"lon":5.360521,"is_reserved":false,"is_disabled":true,"rental_uris":{"android":"levelo://app?vid=c3c2652b-f2d7-4ed4-89ec-9559feb01451","ios":"levelo://app?vid=c3c2652b-f2d7-4ed4-89ec-9559feb01451"},"vehicle_type_id":"4","last_reported":1753446108,"current_range_meters":19200,"station_id":"ce4bhbh2rcd13ifvqeqg","pricing_plan_id":"cebpf4jnsgd1na2vs0mg"},{"bike_id":"e7652c6c-2402-49f7-a93f-025650a12a4e","system_id":"levelo_inurba_marseille","lat":43.2862,"lon":5.35085,"is_reserved":false,"is_disabled":true,"rental_uris":{"android":"levelo://app?vid=e7652c6c-2402-49f7-a93f-025650a12a4e","ios":"levelo://app?vid=e7652c6c-2402-49f7-a93f-025650a12a4e"},"vehicle_type_id":"4","last_reported":1753446108,"current_range_meters":19200,"station_id":"ce4bhch2rcd13ifvqeug","pricing_plan_id":"cebpf4jnsgd1na2vs0mg"},{"bike_id":"0554f829-fff1-43ff-b6e0-826df53f8314","system_id":"levelo_inurba_marseille","lat":43.29885,"lon":5.43694,"is_reserved":false,"is_disabled":false,"rental_uris":{"android":"levelo://app?vid=0554f829-fff1-43ff-b6e0-826df53f8314","ios":"levelo://app?vid=0554f829-fff1-43ff-b6e0-826df53f8314"},"vehicle_type_id":"4","last_reported":1753446108,"current_range_meters":19200,"station_id":"ce4bhpp2rcd13ifvqhfg","pricing_plan_id":"cebpf4jnsgd1na2vs0mg"},{"bike_id":"d1118ba2-7ab0-47ff-a120-ca2f2f1b3dfe","system_id":"levelo_inurba_marseille","lat":43.28623,"lon":5.35111,"is_reserved":false,"is_disabled":false,"rental_uris":{"android":"levelo://app?vid=d1118ba2-7ab0-47ff-a120-ca2f2f1b3dfe","ios":"levelo://app?vid=d1118ba2-7ab0-47ff-a120-ca2f2f1b3dfe"},"vehicle_type_id":"4","last_reported":1753446108,"current_range_meters":19200,"station_id":"ce4bhch2rcd13ifvqeug","pricing_plan_id":"cebpf4jnsgd1na2vs0mg"},{"bike_id":"1e5c96a6-9d0f-4d5f-85ef-5a5f8ac0317a","system_id":"levelo_inurba_marseille","lat":43.33484,"lon":5.39167,"is_reserved":false,"is_disabled":false,"rental_uris":{"android":"levelo://app?vid=1e5c96a6-9d0f-4d5f-85ef-5a5f8ac0317a","ios":"levelo://app?vid=1e5c96a6-9d0f-4d5f-85ef-5a5f8ac0317a"},"vehicle_type_id":"4","last_reported":1753446108,"current_range_meters":19200,"station_id":"","pricing_plan_id":"cebpf4jnsgd1na2vs0mg"},{"bike_id":"7254aad9-4b7a-44b4-89bb-4f6b7cb10520","system_id":"levelo_inurba_marseille","lat":43.26086,"lon":5.39402,"is_reserved":false,"is_disabled":false,"rental_uris":{"android":"levelo://app?vid=7254aad9-4b7a-44b4-89bb-4f6b7cb10520","ios":"levelo://app?vid=7254aad9-4b7a-44b4-89bb-4f6b7cb10520"},"vehicle_type_id":"4","last_reported":1753446108,"current_range_meters":19200,"station_id":"ce4bhh92rcd13ifvqfj0","pricing_plan_id":"cebpf4jnsgd1na2vs0mg"},{"bike_id":"a1d5115b-997f-44a5-8b4b-21cb29757407","system_id":"levelo_inurba_marseille","lat":43.31214,"lon":5.37327,"is_reserved":false,"is_disabled":false,"rental_uris":{"android":"levelo://app?vid=a1d5115b-997f-44a5-8b4b-21cb29757407","ios":"levelo://app?vid=a1d5115b-997f-44a5-8b4b-21cb29757407"},"vehicle_type_id":"4","last_reported":1753446108,"current_range_meters":19200,"station_id":"","pricing_plan_id":"cebpf4jnsgd1na2vs0mg"},{"bike_id":"0a571f30-57ee-45e5-a1c3-a6e66a72dc44","system_id":"levelo_inurba_marseille","lat":43.26676,"lon":5.38268,"is_reserved":false,"is_disabled":false,"rental_uris":{"android":"levelo://app?vid=0a571f30-57ee-45e5-a1c3-a6e66a72dc44","ios":"levelo://app?vid=0a571f30-57ee-45e5-a1c3-a6e66a72dc44"},"vehicle_type_id":"4","last_reported":1753446108,"current_range_meters":19200,"station_id":"ce4bhg92rcd13ifvqf90","pricing_plan_id":"cebpf4jnsgd1na2vs0mg"},{"bike_id":"2bd1f7ba-8a8a-4759-8802-644f7d5d4377","system_id":"levelo_inurba_marseille","lat":43.31708,"lon":5.37747,"is_reserved":false,"is_disabled":false,"rental_uris":{"android":"levelo://app?vid=2bd1f7ba-8a8a-4759-8802-644f7d5d4377","ios":"levelo://app?vid=2bd1f7ba-8a8a-4759-8802-644f7d5d4377"},"vehicle_type_id":"4","last_reported":1753446108,"current_range_meters":19200,"station_id":"ce4bgth2rcd13ifvqch0","pricing_plan_id":"cebpf4jnsgd1na2vs0mg"},{"bike_id":"6ab0b13c-2ff1-417a-acfd-489d6800d4c9","system_id":"levelo_inurba_marseille","lat":43.27375,"lon":5.36251,"is_reserved":false,"is_disabled":false,"rental_uris":{"android":"levelo://app?vid=6ab0b13c-2ff1-417a-acfd-489d6800d4c9","ios":"levelo://app?vid=6ab0b13c-2ff1-417a-acfd-489d6800d4c9"},"vehicle_type_id":"4","last_reported":1753446108,"current_range_meters":19200,"station_id":"ce4bhbh2rcd13ifvqeo0","pricing_plan_id":"cebpf4jnsgd1na2vs0mg"},{"bike_id":"5c9d9915-bf16-41b3-9d07-198fa0ca86d8","system_id":"levelo_inurba_marseille","lat":43.29035,"lon":5.39965,"is_reserved":false,"is_disabled":false,"rental_uris":{"android":"levelo://app?vid=5c9d9915-bf16-41b3-9d07-198fa0ca86d8","ios":"levelo://app?vid=5c9d9915-bf16-41b3-9d07-198fa0ca86d8"},"vehicle_type_id":"4","last_reported":1753446108,"current_range_meters":19200,"station_id":"ce4bh392rcd13ifvqdm0","pricing_plan_id":"cebpf4jnsgd1na2vs0mg"},{"bike_id":"f4fd8122-3542-41c9-a204-ae963e556aa2","system_id":"levelo_inurba_marseille","lat":43.23055,"lon":5.35492,"is_reserved":false,"is_disabled":false,"rental_uris":{"android":"levelo://app?vid=f4fd8122-3542-41c9-a204-ae963e556aa2","ios":"levelo://app?vid=f4fd8122-3542-41c9-a204-ae963e556aa2"},"vehicle_type_id":"4","last_reported":1753446108,"current_range_meters":19600,"station_id":"cpo3342slgdg3j2ifvpg","pricing_plan_id":"cebpf4jnsgd1na2vs0mg"},{"bike_id":"b0ab26ed-6d98-4d8d-9fc2-b57924d0bcb8","system_id":"levelo_inurba_marseille","lat":43.21748,"lon":5.34603,"is_reserved":false,"is_disabled":false,"rental_uris":{"android":"levelo://app?vid=b0ab26ed-6d98-4d8d-9fc2-b57924d0bcb8","ios":"levelo://app?vid=b0ab26ed-6d98-4d8d-9fc2-b57924d0bcb8"},"vehicle_type_id":"4","last_reported":1753446108,"current_range_meters":19600,"station_id":"","pricing_plan_id":"cebpf4jnsgd1na2vs0mg"},{"bike_id":"f772a45d-02b5-45f4-b97d-2e9324a02bec","system_id":"levelo_inurba_marseille","lat":43.21193,"lon":5.35075,"is_reserved":false,"is_disabled":false,"rental_uris":{"android":"levelo://app?vid=f772a45d-02b5-45f4-b97d-2e9324a02bec","ios":"levelo://app?vid=f772a45d-02b5-45f4-b97d-2e9324a02bec"},"vehicle_type_id":"4","last_reported":1753446108,"current_range_meters":19600,"station_id":"st_cvj6sg6p6f1abm77japg","pricing_plan_id":"cebpf4jnsgd1na2vs0mg"},{"bike_id":"68c61e07-026d-47bb-913c-927711a9a4da","system_id":"levelo_inurba_marseille","lat":43.26213,"lon":5.3744,"is_reserved":false,"is_disabled":false,"rental_uris":{"android":"levelo://app?vid=68c61e07-026d-47bb-913c-927711a9a4da","ios":"levelo://app?vid=68c61e07-026d-47bb-913c-927711a9a4da"},"vehicle_type_id":"4","last_reported":1753446108,"current_range_meters":19600,"station_id":"ce4bhgp2rcd13ifvqfc0","pricing_plan_id":"cebpf4jnsgd1na2vs0mg"},{"bike_id":"4301aced-4843-46c7-a687-5376be6def77","system_id":"levelo_inurba_marseille","lat":43.280011,"lon":5.400106,"is_reserved":false,"is_disabled":false,"rental_uris":{"android":"levelo://app?vid=4301aced-4843-46c7-a687-5376be6def77","ios":"levelo://app?vid=4301aced-4843-46c7-a687-5376be6def77"},"vehicle_type_id":"4","last_reported":1753446108,"current_range_meters":19600,"station_id":"ce4bho92rcd13ifvqh4g","pricing_plan_id":"cebpf4jnsgd1na2vs0mg"},{"bike_id":"29254e36-1aef-4592-8a96-6fabe4d06371","system_id":"levelo_inurba_marseille","lat":43.30598,"lon":5.3723,"is_reserved":false,"is_disabled":false,"rental_uris":{"android":"levelo://app?vid=29254e36-1aef-4592-8a96-6fabe4d06371","ios":"levelo://app?vid=29254e36-1aef-4592-8a96-6fabe4d06371"},"vehicle_type_id":"4","last_reported":1753446108,"current_range_meters":19600,"station_id":"ce4bgqh2rcd13ifvqc4g","pricing_plan_id":"cebpf4jnsgd1na2vs0mg"},{"bike_id":"3c5c829d-f8d2-4754-8adb-4f267933a19e","system_id":"levelo_inurba_marseille","lat":43.25495,"lon":5.37658,"is_reserved":false,"is_disabled":false,"rental_uris":{"android":"levelo://app?vid=3c5c829d-f8d2-4754-8adb-4f267933a19e","ios":"levelo://app?vid=3c5c829d-f8d2-4754-8adb-4f267933a19e"},"vehicle_type_id":"4","last_reported":1753446108,"current_range_meters":20000,"station_id":"ce4bhh12rcd13ifvqff0","pricing_plan_id":"cebpf4jnsgd1na2vs0mg"},{"bike_id":"145024c2-4146-4c1d-9cb9-5b6d0cca1bf9","system_id":"levelo_inurba_marseille","lat":43.28846,"lon":5.39302,"is_reserved":false,"is_disabled":false,"rental_uris":{"android":"levelo://app?vid=145024c2-4146-4c1d-9cb9-5b6d0cca1bf9","ios":"levelo://app?vid=145024c2-4146-4c1d-9cb9-5b6d0cca1bf9"},"vehicle_type_id":"4","last_reported":1753446108,"current_range_meters":20000,"station_id":"ce4bh2p2rcd13ifvqdi0","pricing_plan_id":"cebpf4jnsgd1na2vs0mg"},{"bike_id":"c07e9ec5-990c-491f-86d0-b74eba628779","system_id":"levelo_inurba_marseille","lat":43.31346,"lon":5.36705,"is_reserved":false,"is_disabled":false,"rental_uris":{"android":"levelo://app?vid=c07e9ec5-990c-491f-86d0-b74eba628779","ios":"levelo://app?vid=c07e9ec5-990c-491f-86d0-b74eba628779"},"vehicle_type_id":"4","last_reported":1753446108,"current_range_meters":20000,"station_id":"ce4bgr92rcd13ifvqc6g","pricing_plan_id":"cebpf4jnsgd1na2vs0mg"},{"bike_id":"52c24918-9d65-42b9-94d9-69a0622d7db3","system_id":"levelo_inurba_marseille","lat":43.32104,"lon":5.36832,"is_reserved":false,"is_disabled":false,"rental_uris":{"android":"levelo://app?vid=52c24918-9d65-42b9-94d9-69a0622d7db3","ios":"levelo://app?vid=52c24918-9d65-42b9-94d9-69a0622d7db3"},"vehicle_type_id":"4","last_reported":1753446108,"current_range_meters":20000,"station_id":"ce4bhrh2rcd13ifvqhug","pricing_plan_id":"cebpf4jnsgd1na2vs0mg"},{"bike_id":"85333a3b-9be8-4a22-af2c-50f33eb8750c","system_id":"levelo_inurba_marseille","lat":43.24174,"lon":5.36402,"is_reserved":false,"is_disabled":false,"rental_uris":{"android":"levelo://app?vid=85333a3b-9be8-4a22-af2c-50f33eb8750c","ios":"levelo://app?vid=85333a3b-9be8-4a22-af2c-50f33eb8750c"},"vehicle_type_id":"4","last_reported":1753446108,"current_range_meters":20000,"station_id":"cpo36qri1sfpv3e86is0","pricing_plan_id":"cebpf4jnsgd1na2vs0mg"},{"bike_id":"a3e4f936-e7da-42bf-94b4-ad22bb68b9c3","system_id":"levelo_inurba_marseille","lat":43.22923,"lon":5.35369,"is_reserved":false,"is_disabled":false,"rental_uris":{"android":"levelo://app?vid=a3e4f936-e7da-42bf-94b4-ad22bb68b9c3","ios":"levelo://app?vid=a3e4f936-e7da-42bf-94b4-ad22bb68b9c3"},"vehicle_type_id":"4","last_reported":1753446108,"current_range_meters":20000,"station_id":"cpo3532slgdg3j2ikp40","pricing_plan_id":"cebpf4jnsgd1na2vs0mg"},{"bike_id":"6a446c1d-502b-48ba-9735-cef921442c70","system_id":"levelo_inurba_marseille","lat":43.29104,"lon":5.38136,"is_reserved":false,"is_disabled":false,"rental_uris":{"android":"levelo://app?vid=6a446c1d-502b-48ba-9735-cef921442c70","ios":"levelo://app?vid=6a446c1d-502b-48ba-9735-cef921442c70"},"vehicle_type_id":"4","last_reported":1753446108,"current_range_meters":19600,"station_id":"ce4bh512rcd13ifvqe2g","pricing_plan_id":"cebpf4jnsgd1na2vs0mg"},{"bike_id":"61cd7fe3-237f-4708-afc7-dd8a81b4454c","system_id":"levelo_inurba_marseille","lat":43.22934,"lon":5.35367,"is_reserved":false,"is_disabled":false,"rental_uris":{"android":"levelo://app?vid=61cd7fe3-237f-4708-afc7-dd8a81b4454c","ios":"levelo://app?vid=61cd7fe3-237f-4708-afc7-dd8a81b4454c"},"vehicle_type_id":"4","last_reported":1753446108,"current_range_meters":20000,"station_id":"cpo3532slgdg3j2ikp40","pricing_plan_id":"cebpf4jnsgd1na2vs0mg"},{"bike_id":"43dbc09e-d0e4-4ddb-bafe-4f55874d23a9","system_id":"levelo_inurba_marseille","lat":43.30228,"lon":5.38225,"is_reserved":false,"is_disabled":false,"rental_uris":{"android":"levelo://app?vid=43dbc09e-d0e4-4ddb-bafe-4f55874d23a9","ios":"levelo://app?vid=43dbc09e-d0e4-4ddb-bafe-4f55874d23a9"},"vehicle_type_id":"4","last_reported":1753446108,"current_range_meters":20000,"station_id":"","pricing_plan_id":"cebpf4jnsgd1na2vs0mg"},{"bike_id":"cb041e33-a9c8-46e0-a4a4-e1391a2f999c","system_id":"levelo_inurba_marseille","lat":43.301453,"lon":5.380905,"is_reserved":false,"is_disabled":false,"rental_uris":{"android":"levelo://app?vid=cb041e33-a9c8-46e0-a4a4-e1391a2f999c","ios":"levelo://app?vid=cb041e33-a9c8-46e0-a4a4-e1391a2f999c"},"vehicle_type_id":"4","last_reported":1753446108,"current_range_meters":20000,"station_id":"ce4bgjp2rcd13ifvqbh0","pricing_plan_id":"cebpf4jnsgd1na2vs0mg"},{"bike_id":"6e930a62-5006-4655-a5ac-2a43963c169f","system_id":"levelo_inurba_marseille","lat":43.25086,"lon":5.39527,"is_reserved":false,"is_disabled":false,"rental_uris":{"android":"levelo://app?vid=6e930a62-5006-4655-a5ac-2a43963c169f","ios":"levelo://app?vid=6e930a62-5006-4655-a5ac-2a43963c169f"},"vehicle_type_id":"4","last_reported":1753446108,"current_range_meters":19600,"station_id":"ce4bhm12rcd13ifvqgkg","pricing_plan_id":"cebpf4jnsgd1na2vs0mg"},{"bike_id":"90194df4-0dd8-4419-870e-02694312b506","system_id":"levelo_inurba_marseille","lat":43.25006,"lon":5.389285,"is_reserved":false,"is_disabled":false,"rental_uris":{"android":"levelo://app?vid=90194df4-0dd8-4419-870e-02694312b506","ios":"levelo://app?vid=90194df4-0dd8-4419-870e-02694312b506"},"vehicle_type_id":"4","last_reported":1753446108,"current_range_meters":20000,"station_id":"ce4bhgp2rcd13ifvqfd0","pricing_plan_id":"cebpf4jnsgd1na2vs0mg"},{"bike_id":"725317c6-351b-43e5-b68d-45c3db010ac3","system_id":"levelo_inurba_marseille","lat":43.28142,"lon":5.42652,"is_reserved":false,"is_disabled":false,"rental_uris":{"android":"levelo://app?vid=725317c6-351b-43e5-b68d-45c3db010ac3","ios":"levelo://app?vid=725317c6-351b-43e5-b68d-45c3db010ac3"},"vehicle_type_id":"4","last_reported":1753446108,"current_range_meters":20400,"station_id":"ce4bhnh2rcd13ifvqgug","pricing_plan_id":"cebpf4jnsgd1na2vs0mg"},{"bike_id":"9e6fe47b-2e6d-46a4-90ff-c1a782ea7806","system_id":"levelo_inurba_marseille","lat":43.29233,"lon":5.36991,"is_reserved":false,"is_disabled":false,"rental_uris":{"android":"levelo://app?vid=9e6fe47b-2e6d-46a4-90ff-c1a782ea7806","ios":"levelo://app?vid=9e6fe47b-2e6d-46a4-90ff-c1a782ea7806"},"vehicle_type_id":"4","last_reported":1753446108,"current_range_meters":20400,"station_id":"","pricing_plan_id":"cebpf4jnsgd1na2vs0mg"},{"bike_id":"2703e0a4-7218-4353-b33c-9609c06a5516","system_id":"levelo_inurba_marseille","lat":43.2749,"lon":5.42457,"is_reserved":false,"is_disabled":false,"rental_uris":{"android":"levelo://app?vid=2703e0a4-7218-4353-b33c-9609c06a5516","ios":"levelo://app?vid=2703e0a4-7218-4353-b33c-9609c06a5516"},"vehicle_type_id":"4","last_reported":1753446108,"current_range_meters":20400,"station_id":"ce4bhn92rcd13ifvqgrg","pricing_plan_id":"cebpf4jnsgd1na2vs0mg"},{"bike_id":"25612fbb-3e68-4975-a817-f4778f1bc761","system_id":"levelo_inurba_marseille","lat":43.29931,"lon":5.36547,"is_reserved":false,"is_disabled":false,"rental_uris":{"android":"levelo://app?vid=25612fbb-3e68-4975-a817-f4778f1bc761","ios":"levelo://app?vid=25612fbb-3e68-4975-a817-f4778f1bc761"},"vehicle_type_id":"4","last_reported":1753446108,"current_range_meters":20400,"station_id":"ce4bgm92rcd13ifvqbr0","pricing_plan_id":"cebpf4jnsgd1na2vs0mg"},{"bike_id":"93065409-89f0-4afa-80c8-b4dc9fb712c3","system_id":"levelo_inurba_marseille","lat":43.26215,"lon":5.3747,"is_reserved":false,"is_disabled":true,"rental_uris":{"android":"levelo://app?vid=93065409-89f0-4afa-80c8-b4dc9fb712c3","ios":"levelo://app?vid=93065409-89f0-4afa-80c8-b4dc9fb712c3"},"vehicle_type_id":"4","last_reported":1753446108,"current_range_meters":20400,"station_id":"ce4bhgp2rcd13ifvqfc0","pricing_plan_id":"cebpf4jnsgd1na2vs0mg"},{"bike_id":"bd518d9d-6abc-49b7-9703-640ebcaea84b","system_id":"levelo_inurba_marseille","lat":43.27621,"lon":5.36079,"is_reserved":false,"is_disabled":false,"rental_uris":{"android":"levelo://app?vid=bd518d9d-6abc-49b7-9703-640ebcaea84b","ios":"levelo://app?vid=bd518d9d-6abc-49b7-9703-640ebcaea84b"},"vehicle_type_id":"4","last_reported":1753446108,"current_range_meters":20000,"station_id":"ce4bgj92rcd13ifvqbe0","pricing_plan_id":"cebpf4jnsgd1na2vs0mg"},{"bike_id":"a05343f6-5345-451e-92c9-8d14b4ec04eb","system_id":"levelo_inurba_marseille","lat":43.314919,"lon":5.373082,"is_reserved":false,"is_disabled":true,"rental_uris":{"android":"levelo://app?vid=a05343f6-5345-451e-92c9-8d14b4ec04eb","ios":"levelo://app?vid=a05343f6-5345-451e-92c9-8d14b4ec04eb"},"vehicle_type_id":"4","last_reported":1753446108,"current_range_meters":20400,"station_id":"","pricing_plan_id":"cebpf4jnsgd1na2vs0mg"},{"bike_id":"febfb0dd-62aa-4333-8aa6-5a2dfd2c5e17","system_id":"levelo_inurba_marseille","lat":43.33156,"lon":5.35975,"is_reserved":false,"is_disabled":false,"rental_uris":{"android":"levelo://app?vid=febfb0dd-62aa-4333-8aa6-5a2dfd2c5e17","ios":"levelo://app?vid=febfb0dd-62aa-4333-8aa6-5a2dfd2c5e17"},"vehicle_type_id":"4","last_reported":1753446108,"current_range_meters":20400,"station_id":"","pricing_plan_id":"cebpf4jnsgd1na2vs0mg"},{"bike_id":"8d638062-b729-4ab6-a2cd-3ffb748369e4","system_id":"levelo_inurba_marseille","lat":43.30588,"lon":5.3701,"is_reserved":false,"is_disabled":false,"rental_uris":{"android":"levelo://app?vid=8d638062-b729-4ab6-a2cd-3ffb748369e4","ios":"levelo://app?vid=8d638062-b729-4ab6-a2cd-3ffb748369e4"},"vehicle_type_id":"4","last_reported":1753446108,"current_range_meters":20400,"station_id":"","pricing_plan_id":"cebpf4jnsgd1na2vs0mg"},{"bike_id":"035702f6-78e0-448e-a04a-d2685814e638","system_id":"levelo_inurba_marseille","lat":43.31264,"lon":5.40172,"is_reserved":false,"is_disabled":false,"rental_uris":{"android":"levelo://app?vid=035702f6-78e0-448e-a04a-d2685814e638","ios":"levelo://app?vid=035702f6-78e0-448e-a04a-d2685814e638"},"vehicle_type_id":"4","last_reported":1753446108,"current_range_meters":20400,"station_id":"ce4bh092rcd13ifvqd30","pricing_plan_id":"cebpf4jnsgd1na2vs0mg"},{"bike_id":"f1a85f09-b991-441b-9ba6-44f3d36cc515","system_id":"levelo_inurba_marseille","lat":43.29019,"lon":5.38138,"is_reserved":false,"is_disabled":false,"rental_uris":{"android":"levelo://app?vid=f1a85f09-b991-441b-9ba6-44f3d36cc515","ios":"levelo://app?vid=f1a85f09-b991-441b-9ba6-44f3d36cc515"},"vehicle_type_id":"4","last_reported":1753446108,"current_range_meters":20800,"station_id":"ce4bh4p2rcd13ifvqe1g","pricing_plan_id":"cebpf4jnsgd1na2vs0mg"},{"bike_id":"1e87d131-4cf3-4575-b82f-5c7ac1a54601","system_id":"levelo_inurba_marseille","lat":43.284,"lon":5.37525,"is_reserved":false,"is_disabled":false,"rental_uris":{"android":"levelo://app?vid=1e87d131-4cf3-4575-b82f-5c7ac1a54601","ios":"levelo://app?vid=1e87d131-4cf3-4575-b82f-5c7ac1a54601"},"vehicle_type_id":"4","last_reported":1753446108,"current_range_meters":20400,"station_id":"ce4bh412rcd13ifvqds0","pricing_plan_id":"cebpf4jnsgd1na2vs0mg"},{"bike_id":"eeab9f4c-9807-4d04-b3b3-0905aee9c9d9","system_id":"levelo_inurba_marseille","lat":43.28417,"lon":5.34987,"is_reserved":false,"is_disabled":false,"rental_uris":{"android":"levelo://app?vid=eeab9f4c-9807-4d04-b3b3-0905aee9c9d9","ios":"levelo://app?vid=eeab9f4c-9807-4d04-b3b3-0905aee9c9d9"},"vehicle_type_id":"4","last_reported":1753446108,"current_range_meters":20400,"station_id":"ce4bhbh2rcd13ifvqepg","pricing_plan_id":"cebpf4jnsgd1na2vs0mg"},{"bike_id":"7e65c5ea-0429-45f5-a396-bd32e67f0744","system_id":"levelo_inurba_marseille","lat":43.334637,"lon":5.40043,"is_reserved":false,"is_disabled":false,"rental_uris":{"android":"levelo://app?vid=7e65c5ea-0429-45f5-a396-bd32e67f0744","ios":"levelo://app?vid=7e65c5ea-0429-45f5-a396-bd32e67f0744"},"vehicle_type_id":"4","last_reported":1753446108,"current_range_meters":20400,"station_id":"","pricing_plan_id":"cebpf4jnsgd1na2vs0mg"},{"bike_id":"4f70786a-b30f-4433-a51e-067deda4f384","system_id":"levelo_inurba_marseille","lat":43.254975,"lon":5.376499,"is_reserved":false,"is_disabled":false,"rental_uris":{"android":"levelo://app?vid=4f70786a-b30f-4433-a51e-067deda4f384","ios":"levelo://app?vid=4f70786a-b30f-4433-a51e-067deda4f384"},"vehicle_type_id":"4","last_reported":1753446108,"current_range_meters":20800,"station_id":"ce4bhh12rcd13ifvqff0","pricing_plan_id":"cebpf4jnsgd1na2vs0mg"},{"bike_id":"d465acfc-2f0b-4981-8e32-def328312bff","system_id":"levelo_inurba_marseille","lat":43.29293,"lon":5.37467,"is_reserved":false,"is_disabled":false,"rental_uris":{"android":"levelo://app?vid=d465acfc-2f0b-4981-8e32-def328312bff","ios":"levelo://app?vid=d465acfc-2f0b-4981-8e32-def328312bff"},"vehicle_type_id":"4","last_reported":1753446108,"current_range_meters":20800,"station_id":"ce4bgi12rcd13ifvqb70","pricing_plan_id":"cebpf4jnsgd1na2vs0mg"},{"bike_id":"7036cfbc-be50-466d-a32e-99f207c70a57","system_id":"levelo_inurba_marseille","lat":43.306,"lon":5.37212,"is_reserved":false,"is_disabled":false,"rental_uris":{"android":"levelo://app?vid=7036cfbc-be50-466d-a32e-99f207c70a57","ios":"levelo://app?vid=7036cfbc-be50-466d-a32e-99f207c70a57"},"vehicle_type_id":"4","last_reported":1753446108,"current_range_meters":20800,"station_id":"ce4bgqh2rcd13ifvqc4g","pricing_plan_id":"cebpf4jnsgd1na2vs0mg"},{"bike_id":"bda0b2eb-447d-412f-9eee-0f3855d61c9c","system_id":"levelo_inurba_marseille","lat":43.30988,"lon":5.37993,"is_reserved":false,"is_disabled":false,"rental_uris":{"android":"levelo://app?vid=bda0b2eb-447d-412f-9eee-0f3855d61c9c","ios":"levelo://app?vid=bda0b2eb-447d-412f-9eee-0f3855d61c9c"},"vehicle_type_id":"4","last_reported":1753446108,"current_range_meters":20800,"station_id":"","pricing_plan_id":"cebpf4jnsgd1na2vs0mg"},{"bike_id":"d257a2ce-2ea1-4f39-b0e3-ceb97b2bf5c8","system_id":"levelo_inurba_marseille","lat":43.30143,"lon":5.3808,"is_reserved":false,"is_disabled":false,"rental_uris":{"android":"levelo://app?vid=d257a2ce-2ea1-4f39-b0e3-ceb97b2bf5c8","ios":"levelo://app?vid=d257a2ce-2ea1-4f39-b0e3-ceb97b2bf5c8"},"vehicle_type_id":"4","last_reported":1753446108,"current_range_meters":20800,"station_id":"ce4bgjp2rcd13ifvqbh0","pricing_plan_id":"cebpf4jnsgd1na2vs0mg"},{"bike_id":"327a4ff8-f3fa-4f16-8c34-d26231b413a6","system_id":"levelo_inurba_marseille","lat":43.265454,"lon":5.372905,"is_reserved":false,"is_disabled":false,"rental_uris":{"android":"levelo://app?vid=327a4ff8-f3fa-4f16-8c34-d26231b413a6","ios":"levelo://app?vid=327a4ff8-f3fa-4f16-8c34-d26231b413a6"},"vehicle_type_id":"4","last_reported":1753446108,"current_range_meters":20800,"station_id":"ce4bhg12rcd13ifvqf70","pricing_plan_id":"cebpf4jnsgd1na2vs0mg"},{"bike_id":"41b4acd9-96cf-4b37-a284-af4338bad00d","system_id":"levelo_inurba_marseille","lat":43.24164,"lon":5.3639,"is_reserved":false,"is_disabled":false,"rental_uris":{"android":"levelo://app?vid=41b4acd9-96cf-4b37-a284-af4338bad00d","ios":"levelo://app?vid=41b4acd9-96cf-4b37-a284-af4338bad00d"},"vehicle_type_id":"4","last_reported":1753446108,"current_range_meters":20800,"station_id":"cpo36qri1sfpv3e86is0","pricing_plan_id":"cebpf4jnsgd1na2vs0mg"},{"bike_id":"b2260a10-3612-4b1a-971a-8f57ec2d3989","system_id":"levelo_inurba_marseille","lat":43.24177,"lon":5.3974,"is_reserved":false,"is_disabled":false,"rental_uris":{"android":"levelo://app?vid=b2260a10-3612-4b1a-971a-8f57ec2d3989","ios":"levelo://app?vid=b2260a10-3612-4b1a-971a-8f57ec2d3989"},"vehicle_type_id":"4","last_reported":1753446108,"current_range_meters":20800,"station_id":"ce4bhn12rcd13ifvqgpg","pricing_plan_id":"cebpf4jnsgd1na2vs0mg"},{"bike_id":"190d44ff-e900-4f86-b795-72c49e52123c","system_id":"levelo_inurba_marseille","lat":43.30142,"lon":5.37937,"is_reserved":false,"is_disabled":false,"rental_uris":{"android":"levelo://app?vid=190d44ff-e900-4f86-b795-72c49e52123c","ios":"levelo://app?vid=190d44ff-e900-4f86-b795-72c49e52123c"},"vehicle_type_id":"4","last_reported":1753446108,"current_range_meters":20800,"station_id":"","pricing_plan_id":"cebpf4jnsgd1na2vs0mg"},{"bike_id":"b7b412ca-6c04-4c6c-8444-1780a7ef9ea6","system_id":"levelo_inurba_marseille","lat":43.273781,"lon":5.362612,"is_reserved":false,"is_disabled":false,"rental_uris":{"android":"levelo://app?vid=b7b412ca-6c04-4c6c-8444-1780a7ef9ea6","ios":"levelo://app?vid=b7b412ca-6c04-4c6c-8444-1780a7ef9ea6"},"vehicle_type_id":"4","last_reported":1753446108,"current_range_meters":20800,"station_id":"ce4bhbh2rcd13ifvqeo0","pricing_plan_id":"cebpf4jnsgd1na2vs0mg"},{"bike_id":"6b34aaa6-58a0-46fb-bc50-6499601beb64","system_id":"levelo_inurba_marseille","lat":43.224956,"lon":5.347884,"is_reserved":false,"is_disabled":false,"rental_uris":{"android":"levelo://app?vid=6b34aaa6-58a0-46fb-bc50-6499601beb64","ios":"levelo://app?vid=6b34aaa6-58a0-46fb-bc50-6499601beb64"},"vehicle_type_id":"4","last_reported":1753446108,"current_range_meters":20800,"station_id":"st_cvj5dfep6f1abm77gieg","pricing_plan_id":"cebpf4jnsgd1na2vs0mg"},{"bike_id":"81487674-a411-4e70-8b87-896a2b36fff2","system_id":"levelo_inurba_marseille","lat":43.324855,"lon":5.365571,"is_reserved":false,"is_disabled":false,"rental_uris":{"android":"levelo://app?vid=81487674-a411-4e70-8b87-896a2b36fff2","ios":"levelo://app?vid=81487674-a411-4e70-8b87-896a2b36fff2"},"vehicle_type_id":"4","last_reported":1753446108,"current_range_meters":20800,"station_id":"ce4bhs12rcd13ifvqhvg","pricing_plan_id":"cebpf4jnsgd1na2vs0mg"},{"bike_id":"6308591e-a1f1-45fe-9435-f1e81b4a1b4e","system_id":"levelo_inurba_marseille","lat":43.31294,"lon":5.37078,"is_reserved":false,"is_disabled":false,"rental_uris":{"android":"levelo://app?vid=6308591e-a1f1-45fe-9435-f1e81b4a1b4e","ios":"levelo://app?vid=6308591e-a1f1-45fe-9435-f1e81b4a1b4e"},"vehicle_type_id":"4","last_reported":1753446108,"current_range_meters":20800,"station_id":"","pricing_plan_id":"cebpf4jnsgd1na2vs0mg"},{"bike_id":"b1f61b2a-e468-4be2-8835-c3eb2db6a97f","system_id":"levelo_inurba_marseille","lat":43.29266,"lon":5.38435,"is_reserved":false,"is_disabled":false,"rental_uris":{"android":"levelo://app?vid=b1f61b2a-e468-4be2-8835-c3eb2db6a97f","ios":"levelo://app?vid=b1f61b2a-e468-4be2-8835-c3eb2db6a97f"},"vehicle_type_id":"4","last_reported":1753446108,"current_range_meters":20800,"station_id":"ce4bh692rcd13ifvqea0","pricing_plan_id":"cebpf4jnsgd1na2vs0mg"},{"bike_id":"065c060c-0670-4116-8d64-f7282708b254","system_id":"levelo_inurba_marseille","lat":43.3019,"lon":5.36631,"is_reserved":false,"is_disabled":false,"rental_uris":{"android":"levelo://app?vid=065c060c-0670-4116-8d64-f7282708b254","ios":"levelo://app?vid=065c060c-0670-4116-8d64-f7282708b254"},"vehicle_type_id":"4","last_reported":1753446108,"current_range_meters":21600,"station_id":"ce4bgrh2rcd13ifvqc8g","pricing_plan_id":"cebpf4jnsgd1na2vs0mg"},{"bike_id":"75a4075f-85c1-43c5-ad92-73435db6c289","system_id":"levelo_inurba_marseille","lat":43.26555,"lon":5.37282,"is_reserved":false,"is_disabled":false,"rental_uris":{"android":"levelo://app?vid=75a4075f-85c1-43c5-ad92-73435db6c289","ios":"levelo://app?vid=75a4075f-85c1-43c5-ad92-73435db6c289"},"vehicle_type_id":"4","last_reported":1753446108,"current_range_meters":21600,"station_id":"ce4bhg12rcd13ifvqf70","pricing_plan_id":"cebpf4jnsgd1na2vs0mg"},{"bike_id":"32a674f4-9e24-4034-b442-aab45a81c890","system_id":"levelo_inurba_marseille","lat":43.25498,"lon":5.37649,"is_reserved":false,"is_disabled":false,"rental_uris":{"android":"levelo://app?vid=32a674f4-9e24-4034-b442-aab45a81c890","ios":"levelo://app?vid=32a674f4-9e24-4034-b442-aab45a81c890"},"vehicle_type_id":"4","last_reported":1753446108,"current_range_meters":21600,"station_id":"ce4bhh12rcd13ifvqff0","pricing_plan_id":"cebpf4jnsgd1na2vs0mg"},{"bike_id":"ca6e4571-4a00-41cd-9c03-53df929b98f6","system_id":"levelo_inurba_marseille","lat":43.2956,"lon":5.37535,"is_reserved":false,"is_disabled":false,"rental_uris":{"android":"levelo://app?vid=ca6e4571-4a00-41cd-9c03-53df929b98f6","ios":"levelo://app?vid=ca6e4571-4a00-41cd-9c03-53df929b98f6"},"vehicle_type_id":"4","last_reported":1753446108,"current_range_meters":21600,"station_id":"ce4bgh92rcd13ifvqb50","pricing_plan_id":"cebpf4jnsgd1na2vs0mg"},{"bike_id":"0d0c5710-a329-48d2-92cb-5ec3fdb8ee58","system_id":"levelo_inurba_marseille","lat":43.26539,"lon":5.37305,"is_reserved":false,"is_disabled":false,"rental_uris":{"android":"levelo://app?vid=0d0c5710-a329-48d2-92cb-5ec3fdb8ee58","ios":"levelo://app?vid=0d0c5710-a329-48d2-92cb-5ec3fdb8ee58"},"vehicle_type_id":"4","last_reported":1753446108,"current_range_meters":21600,"station_id":"ce4bhg12rcd13ifvqf70","pricing_plan_id":"cebpf4jnsgd1na2vs0mg"},{"bike_id":"81ce0239-b33b-4ee3-84ab-6148d97f7117","system_id":"levelo_inurba_marseille","lat":43.31685,"lon":5.40475,"is_reserved":false,"is_disabled":false,"rental_uris":{"android":"levelo://app?vid=81ce0239-b33b-4ee3-84ab-6148d97f7117","ios":"levelo://app?vid=81ce0239-b33b-4ee3-84ab-6148d97f7117"},"vehicle_type_id":"4","last_reported":1753446108,"current_range_meters":21600,"station_id":"ce4bh012rcd13ifvqd00","pricing_plan_id":"cebpf4jnsgd1na2vs0mg"},{"bike_id":"cb09081d-607a-4b5b-997d-8185a6e5ca41","system_id":"levelo_inurba_marseille","lat":43.28468,"lon":5.38415,"is_reserved":false,"is_disabled":false,"rental_uris":{"android":"levelo://app?vid=cb09081d-607a-4b5b-997d-8185a6e5ca41","ios":"levelo://app?vid=cb09081d-607a-4b5b-997d-8185a6e5ca41"},