{"last_updated":1750871464,"ttl":60,"version":"2.2","data":{"bikes":[{"bike_id":"3da29fb8-fc97-44c6-b9ac-31dd456b2fd4","system_id":"levelo_inurba_marseille","lat":43.33771,"lon":5.37424,"is_reserved":false,"is_disabled":true,"rental_uris":{"android":"levelo://app?vid=3da29fb8-fc97-44c6-b9ac-31dd456b2fd4","ios":"levelo://app?vid=3da29fb8-fc97-44c6-b9ac-31dd456b2fd4"},"vehicle_type_id":"4","last_reported":1750871464,"current_range_meters":0,"station_id":"","pricing_plan_id":"cebpf4jnsgd1na2vs0mg"},{"bike_id":"01861ad8-a8d7-4be6-816e-651927c87584","system_id":"levelo_inurba_marseille","lat":43.33751,"lon":5.37456,"is_reserved":false,"is_disabled":true,"rental_uris":{"android":"levelo://app?vid=01861ad8-a8d7-4be6-816e-651927c87584","ios":"levelo://app?vid=01861ad8-a8d7-4be6-816e-651927c87584"},"vehicle_type_id":"4","last_reported":1750871464,"current_range_meters":0,"station_id":"","pricing_plan_id":"cebpf4jnsgd1na2vs0mg"},{"bike_id":"8c6de0c1-9eaf-4c18-8155-d956789067ae","system_id":"levelo_inurba_marseille","lat":43.27953,"lon":5.44238,"is_reserved":false,"is_disabled":true,"rental_uris":{"android":"levelo://app?vid=8c6de0c1-9eaf-4c18-8155-d956789067ae","ios":"levelo://app?vid=8c6de0c1-9eaf-4c18-8155-d956789067ae"},"vehicle_type_id":"4","last_reported":1750871464,"current_range_meters":0,"station_id":"","pricing_plan_id":"cebpf4jnsgd1na2vs0mg"},{"bike_id":"01a7b5de-cbb0-45f6-b552-105157f7a511","system_id":"levelo_inurba_marseille","lat":43.23858,"lon":5.43065,"is_reserved":false,"is_disabled":true,"rental_uris":{"android":"levelo://app?vid=01a7b5de-cbb0-45f6-b552-105157f7a511","ios":"levelo://app?vid=01a7b5de-cbb0-45f6-b552-105157f7a511"},"vehicle_type_id":"4","last_reported":1750871464,"current_range_meters":0,"station_id":"","pricing_plan_id":"cebpf4jnsgd1na2vs0mg"},{"bike_id":"62a493c7-4534-4419-ad43-0582de34a72a","system_id":"levelo_inurba_marseille","lat":43.21366,"lon":5.355183,"is_reserved":false,"is_disabled":true,"rental_uris":{"android":"levelo://app?vid=62a493c7-4534-4419-ad43-0582de34a72a","ios":"levelo://app?vid=62a493c7-4534-4419-ad43-0582de34a72a"},"vehicle_type_id":"4","last_reported":1750871464,"current_range_meters":0,"station_id":"","pricing_plan_id":"cebpf4jnsgd1na2vs0mg"},{"bike_id":"85c58f10-925d-4344-b389-09267487a6fc","system_id":"levelo_inurba_marseille","lat":43.21106,"lon":5.41928,"is_reserved":false,"is_disabled":true,"rental_uris":{"android":"levelo://app?vid=85c58f10-925d-4344-b389-09267487a6fc","ios":"levelo://app?vid=85c58f10-925d-4344-b389-09267487a6fc"},"vehicle_type_id":"4","last_reported":1750871464,"current_range_meters":0,"station_id":"","pricing_plan_id":"cebpf4jnsgd1na2vs0mg"},{"bike_id":"a9e5e555-fdaf-49c0-b286-f0f2659b17d0","system_id":"levelo_inurba_marseille","lat":43.282993,"lon":5.4324,"is_reserved":false,"is_disabled":true,"rental_uris":{"android":"levelo://app?vid=a9e5e555-fdaf-49c0-b286-f0f2659b17d0","ios":"levelo://app?vid=a9e5e555-fdaf-49c0-b286-f0f2659b17d0"},"vehicle_type_id":"4","last_reported":1750871464,"current_range_meters":0,"station_id":"","pricing_plan_id":"cebpf4jnsgd1na2vs0mg"},{"bike_id":"139d47bd-ff87-42d8-a4c6-89da4be6f80c","system_id":"levelo_inurba_marseille","lat":43.27958,"lon":5.44235,"is_reserved":false,"is_disabled":true,"rental_uris":{"android":"levelo://app?vid=139d47bd-ff87-42d8-a4c6-89da4be6f80c","ios":"levelo://app?vid=139d47bd-ff87-42d8-a4c6-89da4be6f80c"},"vehicle_type_id":"4","last_reported":1750871464,"current_range_meters":0,"station_id":"","pricing_plan_id":"cebpf4jnsgd1na2vs0mg"},{"bike_id":"5c4c21e3-0f2f-4bc6-8d31-f41d7813bc60","system_id":"levelo_inurba_marseille","lat":43.25346,"lon":5.38192,"is_reserved":false,"is_disabled":true,"rental_uris":{"android":"levelo://app?vid=5c4c21e3-0f2f-4bc6-8d31-f41d7813bc60","ios":"levelo://app?vid=5c4c21e3-0f2f-4bc6-8d31-f41d7813bc60"},"vehicle_type_id":"4","last_reported":1750871464,"current_range_meters":0,"station_id":"","pricing_plan_id":"cebpf4jnsgd1na2vs0mg"},{"bike_id":"a147e67d-e0b1-425e-bbda-ae9524df353e","system_id":"levelo_inurba_marseille","lat":43.337485,"lon":5.374613,"is_reserved":false,"is_disabled":true,"rental_uris":{"android":"levelo://app?vid=a147e67d-e0b1-425e-bbda-ae9524df353e","ios":"levelo://app?vid=a147e67d-e0b1-425e-bbda-ae9524df353e"},"vehicle_type_id":"4","last_reported":1750871464,"current_range_meters":0,"station_id":"","pricing_plan_id":"cebpf4jnsgd1na2vs0mg"},{"bike_id":"4d064f95-6dcb-4234-9e98-7c70fbb74351","system_id":"levelo_inurba_marseille","lat":43.337444,"lon":5.374475,"is_reserved":false,"is_disabled":true,"rental_uris":{"android":"levelo://app?vid=4d064f95-6dcb-4234-9e98-7c70fbb74351","ios":"levelo://app?vid=4d064f95-6dcb-4234-9e98-7c70fbb74351"},"vehicle_type_id":"4","last_reported":1750871464,"current_range_meters":0,"station_id":"","pricing_plan_id":"cebpf4jnsgd1na2vs0mg"},{"bike_id":"d6609b4f-333b-43c1-9ebe-8726f5e76e88","system_id":"levelo_inurba_marseille","lat":43.337444,"lon":5.374475,"is_reserved":false,"is_disabled":true,"rental_uris":{"android":"levelo://app?vid=d6609b4f-333b-43c1-9ebe-8726f5e76e88","ios":"levelo://app?vid=d6609b4f-333b-43c1-9ebe-8726f5e76e88"},"vehicle_type_id":"4","last_reported":1750871464,"current_range_meters":0,"station_id":"","pricing_plan_id":"cebpf4jnsgd1na2vs0mg"},{"bike_id":"9cb193d0-906b-4ac2-85c5-eea810b1d20f","system_id":"levelo_inurba_marseille","lat":43.2938,"lon":5.42951,"is_reserved":false,"is_disabled":true,"rental_uris":{"android":"levelo://app?vid=9cb193d0-906b-4ac2-85c5-eea810b1d20f","ios":"levelo://app?vid=9cb193d0-906b-4ac2-85c5-eea810b1d20f"},"vehicle_type_id":"4","last_reported":1750871464,"current_range_meters":0,"station_id":"","pricing_plan_id":"cebpf4jnsgd1na2vs0mg"},{"bike_id":"bd17737b-22d2-4e4f-88e8-4eb661d864c4","system_id":"levelo_inurba_marseille","lat":43.291743,"lon":5.460698,"is_reserved":false,"is_disabled":true,"rental_uris":{"android":"levelo://app?vid=bd17737b-22d2-4e4f-88e8-4eb661d864c4","ios":"levelo://app?vid=bd17737b-22d2-4e4f-88e8-4eb661d864c4"},"vehicle_type_id":"4","last_reported":1750871464,"current_range_meters":0,"station_id":"","pricing_plan_id":"cebpf4jnsgd1na2vs0mg"},{"bike_id":"9d3724b1-0dc8-4689-9d6a-55005a9503cb","system_id":"levelo_inurba_marseille","lat":43.28614,"lon":5.428209,"is_reserved":false,"is_disabled":true,"rental_uris":{"android":"levelo://app?vid=9d3724b1-0dc8-4689-9d6a-55005a9503cb","ios":"levelo://app?vid=9d3724b1-0dc8-4689-9d6a-55005a9503cb"},"vehicle_type_id":"4","last_reported":1750871464,"current_range_meters":0,"station_id":"","pricing_plan_id":"cebpf4jnsgd1na2vs0mg"},{"bike_id":"17f2bf91-421e-46bd-a761-71a4f27295fd","system_id":"levelo_inurba_marseille","lat":43.238439,"lon":5.430672,"is_reserved":false,"is_disabled":true,"rental_uris":{"android":"levelo://app?vid=17f2bf91-421e-46bd-a761-71a4f27295fd","ios":"levelo://app?vid=17f2bf91-421e-46bd-a761-71a4f27295fd"},"vehicle_type_id":"4","last_reported":1750871464,"current_range_meters":0,"station_id":"","pricing_plan_id":"cebpf4jnsgd1na2vs0mg"},{"bike_id":"3d07ef76-af52-42e0-81f1-5f4963c9ee29","system_id":"levelo_inurba_marseille","lat":43.294759,"lon":5.438289,"is_reserved":false,"is_disabled":true,"rental_uris":{"android":"levelo://app?vid=3d07ef76-af52-42e0-81f1-5f4963c9ee29","ios":"levelo://app?vid=3d07ef76-af52-42e0-81f1-5f4963c9ee29"},"vehicle_type_id":"4","last_reported":1750871464,"current_range_meters":0,"station_id":"","pricing_plan_id":"cebpf4jnsgd1na2vs0mg"},{"bike_id":"9b8be277-ab0e-4923-93d8-769b11e4cdb7","system_id":"levelo_inurba_marseille","lat":43.26155,"lon":5.38731,"is_reserved":false,"is_disabled":true,"rental_uris":{"android":"levelo://app?vid=9b8be277-ab0e-4923-93d8-769b11e4cdb7","ios":"levelo://app?vid=9b8be277-ab0e-4923-93d8-769b11e4cdb7"},"vehicle_type_id":"4","last_reported":1750871464,"current_range_meters":0,"station_id":"","pricing_plan_id":"cebpf4jnsgd1na2vs0mg"},{"bike_id":"cb3218af-42d2-4f78-a286-e9df96bd879b","system_id":"levelo_inurba_marseille","lat":43.29312,"lon":5.37149,"is_reserved":false,"is_disabled":true,"rental_uris":{"android":"levelo://app?vid=cb3218af-42d2-4f78-a286-e9df96bd879b","ios":"levelo://app?vid=cb3218af-42d2-4f78-a286-e9df96bd879b"},"vehicle_type_id":"4","last_reported":1750871464,"current_range_meters":0,"station_id":"ce4bgh92rcd13ifvqb40","pricing_plan_id":"cebpf4jnsgd1na2vs0mg"},{"bike_id":"2627ff25-d632-4df8-98cc-d61d97eda74a","system_id":"levelo_inurba_marseille","lat":43.31226,"lon":5.36861,"is_reserved":false,"is_disabled":true,"rental_uris":{"android":"levelo://app?vid=2627ff25-d632-4df8-98cc-d61d97eda74a","ios":"levelo://app?vid=2627ff25-d632-4df8-98cc-d61d97eda74a"},"vehicle_type_id":"4","last_reported":1750871464,"current_range_meters":0,"station_id":"ce4bgl92rcd13ifvqbq0","pricing_plan_id":"cebpf4jnsgd1na2vs0mg"},{"bike_id":"e2f4af2e-56ce-4f38-bd20-43ec08ce83f0","system_id":"levelo_inurba_marseille","lat":43.30923,"lon":5.40142,"is_reserved":false,"is_disabled":true,"rental_uris":{"android":"levelo://app?vid=e2f4af2e-56ce-4f38-bd20-43ec08ce83f0","ios":"levelo://app?vid=e2f4af2e-56ce-4f38-bd20-43ec08ce83f0"},"vehicle_type_id":"4","last_reported":1750871464,"current_range_meters":0,"station_id":"ce4bgvp2rcd13ifvqct0","pricing_plan_id":"cebpf4jnsgd1na2vs0mg"},{"bike_id":"466ca980-f613-401c-97a8-4fc07d7bf34d","system_id":"levelo_inurba_marseille","lat":43.302077,"lon":5.394578,"is_reserved":false,"is_disabled":true,"rental_uris":{"android":"levelo://app?vid=466ca980-f613-401c-97a8-4fc07d7bf34d","ios":"levelo://app?vid=466ca980-f613-401c-97a8-4fc07d7bf34d"},"vehicle_type_id":"4","last_reported":1750871464,"current_range_meters":0,"station_id":"ce4bh0p2rcd13ifvqd70","pricing_plan_id":"cebpf4jnsgd1na2vs0mg"},{"bike_id":"987a9e94-eed1-4c86-80bb-366c0607112e","system_id":"levelo_inurba_marseille","lat":43.295776,"lon":5.399681,"is_reserved":false,"is_disabled":true,"rental_uris":{"android":"levelo://app?vid=987a9e94-eed1-4c86-80bb-366c0607112e","ios":"levelo://app?vid=987a9e94-eed1-4c86-80bb-366c0607112e"},"vehicle_type_id":"4","last_reported":1750871464,"current_range_meters":0,"station_id":"ce4bh312rcd13ifvqdj0","pricing_plan_id":"cebpf4jnsgd1na2vs0mg"},{"bike_id":"824218fa-9ccd-4347-9b03-4640966ae56d","system_id":"levelo_inurba_marseille","lat":43.273773,"lon":5.362595,"is_reserved":false,"is_disabled":true,"rental_uris":{"android":"levelo://app?vid=824218fa-9ccd-4347-9b03-4640966ae56d","ios":"levelo://app?vid=824218fa-9ccd-4347-9b03-4640966ae56d"},"vehicle_type_id":"4","last_reported":1750871464,"current_range_meters":0,"station_id":"ce4bhbh2rcd13ifvqeo0","pricing_plan_id":"cebpf4jnsgd1na2vs0mg"},{"bike_id":"9cdc0228-9917-42fe-bbcc-36bc5b4c0d46","system_id":"levelo_inurba_marseille","lat":43.27379,"lon":5.36255,"is_reserved":false,"is_disabled":true,"rental_uris":{"android":"levelo://app?vid=9cdc0228-9917-42fe-bbcc-36bc5b4c0d46","ios":"levelo://app?vid=9cdc0228-9917-42fe-bbcc-36bc5b4c0d46"},"vehicle_type_id":"4","last_reported":1750871464,"current_range_meters":0,"station_id":"ce4bhbh2rcd13ifvqeo0","pricing_plan_id":"cebpf4jnsgd1na2vs0mg"},{"bike_id":"cb05dc58-d2fb-4df6-b9c7-482f4f7708d1","system_id":"levelo_inurba_marseille","lat":43.2828,"lon":5.35067,"is_reserved":false,"is_disabled":true,"rental_uris":{"android":"levelo://app?vid=cb05dc58-d2fb-4df6-b9c7-482f4f7708d1","ios":"levelo://app?vid=cb05dc58-d2fb-4df6-b9c7-482f4f7708d1"},"vehicle_type_id":"4","last_reported":1750871464,"current_range_meters":0,"station_id":"ce4bhbp2rcd13ifvqerg","pricing_plan_id":"cebpf4jnsgd1na2vs0mg"},{"bike_id":"200cd453-534b-4a3d-a6f1-9d7fe8913761","system_id":"levelo_inurba_marseille","lat":43.29291,"lon":5.36813,"is_reserved":false,"is_disabled":true,"rental_uris":{"android":"levelo://app?vid=200cd453-534b-4a3d-a6f1-9d7fe8913761","ios":"levelo://app?vid=200cd453-534b-4a3d-a6f1-9d7fe8913761"},"vehicle_type_id":"4","last_reported":1750871464,"current_range_meters":0,"station_id":"ce4bhbp2rcd13ifvqesg","pricing_plan_id":"cebpf4jnsgd1na2vs0mg"},{"bike_id":"28f06736-ef33-46ef-ae9b-2db2f3e7e82d","system_id":"levelo_inurba_marseille","lat":43.28618,"lon":5.35108,"is_reserved":false,"is_disabled":true,"rental_uris":{"android":"levelo://app?vid=28f06736-ef33-46ef-ae9b-2db2f3e7e82d","ios":"levelo://app?vid=28f06736-ef33-46ef-ae9b-2db2f3e7e82d"},"vehicle_type_id":"4","last_reported":1750871464,"current_range_meters":0,"station_id":"ce4bhch2rcd13ifvqeug","pricing_plan_id":"cebpf4jnsgd1na2vs0mg"},{"bike_id":"3125a2b5-7e4c-4c1f-bb6b-db81de176ad2","system_id":"levelo_inurba_marseille","lat":43.25717,"lon":5.4111,"is_reserved":false,"is_disabled":true,"rental_uris":{"android":"levelo://app?vid=3125a2b5-7e4c-4c1f-bb6b-db81de176ad2","ios":"levelo://app?vid=3125a2b5-7e4c-4c1f-bb6b-db81de176ad2"},"vehicle_type_id":"4","last_reported":1750871464,"current_range_meters":0,"station_id":"ce4bhkp2rcd13ifvqgd0","pricing_plan_id":"cebpf4jnsgd1na2vs0mg"},{"bike_id":"57a6118c-9089-4f1d-8cbe-a9050df44d3e","system_id":"levelo_inurba_marseille","lat":43.25862,"lon":5.3991,"is_reserved":false,"is_disabled":true,"rental_uris":{"android":"levelo://app?vid=57a6118c-9089-4f1d-8cbe-a9050df44d3e","ios":"levelo://app?vid=57a6118c-9089-4f1d-8cbe-a9050df44d3e"},"vehicle_type_id":"4","last_reported":1750871464,"current_range_meters":0,"station_id":"ce4bhl92rcd13ifvqghg","pricing_plan_id":"cebpf4jnsgd1na2vs0mg"},{"bike_id":"ebcb3503-a19b-41ed-902e-d207cffdba45","system_id":"levelo_inurba_marseille","lat":43.231514,"lon":5.43718,"is_reserved":false,"is_disabled":true,"rental_uris":{"android":"levelo://app?vid=ebcb3503-a19b-41ed-902e-d207cffdba45","ios":"levelo://app?vid=ebcb3503-a19b-41ed-902e-d207cffdba45"},"vehicle_type_id":"4","last_reported":1750871464,"current_range_meters":0,"station_id":"ce4bhmp2rcd13ifvqgog","pricing_plan_id":"cebpf4jnsgd1na2vs0mg"},{"bike_id":"940f5dd4-b69f-43b3-9dc1-640120cb1f77","system_id":"levelo_inurba_marseille","lat":43.23175,"lon":5.43689,"is_reserved":false,"is_disabled":true,"rental_uris":{"android":"levelo://app?vid=940f5dd4-b69f-43b3-9dc1-640120cb1f77","ios":"levelo://app?vid=940f5dd4-b69f-43b3-9dc1-640120cb1f77"},"vehicle_type_id":"4","last_reported":1750871464,"current_range_meters":0,"station_id":"ce4bhmp2rcd13ifvqgog","pricing_plan_id":"cebpf4jnsgd1na2vs0mg"},{"bike_id":"2170be44-ef1a-4c93-acb5-50d9b10f3599","system_id":"levelo_inurba_marseille","lat":43.23156,"lon":5.43701,"is_reserved":false,"is_disabled":true,"rental_uris":{"android":"levelo://app?vid=2170be44-ef1a-4c93-acb5-50d9b10f3599","ios":"levelo://app?vid=2170be44-ef1a-4c93-acb5-50d9b10f3599"},"vehicle_type_id":"4","last_reported":1750871464,"current_range_meters":0,"station_id":"ce4bhmp2rcd13ifvqgog","pricing_plan_id":"cebpf4jnsgd1na2vs0mg"},{"bike_id":"3755d9be-f95a-4d88-a243-8e251b3ff0a4","system_id":"levelo_inurba_marseille","lat":43.24168,"lon":5.363967,"is_reserved":false,"is_disabled":true,"rental_uris":{"android":"levelo://app?vid=3755d9be-f95a-4d88-a243-8e251b3ff0a4","ios":"levelo://app?vid=3755d9be-f95a-4d88-a243-8e251b3ff0a4"},"vehicle_type_id":"4","last_reported":1750871464,"current_range_meters":0,"station_id":"cpo36qri1sfpv3e86is0","pricing_plan_id":"cebpf4jnsgd1na2vs0mg"},{"bike_id":"b17b6606-336a-4606-9b65-af139c49de26","system_id":"levelo_inurba_marseille","lat":43.25685,"lon":5.42728,"is_reserved":false,"is_disabled":true,"rental_uris":{"android":"levelo://app?vid=b17b6606-336a-4606-9b65-af139c49de26","ios":"levelo://app?vid=b17b6606-336a-4606-9b65-af139c49de26"},"vehicle_type_id":"4","last_reported":1750871464,"current_range_meters":400,"station_id":"","pricing_plan_id":"cebpf4jnsgd1na2vs0mg"},{"bike_id":"cc83b29b-2606-4d25-9dbf-dfd78e4208d6","system_id":"levelo_inurba_marseille","lat":43.29584,"lon":5.36743,"is_reserved":false,"is_disabled":true,"rental_uris":{"android":"levelo://app?vid=cc83b29b-2606-4d25-9dbf-dfd78e4208d6","ios":"levelo://app?vid=cc83b29b-2606-4d25-9dbf-dfd78e4208d6"},"vehicle_type_id":"4","last_reported":1750871464,"current_range_meters":400,"station_id":"ce4bgph2rcd13ifvqc2g","pricing_plan_id":"cebpf4jnsgd1na2vs0mg"},{"bike_id":"816dc7d1-7b8e-4400-9299-6fb1eff4e796","system_id":"levelo_inurba_marseille","lat":43.306,"lon":5.37227,"is_reserved":false,"is_disabled":true,"rental_uris":{"android":"levelo://app?vid=816dc7d1-7b8e-4400-9299-6fb1eff4e796","ios":"levelo://app?vid=816dc7d1-7b8e-4400-9299-6fb1eff4e796"},"vehicle_type_id":"4","last_reported":1750871464,"current_range_meters":800,"station_id":"ce4bgqh2rcd13ifvqc4g","pricing_plan_id":"cebpf4jnsgd1na2vs0mg"},{"bike_id":"19a68af6-aa1c-4515-8396-11ecdaa9e951","system_id":"levelo_inurba_marseille","lat":43.30474,"lon":5.37904,"is_reserved":false,"is_disabled":true,"rental_uris":{"android":"levelo://app?vid=19a68af6-aa1c-4515-8396-11ecdaa9e951","ios":"levelo://app?vid=19a68af6-aa1c-4515-8396-11ecdaa9e951"},"vehicle_type_id":"4","last_reported":1750871464,"current_range_meters":800,"station_id":"ce4bgup2rcd13ifvqcn0","pricing_plan_id":"cebpf4jnsgd1na2vs0mg"},{"bike_id":"f872c281-f1a9-4b8d-9207-b31536096997","system_id":"levelo_inurba_marseille","lat":43.30928,"lon":5.40136,"is_reserved":false,"is_disabled":true,"rental_uris":{"android":"levelo://app?vid=f872c281-f1a9-4b8d-9207-b31536096997","ios":"levelo://app?vid=f872c281-f1a9-4b8d-9207-b31536096997"},"vehicle_type_id":"4","last_reported":1750871464,"current_range_meters":800,"station_id":"ce4bgvp2rcd13ifvqct0","pricing_plan_id":"cebpf4jnsgd1na2vs0mg"},{"bike_id":"f963a6a5-4ea3-4156-81ae-f315ff59a323","system_id":"levelo_inurba_marseille","lat":43.29017,"lon":5.35597,"is_reserved":false,"is_disabled":true,"rental_uris":{"android":"levelo://app?vid=f963a6a5-4ea3-4156-81ae-f315ff59a323","ios":"levelo://app?vid=f963a6a5-4ea3-4156-81ae-f315ff59a323"},"vehicle_type_id":"4","last_reported":1750871464,"current_range_meters":800,"station_id":"ce4bhb92rcd13ifvqen0","pricing_plan_id":"cebpf4jnsgd1na2vs0mg"},{"bike_id":"f8872e30-c90e-4908-bd82-518d3b8af4c7","system_id":"levelo_inurba_marseille","lat":43.26569,"lon":5.39016,"is_reserved":false,"is_disabled":true,"rental_uris":{"android":"levelo://app?vid=f8872e30-c90e-4908-bd82-518d3b8af4c7","ios":"levelo://app?vid=f8872e30-c90e-4908-bd82-518d3b8af4c7"},"vehicle_type_id":"4","last_reported":1750871464,"current_range_meters":800,"station_id":"ce4bhe12rcd13ifvqf30","pricing_plan_id":"cebpf4jnsgd1na2vs0mg"},{"bike_id":"3869c9c5-0c24-4a6b-a98a-0f8e83a70154","system_id":"levelo_inurba_marseille","lat":43.24547,"lon":5.39522,"is_reserved":false,"is_disabled":true,"rental_uris":{"android":"levelo://app?vid=3869c9c5-0c24-4a6b-a98a-0f8e83a70154","ios":"levelo://app?vid=3869c9c5-0c24-4a6b-a98a-0f8e83a70154"},"vehicle_type_id":"4","last_reported":1750871464,"current_range_meters":800,"station_id":"ce4bhlp2rcd13ifvqgjg","pricing_plan_id":"cebpf4jnsgd1na2vs0mg"},{"bike_id":"62153fdf-bda9-4d55-9a8d-aa931b07fd8a","system_id":"levelo_inurba_marseille","lat":43.282705,"lon":5.350704,"is_reserved":false,"is_disabled":true,"rental_uris":{"android":"levelo://app?vid=62153fdf-bda9-4d55-9a8d-aa931b07fd8a","ios":"levelo://app?vid=62153fdf-bda9-4d55-9a8d-aa931b07fd8a"},"vehicle_type_id":"4","last_reported":1750871464,"current_range_meters":1200,"station_id":"","pricing_plan_id":"cebpf4jnsgd1na2vs0mg"},{"bike_id":"45f54f61-99b2-4a5e-a6aa-41e252486eeb","system_id":"levelo_inurba_marseille","lat":43.2281,"lon":5.34966,"is_reserved":false,"is_disabled":true,"rental_uris":{"android":"levelo://app?vid=45f54f61-99b2-4a5e-a6aa-41e252486eeb","ios":"levelo://app?vid=45f54f61-99b2-4a5e-a6aa-41e252486eeb"},"vehicle_type_id":"4","last_reported":1750871464,"current_range_meters":1200,"station_id":"","pricing_plan_id":"cebpf4jnsgd1na2vs0mg"},{"bike_id":"d87b9503-5ed2-41f4-b281-5470b4942b55","system_id":"levelo_inurba_marseille","lat":43.27619,"lon":5.36107,"is_reserved":false,"is_disabled":true,"rental_uris":{"android":"levelo://app?vid=d87b9503-5ed2-41f4-b281-5470b4942b55","ios":"levelo://app?vid=d87b9503-5ed2-41f4-b281-5470b4942b55"},"vehicle_type_id":"4","last_reported":1750871464,"current_range_meters":1200,"station_id":"ce4bgj92rcd13ifvqbe0","pricing_plan_id":"cebpf4jnsgd1na2vs0mg"},{"bike_id":"55f672a8-a0ce-4d8c-a60b-9bb48981dee8","system_id":"levelo_inurba_marseille","lat":43.31112,"lon":5.37771,"is_reserved":false,"is_disabled":true,"rental_uris":{"android":"levelo://app?vid=55f672a8-a0ce-4d8c-a60b-9bb48981dee8","ios":"levelo://app?vid=55f672a8-a0ce-4d8c-a60b-9bb48981dee8"},"vehicle_type_id":"4","last_reported":1750871464,"current_range_meters":1200,"station_id":"ce4bgt92rcd13ifvqcg0","pricing_plan_id":"cebpf4jnsgd1na2vs0mg"},{"bike_id":"4bcdf5a9-d07a-4db5-949b-5ab7f24b1ea4","system_id":"levelo_inurba_marseille","lat":43.30299,"lon":5.39204,"is_reserved":false,"is_disabled":true,"rental_uris":{"android":"levelo://app?vid=4bcdf5a9-d07a-4db5-949b-5ab7f24b1ea4","ios":"levelo://app?vid=4bcdf5a9-d07a-4db5-949b-5ab7f24b1ea4"},"vehicle_type_id":"4","last_reported":1750871464,"current_range_meters":1600,"station_id":"ce4bgkh2rcd13ifvqbk0","pricing_plan_id":"cebpf4jnsgd1na2vs0mg"},{"bike_id":"ea8ac287-e321-478b-9233-1f1bbb2a2ae7","system_id":"levelo_inurba_marseille","lat":43.30123,"lon":5.39857,"is_reserved":false,"is_disabled":true,"rental_uris":{"android":"levelo://app?vid=ea8ac287-e321-478b-9233-1f1bbb2a2ae7","ios":"levelo://app?vid=ea8ac287-e321-478b-9233-1f1bbb2a2ae7"},"vehicle_type_id":"4","last_reported":1750871464,"current_range_meters":1600,"station_id":"ce4bh0h2rcd13ifvqd40","pricing_plan_id":"cebpf4jnsgd1na2vs0mg"},{"bike_id":"3e2ce736-e655-4fe3-b31f-aea23232d0ad","system_id":"levelo_inurba_marseille","lat":43.28568,"lon":5.39495,"is_reserved":false,"is_disabled":true,"rental_uris":{"android":"levelo://app?vid=3e2ce736-e655-4fe3-b31f-aea23232d0ad","ios":"levelo://app?vid=3e2ce736-e655-4fe3-b31f-aea23232d0ad"},"vehicle_type_id":"4","last_reported":1750871464,"current_range_meters":1600,"station_id":"ce4bh292rcd13ifvqdg0","pricing_plan_id":"cebpf4jnsgd1na2vs0mg"},{"bike_id":"52e8181d-7cc0-44a4-974c-70a3abce53fb","system_id":"levelo_inurba_marseille","lat":43.29005,"lon":5.35617,"is_reserved":false,"is_disabled":true,"rental_uris":{"android":"levelo://app?vid=52e8181d-7cc0-44a4-974c-70a3abce53fb","ios":"levelo://app?vid=52e8181d-7cc0-44a4-974c-70a3abce53fb"},"vehicle_type_id":"4","last_reported":1750871464,"current_range_meters":1600,"station_id":"ce4bhb92rcd13ifvqen0","pricing_plan_id":"cebpf4jnsgd1na2vs0mg"},{"bike_id":"5a4a8bc0-de74-49f8-be70-c9922dea93bf","system_id":"levelo_inurba_marseille","lat":43.22929,"lon":5.35376,"is_reserved":false,"is_disabled":true,"rental_uris":{"android":"levelo://app?vid=5a4a8bc0-de74-49f8-be70-c9922dea93bf","ios":"levelo://app?vid=5a4a8bc0-de74-49f8-be70-c9922dea93bf"},"vehicle_type_id":"4","last_reported":1750871464,"current_range_meters":1600,"station_id":"cpo3532slgdg3j2ikp40","pricing_plan_id":"cebpf4jnsgd1na2vs0mg"},{"bike_id":"e7029d47-bd42-4efd-8e6e-18ef6aa72165","system_id":"levelo_inurba_marseille","lat":43.33052,"lon":5.3923,"is_reserved":false,"is_disabled":true,"rental_uris":{"android":"levelo://app?vid=e7029d47-bd42-4efd-8e6e-18ef6aa72165","ios":"levelo://app?vid=e7029d47-bd42-4efd-8e6e-18ef6aa72165"},"vehicle_type_id":"4","last_reported":1750871464,"current_range_meters":2000,"station_id":"","pricing_plan_id":"cebpf4jnsgd1na2vs0mg"},{"bike_id":"c2ddf2bd-651a-4ad4-96be-bf7e95bd410a","system_id":"levelo_inurba_marseille","lat":43.29991,"lon":5.38511,"is_reserved":false,"is_disabled":true,"rental_uris":{"android":"levelo://app?vid=c2ddf2bd-651a-4ad4-96be-bf7e95bd410a","ios":"levelo://app?vid=c2ddf2bd-651a-4ad4-96be-bf7e95bd410a"},"vehicle_type_id":"4","last_reported":1750871464,"current_range_meters":2000,"station_id":"ce4bgj92rcd13ifvqbd0","pricing_plan_id":"cebpf4jnsgd1na2vs0mg"},{"bike_id":"9eb3e19a-b12e-437e-8050-6d226dfb9273","system_id":"levelo_inurba_marseille","lat":43.28942,"lon":5.36631,"is_reserved":false,"is_disabled":true,"rental_uris":{"android":"levelo://app?vid=9eb3e19a-b12e-437e-8050-6d226dfb9273","ios":"levelo://app?vid=9eb3e19a-b12e-437e-8050-6d226dfb9273"},"vehicle_type_id":"4","last_reported":1750871464,"current_range_meters":2000,"station_id":"ce4bhap2rcd13ifvqek0","pricing_plan_id":"cebpf4jnsgd1na2vs0mg"},{"bike_id":"beca86f8-391c-4301-be88-4e27c12ca930","system_id":"levelo_inurba_marseille","lat":43.29008,"lon":5.35613,"is_reserved":false,"is_disabled":true,"rental_uris":{"android":"levelo://app?vid=beca86f8-391c-4301-be88-4e27c12ca930","ios":"levelo://app?vid=beca86f8-391c-4301-be88-4e27c12ca930"},"vehicle_type_id":"4","last_reported":1750871464,"current_range_meters":2000,"station_id":"ce4bhb92rcd13ifvqen0","pricing_plan_id":"cebpf4jnsgd1na2vs0mg"},{"bike_id":"4240339f-8352-45d5-b01d-e15fcadaefc0","system_id":"levelo_inurba_marseille","lat":43.29229,"lon":5.3606,"is_reserved":false,"is_disabled":true,"rental_uris":{"android":"levelo://app?vid=4240339f-8352-45d5-b01d-e15fcadaefc0","ios":"levelo://app?vid=4240339f-8352-45d5-b01d-e15fcadaefc0"},"vehicle_type_id":"4","last_reported":1750871464,"current_range_meters":2000,"station_id":"ce4bhbh2rcd13ifvqeqg","pricing_plan_id":"cebpf4jnsgd1na2vs0mg"},{"bike_id":"b81eb645-4399-489d-a734-e3fe7b71cb1c","system_id":"levelo_inurba_marseille","lat":43.27206,"lon":5.39176,"is_reserved":false,"is_disabled":true,"rental_uris":{"android":"levelo://app?vid=b81eb645-4399-489d-a734-e3fe7b71cb1c","ios":"levelo://app?vid=b81eb645-4399-489d-a734-e3fe7b71cb1c"},"vehicle_type_id":"4","last_reported":1750871464,"current_range_meters":2000,"station_id":"ce4bhhp2rcd13ifvqfm0","pricing_plan_id":"cebpf4jnsgd1na2vs0mg"},{"bike_id":"a2a3877b-4b8d-4910-b2c0-2272d9cef881","system_id":"levelo_inurba_marseille","lat":43.29553,"lon":5.42293,"is_reserved":false,"is_disabled":true,"rental_uris":{"android":"levelo://app?vid=a2a3877b-4b8d-4910-b2c0-2272d9cef881","ios":"levelo://app?vid=a2a3877b-4b8d-4910-b2c0-2272d9cef881"},"vehicle_type_id":"4","last_reported":1750871464,"current_range_meters":2000,"station_id":"ce4bhph2rcd13ifvqhdg","pricing_plan_id":"cebpf4jnsgd1na2vs0mg"},{"bike_id":"dcc21c94-caab-4508-945b-091528efefa8","system_id":"levelo_inurba_marseille","lat":43.31882,"lon":5.40738,"is_reserved":false,"is_disabled":true,"rental_uris":{"android":"levelo://app?vid=dcc21c94-caab-4508-945b-091528efefa8","ios":"levelo://app?vid=dcc21c94-caab-4508-945b-091528efefa8"},"vehicle_type_id":"4","last_reported":1750871464,"current_range_meters":2000,"station_id":"ce4bhq12rcd13ifvqhig","pricing_plan_id":"cebpf4jnsgd1na2vs0mg"},{"bike_id":"61dbe823-1652-4048-b496-325198e31a17","system_id":"levelo_inurba_marseille","lat":43.24157,"lon":5.36413,"is_reserved":false,"is_disabled":false,"rental_uris":{"android":"levelo://app?vid=61dbe823-1652-4048-b496-325198e31a17","ios":"levelo://app?vid=61dbe823-1652-4048-b496-325198e31a17"},"vehicle_type_id":"4","last_reported":1750871464,"current_range_meters":2800,"station_id":"cpo36qri1sfpv3e86is0","pricing_plan_id":"cebpf4jnsgd1na2vs0mg"},{"bike_id":"ce098a2e-4b23-4fe7-b435-9fbe110dfe71","system_id":"levelo_inurba_marseille","lat":43.29371,"lon":5.37835,"is_reserved":false,"is_disabled":false,"rental_uris":{"android":"levelo://app?vid=ce098a2e-4b23-4fe7-b435-9fbe110dfe71","ios":"levelo://app?vid=ce098a2e-4b23-4fe7-b435-9fbe110dfe71"},"vehicle_type_id":"4","last_reported":1750871464,"current_range_meters":3200,"station_id":"ce4bgjh2rcd13ifvqbf0","pricing_plan_id":"cebpf4jnsgd1na2vs0mg"},{"bike_id":"465d2323-f97d-48b0-a820-bc5fa54ae0fa","system_id":"levelo_inurba_marseille","lat":43.2841,"lon":5.4599,"is_reserved":false,"is_disabled":false,"rental_uris":{"android":"levelo://app?vid=465d2323-f97d-48b0-a820-bc5fa54ae0fa","ios":"levelo://app?vid=465d2323-f97d-48b0-a820-bc5fa54ae0fa"},"vehicle_type_id":"4","last_reported":1750871464,"current_range_meters":3600,"station_id":"","pricing_plan_id":"cebpf4jnsgd1na2vs0mg"},{"bike_id":"106a18bf-1e18-48b1-a019-66650297ceaf","system_id":"levelo_inurba_marseille","lat":43.30534,"lon":5.3729,"is_reserved":false,"is_disabled":false,"rental_uris":{"android":"levelo://app?vid=106a18bf-1e18-48b1-a019-66650297ceaf","ios":"levelo://app?vid=106a18bf-1e18-48b1-a019-66650297ceaf"},"vehicle_type_id":"4","last_reported":1750871464,"current_range_meters":3600,"station_id":"","pricing_plan_id":"cebpf4jnsgd1na2vs0mg"},{"bike_id":"0d42ff00-a709-4812-90e1-94e8393c8c5b","system_id":"levelo_inurba_marseille","lat":43.29573,"lon":5.37527,"is_reserved":false,"is_disabled":false,"rental_uris":{"android":"levelo://app?vid=0d42ff00-a709-4812-90e1-94e8393c8c5b","ios":"levelo://app?vid=0d42ff00-a709-4812-90e1-94e8393c8c5b"},"vehicle_type_id":"4","last_reported":1750871464,"current_range_meters":3600,"station_id":"ce4bgh92rcd13ifvqb50","pricing_plan_id":"cebpf4jnsgd1na2vs0mg"},{"bike_id":"4b24cf29-9097-4e3b-af66-729592ab60cb","system_id":"levelo_inurba_marseille","lat":43.29531,"lon":5.385521,"is_reserved":false,"is_disabled":false,"rental_uris":{"android":"levelo://app?vid=4b24cf29-9097-4e3b-af66-729592ab60cb","ios":"levelo://app?vid=4b24cf29-9097-4e3b-af66-729592ab60cb"},"vehicle_type_id":"4","last_reported":1750871464,"current_range_meters":3600,"station_id":"ce4bgih2rcd13ifvqba0","pricing_plan_id":"cebpf4jnsgd1na2vs0mg"},{"bike_id":"fb1e3333-d019-4ba7-bc32-bc87ad494704","system_id":"levelo_inurba_marseille","lat":43.27616,"lon":5.36102,"is_reserved":false,"is_disabled":false,"rental_uris":{"android":"levelo://app?vid=fb1e3333-d019-4ba7-bc32-bc87ad494704","ios":"levelo://app?vid=fb1e3333-d019-4ba7-bc32-bc87ad494704"},"vehicle_type_id":"4","last_reported":1750871464,"current_range_meters":3600,"station_id":"ce4bgj92rcd13ifvqbe0","pricing_plan_id":"cebpf4jnsgd1na2vs0mg"},{"bike_id":"14536459-8371-4d16-bc6c-c4c54d677487","system_id":"levelo_inurba_marseille","lat":43.30191,"lon":5.36623,"is_reserved":false,"is_disabled":false,"rental_uris":{"android":"levelo://app?vid=14536459-8371-4d16-bc6c-c4c54d677487","ios":"levelo://app?vid=14536459-8371-4d16-bc6c-c4c54d677487"},"vehicle_type_id":"4","last_reported":1750871464,"current_range_meters":3600,"station_id":"ce4bgrh2rcd13ifvqc8g","pricing_plan_id":"cebpf4jnsgd1na2vs0mg"},{"bike_id":"34e9c2cc-f262-41c1-aa77-850e2ec7c824","system_id":"levelo_inurba_marseille","lat":43.28273,"lon":5.35058,"is_reserved":false,"is_disabled":false,"rental_uris":{"android":"levelo://app?vid=34e9c2cc-f262-41c1-aa77-850e2ec7c824","ios":"levelo://app?vid=34e9c2cc-f262-41c1-aa77-850e2ec7c824"},"vehicle_type_id":"4","last_reported":1750871464,"current_range_meters":3600,"station_id":"ce4bhbp2rcd13ifvqerg","pricing_plan_id":"cebpf4jnsgd1na2vs0mg"},{"bike_id":"be1bd5e3-635c-4ad2-b878-8554af82878c","system_id":"levelo_inurba_marseille","lat":43.27811,"lon":5.40717,"is_reserved":false,"is_disabled":false,"rental_uris":{"android":"levelo://app?vid=be1bd5e3-635c-4ad2-b878-8554af82878c","ios":"levelo://app?vid=be1bd5e3-635c-4ad2-b878-8554af82878c"},"vehicle_type_id":"4","last_reported":1750871464,"current_range_meters":3600,"station_id":"ce4bhnh2rcd13ifvqgtg","pricing_plan_id":"cebpf4jnsgd1na2vs0mg"},{"bike_id":"04d3bfc6-d897-4e53-9242-b6b91dc360fe","system_id":"levelo_inurba_marseille","lat":43.29971,"lon":5.39692,"is_reserved":false,"is_disabled":false,"rental_uris":{"android":"levelo://app?vid=04d3bfc6-d897-4e53-9242-b6b91dc360fe","ios":"levelo://app?vid=04d3bfc6-d897-4e53-9242-b6b91dc360fe"},"vehicle_type_id":"4","last_reported":1750871464,"current_range_meters":4000,"station_id":"","pricing_plan_id":"cebpf4jnsgd1na2vs0mg"},{"bike_id":"322f352d-a2ae-4e44-a8f3-28a5f0c0bf0d","system_id":"levelo_inurba_marseille","lat":43.28429,"lon":5.3751,"is_reserved":false,"is_disabled":false,"rental_uris":{"android":"levelo://app?vid=322f352d-a2ae-4e44-a8f3-28a5f0c0bf0d","ios":"levelo://app?vid=322f352d-a2ae-4e44-a8f3-28a5f0c0bf0d"},"vehicle_type_id":"4","last_reported":1750871464,"current_range_meters":4000,"station_id":"ce4bh412rcd13ifvqds0","pricing_plan_id":"cebpf4jnsgd1na2vs0mg"},{"bike_id":"f333bcb3-17e0-43f1-847f-eb3d745e3e41","system_id":"levelo_inurba_marseille","lat":43.293456,"lon":5.428131,"is_reserved":false,"is_disabled":false,"rental_uris":{"android":"levelo://app?vid=f333bcb3-17e0-43f1-847f-eb3d745e3e41","ios":"levelo://app?vid=f333bcb3-17e0-43f1-847f-eb3d745e3e41"},"vehicle_type_id":"4","last_reported":1750871464,"current_range_meters":4400,"station_id":"","pricing_plan_id":"cebpf4jnsgd1na2vs0mg"},{"bike_id":"b4e69efd-2590-4114-ae91-50a43031ad7a","system_id":"levelo_inurba_marseille","lat":43.30285,"lon":5.40083,"is_reserved":false,"is_disabled":false,"rental_uris":{"android":"levelo://app?vid=b4e69efd-2590-4114-ae91-50a43031ad7a","ios":"levelo://app?vid=b4e69efd-2590-4114-ae91-50a43031ad7a"},"vehicle_type_id":"4","last_reported":1750871464,"current_range_meters":4400,"station_id":"","pricing_plan_id":"cebpf4jnsgd1na2vs0mg"},{"bike_id":"d647d82e-58fb-4efa-913b-7b5c87759cda","system_id":"levelo_inurba_marseille","lat":43.26992,"lon":5.39903,"is_reserved":false,"is_disabled":false,"rental_uris":{"android":"levelo://app?vid=d647d82e-58fb-4efa-913b-7b5c87759cda","ios":"levelo://app?vid=d647d82e-58fb-4efa-913b-7b5c87759cda"},"vehicle_type_id":"4","last_reported":1750871464,"current_range_meters":4400,"station_id":"","pricing_plan_id":"cebpf4jnsgd1na2vs0mg"},{"bike_id":"c2885ae7-3c69-40ee-91b1-e6bff8472adb","system_id":"levelo_inurba_marseille","lat":43.317,"lon":5.37736,"is_reserved":false,"is_disabled":false,"rental_uris":{"android":"levelo://app?vid=c2885ae7-3c69-40ee-91b1-e6bff8472adb","ios":"levelo://app?vid=c2885ae7-3c69-40ee-91b1-e6bff8472adb"},"vehicle_type_id":"4","last_reported":1750871464,"current_range_meters":4400,"station_id":"ce4bgth2rcd13ifvqch0","pricing_plan_id":"cebpf4jnsgd1na2vs0mg"},{"bike_id":"efe72dcd-7d6b-427f-ab98-6cba578866f9","system_id":"levelo_inurba_marseille","lat":43.2841,"lon":5.34985,"is_reserved":false,"is_disabled":false,"rental_uris":{"android":"levelo://app?vid=efe72dcd-7d6b-427f-ab98-6cba578866f9","ios":"levelo://app?vid=efe72dcd-7d6b-427f-ab98-6cba578866f9"},"vehicle_type_id":"4","last_reported":1750871464,"current_range_meters":4400,"station_id":"ce4bhbh2rcd13ifvqepg","pricing_plan_id":"cebpf4jnsgd1na2vs0mg"},{"bike_id":"692793b2-5812-4162-a68b-e5adc6f9f797","system_id":"levelo_inurba_marseille","lat":43.25106,"lon":5.40321,"is_reserved":false,"is_disabled":false,"rental_uris":{"android":"levelo://app?vid=692793b2-5812-4162-a68b-e5adc6f9f797","ios":"levelo://app?vid=692793b2-5812-4162-a68b-e5adc6f9f797"},"vehicle_type_id":"4","last_reported":1750871464,"current_range_meters":4400,"station_id":"ce4bhlh2rcd13ifvqgig","pricing_plan_id":"cebpf4jnsgd1na2vs0mg"},{"bike_id":"33a7e132-386d-430c-9843-55d87fd19a1f","system_id":"levelo_inurba_marseille","lat":43.24165,"lon":5.36398,"is_reserved":false,"is_disabled":false,"rental_uris":{"android":"levelo://app?vid=33a7e132-386d-430c-9843-55d87fd19a1f","ios":"levelo://app?vid=33a7e132-386d-430c-9843-55d87fd19a1f"},"vehicle_type_id":"4","last_reported":1750871464,"current_range_meters":4400,"station_id":"cpo36qri1sfpv3e86is0","pricing_plan_id":"cebpf4jnsgd1na2vs0mg"},{"bike_id":"3d5ddff2-c28f-44c9-b826-aaacd8c02dab","system_id":"levelo_inurba_marseille","lat":43.29536,"lon":5.3854,"is_reserved":false,"is_disabled":false,"rental_uris":{"android":"levelo://app?vid=3d5ddff2-c28f-44c9-b826-aaacd8c02dab","ios":"levelo://app?vid=3d5ddff2-c28f-44c9-b826-aaacd8c02dab"},"vehicle_type_id":"4","last_reported":1750871464,"current_range_meters":4800,"station_id":"ce4bgih2rcd13ifvqba0","pricing_plan_id":"cebpf4jnsgd1na2vs0mg"},{"bike_id":"400da0f7-ebf5-4e19-8f00-7c9bf0a492a7","system_id":"levelo_inurba_marseille","lat":43.2969,"lon":5.365953,"is_reserved":false,"is_disabled":false,"rental_uris":{"android":"levelo://app?vid=400da0f7-ebf5-4e19-8f00-7c9bf0a492a7","ios":"levelo://app?vid=400da0f7-ebf5-4e19-8f00-7c9bf0a492a7"},"vehicle_type_id":"4","last_reported":1750871464,"current_range_meters":4800,"station_id":"ce4bgn12rcd13ifvqbt0","pricing_plan_id":"cebpf4jnsgd1na2vs0mg"},{"bike_id":"48c50994-fca0-44f4-928b-21eb7eccf538","system_id":"levelo_inurba_marseille","lat":43.28278,"lon":5.35072,"is_reserved":false,"is_disabled":false,"rental_uris":{"android":"levelo://app?vid=48c50994-fca0-44f4-928b-21eb7eccf538","ios":"levelo://app?vid=48c50994-fca0-44f4-928b-21eb7eccf538"},"vehicle_type_id":"4","last_reported":1750871464,"current_range_meters":4800,"station_id":"ce4bhbp2rcd13ifvqerg","pricing_plan_id":"cebpf4jnsgd1na2vs0mg"},{"bike_id":"7bb463c6-231b-4d30-8d9a-d91f1137f1e4","system_id":"levelo_inurba_marseille","lat":43.30304,"lon":5.3922,"is_reserved":false,"is_disabled":false,"rental_uris":{"android":"levelo://app?vid=7bb463c6-231b-4d30-8d9a-d91f1137f1e4","ios":"levelo://app?vid=7bb463c6-231b-4d30-8d9a-d91f1137f1e4"},"vehicle_type_id":"4","last_reported":1750871464,"current_range_meters":5600,"station_id":"ce4bgkh2rcd13ifvqbk0","pricing_plan_id":"cebpf4jnsgd1na2vs0mg"},{"bike_id":"ba4614cd-b46b-46ab-822e-222b12d639a7","system_id":"levelo_inurba_marseille","lat":43.310164,"lon":5.39052,"is_reserved":false,"is_disabled":false,"rental_uris":{"android":"levelo://app?vid=ba4614cd-b46b-46ab-822e-222b12d639a7","ios":"levelo://app?vid=ba4614cd-b46b-46ab-822e-222b12d639a7"},"vehicle_type_id":"4","last_reported":1750871464,"current_range_meters":5600,"station_id":"ce4bgup2rcd13ifvqco0","pricing_plan_id":"cebpf4jnsgd1na2vs0mg"},{"bike_id":"707d1fa8-a543-4cd6-b7f2-c30333285a74","system_id":"levelo_inurba_marseille","lat":43.30416,"lon":5.3976,"is_reserved":false,"is_disabled":false,"rental_uris":{"android":"levelo://app?vid=707d1fa8-a543-4cd6-b7f2-c30333285a74","ios":"levelo://app?vid=707d1fa8-a543-4cd6-b7f2-c30333285a74"},"vehicle_type_id":"4","last_reported":1750871464,"current_range_meters":5600,"station_id":"ce4bh092rcd13ifvqd20","pricing_plan_id":"cebpf4jnsgd1na2vs0mg"},{"bike_id":"e12b9c99-b97f-4827-b535-c219c62b9343","system_id":"levelo_inurba_marseille","lat":43.28458,"lon":5.35893,"is_reserved":false,"is_disabled":false,"rental_uris":{"android":"levelo://app?vid=e12b9c99-b97f-4827-b535-c219c62b9343","ios":"levelo://app?vid=e12b9c99-b97f-4827-b535-c219c62b9343"},"vehicle_type_id":"4","last_reported":1750871464,"current_range_meters":5600,"station_id":"ce4bhah2rcd13ifvqei0","pricing_plan_id":"cebpf4jnsgd1na2vs0mg"},{"bike_id":"58eaf5a9-32c2-4dbc-b66c-b56943d1145e","system_id":"levelo_inurba_marseille","lat":43.279077,"lon":5.39603,"is_reserved":false,"is_disabled":false,"rental_uris":{"android":"levelo://app?vid=58eaf5a9-32c2-4dbc-b66c-b56943d1145e","ios":"levelo://app?vid=58eaf5a9-32c2-4dbc-b66c-b56943d1145e"},"vehicle_type_id":"4","last_reported":1750871464,"current_range_meters":5600,"station_id":"ce4bhf92rcd13ifvqf40","pricing_plan_id":"cebpf4jnsgd1na2vs0mg"},{"bike_id":"2220445b-1398-444c-b4e6-48d73ffce42d","system_id":"levelo_inurba_marseille","lat":43.255881,"lon":5.382433,"is_reserved":false,"is_disabled":false,"rental_uris":{"android":"levelo://app?vid=2220445b-1398-444c-b4e6-48d73ffce42d","ios":"levelo://app?vid=2220445b-1398-444c-b4e6-48d73ffce42d"},"vehicle_type_id":"4","last_reported":1750871464,"current_range_meters":5600,"station_id":"ce4bhih2rcd13ifvqfs0","pricing_plan_id":"cebpf4jnsgd1na2vs0mg"},{"bike_id":"805c1695-b689-4754-affb-537154c026bb","system_id":"levelo_inurba_marseille","lat":43.28797,"lon":5.36658,"is_reserved":false,"is_disabled":false,"rental_uris":{"android":"levelo://app?vid=805c1695-b689-4754-affb-537154c026bb","ios":"levelo://app?vid=805c1695-b689-4754-affb-537154c026bb"},"vehicle_type_id":"4","last_reported":1750871464,"current_range_meters":6000,"station_id":"","pricing_plan_id":"cebpf4jnsgd1na2vs0mg"},{"bike_id":"156180f5-90cc-42ff-bbc5-56e5f3104370","system_id":"levelo_inurba_marseille","lat":43.238583,"lon":5.4304,"is_reserved":false,"is_disabled":false,"rental_uris":{"android":"levelo://app?vid=156180f5-90cc-42ff-bbc5-56e5f3104370","ios":"levelo://app?vid=156180f5-90cc-42ff-bbc5-56e5f3104370"},"vehicle_type_id":"4","last_reported":1750871464,"current_range_meters":6000,"station_id":"","pricing_plan_id":"cebpf4jnsgd1na2vs0mg"},{"bike_id":"94a5db9f-fe35-4651-81e0-abfd96301072","system_id":"levelo_inurba_marseille","lat":43.27605,"lon":5.36118,"is_reserved":false,"is_disabled":false,"rental_uris":{"android":"levelo://app?vid=94a5db9f-fe35-4651-81e0-abfd96301072","ios":"levelo://app?vid=94a5db9f-fe35-4651-81e0-abfd96301072"},"vehicle_type_id":"4","last_reported":1750871464,"current_range_meters":6000,"station_id":"ce4bgj92rcd13ifvqbe0","pricing_plan_id":"cebpf4jnsgd1na2vs0mg"},{"bike_id":"40ae09c5-5c73-4173-b894-7a340c0d5ceb","system_id":"levelo_inurba_marseille","lat":43.30209,"lon":5.39489,"is_reserved":false,"is_disabled":false,"rental_uris":{"android":"levelo://app?vid=40ae09c5-5c73-4173-b894-7a340c0d5ceb","ios":"levelo://app?vid=40ae09c5-5c73-4173-b894-7a340c0d5ceb"},"vehicle_type_id":"4","last_reported":1750871464,"current_range_meters":6000,"station_id":"ce4bh0p2rcd13ifvqd70","pricing_plan_id":"cebpf4jnsgd1na2vs0mg"},{"bike_id":"5035299e-13c4-4c7d-ab93-21c1d469f281","system_id":"levelo_inurba_marseille","lat":43.2841,"lon":5.35,"is_reserved":false,"is_disabled":false,"rental_uris":{"android":"levelo://app?vid=5035299e-13c4-4c7d-ab93-21c1d469f281","ios":"levelo://app?vid=5035299e-13c4-4c7d-ab93-21c1d469f281"},"vehicle_type_id":"4","last_reported":1750871464,"current_range_meters":6000,"station_id":"ce4bhbh2rcd13ifvqepg","pricing_plan_id":"cebpf4jnsgd1na2vs0mg"},{"bike_id":"675c1896-bc48-4982-81f8-1eae913f9050","system_id":"levelo_inurba_marseille","lat":43.25498,"lon":5.37642,"is_reserved":false,"is_disabled":false,"rental_uris":{"android":"levelo://app?vid=675c1896-bc48-4982-81f8-1eae913f9050","ios":"levelo://app?vid=675c1896-bc48-4982-81f8-1eae913f9050"},"vehicle_type_id":"4","last_reported":1750871464,"current_range_meters":6000,"station_id":"ce4bhh12rcd13ifvqff0","pricing_plan_id":"cebpf4jnsgd1na2vs0mg"},{"bike_id":"dd386132-392c-4ac5-be25-0a2a9749acd2","system_id":"levelo_inurba_marseille","lat":43.24662,"lon":5.38157,"is_reserved":false,"is_disabled":false,"rental_uris":{"android":"levelo://app?vid=dd386132-392c-4ac5-be25-0a2a9749acd2","ios":"levelo://app?vid=dd386132-392c-4ac5-be25-0a2a9749acd2"},"vehicle_type_id":"4","last_reported":1750871464,"current_range_meters":6000,"station_id":"ce4bhih2rcd13ifvqfr0","pricing_plan_id":"cebpf4jnsgd1na2vs0mg"},{"bike_id":"3845cbcf-1170-4b49-9c81-96679cba95f6","system_id":"levelo_inurba_marseille","lat":43.33731,"lon":5.39184,"is_reserved":false,"is_disabled":false,"rental_uris":{"android":"levelo://app?vid=3845cbcf-1170-4b49-9c81-96679cba95f6","ios":"levelo://app?vid=3845cbcf-1170-4b49-9c81-96679cba95f6"},"vehicle_type_id":"4","last_reported":1750871464,"current_range_meters":6000,"station_id":"ce4bhr92rcd13ifvqhsg","pricing_plan_id":"cebpf4jnsgd1na2vs0mg"},{"bike_id":"582ba432-4153-48cb-8b99-676f06e3059b","system_id":"levelo_inurba_marseille","lat":43.30945,"lon":5.39034,"is_reserved":false,"is_disabled":false,"rental_uris":{"android":"levelo://app?vid=582ba432-4153-48cb-8b99-676f06e3059b","ios":"levelo://app?vid=582ba432-4153-48cb-8b99-676f06e3059b"},"vehicle_type_id":"4","last_reported":1750871464,"current_range_meters":6400,"station_id":"ce4bgup2rcd13ifvqco0","pricing_plan_id":"cebpf4jnsgd1na2vs0mg"},{"bike_id":"157767c0-19e9-4ba2-8671-91740ae64ac3","system_id":"levelo_inurba_marseille","lat":43.28411,"lon":5.34994,"is_reserved":false,"is_disabled":false,"rental_uris":{"android":"levelo://app?vid=157767c0-19e9-4ba2-8671-91740ae64ac3","ios":"levelo://app?vid=157767c0-19e9-4ba2-8671-91740ae64ac3"},"vehicle_type_id":"4","last_reported":1750871464,"current_range_meters":6400,"station_id":"ce4bhbh2rcd13ifvqepg","pricing_plan_id":"cebpf4jnsgd1na2vs0mg"},{"bike_id":"c9e42f5e-f641-44dd-8a75-fee7b2eaa6f3","system_id":"levelo_inurba_marseille","lat":43.24807,"lon":5.3746,"is_reserved":false,"is_disabled":false,"rental_uris":{"android":"levelo://app?vid=c9e42f5e-f641-44dd-8a75-fee7b2eaa6f3","ios":"levelo://app?vid=c9e42f5e-f641-44dd-8a75-fee7b2eaa6f3"},"vehicle_type_id":"4","last_reported":1750871464,"current_range_meters":6400,"station_id":"ce4bhgh2rcd13ifvqfb0","pricing_plan_id":"cebpf4jnsgd1na2vs0mg"},{"bike_id":"8ee9265f-9ea5-4f62-9a50-cb2ad3c3152c","system_id":"levelo_inurba_marseille","lat":43.26208,"lon":5.37434,"is_reserved":false,"is_disabled":false,"rental_uris":{"android":"levelo://app?vid=8ee9265f-9ea5-4f62-9a50-cb2ad3c3152c","ios":"levelo://app?vid=8ee9265f-9ea5-4f62-9a50-cb2ad3c3152c"},"vehicle_type_id":"4","last_reported":1750871464,"current_range_meters":6400,"station_id":"ce4bhgp2rcd13ifvqfc0","pricing_plan_id":"cebpf4jnsgd1na2vs0mg"},{"bike_id":"48d2adc7-5eb2-4d5c-8615-5aa4a562e9f2","system_id":"levelo_inurba_marseille","lat":43.23065,"lon":5.3549,"is_reserved":false,"is_disabled":false,"rental_uris":{"android":"levelo://app?vid=48d2adc7-5eb2-4d5c-8615-5aa4a562e9f2","ios":"levelo://app?vid=48d2adc7-5eb2-4d5c-8615-5aa4a562e9f2"},"vehicle_type_id":"4","last_reported":1750871464,"current_range_meters":6400,"station_id":"cpo3342slgdg3j2ifvpg","pricing_plan_id":"cebpf4jnsgd1na2vs0mg"},{"bike_id":"df7cdb49-9672-4bb0-bc89-b05b90e2346f","system_id":"levelo_inurba_marseille","lat":43.27376,"lon":5.3626,"is_reserved":false,"is_disabled":false,"rental_uris":{"android":"levelo://app?vid=df7cdb49-9672-4bb0-bc89-b05b90e2346f","ios":"levelo://app?vid=df7cdb49-9672-4bb0-bc89-b05b90e2346f"},"vehicle_type_id":"4","last_reported":1750871464,"current_range_meters":6800,"station_id":"ce4bhbh2rcd13ifvqeo0","pricing_plan_id":"cebpf4jnsgd1na2vs0mg"},{"bike_id":"c9f91c9e-0be8-4c0f-ae38-7d30b8235c49","system_id":"levelo_inurba_marseille","lat":43.31725,"lon":5.423948,"is_reserved":false,"is_disabled":false,"rental_uris":{"android":"levelo://app?vid=c9f91c9e-0be8-4c0f-ae38-7d30b8235c49","ios":"levelo://app?vid=c9f91c9e-0be8-4c0f-ae38-7d30b8235c49"},"vehicle_type_id":"4","last_reported":1750871464,"current_range_meters":6800,"station_id":"ce4bhp92rcd13ifvqhbg","pricing_plan_id":"cebpf4jnsgd1na2vs0mg"},{"bike_id":"08fa0bc5-6b8d-48ca-a750-a202056e4e28","system_id":"levelo_inurba_marseille","lat":43.31704,"lon":5.37735,"is_reserved":false,"is_disabled":false,"rental_uris":{"android":"levelo://app?vid=08fa0bc5-6b8d-48ca-a750-a202056e4e28","ios":"levelo://app?vid=08fa0bc5-6b8d-48ca-a750-a202056e4e28"},"vehicle_type_id":"4","last_reported":1750871464,"current_range_meters":7200,"station_id":"ce4bgth2rcd13ifvqch0","pricing_plan_id":"cebpf4jnsgd1na2vs0mg"},{"bike_id":"ab9ed2d0-f1a4-472f-8e51-1ad724cc6e7b","system_id":"levelo_inurba_marseille","lat":43.28613,"lon":5.35102,"is_reserved":false,"is_disabled":false,"rental_uris":{"android":"levelo://app?vid=ab9ed2d0-f1a4-472f-8e51-1ad724cc6e7b","ios":"levelo://app?vid=ab9ed2d0-f1a4-472f-8e51-1ad724cc6e7b"},"vehicle_type_id":"4","last_reported":1750871464,"current_range_meters":7200,"station_id":"ce4bhch2rcd13ifvqeug","pricing_plan_id":"cebpf4jnsgd1na2vs0mg"},{"bike_id":"0a2888b0-11ac-40d2-a7f5-f1e7bfef2dee","system_id":"levelo_inurba_marseille","lat":43.23195,"lon":5.3555,"is_reserved":false,"is_disabled":false,"rental_uris":{"android":"levelo://app?vid=0a2888b0-11ac-40d2-a7f5-f1e7bfef2dee","ios":"levelo://app?vid=0a2888b0-11ac-40d2-a7f5-f1e7bfef2dee"},"vehicle_type_id":"4","last_reported":1750871464,"current_range_meters":7200,"station_id":"ce4bhu92rcd13ifvqi70","pricing_plan_id":"cebpf4jnsgd1na2vs0mg"},{"bike_id":"e8dfa6ec-e782-4581-aafa-7bda8cd55723","system_id":"levelo_inurba_marseille","lat":43.283982,"lon":5.35753,"is_reserved":false,"is_disabled":false,"rental_uris":{"android":"levelo://app?vid=e8dfa6ec-e782-4581-aafa-7bda8cd55723","ios":"levelo://app?vid=e8dfa6ec-e782-4581-aafa-7bda8cd55723"},"vehicle_type_id":"4","last_reported":1750871464,"current_range_meters":8000,"station_id":"ce4bhah2rcd13ifvqei0","pricing_plan_id":"cebpf4jnsgd1na2vs0mg"},{"bike_id":"2cf11927-fc7a-43d8-90e8-4f85121f25cf","system_id":"levelo_inurba_marseille","lat":43.24806,"lon":5.37455,"is_reserved":false,"is_disabled":false,"rental_uris":{"android":"levelo://app?vid=2cf11927-fc7a-43d8-90e8-4f85121f25cf","ios":"levelo://app?vid=2cf11927-fc7a-43d8-90e8-4f85121f25cf"},"vehicle_type_id":"4","last_reported":1750871464,"current_range_meters":8000,"station_id":"ce4bhgh2rcd13ifvqfb0","pricing_plan_id":"cebpf4jnsgd1na2vs0mg"},{"bike_id":"85ff8799-7d09-41cd-8a1e-eb1fc60cf7dc","system_id":"levelo_inurba_marseille","lat":43.231849,"lon":5.399863,"is_reserved":false,"is_disabled":false,"rental_uris":{"android":"levelo://app?vid=85ff8799-7d09-41cd-8a1e-eb1fc60cf7dc","ios":"levelo://app?vid=85ff8799-7d09-41cd-8a1e-eb1fc60cf7dc"},"vehicle_type_id":"4","last_reported":1750871464,"current_range_meters":8000,"station_id":"ce4bhn12rcd13ifvqgqg","pricing_plan_id":"cebpf4jnsgd1na2vs0mg"},{"bike_id":"8c9c6cbb-dd3d-4198-8fc4-cf3cb953919d","system_id":"levelo_inurba_marseille","lat":43.28001,"lon":5.40014,"is_reserved":false,"is_disabled":false,"rental_uris":{"android":"levelo://app?vid=8c9c6cbb-dd3d-4198-8fc4-cf3cb953919d","ios":"levelo://app?vid=8c9c6cbb-dd3d-4198-8fc4-cf3cb953919d"},"vehicle_type_id":"4","last_reported":1750871464,"current_range_meters":8000,"station_id":"ce4bho92rcd13ifvqh4g","pricing_plan_id":"cebpf4jnsgd1na2vs0mg"},{"bike_id":"b954e5b2-5866-4c18-9bad-a1b9cb62fad2","system_id":"levelo_inurba_marseille","lat":43.32039,"lon":5.41562,"is_reserved":false,"is_disabled":false,"rental_uris":{"android":"levelo://app?vid=b954e5b2-5866-4c18-9bad-a1b9cb62fad2","ios":"levelo://app?vid=b954e5b2-5866-4c18-9bad-a1b9cb62fad2"},"vehicle_type_id":"4","last_reported":1750871464,"current_range_meters":8000,"station_id":"ce4bhq92rcd13ifvqhkg","pricing_plan_id":"cebpf4jnsgd1na2vs0mg"},{"bike_id":"37e0ff9d-a8de-4088-a164-75282686d41d","system_id":"levelo_inurba_marseille","lat":43.33749,"lon":5.374481,"is_reserved":false,"is_disabled":false,"rental_uris":{"android":"levelo://app?vid=37e0ff9d-a8de-4088-a164-75282686d41d","ios":"levelo://app?vid=37e0ff9d-a8de-4088-a164-75282686d41d"},"vehicle_type_id":"4","last_reported":1750871464,"current_range_meters":8400,"station_id":"","pricing_plan_id":"cebpf4jnsgd1na2vs0mg"},{"bike_id":"7a3301b0-dc67-4f3d-8bca-294cffd5e1f5","system_id":"levelo_inurba_marseille","lat":43.28279,"lon":5.3508,"is_reserved":false,"is_disabled":false,"rental_uris":{"android":"levelo://app?vid=7a3301b0-dc67-4f3d-8bca-294cffd5e1f5","ios":"levelo://app?vid=7a3301b0-dc67-4f3d-8bca-294cffd5e1f5"},"vehicle_type_id":"4","last_reported":1750871464,"current_range_meters":8400,"station_id":"ce4bhbp2rcd13ifvqerg","pricing_plan_id":"cebpf4jnsgd1na2vs0mg"},{"bike_id":"c1f8f461-48fd-4489-b2df-bd24c3dcefff","system_id":"levelo_inurba_marseille","lat":43.26571,"lon":5.39006,"is_reserved":false,"is_disabled":false,"rental_uris":{"android":"levelo://app?vid=c1f8f461-48fd-4489-b2df-bd24c3dcefff","ios":"levelo://app?vid=c1f8f461-48fd-4489-b2df-bd24c3dcefff"},"vehicle_type_id":"4","last_reported":1750871464,"current_range_meters":8400,"station_id":"ce4bhe12rcd13ifvqf30","pricing_plan_id":"cebpf4jnsgd1na2vs0mg"},{"bike_id":"b2b2c10c-bbe1-4d83-86ef-09ba864e6a16","system_id":"levelo_inurba_marseille","lat":43.29626,"lon":5.377105,"is_reserved":false,"is_disabled":false,"rental_uris":{"android":"levelo://app?vid=b2b2c10c-bbe1-4d83-86ef-09ba864e6a16","ios":"levelo://app?vid=b2b2c10c-bbe1-4d83-86ef-09ba864e6a16"},"vehicle_type_id":"4","last_reported":1750871464,"current_range_meters":8800,"station_id":"","pricing_plan_id":"cebpf4jnsgd1na2vs0mg"},{"bike_id":"cc2a0edb-6bac-4b00-bf6b-29f94d60c42e","system_id":"levelo_inurba_marseille","lat":43.28149,"lon":5.35135,"is_reserved":false,"is_disabled":false,"rental_uris":{"android":"levelo://app?vid=cc2a0edb-6bac-4b00-bf6b-29f94d60c42e","ios":"levelo://app?vid=cc2a0edb-6bac-4b00-bf6b-29f94d60c42e"},"vehicle_type_id":"4","last_reported":1750871464,"current_range_meters":8800,"station_id":"","pricing_plan_id":"cebpf4jnsgd1na2vs0mg"},{"bike_id":"11ebf4fb-e752-44af-81e3-7d28e8eee9cc","system_id":"levelo_inurba_marseille","lat":43.28107,"lon":5.43219,"is_reserved":false,"is_disabled":false,"rental_uris":{"android":"levelo://app?vid=11ebf4fb-e752-44af-81e3-7d28e8eee9cc","ios":"levelo://app?vid=11ebf4fb-e752-44af-81e3-7d28e8eee9cc"},"vehicle_type_id":"4","last_reported":1750871464,"current_range_meters":8800,"station_id":"","pricing_plan_id":"cebpf4jnsgd1na2vs0mg"},{"bike_id":"1cb1bce5-0560-4822-b309-d23761953491","system_id":"levelo_inurba_marseille","lat":43.33018,"lon":5.39154,"is_reserved":false,"is_disabled":false,"rental_uris":{"android":"levelo://app?vid=1cb1bce5-0560-4822-b309-d23761953491","ios":"levelo://app?vid=1cb1bce5-0560-4822-b309-d23761953491"},"vehicle_type_id":"4","last_reported":1750871464,"current_range_meters":8800,"station_id":"","pricing_plan_id":"cebpf4jnsgd1na2vs0mg"},{"bike_id":"7c3f6852-4f29-42a9-a8c1-e2b82bb43fcf","system_id":"levelo_inurba_marseille","lat":43.29253,"lon":5.4265,"is_reserved":false,"is_disabled":false,"rental_uris":{"android":"levelo://app?vid=7c3f6852-4f29-42a9-a8c1-e2b82bb43fcf","ios":"levelo://app?vid=7c3f6852-4f29-42a9-a8c1-e2b82bb43fcf"},"vehicle_type_id":"4","last_reported":1750871464,"current_range_meters":8800,"station_id":"","pricing_plan_id":"cebpf4jnsgd1na2vs0mg"},{"bike_id":"bae5d48f-6823-486d-8f14-8a5f2034b265","system_id":"levelo_inurba_marseille","lat":43.30305,"lon":5.39216,"is_reserved":false,"is_disabled":false,"rental_uris":{"android":"levelo://app?vid=bae5d48f-6823-486d-8f14-8a5f2034b265","ios":"levelo://app?vid=bae5d48f-6823-486d-8f14-8a5f2034b265"},"vehicle_type_id":"4","last_reported":1750871464,"current_range_meters":8800,"station_id":"ce4bgkh2rcd13ifvqbk0","pricing_plan_id":"cebpf4jnsgd1na2vs0mg"},{"bike_id":"dda75d3c-e3f1-4626-96db-1948f76c51cf","system_id":"levelo_inurba_marseille","lat":43.29704,"lon":5.36583,"is_reserved":false,"is_disabled":false,"rental_uris":{"android":"levelo://app?vid=dda75d3c-e3f1-4626-96db-1948f76c51cf","ios":"levelo://app?vid=dda75d3c-e3f1-4626-96db-1948f76c51cf"},"vehicle_type_id":"4","last_reported":1750871464,"current_range_meters":8800,"station_id":"ce4bgn12rcd13ifvqbt0","pricing_plan_id":"cebpf4jnsgd1na2vs0mg"},{"bike_id":"fc382c0f-e5d1-4179-b3ac-aa38bcb305a7","system_id":"levelo_inurba_marseille","lat":43.30927,"lon":5.40146,"is_reserved":false,"is_disabled":false,"rental_uris":{"android":"levelo://app?vid=fc382c0f-e5d1-4179-b3ac-aa38bcb305a7","ios":"levelo://app?vid=fc382c0f-e5d1-4179-b3ac-aa38bcb305a7"},"vehicle_type_id":"4","last_reported":1750871464,"current_range_meters":8800,"station_id":"ce4bgvp2rcd13ifvqct0","pricing_plan_id":"cebpf4jnsgd1na2vs0mg"},{"bike_id":"35f50917-1839-45b0-863d-8e9bfe5bc1ac","system_id":"levelo_inurba_marseille","lat":43.2919,"lon":5.35796,"is_reserved":false,"is_disabled":false,"rental_uris":{"android":"levelo://app?vid=35f50917-1839-45b0-863d-8e9bfe5bc1ac","ios":"levelo://app?vid=35f50917-1839-45b0-863d-8e9bfe5bc1ac"},"vehicle_type_id":"4","last_reported":1750871464,"current_range_meters":8800,"station_id":"ce4bhb12rcd13ifvqel0","pricing_plan_id":"cebpf4jnsgd1na2vs0mg"},{"bike_id":"fcb91280-6956-4a16-bfb5-04eccc0fde77","system_id":"levelo_inurba_marseille","lat":43.28416,"lon":5.34996,"is_reserved":false,"is_disabled":false,"rental_uris":{"android":"levelo://app?vid=fcb91280-6956-4a16-bfb5-04eccc0fde77","ios":"levelo://app?vid=fcb91280-6956-4a16-bfb5-04eccc0fde77"},"vehicle_type_id":"4","last_reported":1750871464,"current_range_meters":8800,"station_id":"ce4bhbh2rcd13ifvqepg","pricing_plan_id":"cebpf4jnsgd1na2vs0mg"},{"bike_id":"e31929d5-7f41-4133-9111-12a0c9237fde","system_id":"levelo_inurba_marseille","lat":43.23193,"lon":5.35553,"is_reserved":false,"is_disabled":false,"rental_uris":{"android":"levelo://app?vid=e31929d5-7f41-4133-9111-12a0c9237fde","ios":"levelo://app?vid=e31929d5-7f41-4133-9111-12a0c9237fde"},"vehicle_type_id":"4","last_reported":1750871464,"current_range_meters":8800,"station_id":"ce4bhu92rcd13ifvqi70","pricing_plan_id":"cebpf4jnsgd1na2vs0mg"},{"bike_id":"00e841b4-7bcd-4c30-b2d6-ecef7ce04dde","system_id":"levelo_inurba_marseille","lat":43.31532,"lon":5.36678,"is_reserved":false,"is_disabled":false,"rental_uris":{"android":"levelo://app?vid=00e841b4-7bcd-4c30-b2d6-ecef7ce04dde","ios":"levelo://app?vid=00e841b4-7bcd-4c30-b2d6-ecef7ce04dde"},"vehicle_type_id":"4","last_reported":1750871464,"current_range_meters":9200,"station_id":"","pricing_plan_id":"cebpf4jnsgd1na2vs0mg"},{"bike_id":"910688f3-cdec-446f-873b-de7971b39d2b","system_id":"levelo_inurba_marseille","lat":43.28663,"lon":5.36349,"is_reserved":false,"is_disabled":false,"rental_uris":{"android":"levelo://app?vid=910688f3-cdec-446f-873b-de7971b39d2b","ios":"levelo://app?vid=910688f3-cdec-446f-873b-de7971b39d2b"},"vehicle_type_id":"4","last_reported":1750871464,"current_range_meters":9200,"station_id":"ce4bhah2rcd13ifvqej0","pricing_plan_id":"cebpf4jnsgd1na2vs0mg"},{"bike_id":"7948c844-36fe-427c-b9e2-bcf209c3e9e4","system_id":"levelo_inurba_marseille","lat":43.28411,"lon":5.3499,"is_reserved":false,"is_disabled":false,"rental_uris":{"android":"levelo://app?vid=7948c844-36fe-427c-b9e2-bcf209c3e9e4","ios":"levelo://app?vid=7948c844-36fe-427c-b9e2-bcf209c3e9e4"},"vehicle_type_id":"4","last_reported":1750871464,"current_range_meters":9200,"station_id":"ce4bhbh2rcd13ifvqepg","pricing_plan_id":"cebpf4jnsgd1na2vs0mg"},{"bike_id":"51b217be-9488-41c1-b083-6d728251b280","system_id":"levelo_inurba_marseille","lat":43.243266,"lon":5.368846,"is_reserved":false,"is_disabled":false,"rental_uris":{"android":"levelo://app?vid=51b217be-9488-41c1-b083-6d728251b280","ios":"levelo://app?vid=51b217be-9488-41c1-b083-6d728251b280"},"vehicle_type_id":"4","last_reported":1750871464,"current_range_meters":9600,"station_id":"","pricing_plan_id":"cebpf4jnsgd1na2vs0mg"},{"bike_id":"f449d0d2-3abb-46b8-8374-0bf359e554c0","system_id":"levelo_inurba_marseille","lat":43.29196,"lon":5.358,"is_reserved":false,"is_disabled":false,"rental_uris":{"android":"levelo://app?vid=f449d0d2-3abb-46b8-8374-0bf359e554c0","ios":"levelo://app?vid=f449d0d2-3abb-46b8-8374-0bf359e554c0"},"vehicle_type_id":"4","last_reported":1750871464,"current_range_meters":9600,"station_id":"ce4bhb12rcd13ifvqel0","pricing_plan_id":"cebpf4jnsgd1na2vs0mg"},{"bike_id":"97b86c8a-3088-4bde-b15c-ea9050d914b9","system_id":"levelo_inurba_marseille","lat":43.23947,"lon":5.36661,"is_reserved":false,"is_disabled":false,"rental_uris":{"android":"levelo://app?vid=97b86c8a-3088-4bde-b15c-ea9050d914b9","ios":"levelo://app?vid=97b86c8a-3088-4bde-b15c-ea9050d914b9"},"vehicle_type_id":"4","last_reported":1750871464,"current_range_meters":9600,"station_id":"ce4bhi12rcd13ifvqfp0","pricing_plan_id":"cebpf4jnsgd1na2vs0mg"},{"bike_id":"d68e5eb5-7be6-462b-af76-5dfe597af26d","system_id":"levelo_inurba_marseille","lat":43.23961,"lon":5.36619,"is_reserved":false,"is_disabled":false,"rental_uris":{"android":"levelo://app?vid=d68e5eb5-7be6-462b-af76-5dfe597af26d","ios":"levelo://app?vid=d68e5eb5-7be6-462b-af76-5dfe597af26d"},"vehicle_type_id":"4","last_reported":1750871464,"current_range_meters":9600,"station_id":"ce4bhi12rcd13ifvqfp0","pricing_plan_id":"cebpf4jnsgd1na2vs0mg"},{"bike_id":"dbfb2b4d-f467-42b8-bdec-0c1e515fa89f","system_id":"levelo_inurba_marseille","lat":43.29897,"lon":5.43663,"is_reserved":false,"is_disabled":false,"rental_uris":{"android":"levelo://app?vid=dbfb2b4d-f467-42b8-bdec-0c1e515fa89f","ios":"levelo://app?vid=dbfb2b4d-f467-42b8-bdec-0c1e515fa89f"},"vehicle_type_id":"4","last_reported":1750871464,"current_range_meters":9600,"station_id":"ce4bhpp2rcd13ifvqhfg","pricing_plan_id":"cebpf4jnsgd1na2vs0mg"},{"bike_id":"244048fd-1a37-432f-9293-b5f8f36638be","system_id":"levelo_inurba_marseille","lat":43.23195,"lon":5.355533,"is_reserved":false,"is_disabled":false,"rental_uris":{"android":"levelo://app?vid=244048fd-1a37-432f-9293-b5f8f36638be","ios":"levelo://app?vid=244048fd-1a37-432f-9293-b5f8f36638be"},"vehicle_type_id":"4","last_reported":1750871464,"current_range_meters":9600,"station_id":"ce4bhu92rcd13ifvqi70","pricing_plan_id":"cebpf4jnsgd1na2vs0mg"},{"bike_id":"32cf20b4-64eb-4411-b10a-4d5cb0204059","system_id":"levelo_inurba_marseille","lat":43.241671,"lon":5.363999,"is_reserved":false,"is_disabled":false,"rental_uris":{"android":"levelo://app?vid=32cf20b4-64eb-4411-b10a-4d5cb0204059","ios":"levelo://app?vid=32cf20b4-64eb-4411-b10a-4d5cb0204059"},"vehicle_type_id":"4","last_reported":1750871464,"current_range_meters":9600,"station_id":"cpo36qri1sfpv3e86is0","pricing_plan_id":"cebpf4jnsgd1na2vs0mg"},{"bike_id":"2f120339-8330-4539-8cd2-cf6dc6375085","system_id":"levelo_inurba_marseille","lat":43.2862,"lon":5.35104,"is_reserved":false,"is_disabled":false,"rental_uris":{"android":"levelo://app?vid=2f120339-8330-4539-8cd2-cf6dc6375085","ios":"levelo://app?vid=2f120339-8330-4539-8cd2-cf6dc6375085"},"vehicle_type_id":"4","last_reported":1750871464,"current_range_meters":10000,"station_id":"ce4bhch2rcd13ifvqeug","pricing_plan_id":"cebpf4jnsgd1na2vs0mg"},{"bike_id":"16895485-a651-40a0-af49-328209481472","system_id":"levelo_inurba_marseille","lat":43.23956,"lon":5.3664,"is_reserved":false,"is_disabled":false,"rental_uris":{"android":"levelo://app?vid=16895485-a651-40a0-af49-328209481472","ios":"levelo://app?vid=16895485-a651-40a0-af49-328209481472"},"vehicle_type_id":"4","last_reported":1750871464,"current_range_meters":10000,"station_id":"ce4bhi12rcd13ifvqfp0","pricing_plan_id":"cebpf4jnsgd1na2vs0mg"},{"bike_id":"35b14479-4a4d-4383-83de-c7fea66894b3","system_id":"levelo_inurba_marseille","lat":43.299028,"lon":5.436696,"is_reserved":false,"is_disabled":false,"rental_uris":{"android":"levelo://app?vid=35b14479-4a4d-4383-83de-c7fea66894b3","ios":"levelo://app?vid=35b14479-4a4d-4383-83de-c7fea66894b3"},"vehicle_type_id":"4","last_reported":1750871464,"current_range_meters":10000,"station_id":"ce4bhpp2rcd13ifvqhfg","pricing_plan_id":"cebpf4jnsgd1na2vs0mg"},{"bike_id":"420ec0d6-b2e3-4031-81b0-71d0e655de4d","system_id":"levelo_inurba_marseille","lat":43.262187,"lon":5.374313,"is_reserved":false,"is_disabled":false,"rental_uris":{"android":"levelo://app?vid=420ec0d6-b2e3-4031-81b0-71d0e655de4d","ios":"levelo://app?vid=420ec0d6-b2e3-4031-81b0-71d0e655de4d"},"vehicle_type_id":"4","last_reported":1750871464,"current_range_meters":10800,"station_id":"","pricing_plan_id":"cebpf4jnsgd1na2vs0mg"},{"bike_id":"af112b62-19de-41d4-b8d7-e14d0172315d","system_id":"levelo_inurba_marseille","lat":43.32702,"lon":5.39214,"is_reserved":false,"is_disabled":false,"rental_uris":{"android":"levelo://app?vid=af112b62-19de-41d4-b8d7-e14d0172315d","ios":"levelo://app?vid=af112b62-19de-41d4-b8d7-e14d0172315d"},"vehicle_type_id":"4","last_reported":1750871464,"current_range_meters":10800,"station_id":"","pricing_plan_id":"cebpf4jnsgd1na2vs0mg"},{"bike_id":"557c1906-af33-4070-ac5c-11b871bd0d54","system_id":"levelo_inurba_marseille","lat":43.28582,"lon":5.370812,"is_reserved":false,"is_disabled":false,"rental_uris":{"android":"levelo://app?vid=557c1906-af33-4070-ac5c-11b871bd0d54","ios":"levelo://app?vid=557c1906-af33-4070-ac5c-11b871bd0d54"},"vehicle_type_id":"4","last_reported":1750871464,"current_range_meters":10800,"station_id":"","pricing_plan_id":"cebpf4jnsgd1na2vs0mg"},{"bike_id":"3a5bac9c-7250-4ef3-8509-1543f8a14e6c","system_id":"levelo_inurba_marseille","lat":43.291995,"lon":5.35797,"is_reserved":false,"is_disabled":false,"rental_uris":{"android":"levelo://app?vid=3a5bac9c-7250-4ef3-8509-1543f8a14e6c","ios":"levelo://app?vid=3a5bac9c-7250-4ef3-8509-1543f8a14e6c"},"vehicle_type_id":"4","last_reported":1750871464,"current_range_meters":10800,"station_id":"ce4bhb12rcd13ifvqel0","pricing_plan_id":"cebpf4jnsgd1na2vs0mg"},{"bike_id":"07794057-ba4d-45a2-870a-244898808f3e","system_id":"levelo_inurba_marseille","lat":43.26219,"lon":5.374417,"is_reserved":false,"is_disabled":false,"rental_uris":{"android":"levelo://app?vid=07794057-ba4d-45a2-870a-244898808f3e","ios":"levelo://app?vid=07794057-ba4d-45a2-870a-244898808f3e"},"vehicle_type_id":"4","last_reported":1750871464,"current_range_meters":10800,"station_id":"ce4bhgp2rcd13ifvqfc0","pricing_plan_id":"cebpf4jnsgd1na2vs0mg"},{"bike_id":"f1b0e4f3-5af3-499f-ab3d-e8606ce6a2bd","system_id":"levelo_inurba_marseille","lat":43.26945,"lon":5.40256,"is_reserved":false,"is_disabled":false,"rental_uris":{"android":"levelo://app?vid=f1b0e4f3-5af3-499f-ab3d-e8606ce6a2bd","ios":"levelo://app?vid=f1b0e4f3-5af3-499f-ab3d-e8606ce6a2bd"},"vehicle_type_id":"4","last_reported":1750871464,"current_range_meters":10800,"station_id":"cjm6bp8fraef2m0cb0m0","pricing_plan_id":"cebpf4jnsgd1na2vs0mg"},{"bike_id":"4871833d-9f39-40f1-9d21-0e9a1fff775e","system_id":"levelo_inurba_marseille","lat":43.23072,"lon":5.35494,"is_reserved":false,"is_disabled":false,"rental_uris":{"android":"levelo://app?vid=4871833d-9f39-40f1-9d21-0e9a1fff775e","ios":"levelo://app?vid=4871833d-9f39-40f1-9d21-0e9a1fff775e"},"vehicle_type_id":"4","last_reported":1750871464,"current_range_meters":10800,"station_id":"cpo3342slgdg3j2ifvpg","pricing_plan_id":"cebpf4jnsgd1na2vs0mg"},{"bike_id":"891760a0-e9ce-4fa7-87a6-bc3e8d14af01","system_id":"levelo_inurba_marseille","lat":43.231563,"lon":5.436993,"is_reserved":false,"is_disabled":false,"rental_uris":{"android":"levelo://app?vid=891760a0-e9ce-4fa7-87a6-bc3e8d14af01","ios":"levelo://app?vid=891760a0-e9ce-4fa7-87a6-bc3e8d14af01"},"vehicle_type_id":"4","last_reported":1750871464,"current_range_meters":11200,"station_id":"","pricing_plan_id":"cebpf4jnsgd1na2vs0mg"},{"bike_id":"9a518954-4025-421b-9462-580c985818f2","system_id":"levelo_inurba_marseille","lat":43.31499,"lon":5.38839,"is_reserved":false,"is_disabled":false,"rental_uris":{"android":"levelo://app?vid=9a518954-4025-421b-9462-580c985818f2","ios":"levelo://app?vid=9a518954-4025-421b-9462-580c985818f2"},"vehicle_type_id":"4","last_reported":1750871464,"current_range_meters":11200,"station_id":"","pricing_plan_id":"cebpf4jnsgd1na2vs0mg"},{"bike_id":"23a576b0-f308-4af9-a856-c356c821e9fe","system_id":"levelo_inurba_marseille","lat":43.2519,"lon":5.40682,"is_reserved":false,"is_disabled":false,"rental_uris":{"android":"levelo://app?vid=23a576b0-f308-4af9-a856-c356c821e9fe","ios":"levelo://app?vid=23a576b0-f308-4af9-a856-c356c821e9fe"},"vehicle_type_id":"4","last_reported":1750871464,"current_range_meters":11200,"station_id":"","pricing_plan_id":"cebpf4jnsgd1na2vs0mg"},{"bike_id":"ad9b2b35-eb11-484c-83da-38aa149668e0","system_id":"levelo_inurba_marseille","lat":43.28423,"lon":5.34988,"is_reserved":false,"is_disabled":false,"rental_uris":{"android":"levelo://app?vid=ad9b2b35-eb11-484c-83da-38aa149668e0","ios":"levelo://app?vid=ad9b2b35-eb11-484c-83da-38aa149668e0"},"vehicle_type_id":"4","last_reported":1750871464,"current_range_meters":11200,"station_id":"ce4bhbh2rcd13ifvqepg","pricing_plan_id":"cebpf4jnsgd1na2vs0mg"},{"bike_id":"4c725134-abee-4c57-9226-38f0c41a6911","system_id":"levelo_inurba_marseille","lat":43.25723,"lon":5.41111,"is_reserved":false,"is_disabled":false,"rental_uris":{"android":"levelo://app?vid=4c725134-abee-4c57-9226-38f0c41a6911","ios":"levelo://app?vid=4c725134-abee-4c57-9226-38f0c41a6911"},"vehicle_type_id":"4","last_reported":1750871464,"current_range_meters":11200,"station_id":"ce4bhkp2rcd13ifvqgd0","pricing_plan_id":"cebpf4jnsgd1na2vs0mg"},{"bike_id":"85aebb63-1277-49af-91e5-22f2d655e266","system_id":"levelo_inurba_marseille","lat":43.298968,"lon":5.436729,"is_reserved":false,"is_disabled":false,"rental_uris":{"android":"levelo://app?vid=85aebb63-1277-49af-91e5-22f2d655e266","ios":"levelo://app?vid=85aebb63-1277-49af-91e5-22f2d655e266"},"vehicle_type_id":"4","last_reported":1750871464,"current_range_meters":11200,"station_id":"ce4bhpp2rcd13ifvqhfg","pricing_plan_id":"cebpf4jnsgd1na2vs0mg"},{"bike_id":"5191b21a-da4a-4fcb-bec5-c8e35646710a","system_id":"levelo_inurba_marseille","lat":43.28726,"lon":5.36079,"is_reserved":false,"is_disabled":false,"rental_uris":{"android":"levelo://app?vid=5191b21a-da4a-4fcb-bec5-c8e35646710a","ios":"levelo://app?vid=5191b21a-da4a-4fcb-bec5-c8e35646710a"},"vehicle_type_id":"4","last_reported":1750871464,"current_range_meters":11200,"station_id":"cki0cbj6b192h4jlfktg","pricing_plan_id":"cebpf4jnsgd1na2vs0mg"},{"bike_id":"3f7ea014-6fcb-46b3-bdf3-f88b5c96cd0f","system_id":"levelo_inurba_marseille","lat":43.2457,"lon":5.3734,"is_reserved":false,"is_disabled":false,"rental_uris":{"android":"levelo://app?vid=3f7ea014-6fcb-46b3-bdf3-f88b5c96cd0f","ios":"levelo://app?vid=3f7ea014-6fcb-46b3-bdf3-f88b5c96cd0f"},"vehicle_type_id":"4","last_reported":1750871464,"current_range_meters":11600,"station_id":"","pricing_plan_id":"cebpf4jnsgd1na2vs0mg"},{"bike_id":"26a14eba-87a9-47b8-9607-30bd0042d428","system_id":"levelo_inurba_marseille","lat":43.314648,"lon":5.394351,"is_reserved":false,"is_disabled":false,"rental_uris":{"android":"levelo://app?vid=26a14eba-87a9-47b8-9607-30bd0042d428","ios":"levelo://app?vid=26a14eba-87a9-47b8-9607-30bd0042d428"},"vehicle_type_id":"4","last_reported":1750871464,"current_range_meters":11600,"station_id":"","pricing_plan_id":"cebpf4jnsgd1na2vs0mg"},{"bike_id":"942123cf-b88a-4408-980d-7609acbc9910","system_id":"levelo_inurba_marseille","lat":43.298597,"lon":5.372916,"is_reserved":false,"is_disabled":false,"rental_uris":{"android":"levelo://app?vid=942123cf-b88a-4408-980d-7609acbc9910","ios":"levelo://app?vid=942123cf-b88a-4408-980d-7609acbc9910"},"vehicle_type_id":"4","last_reported":1750871464,"current_range_meters":11600,"station_id":"","pricing_plan_id":"cebpf4jnsgd1na2vs0mg"},{"bike_id":"b913aed0-45ca-4bd2-b704-9050ea658a0d","system_id":"levelo_inurba_marseille","lat":43.27613,"lon":5.36109,"is_reserved":false,"is_disabled":false,"rental_uris":{"android":"levelo://app?vid=b913aed0-45ca-4bd2-b704-9050ea658a0d","ios":"levelo://app?vid=b913aed0-45ca-4bd2-b704-9050ea658a0d"},"vehicle_type_id":"4","last_reported":1750871464,"current_range_meters":11600,"station_id":"ce4bgj92rcd13ifvqbe0","pricing_plan_id":"cebpf4jnsgd1na2vs0mg"},{"bike_id":"17162de7-8865-4aca-9da5-ef00ff6ab942","system_id":"levelo_inurba_marseille","lat":43.26026,"lon":5.37565,"is_reserved":false,"is_disabled":false,"rental_uris":{"android":"levelo://app?vid=17162de7-8865-4aca-9da5-ef00ff6ab942","ios":"levelo://app?vid=17162de7-8865-4aca-9da5-ef00ff6ab942"},"vehicle_type_id":"4","last_reported":1750871464,"current_range_meters":11600,"station_id":"ce4bhgh2rcd13ifvqfa0","pricing_plan_id":"cebpf4jnsgd1na2vs0mg"},{"bike_id":"5eee8925-0941-460b-a942-18fcb70bac7c","system_id":"levelo_inurba_marseille","lat":43.27254,"lon":5.40062,"is_reserved":false,"is_disabled":false,"rental_uris":{"android":"levelo://app?vid=5eee8925-0941-460b-a942-18fcb70bac7c","ios":"levelo://app?vid=5eee8925-0941-460b-a942-18fcb70bac7c"},"vehicle_type_id":"4","last_reported":1750871464,"current_range_meters":12000,"station_id":"","pricing_plan_id":"cebpf4jnsgd1na2vs0mg"},{"bike_id":"5174b713-d364-4a67-8b9d-f5370ea554d0","system_id":"levelo_inurba_marseille","lat":43.22502,"lon":5.34783,"is_reserved":false,"is_disabled":false,"rental_uris":{"android":"levelo://app?vid=5174b713-d364-4a67-8b9d-f5370ea554d0","ios":"levelo://app?vid=5174b713-d364-4a67-8b9d-f5370ea554d0"},"vehicle_type_id":"4","last_reported":1750871464,"current_range_meters":12000,"station_id":"","pricing_plan_id":"cebpf4jnsgd1na2vs0mg"},{"bike_id":"bd2ae3e7-15d7-4c30-8a53-2087bfdad083","system_id":"levelo_inurba_marseille","lat":43.2842,"lon":5.34995,"is_reserved":false,"is_disabled":false,"rental_uris":{"android":"levelo://app?vid=bd2ae3e7-15d7-4c30-8a53-2087bfdad083","ios":"levelo://app?vid=bd2ae3e7-15d7-4c30-8a53-2087bfdad083"},"vehicle_type_id":"4","last_reported":1750871464,"current_range_meters":12000,"station_id":"ce4bhbh2rcd13ifvqepg","pricing_plan_id":"cebpf4jnsgd1na2vs0mg"},{"bike_id":"c8141e90-8c65-4d5a-831d-bfe1d81d782b","system_id":"levelo_inurba_marseille","lat":43.28264,"lon":5.35062,"is_reserved":false,"is_disabled":false,"rental_uris":{"android":"levelo://app?vid=c8141e90-8c65-4d5a-831d-bfe1d81d782b","ios":"levelo://app?vid=c8141e90-8c65-4d5a-831d-bfe1d81d782b"},"vehicle_type_id":"4","last_reported":1750871464,"current_range_meters":12000,"station_id":"ce4bhbp2rcd13ifvqerg","pricing_plan_id":"cebpf4jnsgd1na2vs0mg"},{"bike_id":"e3d17343-dd1b-411f-a239-f42413cb0965","system_id":"levelo_inurba_marseille","lat":43.2572,"lon":5.41116,"is_reserved":false,"is_disabled":false,"rental_uris":{"android":"levelo://app?vid=e3d17343-dd1b-411f-a239-f42413cb0965","ios":"levelo://app?vid=e3d17343-dd1b-411f-a239-f42413cb0965"},"vehicle_type_id":"4","last_reported":1750871464,"current_range_meters":12000,"station_id":"ce4bhkp2rcd13ifvqgd0","pricing_plan_id":"cebpf4jnsgd1na2vs0mg"},{"bike_id":"73003e5e-1157-4cf0-aafe-d13c75118280","system_id":"levelo_inurba_marseille","lat":43.33339,"lon":5.39591,"is_reserved":false,"is_disabled":false,"rental_uris":{"android":"levelo://app?vid=73003e5e-1157-4cf0-aafe-d13c75118280","ios":"levelo://app?vid=73003e5e-1157-4cf0-aafe-d13c75118280"},"vehicle_type_id":"4","last_reported":1750871464,"current_range_meters":12400,"station_id":"","pricing_plan_id":"cebpf4jnsgd1na2vs0mg"},{"bike_id":"8485fd75-2917-4f01-a496-6faa5b644816","system_id":"levelo_inurba_marseille","lat":43.29443,"lon":5.3973,"is_reserved":false,"is_disabled":false,"rental_uris":{"android":"levelo://app?vid=8485fd75-2917-4f01-a496-6faa5b644816","ios":"levelo://app?vid=8485fd75-2917-4f01-a496-6faa5b644816"},"vehicle_type_id":"4","last_reported":1750871464,"current_range_meters":12400,"station_id":"ce4bh3h2rcd13ifvqdo0","pricing_plan_id":"cebpf4jnsgd1na2vs0mg"},{"bike_id":"cb710f8d-30f6-4b48-b945-4bf1b209fa6c","system_id":"levelo_inurba_marseille","lat":43.28414,"lon":5.35003,"is_reserved":false,"is_disabled":false,"rental_uris":{"android":"levelo://app?vid=cb710f8d-30f6-4b48-b945-4bf1b209fa6c","ios":"levelo://app?vid=cb710f8d-30f6-4b48-b945-4bf1b209fa6c"},"vehicle_type_id":"4","last_reported":1750871464,"current_range_meters":12400,"station_id":"ce4bhbh2rcd13ifvqepg","pricing_plan_id":"cebpf4jnsgd1na2vs0mg"},{"bike_id":"a5173778-eef3-4ee6-9f8f-b53a549ae55b","system_id":"levelo_inurba_marseille","lat":43.26209,"lon":5.37442,"is_reserved":false,"is_disabled":false,"rental_uris":{"android":"levelo://app?vid=a5173778-eef3-4ee6-9f8f-b53a549ae55b","ios":"levelo://app?vid=a5173778-eef3-4ee6-9f8f-b53a549ae55b"},"vehicle_type_id":"4","last_reported":1750871464,"current_range_meters":12400,"station_id":"ce4bhgp2rcd13ifvqfc0","pricing_plan_id":"cebpf4jnsgd1na2vs0mg"},{"bike_id":"45c149f7-eed5-4691-999a-1b11aab9ad5b","system_id":"levelo_inurba_marseille","lat":43.26061,"lon":5.39397,"is_reserved":false,"is_disabled":false,"rental_uris":{"android":"levelo://app?vid=45c149f7-eed5-4691-999a-1b11aab9ad5b","ios":"levelo://app?vid=45c149f7-eed5-4691-999a-1b11aab9ad5b"},"vehicle_type_id":"4","last_reported":1750871464,"current_range_meters":12400,"station_id":"ce4bhh92rcd13ifvqfj0","pricing_plan_id":"cebpf4jnsgd1na2vs0mg"},{"bike_id":"b4072df8-6b35-423f-bd81-99cbe557938c","system_id":"levelo_inurba_marseille","lat":43.28159,"lon":5.42648,"is_reserved":false,"is_disabled":false,"rental_uris":{"android":"levelo://app?vid=b4072df8-6b35-423f-bd81-99cbe557938c","ios":"levelo://app?vid=b4072df8-6b35-423f-bd81-99cbe557938c"},"vehicle_type_id":"4","last_reported":1750871464,"current_range_meters":12400,"station_id":"ce4bhnh2rcd13ifvqgug","pricing_plan_id":"cebpf4jnsgd1na2vs0mg"},{"bike_id":"011225fa-7b22-4707-ac5e-5f950661cdc6","system_id":"levelo_inurba_marseille","lat":43.2407,"lon":5.37769,"is_reserved":false,"is_disabled":false,"rental_uris":{"android":"levelo://app?vid=011225fa-7b22-4707-ac5e-5f950661cdc6","ios":"levelo://app?vid=011225fa-7b22-4707-ac5e-5f950661cdc6"},"vehicle_type_id":"4","last_reported":1750871464,"current_range_meters":12400,"station_id":"ce4bhnp2rcd13ifvqgvg","pricing_plan_id":"cebpf4jnsgd1na2vs0mg"},{"bike_id":"d09c89e0-e5a2-4f97-8f74-89f0b5ebdb55","system_id":"levelo_inurba_marseille","lat":43.29557,"lon":5.42293,"is_reserved":false,"is_disabled":false,"rental_uris":{"android":"levelo://app?vid=d09c89e0-e5a2-4f97-8f74-89f0b5ebdb55","ios":"levelo://app?vid=d09c89e0-e5a2-4f97-8f74-89f0b5ebdb55"},"vehicle_type_id":"4","last_reported":1750871464,"current_range_meters":12400,"station_id":"ce4bhph2rcd13ifvqhdg","pricing_plan_id":"cebpf4jnsgd1na2vs0mg"},{"bike_id":"8dfc8bd6-ce60-41c0-acf4-fbdac92663d9","system_id":"levelo_inurba_marseille","lat":43.23194,"lon":5.3555,"is_reserved":false,"is_disabled":false,"rental_uris":{"android":"levelo://app?vid=8dfc8bd6-ce60-41c0-acf4-fbdac92663d9","ios":"levelo://app?vid=8dfc8bd6-ce60-41c0-acf4-fbdac92663d9"},"vehicle_type_id":"4","last_reported":1750871464,"current_range_meters":12400,"station_id":"ce4bhu92rcd13ifvqi70","pricing_plan_id":"cebpf4jnsgd1na2vs0mg"},{"bike_id":"441e2f39-7054-4744-894b-72ac8474531d","system_id":"levelo_inurba_marseille","lat":43.21194,"lon":5.35079,"is_reserved":false,"is_disabled":false,"rental_uris":{"android":"levelo://app?vid=441e2f39-7054-4744-894b-72ac8474531d","ios":"levelo://app?vid=441e2f39-7054-4744-894b-72ac8474531d"},"vehicle_type_id":"4","last_reported":1750871464,"current_range_meters":12400,"station_id":"st_cvj6sg6p6f1abm77japg","pricing_plan_id":"cebpf4jnsgd1na2vs0mg"},{"bike_id":"4b0d376e-21e7-4f37-b644-30b9cd75c7a5","system_id":"levelo_inurba_marseille","lat":43.31274,"lon":5.40172,"is_reserved":false,"is_disabled":false,"rental_uris":{"android":"levelo://app?vid=4b0d376e-21e7-4f37-b644-30b9cd75c7a5","ios":"levelo://app?vid=4b0d376e-21e7-4f37-b644-30b9cd75c7a5"},"vehicle_type_id":"4","last_reported":1750871464,"current_range_meters":12800,"station_id":"ce4bh092rcd13ifvqd30","pricing_plan_id":"cebpf4jnsgd1na2vs0mg"},{"bike_id":"ab27ffc9-2825-45ee-ace3-336b0c867e5a","system_id":"levelo_inurba_marseille","lat":43.27375,"lon":5.36255,"is_reserved":false,"is_disabled":false,"rental_uris":{"android":"levelo://app?vid=ab27ffc9-2825-45ee-ace3-336b0c867e5a","ios":"levelo://app?vid=ab27ffc9-2825-45ee-ace3-336b0c867e5a"},"vehicle_type_id":"4","last_reported":1750871464,"current_range_meters":12800,"station_id":"ce4bhbh2rcd13ifvqeo0","pricing_plan_id":"cebpf4jnsgd1na2vs0mg"},{"bike_id":"8aa2fe90-7f46-4295-b20a-bb0b13f2b718","system_id":"levelo_inurba_marseille","lat":43.2737,"lon":5.36257,"is_reserved":false,"is_disabled":false,"rental_uris":{"android":"levelo://app?vid=8aa2fe90-7f46-4295-b20a-bb0b13f2b718","ios":"levelo://app?vid=8aa2fe90-7f46-4295-b20a-bb0b13f2b718"},"vehicle_type_id":"4","last_reported":1750871464,"current_range_meters":12800,"station_id":"ce4bhbh2rcd13ifvqeo0","pricing_plan_id":"cebpf4jnsgd1na2vs0mg"},{"bike_id":"0dd72a48-6924-4515-be13-ea6bb5193597","system_id":"levelo_inurba_marseille","lat":43.284056,"lon":5.34996,"is_reserved":false,"is_disabled":false,"rental_uris":{"android":"levelo://app?vid=0dd72a48-6924-4515-be13-ea6bb5193597","ios":"levelo://app?vid=0dd72a48-6924-4515-be13-ea6bb5193597"},"vehicle_type_id":"4","last_reported":1750871464,"current_range_meters":12800,"station_id":"ce4bhbh2rcd13ifvqepg","pricing_plan_id":"cebpf4jnsgd1na2vs0mg"},{"bike_id":"aa732736-4e26-463a-8b0f-41a9b54eebd8","system_id":"levelo_inurba_marseille","lat":43.28608,"lon":5.351,"is_reserved":false,"is_disabled":false,"rental_uris":{"android":"levelo://app?vid=aa732736-4e26-463a-8b0f-41a9b54eebd8","ios":"levelo://app?vid=aa732736-4e26-463a-8b0f-41a9b54eebd8"},"vehicle_type_id":"4","last_reported":1750871464,"current_range_meters":12800,"station_id":"ce4bhch2rcd13ifvqeug","pricing_plan_id":"cebpf4jnsgd1na2vs0mg"},{"bike_id":"eadc4879-54be-4fe2-856c-25fd5c834415","system_id":"levelo_inurba_marseille","lat":43.231995,"lon":5.355451,"is_reserved":false,"is_disabled":false,"rental_uris":{"android":"levelo://app?vid=eadc4879-54be-4fe2-856c-25fd5c834415","ios":"levelo://app?vid=eadc4879-54be-4fe2-856c-25fd5c834415"},"vehicle_type_id":"4","last_reported":1750871464,"current_range_meters":12800,"station_id":"ce4bhu92rcd13ifvqi70","pricing_plan_id":"cebpf4jnsgd1na2vs0mg"},{"bike_id":"e2f5b300-4a63-4778-aada-c29a8a0ea1e8","system_id":"levelo_inurba_marseille","lat":43.328,"lon":5.39191,"is_reserved":false,"is_disabled":false,"rental_uris":{"android":"levelo://app?vid=e2f5b300-4a63-4778-aada-c29a8a0ea1e8","ios":"levelo://app?vid=e2f5b300-4a63-4778-aada-c29a8a0ea1e8"},"vehicle_type_id":"4","last_reported":1750871464,"current_range_meters":13600,"station_id":"","pricing_plan_id":"cebpf4jnsgd1na2vs0mg"},{"bike_id":"79477bdc-7776-4829-9968-402a27685142","system_id":"levelo_inurba_marseille","lat":43.28874,"lon":5.35995,"is_reserved":false,"is_disabled":false,"rental_uris":{"android":"levelo://app?vid=79477bdc-7776-4829-9968-402a27685142","ios":"levelo://app?vid=79477bdc-7776-4829-9968-402a27685142"},"vehicle_type_id":"4","last_reported":1750871464,"current_range_meters":13600,"station_id":"","pricing_plan_id":"cebpf4jnsgd1na2vs0mg"},{"bike_id":"63905591-9111-47e4-b0e2-7f87afcba96d","system_id":"levelo_inurba_marseille","lat":43.33044,"lon":5.365,"is_reserved":false,"is_disabled":false,"rental_uris":{"android":"levelo://app?vid=63905591-9111-47e4-b0e2-7f87afcba96d","ios":"levelo://app?vid=63905591-9111-47e4-b0e2-7f87afcba96d"},"vehicle_type_id":"4","last_reported":1750871464,"current_range_meters":13600,"station_id":"","pricing_plan_id":"cebpf4jnsgd1na2vs0mg"},{"bike_id":"424c0da9-6328-43a0-8fe7-7d1703c56813","system_id":"levelo_inurba_marseille","lat":43.24808,"lon":5.37445,"is_reserved":false,"is_disabled":false,"rental_uris":{"android":"levelo://app?vid=424c0da9-6328-43a0-8fe7-7d1703c56813","ios":"levelo://app?vid=424c0da9-6328-43a0-8fe7-7d1703c56813"},"vehicle_type_id":"4","last_reported":1750871464,"current_range_meters":13600,"station_id":"ce4bhgh2rcd13ifvqfb0","pricing_plan_id":"cebpf4jnsgd1na2vs0mg"},{"bike_id":"be4ff292-c435-4a16-b8dc-4531ea3a77e9","system_id":"levelo_inurba_marseille","lat":43.31695,"lon":5.43701,"is_reserved":false,"is_disabled":false,"rental_uris":{"android":"levelo://app?vid=be4ff292-c435-4a16-b8dc-4531ea3a77e9","ios":"levelo://app?vid=be4ff292-c435-4a16-b8dc-4531ea3a77e9"},"vehicle_type_id":"4","last_reported":1750871464,"current_range_meters":13600,"station_id":"ce4bhp92rcd13ifvqhcg","pricing_plan_id":"cebpf4jnsgd1na2vs0mg"},{"bike_id":"76063b03-8189-462b-bfa7-75bf94d44138","system_id":"levelo_inurba_marseille","lat":43.230692,"lon":5.35485,"is_reserved":false,"is_disabled":false,"rental_uris":{"android":"levelo://app?vid=76063b03-8189-462b-bfa7-75bf94d44138","ios":"levelo://app?vid=76063b03-8189-462b-bfa7-75bf94d44138"},"vehicle_type_id":"4","last_reported":1750871464,"current_range_meters":13600,"station_id":"cpo3342slgdg3j2ifvpg","pricing_plan_id":"cebpf4jnsgd1na2vs0mg"},{"bike_id":"f38097ec-f21b-4f59-a52a-ab2d74795c3d","system_id":"levelo_inurba_marseille","lat":43.29217,"lon":5.36068,"is_reserved":false,"is_disabled":false,"rental_uris":{"android":"levelo://app?vid=f38097ec-f21b-4f59-a52a-ab2d74795c3d","ios":"levelo://app?vid=f38097ec-f21b-4f59-a52a-ab2d74795c3d"},"vehicle_type_id":"4","last_reported":1750871464,"current_range_meters":14000,"station_id":"ce4bhbh2rcd13ifvqeqg","pricing_plan_id":"cebpf4jnsgd1na2vs0mg"},{"bike_id":"94c5fe96-0433-4bc9-94a6-34ac48f81571","system_id":"levelo_inurba_marseille","lat":43.26561,"lon":5.37275,"is_reserved":false,"is_disabled":false,"rental_uris":{"android":"levelo://app?vid=94c5fe96-0433-4bc9-94a6-34ac48f81571","ios":"levelo://app?vid=94c5fe96-0433-4bc9-94a6-34ac48f81571"},"vehicle_type_id":"4","last_reported":1750871464,"current_range_meters":14000,"station_id":"ce4bhg12rcd13ifvqf70","pricing_plan_id":"cebpf4jnsgd1na2vs0mg"},{"bike_id":"5b0059f2-5a2a-41ce-b903-1f956adfdd24","system_id":"levelo_inurba_marseille","lat":43.29791,"lon":5.43544,"is_reserved":false,"is_disabled":false,"rental_uris":{"android":"levelo://app?vid=5b0059f2-5a2a-41ce-b903-1f956adfdd24","ios":"levelo://app?vid=5b0059f2-5a2a-41ce-b903-1f956adfdd24"},"vehicle_type_id":"4","last_reported":1750871464,"current_range_meters":14400,"station_id":"","pricing_plan_id":"cebpf4jnsgd1na2vs0mg"},{"bike_id":"0871c3e6-e8f1-4c1c-8436-754e80582f8b","system_id":"levelo_inurba_marseille","lat":43.28963,"lon":5.357,"is_reserved":false,"is_disabled":false,"rental_uris":{"android":"levelo://app?vid=0871c3e6-e8f1-4c1c-8436-754e80582f8b","ios":"levelo://app?vid=0871c3e6-e8f1-4c1c-8436-754e80582f8b"},"vehicle_type_id":"4","last_reported":1750871464,"current_range_meters":14400,"station_id":"","pricing_plan_id":"cebpf4jnsgd1na2vs0mg"},{"bike_id":"999358c1-ca11-4e82-a992-73b8d2972254","system_id":"levelo_inurba_marseille","lat":43.301465,"lon":5.374224,"is_reserved":false,"is_disabled":false,"rental_uris":{"android":"levelo://app?vid=999358c1-ca11-4e82-a992-73b8d2972254","ios":"levelo://app?vid=999358c1-ca11-4e82-a992-73b8d2972254"},"vehicle_type_id":"4","last_reported":1750871464,"current_range_meters":14400,"station_id":"ce4bgi92rcd13ifvqb90","pricing_plan_id":"cebpf4jnsgd1na2vs0mg"},{"bike_id":"64ae686c-94f3-4ece-a453-b06c1b957e09","system_id":"levelo_inurba_marseille","lat":43.28854,"lon":5.35863,"is_reserved":false,"is_disabled":false,"rental_uris":{"android":"levelo://app?vid=64ae686c-94f3-4ece-a453-b06c1b957e09","ios":"levelo://app?vid=64ae686c-94f3-4ece-a453-b06c1b957e09"},"vehicle_type_id":"4","last_reported":1750871464,"current_range_meters":14400,"station_id":"ce4bhb12rcd13ifvqem0","pricing_plan_id":"cebpf4jnsgd1na2vs0mg"},{"bike_id":"f1e981f1-a98e-479f-a332-215afec90b5d","system_id":"levelo_inurba_marseille","lat":43.273737,"lon":5.362547,"is_reserved":false,"is_disabled":false,"rental_uris":{"android":"levelo://app?vid=f1e981f1-a98e-479f-a332-215afec90b5d","ios":"levelo://app?vid=f1e981f1-a98e-479f-a332-215afec90b5d"},"vehicle_type_id":"4","last_reported":1750871464,"current_range_meters":14400,"station_id":"ce4bhbh2rcd13ifvqeo0","pricing_plan_id":"cebpf4jnsgd1na2vs0mg"},{"bike_id":"8dd61adf-020e-406e-8363-b96d6ae49f7b","system_id":"levelo_inurba_marseille","lat":43.27176,"lon":5.40997,"is_reserved":false,"is_disabled":false,"rental_uris":{"android":"levelo://app?vid=8dd61adf-020e-406e-8363-b96d6ae49f7b","ios":"levelo://app?vid=8dd61adf-020e-406e-8363-b96d6ae49f7b"},"vehicle_type_id":"4","last_reported":1750871464,"current_range_meters":14400,"station_id":"ce4bhl12rcd13ifvqgf0","pricing_plan_id":"cebpf4jnsgd1na2vs0mg"},{"bike_id":"43463159-663c-47dc-ba90-fe1de823f6ca","system_id":"levelo_inurba_marseille","lat":43.22932,"lon":5.35377,"is_reserved":false,"is_disabled":false,"rental_uris":{"android":"levelo://app?vid=43463159-663c-47dc-ba90-fe1de823f6ca","ios":"levelo://app?vid=43463159-663c-47dc-ba90-fe1de823f6ca"},"vehicle_type_id":"4","last_reported":1750871464,"current_range_meters":14400,"station_id":"cpo3532slgdg3j2ikp40","pricing_plan_id":"cebpf4jnsgd1na2vs0mg"},{"bike_id":"75e16631-0d38-4ee8-b531-24d523c933be","system_id":"levelo_inurba_marseille","lat":43.31302,"lon":5.40212,"is_reserved":false,"is_disabled":false,"rental_uris":{"android":"levelo://app?vid=75e16631-0d38-4ee8-b531-24d523c933be","ios":"levelo://app?vid=75e16631-0d38-4ee8-b531-24d523c933be"},"vehicle_type_id":"4","last_reported":1750871464,"current_range_meters":14800,"station_id":"","pricing_plan_id":"cebpf4jnsgd1na2vs0mg"},{"bike_id":"b59c8780-3f81-4fb0-8dbd-248efe106cb3","system_id":"levelo_inurba_marseille","lat":43.296265,"lon":5.377143,"is_reserved":false,"is_disabled":false,"rental_uris":{"android":"levelo://app?vid=b59c8780-3f81-4fb0-8dbd-248efe106cb3","ios":"levelo://app?vid=b59c8780-3f81-4fb0-8dbd-248efe106cb3"},"vehicle_type_id":"4","last_reported":1750871464,"current_range_meters":14800,"station_id":"ce4bgi92rcd13ifvqb90","pricing_plan_id":"cebpf4jnsgd1na2vs0mg"},{"bike_id":"c49b98c7-dccc-4f57-9d4a-8631b8eedb84","system_id":"levelo_inurba_marseille","lat":43.29226,"lon":5.36059,"is_reserved":false,"is_disabled":false,"rental_uris":{"android":"levelo://app?vid=c49b98c7-dccc-4f57-9d4a-8631b8eedb84","ios":"levelo://app?vid=c49b98c7-dccc-4f57-9d4a-8631b8eedb84"},"vehicle_type_id":"4","last_reported":1750871464,"current_range_meters":14800,"station_id":"ce4bhbh2rcd13ifvqeqg","pricing_plan_id":"cebpf4jnsgd1na2vs0mg"},{"bike_id":"20db5046-9f45-48c6-9fbc-7ba103d8c908","system_id":"levelo_inurba_marseille","lat":43.31713,"lon":5.43707,"is_reserved":false,"is_disabled":false,"rental_uris":{"android":"levelo://app?vid=20db5046-9f45-48c6-9fbc-7ba103d8c908","ios":"levelo://app?vid=20db5046-9f45-48c6-9fbc-7ba103d8c908"},"vehicle_type_id":"4","last_reported":1750871464,"current_range_meters":14800,"station_id":"ce4bhp92rcd13ifvqhcg","pricing_plan_id":"cebpf4jnsgd1na2vs0mg"},{"bike_id":"fe43b6c4-a75a-4fea-bf10-631b6b96ea9e","system_id":"levelo_inurba_marseille","lat":43.27386,"lon":5.36251,"is_reserved":false,"is_disabled":false,"rental_uris":{"android":"levelo://app?vid=fe43b6c4-a75a-4fea-bf10-631b6b96ea9e","ios":"levelo://app?vid=fe43b6c4-a75a-4fea-bf10-631b6b96ea9e"},"vehicle_type_id":"4","last_reported":1750871464,"current_range_meters":15200,"station_id":"ce4bhbh2rcd13ifvqeo0","pricing_plan_id":"cebpf4jnsgd1na2vs0mg"},{"bike_id":"81952a84-7177-4074-a786-378708e2df6d","system_id":"levelo_inurba_marseille","lat":43.31482,"lon":5.37307,"is_reserved":false,"is_disabled":false,"rental_uris":{"android":"levelo://app?vid=81952a84-7177-4074-a786-378708e2df6d","ios":"levelo://app?vid=81952a84-7177-4074-a786-378708e2df6d"},"vehicle_type_id":"4","last_reported":1750871464,"current_range_meters":16000,"station_id":"ce4bgt12rcd13ifvqcd0","pricing_plan_id":"cebpf4jnsgd1na2vs0mg"},{"bike_id":"5e9fbda0-40d1-49fe-b3ee-fc58d078556c","system_id":"levelo_inurba_marseille","lat":43.30643,"lon":5.40093,"is_reserved":false,"is_disabled":false,"rental_uris":{"android":"levelo://app?vid=5e9fbda0-40d1-49fe-b3ee-fc58d078556c","ios":"levelo://app?vid=5e9fbda0-40d1-49fe-b3ee-fc58d078556c"},"vehicle_type_id":"4","last_reported":1750871464,"current_range_meters":16000,"station_id":"ce4bh112rcd13ifvqda0","pricing_plan_id":"cebpf4jnsgd1na2vs0mg"},{"bike_id":"871746e7-a217-4f0e-b254-2f8459277963","system_id":"levelo_inurba_marseille","lat":43.27377,"lon":5.36266,"is_reserved":false,"is_disabled":false,"rental_uris":{"android":"levelo://app?vid=871746e7-a217-4f0e-b254-2f8459277963","ios":"levelo://app?vid=871746e7-a217-4f0e-b254-2f8459277963"},"vehicle_type_id":"4","last_reported":1750871464,"current_range_meters":16000,"station_id":"ce4bhbh2rcd13ifvqeo0","pricing_plan_id":"cebpf4jnsgd1na2vs0mg"},{"bike_id":"3b05b772-a792-4c8b-bd24-81e0328b21a1","system_id":"levelo_inurba_marseille","lat":43.2737,"lon":5.36241,"is_reserved":false,"is_disabled":false,"rental_uris":{"android":"levelo://app?vid=3b05b772-a792-4c8b-bd24-81e0328b21a1","ios":"levelo://app?vid=3b05b772-a792-4c8b-bd24-81e0328b21a1"},"vehicle_type_id":"4","last_reported":1750871464,"current_range_meters":16000,"station_id":"ce4bhbh2rcd13ifvqeo0","pricing_plan_id":"cebpf4jnsgd1na2vs0mg"},{"bike_id":"6d41fd2a-bcd0-4ee4-9af3-138b9e8fcac9","system_id":"levelo_inurba_marseille","lat":43.28265,"lon":5.35071,"is_reserved":false,"is_disabled":false,"rental_uris":{"android":"levelo://app?vid=6d41fd2a-bcd0-4ee4-9af3-138b9e8fcac9","ios":"levelo://app?vid=6d41fd2a-bcd0-4ee4-9af3-138b9e8fcac9"},"vehicle_type_id":"4","last_reported":1750871464,"current_range_meters":16000,"station_id":"ce4bhbp2rcd13ifvqerg","pricing_plan_id":"cebpf4jnsgd1na2vs0mg"},{"bike_id":"018526b0-0a84-446d-981c-2a21cb22a598","system_id":"levelo_inurba_marseille","lat":43.23952,"lon":5.36645,"is_reserved":false,"is_disabled":false,"rental_uris":{"android":"levelo://app?vid=018526b0-0a84-446d-981c-2a21cb22a598","ios":"levelo://app?vid=018526b0-0a84-446d-981c-2a21cb22a598"},"vehicle_type_id":"4","last_reported":1750871464,"current_range_meters":16000,"station_id":"ce4bhi12rcd13ifvqfp0","pricing_plan_id":"cebpf4jnsgd1na2vs0mg"},{"bike_id":"0d78e0a1-60f5-4275-a85b-68455ab26961","system_id":"levelo_inurba_marseille","lat":43.3235,"lon":5.40618,"is_reserved":false,"is_disabled":false,"rental_uris":{"android":"levelo://app?vid=0d78e0a1-60f5-4275-a85b-68455ab26961","ios":"levelo://app?vid=0d78e0a1-60f5-4275-a85b-68455ab26961"},"vehicle_type_id":"4","last_reported":1750871464,"current_range_meters":16000,"station_id":"ce4bhq92rcd13ifvqhjg","pricing_plan_id":"cebpf4jnsgd1na2vs0mg"},{"bike_id":"9cd9822c-fc3d-41ba-8b08-1ce3817af118","system_id":"levelo_inurba_marseille","lat":43.29007,"lon":5.35597,"is_reserved":false,"is_disabled":false,"rental_uris":{"android":"levelo://app?vid=9cd9822c-fc3d-41ba-8b08-1ce3817af118","ios":"levelo://app?vid=9cd9822c-fc3d-41ba-8b08-1ce3817af118"},"vehicle_type_id":"4","last_reported":1750871464,"current_range_meters":16400,"station_id":"ce4bhb92rcd13ifvqen0","pricing_plan_id":"cebpf4jnsgd1na2vs0mg"},{"bike_id":"65292dd6-04e9-43fc-8875-698ec8ff714b","system_id":"levelo_inurba_marseille","lat":43.27383,"lon":5.3626,"is_reserved":false,"is_disabled":false,"rental_uris":{"android":"levelo://app?vid=65292dd6-04e9-43fc-8875-698ec8ff714b","ios":"levelo://app?vid=65292dd6-04e9-43fc-8875-698ec8ff714b"},"vehicle_type_id":"4","last_reported":1750871464,"current_range_meters":16400,"station_id":"ce4bhbh2rcd13ifvqeo0","pricing_plan_id":"cebpf4jnsgd1na2vs0mg"},{"bike_id":"5416371f-3778-4203-ac88-46f0d5505112","system_id":"levelo_inurba_marseille","lat":43.28258,"lon":5.35097,"is_reserved":false,"is_disabled":false,"rental_uris":{"android":"levelo://app?vid=5416371f-3778-4203-ac88-46f0d5505112","ios":"levelo://app?vid=5416371f-3778-4203-ac88-46f0d5505112"},"vehicle_type_id":"4","last_reported":1750871464,"current_range_meters":16400,"station_id":"ce4bhbp2rcd13ifvqerg","pricing_plan_id":"cebpf4jnsgd1na2vs0mg"},{"bike_id":"270a7c90-2650-4c69-8282-c478b07a57ef","system_id":"levelo_inurba_marseille","lat":43.287,"lon":5.39983,"is_reserved":false,"is_disabled":false,"rental_uris":{"android":"levelo://app?vid=270a7c90-2650-4c69-8282-c478b07a57ef","ios":"levelo://app?vid=270a7c90-2650-4c69-8282-c478b07a57ef"},"vehicle_type_id":"4","last_reported":1750871464,"current_range_meters":16400,"station_id":"ce4bho92rcd13ifvqh3g","pricing_plan_id":"cebpf4jnsgd1na2vs0mg"},{"bike_id":"2a91f26a-e4d5-463d-a77f-9f0d79bd2daf","system_id":"levelo_inurba_marseille","lat":43.23203,"lon":5.3556,"is_reserved":false,"is_disabled":false,"rental_uris":{"android":"levelo://app?vid=2a91f26a-e4d5-463d-a77f-9f0d79bd2daf","ios":"levelo://app?vid=2a91f26a-e4d5-463d-a77f-9f0d79bd2daf"},"vehicle_type_id":"4","last_reported":1750871464,"current_range_meters":16400,"station_id":"ce4bhu92rcd13ifvqi70","pricing_plan_id":"cebpf4jnsgd1na2vs0mg"},{"bike_id":"e344c42e-567b-432e-ac3d-12cb7d8788e9","system_id":"levelo_inurba_marseille","lat":43.27376,"lon":5.36257,"is_reserved":false,"is_disabled":false,"rental_uris":{"android":"levelo://app?vid=e344c42e-567b-432e-ac3d-12cb7d8788e9","ios":"levelo://app?vid=e344c42e-567b-432e-ac3d-12cb7d8788e9"},"vehicle_type_id":"4","last_reported":1750871464,"current_range_meters":16800,"station_id":"ce4bhbh2rcd13ifvqeo0","pricing_plan_id":"cebpf4jnsgd1na2vs0mg"},{"bike_id":"5b99423b-a680-4ced-b7f0-ceb9fc75c186","system_id":"levelo_inurba_marseille","lat":43.27376,"lon":5.3625,"is_reserved":false,"is_disabled":false,"rental_uris":{"android":"levelo://app?vid=5b99423b-a680-4ced-b7f0-ceb9fc75c186","ios":"levelo://app?vid=5b99423b-a680-4ced-b7f0-ceb9fc75c186"},"vehicle_type_id":"4","last_reported":1750871464,"current_range_meters":16800,"station_id":"ce4bhbh2rcd13ifvqeo0","pricing_plan_id":"cebpf4jnsgd1na2vs0mg"},{"bike_id":"d20bf403-51de-4acc-9e5e-ea1de4e00fff","system_id":"levelo_inurba_marseille","lat":43.28415,"lon":5.34988,"is_reserved":false,"is_disabled":false,"rental_uris":{"android":"levelo://app?vid=d20bf403-51de-4acc-9e5e-ea1de4e00fff","ios":"levelo://app?vid=d20bf403-51de-4acc-9e5e-ea1de4e00fff"},"vehicle_type_id":"4","last_reported":1750871464,"current_range_meters":16800,"station_id":"ce4bhbh2rcd13ifvqepg","pricing_plan_id":"cebpf4jnsgd1na2vs0mg"},{"bike_id":"08666696-0716-449d-8627-dd68076d8274","system_id":"levelo_inurba_marseille","lat":43.28424,"lon":5.3499,"is_reserved":false,"is_disabled":false,"rental_uris":{"android":"levelo://app?vid=08666696-0716-449d-8627-dd68076d8274","ios":"levelo://app?vid=08666696-0716-449d-8627-dd68076d8274"},"vehicle_type_id":"4","last_reported":1750871464,"current_range_meters":16800,"station_id":"ce4bhbh2rcd13ifvqepg","pricing_plan_id":"cebpf4jnsgd1na2vs0mg"},{"bike_id":"1a3cc525-2338-4c8e-a7e4-30bf7af52bea","system_id":"levelo_inurba_marseille","lat":43.26232,"lon":5.37441,"is_reserved":false,"is_disabled":false,"rental_uris":{"android":"levelo://app?vid=1a3cc525-2338-4c8e-a7e4-30bf7af52bea","ios":"levelo://app?vid=1a3cc525-2338-4c8e-a7e4-30bf7af52bea"},"vehicle_type_id":"4","last_reported":1750871464,"current_range_meters":16800,"station_id":"ce4bhgp2rcd13ifvqfc0","pricing_plan_id":"cebpf4jnsgd1na2vs0mg"},{"bike_id":"70a87e8b-7ad1-4bdf-b181-5e2fc38709cd","system_id":"levelo_inurba_marseille","lat":43.29905,"lon":5.43663,"is_reserved":false,"is_disabled":false,"rental_uris":{"android":"levelo://app?vid=70a87e8b-7ad1-4bdf-b181-5e2fc38709cd","ios":"levelo://app?vid=70a87e8b-7ad1-4bdf-b181-5e2fc38709cd"},"vehicle_type_id":"4","last_reported":1750871464,"current_range_meters":16800,"station_id":"ce4bhpp2rcd13ifvqhfg","pricing_plan_id":"cebpf4jnsgd1na2vs0mg"},{"bike_id":"15b2721a-3664-49e1-9877-261c08daeef5","system_id":"levelo_inurba_marseille","lat":43.21192,"lon":5.35065,"is_reserved":false,"is_disabled":false,"rental_uris":{"android":"levelo://app?vid=15b2721a-3664-49e1-9877-261c08daeef5","ios":"levelo://app?vid=15b2721a-3664-49e1-9877-261c08daeef5"},"vehicle_type_id":"4","last_reported":1750871464,"current_range_meters":16800,"station_id":"st_cvj6sg6p6f1abm77japg","pricing_plan_id":"cebpf4jnsgd1na2vs0mg"},{"bike_id":"4a60f024-59ca-4faf-8451-50b66c190d27","system_id":"levelo_inurba_marseille","lat":43.31442,"lon":5.37464,"is_reserved":false,"is_disabled":false,"rental_uris":{"android":"levelo://app?vid=4a60f024-59ca-4faf-8451-50b66c190d27","ios":"levelo://app?vid=4a60f024-59ca-4faf-8451-50b66c190d27"},"vehicle_type_id":"4","last_reported":1750871464,"current_range_meters":17200,"station_id":"","pricing_plan_id":"cebpf4jnsgd1na2vs0mg"},{"bike_id":"de0f7c2b-5974-4035-a240-8ed367c0e3f3","system_id":"levelo_inurba_marseille","lat":43.31968,"lon":5.37629,"is_reserved":false,"is_disabled":false,"rental_uris":{"android":"levelo://app?vid=de0f7c2b-5974-4035-a240-8ed367c0e3f3","ios":"levelo://app?vid=de0f7c2b-5974-4035-a240-8ed367c0e3f3"},"vehicle_type_id":"4","last_reported":1750871464,"current_range_meters":17200,"station_id":"","pricing_plan_id":"cebpf4jnsgd1na2vs0mg"},{"bike_id":"b37a064f-ecb2-4626-94e6-1c6ae315c14c","system_id":"levelo_inurba_marseille","lat":43.29773,"lon":5.37109,"is_reserved":false,"is_disabled":false,"rental_uris":{"android":"levelo://app?vid=b37a064f-ecb2-4626-94e6-1c6ae315c14c","ios":"levelo://app?vid=b37a064f-ecb2-4626-94e6-1c6ae315c14c"},"vehicle_type_id":"4","last_reported":1750871464,"current_range_meters":17200,"station_id":"ce4bgop2rcd13ifvqc1g","pricing_plan_id":"cebpf4jnsgd1na2vs0mg"},{"bike_id":"68d1096f-d0aa-47cb-8605-3c0fd862186b","system_id":"levelo_inurba_marseille","lat":43.28704,"lon":5.37392,"is_reserved":false,"is_disabled":false,"rental_uris":{"android":"levelo://app?vid=68d1096f-d0aa-47cb-8605-3c0fd862186b","ios":"levelo://app?vid=68d1096f-d0aa-47cb-8605-3c0fd862186b"},"vehicle_type_id":"4","last_reported":1750871464,"current_range_meters":17200,"station_id":"ce4bh3p2rcd13ifvqdq0","pricing_plan_id":"cebpf4jnsgd1na2vs0mg"},{"bike_id":"95a531c7-11a6-46ae-a1e2-c18f361bd9e1","system_id":"levelo_inurba_marseille","lat":43.2846,"lon":5.35897,"is_reserved":false,"is_disabled":false,"rental_uris":{"android":"levelo://app?vid=95a531c7-11a6-46ae-a1e2-c18f361bd9e1","ios":"levelo://app?vid=95a531c7-11a6-46ae-a1e2-c18f361bd9e1"},"vehicle_type_id":"4","last_reported":1750871464,"current_range_meters":17200,"station_id":"ce4bhah2rcd13ifvqei0","pricing_plan_id":"cebpf4jnsgd1na2vs0mg"},{"bike_id":"173a59f8-3515-47cd-8726-804fc8e9a63a","system_id":"levelo_inurba_marseille","lat":43.27999,"lon":5.41661,"is_reserved":false,"is_disabled":false,"rental_uris":{"android":"levelo://app?vid=173a59f8-3515-47cd-8726-804fc8e9a63a","ios":"levelo://app?vid=173a59f8-3515-47cd-8726-804fc8e9a63a"},