{"last_updated":1751530503,"ttl":60,"version":"2.2","data":{"bikes":[{"bike_id":"3da29fb8-fc97-44c6-b9ac-31dd456b2fd4","system_id":"levelo_inurba_marseille","lat":43.33771,"lon":5.37424,"is_reserved":false,"is_disabled":true,"rental_uris":{"android":"levelo://app?vid=3da29fb8-fc97-44c6-b9ac-31dd456b2fd4","ios":"levelo://app?vid=3da29fb8-fc97-44c6-b9ac-31dd456b2fd4"},"vehicle_type_id":"4","last_reported":1751530503,"current_range_meters":0,"station_id":"","pricing_plan_id":"cebpf4jnsgd1na2vs0mg"},{"bike_id":"01861ad8-a8d7-4be6-816e-651927c87584","system_id":"levelo_inurba_marseille","lat":43.33751,"lon":5.37456,"is_reserved":false,"is_disabled":true,"rental_uris":{"android":"levelo://app?vid=01861ad8-a8d7-4be6-816e-651927c87584","ios":"levelo://app?vid=01861ad8-a8d7-4be6-816e-651927c87584"},"vehicle_type_id":"4","last_reported":1751530503,"current_range_meters":0,"station_id":"","pricing_plan_id":"cebpf4jnsgd1na2vs0mg"},{"bike_id":"2fae8e88-4e60-4699-a6eb-8d06a20d48b5","system_id":"levelo_inurba_marseille","lat":43.27912,"lon":5.35345,"is_reserved":false,"is_disabled":true,"rental_uris":{"android":"levelo://app?vid=2fae8e88-4e60-4699-a6eb-8d06a20d48b5","ios":"levelo://app?vid=2fae8e88-4e60-4699-a6eb-8d06a20d48b5"},"vehicle_type_id":"4","last_reported":1751530503,"current_range_meters":0,"station_id":"","pricing_plan_id":"cebpf4jnsgd1na2vs0mg"},{"bike_id":"942c1066-b367-4e59-b0ad-f0a160b51d6f","system_id":"levelo_inurba_marseille","lat":43.26558,"lon":5.39484,"is_reserved":false,"is_disabled":true,"rental_uris":{"android":"levelo://app?vid=942c1066-b367-4e59-b0ad-f0a160b51d6f","ios":"levelo://app?vid=942c1066-b367-4e59-b0ad-f0a160b51d6f"},"vehicle_type_id":"4","last_reported":1751530503,"current_range_meters":0,"station_id":"","pricing_plan_id":"cebpf4jnsgd1na2vs0mg"},{"bike_id":"d03be021-0674-4e58-a0fa-624f747a8556","system_id":"levelo_inurba_marseille","lat":43.27966,"lon":5.35361,"is_reserved":false,"is_disabled":true,"rental_uris":{"android":"levelo://app?vid=d03be021-0674-4e58-a0fa-624f747a8556","ios":"levelo://app?vid=d03be021-0674-4e58-a0fa-624f747a8556"},"vehicle_type_id":"4","last_reported":1751530503,"current_range_meters":0,"station_id":"","pricing_plan_id":"cebpf4jnsgd1na2vs0mg"},{"bike_id":"10be7a19-7bb3-4be8-8e03-f074498ccbe9","system_id":"levelo_inurba_marseille","lat":43.21783,"lon":5.346,"is_reserved":false,"is_disabled":true,"rental_uris":{"android":"levelo://app?vid=10be7a19-7bb3-4be8-8e03-f074498ccbe9","ios":"levelo://app?vid=10be7a19-7bb3-4be8-8e03-f074498ccbe9"},"vehicle_type_id":"4","last_reported":1751530503,"current_range_meters":0,"station_id":"","pricing_plan_id":"cebpf4jnsgd1na2vs0mg"},{"bike_id":"6e5b5a4d-1ee5-4068-9613-fb44ab4d8a9a","system_id":"levelo_inurba_marseille","lat":43.34843,"lon":5.34684,"is_reserved":false,"is_disabled":true,"rental_uris":{"android":"levelo://app?vid=6e5b5a4d-1ee5-4068-9613-fb44ab4d8a9a","ios":"levelo://app?vid=6e5b5a4d-1ee5-4068-9613-fb44ab4d8a9a"},"vehicle_type_id":"4","last_reported":1751530503,"current_range_meters":0,"station_id":"","pricing_plan_id":"cebpf4jnsgd1na2vs0mg"},{"bike_id":"88ba2eb8-6abc-42f0-a2b7-fafab863863b","system_id":"levelo_inurba_marseille","lat":43.260994,"lon":5.3734,"is_reserved":false,"is_disabled":true,"rental_uris":{"android":"levelo://app?vid=88ba2eb8-6abc-42f0-a2b7-fafab863863b","ios":"levelo://app?vid=88ba2eb8-6abc-42f0-a2b7-fafab863863b"},"vehicle_type_id":"4","last_reported":1751530503,"current_range_meters":0,"station_id":"","pricing_plan_id":"cebpf4jnsgd1na2vs0mg"},{"bike_id":"5fe1f33a-ebc4-4182-b521-7ef3eadc1773","system_id":"levelo_inurba_marseille","lat":43.26872,"lon":5.36875,"is_reserved":false,"is_disabled":true,"rental_uris":{"android":"levelo://app?vid=5fe1f33a-ebc4-4182-b521-7ef3eadc1773","ios":"levelo://app?vid=5fe1f33a-ebc4-4182-b521-7ef3eadc1773"},"vehicle_type_id":"4","last_reported":1751530503,"current_range_meters":0,"station_id":"","pricing_plan_id":"cebpf4jnsgd1na2vs0mg"},{"bike_id":"752aeeda-7ad4-49d8-b60f-de6aac12dde9","system_id":"levelo_inurba_marseille","lat":43.30291,"lon":5.39189,"is_reserved":false,"is_disabled":true,"rental_uris":{"android":"levelo://app?vid=752aeeda-7ad4-49d8-b60f-de6aac12dde9","ios":"levelo://app?vid=752aeeda-7ad4-49d8-b60f-de6aac12dde9"},"vehicle_type_id":"4","last_reported":1751530503,"current_range_meters":0,"station_id":"ce4bgkh2rcd13ifvqbk0","pricing_plan_id":"cebpf4jnsgd1na2vs0mg"},{"bike_id":"e198fdcc-cd13-4de1-8bde-5dc6dca16ab0","system_id":"levelo_inurba_marseille","lat":43.31062,"lon":5.38342,"is_reserved":false,"is_disabled":true,"rental_uris":{"android":"levelo://app?vid=e198fdcc-cd13-4de1-8bde-5dc6dca16ab0","ios":"levelo://app?vid=e198fdcc-cd13-4de1-8bde-5dc6dca16ab0"},"vehicle_type_id":"4","last_reported":1751530503,"current_range_meters":0,"station_id":"ce4bgv92rcd13ifvqcr0","pricing_plan_id":"cebpf4jnsgd1na2vs0mg"},{"bike_id":"8a6d79b6-0e8a-4d6e-b71c-80db509a0b15","system_id":"levelo_inurba_marseille","lat":43.30134,"lon":5.39885,"is_reserved":false,"is_disabled":true,"rental_uris":{"android":"levelo://app?vid=8a6d79b6-0e8a-4d6e-b71c-80db509a0b15","ios":"levelo://app?vid=8a6d79b6-0e8a-4d6e-b71c-80db509a0b15"},"vehicle_type_id":"4","last_reported":1751530503,"current_range_meters":0,"station_id":"ce4bh0h2rcd13ifvqd40","pricing_plan_id":"cebpf4jnsgd1na2vs0mg"},{"bike_id":"b2100aef-5984-4f8d-8271-377729583215","system_id":"levelo_inurba_marseille","lat":43.28419,"lon":5.34982,"is_reserved":false,"is_disabled":true,"rental_uris":{"android":"levelo://app?vid=b2100aef-5984-4f8d-8271-377729583215","ios":"levelo://app?vid=b2100aef-5984-4f8d-8271-377729583215"},"vehicle_type_id":"4","last_reported":1751530503,"current_range_meters":0,"station_id":"ce4bhbh2rcd13ifvqepg","pricing_plan_id":"cebpf4jnsgd1na2vs0mg"},{"bike_id":"74094863-7f03-43ac-a81a-b58babdf5cab","system_id":"levelo_inurba_marseille","lat":43.29231,"lon":5.36057,"is_reserved":false,"is_disabled":true,"rental_uris":{"android":"levelo://app?vid=74094863-7f03-43ac-a81a-b58babdf5cab","ios":"levelo://app?vid=74094863-7f03-43ac-a81a-b58babdf5cab"},"vehicle_type_id":"4","last_reported":1751530503,"current_range_meters":0,"station_id":"ce4bhbh2rcd13ifvqeqg","pricing_plan_id":"cebpf4jnsgd1na2vs0mg"},{"bike_id":"45a36d42-3f75-4451-929c-2980bab85fb7","system_id":"levelo_inurba_marseille","lat":43.23152,"lon":5.43717,"is_reserved":false,"is_disabled":true,"rental_uris":{"android":"levelo://app?vid=45a36d42-3f75-4451-929c-2980bab85fb7","ios":"levelo://app?vid=45a36d42-3f75-4451-929c-2980bab85fb7"},"vehicle_type_id":"4","last_reported":1751530503,"current_range_meters":0,"station_id":"ce4bhmp2rcd13ifvqgog","pricing_plan_id":"cebpf4jnsgd1na2vs0mg"},{"bike_id":"7e39ea07-3ec1-4f66-8d21-89c3fc316912","system_id":"levelo_inurba_marseille","lat":43.31739,"lon":5.42397,"is_reserved":false,"is_disabled":true,"rental_uris":{"android":"levelo://app?vid=7e39ea07-3ec1-4f66-8d21-89c3fc316912","ios":"levelo://app?vid=7e39ea07-3ec1-4f66-8d21-89c3fc316912"},"vehicle_type_id":"4","last_reported":1751530503,"current_range_meters":0,"station_id":"ce4bhp92rcd13ifvqhbg","pricing_plan_id":"cebpf4jnsgd1na2vs0mg"},{"bike_id":"cbab8e8e-76d8-4b25-9f75-190c476c076a","system_id":"levelo_inurba_marseille","lat":43.33601,"lon":5.409947,"is_reserved":false,"is_disabled":true,"rental_uris":{"android":"levelo://app?vid=cbab8e8e-76d8-4b25-9f75-190c476c076a","ios":"levelo://app?vid=cbab8e8e-76d8-4b25-9f75-190c476c076a"},"vehicle_type_id":"4","last_reported":1751530503,"current_range_meters":0,"station_id":"ce4bhqh2rcd13ifvqhmg","pricing_plan_id":"cebpf4jnsgd1na2vs0mg"},{"bike_id":"be4771a0-f822-40f0-a95c-2aaca1d3fb3c","system_id":"levelo_inurba_marseille","lat":43.217599,"lon":5.346091,"is_reserved":false,"is_disabled":true,"rental_uris":{"android":"levelo://app?vid=be4771a0-f822-40f0-a95c-2aaca1d3fb3c","ios":"levelo://app?vid=be4771a0-f822-40f0-a95c-2aaca1d3fb3c"},"vehicle_type_id":"4","last_reported":1751530503,"current_range_meters":0,"station_id":"st_cvj6r9ubvosntc0bgbag","pricing_plan_id":"cebpf4jnsgd1na2vs0mg"},{"bike_id":"33839a77-e9b6-47d3-b85e-5bb86cf94e80","system_id":"levelo_inurba_marseille","lat":43.30661,"lon":5.39509,"is_reserved":false,"is_disabled":true,"rental_uris":{"android":"levelo://app?vid=33839a77-e9b6-47d3-b85e-5bb86cf94e80","ios":"levelo://app?vid=33839a77-e9b6-47d3-b85e-5bb86cf94e80"},"vehicle_type_id":"4","last_reported":1751530503,"current_range_meters":400,"station_id":"","pricing_plan_id":"cebpf4jnsgd1na2vs0mg"},{"bike_id":"38604630-5853-490d-914c-affeab81e001","system_id":"levelo_inurba_marseille","lat":43.30323,"lon":5.40431,"is_reserved":false,"is_disabled":true,"rental_uris":{"android":"levelo://app?vid=38604630-5853-490d-914c-affeab81e001","ios":"levelo://app?vid=38604630-5853-490d-914c-affeab81e001"},"vehicle_type_id":"4","last_reported":1751530503,"current_range_meters":400,"station_id":"ce4bh012rcd13ifvqd10","pricing_plan_id":"cebpf4jnsgd1na2vs0mg"},{"bike_id":"8e365e3c-559a-4ba6-a6c5-4c159e2434fc","system_id":"levelo_inurba_marseille","lat":43.21771,"lon":5.34546,"is_reserved":false,"is_disabled":true,"rental_uris":{"android":"levelo://app?vid=8e365e3c-559a-4ba6-a6c5-4c159e2434fc","ios":"levelo://app?vid=8e365e3c-559a-4ba6-a6c5-4c159e2434fc"},"vehicle_type_id":"4","last_reported":1751530503,"current_range_meters":800,"station_id":"","pricing_plan_id":"cebpf4jnsgd1na2vs0mg"},{"bike_id":"eb6298f3-da23-4583-904d-84a7d9251bb0","system_id":"levelo_inurba_marseille","lat":43.296385,"lon":5.40605,"is_reserved":false,"is_disabled":true,"rental_uris":{"android":"levelo://app?vid=eb6298f3-da23-4583-904d-84a7d9251bb0","ios":"levelo://app?vid=eb6298f3-da23-4583-904d-84a7d9251bb0"},"vehicle_type_id":"4","last_reported":1751530503,"current_range_meters":1200,"station_id":"ce4bh0h2rcd13ifvqd60","pricing_plan_id":"cebpf4jnsgd1na2vs0mg"},{"bike_id":"fa51c831-9482-4629-8592-a5867333be3a","system_id":"levelo_inurba_marseille","lat":43.2797,"lon":5.38733,"is_reserved":false,"is_disabled":true,"rental_uris":{"android":"levelo://app?vid=fa51c831-9482-4629-8592-a5867333be3a","ios":"levelo://app?vid=fa51c831-9482-4629-8592-a5867333be3a"},"vehicle_type_id":"4","last_reported":1751530503,"current_range_meters":1200,"station_id":"ce4bhg12rcd13ifvqf80","pricing_plan_id":"cebpf4jnsgd1na2vs0mg"},{"bike_id":"1300e212-f85e-4cba-b3fa-02545ea303b1","system_id":"levelo_inurba_marseille","lat":43.26217,"lon":5.40453,"is_reserved":false,"is_disabled":true,"rental_uris":{"android":"levelo://app?vid=1300e212-f85e-4cba-b3fa-02545ea303b1","ios":"levelo://app?vid=1300e212-f85e-4cba-b3fa-02545ea303b1"},"vehicle_type_id":"4","last_reported":1751530503,"current_range_meters":1200,"station_id":"ce4bhmh2rcd13ifvqgmg","pricing_plan_id":"cebpf4jnsgd1na2vs0mg"},{"bike_id":"ec05e37a-ed41-4976-86f7-99aafa4e4c35","system_id":"levelo_inurba_marseille","lat":43.28074,"lon":5.39665,"is_reserved":false,"is_disabled":true,"rental_uris":{"android":"levelo://app?vid=ec05e37a-ed41-4976-86f7-99aafa4e4c35","ios":"levelo://app?vid=ec05e37a-ed41-4976-86f7-99aafa4e4c35"},"vehicle_type_id":"4","last_reported":1751530503,"current_range_meters":1200,"station_id":"ce4bho12rcd13ifvqh2g","pricing_plan_id":"cebpf4jnsgd1na2vs0mg"},{"bike_id":"c077b828-a2a6-46af-afee-b8f1e5503f43","system_id":"levelo_inurba_marseille","lat":43.23188,"lon":5.35549,"is_reserved":false,"is_disabled":true,"rental_uris":{"android":"levelo://app?vid=c077b828-a2a6-46af-afee-b8f1e5503f43","ios":"levelo://app?vid=c077b828-a2a6-46af-afee-b8f1e5503f43"},"vehicle_type_id":"4","last_reported":1751530503,"current_range_meters":1200,"station_id":"ce4bhu92rcd13ifvqi70","pricing_plan_id":"cebpf4jnsgd1na2vs0mg"},{"bike_id":"75d0a17c-d0c5-45e5-9632-3722a87e82d5","system_id":"levelo_inurba_marseille","lat":43.321114,"lon":5.367717,"is_reserved":false,"is_disabled":true,"rental_uris":{"android":"levelo://app?vid=75d0a17c-d0c5-45e5-9632-3722a87e82d5","ios":"levelo://app?vid=75d0a17c-d0c5-45e5-9632-3722a87e82d5"},"vehicle_type_id":"4","last_reported":1751530503,"current_range_meters":1600,"station_id":"ce4bhrh2rcd13ifvqhug","pricing_plan_id":"cebpf4jnsgd1na2vs0mg"},{"bike_id":"a1de7fad-58c3-4d09-af4d-5edea1398d49","system_id":"levelo_inurba_marseille","lat":43.28978,"lon":5.37832,"is_reserved":false,"is_disabled":false,"rental_uris":{"android":"levelo://app?vid=a1de7fad-58c3-4d09-af4d-5edea1398d49","ios":"levelo://app?vid=a1de7fad-58c3-4d09-af4d-5edea1398d49"},"vehicle_type_id":"4","last_reported":1751530503,"current_range_meters":2800,"station_id":"ce4bh9p2rcd13ifvqed0","pricing_plan_id":"cebpf4jnsgd1na2vs0mg"},{"bike_id":"df80bb02-6453-46d0-a80c-1402daea38ba","system_id":"levelo_inurba_marseille","lat":43.28486,"lon":5.38563,"is_reserved":false,"is_disabled":false,"rental_uris":{"android":"levelo://app?vid=df80bb02-6453-46d0-a80c-1402daea38ba","ios":"levelo://app?vid=df80bb02-6453-46d0-a80c-1402daea38ba"},"vehicle_type_id":"4","last_reported":1751530503,"current_range_meters":3200,"station_id":"ce4bh8p2rcd13ifvqeb0","pricing_plan_id":"cebpf4jnsgd1na2vs0mg"},{"bike_id":"f334b28f-e3c2-454d-9ab8-93fa76fabb4c","system_id":"levelo_inurba_marseille","lat":43.31383,"lon":5.36725,"is_reserved":false,"is_disabled":false,"rental_uris":{"android":"levelo://app?vid=f334b28f-e3c2-454d-9ab8-93fa76fabb4c","ios":"levelo://app?vid=f334b28f-e3c2-454d-9ab8-93fa76fabb4c"},"vehicle_type_id":"4","last_reported":1751530503,"current_range_meters":3600,"station_id":"","pricing_plan_id":"cebpf4jnsgd1na2vs0mg"},{"bike_id":"f84ad0e1-c3ab-46a2-aceb-002b5290ee12","system_id":"levelo_inurba_marseille","lat":43.29285,"lon":5.3718,"is_reserved":false,"is_disabled":false,"rental_uris":{"android":"levelo://app?vid=f84ad0e1-c3ab-46a2-aceb-002b5290ee12","ios":"levelo://app?vid=f84ad0e1-c3ab-46a2-aceb-002b5290ee12"},"vehicle_type_id":"4","last_reported":1751530503,"current_range_meters":3600,"station_id":"ce4bgh92rcd13ifvqb40","pricing_plan_id":"cebpf4jnsgd1na2vs0mg"},{"bike_id":"f0c556f1-1761-45ec-bf46-99fbd6c3e8d3","system_id":"levelo_inurba_marseille","lat":43.26558,"lon":5.37284,"is_reserved":false,"is_disabled":false,"rental_uris":{"android":"levelo://app?vid=f0c556f1-1761-45ec-bf46-99fbd6c3e8d3","ios":"levelo://app?vid=f0c556f1-1761-45ec-bf46-99fbd6c3e8d3"},"vehicle_type_id":"4","last_reported":1751530503,"current_range_meters":3600,"station_id":"ce4bhg12rcd13ifvqf70","pricing_plan_id":"cebpf4jnsgd1na2vs0mg"},{"bike_id":"7b6c54fa-9513-4f96-8c39-2e4b6bdc706a","system_id":"levelo_inurba_marseille","lat":43.26218,"lon":5.37428,"is_reserved":false,"is_disabled":false,"rental_uris":{"android":"levelo://app?vid=7b6c54fa-9513-4f96-8c39-2e4b6bdc706a","ios":"levelo://app?vid=7b6c54fa-9513-4f96-8c39-2e4b6bdc706a"},"vehicle_type_id":"4","last_reported":1751530503,"current_range_meters":3600,"station_id":"ce4bhgp2rcd13ifvqfc0","pricing_plan_id":"cebpf4jnsgd1na2vs0mg"},{"bike_id":"6b02e04b-74e9-438e-9297-fa5b2710f9b3","system_id":"levelo_inurba_marseille","lat":43.27837,"lon":5.39206,"is_reserved":false,"is_disabled":false,"rental_uris":{"android":"levelo://app?vid=6b02e04b-74e9-438e-9297-fa5b2710f9b3","ios":"levelo://app?vid=6b02e04b-74e9-438e-9297-fa5b2710f9b3"},"vehicle_type_id":"4","last_reported":1751530503,"current_range_meters":3600,"station_id":"ce4bhjp2rcd13ifvqga0","pricing_plan_id":"cebpf4jnsgd1na2vs0mg"},{"bike_id":"a1602909-a677-414b-ad06-4d0892880c6d","system_id":"levelo_inurba_marseille","lat":43.25928,"lon":5.40912,"is_reserved":false,"is_disabled":false,"rental_uris":{"android":"levelo://app?vid=a1602909-a677-414b-ad06-4d0892880c6d","ios":"levelo://app?vid=a1602909-a677-414b-ad06-4d0892880c6d"},"vehicle_type_id":"4","last_reported":1751530503,"current_range_meters":3600,"station_id":"ce4bhm92rcd13ifvqglg","pricing_plan_id":"cebpf4jnsgd1na2vs0mg"},{"bike_id":"72e6c364-ff68-4ca7-b441-611b3d493cb5","system_id":"levelo_inurba_marseille","lat":43.323671,"lon":5.388818,"is_reserved":false,"is_disabled":false,"rental_uris":{"android":"levelo://app?vid=72e6c364-ff68-4ca7-b441-611b3d493cb5","ios":"levelo://app?vid=72e6c364-ff68-4ca7-b441-611b3d493cb5"},"vehicle_type_id":"4","last_reported":1751530503,"current_range_meters":3600,"station_id":"ce4bhqp2rcd13ifvqhng","pricing_plan_id":"cebpf4jnsgd1na2vs0mg"},{"bike_id":"3171c720-c684-4a95-8c6a-ab128f5d1044","system_id":"levelo_inurba_marseille","lat":43.31367,"lon":5.36691,"is_reserved":false,"is_disabled":false,"rental_uris":{"android":"levelo://app?vid=3171c720-c684-4a95-8c6a-ab128f5d1044","ios":"levelo://app?vid=3171c720-c684-4a95-8c6a-ab128f5d1044"},"vehicle_type_id":"4","last_reported":1751530503,"current_range_meters":4400,"station_id":"ce4bgr92rcd13ifvqc6g","pricing_plan_id":"cebpf4jnsgd1na2vs0mg"},{"bike_id":"f01bc8f1-adbd-4ce7-b1a0-7a0fa10b7efb","system_id":"levelo_inurba_marseille","lat":43.33044,"lon":5.39056,"is_reserved":false,"is_disabled":false,"rental_uris":{"android":"levelo://app?vid=f01bc8f1-adbd-4ce7-b1a0-7a0fa10b7efb","ios":"levelo://app?vid=f01bc8f1-adbd-4ce7-b1a0-7a0fa10b7efb"},"vehicle_type_id":"4","last_reported":1751530503,"current_range_meters":4800,"station_id":"ce4bhr92rcd13ifvqhrg","pricing_plan_id":"cebpf4jnsgd1na2vs0mg"},{"bike_id":"cf118203-dfba-4a72-8f47-668c562e2473","system_id":"levelo_inurba_marseille","lat":43.313382,"lon":5.367115,"is_reserved":false,"is_disabled":false,"rental_uris":{"android":"levelo://app?vid=cf118203-dfba-4a72-8f47-668c562e2473","ios":"levelo://app?vid=cf118203-dfba-4a72-8f47-668c562e2473"},"vehicle_type_id":"4","last_reported":1751530503,"current_range_meters":5600,"station_id":"","pricing_plan_id":"cebpf4jnsgd1na2vs0mg"},{"bike_id":"4b5a3d63-7a0d-46c6-80b6-35b6a381ae07","system_id":"levelo_inurba_marseille","lat":43.31168,"lon":5.38704,"is_reserved":false,"is_disabled":false,"rental_uris":{"android":"levelo://app?vid=4b5a3d63-7a0d-46c6-80b6-35b6a381ae07","ios":"levelo://app?vid=4b5a3d63-7a0d-46c6-80b6-35b6a381ae07"},"vehicle_type_id":"4","last_reported":1751530503,"current_range_meters":5600,"station_id":"ce4bgv12rcd13ifvqcp0","pricing_plan_id":"cebpf4jnsgd1na2vs0mg"},{"bike_id":"06b5e5d1-d644-4197-9375-b707ee9c06c6","system_id":"levelo_inurba_marseille","lat":43.28419,"lon":5.37509,"is_reserved":false,"is_disabled":false,"rental_uris":{"android":"levelo://app?vid=06b5e5d1-d644-4197-9375-b707ee9c06c6","ios":"levelo://app?vid=06b5e5d1-d644-4197-9375-b707ee9c06c6"},"vehicle_type_id":"4","last_reported":1751530503,"current_range_meters":5600,"station_id":"ce4bh412rcd13ifvqds0","pricing_plan_id":"cebpf4jnsgd1na2vs0mg"},{"bike_id":"9610e57b-e24c-4c16-838c-092b893b30dc","system_id":"levelo_inurba_marseille","lat":43.217493,"lon":5.346016,"is_reserved":false,"is_disabled":false,"rental_uris":{"android":"levelo://app?vid=9610e57b-e24c-4c16-838c-092b893b30dc","ios":"levelo://app?vid=9610e57b-e24c-4c16-838c-092b893b30dc"},"vehicle_type_id":"4","last_reported":1751530503,"current_range_meters":6000,"station_id":"st_cvj6r9ubvosntc0bgbag","pricing_plan_id":"cebpf4jnsgd1na2vs0mg"},{"bike_id":"8becf1b9-b72c-4763-a062-bbd587ae45bf","system_id":"levelo_inurba_marseille","lat":43.32617,"lon":5.4255,"is_reserved":false,"is_disabled":false,"rental_uris":{"android":"levelo://app?vid=8becf1b9-b72c-4763-a062-bbd587ae45bf","ios":"levelo://app?vid=8becf1b9-b72c-4763-a062-bbd587ae45bf"},"vehicle_type_id":"4","last_reported":1751530503,"current_range_meters":6400,"station_id":"","pricing_plan_id":"cebpf4jnsgd1na2vs0mg"},{"bike_id":"dc27ed63-014d-4b2b-b555-47a4ac286484","system_id":"levelo_inurba_marseille","lat":43.248108,"lon":5.374631,"is_reserved":false,"is_disabled":false,"rental_uris":{"android":"levelo://app?vid=dc27ed63-014d-4b2b-b555-47a4ac286484","ios":"levelo://app?vid=dc27ed63-014d-4b2b-b555-47a4ac286484"},"vehicle_type_id":"4","last_reported":1751530503,"current_range_meters":6400,"station_id":"ce4bhgh2rcd13ifvqfb0","pricing_plan_id":"cebpf4jnsgd1na2vs0mg"},{"bike_id":"2f8f129f-5409-4784-b6af-72285c4b945a","system_id":"levelo_inurba_marseille","lat":43.25,"lon":5.38924,"is_reserved":false,"is_disabled":false,"rental_uris":{"android":"levelo://app?vid=2f8f129f-5409-4784-b6af-72285c4b945a","ios":"levelo://app?vid=2f8f129f-5409-4784-b6af-72285c4b945a"},"vehicle_type_id":"4","last_reported":1751530503,"current_range_meters":6400,"station_id":"ce4bhgp2rcd13ifvqfd0","pricing_plan_id":"cebpf4jnsgd1na2vs0mg"},{"bike_id":"61326ae9-2b6b-4359-a617-a54adf737e3a","system_id":"levelo_inurba_marseille","lat":43.2439,"lon":5.37058,"is_reserved":false,"is_disabled":false,"rental_uris":{"android":"levelo://app?vid=61326ae9-2b6b-4359-a617-a54adf737e3a","ios":"levelo://app?vid=61326ae9-2b6b-4359-a617-a54adf737e3a"},"vehicle_type_id":"4","last_reported":1751530503,"current_range_meters":6400,"station_id":"ce4bhhh2rcd13ifvqfk0","pricing_plan_id":"cebpf4jnsgd1na2vs0mg"},{"bike_id":"cba5b54b-79c5-4b17-abe0-2f4e94c57b41","system_id":"levelo_inurba_marseille","lat":43.28073,"lon":5.34781,"is_reserved":false,"is_disabled":false,"rental_uris":{"android":"levelo://app?vid=cba5b54b-79c5-4b17-abe0-2f4e94c57b41","ios":"levelo://app?vid=cba5b54b-79c5-4b17-abe0-2f4e94c57b41"},"vehicle_type_id":"4","last_reported":1751530503,"current_range_meters":6800,"station_id":"","pricing_plan_id":"cebpf4jnsgd1na2vs0mg"},{"bike_id":"88f0d88a-1dec-4977-a19a-71293da7fba4","system_id":"levelo_inurba_marseille","lat":43.323603,"lon":5.367425,"is_reserved":false,"is_disabled":false,"rental_uris":{"android":"levelo://app?vid=88f0d88a-1dec-4977-a19a-71293da7fba4","ios":"levelo://app?vid=88f0d88a-1dec-4977-a19a-71293da7fba4"},"vehicle_type_id":"4","last_reported":1751530503,"current_range_meters":6800,"station_id":"ce4bhsh2rcd13ifvqi2g","pricing_plan_id":"cebpf4jnsgd1na2vs0mg"},{"bike_id":"e46d9a19-c9ef-4cbe-a17d-20b19a855119","system_id":"levelo_inurba_marseille","lat":43.24166,"lon":5.36391,"is_reserved":false,"is_disabled":false,"rental_uris":{"android":"levelo://app?vid=e46d9a19-c9ef-4cbe-a17d-20b19a855119","ios":"levelo://app?vid=e46d9a19-c9ef-4cbe-a17d-20b19a855119"},"vehicle_type_id":"4","last_reported":1751530503,"current_range_meters":6800,"station_id":"cpo36qri1sfpv3e86is0","pricing_plan_id":"cebpf4jnsgd1na2vs0mg"},{"bike_id":"3fbceb20-d877-411e-a90d-f13a05e02fc6","system_id":"levelo_inurba_marseille","lat":43.30329,"lon":5.37925,"is_reserved":false,"is_disabled":false,"rental_uris":{"android":"levelo://app?vid=3fbceb20-d877-411e-a90d-f13a05e02fc6","ios":"levelo://app?vid=3fbceb20-d877-411e-a90d-f13a05e02fc6"},"vehicle_type_id":"4","last_reported":1751530503,"current_range_meters":7200,"station_id":"","pricing_plan_id":"cebpf4jnsgd1na2vs0mg"},{"bike_id":"0abff00d-ae53-41ec-96f9-6eb278681a24","system_id":"levelo_inurba_marseille","lat":43.30959,"lon":5.39054,"is_reserved":false,"is_disabled":false,"rental_uris":{"android":"levelo://app?vid=0abff00d-ae53-41ec-96f9-6eb278681a24","ios":"levelo://app?vid=0abff00d-ae53-41ec-96f9-6eb278681a24"},"vehicle_type_id":"4","last_reported":1751530503,"current_range_meters":7200,"station_id":"ce4bgup2rcd13ifvqco0","pricing_plan_id":"cebpf4jnsgd1na2vs0mg"},{"bike_id":"48ec224a-51af-4446-8b57-2282b586d15d","system_id":"levelo_inurba_marseille","lat":43.29186,"lon":5.35794,"is_reserved":false,"is_disabled":false,"rental_uris":{"android":"levelo://app?vid=48ec224a-51af-4446-8b57-2282b586d15d","ios":"levelo://app?vid=48ec224a-51af-4446-8b57-2282b586d15d"},"vehicle_type_id":"4","last_reported":1751530503,"current_range_meters":7200,"station_id":"ce4bhb12rcd13ifvqel0","pricing_plan_id":"cebpf4jnsgd1na2vs0mg"},{"bike_id":"32fc2626-3706-4a1f-8698-4b5854fdb070","system_id":"levelo_inurba_marseille","lat":43.27212,"lon":5.391794,"is_reserved":false,"is_disabled":false,"rental_uris":{"android":"levelo://app?vid=32fc2626-3706-4a1f-8698-4b5854fdb070","ios":"levelo://app?vid=32fc2626-3706-4a1f-8698-4b5854fdb070"},"vehicle_type_id":"4","last_reported":1751530503,"current_range_meters":7200,"station_id":"ce4bhhp2rcd13ifvqfm0","pricing_plan_id":"cebpf4jnsgd1na2vs0mg"},{"bike_id":"63a95d03-9b9a-46f3-9fe8-36ba5f97e242","system_id":"levelo_inurba_marseille","lat":43.31337,"lon":5.36736,"is_reserved":false,"is_disabled":false,"rental_uris":{"android":"levelo://app?vid=63a95d03-9b9a-46f3-9fe8-36ba5f97e242","ios":"levelo://app?vid=63a95d03-9b9a-46f3-9fe8-36ba5f97e242"},"vehicle_type_id":"4","last_reported":1751530503,"current_range_meters":8000,"station_id":"ce4bgr92rcd13ifvqc6g","pricing_plan_id":"cebpf4jnsgd1na2vs0mg"},{"bike_id":"6b5f2251-5553-4d29-b6c6-2d7bc1acfca1","system_id":"levelo_inurba_marseille","lat":43.30951,"lon":5.3903,"is_reserved":false,"is_disabled":false,"rental_uris":{"android":"levelo://app?vid=6b5f2251-5553-4d29-b6c6-2d7bc1acfca1","ios":"levelo://app?vid=6b5f2251-5553-4d29-b6c6-2d7bc1acfca1"},"vehicle_type_id":"4","last_reported":1751530503,"current_range_meters":8000,"station_id":"ce4bgup2rcd13ifvqco0","pricing_plan_id":"cebpf4jnsgd1na2vs0mg"},{"bike_id":"17bbf7e5-24a5-4c14-af24-4dc7181321ea","system_id":"levelo_inurba_marseille","lat":43.26232,"lon":5.40455,"is_reserved":false,"is_disabled":false,"rental_uris":{"android":"levelo://app?vid=17bbf7e5-24a5-4c14-af24-4dc7181321ea","ios":"levelo://app?vid=17bbf7e5-24a5-4c14-af24-4dc7181321ea"},"vehicle_type_id":"4","last_reported":1751530503,"current_range_meters":8000,"station_id":"ce4bhmh2rcd13ifvqgmg","pricing_plan_id":"cebpf4jnsgd1na2vs0mg"},{"bike_id":"c1a061f6-301c-4e24-a49e-c9f303bf9c55","system_id":"levelo_inurba_marseille","lat":43.29163,"lon":5.371573,"is_reserved":false,"is_disabled":false,"rental_uris":{"android":"levelo://app?vid=c1a061f6-301c-4e24-a49e-c9f303bf9c55","ios":"levelo://app?vid=c1a061f6-301c-4e24-a49e-c9f303bf9c55"},"vehicle_type_id":"4","last_reported":1751530503,"current_range_meters":8400,"station_id":"ce4bha92rcd13ifvqeh0","pricing_plan_id":"cebpf4jnsgd1na2vs0mg"},{"bike_id":"89425ed5-02ba-4315-bbb5-4d390011f366","system_id":"levelo_inurba_marseille","lat":43.29272,"lon":5.36845,"is_reserved":false,"is_disabled":false,"rental_uris":{"android":"levelo://app?vid=89425ed5-02ba-4315-bbb5-4d390011f366","ios":"levelo://app?vid=89425ed5-02ba-4315-bbb5-4d390011f366"},"vehicle_type_id":"4","last_reported":1751530503,"current_range_meters":8400,"station_id":"ce4bhbp2rcd13ifvqesg","pricing_plan_id":"cebpf4jnsgd1na2vs0mg"},{"bike_id":"2da545cd-0049-4224-9c8e-7eaad906a5ef","system_id":"levelo_inurba_marseille","lat":43.32489,"lon":5.36555,"is_reserved":false,"is_disabled":false,"rental_uris":{"android":"levelo://app?vid=2da545cd-0049-4224-9c8e-7eaad906a5ef","ios":"levelo://app?vid=2da545cd-0049-4224-9c8e-7eaad906a5ef"},"vehicle_type_id":"4","last_reported":1751530503,"current_range_meters":8400,"station_id":"ce4bhs12rcd13ifvqhvg","pricing_plan_id":"cebpf4jnsgd1na2vs0mg"},{"bike_id":"71a8e3a0-105e-4516-b682-7162963496b5","system_id":"levelo_inurba_marseille","lat":43.3248,"lon":5.36541,"is_reserved":false,"is_disabled":false,"rental_uris":{"android":"levelo://app?vid=71a8e3a0-105e-4516-b682-7162963496b5","ios":"levelo://app?vid=71a8e3a0-105e-4516-b682-7162963496b5"},"vehicle_type_id":"4","last_reported":1751530503,"current_range_meters":8400,"station_id":"ce4bhs12rcd13ifvqhvg","pricing_plan_id":"cebpf4jnsgd1na2vs0mg"},{"bike_id":"eb6f172f-68c2-4fbc-b984-276818caa76a","system_id":"levelo_inurba_marseille","lat":43.29339,"lon":5.43904,"is_reserved":false,"is_disabled":false,"rental_uris":{"android":"levelo://app?vid=eb6f172f-68c2-4fbc-b984-276818caa76a","ios":"levelo://app?vid=eb6f172f-68c2-4fbc-b984-276818caa76a"},"vehicle_type_id":"4","last_reported":1751530503,"current_range_meters":8800,"station_id":"","pricing_plan_id":"cebpf4jnsgd1na2vs0mg"},{"bike_id":"a1b5ac49-5ae6-4ca2-9638-9f1a736b019c","system_id":"levelo_inurba_marseille","lat":43.31392,"lon":5.36702,"is_reserved":false,"is_disabled":false,"rental_uris":{"android":"levelo://app?vid=a1b5ac49-5ae6-4ca2-9638-9f1a736b019c","ios":"levelo://app?vid=a1b5ac49-5ae6-4ca2-9638-9f1a736b019c"},"vehicle_type_id":"4","last_reported":1751530503,"current_range_meters":8800,"station_id":"","pricing_plan_id":"cebpf4jnsgd1na2vs0mg"},{"bike_id":"ebc61bc0-9097-4899-be5d-37816d73e30b","system_id":"levelo_inurba_marseille","lat":43.31063,"lon":5.3835,"is_reserved":false,"is_disabled":false,"rental_uris":{"android":"levelo://app?vid=ebc61bc0-9097-4899-be5d-37816d73e30b","ios":"levelo://app?vid=ebc61bc0-9097-4899-be5d-37816d73e30b"},"vehicle_type_id":"4","last_reported":1751530503,"current_range_meters":8800,"station_id":"ce4bgv92rcd13ifvqcr0","pricing_plan_id":"cebpf4jnsgd1na2vs0mg"},{"bike_id":"8a878db0-027b-449a-9738-4313ebcb8fa2","system_id":"levelo_inurba_marseille","lat":43.28734,"lon":5.37943,"is_reserved":false,"is_disabled":false,"rental_uris":{"android":"levelo://app?vid=8a878db0-027b-449a-9738-4313ebcb8fa2","ios":"levelo://app?vid=8a878db0-027b-449a-9738-4313ebcb8fa2"},"vehicle_type_id":"4","last_reported":1751530503,"current_range_meters":8800,"station_id":"ce4bh9p2rcd13ifvqec0","pricing_plan_id":"cebpf4jnsgd1na2vs0mg"},{"bike_id":"033b3aed-dfdd-464c-ab97-321e6947c9bd","system_id":"levelo_inurba_marseille","lat":43.24388,"lon":5.37057,"is_reserved":false,"is_disabled":false,"rental_uris":{"android":"levelo://app?vid=033b3aed-dfdd-464c-ab97-321e6947c9bd","ios":"levelo://app?vid=033b3aed-dfdd-464c-ab97-321e6947c9bd"},"vehicle_type_id":"4","last_reported":1751530503,"current_range_meters":8800,"station_id":"ce4bhhh2rcd13ifvqfk0","pricing_plan_id":"cebpf4jnsgd1na2vs0mg"},{"bike_id":"a62a0ef6-babe-44d3-9278-a9bccd58a7db","system_id":"levelo_inurba_marseille","lat":43.29566,"lon":5.42258,"is_reserved":false,"is_disabled":false,"rental_uris":{"android":"levelo://app?vid=a62a0ef6-babe-44d3-9278-a9bccd58a7db","ios":"levelo://app?vid=a62a0ef6-babe-44d3-9278-a9bccd58a7db"},"vehicle_type_id":"4","last_reported":1751530503,"current_range_meters":8800,"station_id":"ce4bhph2rcd13ifvqhdg","pricing_plan_id":"cebpf4jnsgd1na2vs0mg"},{"bike_id":"e0b31604-a1dc-4221-af06-6c471433d95d","system_id":"levelo_inurba_marseille","lat":43.23191,"lon":5.35552,"is_reserved":false,"is_disabled":false,"rental_uris":{"android":"levelo://app?vid=e0b31604-a1dc-4221-af06-6c471433d95d","ios":"levelo://app?vid=e0b31604-a1dc-4221-af06-6c471433d95d"},"vehicle_type_id":"4","last_reported":1751530503,"current_range_meters":8800,"station_id":"ce4bhu92rcd13ifvqi70","pricing_plan_id":"cebpf4jnsgd1na2vs0mg"},{"bike_id":"8ad00ccc-3ccb-493b-a2b4-49cd4dd94c33","system_id":"levelo_inurba_marseille","lat":43.21746,"lon":5.34601,"is_reserved":false,"is_disabled":false,"rental_uris":{"android":"levelo://app?vid=8ad00ccc-3ccb-493b-a2b4-49cd4dd94c33","ios":"levelo://app?vid=8ad00ccc-3ccb-493b-a2b4-49cd4dd94c33"},"vehicle_type_id":"4","last_reported":1751530503,"current_range_meters":8800,"station_id":"st_cvj6r9ubvosntc0bgbag","pricing_plan_id":"cebpf4jnsgd1na2vs0mg"},{"bike_id":"3549fa08-d817-4c78-86f3-351eca82ce34","system_id":"levelo_inurba_marseille","lat":43.29036,"lon":5.39965,"is_reserved":false,"is_disabled":false,"rental_uris":{"android":"levelo://app?vid=3549fa08-d817-4c78-86f3-351eca82ce34","ios":"levelo://app?vid=3549fa08-d817-4c78-86f3-351eca82ce34"},"vehicle_type_id":"4","last_reported":1751530503,"current_range_meters":9200,"station_id":"ce4bh392rcd13ifvqdm0","pricing_plan_id":"cebpf4jnsgd1na2vs0mg"},{"bike_id":"f03e6590-07d6-4c5d-b956-c0a063641957","system_id":"levelo_inurba_marseille","lat":43.29009,"lon":5.39966,"is_reserved":false,"is_disabled":false,"rental_uris":{"android":"levelo://app?vid=f03e6590-07d6-4c5d-b956-c0a063641957","ios":"levelo://app?vid=f03e6590-07d6-4c5d-b956-c0a063641957"},"vehicle_type_id":"4","last_reported":1751530503,"current_range_meters":9200,"station_id":"ce4bh392rcd13ifvqdm0","pricing_plan_id":"cebpf4jnsgd1na2vs0mg"},{"bike_id":"c998925c-d4e5-49e8-8622-8ee6d94b8195","system_id":"levelo_inurba_marseille","lat":43.2835,"lon":5.38105,"is_reserved":false,"is_disabled":false,"rental_uris":{"android":"levelo://app?vid=c998925c-d4e5-49e8-8622-8ee6d94b8195","ios":"levelo://app?vid=c998925c-d4e5-49e8-8622-8ee6d94b8195"},"vehicle_type_id":"4","last_reported":1751530503,"current_range_meters":9200,"station_id":"ce4bh412rcd13ifvqdr0","pricing_plan_id":"cebpf4jnsgd1na2vs0mg"},{"bike_id":"983a86fd-0195-4239-b01a-683bf4afae35","system_id":"levelo_inurba_marseille","lat":43.29155,"lon":5.37163,"is_reserved":false,"is_disabled":false,"rental_uris":{"android":"levelo://app?vid=983a86fd-0195-4239-b01a-683bf4afae35","ios":"levelo://app?vid=983a86fd-0195-4239-b01a-683bf4afae35"},"vehicle_type_id":"4","last_reported":1751530503,"current_range_meters":9200,"station_id":"ce4bha92rcd13ifvqeh0","pricing_plan_id":"cebpf4jnsgd1na2vs0mg"},{"bike_id":"999e1c03-06ec-48df-8dbd-8211a50a278a","system_id":"levelo_inurba_marseille","lat":43.25113,"lon":5.4032,"is_reserved":false,"is_disabled":false,"rental_uris":{"android":"levelo://app?vid=999e1c03-06ec-48df-8dbd-8211a50a278a","ios":"levelo://app?vid=999e1c03-06ec-48df-8dbd-8211a50a278a"},"vehicle_type_id":"4","last_reported":1751530503,"current_range_meters":9200,"station_id":"ce4bhlh2rcd13ifvqgig","pricing_plan_id":"cebpf4jnsgd1na2vs0mg"},{"bike_id":"9f981d95-e427-4742-af4a-ccb20429fe2c","system_id":"levelo_inurba_marseille","lat":43.25933,"lon":5.40917,"is_reserved":false,"is_disabled":false,"rental_uris":{"android":"levelo://app?vid=9f981d95-e427-4742-af4a-ccb20429fe2c","ios":"levelo://app?vid=9f981d95-e427-4742-af4a-ccb20429fe2c"},"vehicle_type_id":"4","last_reported":1751530503,"current_range_meters":9200,"station_id":"ce4bhm92rcd13ifvqglg","pricing_plan_id":"cebpf4jnsgd1na2vs0mg"},{"bike_id":"9d06beda-1bc5-4b5e-a97e-4c40320ce321","system_id":"levelo_inurba_marseille","lat":43.33587,"lon":5.40978,"is_reserved":false,"is_disabled":false,"rental_uris":{"android":"levelo://app?vid=9d06beda-1bc5-4b5e-a97e-4c40320ce321","ios":"levelo://app?vid=9d06beda-1bc5-4b5e-a97e-4c40320ce321"},"vehicle_type_id":"4","last_reported":1751530503,"current_range_meters":9600,"station_id":"","pricing_plan_id":"cebpf4jnsgd1na2vs0mg"},{"bike_id":"4e0ceeee-cc6c-4d5b-9838-93c57bc1c3b0","system_id":"levelo_inurba_marseille","lat":43.31236,"lon":5.36858,"is_reserved":false,"is_disabled":false,"rental_uris":{"android":"levelo://app?vid=4e0ceeee-cc6c-4d5b-9838-93c57bc1c3b0","ios":"levelo://app?vid=4e0ceeee-cc6c-4d5b-9838-93c57bc1c3b0"},"vehicle_type_id":"4","last_reported":1751530503,"current_range_meters":9600,"station_id":"ce4bgl92rcd13ifvqbq0","pricing_plan_id":"cebpf4jnsgd1na2vs0mg"},{"bike_id":"662c8946-9059-4026-ab40-64892aeab494","system_id":"levelo_inurba_marseille","lat":43.286628,"lon":5.386752,"is_reserved":false,"is_disabled":false,"rental_uris":{"android":"levelo://app?vid=662c8946-9059-4026-ab40-64892aeab494","ios":"levelo://app?vid=662c8946-9059-4026-ab40-64892aeab494"},"vehicle_type_id":"4","last_reported":1751530503,"current_range_meters":9600,"station_id":"ce4bh492rcd13ifvqdug","pricing_plan_id":"cebpf4jnsgd1na2vs0mg"},{"bike_id":"b64a52c1-5a60-4e26-9cc8-a302011abf58","system_id":"levelo_inurba_marseille","lat":43.2917,"lon":5.37163,"is_reserved":false,"is_disabled":false,"rental_uris":{"android":"levelo://app?vid=b64a52c1-5a60-4e26-9cc8-a302011abf58","ios":"levelo://app?vid=b64a52c1-5a60-4e26-9cc8-a302011abf58"},"vehicle_type_id":"4","last_reported":1751530503,"current_range_meters":9600,"station_id":"ce4bha92rcd13ifvqeh0","pricing_plan_id":"cebpf4jnsgd1na2vs0mg"},{"bike_id":"9a5bbf73-3963-4c1f-a454-7d01e19a7b6d","system_id":"levelo_inurba_marseille","lat":43.2656,"lon":5.37303,"is_reserved":false,"is_disabled":false,"rental_uris":{"android":"levelo://app?vid=9a5bbf73-3963-4c1f-a454-7d01e19a7b6d","ios":"levelo://app?vid=9a5bbf73-3963-4c1f-a454-7d01e19a7b6d"},"vehicle_type_id":"4","last_reported":1751530503,"current_range_meters":9600,"station_id":"ce4bhg12rcd13ifvqf70","pricing_plan_id":"cebpf4jnsgd1na2vs0mg"},{"bike_id":"271f616e-73bc-4142-83c8-6d85f0aa52bf","system_id":"levelo_inurba_marseille","lat":43.26222,"lon":5.40472,"is_reserved":false,"is_disabled":false,"rental_uris":{"android":"levelo://app?vid=271f616e-73bc-4142-83c8-6d85f0aa52bf","ios":"levelo://app?vid=271f616e-73bc-4142-83c8-6d85f0aa52bf"},"vehicle_type_id":"4","last_reported":1751530503,"current_range_meters":9600,"station_id":"ce4bhmh2rcd13ifvqgmg","pricing_plan_id":"cebpf4jnsgd1na2vs0mg"},{"bike_id":"f5469626-344e-4334-9049-486e9f34a090","system_id":"levelo_inurba_marseille","lat":43.321134,"lon":5.367795,"is_reserved":false,"is_disabled":false,"rental_uris":{"android":"levelo://app?vid=f5469626-344e-4334-9049-486e9f34a090","ios":"levelo://app?vid=f5469626-344e-4334-9049-486e9f34a090"},"vehicle_type_id":"4","last_reported":1751530503,"current_range_meters":9600,"station_id":"ce4bhrh2rcd13ifvqhug","pricing_plan_id":"cebpf4jnsgd1na2vs0mg"},{"bike_id":"bebae45e-84ae-460e-b0ae-ec2e34adfe83","system_id":"levelo_inurba_marseille","lat":43.32484,"lon":5.36558,"is_reserved":false,"is_disabled":false,"rental_uris":{"android":"levelo://app?vid=bebae45e-84ae-460e-b0ae-ec2e34adfe83","ios":"levelo://app?vid=bebae45e-84ae-460e-b0ae-ec2e34adfe83"},"vehicle_type_id":"4","last_reported":1751530503,"current_range_meters":9600,"station_id":"ce4bhs12rcd13ifvqhvg","pricing_plan_id":"cebpf4jnsgd1na2vs0mg"},{"bike_id":"b28aa0a0-791c-4a08-9a16-c7bf6ea0ed5a","system_id":"levelo_inurba_marseille","lat":43.22499,"lon":5.34791,"is_reserved":false,"is_disabled":false,"rental_uris":{"android":"levelo://app?vid=b28aa0a0-791c-4a08-9a16-c7bf6ea0ed5a","ios":"levelo://app?vid=b28aa0a0-791c-4a08-9a16-c7bf6ea0ed5a"},"vehicle_type_id":"4","last_reported":1751530503,"current_range_meters":9600,"station_id":"st_cvj5dfep6f1abm77gieg","pricing_plan_id":"cebpf4jnsgd1na2vs0mg"},{"bike_id":"7e62b058-a7ed-4634-80f1-04d3de596de7","system_id":"levelo_inurba_marseille","lat":43.298484,"lon":5.368117,"is_reserved":false,"is_disabled":false,"rental_uris":{"android":"levelo://app?vid=7e62b058-a7ed-4634-80f1-04d3de596de7","ios":"levelo://app?vid=7e62b058-a7ed-4634-80f1-04d3de596de7"},"vehicle_type_id":"4","last_reported":1751530503,"current_range_meters":10000,"station_id":"","pricing_plan_id":"cebpf4jnsgd1na2vs0mg"},{"bike_id":"bf00a211-3496-4df0-8e4e-99767047ca09","system_id":"levelo_inurba_marseille","lat":43.2997,"lon":5.37613,"is_reserved":false,"is_disabled":false,"rental_uris":{"android":"levelo://app?vid=bf00a211-3496-4df0-8e4e-99767047ca09","ios":"levelo://app?vid=bf00a211-3496-4df0-8e4e-99767047ca09"},"vehicle_type_id":"4","last_reported":1751530503,"current_range_meters":10000,"station_id":"","pricing_plan_id":"cebpf4jnsgd1na2vs0mg"},{"bike_id":"e5da80f8-1bf1-4758-9385-111af1c3ff05","system_id":"levelo_inurba_marseille","lat":43.26792,"lon":5.39416,"is_reserved":false,"is_disabled":false,"rental_uris":{"android":"levelo://app?vid=e5da80f8-1bf1-4758-9385-111af1c3ff05","ios":"levelo://app?vid=e5da80f8-1bf1-4758-9385-111af1c3ff05"},"vehicle_type_id":"4","last_reported":1751530503,"current_range_meters":10000,"station_id":"ce4bhh12rcd13ifvqfg0","pricing_plan_id":"cebpf4jnsgd1na2vs0mg"},{"bike_id":"89494d6e-e11a-438f-8875-5fc51e937fc2","system_id":"levelo_inurba_marseille","lat":43.3037,"lon":5.41873,"is_reserved":false,"is_disabled":false,"rental_uris":{"android":"levelo://app?vid=89494d6e-e11a-438f-8875-5fc51e937fc2","ios":"levelo://app?vid=89494d6e-e11a-438f-8875-5fc51e937fc2"},"vehicle_type_id":"4","last_reported":1751530503,"current_range_meters":10000,"station_id":"ce4bhop2rcd13ifvqh7g","pricing_plan_id":"cebpf4jnsgd1na2vs0mg"},{"bike_id":"22c65f34-5b9a-4ce8-b3b0-5a1a52b259a2","system_id":"levelo_inurba_marseille","lat":43.29713,"lon":5.40179,"is_reserved":false,"is_disabled":false,"rental_uris":{"android":"levelo://app?vid=22c65f34-5b9a-4ce8-b3b0-5a1a52b259a2","ios":"levelo://app?vid=22c65f34-5b9a-4ce8-b3b0-5a1a52b259a2"},"vehicle_type_id":"4","last_reported":1751530503,"current_range_meters":10800,"station_id":"","pricing_plan_id":"cebpf4jnsgd1na2vs0mg"},{"bike_id":"9a7d342a-ff8e-46c4-af1e-6e0519bd67dc","system_id":"levelo_inurba_marseille","lat":43.291433,"lon":5.355899,"is_reserved":false,"is_disabled":false,"rental_uris":{"android":"levelo://app?vid=9a7d342a-ff8e-46c4-af1e-6e0519bd67dc","ios":"levelo://app?vid=9a7d342a-ff8e-46c4-af1e-6e0519bd67dc"},"vehicle_type_id":"4","last_reported":1751530503,"current_range_meters":10800,"station_id":"","pricing_plan_id":"cebpf4jnsgd1na2vs0mg"},{"bike_id":"e26ba497-efc7-4420-b8c5-9fa5e27f2ce4","system_id":"levelo_inurba_marseille","lat":43.3137,"lon":5.37053,"is_reserved":false,"is_disabled":false,"rental_uris":{"android":"levelo://app?vid=e26ba497-efc7-4420-b8c5-9fa5e27f2ce4","ios":"levelo://app?vid=e26ba497-efc7-4420-b8c5-9fa5e27f2ce4"},"vehicle_type_id":"4","last_reported":1751530503,"current_range_meters":10800,"station_id":"","pricing_plan_id":"cebpf4jnsgd1na2vs0mg"},{"bike_id":"74148a14-3faf-4d87-9517-3f8979c98122","system_id":"levelo_inurba_marseille","lat":43.2885,"lon":5.35874,"is_reserved":false,"is_disabled":false,"rental_uris":{"android":"levelo://app?vid=74148a14-3faf-4d87-9517-3f8979c98122","ios":"levelo://app?vid=74148a14-3faf-4d87-9517-3f8979c98122"},"vehicle_type_id":"4","last_reported":1751530503,"current_range_meters":10800,"station_id":"ce4bhb12rcd13ifvqem0","pricing_plan_id":"cebpf4jnsgd1na2vs0mg"},{"bike_id":"eb5c248a-04a3-4578-b50d-426fbb66deeb","system_id":"levelo_inurba_marseille","lat":43.27918,"lon":5.35334,"is_reserved":false,"is_disabled":false,"rental_uris":{"android":"levelo://app?vid=eb5c248a-04a3-4578-b50d-426fbb66deeb","ios":"levelo://app?vid=eb5c248a-04a3-4578-b50d-426fbb66deeb"},"vehicle_type_id":"4","last_reported":1751530503,"current_range_meters":11200,"station_id":"","pricing_plan_id":"cebpf4jnsgd1na2vs0mg"},{"bike_id":"c8a9925e-2d13-4600-a9fa-0b1ee6b6f27d","system_id":"levelo_inurba_marseille","lat":43.2958,"lon":5.40619,"is_reserved":false,"is_disabled":false,"rental_uris":{"android":"levelo://app?vid=c8a9925e-2d13-4600-a9fa-0b1ee6b6f27d","ios":"levelo://app?vid=c8a9925e-2d13-4600-a9fa-0b1ee6b6f27d"},"vehicle_type_id":"4","last_reported":1751530503,"current_range_meters":11200,"station_id":"","pricing_plan_id":"cebpf4jnsgd1na2vs0mg"},{"bike_id":"0c6ba1b0-cec2-49da-893c-d50d69e37e9f","system_id":"levelo_inurba_marseille","lat":43.30463,"lon":5.37902,"is_reserved":false,"is_disabled":false,"rental_uris":{"android":"levelo://app?vid=0c6ba1b0-cec2-49da-893c-d50d69e37e9f","ios":"levelo://app?vid=0c6ba1b0-cec2-49da-893c-d50d69e37e9f"},"vehicle_type_id":"4","last_reported":1751530503,"current_range_meters":11200,"station_id":"ce4bgup2rcd13ifvqcn0","pricing_plan_id":"cebpf4jnsgd1na2vs0mg"},{"bike_id":"f228e694-30f5-4a8c-ba5e-247b89fba895","system_id":"levelo_inurba_marseille","lat":43.29168,"lon":5.37166,"is_reserved":false,"is_disabled":false,"rental_uris":{"android":"levelo://app?vid=f228e694-30f5-4a8c-ba5e-247b89fba895","ios":"levelo://app?vid=f228e694-30f5-4a8c-ba5e-247b89fba895"},"vehicle_type_id":"4","last_reported":1751530503,"current_range_meters":11200,"station_id":"ce4bha92rcd13ifvqeh0","pricing_plan_id":"cebpf4jnsgd1na2vs0mg"},{"bike_id":"683054c3-91b0-4749-8c96-8a8ff46f1167","system_id":"levelo_inurba_marseille","lat":43.25914,"lon":5.40944,"is_reserved":false,"is_disabled":false,"rental_uris":{"android":"levelo://app?vid=683054c3-91b0-4749-8c96-8a8ff46f1167","ios":"levelo://app?vid=683054c3-91b0-4749-8c96-8a8ff46f1167"},"vehicle_type_id":"4","last_reported":1751530503,"current_range_meters":11200,"station_id":"ce4bhm92rcd13ifvqglg","pricing_plan_id":"cebpf4jnsgd1na2vs0mg"},{"bike_id":"56eb3fdf-ea87-4fcf-85df-3680fa66363e","system_id":"levelo_inurba_marseille","lat":43.22493,"lon":5.34832,"is_reserved":false,"is_disabled":false,"rental_uris":{"android":"levelo://app?vid=56eb3fdf-ea87-4fcf-85df-3680fa66363e","ios":"levelo://app?vid=56eb3fdf-ea87-4fcf-85df-3680fa66363e"},"vehicle_type_id":"4","last_reported":1751530503,"current_range_meters":11200,"station_id":"st_cvj5dfep6f1abm77gieg","pricing_plan_id":"cebpf4jnsgd1na2vs0mg"},{"bike_id":"bcfd0eda-b9ab-4bec-9ca3-3f2b86617415","system_id":"levelo_inurba_marseille","lat":43.211907,"lon":5.350694,"is_reserved":false,"is_disabled":false,"rental_uris":{"android":"levelo://app?vid=bcfd0eda-b9ab-4bec-9ca3-3f2b86617415","ios":"levelo://app?vid=bcfd0eda-b9ab-4bec-9ca3-3f2b86617415"},"vehicle_type_id":"4","last_reported":1751530503,"current_range_meters":11200,"station_id":"st_cvj6sg6p6f1abm77japg","pricing_plan_id":"cebpf4jnsgd1na2vs0mg"},{"bike_id":"bd66eba9-33d6-45d2-9147-f93bbecc4fb7","system_id":"levelo_inurba_marseille","lat":43.27953,"lon":5.35351,"is_reserved":false,"is_disabled":false,"rental_uris":{"android":"levelo://app?vid=bd66eba9-33d6-45d2-9147-f93bbecc4fb7","ios":"levelo://app?vid=bd66eba9-33d6-45d2-9147-f93bbecc4fb7"},"vehicle_type_id":"4","last_reported":1751530503,"current_range_meters":11600,"station_id":"","pricing_plan_id":"cebpf4jnsgd1na2vs0mg"},{"bike_id":"682a0145-0ef0-42de-b96f-44ba52ddbe0b","system_id":"levelo_inurba_marseille","lat":43.3136,"lon":5.36706,"is_reserved":false,"is_disabled":false,"rental_uris":{"android":"levelo://app?vid=682a0145-0ef0-42de-b96f-44ba52ddbe0b","ios":"levelo://app?vid=682a0145-0ef0-42de-b96f-44ba52ddbe0b"},"vehicle_type_id":"4","last_reported":1751530503,"current_range_meters":11600,"station_id":"ce4bgr92rcd13ifvqc6g","pricing_plan_id":"cebpf4jnsgd1na2vs0mg"},{"bike_id":"196be67c-08a0-41d5-8471-375cf3c84ccc","system_id":"levelo_inurba_marseille","lat":43.31389,"lon":5.36672,"is_reserved":false,"is_disabled":false,"rental_uris":{"android":"levelo://app?vid=196be67c-08a0-41d5-8471-375cf3c84ccc","ios":"levelo://app?vid=196be67c-08a0-41d5-8471-375cf3c84ccc"},"vehicle_type_id":"4","last_reported":1751530503,"current_range_meters":11600,"station_id":"ce4bgr92rcd13ifvqc6g","pricing_plan_id":"cebpf4jnsgd1na2vs0mg"},{"bike_id":"2d659fe1-36b2-4981-bcd7-0c6fca4b3667","system_id":"levelo_inurba_marseille","lat":43.30534,"lon":5.36534,"is_reserved":false,"is_disabled":false,"rental_uris":{"android":"levelo://app?vid=2d659fe1-36b2-4981-bcd7-0c6fca4b3667","ios":"levelo://app?vid=2d659fe1-36b2-4981-bcd7-0c6fca4b3667"},"vehicle_type_id":"4","last_reported":1751530503,"current_range_meters":11600,"station_id":"ce4bgs12rcd13ifvqcag","pricing_plan_id":"cebpf4jnsgd1na2vs0mg"},{"bike_id":"ee89d0eb-8879-4800-a9b2-53c7e66024f1","system_id":"levelo_inurba_marseille","lat":43.26494,"lon":5.39544,"is_reserved":false,"is_disabled":false,"rental_uris":{"android":"levelo://app?vid=ee89d0eb-8879-4800-a9b2-53c7e66024f1","ios":"levelo://app?vid=ee89d0eb-8879-4800-a9b2-53c7e66024f1"},"vehicle_type_id":"4","last_reported":1751530503,"current_range_meters":11600,"station_id":"ce4bhi12rcd13ifvqfq0","pricing_plan_id":"cebpf4jnsgd1na2vs0mg"},{"bike_id":"02eca79c-04a3-400a-b326-30cac7bdedda","system_id":"levelo_inurba_marseille","lat":43.33024,"lon":5.39037,"is_reserved":false,"is_disabled":false,"rental_uris":{"android":"levelo://app?vid=02eca79c-04a3-400a-b326-30cac7bdedda","ios":"levelo://app?vid=02eca79c-04a3-400a-b326-30cac7bdedda"},"vehicle_type_id":"4","last_reported":1751530503,"current_range_meters":11600,"station_id":"ce4bhr92rcd13ifvqhrg","pricing_plan_id":"cebpf4jnsgd1na2vs0mg"},{"bike_id":"110be0f7-19b6-4419-935c-8afdb1f29359","system_id":"levelo_inurba_marseille","lat":43.211912,"lon":5.350613,"is_reserved":false,"is_disabled":false,"rental_uris":{"android":"levelo://app?vid=110be0f7-19b6-4419-935c-8afdb1f29359","ios":"levelo://app?vid=110be0f7-19b6-4419-935c-8afdb1f29359"},"vehicle_type_id":"4","last_reported":1751530503,"current_range_meters":11600,"station_id":"st_cvj6sg6p6f1abm77japg","pricing_plan_id":"cebpf4jnsgd1na2vs0mg"},{"bike_id":"978a9726-9b6c-4929-bd2a-f49eb4e544f2","system_id":"levelo_inurba_marseille","lat":43.29773,"lon":5.38106,"is_reserved":false,"is_disabled":false,"rental_uris":{"android":"levelo://app?vid=978a9726-9b6c-4929-bd2a-f49eb4e544f2","ios":"levelo://app?vid=978a9726-9b6c-4929-bd2a-f49eb4e544f2"},"vehicle_type_id":"4","last_reported":1751530503,"current_range_meters":12000,"station_id":"ce4bgip2rcd13ifvqbb0","pricing_plan_id":"cebpf4jnsgd1na2vs0mg"},{"bike_id":"8a012430-b742-4fee-88b9-170014b5116b","system_id":"levelo_inurba_marseille","lat":43.291,"lon":5.38143,"is_reserved":false,"is_disabled":false,"rental_uris":{"android":"levelo://app?vid=8a012430-b742-4fee-88b9-170014b5116b","ios":"levelo://app?vid=8a012430-b742-4fee-88b9-170014b5116b"},"vehicle_type_id":"4","last_reported":1751530503,"current_range_meters":12000,"station_id":"ce4bh512rcd13ifvqe2g","pricing_plan_id":"cebpf4jnsgd1na2vs0mg"},{"bike_id":"ab742758-3641-4a75-b03a-0837904f5dca","system_id":"levelo_inurba_marseille","lat":43.29167,"lon":5.3715,"is_reserved":false,"is_disabled":false,"rental_uris":{"android":"levelo://app?vid=ab742758-3641-4a75-b03a-0837904f5dca","ios":"levelo://app?vid=ab742758-3641-4a75-b03a-0837904f5dca"},"vehicle_type_id":"4","last_reported":1751530503,"current_range_meters":12000,"station_id":"ce4bha92rcd13ifvqeh0","pricing_plan_id":"cebpf4jnsgd1na2vs0mg"},{"bike_id":"67ba077a-0598-45aa-afb6-6c9100ef9bf9","system_id":"levelo_inurba_marseille","lat":43.2707,"lon":5.42278,"is_reserved":false,"is_disabled":false,"rental_uris":{"android":"levelo://app?vid=67ba077a-0598-45aa-afb6-6c9100ef9bf9","ios":"levelo://app?vid=67ba077a-0598-45aa-afb6-6c9100ef9bf9"},"vehicle_type_id":"4","last_reported":1751530503,"current_range_meters":12000,"station_id":"ce4bhk92rcd13ifvqgb0","pricing_plan_id":"cebpf4jnsgd1na2vs0mg"},{"bike_id":"ef36fdff-1055-4e36-ac23-bd159d4c9f7b","system_id":"levelo_inurba_marseille","lat":43.25935,"lon":5.4091,"is_reserved":false,"is_disabled":false,"rental_uris":{"android":"levelo://app?vid=ef36fdff-1055-4e36-ac23-bd159d4c9f7b","ios":"levelo://app?vid=ef36fdff-1055-4e36-ac23-bd159d4c9f7b"},"vehicle_type_id":"4","last_reported":1751530503,"current_range_meters":12000,"station_id":"ce4bhm92rcd13ifvqglg","pricing_plan_id":"cebpf4jnsgd1na2vs0mg"},{"bike_id":"e36eeb04-35cc-4a52-97d7-6ba58bfe555b","system_id":"levelo_inurba_marseille","lat":43.29547,"lon":5.42282,"is_reserved":false,"is_disabled":false,"rental_uris":{"android":"levelo://app?vid=e36eeb04-35cc-4a52-97d7-6ba58bfe555b","ios":"levelo://app?vid=e36eeb04-35cc-4a52-97d7-6ba58bfe555b"},"vehicle_type_id":"4","last_reported":1751530503,"current_range_meters":12000,"station_id":"ce4bhph2rcd13ifvqhdg","pricing_plan_id":"cebpf4jnsgd1na2vs0mg"},{"bike_id":"7deec706-f6e8-48a0-8a6f-69c3a4645725","system_id":"levelo_inurba_marseille","lat":43.31988,"lon":5.38161,"is_reserved":false,"is_disabled":false,"rental_uris":{"android":"levelo://app?vid=7deec706-f6e8-48a0-8a6f-69c3a4645725","ios":"levelo://app?vid=7deec706-f6e8-48a0-8a6f-69c3a4645725"},"vehicle_type_id":"4","last_reported":1751530503,"current_range_meters":12000,"station_id":"ce4bhr12rcd13ifvqhpg","pricing_plan_id":"cebpf4jnsgd1na2vs0mg"},{"bike_id":"16a8afe6-e43e-4d1b-a7bd-ed83d113735a","system_id":"levelo_inurba_marseille","lat":43.32436,"lon":5.41185,"is_reserved":false,"is_disabled":false,"rental_uris":{"android":"levelo://app?vid=16a8afe6-e43e-4d1b-a7bd-ed83d113735a","ios":"levelo://app?vid=16a8afe6-e43e-4d1b-a7bd-ed83d113735a"},"vehicle_type_id":"4","last_reported":1751530503,"current_range_meters":12400,"station_id":"","pricing_plan_id":"cebpf4jnsgd1na2vs0mg"},{"bike_id":"3505ba0d-79c6-4df1-ab6e-e8cc372e8b7e","system_id":"levelo_inurba_marseille","lat":43.31114,"lon":5.37764,"is_reserved":false,"is_disabled":false,"rental_uris":{"android":"levelo://app?vid=3505ba0d-79c6-4df1-ab6e-e8cc372e8b7e","ios":"levelo://app?vid=3505ba0d-79c6-4df1-ab6e-e8cc372e8b7e"},"vehicle_type_id":"4","last_reported":1751530503,"current_range_meters":12400,"station_id":"ce4bgt92rcd13ifvqcg0","pricing_plan_id":"cebpf4jnsgd1na2vs0mg"},{"bike_id":"8b275258-2617-4b52-9a95-0d45670b5894","system_id":"levelo_inurba_marseille","lat":43.33022,"lon":5.39039,"is_reserved":false,"is_disabled":false,"rental_uris":{"android":"levelo://app?vid=8b275258-2617-4b52-9a95-0d45670b5894","ios":"levelo://app?vid=8b275258-2617-4b52-9a95-0d45670b5894"},"vehicle_type_id":"4","last_reported":1751530503,"current_range_meters":12400,"station_id":"ce4bhr92rcd13ifvqhrg","pricing_plan_id":"cebpf4jnsgd1na2vs0mg"},{"bike_id":"7b82ce06-9a81-436b-bdf4-db08cf7b33d1","system_id":"levelo_inurba_marseille","lat":43.24174,"lon":5.364035,"is_reserved":false,"is_disabled":false,"rental_uris":{"android":"levelo://app?vid=7b82ce06-9a81-436b-bdf4-db08cf7b33d1","ios":"levelo://app?vid=7b82ce06-9a81-436b-bdf4-db08cf7b33d1"},"vehicle_type_id":"4","last_reported":1751530503,"current_range_meters":12400,"station_id":"cpo36qri1sfpv3e86is0","pricing_plan_id":"cebpf4jnsgd1na2vs0mg"},{"bike_id":"959e6f20-8ed0-4d36-bc1d-3efb82d6190b","system_id":"levelo_inurba_marseille","lat":43.21197,"lon":5.35064,"is_reserved":false,"is_disabled":false,"rental_uris":{"android":"levelo://app?vid=959e6f20-8ed0-4d36-bc1d-3efb82d6190b","ios":"levelo://app?vid=959e6f20-8ed0-4d36-bc1d-3efb82d6190b"},"vehicle_type_id":"4","last_reported":1751530503,"current_range_meters":12400,"station_id":"st_cvj6sg6p6f1abm77japg","pricing_plan_id":"cebpf4jnsgd1na2vs0mg"},{"bike_id":"fe16e5d6-c086-4644-bea1-4f57a2866519","system_id":"levelo_inurba_marseille","lat":43.28564,"lon":5.35064,"is_reserved":false,"is_disabled":false,"rental_uris":{"android":"levelo://app?vid=fe16e5d6-c086-4644-bea1-4f57a2866519","ios":"levelo://app?vid=fe16e5d6-c086-4644-bea1-4f57a2866519"},"vehicle_type_id":"4","last_reported":1751530503,"current_range_meters":12800,"station_id":"","pricing_plan_id":"cebpf4jnsgd1na2vs0mg"},{"bike_id":"64bb485e-0856-48ce-befe-bde5a394f93d","system_id":"levelo_inurba_marseille","lat":43.27632,"lon":5.38858,"is_reserved":false,"is_disabled":false,"rental_uris":{"android":"levelo://app?vid=64bb485e-0856-48ce-befe-bde5a394f93d","ios":"levelo://app?vid=64bb485e-0856-48ce-befe-bde5a394f93d"},"vehicle_type_id":"4","last_reported":1751530503,"current_range_meters":12800,"station_id":"","pricing_plan_id":"cebpf4jnsgd1na2vs0mg"},{"bike_id":"99c01276-33a5-45a7-b325-33368be4a458","system_id":"levelo_inurba_marseille","lat":43.312242,"lon":5.368692,"is_reserved":false,"is_disabled":false,"rental_uris":{"android":"levelo://app?vid=99c01276-33a5-45a7-b325-33368be4a458","ios":"levelo://app?vid=99c01276-33a5-45a7-b325-33368be4a458"},"vehicle_type_id":"4","last_reported":1751530503,"current_range_meters":12800,"station_id":"ce4bgl92rcd13ifvqbq0","pricing_plan_id":"cebpf4jnsgd1na2vs0mg"},{"bike_id":"603f229c-09b9-4145-9510-d250a8eff49b","system_id":"levelo_inurba_marseille","lat":43.28617,"lon":5.351,"is_reserved":false,"is_disabled":false,"rental_uris":{"android":"levelo://app?vid=603f229c-09b9-4145-9510-d250a8eff49b","ios":"levelo://app?vid=603f229c-09b9-4145-9510-d250a8eff49b"},"vehicle_type_id":"4","last_reported":1751530503,"current_range_meters":12800,"station_id":"ce4bhch2rcd13ifvqeug","pricing_plan_id":"cebpf4jnsgd1na2vs0mg"},{"bike_id":"edd0dadd-87f4-4c2e-bcb9-48eff12407b8","system_id":"levelo_inurba_marseille","lat":43.32476,"lon":5.3657,"is_reserved":false,"is_disabled":false,"rental_uris":{"android":"levelo://app?vid=edd0dadd-87f4-4c2e-bcb9-48eff12407b8","ios":"levelo://app?vid=edd0dadd-87f4-4c2e-bcb9-48eff12407b8"},"vehicle_type_id":"4","last_reported":1751530503,"current_range_meters":12800,"station_id":"ce4bhs12rcd13ifvqhvg","pricing_plan_id":"cebpf4jnsgd1na2vs0mg"},{"bike_id":"a011bf6f-5b73-42df-b628-b2dcf5029277","system_id":"levelo_inurba_marseille","lat":43.241788,"lon":5.384951,"is_reserved":false,"is_disabled":false,"rental_uris":{"android":"levelo://app?vid=a011bf6f-5b73-42df-b628-b2dcf5029277","ios":"levelo://app?vid=a011bf6f-5b73-42df-b628-b2dcf5029277"},"vehicle_type_id":"4","last_reported":1751530503,"current_range_meters":13600,"station_id":"","pricing_plan_id":"cebpf4jnsgd1na2vs0mg"},{"bike_id":"0e030323-4386-4e72-9a0d-0f6a2ff539de","system_id":"levelo_inurba_marseille","lat":43.296191,"lon":5.405464,"is_reserved":false,"is_disabled":false,"rental_uris":{"android":"levelo://app?vid=0e030323-4386-4e72-9a0d-0f6a2ff539de","ios":"levelo://app?vid=0e030323-4386-4e72-9a0d-0f6a2ff539de"},"vehicle_type_id":"4","last_reported":1751530503,"current_range_meters":13600,"station_id":"ce4bh0h2rcd13ifvqd60","pricing_plan_id":"cebpf4jnsgd1na2vs0mg"},{"bike_id":"344c53ee-cbed-45a0-b3aa-9e2c1be5eb1a","system_id":"levelo_inurba_marseille","lat":43.291671,"lon":5.3716,"is_reserved":false,"is_disabled":false,"rental_uris":{"android":"levelo://app?vid=344c53ee-cbed-45a0-b3aa-9e2c1be5eb1a","ios":"levelo://app?vid=344c53ee-cbed-45a0-b3aa-9e2c1be5eb1a"},"vehicle_type_id":"4","last_reported":1751530503,"current_range_meters":13600,"station_id":"ce4bha92rcd13ifvqeh0","pricing_plan_id":"cebpf4jnsgd1na2vs0mg"},{"bike_id":"23bf0f22-f8e1-4a60-a9fb-fbff9c1421bf","system_id":"levelo_inurba_marseille","lat":43.266841,"lon":5.382729,"is_reserved":false,"is_disabled":false,"rental_uris":{"android":"levelo://app?vid=23bf0f22-f8e1-4a60-a9fb-fbff9c1421bf","ios":"levelo://app?vid=23bf0f22-f8e1-4a60-a9fb-fbff9c1421bf"},"vehicle_type_id":"4","last_reported":1751530503,"current_range_meters":13600,"station_id":"ce4bhg92rcd13ifvqf90","pricing_plan_id":"cebpf4jnsgd1na2vs0mg"},{"bike_id":"eac33aec-008d-40f4-b2c0-90d4f8729473","system_id":"levelo_inurba_marseille","lat":43.24177,"lon":5.3972,"is_reserved":false,"is_disabled":false,"rental_uris":{"android":"levelo://app?vid=eac33aec-008d-40f4-b2c0-90d4f8729473","ios":"levelo://app?vid=eac33aec-008d-40f4-b2c0-90d4f8729473"},"vehicle_type_id":"4","last_reported":1751530503,"current_range_meters":13600,"station_id":"ce4bhn12rcd13ifvqgpg","pricing_plan_id":"cebpf4jnsgd1na2vs0mg"},{"bike_id":"09a94feb-8911-4d3d-9f22-a7f611710ea1","system_id":"levelo_inurba_marseille","lat":43.21187,"lon":5.35073,"is_reserved":false,"is_disabled":false,"rental_uris":{"android":"levelo://app?vid=09a94feb-8911-4d3d-9f22-a7f611710ea1","ios":"levelo://app?vid=09a94feb-8911-4d3d-9f22-a7f611710ea1"},"vehicle_type_id":"4","last_reported":1751530503,"current_range_meters":13600,"station_id":"st_cvj6sg6p6f1abm77japg","pricing_plan_id":"cebpf4jnsgd1na2vs0mg"},{"bike_id":"4880198b-fdac-4e10-a61d-9f29837461fd","system_id":"levelo_inurba_marseille","lat":43.29712,"lon":5.36614,"is_reserved":false,"is_disabled":false,"rental_uris":{"android":"levelo://app?vid=4880198b-fdac-4e10-a61d-9f29837461fd","ios":"levelo://app?vid=4880198b-fdac-4e10-a61d-9f29837461fd"},"vehicle_type_id":"4","last_reported":1751530503,"current_range_meters":14000,"station_id":"ce4bgn12rcd13ifvqbt0","pricing_plan_id":"cebpf4jnsgd1na2vs0mg"},{"bike_id":"b50da02d-1fb5-4383-a93d-332785610080","system_id":"levelo_inurba_marseille","lat":43.21753,"lon":5.346,"is_reserved":false,"is_disabled":false,"rental_uris":{"android":"levelo://app?vid=b50da02d-1fb5-4383-a93d-332785610080","ios":"levelo://app?vid=b50da02d-1fb5-4383-a93d-332785610080"},"vehicle_type_id":"4","last_reported":1751530503,"current_range_meters":14000,"station_id":"st_cvj6r9ubvosntc0bgbag","pricing_plan_id":"cebpf4jnsgd1na2vs0mg"},{"bike_id":"8a74f5cd-9efa-4362-bea7-a32db4dcc85c","system_id":"levelo_inurba_marseille","lat":43.2119,"lon":5.350741,"is_reserved":false,"is_disabled":false,"rental_uris":{"android":"levelo://app?vid=8a74f5cd-9efa-4362-bea7-a32db4dcc85c","ios":"levelo://app?vid=8a74f5cd-9efa-4362-bea7-a32db4dcc85c"},"vehicle_type_id":"4","last_reported":1751530503,"current_range_meters":14000,"station_id":"st_cvj6sg6p6f1abm77japg","pricing_plan_id":"cebpf4jnsgd1na2vs0mg"},{"bike_id":"2f9f249a-8433-4d90-824b-66f2265efc06","system_id":"levelo_inurba_marseille","lat":43.30364,"lon":5.38583,"is_reserved":false,"is_disabled":false,"rental_uris":{"android":"levelo://app?vid=2f9f249a-8433-4d90-824b-66f2265efc06","ios":"levelo://app?vid=2f9f249a-8433-4d90-824b-66f2265efc06"},"vehicle_type_id":"4","last_reported":1751530503,"current_range_meters":14400,"station_id":"","pricing_plan_id":"cebpf4jnsgd1na2vs0mg"},{"bike_id":"8b784f28-b0e0-4960-8cfe-7e3d0de16521","system_id":"levelo_inurba_marseille","lat":43.23148,"lon":5.4372,"is_reserved":false,"is_disabled":false,"rental_uris":{"android":"levelo://app?vid=8b784f28-b0e0-4960-8cfe-7e3d0de16521","ios":"levelo://app?vid=8b784f28-b0e0-4960-8cfe-7e3d0de16521"},"vehicle_type_id":"4","last_reported":1751530503,"current_range_meters":14400,"station_id":"ce4bhmp2rcd13ifvqgog","pricing_plan_id":"cebpf4jnsgd1na2vs0mg"},{"bike_id":"d1e83e19-43a3-4e18-adbe-ced724ee2807","system_id":"levelo_inurba_marseille","lat":43.336,"lon":5.40959,"is_reserved":false,"is_disabled":false,"rental_uris":{"android":"levelo://app?vid=d1e83e19-43a3-4e18-adbe-ced724ee2807","ios":"levelo://app?vid=d1e83e19-43a3-4e18-adbe-ced724ee2807"},"vehicle_type_id":"4","last_reported":1751530503,"current_range_meters":14400,"station_id":"ce4bhqh2rcd13ifvqhmg","pricing_plan_id":"cebpf4jnsgd1na2vs0mg"},{"bike_id":"ca97ac62-9c40-446d-9859-35893eee5d5d","system_id":"levelo_inurba_marseille","lat":43.336065,"lon":5.410293,"is_reserved":false,"is_disabled":false,"rental_uris":{"android":"levelo://app?vid=ca97ac62-9c40-446d-9859-35893eee5d5d","ios":"levelo://app?vid=ca97ac62-9c40-446d-9859-35893eee5d5d"},"vehicle_type_id":"4","last_reported":1751530503,"current_range_meters":14400,"station_id":"ce4bhqh2rcd13ifvqhmg","pricing_plan_id":"cebpf4jnsgd1na2vs0mg"},{"bike_id":"8bf0d992-d2a0-428e-940a-091ee9b7c2a4","system_id":"levelo_inurba_marseille","lat":43.21185,"lon":5.35079,"is_reserved":false,"is_disabled":false,"rental_uris":{"android":"levelo://app?vid=8bf0d992-d2a0-428e-940a-091ee9b7c2a4","ios":"levelo://app?vid=8bf0d992-d2a0-428e-940a-091ee9b7c2a4"},"vehicle_type_id":"4","last_reported":1751530503,"current_range_meters":14400,"station_id":"st_cvj6sg6p6f1abm77japg","pricing_plan_id":"cebpf4jnsgd1na2vs0mg"},{"bike_id":"c10a4283-320d-4e64-8d75-ff83e94026ba","system_id":"levelo_inurba_marseille","lat":43.211901,"lon":5.350729,"is_reserved":false,"is_disabled":false,"rental_uris":{"android":"levelo://app?vid=c10a4283-320d-4e64-8d75-ff83e94026ba","ios":"levelo://app?vid=c10a4283-320d-4e64-8d75-ff83e94026ba"},"vehicle_type_id":"4","last_reported":1751530503,"current_range_meters":14400,"station_id":"st_cvj6sg6p6f1abm77japg","pricing_plan_id":"cebpf4jnsgd1na2vs0mg"},{"bike_id":"ff487534-1d63-4b3d-8fd4-22a848f80dc1","system_id":"levelo_inurba_marseille","lat":43.30001,"lon":5.38503,"is_reserved":false,"is_disabled":false,"rental_uris":{"android":"levelo://app?vid=ff487534-1d63-4b3d-8fd4-22a848f80dc1","ios":"levelo://app?vid=ff487534-1d63-4b3d-8fd4-22a848f80dc1"},"vehicle_type_id":"4","last_reported":1751530503,"current_range_meters":14800,"station_id":"","pricing_plan_id":"cebpf4jnsgd1na2vs0mg"},{"bike_id":"a588469b-12ca-41c6-8c6f-3f3bda5b7f15","system_id":"levelo_inurba_marseille","lat":43.31571,"lon":5.38359,"is_reserved":false,"is_disabled":false,"rental_uris":{"android":"levelo://app?vid=a588469b-12ca-41c6-8c6f-3f3bda5b7f15","ios":"levelo://app?vid=a588469b-12ca-41c6-8c6f-3f3bda5b7f15"},"vehicle_type_id":"4","last_reported":1751530503,"current_range_meters":14800,"station_id":"","pricing_plan_id":"cebpf4jnsgd1na2vs0mg"},{"bike_id":"bb4d6d50-9e76-429d-87e3-72a9b3336d59","system_id":"levelo_inurba_marseille","lat":43.27934,"lon":5.35336,"is_reserved":false,"is_disabled":false,"rental_uris":{"android":"levelo://app?vid=bb4d6d50-9e76-429d-87e3-72a9b3336d59","ios":"levelo://app?vid=bb4d6d50-9e76-429d-87e3-72a9b3336d59"},"vehicle_type_id":"4","last_reported":1751530503,"current_range_meters":14800,"station_id":"","pricing_plan_id":"cebpf4jnsgd1na2vs0mg"},{"bike_id":"291796b7-60a2-480a-8d18-70181aeeef79","system_id":"levelo_inurba_marseille","lat":43.2872,"lon":5.37946,"is_reserved":false,"is_disabled":false,"rental_uris":{"android":"levelo://app?vid=291796b7-60a2-480a-8d18-70181aeeef79","ios":"levelo://app?vid=291796b7-60a2-480a-8d18-70181aeeef79"},"vehicle_type_id":"4","last_reported":1751530503,"current_range_meters":14800,"station_id":"ce4bh9p2rcd13ifvqec0","pricing_plan_id":"cebpf4jnsgd1na2vs0mg"},{"bike_id":"912d67f3-78e7-48fd-8929-37f0572cfee4","system_id":"levelo_inurba_marseille","lat":43.2637,"lon":5.37397,"is_reserved":false,"is_disabled":false,"rental_uris":{"android":"levelo://app?vid=912d67f3-78e7-48fd-8929-37f0572cfee4","ios":"levelo://app?vid=912d67f3-78e7-48fd-8929-37f0572cfee4"},"vehicle_type_id":"4","last_reported":1751530503,"current_range_meters":15200,"station_id":"","pricing_plan_id":"cebpf4jnsgd1na2vs0mg"},{"bike_id":"190cfeed-d109-41bf-961c-0dc2409d0ad3","system_id":"levelo_inurba_marseille","lat":43.33131,"lon":5.38187,"is_reserved":false,"is_disabled":false,"rental_uris":{"android":"levelo://app?vid=190cfeed-d109-41bf-961c-0dc2409d0ad3","ios":"levelo://app?vid=190cfeed-d109-41bf-961c-0dc2409d0ad3"},"vehicle_type_id":"4","last_reported":1751530503,"current_range_meters":15200,"station_id":"","pricing_plan_id":"cebpf4jnsgd1na2vs0mg"},{"bike_id":"2ef81746-0fca-469c-ad0f-71b1d40821c4","system_id":"levelo_inurba_marseille","lat":43.29586,"lon":5.36737,"is_reserved":false,"is_disabled":false,"rental_uris":{"android":"levelo://app?vid=2ef81746-0fca-469c-ad0f-71b1d40821c4","ios":"levelo://app?vid=2ef81746-0fca-469c-ad0f-71b1d40821c4"},"vehicle_type_id":"4","last_reported":1751530503,"current_range_meters":15200,"station_id":"ce4bgph2rcd13ifvqc2g","pricing_plan_id":"cebpf4jnsgd1na2vs0mg"},{"bike_id":"652c661a-79b2-4990-be8e-d6435b062c70","system_id":"levelo_inurba_marseille","lat":43.30539,"lon":5.36554,"is_reserved":false,"is_disabled":false,"rental_uris":{"android":"levelo://app?vid=652c661a-79b2-4990-be8e-d6435b062c70","ios":"levelo://app?vid=652c661a-79b2-4990-be8e-d6435b062c70"},"vehicle_type_id":"4","last_reported":1751530503,"current_range_meters":15200,"station_id":"ce4bgs12rcd13ifvqcag","pricing_plan_id":"cebpf4jnsgd1na2vs0mg"},{"bike_id":"ffc4ee84-d1be-4ebc-8ebf-1a1ca37b8401","system_id":"levelo_inurba_marseille","lat":43.30845,"lon":5.37414,"is_reserved":false,"is_disabled":false,"rental_uris":{"android":"levelo://app?vid=ffc4ee84-d1be-4ebc-8ebf-1a1ca37b8401","ios":"levelo://app?vid=ffc4ee84-d1be-4ebc-8ebf-1a1ca37b8401"},"vehicle_type_id":"4","last_reported":1751530503,"current_range_meters":16000,"station_id":"","pricing_plan_id":"cebpf4jnsgd1na2vs0mg"},{"bike_id":"299bd40b-d31a-4361-84d9-dfd469b22c02","system_id":"levelo_inurba_marseille","lat":43.30535,"lon":5.36717,"is_reserved":false,"is_disabled":false,"rental_uris":{"android":"levelo://app?vid=299bd40b-d31a-4361-84d9-dfd469b22c02","ios":"levelo://app?vid=299bd40b-d31a-4361-84d9-dfd469b22c02"},"vehicle_type_id":"4","last_reported":1751530503,"current_range_meters":16000,"station_id":"ce4bgrp2rcd13ifvqc9g","pricing_plan_id":"cebpf4jnsgd1na2vs0mg"},{"bike_id":"aa0f1230-e1e9-41f1-9211-043e633764ce","system_id":"levelo_inurba_marseille","lat":43.30543,"lon":5.36535,"is_reserved":false,"is_disabled":false,"rental_uris":{"android":"levelo://app?vid=aa0f1230-e1e9-41f1-9211-043e633764ce","ios":"levelo://app?vid=aa0f1230-e1e9-41f1-9211-043e633764ce"},"vehicle_type_id":"4","last_reported":1751530503,"current_range_meters":16000,"station_id":"ce4bgs12rcd13ifvqcag","pricing_plan_id":"cebpf4jnsgd1na2vs0mg"},{"bike_id":"7bab1ae9-9e76-4bc4-8397-502ce0d2fefc","system_id":"levelo_inurba_marseille","lat":43.290372,"lon":5.399642,"is_reserved":false,"is_disabled":false,"rental_uris":{"android":"levelo://app?vid=7bab1ae9-9e76-4bc4-8397-502ce0d2fefc","ios":"levelo://app?vid=7bab1ae9-9e76-4bc4-8397-502ce0d2fefc"},"vehicle_type_id":"4","last_reported":1751530503,"current_range_meters":16000,"station_id":"ce4bh392rcd13ifvqdm0","pricing_plan_id":"cebpf4jnsgd1na2vs0mg"},{"bike_id":"78311641-c5aa-4d7d-a97f-e76cea707448","system_id":"levelo_inurba_marseille","lat":43.28274,"lon":5.35071,"is_reserved":false,"is_disabled":false,"rental_uris":{"android":"levelo://app?vid=78311641-c5aa-4d7d-a97f-e76cea707448","ios":"levelo://app?vid=78311641-c5aa-4d7d-a97f-e76cea707448"},"vehicle_type_id":"4","last_reported":1751530503,"current_range_meters":16000,"station_id":"ce4bhbp2rcd13ifvqerg","pricing_plan_id":"cebpf4jnsgd1na2vs0mg"},{"bike_id":"7719e051-b03c-4a2c-806b-d6dc1f85a75d","system_id":"levelo_inurba_marseille","lat":43.26209,"lon":5.37445,"is_reserved":false,"is_disabled":false,"rental_uris":{"android":"levelo://app?vid=7719e051-b03c-4a2c-806b-d6dc1f85a75d","ios":"levelo://app?vid=7719e051-b03c-4a2c-806b-d6dc1f85a75d"},"vehicle_type_id":"4","last_reported":1751530503,"current_range_meters":16000,"station_id":"ce4bhgp2rcd13ifvqfc0","pricing_plan_id":"cebpf4jnsgd1na2vs0mg"},{"bike_id":"f1d574fe-b8fe-4c96-8b6e-6b6371138207","system_id":"levelo_inurba_marseille","lat":43.32365,"lon":5.38904,"is_reserved":false,"is_disabled":false,"rental_uris":{"android":"levelo://app?vid=f1d574fe-b8fe-4c96-8b6e-6b6371138207","ios":"levelo://app?vid=f1d574fe-b8fe-4c96-8b6e-6b6371138207"},"vehicle_type_id":"4","last_reported":1751530503,"current_range_meters":16000,"station_id":"ce4bhqp2rcd13ifvqhog","pricing_plan_id":"cebpf4jnsgd1na2vs0mg"},{"bike_id":"0f590c2a-c81e-469d-a7d1-2741de3642a2","system_id":"levelo_inurba_marseille","lat":43.211968,"lon":5.3506,"is_reserved":false,"is_disabled":false,"rental_uris":{"android":"levelo://app?vid=0f590c2a-c81e-469d-a7d1-2741de3642a2","ios":"levelo://app?vid=0f590c2a-c81e-469d-a7d1-2741de3642a2"},"vehicle_type_id":"4","last_reported":1751530503,"current_range_meters":16000,"station_id":"st_cvj6sg6p6f1abm77japg","pricing_plan_id":"cebpf4jnsgd1na2vs0mg"},{"bike_id":"ba154a12-11bd-42a5-958a-5992f5d043d1","system_id":"levelo_inurba_marseille","lat":43.30493,"lon":5.37057,"is_reserved":false,"is_disabled":false,"rental_uris":{"android":"levelo://app?vid=ba154a12-11bd-42a5-958a-5992f5d043d1","ios":"levelo://app?vid=ba154a12-11bd-42a5-958a-5992f5d043d1"},"vehicle_type_id":"4","last_reported":1751530503,"current_range_meters":16400,"station_id":"","pricing_plan_id":"cebpf4jnsgd1na2vs0mg"},{"bike_id":"0ca65be1-7587-4a40-80f1-4bc00134893e","system_id":"levelo_inurba_marseille","lat":43.30459,"lon":5.37907,"is_reserved":false,"is_disabled":false,"rental_uris":{"android":"levelo://app?vid=0ca65be1-7587-4a40-80f1-4bc00134893e","ios":"levelo://app?vid=0ca65be1-7587-4a40-80f1-4bc00134893e"},"vehicle_type_id":"4","last_reported":1751530503,"current_range_meters":16400,"station_id":"ce4bgup2rcd13ifvqcn0","pricing_plan_id":"cebpf4jnsgd1na2vs0mg"},{"bike_id":"54ce46f3-76e0-426a-9b75-5dbd5f1b15d6","system_id":"levelo_inurba_marseille","lat":43.29164,"lon":5.37153,"is_reserved":false,"is_disabled":false,"rental_uris":{"android":"levelo://app?vid=54ce46f3-76e0-426a-9b75-5dbd5f1b15d6","ios":"levelo://app?vid=54ce46f3-76e0-426a-9b75-5dbd5f1b15d6"},"vehicle_type_id":"4","last_reported":1751530503,"current_range_meters":16400,"station_id":"ce4bha92rcd13ifvqeh0","pricing_plan_id":"cebpf4jnsgd1na2vs0mg"},{"bike_id":"075534d1-246e-4eba-a3a6-226d563ca536","system_id":"levelo_inurba_marseille","lat":43.23154,"lon":5.4371,"is_reserved":false,"is_disabled":false,"rental_uris":{"android":"levelo://app?vid=075534d1-246e-4eba-a3a6-226d563ca536","ios":"levelo://app?vid=075534d1-246e-4eba-a3a6-226d563ca536"},"vehicle_type_id":"4","last_reported":1751530503,"current_range_meters":16400,"station_id":"ce4bhmp2rcd13ifvqgog","pricing_plan_id":"cebpf4jnsgd1na2vs0mg"},{"bike_id":"5ac18444-f566-4906-ab15-b27d18088452","system_id":"levelo_inurba_marseille","lat":43.28265,"lon":5.350661,"is_reserved":false,"is_disabled":false,"rental_uris":{"android":"levelo://app?vid=5ac18444-f566-4906-ab15-b27d18088452","ios":"levelo://app?vid=5ac18444-f566-4906-ab15-b27d18088452"},"vehicle_type_id":"4","last_reported":1751530503,"current_range_meters":16800,"station_id":"ce4bhbp2rcd13ifvqerg","pricing_plan_id":"cebpf4jnsgd1na2vs0mg"},{"bike_id":"b114c7d7-5812-4f16-aaa4-1d26988844ab","system_id":"levelo_inurba_marseille","lat":43.2717,"lon":5.409947,"is_reserved":false,"is_disabled":false,"rental_uris":{"android":"levelo://app?vid=b114c7d7-5812-4f16-aaa4-1d26988844ab","ios":"levelo://app?vid=b114c7d7-5812-4f16-aaa4-1d26988844ab"},"vehicle_type_id":"4","last_reported":1751530503,"current_range_meters":16800,"station_id":"ce4bhl12rcd13ifvqgf0","pricing_plan_id":"cebpf4jnsgd1na2vs0mg"},{"bike_id":"37b84a38-055a-4a6e-a56a-8ff3d0c1b2ec","system_id":"levelo_inurba_marseille","lat":43.212,"lon":5.35061,"is_reserved":false,"is_disabled":false,"rental_uris":{"android":"levelo://app?vid=37b84a38-055a-4a6e-a56a-8ff3d0c1b2ec","ios":"levelo://app?vid=37b84a38-055a-4a6e-a56a-8ff3d0c1b2ec"},"vehicle_type_id":"4","last_reported":1751530503,"current_range_meters":16800,"station_id":"st_cvj6sg6p6f1abm77japg","pricing_plan_id":"cebpf4jnsgd1na2vs0mg"},{"bike_id":"d6a97fc8-7c5d-4b77-9d38-d22003db8fe5","system_id":"levelo_inurba_marseille","lat":43.34721,"lon":5.36602,"is_reserved":false,"is_disabled":false,"rental_uris":{"android":"levelo://app?vid=d6a97fc8-7c5d-4b77-9d38-d22003db8fe5","ios":"levelo://app?vid=d6a97fc8-7c5d-4b77-9d38-d22003db8fe5"},"vehicle_type_id":"4","last_reported":1751530503,"current_range_meters":17200,"station_id":"","pricing_plan_id":"cebpf4jnsgd1na2vs0mg"},{"bike_id":"1f6ce902-d1ff-46a3-9260-b3dda8339657","system_id":"levelo_inurba_marseille","lat":43.31226,"lon":5.3686,"is_reserved":false,"is_disabled":false,"rental_uris":{"android":"levelo://app?vid=1f6ce902-d1ff-46a3-9260-b3dda8339657","ios":"levelo://app?vid=1f6ce902-d1ff-46a3-9260-b3dda8339657"},"vehicle_type_id":"4","last_reported":1751530503,"current_range_meters":17200,"station_id":"ce4bgl92rcd13ifvqbq0","pricing_plan_id":"cebpf4jnsgd1na2vs0mg"},{"bike_id":"8f37b655-2457-4ffc-ad7e-823c85de51c5","system_id":"levelo_inurba_marseille","lat":43.29848,"lon":5.36267,"is_reserved":false,"is_disabled":false,"rental_uris":{"android":"levelo://app?vid=8f37b655-2457-4ffc-ad7e-823c85de51c5","ios":"levelo://app?vid=8f37b655-2457-4ffc-ad7e-823c85de51c5"},"vehicle_type_id":"4","last_reported":1751530503,"current_range_meters":17200,"station_id":"ce4bgpp2rcd13ifvqc3g","pricing_plan_id":"cebpf4jnsgd1na2vs0mg"},{"bike_id":"d747e402-022e-4034-85df-4dd8bda8fba0","system_id":"levelo_inurba_marseille","lat":43.26778,"lon":5.3942,"is_reserved":false,"is_disabled":false,"rental_uris":{"android":"levelo://app?vid=d747e402-022e-4034-85df-4dd8bda8fba0","ios":"levelo://app?vid=d747e402-022e-4034-85df-4dd8bda8fba0"},"vehicle_type_id":"4","last_reported":1751530503,"current_range_meters":17200,"station_id":"ce4bhh12rcd13ifvqfg0","pricing_plan_id":"cebpf4jnsgd1na2vs0mg"},{"bike_id":"a6715104-7492-4ec6-a996-23050baf8551","system_id":"levelo_inurba_marseille","lat":43.225019,"lon":5.347755,"is_reserved":false,"is_disabled":false,"rental_uris":{"android":"levelo://app?vid=a6715104-7492-4ec6-a996-23050baf8551","ios":"levelo://app?vid=a6715104-7492-4ec6-a996-23050baf8551"},"vehicle_type_id":"4","last_reported":1751530503,"current_range_meters":17200,"station_id":"st_cvj5dfep6f1abm77gieg","pricing_plan_id":"cebpf4jnsgd1na2vs0mg"},{"bike_id":"4d4995e7-0bba-4ac2-a238-afd84a5e99b5","system_id":"levelo_inurba_marseille","lat":43.304848,"lon":5.398345,"is_reserved":false,"is_disabled":false,"rental_uris":{"android":"levelo://app?vid=4d4995e7-0bba-4ac2-a238-afd84a5e99b5","ios":"levelo://app?vid=4d4995e7-0bba-4ac2-a238-afd84a5e99b5"},"vehicle_type_id":"4","last_reported":1751530503,"current_range_meters":17600,"station_id":"","pricing_plan_id":"cebpf4jnsgd1na2vs0mg"},{"bike_id":"0c5e46df-9adb-4aa5-842c-17a1961c0106","system_id":"levelo_inurba_marseille","lat":43.27991,"lon":5.40727,"is_reserved":false,"is_disabled":false,"rental_uris":{"android":"levelo://app?vid=0c5e46df-9adb-4aa5-842c-17a1961c0106","ios":"levelo://app?vid=0c5e46df-9adb-4aa5-842c-17a1961c0106"},"vehicle_type_id":"4","last_reported":1751530503,"current_range_meters":17600,"station_id":"","pricing_plan_id":"cebpf4jnsgd1na2vs0mg"},{"bike_id":"0c4b7fdb-b39e-49b3-a2b0-ae3d0f43e89d","system_id":"levelo_inurba_marseille","lat":43.32904,"lon":5.40564,"is_reserved":false,"is_disabled":false,"rental_uris":{"android":"levelo://app?vid=0c4b7fdb-b39e-49b3-a2b0-ae3d0f43e89d","ios":"levelo://app?vid=0c4b7fdb-b39e-49b3-a2b0-ae3d0f43e89d"},"vehicle_type_id":"4","last_reported":1751530503,"current_range_meters":17600,"station_id":"","pricing_plan_id":"cebpf4jnsgd1na2vs0mg"},{"bike_id":"047fad09-98ed-481f-98cd-10a467775053","system_id":"levelo_inurba_marseille","lat":43.3091,"lon":5.36846,"is_reserved":false,"is_disabled":false,"rental_uris":{"android":"levelo://app?vid=047fad09-98ed-481f-98cd-10a467775053","ios":"levelo://app?vid=047fad09-98ed-481f-98cd-10a467775053"},"vehicle_type_id":"4","last_reported":1751530503,"current_range_meters":17600,"station_id":"ce4bgn92rcd13ifvqbvg","pricing_plan_id":"cebpf4jnsgd1na2vs0mg"},{"bike_id":"a985f2f4-6a3b-46ba-a738-e84bc568026c","system_id":"levelo_inurba_marseille","lat":43.30538,"lon":5.36553,"is_reserved":false,"is_disabled":false,"rental_uris":{"android":"levelo://app?vid=a985f2f4-6a3b-46ba-a738-e84bc568026c","ios":"levelo://app?vid=a985f2f4-6a3b-46ba-a738-e84bc568026c"},"vehicle_type_id":"4","last_reported":1751530503,"current_range_meters":17600,"station_id":"ce4bgs12rcd13ifvqcag","pricing_plan_id":"cebpf4jnsgd1na2vs0mg"},{"bike_id":"ebeb9630-f1b0-4adc-a8d7-f3d9b1ce399c","system_id":"levelo_inurba_marseille","lat":43.28486,"lon":5.3841,"is_reserved":false,"is_disabled":false,"rental_uris":{"android":"levelo://app?vid=ebeb9630-f1b0-4adc-a8d7-f3d9b1ce399c","ios":"levelo://app?vid=ebeb9630-f1b0-4adc-a8d7-f3d9b1ce399c"},"vehicle_type_id":"4","last_reported":1751530503,"current_range_meters":17600,"station_id":"ce4bh512rcd13ifvqe3g","pricing_plan_id":"cebpf4jnsgd1na2vs0mg"},{"bike_id":"85fcf159-3fd9-4c93-84b2-acc2ea68836f","system_id":"levelo_inurba_marseille","lat":43.26537,"lon":5.37276,"is_reserved":false,"is_disabled":false,"rental_uris":{"android":"levelo://app?vid=85fcf159-3fd9-4c93-84b2-acc2ea68836f","ios":"levelo://app?vid=85fcf159-3fd9-4c93-84b2-acc2ea68836f"},"vehicle_type_id":"4","last_reported":1751530503,"current_range_meters":17600,"station_id":"ce4bhg12rcd13ifvqf70","pricing_plan_id":"cebpf4jnsgd1na2vs0mg"},{"bike_id":"57e84e33-8ef2-49b0-9c52-2dd89adcc82a","system_id":"levelo_inurba_marseille","lat":43.23154,"lon":5.43711,"is_reserved":false,"is_disabled":false,"rental_uris":{"android":"levelo://app?vid=57e84e33-8ef2-49b0-9c52-2dd89adcc82a","ios":"levelo://app?vid=57e84e33-8ef2-49b0-9c52-2dd89adcc82a"},"vehicle_type_id":"4","last_reported":1751530503,"current_range_meters":17600,"station_id":"ce4bhmp2rcd13ifvqgog","pricing_plan_id":"cebpf4jnsgd1na2vs0mg"},{"bike_id":"36fd12af-e5b7-4323-935f-29548e0ac57f","system_id":"levelo_inurba_marseille","lat":43.32485,"lon":5.36549,"is_reserved":false,"is_disabled":false,"rental_uris":{"android":"levelo://app?vid=36fd12af-e5b7-4323-935f-29548e0ac57f","ios":"levelo://app?vid=36fd12af-e5b7-4323-935f-29548e0ac57f"},"vehicle_type_id":"4","last_reported":1751530503,"current_range_meters":17600,"station_id":"ce4bhs12rcd13ifvqhvg","pricing_plan_id":"cebpf4jnsgd1na2vs0mg"},{"bike_id":"3d734b9b-feca-4efe-bf62-25118b2a4b68","system_id":"levelo_inurba_marseille","lat":43.29572,"lon":5.37501,"is_reserved":false,"is_disabled":false,"rental_uris":{"android":"levelo://app?vid=3d734b9b-feca-4efe-bf62-25118b2a4b68","ios":"levelo://app?vid=3d734b9b-feca-4efe-bf62-25118b2a4b68"},"vehicle_type_id":"4","last_reported":1751530503,"current_range_meters":18000,"station_id":"ce4bgh92rcd13ifvqb50","pricing_plan_id":"cebpf4jnsgd1na2vs0mg"},{"bike_id":"53448929-ad6a-47c2-8f36-ea03d61aefc9","system_id":"levelo_inurba_marseille","lat":43.31358,"lon":5.36711,"is_reserved":false,"is_disabled":false,"rental_uris":{"android":"levelo://app?vid=53448929-ad6a-47c2-8f36-ea03d61aefc9","ios":"levelo://app?vid=53448929-ad6a-47c2-8f36-ea03d61aefc9"},"vehicle_type_id":"4","last_reported":1751530503,"current_range_meters":18000,"station_id":"ce4bgr92rcd13ifvqc6g","pricing_plan_id":"cebpf4jnsgd1na2vs0mg"},{"bike_id":"3f591852-ce23-4a61-a250-d6c35138bef4","system_id":"levelo_inurba_marseille","lat":43.31529,"lon":5.37294,"is_reserved":false,"is_disabled":false,"rental_uris":{"android":"levelo://app?vid=3f591852-ce23-4a61-a250-d6c35138bef4","ios":"levelo://app?vid=3f591852-ce23-4a61-a250-d6c35138bef4"},"vehicle_type_id":"4","last_reported":1751530503,"current_range_meters":18000,"station_id":"ce4bgt12rcd13ifvqcd0","pricing_plan_id":"cebpf4jnsgd1na2vs0mg"},{"bike_id":"c3640c43-a193-4b54-a226-8679e66db2bf","system_id":"levelo_inurba_marseille","lat":43.28494,"lon":5.38577,"is_reserved":false,"is_disabled":false,"rental_uris":{"android":"levelo://app?vid=c3640c43-a193-4b54-a226-8679e66db2bf","ios":"levelo://app?vid=c3640c43-a193-4b54-a226-8679e66db2bf"},"vehicle_type_id":"4","last_reported":1751530503,"current_range_meters":18000,"station_id":"ce4bh8p2rcd13ifvqeb0","pricing_plan_id":"cebpf4jnsgd1na2vs0mg"},{"bike_id":"4f3d8f3e-f1ee-46a4-ae2e-6e13012bbcfb","system_id":"levelo_inurba_marseille","lat":43.28153,"lon":5.42636,"is_reserved":false,"is_disabled":false,"rental_uris":{"android":"levelo://app?vid=4f3d8f3e-f1ee-46a4-ae2e-6e13012bbcfb","ios":"levelo://app?vid=4f3d8f3e-f1ee-46a4-ae2e-6e13012bbcfb"},"vehicle_type_id":"4","last_reported":1751530503,"current_range_meters":18000,"station_id":"ce4bhnh2rcd13ifvqgug","pricing_plan_id":"cebpf4jnsgd1na2vs0mg"},{"bike_id":"7e21e8f2-09c8-4cc5-8113-278ebd23888d","system_id":"levelo_inurba_marseille","lat":43.21191,"lon":5.35088,"is_reserved":false,"is_disabled":false,"rental_uris":{"android":"levelo://app?vid=7e21e8f2-09c8-4cc5-8113-278ebd23888d","ios":"levelo://app?vid=7e21e8f2-09c8-4cc5-8113-278ebd23888d"},"vehicle_type_id":"4","last_reported":1751530503,"current_range_meters":18000,"station_id":"st_cvj6sg6p6f1abm77japg","pricing_plan_id":"cebpf4jnsgd1na2vs0mg"},{"bike_id":"b2ce53ca-166b-417e-9d70-9bee393f75bb","system_id":"levelo_inurba_marseille","lat":43.211959,"lon":5.350679,"is_reserved":false,"is_disabled":false,"rental_uris":{"android":"levelo://app?vid=b2ce53ca-166b-417e-9d70-9bee393f75bb","ios":"levelo://app?vid=b2ce53ca-166b-417e-9d70-9bee393f75bb"},"vehicle_type_id":"4","last_reported":1751530503,"current_range_meters":18000,"station_id":"st_cvj6sg6p6f1abm77japg","pricing_plan_id":"cebpf4jnsgd1na2vs0mg"},{"bike_id":"c56df87e-156e-4f44-9a47-e39c9325c1d2","system_id":"levelo_inurba_marseille","lat":43.27936,"lon":5.3535,"is_reserved":false,"is_disabled":false,"rental_uris":{"android":"levelo://app?vid=c56df87e-156e-4f44-9a47-e39c9325c1d2","ios":"levelo://app?vid=c56df87e-156e-4f44-9a47-e39c9325c1d2"},"vehicle_type_id":"4","last_reported":1751530503,"current_range_meters":18800,"station_id":"","pricing_plan_id":"cebpf4jnsgd1na2vs0mg"},{"bike_id":"008fc02a-c9b0-4394-94ab-d231e1809b17","system_id":"levelo_inurba_marseille","lat":43.31237,"lon":5.36853,"is_reserved":false,"is_disabled":false,"rental_uris":{"android":"levelo://app?vid=008fc02a-c9b0-4394-94ab-d231e1809b17","ios":"levelo://app?vid=008fc02a-c9b0-4394-94ab-d231e1809b17"},"vehicle_type_id":"4","last_reported":1751530503,"current_range_meters":18800,"station_id":"ce4bgl92rcd13ifvqbq0","pricing_plan_id":"cebpf4jnsgd1na2vs0mg"},{"bike_id":"70ffe334-01b1-478f-a226-8a431fd990d6","system_id":"levelo_inurba_marseille","lat":43.30535,"lon":5.36722,"is_reserved":false,"is_disabled":false,"rental_uris":{"android":"levelo://app?vid=70ffe334-01b1-478f-a226-8a431fd990d6","ios":"levelo://app?vid=70ffe334-01b1-478f-a226-8a431fd990d6"},"vehicle_type_id":"4","last_reported":1751530503,"current_range_meters":18800,"station_id":"ce4bgrp2rcd13ifvqc9g","pricing_plan_id":"cebpf4jnsgd1na2vs0mg"},{"bike_id":"db469d08-c5c4-48b5-b750-bed73970a16f","system_id":"levelo_inurba_marseille","lat":43.28934,"lon":5.39613,"is_reserved":false,"is_disabled":false,"rental_uris":{"android":"levelo://app?vid=db469d08-c5c4-48b5-b750-bed73970a16f","ios":"levelo://app?vid=db469d08-c5c4-48b5-b750-bed73970a16f"},"vehicle_type_id":"4","last_reported":1751530503,"current_range_meters":18800,"station_id":"ce4bh3h2rcd13ifvqdn0","pricing_plan_id":"cebpf4jnsgd1na2vs0mg"},{"bike_id":"df2ad5da-c9c7-4100-b825-8bb9694e84cb","system_id":"levelo_inurba_marseille","lat":43.26211,"lon":5.37443,"is_reserved":false,"is_disabled":false,"rental_uris":{"android":"levelo://app?vid=df2ad5da-c9c7-4100-b825-8bb9694e84cb","ios":"levelo://app?vid=df2ad5da-c9c7-4100-b825-8bb9694e84cb"},"vehicle_type_id":"4","last_reported":1751530503,"current_range_meters":18800,"station_id":"ce4bhgp2rcd13ifvqfc0","pricing_plan_id":"cebpf4jnsgd1na2vs0mg"},{"bike_id":"ae195c61-bf72-473f-a114-65054d681cc9","system_id":"levelo_inurba_marseille","lat":43.244,"lon":5.37061,"is_reserved":false,"is_disabled":false,"rental_uris":{"android":"levelo://app?vid=ae195c61-bf72-473f-a114-65054d681cc9","ios":"levelo://app?vid=ae195c61-bf72-473f-a114-65054d681cc9"},"vehicle_type_id":"4","last_reported":1751530503,"current_range_meters":18800,"station_id":"ce4bhhh2rcd13ifvqfk0","pricing_plan_id":"cebpf4jnsgd1na2vs0mg"},{"bike_id":"ddc2b0a1-7108-433f-8e9e-c81dec3cc168","system_id":"levelo_inurba_marseille","lat":43.23965,"lon":5.36626,"is_reserved":false,"is_disabled":false,"rental_uris":{"android":"levelo://app?vid=ddc2b0a1-7108-433f-8e9e-c81dec3cc168","ios":"levelo://app?vid=ddc2b0a1-7108-433f-8e9e-c81dec3cc168"},"vehicle_type_id":"4","last_reported":1751530503,"current_range_meters":18800,"station_id":"ce4bhi12rcd13ifvqfp0","pricing_plan_id":"cebpf4jnsgd1na2vs0mg"},{"bike_id":"9e407ba8-2841-4932-8f97-01cd9325a67e","system_id":"levelo_inurba_marseille","lat":43.25727,"lon":5.41108,"is_reserved":false,"is_disabled":false,"rental_uris":{"android":"levelo://app?vid=9e407ba8-2841-4932-8f97-01cd9325a67e","ios":"levelo://app?vid=9e407ba8-2841-4932-8f97-01cd9325a67e"},"vehicle_type_id":"4","last_reported":1751530503,"current_range_meters":18800,"station_id":"ce4bhkp2rcd13ifvqgd0","pricing_plan_id":"cebpf4jnsgd1na2vs0mg"},{"bike_id":"072c1623-0cde-4bde-882e-9ebd9afe837d","system_id":"levelo_inurba_marseille","lat":43.23154,"lon":5.43714,"is_reserved":false,"is_disabled":false,"rental_uris":{"android":"levelo://app?vid=072c1623-0cde-4bde-882e-9ebd9afe837d","ios":"levelo://app?vid=072c1623-0cde-4bde-882e-9ebd9afe837d"},"vehicle_type_id":"4","last_reported":1751530503,"current_range_meters":18800,"station_id":"ce4bhmp2rcd13ifvqgog","pricing_plan_id":"cebpf4jnsgd1na2vs0mg"},{"bike_id":"47fb50fc-8fe4-4fec-abc7-60713e85d7bd","system_id":"levelo_inurba_marseille","lat":43.28701,"lon":5.39976,"is_reserved":false,"is_disabled":false,"rental_uris":{"android":"levelo://app?vid=47fb50fc-8fe4-4fec-abc7-60713e85d7bd","ios":"levelo://app?vid=47fb50fc-8fe4-4fec-abc7-60713e85d7bd"},"vehicle_type_id":"4","last_reported":1751530503,"current_range_meters":18800,"station_id":"ce4bho92rcd13ifvqh3g","pricing_plan_id":"cebpf4jnsgd1na2vs0mg"},{"bike_id":"cc04118e-9312-4bf8-9106-d64e829afbaa","system_id":"levelo_inurba_marseille","lat":43.211901,"lon":5.350739,"is_reserved":false,"is_disabled":false,"rental_uris":{"android":"levelo://app?vid=cc04118e-9312-4bf8-9106-d64e829afbaa","ios":"levelo://app?vid=cc04118e-9312-4bf8-9106-d64e829afbaa"},"vehicle_type_id":"4","last_reported":1751530503,"current_range_meters":18800,"station_id":"st_cvj6sg6p6f1abm77japg","pricing_plan_id":"cebpf4jnsgd1na2vs0mg"},{"bike_id":"1c8ab180-05fd-405f-9922-b2b2c2d5142f","system_id":"levelo_inurba_marseille","lat":43.337914,"lon":5.381175,"is_reserved":false,"is_disabled":false,"rental_uris":{"android":"levelo://app?vid=1c8ab180-05fd-405f-9922-b2b2c2d5142f","ios":"levelo://app?vid=1c8ab180-05fd-405f-9922-b2b2c2d5142f"},"vehicle_type_id":"4","last_reported":1751530503,"current_range_meters":19200,"station_id":"","pricing_plan_id":"cebpf4jnsgd1na2vs0mg"},{"bike_id":"51028876-31ee-4e14-9aaf-eac088c567df","system_id":"levelo_inurba_marseille","lat":43.25961,"lon":5.40835,"is_reserved":false,"is_disabled":false,"rental_uris":{"android":"levelo://app?vid=51028876-31ee-4e14-9aaf-eac088c567df","ios":"levelo://app?vid=51028876-31ee-4e14-9aaf-eac088c567df"},"vehicle_type_id":"4","last_reported":1751530503,"current_range_meters":19200,"station_id":"","pricing_plan_id":"cebpf4jnsgd1na2vs0mg"},{"bike_id":"9bfc0249-0074-48d3-bd65-3b0fb066d99f","system_id":"levelo_inurba_marseille","lat":43.30421,"lon":5.41289,"is_reserved":false,"is_disabled":false,"rental_uris":{"android":"levelo://app?vid=9bfc0249-0074-48d3-bd65-3b0fb066d99f","ios":"levelo://app?vid=9bfc0249-0074-48d3-bd65-3b0fb066d99f"},"vehicle_type_id":"4","last_reported":1751530503,"current_range_meters":19200,"station_id":"ce4bhop2rcd13ifvqh8g","pricing_plan_id":"cebpf4jnsgd1na2vs0mg"},{"bike_id":"a083d859-0263-47dd-a6ab-c3d19b89d625","system_id":"levelo_inurba_marseille","lat":43.3176,"lon":5.39013,"is_reserved":false,"is_disabled":false,"rental_uris":{"android":"levelo://app?vid=a083d859-0263-47dd-a6ab-c3d19b89d625","ios":"levelo://app?vid=a083d859-0263-47dd-a6ab-c3d19b89d625"},"vehicle_type_id":"4","last_reported":1751530503,"current_range_meters":19200,"station_id":"ce4bhqp2rcd13ifvqhng","pricing_plan_id":"cebpf4jnsgd1na2vs0mg"},{"bike_id":"0dbbfd7c-5e93-4301-aea8-6d89ce7ed33b","system_id":"levelo_inurba_marseille","lat":43.21755,"lon":5.34597,"is_reserved":false,"is_disabled":false,"rental_uris":{"android":"levelo://app?vid=0dbbfd7c-5e93-4301-aea8-6d89ce7ed33b","ios":"levelo://app?vid=0dbbfd7c-5e93-4301-aea8-6d89ce7ed33b"},"vehicle_type_id":"4","last_reported":1751530503,"current_range_meters":19200,"station_id":"st_cvj6r9ubvosntc0bgbag","pricing_plan_id":"cebpf4jnsgd1na2vs0mg"},{"bike_id":"0842b60a-2aa4-435e-9c3c-52a922da68f4","system_id":"levelo_inurba_marseille","lat":43.31166,"lon":5.38718,"is_reserved":false,"is_disabled":false,"rental_uris":{"android":"levelo://app?vid=0842b60a-2aa4-435e-9c3c-52a922da68f4","ios":"levelo://app?vid=0842b60a-2aa4-435e-9c3c-52a922da68f4"},"vehicle_type_id":"4","last_reported":1751530503,"current_range_meters":19600,"station_id":"","pricing_plan_id":"cebpf4jnsgd1na2vs0mg"},{"bike_id":"21522ee2-42a9-4834-bba1-e2afe9a37c3d","system_id":"levelo_inurba_marseille","lat":43.30927,"lon":5.36834,"is_reserved":false,"is_disabled":false,"rental_uris":{"android":"levelo://app?vid=21522ee2-42a9-4834-bba1-e2afe9a37c3d","ios":"levelo://app?vid=21522ee2-42a9-4834-bba1-e2afe9a37c3d"},"vehicle_type_id":"4","last_reported":1751530503,"current_range_meters":19600,"station_id":"ce4bgn92rcd13ifvqbvg","pricing_plan_id":"cebpf4jnsgd1na2vs0mg"},{"bike_id":"59f35f85-0f31-4708-81f7-b41aa3ffa0cf","system_id":"levelo_inurba_marseille","lat":43.31369,"lon":5.367,"is_reserved":false,"is_disabled":false,"rental_uris":{"android":"levelo://app?vid=59f35f85-0f31-4708-81f7-b41aa3ffa0cf","ios":"levelo://app?vid=59f35f85-0f31-4708-81f7-b41aa3ffa0cf"},"vehicle_type_id":"4","last_reported":1751530503,"current_range_meters":19600,"station_id":"ce4bgr92rcd13ifvqc6g","pricing_plan_id":"cebpf4jnsgd1na2vs0mg"},{"bike_id":"e9d26c79-d78f-4002-bc79-c4aa63e66364","system_id":"levelo_inurba_marseille","lat":43.311769,"lon":5.387103,"is_reserved":false,"is_disabled":false,"rental_uris":{"android":"levelo://app?vid=e9d26c79-d78f-4002-bc79-c4aa63e66364","ios":"levelo://app?vid=e9d26c79-d78f-4002-bc79-c4aa63e66364"},"vehicle_type_id":"4","last_reported":1751530503,"current_range_meters":19600,"station_id":"ce4bgv12rcd13ifvqcp0","pricing_plan_id":"cebpf4jnsgd1na2vs0mg"},{"bike_id":"1fec5f32-8b87-4aea-b22d-0f614d28af36","system_id":"levelo_inurba_marseille","lat":43.280316,"lon":5.369513,"is_reserved":false,"is_disabled":false,"rental_uris":{"android":"levelo://app?vid=1fec5f32-8b87-4aea-b22d-0f614d28af36","ios":"levelo://app?vid=1fec5f32-8b87-4aea-b22d-0f614d28af36"},"vehicle_type_id":"4","last_reported":1751530503,"current_range_meters":19600,"station_id":"ce4bha12rcd13ifvqef0","pricing_plan_id":"cebpf4jnsgd1na2vs0mg"},{"bike_id":"b4c35204-b5e4-4dac-8702-34316c5de557","system_id":"levelo_inurba_marseille","lat":43.24168,"lon":5.39708,"is_reserved":false,"is_disabled":false,"rental_uris":{"android":"levelo://app?vid=b4c35204-b5e4-4dac-8702-34316c5de557","ios":"levelo://app?vid=b4c35204-b5e4-4dac-8702-34316c5de557"},"vehicle_type_id":"4","last_reported":1751530503,"current_range_meters":19600,"station_id":"ce4bhn12rcd13ifvqgpg","pricing_plan_id":"cebpf4jnsgd1na2vs0mg"},{"bike_id":"5ecbe7d9-b835-47e3-87d6-0fd67017673c","system_id":"levelo_inurba_marseille","lat":43.3211,"lon":5.36758,"is_reserved":false,"is_disabled":false,"rental_uris":{"android":"levelo://app?vid=5ecbe7d9-b835-47e3-87d6-0fd67017673c","ios":"levelo://app?vid=5ecbe7d9-b835-47e3-87d6-0fd67017673c"},"vehicle_type_id":"4","last_reported":1751530503,"current_range_meters":19600,"station_id":"ce4bhrh2rcd13ifvqhug","pricing_plan_id":"cebpf4jnsgd1na2vs0mg"},{"bike_id":"5f1e5526-9ff8-4075-8194-48a897f058b4","system_id":"levelo_inurba_marseille","lat":43.21166,"lon":5.35061,"is_reserved":false,"is_disabled":false,"rental_uris":{"android":"levelo://app?vid=5f1e5526-9ff8-4075-8194-48a897f058b4","ios":"levelo://app?vid=5f1e5526-9ff8-4075-8194-48a897f058b4"},"vehicle_type_id":"4","last_reported":1751530503,"current_range_meters":19600,"station_id":"st_cvj6sg6p6f1abm77japg","pricing_plan_id":"cebpf4jnsgd1na2vs0mg"},{"bike_id":"a805ec4a-12c3-450a-9387-d8995d892915","system_id":"levelo_inurba_marseille","lat":43.30611,"lon":5.3723,"is_reserved":false,"is_disabled":false,"rental_uris":{"android":"levelo://app?vid=a805ec4a-12c3-450a-9387-d8995d892915","ios":"levelo://app?vid=a805ec4a-12c3-450a-9387-d8995d892915"},"vehicle_type_id":"4","last_reported":1751530503,"current_range_meters":20000,"station_id":"ce4bgqh2rcd13ifvqc4g","pricing_plan_id":"cebpf4jnsgd1na2vs0mg"},{"bike_id":"46fbdaa4-00fd-4bf0-9074-ed13cf67bb5c","system_id":"levelo_inurba_marseille","lat":43.30968,"lon":5.39052,"is_reserved":false,"is_disabled":false,"rental_uris":{"android":"levelo://app?vid=46fbdaa4-00fd-4bf0-9074-ed13cf67bb5c","ios":"levelo://app?vid=46fbdaa4-00fd-4bf0-9074-ed13cf67bb5c"},"vehicle_type_id":"4","last_reported":1751530503,"current_range_meters":20000,"station_id":"ce4bgup2rcd13ifvqco0","pricing_plan_id":"cebpf4jnsgd1na2vs0mg"},{"bike_id":"c8d55e29-e013-4acc-a46e-dbee6b56ed89","system_id":"levelo_inurba_marseille","lat":43.28343,"lon":5.38097,"is_reserved":false,"is_disabled":false,"rental_uris":{"android":"levelo://app?vid=c8d55e29-e013-4acc-a46e-dbee6b56ed89","ios":"levelo://app?vid=c8d55e29-e013-4acc-a46e-dbee6b56ed89"},"vehicle_type_id":"4","last_reported":1751530503,"current_range_meters":20000,"station_id":"ce4bh412rcd13ifvqdr0","pricing_plan_id":"cebpf4jnsgd1na2vs0mg"},{"bike_id":"b7f4c6d1-5c77-4a9b-8e4e-6c52d4c8d7ce","system_id":"levelo_inurba_marseille","lat":43.24188,"lon":5.39719,"is_reserved":false,"is_disabled":false,"rental_uris":{"android":"levelo://app?vid=b7f4c6d1-5c77-4a9b-8e4e-6c52d4c8d7ce","ios":"levelo://app?vid=b7f4c6d1-5c77-4a9b-8e4e-6c52d4c8d7ce"},"vehicle_type_id":"4","last_reported":1751530503,"current_range_meters":20000,"station_id":"ce4bhn12rcd13ifvqgpg","pricing_plan_id":"cebpf4jnsgd1na2vs0mg"},{"bike_id":"08e81811-c9ab-430d-a98b-a4424b37dd49","system_id":"levelo_inurba_marseille","lat":43.29553,"lon":5.42287,"is_reserved":false,"is_disabled":false,"rental_uris":{"android":"levelo://app?vid=08e81811-c9ab-430d-a98b-a4424b37dd49","ios":"levelo://app?vid=08e81811-c9ab-430d-a98b-a4424b37dd49"},"vehicle_type_id":"4","last_reported":1751530503,"current_range_meters":20000,"station_id":"ce4bhph2rcd13ifvqhdg","pricing_plan_id":"cebpf4jnsgd1na2vs0mg"},{"bike_id":"32c0fc37-6823-41d0-9497-8d1eea24742c","system_id":"levelo_inurba_marseille","lat":43.241686,"lon":5.363988,"is_reserved":false,"is_disabled":false,"rental_uris":{"android":"levelo://app?vid=32c0fc37-6823-41d0-9497-8d1eea24742c","ios":"levelo://app?vid=32c0fc37-6823-41d0-9497-8d1eea24742c"},"vehicle_type_id":"4","last_reported":1751530503,"current_range_meters":20000,"station_id":"cpo36qri1sfpv3e86is0","pricing_plan_id":"cebpf4jnsgd1na2vs0mg"},{"bike_id":"3eabe1e2-f9f5-41cb-a4ed-73ca7f909c5c","system_id":"levelo_inurba_marseille","lat":43.2119,"lon":5.35072,"is_reserved":false,"is_disabled":false,"rental_uris":{"android":"levelo://app?vid=3eabe1e2-f9f5-41cb-a4ed-73ca7f909c5c","ios":"levelo://app?vid=3eabe1e2-f9f5-41cb-a4ed-73ca7f909c5c"},"vehicle_type_id":"4","last_reported":1751530503,"current_range_meters":20000,"station_id":"st_cvj6sg6p6f1abm77japg","pricing_plan_id":"cebpf4jnsgd1na2vs0mg"},{"bike_id":"ba926bfc-9632-4680-b0ed-32a040d6fb83","system_id":"levelo_inurba_marseille","lat":43.211911,"lon":5.350714,"is_reserved":false,"is_disabled":false,"rental_uris":{"android":"levelo://app?vid=ba926bfc-9632-4680-b0ed-32a040d6fb83","ios":"levelo://app?vid=ba926bfc-9632-4680-b0ed-32a040d6fb83"},"vehicle_type_id":"4","last_reported":1751530503,"current_range_meters":20000,"station_id":"st_cvj6sg6p6f1abm77japg","pricing_plan_id":"cebpf4jnsgd1na2vs0mg"},{"bike_id":"b13877a6-4825-4d82-b46b-67fa8ad66c5d","system_id":"levelo_inurba_marseille","lat":43.21189,"lon":5.3507,"is_reserved":false,"is_disabled":false,"rental_uris":{"android":"levelo://app?vid=b13877a6-4825-4d82-b46b-67fa8ad66c5d","ios":"levelo://app?vid=b13877a6-4825-4d82-b46b-67fa8ad66c5d"},"vehicle_type_id":"4","last_reported":1751530503,"current_range_meters":20000,"station_id":"st_cvj6sg6p6f1abm77japg","pricing_plan_id":"cebpf4jnsgd1na2vs0mg"},{"bike_id":"7712491c-e18b-4b09-bb79-30880b357c07","system_id":"levelo_inurba_marseille","lat":43.21194,"lon":5.35072,"is_reserved":false,"is_disabled":false,"rental_uris":{"android":"levelo://app?vid=7712491c-e18b-4b09-bb79-30880b357c07","ios":"levelo://app?vid=7712491c-e18b-4b09-bb79-30880b357c07"},"vehicle_type_id":"4","last_reported":1751530503,"current_range_meters":20000,"station_id":"st_cvj6sg6p6f1abm77japg","pricing_plan_id":"cebpf4jnsgd1na2vs0mg"},{"bike_id":"63acad33-6ce0-4879-bb8b-7b4910bd10f3","system_id":"levelo_inurba_marseille","lat":43.247346,"lon":5.411664,"is_reserved":false,"is_disabled":false,"rental_uris":{"android":"levelo://app?vid=63acad33-6ce0-4879-bb8b-7b4910bd10f3","ios":"levelo://app?vid=63acad33-6ce0-4879-bb8b-7b4910bd10f3"},"vehicle_type_id":"4","last_reported":1751530503,"current_range_meters":20400,"station_id":"","pricing_plan_id":"cebpf4jnsgd1na2vs0mg"},{"bike_id":"1aca67c7-3baa-4d83-bf2d-e699bdd3c92d","system_id":"levelo_inurba_marseille","lat":43.309036,"lon":5.372044,"is_reserved":false,"is_disabled":false,"rental_uris":{"android":"levelo://app?vid=1aca67c7-3baa-4d83-bf2d-e699bdd3c92d","ios":"levelo://app?vid=1aca67c7-3baa-4d83-bf2d-e699bdd3c92d"},"vehicle_type_id":"4","last_reported":1751530503,"current_range_meters":20400,"station_id":"ce4bguh2rcd13ifvqckg","pricing_plan_id":"cebpf4jnsgd1na2vs0mg"},{"bike_id":"5bfc71b4-ff3e-45a0-beac-583919d6daa1","system_id":"levelo_inurba_marseille","lat":43.26214,"lon":5.37435,"is_reserved":false,"is_disabled":false,"rental_uris":{"android":"levelo://app?vid=5bfc71b4-ff3e-45a0-beac-583919d6daa1","ios":"levelo://app?vid=5bfc71b4-ff3e-45a0-beac-583919d6daa1"},"vehicle_type_id":"4","last_reported":1751530503,"current_range_meters":20400,"station_id":"ce4bhgp2rcd13ifvqfc0","pricing_plan_id":"cebpf4jnsgd1na2vs0mg"},{"bike_id":"a163f6e1-d980-4c7e-8c61-661e5d6a09e9","system_id":"levelo_inurba_marseille","lat":43.24679,"lon":5.38161,"is_reserved":false,"is_disabled":false,"rental_uris":{"android":"levelo://app?vid=a163f6e1-d980-4c7e-8c61-661e5d6a09e9","ios":"levelo://app?vid=a163f6e1-d980-4c7e-8c61-661e5d6a09e9"},"vehicle_type_id":"4","last_reported":1751530503,"current_range_meters":20400,"station_id":"ce4bhih2rcd13ifvqfr0","pricing_plan_id":"cebpf4jnsgd1na2vs0mg"},{"bike_id":"39fa5f31-4afa-4271-a36e-400e3970d6f0","system_id":"levelo_inurba_marseille","lat":43.303737,"lon":5.375883,"is_reserved":false,"is_disabled":false,"rental_uris":{"android":"levelo://app?vid=39fa5f31-4afa-4271-a36e-400e3970d6f0","ios":"levelo://app?vid=39fa5f31-4afa-4271-a36e-400e3970d6f0"},"vehicle_type_id":"4","last_reported":1751530503,"current_range_meters":20800,"station_id":"","pricing_plan_id":"cebpf4jnsgd1na2vs0mg"},{"bike_id":"46d151c4-03f9-49a1-a55d-c1ec7c5ffada","system_id":"levelo_inurba_marseille","lat":43.31116,"lon":5.37774,"is_reserved":false,"is_disabled":false,"rental_uris":{"android":"levelo://app?vid=46d151c4-03f9-49a1-a55d-c1ec7c5ffada","ios":"levelo://app?vid=46d151c4-03f9-49a1-a55d-c1ec7c5ffada"},