{"last_updated":1774024260,"ttl":60,"version":"2.2","data":{"bikes":[{"bike_id":"cf21a704-d1d6-45ac-b508-b7d48f023c9f","system_id":"levelo_inurba_marseille","lat":43.32114,"lon":5.3682,"is_reserved":false,"is_disabled":false,"rental_uris":{"android":"levelo://app?vid=cf21a704-d1d6-45ac-b508-b7d48f023c9f","ios":"levelo://app?vid=cf21a704-d1d6-45ac-b508-b7d48f023c9f"},"vehicle_type_id":"4","last_reported":1774024261,"current_range_meters":2800,"station_id":"","pricing_plan_id":"cebpf4jnsgd1na2vs0mg"},{"bike_id":"6f8fd391-912a-4326-a800-9022d0b52bc0","system_id":"levelo_inurba_marseille","lat":43.26557,"lon":5.37304,"is_reserved":false,"is_disabled":false,"rental_uris":{"android":"levelo://app?vid=6f8fd391-912a-4326-a800-9022d0b52bc0","ios":"levelo://app?vid=6f8fd391-912a-4326-a800-9022d0b52bc0"},"vehicle_type_id":"4","last_reported":1774024261,"current_range_meters":2800,"station_id":"ce4bhg12rcd13ifvqf70","pricing_plan_id":"cebpf4jnsgd1na2vs0mg"},{"bike_id":"a2415249-a447-4fe6-b3e2-747a437014b5","system_id":"levelo_inurba_marseille","lat":43.29036,"lon":5.39978,"is_reserved":false,"is_disabled":false,"rental_uris":{"android":"levelo://app?vid=a2415249-a447-4fe6-b3e2-747a437014b5","ios":"levelo://app?vid=a2415249-a447-4fe6-b3e2-747a437014b5"},"vehicle_type_id":"4","last_reported":1774024261,"current_range_meters":2800,"station_id":"ce4bh392rcd13ifvqdm0","pricing_plan_id":"cebpf4jnsgd1na2vs0mg"},{"bike_id":"e00c160b-e3af-4048-b5c0-bd714e111b90","system_id":"levelo_inurba_marseille","lat":43.30889,"lon":5.39622,"is_reserved":false,"is_disabled":false,"rental_uris":{"android":"levelo://app?vid=e00c160b-e3af-4048-b5c0-bd714e111b90","ios":"levelo://app?vid=e00c160b-e3af-4048-b5c0-bd714e111b90"},"vehicle_type_id":"4","last_reported":1774024261,"current_range_meters":2800,"station_id":"ce4bh012rcd13ifvqcv0","pricing_plan_id":"cebpf4jnsgd1na2vs0mg"},{"bike_id":"acad79a9-8053-4b91-a958-7018934a709e","system_id":"levelo_inurba_marseille","lat":43.287003,"lon":5.362617,"is_reserved":false,"is_disabled":false,"rental_uris":{"android":"levelo://app?vid=acad79a9-8053-4b91-a958-7018934a709e","ios":"levelo://app?vid=acad79a9-8053-4b91-a958-7018934a709e"},"vehicle_type_id":"4","last_reported":1774024261,"current_range_meters":2800,"station_id":"ce4bhah2rcd13ifvqej0","pricing_plan_id":"cebpf4jnsgd1na2vs0mg"},{"bike_id":"f09bf74a-f9b5-418f-821f-8b3ae619f04d","system_id":"levelo_inurba_marseille","lat":43.29276,"lon":5.38452,"is_reserved":false,"is_disabled":false,"rental_uris":{"android":"levelo://app?vid=f09bf74a-f9b5-418f-821f-8b3ae619f04d","ios":"levelo://app?vid=f09bf74a-f9b5-418f-821f-8b3ae619f04d"},"vehicle_type_id":"4","last_reported":1774024261,"current_range_meters":2800,"station_id":"ce4bh692rcd13ifvqea0","pricing_plan_id":"cebpf4jnsgd1na2vs0mg"},{"bike_id":"69fc0ef4-707f-4aa8-9a5a-c7a14c2ef0d0","system_id":"levelo_inurba_marseille","lat":43.24651,"lon":5.38897,"is_reserved":false,"is_disabled":false,"rental_uris":{"android":"levelo://app?vid=69fc0ef4-707f-4aa8-9a5a-c7a14c2ef0d0","ios":"levelo://app?vid=69fc0ef4-707f-4aa8-9a5a-c7a14c2ef0d0"},"vehicle_type_id":"4","last_reported":1774024261,"current_range_meters":2800,"station_id":"ce4bhg12rcd13ifvqf60","pricing_plan_id":"cebpf4jnsgd1na2vs0mg"},{"bike_id":"3231a3d8-4e7a-440a-b3ba-e0360e4c541a","system_id":"levelo_inurba_marseille","lat":43.28398,"lon":5.37519,"is_reserved":false,"is_disabled":false,"rental_uris":{"android":"levelo://app?vid=3231a3d8-4e7a-440a-b3ba-e0360e4c541a","ios":"levelo://app?vid=3231a3d8-4e7a-440a-b3ba-e0360e4c541a"},"vehicle_type_id":"4","last_reported":1774024261,"current_range_meters":2800,"station_id":"ce4bh412rcd13ifvqds0","pricing_plan_id":"cebpf4jnsgd1na2vs0mg"},{"bike_id":"c0a5e0cb-db1b-48bd-b790-cbea2541c361","system_id":"levelo_inurba_marseille","lat":43.27325,"lon":5.39074,"is_reserved":false,"is_disabled":false,"rental_uris":{"android":"levelo://app?vid=c0a5e0cb-db1b-48bd-b790-cbea2541c361","ios":"levelo://app?vid=c0a5e0cb-db1b-48bd-b790-cbea2541c361"},"vehicle_type_id":"4","last_reported":1774024261,"current_range_meters":3200,"station_id":"ce4bhgp2rcd13ifvqfe0","pricing_plan_id":"cebpf4jnsgd1na2vs0mg"},{"bike_id":"d3242fea-cd53-4573-9b6c-cfc3df156830","system_id":"levelo_inurba_marseille","lat":43.30764,"lon":5.39573,"is_reserved":false,"is_disabled":false,"rental_uris":{"android":"levelo://app?vid=d3242fea-cd53-4573-9b6c-cfc3df156830","ios":"levelo://app?vid=d3242fea-cd53-4573-9b6c-cfc3df156830"},"vehicle_type_id":"4","last_reported":1774024261,"current_range_meters":3200,"station_id":"","pricing_plan_id":"cebpf4jnsgd1na2vs0mg"},{"bike_id":"8a854e0a-3b9f-471d-80f2-bfadb0595e6b","system_id":"levelo_inurba_marseille","lat":43.31096,"lon":5.37833,"is_reserved":false,"is_disabled":false,"rental_uris":{"android":"levelo://app?vid=8a854e0a-3b9f-471d-80f2-bfadb0595e6b","ios":"levelo://app?vid=8a854e0a-3b9f-471d-80f2-bfadb0595e6b"},"vehicle_type_id":"4","last_reported":1774024261,"current_range_meters":3200,"station_id":"","pricing_plan_id":"cebpf4jnsgd1na2vs0mg"},{"bike_id":"cd89b4bf-630c-407a-a4a5-8b8420a8426b","system_id":"levelo_inurba_marseille","lat":43.28999,"lon":5.35604,"is_reserved":false,"is_disabled":false,"rental_uris":{"android":"levelo://app?vid=cd89b4bf-630c-407a-a4a5-8b8420a8426b","ios":"levelo://app?vid=cd89b4bf-630c-407a-a4a5-8b8420a8426b"},"vehicle_type_id":"4","last_reported":1774024261,"current_range_meters":3200,"station_id":"ce4bhb92rcd13ifvqen0","pricing_plan_id":"cebpf4jnsgd1na2vs0mg"},{"bike_id":"f453ba79-8cae-47e0-adfb-91c6817d5725","system_id":"levelo_inurba_marseille","lat":43.26035,"lon":5.37551,"is_reserved":false,"is_disabled":false,"rental_uris":{"android":"levelo://app?vid=f453ba79-8cae-47e0-adfb-91c6817d5725","ios":"levelo://app?vid=f453ba79-8cae-47e0-adfb-91c6817d5725"},"vehicle_type_id":"4","last_reported":1774024261,"current_range_meters":3200,"station_id":"ce4bhgh2rcd13ifvqfa0","pricing_plan_id":"cebpf4jnsgd1na2vs0mg"},{"bike_id":"dd10efc5-28b9-436a-be78-8011941e89fc","system_id":"levelo_inurba_marseille","lat":43.28479,"lon":5.48403,"is_reserved":false,"is_disabled":false,"rental_uris":{"android":"levelo://app?vid=dd10efc5-28b9-436a-be78-8011941e89fc","ios":"levelo://app?vid=dd10efc5-28b9-436a-be78-8011941e89fc"},"vehicle_type_id":"4","last_reported":1774024261,"current_range_meters":3200,"station_id":"st_d3svhcjqgbts73a3dn0g","pricing_plan_id":"cebpf4jnsgd1na2vs0mg"},{"bike_id":"299e519b-3b2c-4aa3-9af1-362f343fe8f8","system_id":"levelo_inurba_marseille","lat":43.23801,"lon":5.36612,"is_reserved":false,"is_disabled":false,"rental_uris":{"android":"levelo://app?vid=299e519b-3b2c-4aa3-9af1-362f343fe8f8","ios":"levelo://app?vid=299e519b-3b2c-4aa3-9af1-362f343fe8f8"},"vehicle_type_id":"4","last_reported":1774024261,"current_range_meters":3200,"station_id":"st_d3nk18o9ro0c73en2l3g","pricing_plan_id":"cebpf4jnsgd1na2vs0mg"},{"bike_id":"3ed4bc13-b22d-44b4-aa6f-19f196c483da","system_id":"levelo_inurba_marseille","lat":43.24167,"lon":5.36452,"is_reserved":false,"is_disabled":false,"rental_uris":{"android":"levelo://app?vid=3ed4bc13-b22d-44b4-aa6f-19f196c483da","ios":"levelo://app?vid=3ed4bc13-b22d-44b4-aa6f-19f196c483da"},"vehicle_type_id":"4","last_reported":1774024261,"current_range_meters":3200,"station_id":"cpo36qri1sfpv3e86is0","pricing_plan_id":"cebpf4jnsgd1na2vs0mg"},{"bike_id":"39421cf9-7a72-4fc3-a879-2901ca5d5846","system_id":"levelo_inurba_marseille","lat":43.23792,"lon":5.36631,"is_reserved":false,"is_disabled":false,"rental_uris":{"android":"levelo://app?vid=39421cf9-7a72-4fc3-a879-2901ca5d5846","ios":"levelo://app?vid=39421cf9-7a72-4fc3-a879-2901ca5d5846"},"vehicle_type_id":"4","last_reported":1774024261,"current_range_meters":3200,"station_id":"st_d3nk18o9ro0c73en2l3g","pricing_plan_id":"cebpf4jnsgd1na2vs0mg"},{"bike_id":"0cbe5d65-8750-47dc-8602-e36aefc95967","system_id":"levelo_inurba_marseille","lat":43.24179,"lon":5.36444,"is_reserved":false,"is_disabled":false,"rental_uris":{"android":"levelo://app?vid=0cbe5d65-8750-47dc-8602-e36aefc95967","ios":"levelo://app?vid=0cbe5d65-8750-47dc-8602-e36aefc95967"},"vehicle_type_id":"4","last_reported":1774024261,"current_range_meters":3200,"station_id":"cpo36qri1sfpv3e86is0","pricing_plan_id":"cebpf4jnsgd1na2vs0mg"},{"bike_id":"02bf6305-88f9-4978-9aa5-1ddf5d666c98","system_id":"levelo_inurba_marseille","lat":43.30442,"lon":5.38898,"is_reserved":false,"is_disabled":false,"rental_uris":{"android":"levelo://app?vid=02bf6305-88f9-4978-9aa5-1ddf5d666c98","ios":"levelo://app?vid=02bf6305-88f9-4978-9aa5-1ddf5d666c98"},"vehicle_type_id":"4","last_reported":1774024261,"current_range_meters":3200,"station_id":"ce4bgk12rcd13ifvqbi0","pricing_plan_id":"cebpf4jnsgd1na2vs0mg"},{"bike_id":"4c6a4d6a-2427-4c2c-bc2d-a0973ca4e7b9","system_id":"levelo_inurba_marseille","lat":43.27954,"lon":5.41649,"is_reserved":false,"is_disabled":false,"rental_uris":{"android":"levelo://app?vid=4c6a4d6a-2427-4c2c-bc2d-a0973ca4e7b9","ios":"levelo://app?vid=4c6a4d6a-2427-4c2c-bc2d-a0973ca4e7b9"},"vehicle_type_id":"4","last_reported":1774024261,"current_range_meters":3200,"station_id":"ce4bho12rcd13ifvqh1g","pricing_plan_id":"cebpf4jnsgd1na2vs0mg"},{"bike_id":"7282c796-65e5-4d4b-9901-73c22559ad53","system_id":"levelo_inurba_marseille","lat":43.25131,"lon":5.40322,"is_reserved":false,"is_disabled":false,"rental_uris":{"android":"levelo://app?vid=7282c796-65e5-4d4b-9901-73c22559ad53","ios":"levelo://app?vid=7282c796-65e5-4d4b-9901-73c22559ad53"},"vehicle_type_id":"4","last_reported":1774024261,"current_range_meters":3200,"station_id":"ce4bhlh2rcd13ifvqgig","pricing_plan_id":"cebpf4jnsgd1na2vs0mg"},{"bike_id":"692930df-6ce1-42eb-baeb-4f1bf2f648b0","system_id":"levelo_inurba_marseille","lat":43.28036,"lon":5.36952,"is_reserved":false,"is_disabled":false,"rental_uris":{"android":"levelo://app?vid=692930df-6ce1-42eb-baeb-4f1bf2f648b0","ios":"levelo://app?vid=692930df-6ce1-42eb-baeb-4f1bf2f648b0"},"vehicle_type_id":"4","last_reported":1774024261,"current_range_meters":3200,"station_id":"ce4bha12rcd13ifvqef0","pricing_plan_id":"cebpf4jnsgd1na2vs0mg"},{"bike_id":"ec327ac2-9680-48a1-8584-22f43bc41c50","system_id":"levelo_inurba_marseille","lat":43.29264,"lon":5.37619,"is_reserved":false,"is_disabled":true,"rental_uris":{"android":"levelo://app?vid=ec327ac2-9680-48a1-8584-22f43bc41c50","ios":"levelo://app?vid=ec327ac2-9680-48a1-8584-22f43bc41c50"},"vehicle_type_id":"4","last_reported":1774024261,"current_range_meters":3200,"station_id":"ce4bgi12rcd13ifvqb80","pricing_plan_id":"cebpf4jnsgd1na2vs0mg"},{"bike_id":"b7aeed02-7366-4c63-99bf-e1a7ffba4505","system_id":"levelo_inurba_marseille","lat":43.29508,"lon":5.39399,"is_reserved":false,"is_disabled":false,"rental_uris":{"android":"levelo://app?vid=b7aeed02-7366-4c63-99bf-e1a7ffba4505","ios":"levelo://app?vid=b7aeed02-7366-4c63-99bf-e1a7ffba4505"},"vehicle_type_id":"4","last_reported":1774024261,"current_range_meters":3600,"station_id":"ce4bh292rcd13ifvqdf0","pricing_plan_id":"cebpf4jnsgd1na2vs0mg"},{"bike_id":"3f9fb310-6fac-4137-b487-279ff0e33710","system_id":"levelo_inurba_marseille","lat":43.26027,"lon":5.37559,"is_reserved":false,"is_disabled":false,"rental_uris":{"android":"levelo://app?vid=3f9fb310-6fac-4137-b487-279ff0e33710","ios":"levelo://app?vid=3f9fb310-6fac-4137-b487-279ff0e33710"},"vehicle_type_id":"4","last_reported":1774024261,"current_range_meters":3600,"station_id":"ce4bhgh2rcd13ifvqfa0","pricing_plan_id":"cebpf4jnsgd1na2vs0mg"},{"bike_id":"ae3653ee-4b50-4f8a-971b-1802190756aa","system_id":"levelo_inurba_marseille","lat":43.28418,"lon":5.34989,"is_reserved":false,"is_disabled":false,"rental_uris":{"android":"levelo://app?vid=ae3653ee-4b50-4f8a-971b-1802190756aa","ios":"levelo://app?vid=ae3653ee-4b50-4f8a-971b-1802190756aa"},"vehicle_type_id":"4","last_reported":1774024261,"current_range_meters":3600,"station_id":"ce4bhbh2rcd13ifvqepg","pricing_plan_id":"cebpf4jnsgd1na2vs0mg"},{"bike_id":"24e02049-7d35-48ad-9eee-757709960f87","system_id":"levelo_inurba_marseille","lat":43.26034,"lon":5.37556,"is_reserved":false,"is_disabled":false,"rental_uris":{"android":"levelo://app?vid=24e02049-7d35-48ad-9eee-757709960f87","ios":"levelo://app?vid=24e02049-7d35-48ad-9eee-757709960f87"},"vehicle_type_id":"4","last_reported":1774024261,"current_range_meters":3600,"station_id":"ce4bhgh2rcd13ifvqfa0","pricing_plan_id":"cebpf4jnsgd1na2vs0mg"},{"bike_id":"d5f7f0bf-c4f5-45e1-bf7d-f4959ca7505e","system_id":"levelo_inurba_marseille","lat":43.24392,"lon":5.37071,"is_reserved":false,"is_disabled":false,"rental_uris":{"android":"levelo://app?vid=d5f7f0bf-c4f5-45e1-bf7d-f4959ca7505e","ios":"levelo://app?vid=d5f7f0bf-c4f5-45e1-bf7d-f4959ca7505e"},"vehicle_type_id":"4","last_reported":1774024261,"current_range_meters":3600,"station_id":"ce4bhhh2rcd13ifvqfk0","pricing_plan_id":"cebpf4jnsgd1na2vs0mg"},{"bike_id":"7aa76d63-8997-408c-9488-50d23a10fa06","system_id":"levelo_inurba_marseille","lat":43.28418,"lon":5.37531,"is_reserved":false,"is_disabled":false,"rental_uris":{"android":"levelo://app?vid=7aa76d63-8997-408c-9488-50d23a10fa06","ios":"levelo://app?vid=7aa76d63-8997-408c-9488-50d23a10fa06"},"vehicle_type_id":"4","last_reported":1774024261,"current_range_meters":3600,"station_id":"ce4bh412rcd13ifvqds0","pricing_plan_id":"cebpf4jnsgd1na2vs0mg"},{"bike_id":"f372304f-87d8-4d54-9ba9-9055f396662e","system_id":"levelo_inurba_marseille","lat":43.30754,"lon":5.44022,"is_reserved":false,"is_disabled":false,"rental_uris":{"android":"levelo://app?vid=f372304f-87d8-4d54-9ba9-9055f396662e","ios":"levelo://app?vid=f372304f-87d8-4d54-9ba9-9055f396662e"},"vehicle_type_id":"4","last_reported":1774024261,"current_range_meters":3600,"station_id":"","pricing_plan_id":"cebpf4jnsgd1na2vs0mg"},{"bike_id":"5c6fc4f8-f404-4f47-99ff-34aa41da138d","system_id":"levelo_inurba_marseille","lat":43.29041,"lon":5.35593,"is_reserved":false,"is_disabled":false,"rental_uris":{"android":"levelo://app?vid=5c6fc4f8-f404-4f47-99ff-34aa41da138d","ios":"levelo://app?vid=5c6fc4f8-f404-4f47-99ff-34aa41da138d"},"vehicle_type_id":"4","last_reported":1774024261,"current_range_meters":3600,"station_id":"ce4bhb92rcd13ifvqen0","pricing_plan_id":"cebpf4jnsgd1na2vs0mg"},{"bike_id":"2b29c9a8-f15d-4c2d-8470-f1208d2d4433","system_id":"levelo_inurba_marseille","lat":43.23955,"lon":5.36642,"is_reserved":false,"is_disabled":false,"rental_uris":{"android":"levelo://app?vid=2b29c9a8-f15d-4c2d-8470-f1208d2d4433","ios":"levelo://app?vid=2b29c9a8-f15d-4c2d-8470-f1208d2d4433"},"vehicle_type_id":"4","last_reported":1774024261,"current_range_meters":3600,"station_id":"ce4bhi12rcd13ifvqfp0","pricing_plan_id":"cebpf4jnsgd1na2vs0mg"},{"bike_id":"e193d30c-bc14-428c-aa8b-69aacbc22c20","system_id":"levelo_inurba_marseille","lat":43.32078,"lon":5.36805,"is_reserved":false,"is_disabled":false,"rental_uris":{"android":"levelo://app?vid=e193d30c-bc14-428c-aa8b-69aacbc22c20","ios":"levelo://app?vid=e193d30c-bc14-428c-aa8b-69aacbc22c20"},"vehicle_type_id":"4","last_reported":1774024261,"current_range_meters":3600,"station_id":"ce4bhrh2rcd13ifvqhug","pricing_plan_id":"cebpf4jnsgd1na2vs0mg"},{"bike_id":"06ce4f90-d2c1-4cdf-8e92-af4e6c83cb49","system_id":"levelo_inurba_marseille","lat":43.29016,"lon":5.35628,"is_reserved":false,"is_disabled":true,"rental_uris":{"android":"levelo://app?vid=06ce4f90-d2c1-4cdf-8e92-af4e6c83cb49","ios":"levelo://app?vid=06ce4f90-d2c1-4cdf-8e92-af4e6c83cb49"},"vehicle_type_id":"4","last_reported":1774024261,"current_range_meters":3600,"station_id":"ce4bhb92rcd13ifvqen0","pricing_plan_id":"cebpf4jnsgd1na2vs0mg"},{"bike_id":"29cf31b9-f737-416e-a682-430331146364","system_id":"levelo_inurba_marseille","lat":43.29554,"lon":5.42294,"is_reserved":false,"is_disabled":false,"rental_uris":{"android":"levelo://app?vid=29cf31b9-f737-416e-a682-430331146364","ios":"levelo://app?vid=29cf31b9-f737-416e-a682-430331146364"},"vehicle_type_id":"4","last_reported":1774024261,"current_range_meters":3600,"station_id":"ce4bhph2rcd13ifvqhdg","pricing_plan_id":"cebpf4jnsgd1na2vs0mg"},{"bike_id":"ae9173e4-63f8-41be-b3ae-c8712eefde25","system_id":"levelo_inurba_marseille","lat":43.30125,"lon":5.39857,"is_reserved":false,"is_disabled":false,"rental_uris":{"android":"levelo://app?vid=ae9173e4-63f8-41be-b3ae-c8712eefde25","ios":"levelo://app?vid=ae9173e4-63f8-41be-b3ae-c8712eefde25"},"vehicle_type_id":"4","last_reported":1774024261,"current_range_meters":3600,"station_id":"ce4bh0h2rcd13ifvqd40","pricing_plan_id":"cebpf4jnsgd1na2vs0mg"},{"bike_id":"d8c7c212-d8a5-472e-ac30-af2c7449cc7c","system_id":"levelo_inurba_marseille","lat":43.26807,"lon":5.4027,"is_reserved":false,"is_disabled":false,"rental_uris":{"android":"levelo://app?vid=d8c7c212-d8a5-472e-ac30-af2c7449cc7c","ios":"levelo://app?vid=d8c7c212-d8a5-472e-ac30-af2c7449cc7c"},"vehicle_type_id":"4","last_reported":1774024261,"current_range_meters":3600,"station_id":"ce501612rcd8frsf0b60","pricing_plan_id":"cebpf4jnsgd1na2vs0mg"},{"bike_id":"cdfb02df-3850-4a0d-a0b2-ee015beeefec","system_id":"levelo_inurba_marseille","lat":43.28606,"lon":5.39878,"is_reserved":false,"is_disabled":false,"rental_uris":{"android":"levelo://app?vid=cdfb02df-3850-4a0d-a0b2-ee015beeefec","ios":"levelo://app?vid=cdfb02df-3850-4a0d-a0b2-ee015beeefec"},"vehicle_type_id":"4","last_reported":1774024261,"current_range_meters":3600,"station_id":"st_d4a7ka997mjs738ck50g","pricing_plan_id":"cebpf4jnsgd1na2vs0mg"},{"bike_id":"66be2595-d8a5-40d3-b0b9-334f8fbba844","system_id":"levelo_inurba_marseille","lat":43.24658,"lon":5.43145,"is_reserved":false,"is_disabled":false,"rental_uris":{"android":"levelo://app?vid=66be2595-d8a5-40d3-b0b9-334f8fbba844","ios":"levelo://app?vid=66be2595-d8a5-40d3-b0b9-334f8fbba844"},"vehicle_type_id":"4","last_reported":1774024261,"current_range_meters":4000,"station_id":"","pricing_plan_id":"cebpf4jnsgd1na2vs0mg"},{"bike_id":"f353bb88-ad42-4378-86c6-c19d4ed76184","system_id":"levelo_inurba_marseille","lat":43.2964,"lon":5.3715,"is_reserved":false,"is_disabled":false,"rental_uris":{"android":"levelo://app?vid=f353bb88-ad42-4378-86c6-c19d4ed76184","ios":"levelo://app?vid=f353bb88-ad42-4378-86c6-c19d4ed76184"},"vehicle_type_id":"4","last_reported":1774024261,"current_range_meters":4000,"station_id":"ce4bgnh2rcd13ifvqc0g","pricing_plan_id":"cebpf4jnsgd1na2vs0mg"},{"bike_id":"27cfd7f2-48c6-4fe4-9d82-e5b76120df75","system_id":"levelo_inurba_marseille","lat":43.29822,"lon":5.44074,"is_reserved":false,"is_disabled":false,"rental_uris":{"android":"levelo://app?vid=27cfd7f2-48c6-4fe4-9d82-e5b76120df75","ios":"levelo://app?vid=27cfd7f2-48c6-4fe4-9d82-e5b76120df75"},"vehicle_type_id":"4","last_reported":1774024261,"current_range_meters":4000,"station_id":"st_d3jp68qikq2c7381ktn0","pricing_plan_id":"cebpf4jnsgd1na2vs0mg"},{"bike_id":"50428b06-04ef-42aa-80f1-c8b08f9b0f24","system_id":"levelo_inurba_marseille","lat":43.301804,"lon":5.391025,"is_reserved":false,"is_disabled":false,"rental_uris":{"android":"levelo://app?vid=50428b06-04ef-42aa-80f1-c8b08f9b0f24","ios":"levelo://app?vid=50428b06-04ef-42aa-80f1-c8b08f9b0f24"},"vehicle_type_id":"4","last_reported":1774024261,"current_range_meters":4000,"station_id":"ce4bgkh2rcd13ifvqbk0","pricing_plan_id":"cebpf4jnsgd1na2vs0mg"},{"bike_id":"77e54e57-cfac-45b8-943b-c2667cbdd172","system_id":"levelo_inurba_marseille","lat":43.30522,"lon":5.36539,"is_reserved":false,"is_disabled":false,"rental_uris":{"android":"levelo://app?vid=77e54e57-cfac-45b8-943b-c2667cbdd172","ios":"levelo://app?vid=77e54e57-cfac-45b8-943b-c2667cbdd172"},"vehicle_type_id":"4","last_reported":1774024261,"current_range_meters":4000,"station_id":"ce4bgs12rcd13ifvqcag","pricing_plan_id":"cebpf4jnsgd1na2vs0mg"},{"bike_id":"e5e18d51-d281-4feb-b73c-20d80ef4d3b8","system_id":"levelo_inurba_marseille","lat":43.28153,"lon":5.42645,"is_reserved":false,"is_disabled":false,"rental_uris":{"android":"levelo://app?vid=e5e18d51-d281-4feb-b73c-20d80ef4d3b8","ios":"levelo://app?vid=e5e18d51-d281-4feb-b73c-20d80ef4d3b8"},"vehicle_type_id":"4","last_reported":1774024261,"current_range_meters":4000,"station_id":"ce4bhnh2rcd13ifvqgug","pricing_plan_id":"cebpf4jnsgd1na2vs0mg"},{"bike_id":"9e998917-7be1-4dfa-84ec-ae9895c9cd2f","system_id":"levelo_inurba_marseille","lat":43.27373,"lon":5.36268,"is_reserved":false,"is_disabled":false,"rental_uris":{"android":"levelo://app?vid=9e998917-7be1-4dfa-84ec-ae9895c9cd2f","ios":"levelo://app?vid=9e998917-7be1-4dfa-84ec-ae9895c9cd2f"},"vehicle_type_id":"4","last_reported":1774024261,"current_range_meters":4000,"station_id":"ce4bhbh2rcd13ifvqeo0","pricing_plan_id":"cebpf4jnsgd1na2vs0mg"},{"bike_id":"9fbfdc7a-8398-40b5-b97f-ba1104c7c96f","system_id":"levelo_inurba_marseille","lat":43.23192,"lon":5.35531,"is_reserved":false,"is_disabled":false,"rental_uris":{"android":"levelo://app?vid=9fbfdc7a-8398-40b5-b97f-ba1104c7c96f","ios":"levelo://app?vid=9fbfdc7a-8398-40b5-b97f-ba1104c7c96f"},"vehicle_type_id":"4","last_reported":1774024261,"current_range_meters":4000,"station_id":"ce4bhu92rcd13ifvqi70","pricing_plan_id":"cebpf4jnsgd1na2vs0mg"},{"bike_id":"92cd12b5-d4a8-4d66-b59e-97ac46b48abe","system_id":"levelo_inurba_marseille","lat":43.25829,"lon":5.39423,"is_reserved":false,"is_disabled":false,"rental_uris":{"android":"levelo://app?vid=92cd12b5-d4a8-4d66-b59e-97ac46b48abe","ios":"levelo://app?vid=92cd12b5-d4a8-4d66-b59e-97ac46b48abe"},"vehicle_type_id":"4","last_reported":1774024261,"current_range_meters":4000,"station_id":"ce4bhip2rcd13ifvqft0","pricing_plan_id":"cebpf4jnsgd1na2vs0mg"},{"bike_id":"30a510d1-2f6f-4225-aeeb-cd7175650ba7","system_id":"levelo_inurba_marseille","lat":43.28413,"lon":5.37516,"is_reserved":false,"is_disabled":false,"rental_uris":{"android":"levelo://app?vid=30a510d1-2f6f-4225-aeeb-cd7175650ba7","ios":"levelo://app?vid=30a510d1-2f6f-4225-aeeb-cd7175650ba7"},"vehicle_type_id":"4","last_reported":1774024261,"current_range_meters":4000,"station_id":"ce4bh412rcd13ifvqds0","pricing_plan_id":"cebpf4jnsgd1na2vs0mg"},{"bike_id":"0e654315-d6a5-4499-8029-ae7d8c8cbca3","system_id":"levelo_inurba_marseille","lat":43.27347,"lon":5.36206,"is_reserved":false,"is_disabled":false,"rental_uris":{"android":"levelo://app?vid=0e654315-d6a5-4499-8029-ae7d8c8cbca3","ios":"levelo://app?vid=0e654315-d6a5-4499-8029-ae7d8c8cbca3"},"vehicle_type_id":"4","last_reported":1774024261,"current_range_meters":4000,"station_id":"","pricing_plan_id":"cebpf4jnsgd1na2vs0mg"},{"bike_id":"176d4c34-de68-4787-87ee-10437dc3027d","system_id":"levelo_inurba_marseille","lat":43.23958,"lon":5.36634,"is_reserved":false,"is_disabled":false,"rental_uris":{"android":"levelo://app?vid=176d4c34-de68-4787-87ee-10437dc3027d","ios":"levelo://app?vid=176d4c34-de68-4787-87ee-10437dc3027d"},"vehicle_type_id":"4","last_reported":1774024261,"current_range_meters":4000,"station_id":"ce4bhi12rcd13ifvqfp0","pricing_plan_id":"cebpf4jnsgd1na2vs0mg"},{"bike_id":"043f531d-36be-4bee-9510-be1d0be74b64","system_id":"levelo_inurba_marseille","lat":43.29896,"lon":5.38924,"is_reserved":false,"is_disabled":false,"rental_uris":{"android":"levelo://app?vid=043f531d-36be-4bee-9510-be1d0be74b64","ios":"levelo://app?vid=043f531d-36be-4bee-9510-be1d0be74b64"},"vehicle_type_id":"4","last_reported":1774024261,"current_range_meters":4000,"station_id":"ce4bh392rcd13ifvqdl0","pricing_plan_id":"cebpf4jnsgd1na2vs0mg"},{"bike_id":"47a8436c-9b2f-44b6-92e2-20a5fab160f3","system_id":"levelo_inurba_marseille","lat":43.24797,"lon":5.37447,"is_reserved":false,"is_disabled":true,"rental_uris":{"android":"levelo://app?vid=47a8436c-9b2f-44b6-92e2-20a5fab160f3","ios":"levelo://app?vid=47a8436c-9b2f-44b6-92e2-20a5fab160f3"},"vehicle_type_id":"4","last_reported":1774024261,"current_range_meters":4000,"station_id":"ce4bhgh2rcd13ifvqfb0","pricing_plan_id":"cebpf4jnsgd1na2vs0mg"},{"bike_id":"79cac674-dc56-4716-ae6b-ef48f1c9ecc7","system_id":"levelo_inurba_marseille","lat":43.25493,"lon":5.37654,"is_reserved":false,"is_disabled":false,"rental_uris":{"android":"levelo://app?vid=79cac674-dc56-4716-ae6b-ef48f1c9ecc7","ios":"levelo://app?vid=79cac674-dc56-4716-ae6b-ef48f1c9ecc7"},"vehicle_type_id":"4","last_reported":1774024261,"current_range_meters":4000,"station_id":"ce4bhh12rcd13ifvqff0","pricing_plan_id":"cebpf4jnsgd1na2vs0mg"},{"bike_id":"bebae7b0-c2c6-4b1d-8855-8b06d4443a00","system_id":"levelo_inurba_marseille","lat":43.28467,"lon":5.48401,"is_reserved":false,"is_disabled":false,"rental_uris":{"android":"levelo://app?vid=bebae7b0-c2c6-4b1d-8855-8b06d4443a00","ios":"levelo://app?vid=bebae7b0-c2c6-4b1d-8855-8b06d4443a00"},"vehicle_type_id":"4","last_reported":1774024261,"current_range_meters":4000,"station_id":"st_d3svhcjqgbts73a3dn0g","pricing_plan_id":"cebpf4jnsgd1na2vs0mg"},{"bike_id":"c49672f7-fafb-464c-b6db-ccb2063c4509","system_id":"levelo_inurba_marseille","lat":43.22931,"lon":5.35378,"is_reserved":false,"is_disabled":false,"rental_uris":{"android":"levelo://app?vid=c49672f7-fafb-464c-b6db-ccb2063c4509","ios":"levelo://app?vid=c49672f7-fafb-464c-b6db-ccb2063c4509"},"vehicle_type_id":"4","last_reported":1774024261,"current_range_meters":4000,"station_id":"cpo3532slgdg3j2ikp40","pricing_plan_id":"cebpf4jnsgd1na2vs0mg"},{"bike_id":"578a9b14-16a8-4ac6-b751-9b5c7323ab67","system_id":"levelo_inurba_marseille","lat":43.29563,"lon":5.37526,"is_reserved":false,"is_disabled":false,"rental_uris":{"android":"levelo://app?vid=578a9b14-16a8-4ac6-b751-9b5c7323ab67","ios":"levelo://app?vid=578a9b14-16a8-4ac6-b751-9b5c7323ab67"},"vehicle_type_id":"4","last_reported":1774024261,"current_range_meters":4400,"station_id":"ce4bgh92rcd13ifvqb50","pricing_plan_id":"cebpf4jnsgd1na2vs0mg"},{"bike_id":"52f6a6b9-7af9-4956-b458-baf5061e66bf","system_id":"levelo_inurba_marseille","lat":43.23333,"lon":5.44465,"is_reserved":false,"is_disabled":false,"rental_uris":{"android":"levelo://app?vid=52f6a6b9-7af9-4956-b458-baf5061e66bf","ios":"levelo://app?vid=52f6a6b9-7af9-4956-b458-baf5061e66bf"},"vehicle_type_id":"4","last_reported":1774024261,"current_range_meters":4400,"station_id":"","pricing_plan_id":"cebpf4jnsgd1na2vs0mg"},{"bike_id":"347a0133-45d3-4213-ae48-606f4453bbf3","system_id":"levelo_inurba_marseille","lat":43.23055,"lon":5.35492,"is_reserved":false,"is_disabled":false,"rental_uris":{"android":"levelo://app?vid=347a0133-45d3-4213-ae48-606f4453bbf3","ios":"levelo://app?vid=347a0133-45d3-4213-ae48-606f4453bbf3"},"vehicle_type_id":"4","last_reported":1774024261,"current_range_meters":4400,"station_id":"cpo3342slgdg3j2ifvpg","pricing_plan_id":"cebpf4jnsgd1na2vs0mg"},{"bike_id":"c2f01f22-14c1-45c1-a8d8-f0d4bb6c09f2","system_id":"levelo_inurba_marseille","lat":43.2846,"lon":5.38445,"is_reserved":false,"is_disabled":true,"rental_uris":{"android":"levelo://app?vid=c2f01f22-14c1-45c1-a8d8-f0d4bb6c09f2","ios":"levelo://app?vid=c2f01f22-14c1-45c1-a8d8-f0d4bb6c09f2"},"vehicle_type_id":"4","last_reported":1774024261,"current_range_meters":4400,"station_id":"ce4bh512rcd13ifvqe3g","pricing_plan_id":"cebpf4jnsgd1na2vs0mg"},{"bike_id":"6e50a54a-c657-4ef5-9339-4c225154dc0d","system_id":"levelo_inurba_marseille","lat":43.27943,"lon":5.42241,"is_reserved":false,"is_disabled":false,"rental_uris":{"android":"levelo://app?vid=6e50a54a-c657-4ef5-9339-4c225154dc0d","ios":"levelo://app?vid=6e50a54a-c657-4ef5-9339-4c225154dc0d"},"vehicle_type_id":"4","last_reported":1774024261,"current_range_meters":4400,"station_id":"","pricing_plan_id":"cebpf4jnsgd1na2vs0mg"},{"bike_id":"9ace61c8-4aa2-42a6-a072-76222dd69a61","system_id":"levelo_inurba_marseille","lat":43.2952,"lon":5.39405,"is_reserved":false,"is_disabled":false,"rental_uris":{"android":"levelo://app?vid=9ace61c8-4aa2-42a6-a072-76222dd69a61","ios":"levelo://app?vid=9ace61c8-4aa2-42a6-a072-76222dd69a61"},"vehicle_type_id":"4","last_reported":1774024261,"current_range_meters":4400,"station_id":"ce4bh292rcd13ifvqdf0","pricing_plan_id":"cebpf4jnsgd1na2vs0mg"},{"bike_id":"c546955c-729a-4484-a5ab-0a375d7ad492","system_id":"levelo_inurba_marseille","lat":43.2958,"lon":5.36732,"is_reserved":false,"is_disabled":false,"rental_uris":{"android":"levelo://app?vid=c546955c-729a-4484-a5ab-0a375d7ad492","ios":"levelo://app?vid=c546955c-729a-4484-a5ab-0a375d7ad492"},"vehicle_type_id":"4","last_reported":1774024261,"current_range_meters":4400,"station_id":"ce4bgph2rcd13ifvqc2g","pricing_plan_id":"cebpf4jnsgd1na2vs0mg"},{"bike_id":"744826ba-753a-4ecc-8e5c-e31c07526efd","system_id":"levelo_inurba_marseille","lat":43.27976,"lon":5.41652,"is_reserved":false,"is_disabled":false,"rental_uris":{"android":"levelo://app?vid=744826ba-753a-4ecc-8e5c-e31c07526efd","ios":"levelo://app?vid=744826ba-753a-4ecc-8e5c-e31c07526efd"},"vehicle_type_id":"4","last_reported":1774024261,"current_range_meters":4400,"station_id":"ce4bho12rcd13ifvqh1g","pricing_plan_id":"cebpf4jnsgd1na2vs0mg"},{"bike_id":"044018cd-caa4-4daf-882f-4c03fdb40a89","system_id":"levelo_inurba_marseille","lat":43.29173,"lon":5.37173,"is_reserved":false,"is_disabled":false,"rental_uris":{"android":"levelo://app?vid=044018cd-caa4-4daf-882f-4c03fdb40a89","ios":"levelo://app?vid=044018cd-caa4-4daf-882f-4c03fdb40a89"},"vehicle_type_id":"4","last_reported":1774024261,"current_range_meters":4400,"station_id":"ce4bha92rcd13ifvqeh0","pricing_plan_id":"cebpf4jnsgd1na2vs0mg"},{"bike_id":"e5cd0c96-4497-4e14-aca5-6d025635cbbc","system_id":"levelo_inurba_marseille","lat":43.28414,"lon":5.34982,"is_reserved":false,"is_disabled":false,"rental_uris":{"android":"levelo://app?vid=e5cd0c96-4497-4e14-aca5-6d025635cbbc","ios":"levelo://app?vid=e5cd0c96-4497-4e14-aca5-6d025635cbbc"},"vehicle_type_id":"4","last_reported":1774024261,"current_range_meters":4400,"station_id":"ce4bhbh2rcd13ifvqepg","pricing_plan_id":"cebpf4jnsgd1na2vs0mg"},{"bike_id":"21afb19c-42c0-43f3-8492-a7d7208bc4fa","system_id":"levelo_inurba_marseille","lat":43.28608,"lon":5.37094,"is_reserved":false,"is_disabled":false,"rental_uris":{"android":"levelo://app?vid=21afb19c-42c0-43f3-8492-a7d7208bc4fa","ios":"levelo://app?vid=21afb19c-42c0-43f3-8492-a7d7208bc4fa"},"vehicle_type_id":"4","last_reported":1774024261,"current_range_meters":4400,"station_id":"ce4bht12rcd13ifvqi60","pricing_plan_id":"cebpf4jnsgd1na2vs0mg"},{"bike_id":"a17f3f33-e02c-4354-b9c7-19d240ea7002","system_id":"levelo_inurba_marseille","lat":43.31695,"lon":5.40459,"is_reserved":false,"is_disabled":false,"rental_uris":{"android":"levelo://app?vid=a17f3f33-e02c-4354-b9c7-19d240ea7002","ios":"levelo://app?vid=a17f3f33-e02c-4354-b9c7-19d240ea7002"},"vehicle_type_id":"4","last_reported":1774024261,"current_range_meters":4400,"station_id":"ce4bh012rcd13ifvqd00","pricing_plan_id":"cebpf4jnsgd1na2vs0mg"},{"bike_id":"b3c6ee7e-839e-47ca-8bd1-12618e78dd87","system_id":"levelo_inurba_marseille","lat":43.23961,"lon":5.36615,"is_reserved":false,"is_disabled":false,"rental_uris":{"android":"levelo://app?vid=b3c6ee7e-839e-47ca-8bd1-12618e78dd87","ios":"levelo://app?vid=b3c6ee7e-839e-47ca-8bd1-12618e78dd87"},"vehicle_type_id":"4","last_reported":1774024261,"current_range_meters":4400,"station_id":"ce4bhi12rcd13ifvqfp0","pricing_plan_id":"cebpf4jnsgd1na2vs0mg"},{"bike_id":"e04c3f48-0528-418e-81cf-e354bff0e446","system_id":"levelo_inurba_marseille","lat":43.27672,"lon":5.38876,"is_reserved":false,"is_disabled":false,"rental_uris":{"android":"levelo://app?vid=e04c3f48-0528-418e-81cf-e354bff0e446","ios":"levelo://app?vid=e04c3f48-0528-418e-81cf-e354bff0e446"},"vehicle_type_id":"4","last_reported":1774024261,"current_range_meters":4400,"station_id":"ce4bhi12rcd13ifvqfo0","pricing_plan_id":"cebpf4jnsgd1na2vs0mg"},{"bike_id":"d4776486-3084-421f-968a-3d6e49dfba03","system_id":"levelo_inurba_marseille","lat":43.28534,"lon":5.44097,"is_reserved":false,"is_disabled":false,"rental_uris":{"android":"levelo://app?vid=d4776486-3084-421f-968a-3d6e49dfba03","ios":"levelo://app?vid=d4776486-3084-421f-968a-3d6e49dfba03"},"vehicle_type_id":"4","last_reported":1774024261,"current_range_meters":4800,"station_id":"st_d3j3df2ikq2c7380ej80","pricing_plan_id":"cebpf4jnsgd1na2vs0mg"},{"bike_id":"addd9e53-bfde-4c2f-8c89-4a891b6a7add","system_id":"levelo_inurba_marseille","lat":43.31342,"lon":5.3792,"is_reserved":false,"is_disabled":false,"rental_uris":{"android":"levelo://app?vid=addd9e53-bfde-4c2f-8c89-4a891b6a7add","ios":"levelo://app?vid=addd9e53-bfde-4c2f-8c89-4a891b6a7add"},"vehicle_type_id":"4","last_reported":1774024261,"current_range_meters":4800,"station_id":"","pricing_plan_id":"cebpf4jnsgd1na2vs0mg"},{"bike_id":"734a2754-cd5d-40ea-86fc-baae8948acee","system_id":"levelo_inurba_marseille","lat":43.2841,"lon":5.35005,"is_reserved":false,"is_disabled":false,"rental_uris":{"android":"levelo://app?vid=734a2754-cd5d-40ea-86fc-baae8948acee","ios":"levelo://app?vid=734a2754-cd5d-40ea-86fc-baae8948acee"},"vehicle_type_id":"4","last_reported":1774024261,"current_range_meters":4800,"station_id":"ce4bhbh2rcd13ifvqepg","pricing_plan_id":"cebpf4jnsgd1na2vs0mg"},{"bike_id":"eb551e0d-1f06-4e77-adfd-57489d6365b9","system_id":"levelo_inurba_marseille","lat":43.28039,"lon":5.36945,"is_reserved":false,"is_disabled":false,"rental_uris":{"android":"levelo://app?vid=eb551e0d-1f06-4e77-adfd-57489d6365b9","ios":"levelo://app?vid=eb551e0d-1f06-4e77-adfd-57489d6365b9"},"vehicle_type_id":"4","last_reported":1774024261,"current_range_meters":4800,"station_id":"ce4bha12rcd13ifvqef0","pricing_plan_id":"cebpf4jnsgd1na2vs0mg"},{"bike_id":"c80e2c72-b851-4fa4-a042-85fc7556479a","system_id":"levelo_inurba_marseille","lat":43.30139,"lon":5.39866,"is_reserved":false,"is_disabled":false,"rental_uris":{"android":"levelo://app?vid=c80e2c72-b851-4fa4-a042-85fc7556479a","ios":"levelo://app?vid=c80e2c72-b851-4fa4-a042-85fc7556479a"},"vehicle_type_id":"4","last_reported":1774024261,"current_range_meters":4800,"station_id":"ce4bh0h2rcd13ifvqd40","pricing_plan_id":"cebpf4jnsgd1na2vs0mg"},{"bike_id":"afe794d0-644b-4c67-ae5a-7fa9206e6156","system_id":"levelo_inurba_marseille","lat":43.28266,"lon":5.3506,"is_reserved":false,"is_disabled":false,"rental_uris":{"android":"levelo://app?vid=afe794d0-644b-4c67-ae5a-7fa9206e6156","ios":"levelo://app?vid=afe794d0-644b-4c67-ae5a-7fa9206e6156"},"vehicle_type_id":"4","last_reported":1774024261,"current_range_meters":4800,"station_id":"ce4bhbp2rcd13ifvqerg","pricing_plan_id":"cebpf4jnsgd1na2vs0mg"},{"bike_id":"1dce40bc-4b3f-4576-b9d7-1b39250159dd","system_id":"levelo_inurba_marseille","lat":43.30121,"lon":5.39913,"is_reserved":false,"is_disabled":false,"rental_uris":{"android":"levelo://app?vid=1dce40bc-4b3f-4576-b9d7-1b39250159dd","ios":"levelo://app?vid=1dce40bc-4b3f-4576-b9d7-1b39250159dd"},"vehicle_type_id":"4","last_reported":1774024261,"current_range_meters":4800,"station_id":"ce4bh0h2rcd13ifvqd40","pricing_plan_id":"cebpf4jnsgd1na2vs0mg"},{"bike_id":"d838d515-fcdd-4772-b6d9-cd0810584bc0","system_id":"levelo_inurba_marseille","lat":43.30172,"lon":5.38085,"is_reserved":false,"is_disabled":false,"rental_uris":{"android":"levelo://app?vid=d838d515-fcdd-4772-b6d9-cd0810584bc0","ios":"levelo://app?vid=d838d515-fcdd-4772-b6d9-cd0810584bc0"},"vehicle_type_id":"4","last_reported":1774024261,"current_range_meters":4800,"station_id":"ce4bgjp2rcd13ifvqbh0","pricing_plan_id":"cebpf4jnsgd1na2vs0mg"},{"bike_id":"166e62b4-89c7-42df-8d26-562e5b8d1f69","system_id":"levelo_inurba_marseille","lat":43.27312,"lon":5.39086,"is_reserved":false,"is_disabled":true,"rental_uris":{"android":"levelo://app?vid=166e62b4-89c7-42df-8d26-562e5b8d1f69","ios":"levelo://app?vid=166e62b4-89c7-42df-8d26-562e5b8d1f69"},"vehicle_type_id":"4","last_reported":1774024261,"current_range_meters":4800,"station_id":"ce4bhgp2rcd13ifvqfe0","pricing_plan_id":"cebpf4jnsgd1na2vs0mg"},{"bike_id":"fab8340b-e25f-4a12-8517-2b3b21238052","system_id":"levelo_inurba_marseille","lat":43.2731,"lon":5.39054,"is_reserved":false,"is_disabled":false,"rental_uris":{"android":"levelo://app?vid=fab8340b-e25f-4a12-8517-2b3b21238052","ios":"levelo://app?vid=fab8340b-e25f-4a12-8517-2b3b21238052"},"vehicle_type_id":"4","last_reported":1774024261,"current_range_meters":4800,"station_id":"ce4bhgp2rcd13ifvqfe0","pricing_plan_id":"cebpf4jnsgd1na2vs0mg"},{"bike_id":"1e57680f-aa24-4364-b93d-05b77abcf021","system_id":"levelo_inurba_marseille","lat":43.284181,"lon":5.34974,"is_reserved":false,"is_disabled":false,"rental_uris":{"android":"levelo://app?vid=1e57680f-aa24-4364-b93d-05b77abcf021","ios":"levelo://app?vid=1e57680f-aa24-4364-b93d-05b77abcf021"},"vehicle_type_id":"4","last_reported":1774024261,"current_range_meters":4800,"station_id":"ce4bhbh2rcd13ifvqepg","pricing_plan_id":"cebpf4jnsgd1na2vs0mg"},{"bike_id":"06ace421-9d28-40b9-a58e-64fb09f04804","system_id":"levelo_inurba_marseille","lat":43.29561,"lon":5.37513,"is_reserved":false,"is_disabled":false,"rental_uris":{"android":"levelo://app?vid=06ace421-9d28-40b9-a58e-64fb09f04804","ios":"levelo://app?vid=06ace421-9d28-40b9-a58e-64fb09f04804"},"vehicle_type_id":"4","last_reported":1774024261,"current_range_meters":5600,"station_id":"ce4bgh92rcd13ifvqb50","pricing_plan_id":"cebpf4jnsgd1na2vs0mg"},{"bike_id":"b343f5f8-c1bb-4ce3-a7a6-a6599510fd8f","system_id":"levelo_inurba_marseille","lat":43.28427,"lon":5.35007,"is_reserved":false,"is_disabled":false,"rental_uris":{"android":"levelo://app?vid=b343f5f8-c1bb-4ce3-a7a6-a6599510fd8f","ios":"levelo://app?vid=b343f5f8-c1bb-4ce3-a7a6-a6599510fd8f"},"vehicle_type_id":"4","last_reported":1774024261,"current_range_meters":5600,"station_id":"ce4bhbh2rcd13ifvqepg","pricing_plan_id":"cebpf4jnsgd1na2vs0mg"},{"bike_id":"1a57becc-34b4-41ba-aad6-6712efced864","system_id":"levelo_inurba_marseille","lat":43.27894,"lon":5.38006,"is_reserved":false,"is_disabled":false,"rental_uris":{"android":"levelo://app?vid=1a57becc-34b4-41ba-aad6-6712efced864","ios":"levelo://app?vid=1a57becc-34b4-41ba-aad6-6712efced864"},"vehicle_type_id":"4","last_reported":1774024261,"current_range_meters":5600,"station_id":"ce4bhf92rcd13ifvqf50","pricing_plan_id":"cebpf4jnsgd1na2vs0mg"},{"bike_id":"10ced8a1-0004-454c-a343-b116c3880ed6","system_id":"levelo_inurba_marseille","lat":43.32107,"lon":5.36762,"is_reserved":false,"is_disabled":false,"rental_uris":{"android":"levelo://app?vid=10ced8a1-0004-454c-a343-b116c3880ed6","ios":"levelo://app?vid=10ced8a1-0004-454c-a343-b116c3880ed6"},"vehicle_type_id":"4","last_reported":1774024261,"current_range_meters":5600,"station_id":"ce4bhrh2rcd13ifvqhug","pricing_plan_id":"cebpf4jnsgd1na2vs0mg"},{"bike_id":"d80ced11-e24d-4918-bb1b-49b48389c4ca","system_id":"levelo_inurba_marseille","lat":43.29003,"lon":5.35612,"is_reserved":false,"is_disabled":false,"rental_uris":{"android":"levelo://app?vid=d80ced11-e24d-4918-bb1b-49b48389c4ca","ios":"levelo://app?vid=d80ced11-e24d-4918-bb1b-49b48389c4ca"},"vehicle_type_id":"4","last_reported":1774024261,"current_range_meters":5600,"station_id":"ce4bhb92rcd13ifvqen0","pricing_plan_id":"cebpf4jnsgd1na2vs0mg"},{"bike_id":"e08d225b-8f4a-4ce0-895d-d9f7f842408c","system_id":"levelo_inurba_marseille","lat":43.24164,"lon":5.36404,"is_reserved":false,"is_disabled":false,"rental_uris":{"android":"levelo://app?vid=e08d225b-8f4a-4ce0-895d-d9f7f842408c","ios":"levelo://app?vid=e08d225b-8f4a-4ce0-895d-d9f7f842408c"},"vehicle_type_id":"4","last_reported":1774024261,"current_range_meters":5600,"station_id":"cpo36qri1sfpv3e86is0","pricing_plan_id":"cebpf4jnsgd1na2vs0mg"},{"bike_id":"938f5b2b-699a-47ff-8381-c70adbd93b65","system_id":"levelo_inurba_marseille","lat":43.29798,"lon":5.3713,"is_reserved":false,"is_disabled":true,"rental_uris":{"android":"levelo://app?vid=938f5b2b-699a-47ff-8381-c70adbd93b65","ios":"levelo://app?vid=938f5b2b-699a-47ff-8381-c70adbd93b65"},"vehicle_type_id":"4","last_reported":1774024261,"current_range_meters":5600,"station_id":"ce4bgop2rcd13ifvqc1g","pricing_plan_id":"cebpf4jnsgd1na2vs0mg"},{"bike_id":"5290db71-45f5-42e4-b592-312b6a66ffa2","system_id":"levelo_inurba_marseille","lat":43.26543,"lon":5.37281,"is_reserved":false,"is_disabled":false,"rental_uris":{"android":"levelo://app?vid=5290db71-45f5-42e4-b592-312b6a66ffa2","ios":"levelo://app?vid=5290db71-45f5-42e4-b592-312b6a66ffa2"},"vehicle_type_id":"4","last_reported":1774024261,"current_range_meters":5600,"station_id":"ce4bhg12rcd13ifvqf70","pricing_plan_id":"cebpf4jnsgd1na2vs0mg"},{"bike_id":"d16b4f5e-9b9d-4635-b7ab-14fa4ff08f4b","system_id":"levelo_inurba_marseille","lat":43.24643,"lon":5.43159,"is_reserved":false,"is_disabled":false,"rental_uris":{"android":"levelo://app?vid=d16b4f5e-9b9d-4635-b7ab-14fa4ff08f4b","ios":"levelo://app?vid=d16b4f5e-9b9d-4635-b7ab-14fa4ff08f4b"},"vehicle_type_id":"4","last_reported":1774024261,"current_range_meters":5600,"station_id":"","pricing_plan_id":"cebpf4jnsgd1na2vs0mg"},{"bike_id":"02d3b492-0845-4675-846a-ec58e2890241","system_id":"levelo_inurba_marseille","lat":43.26031,"lon":5.37546,"is_reserved":false,"is_disabled":false,"rental_uris":{"android":"levelo://app?vid=02d3b492-0845-4675-846a-ec58e2890241","ios":"levelo://app?vid=02d3b492-0845-4675-846a-ec58e2890241"},"vehicle_type_id":"4","last_reported":1774024261,"current_range_meters":5600,"station_id":"ce4bhgh2rcd13ifvqfa0","pricing_plan_id":"cebpf4jnsgd1na2vs0mg"},{"bike_id":"3bcd3f37-7909-4e8a-be03-a9562a2c0e45","system_id":"levelo_inurba_marseille","lat":43.28484,"lon":5.48419,"is_reserved":false,"is_disabled":false,"rental_uris":{"android":"levelo://app?vid=3bcd3f37-7909-4e8a-be03-a9562a2c0e45","ios":"levelo://app?vid=3bcd3f37-7909-4e8a-be03-a9562a2c0e45"},"vehicle_type_id":"4","last_reported":1774024261,"current_range_meters":6000,"station_id":"","pricing_plan_id":"cebpf4jnsgd1na2vs0mg"},{"bike_id":"079d1c74-28da-469c-b71d-dabdc4fe761e","system_id":"levelo_inurba_marseille","lat":43.29003,"lon":5.35611,"is_reserved":false,"is_disabled":false,"rental_uris":{"android":"levelo://app?vid=079d1c74-28da-469c-b71d-dabdc4fe761e","ios":"levelo://app?vid=079d1c74-28da-469c-b71d-dabdc4fe761e"},"vehicle_type_id":"4","last_reported":1774024261,"current_range_meters":6000,"station_id":"ce4bhb92rcd13ifvqen0","pricing_plan_id":"cebpf4jnsgd1na2vs0mg"},{"bike_id":"856fe66d-4acf-4111-b537-8a0bb0fdb356","system_id":"levelo_inurba_marseille","lat":43.29909,"lon":5.38459,"is_reserved":false,"is_disabled":false,"rental_uris":{"android":"levelo://app?vid=856fe66d-4acf-4111-b537-8a0bb0fdb356","ios":"levelo://app?vid=856fe66d-4acf-4111-b537-8a0bb0fdb356"},"vehicle_type_id":"4","last_reported":1774024261,"current_range_meters":6000,"station_id":"","pricing_plan_id":"cebpf4jnsgd1na2vs0mg"},{"bike_id":"e4f2f0b0-a87c-4dc2-80b7-a9fb5703d035","system_id":"levelo_inurba_marseille","lat":43.33727,"lon":5.39207,"is_reserved":false,"is_disabled":false,"rental_uris":{"android":"levelo://app?vid=e4f2f0b0-a87c-4dc2-80b7-a9fb5703d035","ios":"levelo://app?vid=e4f2f0b0-a87c-4dc2-80b7-a9fb5703d035"},"vehicle_type_id":"4","last_reported":1774024261,"current_range_meters":6000,"station_id":"ce4bhr92rcd13ifvqhsg","pricing_plan_id":"cebpf4jnsgd1na2vs0mg"},{"bike_id":"bf545a7e-3653-4e03-a2e3-546284d188b1","system_id":"levelo_inurba_marseille","lat":43.29196,"lon":5.35811,"is_reserved":false,"is_disabled":false,"rental_uris":{"android":"levelo://app?vid=bf545a7e-3653-4e03-a2e3-546284d188b1","ios":"levelo://app?vid=bf545a7e-3653-4e03-a2e3-546284d188b1"},"vehicle_type_id":"4","last_reported":1774024261,"current_range_meters":6000,"station_id":"ce4bhb12rcd13ifvqel0","pricing_plan_id":"cebpf4jnsgd1na2vs0mg"},{"bike_id":"a58b14be-ade4-498e-ab67-6c2572ad511a","system_id":"levelo_inurba_marseille","lat":43.30896,"lon":5.36863,"is_reserved":false,"is_disabled":false,"rental_uris":{"android":"levelo://app?vid=a58b14be-ade4-498e-ab67-6c2572ad511a","ios":"levelo://app?vid=a58b14be-ade4-498e-ab67-6c2572ad511a"},"vehicle_type_id":"4","last_reported":1774024261,"current_range_meters":6000,"station_id":"ce4bgn92rcd13ifvqbvg","pricing_plan_id":"cebpf4jnsgd1na2vs0mg"},{"bike_id":"1c142e05-6404-411b-b70f-0ab110616204","system_id":"levelo_inurba_marseille","lat":43.29097,"lon":5.3816,"is_reserved":false,"is_disabled":false,"rental_uris":{"android":"levelo://app?vid=1c142e05-6404-411b-b70f-0ab110616204","ios":"levelo://app?vid=1c142e05-6404-411b-b70f-0ab110616204"},"vehicle_type_id":"4","last_reported":1774024261,"current_range_meters":6000,"station_id":"ce4bh512rcd13ifvqe2g","pricing_plan_id":"cebpf4jnsgd1na2vs0mg"},{"bike_id":"4db5e7a0-02f3-4673-b976-681e8fb556db","system_id":"levelo_inurba_marseille","lat":43.25822,"lon":5.39434,"is_reserved":false,"is_disabled":false,"rental_uris":{"android":"levelo://app?vid=4db5e7a0-02f3-4673-b976-681e8fb556db","ios":"levelo://app?vid=4db5e7a0-02f3-4673-b976-681e8fb556db"},"vehicle_type_id":"4","last_reported":1774024261,"current_range_meters":6000,"station_id":"ce4bhip2rcd13ifvqft0","pricing_plan_id":"cebpf4jnsgd1na2vs0mg"},{"bike_id":"4ebc5a1c-fa8c-44d8-a7fc-38229c55eb9d","system_id":"levelo_inurba_marseille","lat":43.24648,"lon":5.38914,"is_reserved":false,"is_disabled":false,"rental_uris":{"android":"levelo://app?vid=4ebc5a1c-fa8c-44d8-a7fc-38229c55eb9d","ios":"levelo://app?vid=4ebc5a1c-fa8c-44d8-a7fc-38229c55eb9d"},"vehicle_type_id":"4","last_reported":1774024261,"current_range_meters":6000,"station_id":"ce4bhg12rcd13ifvqf60","pricing_plan_id":"cebpf4jnsgd1na2vs0mg"},{"bike_id":"006f88ae-8f1a-47fd-a619-a1035d641c5d","system_id":"levelo_inurba_marseille","lat":43.29061,"lon":5.35915,"is_reserved":false,"is_disabled":false,"rental_uris":{"android":"levelo://app?vid=006f88ae-8f1a-47fd-a619-a1035d641c5d","ios":"levelo://app?vid=006f88ae-8f1a-47fd-a619-a1035d641c5d"},"vehicle_type_id":"4","last_reported":1774024261,"current_range_meters":6000,"station_id":"ce4bha92rcd13ifvqeg0","pricing_plan_id":"cebpf4jnsgd1na2vs0mg"},{"bike_id":"12118d88-8157-4d76-ad00-12ce3bc20921","system_id":"levelo_inurba_marseille","lat":43.30867,"lon":5.37116,"is_reserved":false,"is_disabled":false,"rental_uris":{"android":"levelo://app?vid=12118d88-8157-4d76-ad00-12ce3bc20921","ios":"levelo://app?vid=12118d88-8157-4d76-ad00-12ce3bc20921"},"vehicle_type_id":"4","last_reported":1774024261,"current_range_meters":6400,"station_id":"","pricing_plan_id":"cebpf4jnsgd1na2vs0mg"},{"bike_id":"be9b4f06-9d1a-41ee-b10b-9de4e628d9db","system_id":"levelo_inurba_marseille","lat":43.2559,"lon":5.38282,"is_reserved":false,"is_disabled":false,"rental_uris":{"android":"levelo://app?vid=be9b4f06-9d1a-41ee-b10b-9de4e628d9db","ios":"levelo://app?vid=be9b4f06-9d1a-41ee-b10b-9de4e628d9db"},"vehicle_type_id":"4","last_reported":1774024261,"current_range_meters":6400,"station_id":"ce4bhih2rcd13ifvqfs0","pricing_plan_id":"cebpf4jnsgd1na2vs0mg"},{"bike_id":"97f89870-e3a2-4acc-b807-3b7fdbf7b741","system_id":"levelo_inurba_marseille","lat":43.26553,"lon":5.3729,"is_reserved":false,"is_disabled":false,"rental_uris":{"android":"levelo://app?vid=97f89870-e3a2-4acc-b807-3b7fdbf7b741","ios":"levelo://app?vid=97f89870-e3a2-4acc-b807-3b7fdbf7b741"},"vehicle_type_id":"4","last_reported":1774024261,"current_range_meters":6400,"station_id":"ce4bhg12rcd13ifvqf70","pricing_plan_id":"cebpf4jnsgd1na2vs0mg"},{"bike_id":"ea97f638-2b78-42a1-ae85-80633e30efe4","system_id":"levelo_inurba_marseille","lat":43.2894,"lon":5.38436,"is_reserved":false,"is_disabled":false,"rental_uris":{"android":"levelo://app?vid=ea97f638-2b78-42a1-ae85-80633e30efe4","ios":"levelo://app?vid=ea97f638-2b78-42a1-ae85-80633e30efe4"},"vehicle_type_id":"4","last_reported":1774024261,"current_range_meters":6400,"station_id":"ce4bh612rcd13ifvqe6g","pricing_plan_id":"cebpf4jnsgd1na2vs0mg"},{"bike_id":"3a3daf01-9417-472f-ba35-c405ce7d8b98","system_id":"levelo_inurba_marseille","lat":43.29003,"lon":5.35611,"is_reserved":false,"is_disabled":false,"rental_uris":{"android":"levelo://app?vid=3a3daf01-9417-472f-ba35-c405ce7d8b98","ios":"levelo://app?vid=3a3daf01-9417-472f-ba35-c405ce7d8b98"},"vehicle_type_id":"4","last_reported":1774024261,"current_range_meters":6400,"station_id":"ce4bhb92rcd13ifvqen0","pricing_plan_id":"cebpf4jnsgd1na2vs0mg"},{"bike_id":"119d24bc-e3dd-4e47-a0b9-64bbbcc5b1ee","system_id":"levelo_inurba_marseille","lat":43.21742,"lon":5.34605,"is_reserved":false,"is_disabled":true,"rental_uris":{"android":"levelo://app?vid=119d24bc-e3dd-4e47-a0b9-64bbbcc5b1ee","ios":"levelo://app?vid=119d24bc-e3dd-4e47-a0b9-64bbbcc5b1ee"},"vehicle_type_id":"4","last_reported":1774024261,"current_range_meters":6400,"station_id":"st_cvj6r9ubvosntc0bgbag","pricing_plan_id":"cebpf4jnsgd1na2vs0mg"},{"bike_id":"19736e09-538d-4c6c-9bee-7a1402d23cae","system_id":"levelo_inurba_marseille","lat":43.24955,"lon":5.4051,"is_reserved":false,"is_disabled":false,"rental_uris":{"android":"levelo://app?vid=19736e09-538d-4c6c-9bee-7a1402d23cae","ios":"levelo://app?vid=19736e09-538d-4c6c-9bee-7a1402d23cae"},"vehicle_type_id":"4","last_reported":1774024261,"current_range_meters":6400,"station_id":"st_d2ngiaodas8pm72gd1h0","pricing_plan_id":"cebpf4jnsgd1na2vs0mg"},{"bike_id":"4266eab6-4e7c-47ef-9c73-a8772c5dff90","system_id":"levelo_inurba_marseille","lat":43.27374,"lon":5.36258,"is_reserved":false,"is_disabled":false,"rental_uris":{"android":"levelo://app?vid=4266eab6-4e7c-47ef-9c73-a8772c5dff90","ios":"levelo://app?vid=4266eab6-4e7c-47ef-9c73-a8772c5dff90"},"vehicle_type_id":"4","last_reported":1774024261,"current_range_meters":6400,"station_id":"ce4bhbh2rcd13ifvqeo0","pricing_plan_id":"cebpf4jnsgd1na2vs0mg"},{"bike_id":"6fadf78c-81fa-4236-9676-f8a1518c4e7e","system_id":"levelo_inurba_marseille","lat":43.28407,"lon":5.37523,"is_reserved":false,"is_disabled":false,"rental_uris":{"android":"levelo://app?vid=6fadf78c-81fa-4236-9676-f8a1518c4e7e","ios":"levelo://app?vid=6fadf78c-81fa-4236-9676-f8a1518c4e7e"},"vehicle_type_id":"4","last_reported":1774024261,"current_range_meters":6400,"station_id":"ce4bh412rcd13ifvqds0","pricing_plan_id":"cebpf4jnsgd1na2vs0mg"},{"bike_id":"c48440d7-f4d5-4be3-a842-7dc1a317748e","system_id":"levelo_inurba_marseille","lat":43.33971,"lon":5.35686,"is_reserved":false,"is_disabled":false,"rental_uris":{"android":"levelo://app?vid=c48440d7-f4d5-4be3-a842-7dc1a317748e","ios":"levelo://app?vid=c48440d7-f4d5-4be3-a842-7dc1a317748e"},"vehicle_type_id":"4","last_reported":1774024261,"current_range_meters":6400,"station_id":"","pricing_plan_id":"cebpf4jnsgd1na2vs0mg"},{"bike_id":"c9d1893c-a9a0-4458-baef-1e40db7a2b47","system_id":"levelo_inurba_marseille","lat":43.23781,"lon":5.36629,"is_reserved":false,"is_disabled":false,"rental_uris":{"android":"levelo://app?vid=c9d1893c-a9a0-4458-baef-1e40db7a2b47","ios":"levelo://app?vid=c9d1893c-a9a0-4458-baef-1e40db7a2b47"},"vehicle_type_id":"4","last_reported":1774024261,"current_range_meters":6400,"station_id":"st_d3nk18o9ro0c73en2l3g","pricing_plan_id":"cebpf4jnsgd1na2vs0mg"},{"bike_id":"ac4ca0f2-f5c2-4c9c-81db-9f7b20e89d0c","system_id":"levelo_inurba_marseille","lat":43.28541,"lon":5.44098,"is_reserved":false,"is_disabled":true,"rental_uris":{"android":"levelo://app?vid=ac4ca0f2-f5c2-4c9c-81db-9f7b20e89d0c","ios":"levelo://app?vid=ac4ca0f2-f5c2-4c9c-81db-9f7b20e89d0c"},"vehicle_type_id":"4","last_reported":1774024261,"current_range_meters":6800,"station_id":"st_d3j3df2ikq2c7380ej80","pricing_plan_id":"cebpf4jnsgd1na2vs0mg"},{"bike_id":"c6b20400-3641-48f3-b609-b110a5527d07","system_id":"levelo_inurba_marseille","lat":43.2257,"lon":5.41622,"is_reserved":false,"is_disabled":false,"rental_uris":{"android":"levelo://app?vid=c6b20400-3641-48f3-b609-b110a5527d07","ios":"levelo://app?vid=c6b20400-3641-48f3-b609-b110a5527d07"},"vehicle_type_id":"4","last_reported":1774024261,"current_range_meters":6800,"station_id":"st_d2o4gvlbi1j2169b742g","pricing_plan_id":"cebpf4jnsgd1na2vs0mg"},{"bike_id":"0264288d-82fa-4432-8751-6c08c0e54bb7","system_id":"levelo_inurba_marseille","lat":43.30297,"lon":5.42481,"is_reserved":false,"is_disabled":false,"rental_uris":{"android":"levelo://app?vid=0264288d-82fa-4432-8751-6c08c0e54bb7","ios":"levelo://app?vid=0264288d-82fa-4432-8751-6c08c0e54bb7"},"vehicle_type_id":"4","last_reported":1774024261,"current_range_meters":6800,"station_id":"","pricing_plan_id":"cebpf4jnsgd1na2vs0mg"},{"bike_id":"0ddfbe54-7d3c-44d3-a601-a185e143b619","system_id":"levelo_inurba_marseille","lat":43.29522,"lon":5.39052,"is_reserved":false,"is_disabled":false,"rental_uris":{"android":"levelo://app?vid=0ddfbe54-7d3c-44d3-a601-a185e143b619","ios":"levelo://app?vid=0ddfbe54-7d3c-44d3-a601-a185e143b619"},"vehicle_type_id":"4","last_reported":1774024261,"current_range_meters":6800,"station_id":"ce4bh3p2rcd13ifvqdp0","pricing_plan_id":"cebpf4jnsgd1na2vs0mg"},{"bike_id":"6753ca3d-a55c-4744-b779-b369b0fccea4","system_id":"levelo_inurba_marseille","lat":43.29513,"lon":5.39407,"is_reserved":false,"is_disabled":false,"rental_uris":{"android":"levelo://app?vid=6753ca3d-a55c-4744-b779-b369b0fccea4","ios":"levelo://app?vid=6753ca3d-a55c-4744-b779-b369b0fccea4"},"vehicle_type_id":"4","last_reported":1774024261,"current_range_meters":6800,"station_id":"ce4bh292rcd13ifvqdf0","pricing_plan_id":"cebpf4jnsgd1na2vs0mg"},{"bike_id":"dd74091b-705a-4531-bc39-afff2195d9a1","system_id":"levelo_inurba_marseille","lat":43.24799,"lon":5.37448,"is_reserved":false,"is_disabled":false,"rental_uris":{"android":"levelo://app?vid=dd74091b-705a-4531-bc39-afff2195d9a1","ios":"levelo://app?vid=dd74091b-705a-4531-bc39-afff2195d9a1"},"vehicle_type_id":"4","last_reported":1774024261,"current_range_meters":6800,"station_id":"ce4bhgh2rcd13ifvqfb0","pricing_plan_id":"cebpf4jnsgd1na2vs0mg"},{"bike_id":"065730d0-cb50-4045-aa37-276d868a2c50","system_id":"levelo_inurba_marseille","lat":43.28856,"lon":5.35838,"is_reserved":false,"is_disabled":false,"rental_uris":{"android":"levelo://app?vid=065730d0-cb50-4045-aa37-276d868a2c50","ios":"levelo://app?vid=065730d0-cb50-4045-aa37-276d868a2c50"},"vehicle_type_id":"4","last_reported":1774024261,"current_range_meters":6800,"station_id":"ce4bhb12rcd13ifvqem0","pricing_plan_id":"cebpf4jnsgd1na2vs0mg"},{"bike_id":"1af7d1b7-945b-40d6-bf8c-c3e0388024a6","system_id":"levelo_inurba_marseille","lat":43.30565,"lon":5.36534,"is_reserved":false,"is_disabled":false,"rental_uris":{"android":"levelo://app?vid=1af7d1b7-945b-40d6-bf8c-c3e0388024a6","ios":"levelo://app?vid=1af7d1b7-945b-40d6-bf8c-c3e0388024a6"},"vehicle_type_id":"4","last_reported":1774024261,"current_range_meters":6800,"station_id":"ce4bgs12rcd13ifvqcag","pricing_plan_id":"cebpf4jnsgd1na2vs0mg"},{"bike_id":"29ceb06a-4df8-4e2a-9dd9-b070e185b37f","system_id":"levelo_inurba_marseille","lat":43.28491,"lon":5.48429,"is_reserved":false,"is_disabled":false,"rental_uris":{"android":"levelo://app?vid=29ceb06a-4df8-4e2a-9dd9-b070e185b37f","ios":"levelo://app?vid=29ceb06a-4df8-4e2a-9dd9-b070e185b37f"},"vehicle_type_id":"4","last_reported":1774024261,"current_range_meters":6800,"station_id":"st_d3svhcjqgbts73a3dn0g","pricing_plan_id":"cebpf4jnsgd1na2vs0mg"},{"bike_id":"c142af26-b83c-4aa3-ab8b-699576493d34","system_id":"levelo_inurba_marseille","lat":43.21207,"lon":5.35091,"is_reserved":false,"is_disabled":true,"rental_uris":{"android":"levelo://app?vid=c142af26-b83c-4aa3-ab8b-699576493d34","ios":"levelo://app?vid=c142af26-b83c-4aa3-ab8b-699576493d34"},"vehicle_type_id":"4","last_reported":1774024261,"current_range_meters":6800,"station_id":"st_cvj6sg6p6f1abm77japg","pricing_plan_id":"cebpf4jnsgd1na2vs0mg"},{"bike_id":"29705345-7a8e-4bdd-8b65-5ba8856c877f","system_id":"levelo_inurba_marseille","lat":43.30292,"lon":5.44958,"is_reserved":false,"is_disabled":false,"rental_uris":{"android":"levelo://app?vid=29705345-7a8e-4bdd-8b65-5ba8856c877f","ios":"levelo://app?vid=29705345-7a8e-4bdd-8b65-5ba8856c877f"},"vehicle_type_id":"4","last_reported":1774024261,"current_range_meters":6800,"station_id":"","pricing_plan_id":"cebpf4jnsgd1na2vs0mg"},{"bike_id":"ebaed0e6-daad-48bf-a92a-052d2a1696b7","system_id":"levelo_inurba_marseille","lat":43.29377,"lon":5.37847,"is_reserved":false,"is_disabled":false,"rental_uris":{"android":"levelo://app?vid=ebaed0e6-daad-48bf-a92a-052d2a1696b7","ios":"levelo://app?vid=ebaed0e6-daad-48bf-a92a-052d2a1696b7"},"vehicle_type_id":"4","last_reported":1774024261,"current_range_meters":6800,"station_id":"ce4bgjh2rcd13ifvqbf0","pricing_plan_id":"cebpf4jnsgd1na2vs0mg"},{"bike_id":"d2643bfc-d473-4f4e-9ca7-4691011a0181","system_id":"levelo_inurba_marseille","lat":43.30115,"lon":5.39853,"is_reserved":false,"is_disabled":false,"rental_uris":{"android":"levelo://app?vid=d2643bfc-d473-4f4e-9ca7-4691011a0181","ios":"levelo://app?vid=d2643bfc-d473-4f4e-9ca7-4691011a0181"},"vehicle_type_id":"4","last_reported":1774024261,"current_range_meters":6800,"station_id":"ce4bh0h2rcd13ifvqd40","pricing_plan_id":"cebpf4jnsgd1na2vs0mg"},{"bike_id":"0c9023de-8137-451b-9298-40f5a0b20516","system_id":"levelo_inurba_marseille","lat":43.2992,"lon":5.36515,"is_reserved":false,"is_disabled":false,"rental_uris":{"android":"levelo://app?vid=0c9023de-8137-451b-9298-40f5a0b20516","ios":"levelo://app?vid=0c9023de-8137-451b-9298-40f5a0b20516"},"vehicle_type_id":"4","last_reported":1774024261,"current_range_meters":6800,"station_id":"ce4bgm92rcd13ifvqbr0","pricing_plan_id":"cebpf4jnsgd1na2vs0mg"},{"bike_id":"2a2f2e51-af70-46fa-84e9-2880585834ce","system_id":"levelo_inurba_marseille","lat":43.27922,"lon":5.39611,"is_reserved":false,"is_disabled":false,"rental_uris":{"android":"levelo://app?vid=2a2f2e51-af70-46fa-84e9-2880585834ce","ios":"levelo://app?vid=2a2f2e51-af70-46fa-84e9-2880585834ce"},"vehicle_type_id":"4","last_reported":1774024261,"current_range_meters":7200,"station_id":"ce4bhf92rcd13ifvqf40","pricing_plan_id":"cebpf4jnsgd1na2vs0mg"},{"bike_id":"f328e3b6-a38c-49fe-80e0-c552630893a5","system_id":"levelo_inurba_marseille","lat":43.22933,"lon":5.35377,"is_reserved":false,"is_disabled":false,"rental_uris":{"android":"levelo://app?vid=f328e3b6-a38c-49fe-80e0-c552630893a5","ios":"levelo://app?vid=f328e3b6-a38c-49fe-80e0-c552630893a5"},"vehicle_type_id":"4","last_reported":1774024261,"current_range_meters":7200,"station_id":"cpo3532slgdg3j2ikp40","pricing_plan_id":"cebpf4jnsgd1na2vs0mg"},{"bike_id":"24dc1ce5-2db6-421b-869a-69d6f082b300","system_id":"levelo_inurba_marseille","lat":43.29861,"lon":5.36349,"is_reserved":false,"is_disabled":false,"rental_uris":{"android":"levelo://app?vid=24dc1ce5-2db6-421b-869a-69d6f082b300","ios":"levelo://app?vid=24dc1ce5-2db6-421b-869a-69d6f082b300"},"vehicle_type_id":"4","last_reported":1774024261,"current_range_meters":7200,"station_id":"","pricing_plan_id":"cebpf4jnsgd1na2vs0mg"},{"bike_id":"a775511c-9985-4a58-8c4c-775aad7f3e36","system_id":"levelo_inurba_marseille","lat":43.29897,"lon":5.43694,"is_reserved":false,"is_disabled":false,"rental_uris":{"android":"levelo://app?vid=a775511c-9985-4a58-8c4c-775aad7f3e36","ios":"levelo://app?vid=a775511c-9985-4a58-8c4c-775aad7f3e36"},"vehicle_type_id":"4","last_reported":1774024261,"current_range_meters":7200,"station_id":"ce4bhpp2rcd13ifvqhfg","pricing_plan_id":"cebpf4jnsgd1na2vs0mg"},{"bike_id":"80243ce6-4b7a-46ae-8587-260dc8ef075b","system_id":"levelo_inurba_marseille","lat":43.28627,"lon":5.351,"is_reserved":false,"is_disabled":false,"rental_uris":{"android":"levelo://app?vid=80243ce6-4b7a-46ae-8587-260dc8ef075b","ios":"levelo://app?vid=80243ce6-4b7a-46ae-8587-260dc8ef075b"},"vehicle_type_id":"4","last_reported":1774024261,"current_range_meters":7200,"station_id":"ce4bhch2rcd13ifvqeug","pricing_plan_id":"cebpf4jnsgd1na2vs0mg"},{"bike_id":"5c37a49c-ab60-4c11-8a61-6592ff444186","system_id":"levelo_inurba_marseille","lat":43.27908,"lon":5.39175,"is_reserved":false,"is_disabled":false,"rental_uris":{"android":"levelo://app?vid=5c37a49c-ab60-4c11-8a61-6592ff444186","ios":"levelo://app?vid=5c37a49c-ab60-4c11-8a61-6592ff444186"},"vehicle_type_id":"4","last_reported":1774024261,"current_range_meters":7200,"station_id":"","pricing_plan_id":"cebpf4jnsgd1na2vs0mg"},{"bike_id":"c55f3fc5-5edf-4ef9-9d84-f8899b074dbb","system_id":"levelo_inurba_marseille","lat":43.28861,"lon":5.42515,"is_reserved":false,"is_disabled":false,"rental_uris":{"android":"levelo://app?vid=c55f3fc5-5edf-4ef9-9d84-f8899b074dbb","ios":"levelo://app?vid=c55f3fc5-5edf-4ef9-9d84-f8899b074dbb"},"vehicle_type_id":"4","last_reported":1774024261,"current_range_meters":7200,"station_id":"","pricing_plan_id":"cebpf4jnsgd1na2vs0mg"},{"bike_id":"d69579b4-aa2f-4d41-8348-81787f465feb","system_id":"levelo_inurba_marseille","lat":43.28408,"lon":5.37519,"is_reserved":false,"is_disabled":false,"rental_uris":{"android":"levelo://app?vid=d69579b4-aa2f-4d41-8348-81787f465feb","ios":"levelo://app?vid=d69579b4-aa2f-4d41-8348-81787f465feb"},"vehicle_type_id":"4","last_reported":1774024261,"current_range_meters":7200,"station_id":"ce4bh412rcd13ifvqds0","pricing_plan_id":"cebpf4jnsgd1na2vs0mg"},{"bike_id":"817bc8bb-9f89-4047-9f24-b46ee8477295","system_id":"levelo_inurba_marseille","lat":43.26032,"lon":5.37548,"is_reserved":false,"is_disabled":false,"rental_uris":{"android":"levelo://app?vid=817bc8bb-9f89-4047-9f24-b46ee8477295","ios":"levelo://app?vid=817bc8bb-9f89-4047-9f24-b46ee8477295"},"vehicle_type_id":"4","last_reported":1774024261,"current_range_meters":7200,"station_id":"ce4bhgh2rcd13ifvqfa0","pricing_plan_id":"cebpf4jnsgd1na2vs0mg"},{"bike_id":"53ffd145-e808-4874-b669-0ac8a6361161","system_id":"levelo_inurba_marseille","lat":43.24813,"lon":5.37461,"is_reserved":false,"is_disabled":false,"rental_uris":{"android":"levelo://app?vid=53ffd145-e808-4874-b669-0ac8a6361161","ios":"levelo://app?vid=53ffd145-e808-4874-b669-0ac8a6361161"},"vehicle_type_id":"4","last_reported":1774024261,"current_range_meters":7200,"station_id":"ce4bhgh2rcd13ifvqfb0","pricing_plan_id":"cebpf4jnsgd1na2vs0mg"},{"bike_id":"41eedc24-0c97-478a-a50d-1206c8f2a7c3","system_id":"levelo_inurba_marseille","lat":43.2969,"lon":5.36604,"is_reserved":false,"is_disabled":false,"rental_uris":{"android":"levelo://app?vid=41eedc24-0c97-478a-a50d-1206c8f2a7c3","ios":"levelo://app?vid=41eedc24-0c97-478a-a50d-1206c8f2a7c3"},"vehicle_type_id":"4","last_reported":1774024261,"current_range_meters":7200,"station_id":"ce4bgn12rcd13ifvqbt0","pricing_plan_id":"cebpf4jnsgd1na2vs0mg"},{"bike_id":"602ad14f-86f3-4d9b-ac03-9b564cb3cb37","system_id":"levelo_inurba_marseille","lat":43.24808,"lon":5.37458,"is_reserved":false,"is_disabled":false,"rental_uris":{"android":"levelo://app?vid=602ad14f-86f3-4d9b-ac03-9b564cb3cb37","ios":"levelo://app?vid=602ad14f-86f3-4d9b-ac03-9b564cb3cb37"},"vehicle_type_id":"4","last_reported":1774024261,"current_range_meters":7200,"station_id":"ce4bhgh2rcd13ifvqfb0","pricing_plan_id":"cebpf4jnsgd1na2vs0mg"},{"bike_id":"0a277dc7-8cf9-4f7f-893a-ccf35a6a3490","system_id":"levelo_inurba_marseille","lat":43.28267,"lon":5.35062,"is_reserved":false,"is_disabled":false,"rental_uris":{"android":"levelo://app?vid=0a277dc7-8cf9-4f7f-893a-ccf35a6a3490","ios":"levelo://app?vid=0a277dc7-8cf9-4f7f-893a-ccf35a6a3490"},"vehicle_type_id":"4","last_reported":1774024261,"current_range_meters":7200,"station_id":"ce4bhbp2rcd13ifvqerg","pricing_plan_id":"cebpf4jnsgd1na2vs0mg"},{"bike_id":"31caa62d-cb2c-42fd-aa8e-1e9ca230fd55","system_id":"levelo_inurba_marseille","lat":43.28037,"lon":5.36942,"is_reserved":false,"is_disabled":false,"rental_uris":{"android":"levelo://app?vid=31caa62d-cb2c-42fd-aa8e-1e9ca230fd55","ios":"levelo://app?vid=31caa62d-cb2c-42fd-aa8e-1e9ca230fd55"},"vehicle_type_id":"4","last_reported":1774024261,"current_range_meters":7200,"station_id":"ce4bha12rcd13ifvqef0","pricing_plan_id":"cebpf4jnsgd1na2vs0mg"},{"bike_id":"89ad46cf-ad84-4e5e-be57-87ac2cebe69c","system_id":"levelo_inurba_marseille","lat":43.28474,"lon":5.48421,"is_reserved":false,"is_disabled":false,"rental_uris":{"android":"levelo://app?vid=89ad46cf-ad84-4e5e-be57-87ac2cebe69c","ios":"levelo://app?vid=89ad46cf-ad84-4e5e-be57-87ac2cebe69c"},"vehicle_type_id":"4","last_reported":1774024261,"current_range_meters":7200,"station_id":"st_d3svhcjqgbts73a3dn0g","pricing_plan_id":"cebpf4jnsgd1na2vs0mg"},{"bike_id":"f88beddb-d7c4-4148-9f8c-56ddec396a56","system_id":"levelo_inurba_marseille","lat":43.24801,"lon":5.37468,"is_reserved":false,"is_disabled":false,"rental_uris":{"android":"levelo://app?vid=f88beddb-d7c4-4148-9f8c-56ddec396a56","ios":"levelo://app?vid=f88beddb-d7c4-4148-9f8c-56ddec396a56"},"vehicle_type_id":"4","last_reported":1774024261,"current_range_meters":7200,"station_id":"ce4bhgh2rcd13ifvqfb0","pricing_plan_id":"cebpf4jnsgd1na2vs0mg"},{"bike_id":"71f311ab-463d-4a75-aca1-ff966e340ed1","system_id":"levelo_inurba_marseille","lat":43.258644,"lon":5.398941,"is_reserved":false,"is_disabled":false,"rental_uris":{"android":"levelo://app?vid=71f311ab-463d-4a75-aca1-ff966e340ed1","ios":"levelo://app?vid=71f311ab-463d-4a75-aca1-ff966e340ed1"},"vehicle_type_id":"4","last_reported":1774024261,"current_range_meters":7200,"station_id":"ce4bhl92rcd13ifvqghg","pricing_plan_id":"cebpf4jnsgd1na2vs0mg"},{"bike_id":"e5eba928-e3a4-441b-9540-937747ee47b9","system_id":"levelo_inurba_marseille","lat":43.22567,"lon":5.41624,"is_reserved":false,"is_disabled":false,"rental_uris":{"android":"levelo://app?vid=e5eba928-e3a4-441b-9540-937747ee47b9","ios":"levelo://app?vid=e5eba928-e3a4-441b-9540-937747ee47b9"},"vehicle_type_id":"4","last_reported":1774024261,"current_range_meters":7200,"station_id":"st_d2o4gvlbi1j2169b742g","pricing_plan_id":"cebpf4jnsgd1na2vs0mg"},{"bike_id":"7e4085b8-d56a-401a-9056-0d97a16df958","system_id":"levelo_inurba_marseille","lat":43.2843,"lon":5.35003,"is_reserved":false,"is_disabled":false,"rental_uris":{"android":"levelo://app?vid=7e4085b8-d56a-401a-9056-0d97a16df958","ios":"levelo://app?vid=7e4085b8-d56a-401a-9056-0d97a16df958"},"vehicle_type_id":"4","last_reported":1774024261,"current_range_meters":7200,"station_id":"ce4bhbh2rcd13ifvqepg","pricing_plan_id":"cebpf4jnsgd1na2vs0mg"},{"bike_id":"42cd3192-1d27-4d18-89d7-0dbd2277e932","system_id":"levelo_inurba_marseille","lat":43.25001,"lon":5.38924,"is_reserved":false,"is_disabled":false,"rental_uris":{"android":"levelo://app?vid=42cd3192-1d27-4d18-89d7-0dbd2277e932","ios":"levelo://app?vid=42cd3192-1d27-4d18-89d7-0dbd2277e932"},"vehicle_type_id":"4","last_reported":1774024261,"current_range_meters":7200,"station_id":"ce4bhgp2rcd13ifvqfd0","pricing_plan_id":"cebpf4jnsgd1na2vs0mg"},{"bike_id":"a1ce7f88-8f8c-48ff-bc8b-8021c61764ea","system_id":"levelo_inurba_marseille","lat":43.33542,"lon":5.37467,"is_reserved":false,"is_disabled":false,"rental_uris":{"android":"levelo://app?vid=a1ce7f88-8f8c-48ff-bc8b-8021c61764ea","ios":"levelo://app?vid=a1ce7f88-8f8c-48ff-bc8b-8021c61764ea"},"vehicle_type_id":"4","last_reported":1774024261,"current_range_meters":7200,"station_id":"st_d46tts09ee8s73dlu43g","pricing_plan_id":"cebpf4jnsgd1na2vs0mg"},{"bike_id":"53f48266-4564-420b-96ab-d243233055dc","system_id":"levelo_inurba_marseille","lat":43.28474,"lon":5.48391,"is_reserved":false,"is_disabled":false,"rental_uris":{"android":"levelo://app?vid=53f48266-4564-420b-96ab-d243233055dc","ios":"levelo://app?vid=53f48266-4564-420b-96ab-d243233055dc"},"vehicle_type_id":"4","last_reported":1774024261,"current_range_meters":8000,"station_id":"","pricing_plan_id":"cebpf4jnsgd1na2vs0mg"},{"bike_id":"282d6b77-af64-48eb-9b78-6f2cc771bece","system_id":"levelo_inurba_marseille","lat":43.29007,"lon":5.3561,"is_reserved":false,"is_disabled":false,"rental_uris":{"android":"levelo://app?vid=282d6b77-af64-48eb-9b78-6f2cc771bece","ios":"levelo://app?vid=282d6b77-af64-48eb-9b78-6f2cc771bece"},"vehicle_type_id":"4","last_reported":1774024261,"current_range_meters":8000,"station_id":"ce4bhb92rcd13ifvqen0","pricing_plan_id":"cebpf4jnsgd1na2vs0mg"},{"bike_id":"0cfdbc8d-4487-47be-b7a9-b1e474be5b3d","system_id":"levelo_inurba_marseille","lat":43.29879,"lon":5.3974,"is_reserved":false,"is_disabled":false,"rental_uris":{"android":"levelo://app?vid=0cfdbc8d-4487-47be-b7a9-b1e474be5b3d","ios":"levelo://app?vid=0cfdbc8d-4487-47be-b7a9-b1e474be5b3d"},"vehicle_type_id":"4","last_reported":1774024261,"current_range_meters":8000,"station_id":"ce4bh0h2rcd13ifvqd50","pricing_plan_id":"cebpf4jnsgd1na2vs0mg"},{"bike_id":"f12ce399-1654-48f8-a320-211fcab6582c","system_id":"levelo_inurba_marseille","lat":43.23783,"lon":5.36631,"is_reserved":false,"is_disabled":false,"rental_uris":{"android":"levelo://app?vid=f12ce399-1654-48f8-a320-211fcab6582c","ios":"levelo://app?vid=f12ce399-1654-48f8-a320-211fcab6582c"},"vehicle_type_id":"4","last_reported":1774024261,"current_range_meters":8000,"station_id":"st_d3nk18o9ro0c73en2l3g","pricing_plan_id":"cebpf4jnsgd1na2vs0mg"},{"bike_id":"d5ee1256-48d6-4489-927e-1930297b6faf","system_id":"levelo_inurba_marseille","lat":43.29867,"lon":5.39742,"is_reserved":false,"is_disabled":false,"rental_uris":{"android":"levelo://app?vid=d5ee1256-48d6-4489-927e-1930297b6faf","ios":"levelo://app?vid=d5ee1256-48d6-4489-927e-1930297b6faf"},"vehicle_type_id":"4","last_reported":1774024261,"current_range_meters":8000,"station_id":"ce4bh0h2rcd13ifvqd50","pricing_plan_id":"cebpf4jnsgd1na2vs0mg"},{"bike_id":"56640da4-a6be-4a43-9973-085a6297ede0","system_id":"levelo_inurba_marseille","lat":43.2737,"lon":5.36259,"is_reserved":false,"is_disabled":false,"rental_uris":{"android":"levelo://app?vid=56640da4-a6be-4a43-9973-085a6297ede0","ios":"levelo://app?vid=56640da4-a6be-4a43-9973-085a6297ede0"},"vehicle_type_id":"4","last_reported":1774024261,"current_range_meters":8000,"station_id":"ce4bhbh2rcd13ifvqeo0","pricing_plan_id":"cebpf4jnsgd1na2vs0mg"},{"bike_id":"01227990-dfe6-4c9c-9403-0ed2051fc477","system_id":"levelo_inurba_marseille","lat":43.28266,"lon":5.35059,"is_reserved":false,"is_disabled":false,"rental_uris":{"android":"levelo://app?vid=01227990-dfe6-4c9c-9403-0ed2051fc477","ios":"levelo://app?vid=01227990-dfe6-4c9c-9403-0ed2051fc477"},"vehicle_type_id":"4","last_reported":1774024261,"current_range_meters":8000,"station_id":"ce4bhbp2rcd13ifvqerg","pricing_plan_id":"cebpf4jnsgd1na2vs0mg"},{"bike_id":"4eab94ee-1d35-465f-9245-d5365535b297","system_id":"levelo_inurba_marseille","lat":43.30877,"lon":5.39664,"is_reserved":false,"is_disabled":false,"rental_uris":{"android":"levelo://app?vid=4eab94ee-1d35-465f-9245-d5365535b297","ios":"levelo://app?vid=4eab94ee-1d35-465f-9245-d5365535b297"},"vehicle_type_id":"4","last_reported":1774024261,"current_range_meters":8000,"station_id":"ce4bh012rcd13ifvqcv0","pricing_plan_id":"cebpf4jnsgd1na2vs0mg"},{"bike_id":"7fa64d84-cd92-4f02-a79d-c348b129b15f","system_id":"levelo_inurba_marseille","lat":43.24157,"lon":5.36428,"is_reserved":false,"is_disabled":false,"rental_uris":{"android":"levelo://app?vid=7fa64d84-cd92-4f02-a79d-c348b129b15f","ios":"levelo://app?vid=7fa64d84-cd92-4f02-a79d-c348b129b15f"},"vehicle_type_id":"4","last_reported":1774024261,"current_range_meters":8000,"station_id":"cpo36qri1sfpv3e86is0","pricing_plan_id":"cebpf4jnsgd1na2vs0mg"},{"bike_id":"7f23b953-de80-4d0c-9f3a-9b935d638427","system_id":"levelo_inurba_marseille","lat":43.29015,"lon":5.35611,"is_reserved":false,"is_disabled":false,"rental_uris":{"android":"levelo://app?vid=7f23b953-de80-4d0c-9f3a-9b935d638427","ios":"levelo://app?vid=7f23b953-de80-4d0c-9f3a-9b935d638427"},"vehicle_type_id":"4","last_reported":1774024261,"current_range_meters":8000,"station_id":"ce4bhb92rcd13ifvqen0","pricing_plan_id":"cebpf4jnsgd1na2vs0mg"},{"bike_id":"38f83e12-5fda-4603-befb-df571f36d446","system_id":"levelo_inurba_marseille","lat":43.24813,"lon":5.37461,"is_reserved":false,"is_disabled":false,"rental_uris":{"android":"levelo://app?vid=38f83e12-5fda-4603-befb-df571f36d446","ios":"levelo://app?vid=38f83e12-5fda-4603-befb-df571f36d446"},"vehicle_type_id":"4","last_reported":1774024261,"current_range_meters":8000,"station_id":"ce4bhgh2rcd13ifvqfb0","pricing_plan_id":"cebpf4jnsgd1na2vs0mg"},{"bike_id":"0c744d67-74b3-4bed-8fa1-274d8c3afbea","system_id":"levelo_inurba_marseille","lat":43.23796,"lon":5.36647,"is_reserved":false,"is_disabled":false,"rental_uris":{"android":"levelo://app?vid=0c744d67-74b3-4bed-8fa1-274d8c3afbea","ios":"levelo://app?vid=0c744d67-74b3-4bed-8fa1-274d8c3afbea"},"vehicle_type_id":"4","last_reported":1774024261,"current_range_meters":8000,"station_id":"st_d3nk18o9ro0c73en2l3g","pricing_plan_id":"cebpf4jnsgd1na2vs0mg"},{"bike_id":"0ad18c1e-e12c-45e0-b56d-998497d6ecfd","system_id":"levelo_inurba_marseille","lat":43.27912,"lon":5.38011,"is_reserved":false,"is_disabled":false,"rental_uris":{"android":"levelo://app?vid=0ad18c1e-e12c-45e0-b56d-998497d6ecfd","ios":"levelo://app?vid=0ad18c1e-e12c-45e0-b56d-998497d6ecfd"},"vehicle_type_id":"4","last_reported":1774024261,"current_range_meters":8000,"station_id":"ce4bhf92rcd13ifvqf50","pricing_plan_id":"cebpf4jnsgd1na2vs0mg"},{"bike_id":"78db73e8-c223-48d1-a67b-af835bc10622","system_id":"levelo_inurba_marseille","lat":43.29246,"lon":5.40898,"is_reserved":false,"is_disabled":false,"rental_uris":{"android":"levelo://app?vid=78db73e8-c223-48d1-a67b-af835bc10622","ios":"levelo://app?vid=78db73e8-c223-48d1-a67b-af835bc10622"},"vehicle_type_id":"4","last_reported":1774024261,"current_range_meters":8000,"station_id":"ce4bh192rcd13ifvqdc0","pricing_plan_id":"cebpf4jnsgd1na2vs0mg"},{"bike_id":"912e5f30-2e0b-48a9-85db-a984611241c9","system_id":"levelo_inurba_marseille","lat":43.29806,"lon":5.44089,"is_reserved":false,"is_disabled":false,"rental_uris":{"android":"levelo://app?vid=912e5f30-2e0b-48a9-85db-a984611241c9","ios":"levelo://app?vid=912e5f30-2e0b-48a9-85db-a984611241c9"},"vehicle_type_id":"4","last_reported":1774024261,"current_range_meters":8400,"station_id":"st_d3jp68qikq2c7381ktn0","pricing_plan_id":"cebpf4jnsgd1na2vs0mg"},{"bike_id":"92904402-a961-4947-937e-059655c6e1fb","system_id":"levelo_inurba_marseille","lat":43.29516,"lon":5.39404,"is_reserved":false,"is_disabled":false,"rental_uris":{"android":"levelo://app?vid=92904402-a961-4947-937e-059655c6e1fb","ios":"levelo://app?vid=92904402-a961-4947-937e-059655c6e1fb"},"vehicle_type_id":"4","last_reported":1774024261,"current_range_meters":8400,"station_id":"ce4bh292rcd13ifvqdf0","pricing_plan_id":"cebpf4jnsgd1na2vs0mg"},{"bike_id":"9ec1942c-b173-4801-9f27-3e6493805e2b","system_id":"levelo_inurba_marseille","lat":43.24643,"lon":5.38902,"is_reserved":false,"is_disabled":false,"rental_uris":{"android":"levelo://app?vid=9ec1942c-b173-4801-9f27-3e6493805e2b","ios":"levelo://app?vid=9ec1942c-b173-4801-9f27-3e6493805e2b"},"vehicle_type_id":"4","last_reported":1774024261,"current_range_meters":8400,"station_id":"ce4bhg12rcd13ifvqf60","pricing_plan_id":"cebpf4jnsgd1na2vs0mg"},{"bike_id":"047ba141-be1a-459b-b4e4-3f69e624e803","system_id":"levelo_inurba_marseille","lat":43.2737,"lon":5.36251,"is_reserved":false,"is_disabled":false,"rental_uris":{"android":"levelo://app?vid=047ba141-be1a-459b-b4e4-3f69e624e803","ios":"levelo://app?vid=047ba141-be1a-459b-b4e4-3f69e624e803"},"vehicle_type_id":"4","last_reported":1774024261,"current_range_meters":8400,"station_id":"ce4bhbh2rcd13ifvqeo0","pricing_plan_id":"cebpf4jnsgd1na2vs0mg"},{"bike_id":"92eaf70b-a9ac-459e-bc4d-bfb9841ace16","system_id":"levelo_inurba_marseille","lat":43.29519,"lon":5.37505,"is_reserved":false,"is_disabled":false,"rental_uris":{"android":"levelo://app?vid=92eaf70b-a9ac-459e-bc4d-bfb9841ace16","ios":"levelo://app?vid=92eaf70b-a9ac-459e-bc4d-bfb9841ace16"},"vehicle_type_id":"4","last_reported":1774024261,"current_range_meters":8400,"station_id":"ce4bgkp2rcd13ifvqbmg","pricing_plan_id":"cebpf4jnsgd1na2vs0mg"},{"bike_id":"fcf07af9-6922-462c-9ec8-4dbc02eaf158","system_id":"levelo_inurba_marseille","lat":43.2533,"lon":5.42166,"is_reserved":false,"is_disabled":false,"rental_uris":{"android":"levelo://app?vid=fcf07af9-6922-462c-9ec8-4dbc02eaf158","ios":"levelo://app?vid=fcf07af9-6922-462c-9ec8-4dbc02eaf158"},"vehicle_type_id":"4","last_reported":1774024261,"current_range_meters":8400,"station_id":"st_d2m65c5bi1j21697t3ng","pricing_plan_id":"cebpf4jnsgd1na2vs0mg"},{"bike_id":"8648ff3d-a49d-4491-be6c-bab3f9812603","system_id":"levelo_inurba_marseille","lat":43.28296,"lon":5.43845,"is_reserved":false,"is_disabled":false,"rental_uris":{"android":"levelo://app?vid=8648ff3d-a49d-4491-be6c-bab3f9812603","ios":"levelo://app?vid=8648ff3d-a49d-4491-be6c-bab3f9812603"},"vehicle_type_id":"4","last_reported":1774024261,"current_range_meters":8400,"station_id":"","pricing_plan_id":"cebpf4jnsgd1na2vs0mg"},{"bike_id":"f9f48d8c-c3ab-4bd6-b2c8-0b53ceb873a3","system_id":"levelo_inurba_marseille","lat":43.24805,"lon":5.37453,"is_reserved":false,"is_disabled":false,"rental_uris":{"android":"levelo://app?vid=f9f48d8c-c3ab-4bd6-b2c8-0b53ceb873a3","ios":"levelo://app?vid=f9f48d8c-c3ab-4bd6-b2c8-0b53ceb873a3"},"vehicle_type_id":"4","last_reported":1774024261,"current_range_meters":8400,"station_id":"ce4bhgh2rcd13ifvqfb0","pricing_plan_id":"cebpf4jnsgd1na2vs0mg"},{"bike_id":"32114caa-ea8a-4fd4-b51a-deb7db1d0588","system_id":"levelo_inurba_marseille","lat":43.26558,"lon":5.37294,"is_reserved":false,"is_disabled":false,"rental_uris":{"android":"levelo://app?vid=32114caa-ea8a-4fd4-b51a-deb7db1d0588","ios":"levelo://app?vid=32114caa-ea8a-4fd4-b51a-deb7db1d0588"},"vehicle_type_id":"4","last_reported":1774024261,"current_range_meters":8400,"station_id":"ce4bhg12rcd13ifvqf70","pricing_plan_id":"cebpf4jnsgd1na2vs0mg"},{"bike_id":"c7256916-f535-4789-960a-2fbf80cd4e53","system_id":"levelo_inurba_marseille","lat":43.27805,"lon":5.40703,"is_reserved":false,"is_disabled":false,"rental_uris":{"android":"levelo://app?vid=c7256916-f535-4789-960a-2fbf80cd4e53","ios":"levelo://app?vid=c7256916-f535-4789-960a-2fbf80cd4e53"},"vehicle_type_id":"4","last_reported":1774024261,"current_range_meters":8400,"station_id":"ce4bhnh2rcd13ifvqgtg","pricing_plan_id":"cebpf4jnsgd1na2vs0mg"},{"bike_id":"a8c8307b-e1e9-4950-a785-578e1a82f805","system_id":"levelo_inurba_marseille","lat":43.31269,"lon":5.378,"is_reserved":false,"is_disabled":false,"rental_uris":{"android":"levelo://app?vid=a8c8307b-e1e9-4950-a785-578e1a82f805","ios":"levelo://app?vid=a8c8307b-e1e9-4950-a785-578e1a82f805"},"vehicle_type_id":"4","last_reported":1774024261,"current_range_meters":8400,"station_id":"","pricing_plan_id":"cebpf4jnsgd1na2vs0mg"},{"bike_id":"962e3e51-db50-4f61-a079-9b1c6a103eb5","system_id":"levelo_inurba_marseille","lat":43.30963,"lon":5.36814,"is_reserved":false,"is_disabled":false,"rental_uris":{"android":"levelo://app?vid=962e3e51-db50-4f61-a079-9b1c6a103eb5","ios":"levelo://app?vid=962e3e51-db50-4f61-a079-9b1c6a103eb5"},"vehicle_type_id":"4","last_reported":1774024261,"current_range_meters":8400,"station_id":"","pricing_plan_id":"cebpf4jnsgd1na2vs0mg"},{"bike_id":"7f166c91-9eb1-4dc8-a940-85d8139ad9d9","system_id":"levelo_inurba_marseille","lat":43.23962,"lon":5.36629,"is_reserved":false,"is_disabled":false,"rental_uris":{"android":"levelo://app?vid=7f166c91-9eb1-4dc8-a940-85d8139ad9d9","ios":"levelo://app?vid=7f166c91-9eb1-4dc8-a940-85d8139ad9d9"},"vehicle_type_id":"4","last_reported":1774024261,"current_range_meters":8400,"station_id":"ce4bhi12rcd13ifvqfp0","pricing_plan_id":"cebpf4jnsgd1na2vs0mg"},{"bike_id":"c0377718-8a8b-4749-982a-93f5831e10df","system_id":"levelo_inurba_marseille","lat":43.25586,"lon":5.38274,"is_reserved":false,"is_disabled":false,"rental_uris":{"android":"levelo://app?vid=c0377718-8a8b-4749-982a-93f5831e10df","ios":"levelo://app?vid=c0377718-8a8b-4749-982a-93f5831e10df"},"vehicle_type_id":"4","last_reported":1774024261,"current_range_meters":8400,"station_id":"ce4bhih2rcd13ifvqfs0","pricing_plan_id":"cebpf4jnsgd1na2vs0mg"},{"bike_id":"76a7b3a4-3e60-49c4-bbc5-7b6ca95cc1fe","system_id":"levelo_inurba_marseille","lat":43.29002,"lon":5.35615,"is_reserved":false,"is_disabled":false,"rental_uris":{"android":"levelo://app?vid=76a7b3a4-3e60-49c4-bbc5-7b6ca95cc1fe","ios":"levelo://app?vid=76a7b3a4-3e60-49c4-bbc5-7b6ca95cc1fe"},"vehicle_type_id":"4","last_reported":1774024261,"current_range_meters":8400,"station_id":"ce4bhb92rcd13ifvqen0","pricing_plan_id":"cebpf4jnsgd1na2vs0mg"},{"bike_id":"2d9e4754-9b17-40b5-bbeb-5b1c9c5bbe64","system_id":"levelo_inurba_marseille","lat":43.30133,"lon":5.3881,"is_reserved":false,"is_disabled":true,"rental_uris":{"android":"levelo://app?vid=2d9e4754-9b17-40b5-bbeb-5b1c9c5bbe64","ios":"levelo://app?vid=2d9e4754-9b17-40b5-bbeb-5b1c9c5bbe64"},"vehicle_type_id":"4","last_reported":1774024261,"current_range_meters":8400,"station_id":"ce4bghh2rcd13ifvqb60","pricing_plan_id":"cebpf4jnsgd1na2vs0mg"},{"bike_id":"cf644b4a-b00b-4198-9a69-695c69bc416b","system_id":"levelo_inurba_marseille","lat":43.23064,"lon":5.35496,"is_reserved":false,"is_disabled":false,"rental_uris":{"android":"levelo://app?vid=cf644b4a-b00b-4198-9a69-695c69bc416b","ios":"levelo://app?vid=cf644b4a-b00b-4198-9a69-695c69bc416b"},"vehicle_type_id":"4","last_reported":1774024261,"current_range_meters":8400,"station_id":"cpo3342slgdg3j2ifvpg","pricing_plan_id":"cebpf4jnsgd1na2vs0mg"},{"bike_id":"43fc4f11-3e8e-4a89-8137-f8a3684f22ed","system_id":"levelo_inurba_marseille","lat":43.28037,"lon":5.36951,"is_reserved":false,"is_disabled":false,"rental_uris":{"android":"levelo://app?vid=43fc4f11-3e8e-4a89-8137-f8a3684f22ed","ios":"levelo://app?vid=43fc4f11-3e8e-4a89-8137-f8a3684f22ed"},"vehicle_type_id":"4","last_reported":1774024261,"current_range_meters":8400,"station_id":"ce4bha12rcd13ifvqef0","pricing_plan_id":"cebpf4jnsgd1na2vs0mg"},{"bike_id":"82354b8d-6906-466d-97c5-8bf0fb04476a","system_id":"levelo_inurba_marseille","lat":43.28416,"lon":5.34981,"is_reserved":false,"is_disabled":false,"rental_uris":{"android":"levelo://app?vid=82354b8d-6906-466d-97c5-8bf0fb04476a","ios":"levelo://app?vid=82354b8d-6906-466d-97c5-8bf0fb04476a"},"vehicle_type_id":"4","last_reported":1774024261,"current_range_meters":8800,"station_id":"ce4bhbh2rcd13ifvqepg","pricing_plan_id":"cebpf4jnsgd1na2vs0mg"},{"bike_id":"bc6dbc26-77d1-4efa-a3d1-c5f98adc1194","system_id":"levelo_inurba_marseille","lat":43.28263,"lon":5.35072,"is_reserved":false,"is_disabled":false,"rental_uris":{"android":"levelo://app?vid=bc6dbc26-77d1-4efa-a3d1-c5f98adc1194","ios":"levelo://app?vid=bc6dbc26-77d1-4efa-a3d1-c5f98adc1194"},"vehicle_type_id":"4","last_reported":1774024261,"current_range_meters":8800,"station_id":"ce4bhbp2rcd13ifvqerg","pricing_plan_id":"cebpf4jnsgd1na2vs0mg"},{"bike_id":"f09eeb52-179c-4a33-a797-49b0619b5e19","system_id":"levelo_inurba_marseille","lat":43.27358,"lon":5.3623,"is_reserved":false,"is_disabled":false,"rental_uris":{"android":"levelo://app?vid=f09eeb52-179c-4a33-a797-49b0619b5e19","ios":"levelo://app?vid=f09eeb52-179c-4a33-a797-49b0619b5e19"},"vehicle_type_id":"4","last_reported":1774024261,"current_range_meters":8800,"station_id":"ce4bhbh2rcd13ifvqeo0","pricing_plan_id":"cebpf4jnsgd1na2vs0mg"},{"bike_id":"e2420c11-4646-4145-aa2e-baedb91a43dc","system_id":"levelo_inurba_marseille","lat":43.32351,"lon":5.36727,"is_reserved":false,"is_disabled":false,"rental_uris":{"android":"levelo://app?vid=e2420c11-4646-4145-aa2e-baedb91a43dc","ios":"levelo://app?vid=e2420c11-4646-4145-aa2e-baedb91a43dc"},"vehicle_type_id":"4","last_reported":1774024261,"current_range_meters":8800,"station_id":"ce4bhsh2rcd13ifvqi2g","pricing_plan_id":"cebpf4jnsgd1na2vs0mg"},{"bike_id":"8b1ca434-1bac-40e0-a905-303e63e0c8f3","system_id":"levelo_inurba_marseille","lat":43.23186,"lon":5.39989,"is_reserved":false,"is_disabled":false,"rental_uris":{"android":"levelo://app?vid=8b1ca434-1bac-40e0-a905-303e63e0c8f3","ios":"levelo://app?vid=8b1ca434-1bac-40e0-a905-303e63e0c8f3"},"vehicle_type_id":"4","last_reported":1774024261,"current_range_meters":8800,"station_id":"ce4bhn12rcd13ifvqgqg","pricing_plan_id":"cebpf4jnsgd1na2vs0mg"},{"bike_id":"d00ce6b1-d263-4644-9ac8-801c3d34ac19","system_id":"levelo_inurba_marseille","lat":43.22564,"lon":5.41626,"is_reserved":false,"is_disabled":false,"rental_uris":{"android":"levelo://app?vid=d00ce6b1-d263-4644-9ac8-801c3d34ac19","ios":"levelo://app?vid=d00ce6b1-d263-4644-9ac8-801c3d34ac19"},"vehicle_type_id":"4","last_reported":1774024261,"current_range_meters":8800,"station_id":"st_d2o4gvlbi1j2169b742g","pricing_plan_id":"cebpf4jnsgd1na2vs0mg"},{"bike_id":"15831834-149a-4cc6-9a28-61bc10068dbd","system_id":"levelo_inurba_marseille","lat":43.28832,"lon":5.3584,"is_reserved":false,"is_disabled":false,"rental_uris":{"android":"levelo://app?vid=15831834-149a-4cc6-9a28-61bc10068dbd","ios":"levelo://app?vid=15831834-149a-4cc6-9a28-61bc10068dbd"},"vehicle_type_id":"4","last_reported":1774024261,"current_range_meters":8800,"station_id":"ce4bhb12rcd13ifvqem0","pricing_plan_id":"cebpf4jnsgd1na2vs0mg"},{"bike_id":"f3414e99-2d7c-4b03-96db-df8c1c6d3f2b","system_id":"levelo_inurba_marseille","lat":43.28486,"lon":5.48409,"is_reserved":false,"is_disabled":false,"rental_uris":{"android":"levelo://app?vid=f3414e99-2d7c-4b03-96db-df8c1c6d3f2b","ios":"levelo://app?vid=f3414e99-2d7c-4b03-96db-df8c1c6d3f2b"},"vehicle_type_id":"4","last_reported":1774024261,"current_range_meters":8800,"station_id":"","pricing_plan_id":"cebpf4jnsgd1na2vs0mg"},{"bike_id":"ab77a418-345e-453b-bca3-3815a5ee3842","system_id":"levelo_inurba_marseille","lat":43.23195,"lon":5.35546,"is_reserved":false,"is_disabled":false,"rental_uris":{"android":"levelo://app?vid=ab77a418-345e-453b-bca3-3815a5ee3842","ios":"levelo://app?vid=ab77a418-345e-453b-bca3-3815a5ee3842"},"vehicle_type_id":"4","last_reported":1774024261,"current_range_meters":8800,"station_id":"ce4bhu92rcd13ifvqi70","pricing_plan_id":"cebpf4jnsgd1na2vs0mg"},{"bike_id":"f5805e83-87ed-4157-aa55-f5487b79b7bb","system_id":"levelo_inurba_marseille","lat":43.24657,"lon":5.38176,"is_reserved":false,"is_disabled":false,"rental_uris":{"android":"levelo://app?vid=f5805e83-87ed-4157-aa55-f5487b79b7bb","ios":"levelo://app?vid=f5805e83-87ed-4157-aa55-f5487b79b7bb"},"vehicle_type_id":"4","last_reported":1774024261,"current_range_meters":8800,"station_id":"ce4bhih2rcd13ifvqfr0","pricing_plan_id":"cebpf4jnsgd1na2vs0mg"},{"bike_id":"bfa999de-7a32-454a-b31e-f99ace51a3fc","system_id":"levelo_inurba_marseille","lat":43.2848,"lon":5.48407,"is_reserved":false,"is_disabled":false,"rental_uris":{"android":"levelo://app?vid=bfa999de-7a32-454a-b31e-f99ace51a3fc","ios":"levelo://app?vid=bfa999de-7a32-454a-b31e-f99ace51a3fc"},"vehicle_type_id":"4","last_reported":1774024261,"current_range_meters":8800,"station_id":"","pricing_plan_id":"cebpf4jnsgd1na2vs0mg"},{"bike_id":"b3b3bb0b-fb2d-4490-a557-6f80b344e03f","system_id":"levelo_inurba_marseille","lat":43.28912,"lon":5.39699,"is_reserved":false,"is_disabled":true,"rental_uris":{"android":"levelo://app?vid=b3b3bb0b-fb2d-4490-a557-6f80b344e03f","ios":"levelo://app?vid=b3b3bb0b-fb2d-4490-a557-6f80b344e03f"},"vehicle_type_id":"4","last_reported":1774024261,"current_range_meters":8800,"station_id":"","pricing_plan_id":"cebpf4jnsgd1na2vs0mg"},{"bike_id":"f80242bd-cda9-4de1-a643-4d63093f953c","system_id":"levelo_inurba_marseille","lat":43.29756,"lon":5.42789,"is_reserved":false,"is_disabled":false,"rental_uris":{"android":"levelo://app?vid=f80242bd-cda9-4de1-a643-4d63093f953c","ios":"levelo://app?vid=f80242bd-cda9-4de1-a643-4d63093f953c"},"vehicle_type_id":"4","last_reported":1774024261,"current_range_meters":8800,"station_id":"st_d3md5207bmas73dh9klg","pricing_plan_id":"cebpf4jnsgd1na2vs0mg"},{"bike_id":"ffee91b4-e1f4-4cfe-bfbf-9ca7434cffe2","system_id":"levelo_inurba_marseille","lat":43.27405,"lon":5.39401,"is_reserved":false,"is_disabled":true,"rental_uris":{"android":"levelo://app?vid=ffee91b4-e1f4-4cfe-bfbf-9ca7434cffe2","ios":"levelo://app?vid=ffee91b4-e1f4-4cfe-bfbf-9ca7434cffe2"},"vehicle_type_id":"4","last_reported":1774024261,"current_range_meters":8800,"station_id":"ce4bhdp2rcd13ifvqf20","pricing_plan_id":"cebpf4jnsgd1na2vs0mg"},{"bike_id":"1376a9e6-82f2-4044-9646-2a6072ea4527","system_id":"levelo_inurba_marseille","lat":43.23783,"lon":5.36627,"is_reserved":false,"is_disabled":false,"rental_uris":{"android":"levelo://app?vid=1376a9e6-82f2-4044-9646-2a6072ea4527","ios":"levelo://app?vid=1376a9e6-82f2-4044-9646-2a6072ea4527"},"vehicle_type_id":"4","last_reported":1774024261,"current_range_meters":8800,"station_id":"st_d3nk18o9ro0c73en2l3g","pricing_plan_id":"cebpf4jnsgd1na2vs0mg"},{"bike_id":"9760775a-05dd-42a4-b0e9-e1b82bf91f4a","system_id":"levelo_inurba_marseille","lat":43.28847,"lon":5.35874,"is_reserved":false,"is_disabled":false,"rental_uris":{"android":"levelo://app?vid=9760775a-05dd-42a4-b0e9-e1b82bf91f4a","ios":"levelo://app?vid=9760775a-05dd-42a4-b0e9-e1b82bf91f4a"},"vehicle_type_id":"4","last_reported":1774024261,"current_range_meters":8800,"station_id":"ce4bhb12rcd13ifvqem0","pricing_plan_id":"cebpf4jnsgd1na2vs0mg"},{"bike_id":"c7ca3395-61a6-424a-8b4e-14bb7ddfa33a","system_id":"levelo_inurba_marseille","lat":43.30125,"lon":5.38775,"is_reserved":false,"is_disabled":true,"rental_uris":{"android":"levelo://app?vid=c7ca3395-61a6-424a-8b4e-14bb7ddfa33a","ios":"levelo://app?vid=c7ca3395-61a6-424a-8b4e-14bb7ddfa33a"},"vehicle_type_id":"4","last_reported":1774024261,"current_range_meters":8800,"station_id":"ce4bghh2rcd13ifvqb60","pricing_plan_id":"cebpf4jnsgd1na2vs0mg"},{"bike_id":"fa225d4c-b481-4eae-a4d6-4234063591e0","system_id":"levelo_inurba_marseille","lat":43.21203,"lon":5.35071,"is_reserved":false,"is_disabled":false,"rental_uris":{"android":"levelo://app?vid=fa225d4c-b481-4eae-a4d6-4234063591e0","ios":"levelo://app?vid=fa225d4c-b481-4eae-a4d6-4234063591e0"},"vehicle_type_id":"4","last_reported":1774024261,"current_range_meters":8800,"station_id":"st_cvj6sg6p6f1abm77japg","pricing_plan_id":"cebpf4jnsgd1na2vs0mg"},{"bike_id":"c93b12d0-4980-4ed1-919a-8b7ed9529cd3","system_id":"levelo_inurba_marseille","lat":43.29922,"lon":5.37488,"is_reserved":false,"is_disabled":false,"rental_uris":{"android":"levelo://app?vid=c93b12d0-4980-4ed1-919a-8b7ed9529cd3","ios":"levelo://app?vid=c93b12d0-4980-4ed1-919a-8b7ed9529cd3"},"vehicle_type_id":"4","last_reported":1774024261,"current_range_meters":8800,"station_id":"ce4bgjh2rcd13ifvqbg0","pricing_plan_id":"cebpf4jnsgd1na2vs0mg"},{"bike_id":"908e5820-2dcb-46fe-a4a9-451393752c50","system_id":"levelo_inurba_marseille","lat":43.26212,"lon":5.37467,"is_reserved":false,"is_disabled":false,"rental_uris":{"android":"levelo://app?vid=908e5820-2dcb-46fe-a4a9-451393752c50","ios":"levelo://app?vid=908e5820-2dcb-46fe-a4a9-451393752c50"},"vehicle_type_id":"4","last_reported":1774024261,"current_range_meters":8800,"station_id":"ce4bhgp2rcd13ifvqfc0","pricing_plan_id":"cebpf4jnsgd1na2vs0mg"},{"bike_id":"79676942-3051-4c8d-9ec5-fa7181a0eac0","system_id":"levelo_inurba_marseille","lat":43.25115,"lon":5.40325,"is_reserved":false,"is_disabled":false,"rental_uris":{"android":"levelo://app?vid=79676942-3051-4c8d-9ec5-fa7181a0eac0","ios":"levelo://app?vid=79676942-3051-4c8d-9ec5-fa7181a0eac0"},"vehicle_type_id":"4","last_reported":1774024261,"current_range_meters":9200,"station_id":"ce4bhlh2rcd13ifvqgig","pricing_plan_id":"cebpf4jnsgd1na2vs0mg"},{"bike_id":"7f69ea73-8aff-462b-a819-a0809de4b8a2","system_id":"levelo_inurba_marseille","lat":43.3055,"lon":5.36547,"is_reserved":false,"is_disabled":false,"rental_uris":{"android":"levelo://app?vid=7f69ea73-8aff-462b-a819-a0809de4b8a2","ios":"levelo://app?vid=7f69ea73-8aff-462b-a819-a0809de4b8a2"},"vehicle_type_id":"4","last_reported":1774024261,"current_range_meters":9200,"station_id":"ce4bgs12rcd13ifvqcag","pricing_plan_id":"cebpf4jnsgd1na2vs0mg"},{"bike_id":"cc777a7e-f3d4-4026-819d-66c6f1a5d2b6","system_id":"levelo_inurba_marseille","lat":43.29221,"lon":5.42574,"is_reserved":false,"is_disabled":false,"rental_uris":{"android":"levelo://app?vid=cc777a7e-f3d4-4026-819d-66c6f1a5d2b6","ios":"levelo://app?vid=cc777a7e-f3d4-4026-819d-66c6f1a5d2b6"},"vehicle_type_id":"4","last_reported":1774024261,"current_range_meters":9200,"station_id":"","pricing_plan_id":"cebpf4jnsgd1na2vs0mg"},{"bike_id":"92f32112-8a58-4a2d-8380-c50aa46da344","system_id":"levelo_inurba_marseille","lat":43.24082,"lon":5.36366,"is_reserved":false,"is_disabled":false,"rental_uris":{"android":"levelo://app?vid=92f32112-8a58-4a2d-8380-c50aa46da344","ios":"levelo://app?vid=92f32112-8a58-4a2d-8380-c50aa46da344"},"vehicle_type_id":"4","last_reported":1774024261,"current_range_meters":9200,"station_id":"","pricing_plan_id":"cebpf4jnsgd1na2vs0mg"},{"bike_id":"15fb4bb8-4c0f-4ee3-a727-89e0f28d0a52","system_id":"levelo_inurba_marseille","lat":43.23792,"lon":5.36638,"is_reserved":false,"is_disabled":false,"rental_uris":{"android":"levelo://app?vid=15fb4bb8-4c0f-4ee3-a727-89e0f28d0a52","ios":"levelo://app?vid=15fb4bb8-4c0f-4ee3-a727-89e0f28d0a52"},"vehicle_type_id":"4","last_reported":1774024261,"current_range_meters":9200,"station_id":"st_d3nk18o9ro0c73en2l3g","pricing_plan_id":"cebpf4jnsgd1na2vs0mg"},{"bike_id":"393b7bcb-a9bf-43bb-9225-9c75cd9bc57a","system_id":"levelo_inurba_marseille","lat":43.2821,"lon":5.40567,"is_reserved":false,"is_disabled":false,"rental_uris":{"android":"levelo://app?vid=393b7bcb-a9bf-43bb-9225-9c75cd9bc57a","ios":"levelo://app?vid=393b7bcb-a9bf-43bb-9225-9c75cd9bc57a"},"vehicle_type_id":"4","last_reported":1774024261,"current_range_meters":9200,"station_id":"","pricing_plan_id":"cebpf4jnsgd1na2vs0mg"},{"bike_id":"7e8d95cf-3163-4ed5-8f3f-e335b460ed44","system_id":"levelo_inurba_marseille","lat":43.28037,"lon":5.36947,"is_reserved":false,"is_disabled":false,"rental_uris":{"android":"levelo://app?vid=7e8d95cf-3163-4ed5-8f3f-e335b460ed44","ios":"levelo://app?vid=7e8d95cf-3163-4ed5-8f3f-e335b460ed44"},"vehicle_type_id":"4","last_reported":1774024261,"current_range_meters":9200,"station_id":"ce4bha12rcd13ifvqef0","pricing_plan_id":"cebpf4jnsgd1na2vs0mg"},{"bike_id":"e1e9d03b-9611-42c4-8118-84291a99a23a","system_id":"levelo_inurba_marseille","lat":43.28986,"lon":5.35597,"is_reserved":false,"is_disabled":false,"rental_uris":{"android":"levelo://app?vid=e1e9d03b-9611-42c4-8118-84291a99a23a","ios":"levelo://app?vid=e1e9d03b-9611-42c4-8118-84291a99a23a"},"vehicle_type_id":"4","last_reported":1774024261,"current_range_meters":9200,"station_id":"ce4bhb92rcd13ifvqen0","pricing_plan_id":"cebpf4jnsgd1na2vs0mg"},{"bike_id":"93381139-ef96-4edf-a51a-fccfab37f7b0","system_id":"levelo_inurba_marseille","lat":43.30904,"lon":5.36849,"is_reserved":false,"is_disabled":false,"rental_uris":{"android":"levelo://app?vid=93381139-ef96-4edf-a51a-fccfab37f7b0","ios":"levelo://app?vid=93381139-ef96-4edf-a51a-fccfab37f7b0"},"vehicle_type_id":"4","last_reported":1774024261,"current_range_meters":9200,"station_id":"ce4bgn92rcd13ifvqbvg","pricing_plan_id":"cebpf4jnsgd1na2vs0mg"},{"bike_id":"2e2691c5-a672-4f4c-be10-8732b96e7f98","system_id":"levelo_inurba_marseille","lat":43.26555,"lon":5.3729,"is_reserved":false,"is_disabled":false,"rental_uris":{"android":"levelo://app?vid=2e2691c5-a672-4f4c-be10-8732b96e7f98","ios":"levelo://app?vid=2e2691c5-a672-4f4c-be10-8732b96e7f98"},"vehicle_type_id":"4","last_reported":1774024261,"current_range_meters":9200,"station_id":"ce4bhg12rcd13ifvqf70","pricing_plan_id":"cebpf4jnsgd1na2vs0mg"},{"bike_id":"94d7ff09-819e-489a-bb88-56ef8c2bc4bf","system_id":"levelo_inurba_marseille","lat":43.284,"lon":5.34987,"is_reserved":false,"is_disabled":false,"rental_uris":{"android":"levelo://app?vid=94d7ff09-819e-489a-bb88-56ef8c2bc4bf","ios":"levelo://app?vid=94d7ff09-819e-489a-bb88-56ef8c2bc4bf"},"vehicle_type_id":"4","last_reported":1774024261,"current_range_meters":9200,"station_id":"ce4bhbh2rcd13ifvqepg","pricing_plan_id":"cebpf4jnsgd1na2vs0mg"},{"bike_id":"a9c55401-ec21-4bac-9d6a-208c987c2cc4","system_id":"levelo_inurba_marseille","lat":43.25631,"lon":5.41857,"is_reserved":false,"is_disabled":false,"rental_uris":{"android":"levelo://app?vid=a9c55401-ec21-4bac-9d6a-208c987c2cc4","ios":"levelo://app?vid=a9c55401-ec21-4bac-9d6a-208c987c2cc4"},"vehicle_type_id":"4","last_reported":1774024261,"current_range_meters":9200,"station_id":"","pricing_plan_id":"cebpf4jnsgd1na2vs0mg"},{"bike_id":"55095d1f-fa43-4a70-a64e-f3ed1061babc","system_id":"levelo_inurba_marseille","lat":43.29182,"lon":5.3905,"is_reserved":false,"is_disabled":false,"rental_uris":{"android":"levelo://app?vid=55095d1f-fa43-4a70-a64e-f3ed1061babc","ios":"levelo://app?vid=55095d1f-fa43-4a70-a64e-f3ed1061babc"},"vehicle_type_id":"4","last_reported":1774024261,"current_range_meters":9200,"station_id":"","pricing_plan_id":"cebpf4jnsgd1na2vs0mg"},{"bike_id":"a4659d68-246f-4ec4-9eda-fd8e8645e205","system_id":"levelo_inurba_marseille","lat":43.27379,"lon":5.36274,"is_reserved":false,"is_disabled":false,"rental_uris":{"android":"levelo://app?vid=a4659d68-246f-4ec4-9eda-fd8e8645e205","ios":"levelo://app?vid=a4659d68-246f-4ec4-9eda-fd8e8645e205"},"vehicle_type_id":"4","last_reported":1774024261,"current_range_meters":9200,"station_id":"ce4bhbh2rcd13ifvqeo0","pricing_plan_id":"cebpf4jnsgd1na2vs0mg"},{"bike_id":"b87d7938-28e4-46e7-994e-fdebd5392225","system_id":"levelo_inurba_marseille","lat":43.3211,"lon":5.36781,"is_reserved":false,"is_disabled":false,"rental_uris":{"android":"levelo://app?vid=b87d7938-28e4-46e7-994e-fdebd5392225","ios":"levelo://app?vid=b87d7938-28e4-46e7-994e-fdebd5392225"},"vehicle_type_id":"4","last_reported":1774024261,"current_range_meters":9200,"station_id":"ce4bhrh2rcd13ifvqhug","pricing_plan_id":"cebpf4jnsgd1na2vs0mg"},{"bike_id":"455db2a8-8a29-4b21-bee8-2173b322d703","system_id":"levelo_inurba_marseille","lat":43.27376,"lon":5.36259,"is_reserved":false,"is_disabled":false,"rental_uris":{"android":"levelo://app?vid=455db2a8-8a29-4b21-bee8-2173b322d703","ios":"levelo://app?vid=455db2a8-8a29-4b21-bee8-2173b322d703"},"vehicle_type_id":"4","last_reported":1774024261,"current_range_meters":9200,"station_id":"ce4bhbh2rcd13ifvqeo0","pricing_plan_id":"cebpf4jnsgd1na2vs0mg"},{"bike_id":"ab8ec263-ac15-4e5a-9a25-7872e9325b91","system_id":"levelo_inurba_marseille","lat":43.28418,"lon":5.34988,"is_reserved":false,"is_disabled":false,"rental_uris":{"android":"levelo://app?vid=ab8ec263-ac15-4e5a-9a25-7872e9325b91","ios":"levelo://app?vid=ab8ec263-ac15-4e5a-9a25-7872e9325b91"},"vehicle_type_id":"4","last_reported":1774024261,"current_range_meters":9600,"station_id":"ce4bhbh2rcd13ifvqepg","pricing_plan_id":"cebpf4jnsgd1na2vs0mg"},{"bike_id":"42b64a74-c3cb-4bf8-b681-a2c9a2141e6b","system_id":"levelo_inurba_marseille","lat":43.29959,"lon":5.38502,"is_reserved":false,"is_disabled":false,"rental_uris":{"android":"levelo://app?vid=42b64a74-c3cb-4bf8-b681-a2c9a2141e6b","ios":"levelo://app?vid=42b64a74-c3cb-4bf8-b681-a2c9a2141e6b"},"vehicle_type_id":"4","last_reported":1774024261,"current_range_meters":9600,"station_id":"ce4bgj92rcd13ifvqbd0","pricing_plan_id":"cebpf4jnsgd1na2vs0mg"},{"bike_id":"98fd4811-f5fe-471b-acec-fa220e91fa77","system_id":"levelo_inurba_marseille","lat":43.30311,"lon":5.36909,"is_reserved":false,"is_disabled":false,"rental_uris":{"android":"levelo://app?vid=98fd4811-f5fe-471b-acec-fa220e91fa77","ios":"levelo://app?vid=98fd4811-f5fe-471b-acec-fa220e91fa77"},"vehicle_type_id":"4","last_reported":1774024261,"current_range_meters":9600,"station_id":"ce4bgqh2rcd13ifvqc5g","pricing_plan_id":"cebpf4jnsgd1na2vs0mg"},{"bike_id":"1825fe71-559f-4ecc-b6e1-54e9fc56c2c4","system_id":"levelo_inurba_marseille","lat":43.30464,"lon":5.37909,"is_reserved":false,"is_disabled":false,"rental_uris":{"android":"levelo://app?vid=1825fe71-559f-4ecc-b6e1-54e9fc56c2c4","ios":"levelo://app?vid=1825fe71-559f-4ecc-b6e1-54e9fc56c2c4"},"vehicle_type_id":"4","last_reported":1774024261,"current_range_meters":9600,"station_id":"ce4bgup2rcd13ifvqcn0","pricing_plan_id":"cebpf4jnsgd1na2vs0mg"},{"bike_id":"9fc3100e-4d82-48d6-89bc-f6f291702956","system_id":"levelo_inurba_marseille","lat":43.31757,"lon":5.39017,"is_reserved":false,"is_disabled":false,"rental_uris":{"android":"levelo://app?vid=9fc3100e-4d82-48d6-89bc-f6f291702956","ios":"levelo://app?vid=9fc3100e-4d82-48d6-89bc-f6f291702956"},"vehicle_type_id":"4","last_reported":1774024261,"current_range_meters":9600,"station_id":"ce4bhqp2rcd13ifvqhng","pricing_plan_id":"cebpf4jnsgd1na2vs0mg"},{"bike_id":"3676a395-9d4a-4d07-81c5-7b1d4a0acb38","system_id":"levelo_inurba_marseille","lat":43.31544,"lon":5.37323,"is_reserved":false,"is_disabled":false,"rental_uris":{"android":"levelo://app?vid=3676a395-9d4a-4d07-81c5-7b1d4a0acb38","ios":"levelo://app?vid=3676a395-9d4a-4d07-81c5-7b1d4a0acb38"},"vehicle_type_id":"4","last_reported":1774024261,"current_range_meters":9600,"station_id":"","pricing_plan_id":"cebpf4jnsgd1na2vs0mg"},