{"last_updated":1740834800,"ttl":60,"version":"2.2","data":{"bikes":[{"bike_id":"a784e81d-5006-4453-9717-ffbf01f0dbd6","system_id":"levelo_inurba_marseille","lat":43.29984,"lon":5.38494,"is_reserved":false,"is_disabled":true,"rental_uris":{"android":"levelo://app?vid=a784e81d-5006-4453-9717-ffbf01f0dbd6","ios":"levelo://app?vid=a784e81d-5006-4453-9717-ffbf01f0dbd6"},"vehicle_type_id":"4","last_reported":1740834800,"current_range_meters":3200,"station_id":"ce4bgj92rcd13ifvqbd0","pricing_plan_id":"cebpf4jnsgd1na2vs0mg"},{"bike_id":"d67f17d6-cd59-4d9d-80da-3e6e24ff114c","system_id":"levelo_inurba_marseille","lat":43.29256,"lon":5.37624,"is_reserved":false,"is_disabled":false,"rental_uris":{"android":"levelo://app?vid=d67f17d6-cd59-4d9d-80da-3e6e24ff114c","ios":"levelo://app?vid=d67f17d6-cd59-4d9d-80da-3e6e24ff114c"},"vehicle_type_id":"4","last_reported":1740834800,"current_range_meters":3600,"station_id":"ce4bgi12rcd13ifvqb80","pricing_plan_id":"cebpf4jnsgd1na2vs0mg"},{"bike_id":"17ddbbb5-11e9-4dea-8d48-8df35a23e77a","system_id":"levelo_inurba_marseille","lat":43.31771,"lon":5.38983,"is_reserved":false,"is_disabled":false,"rental_uris":{"android":"levelo://app?vid=17ddbbb5-11e9-4dea-8d48-8df35a23e77a","ios":"levelo://app?vid=17ddbbb5-11e9-4dea-8d48-8df35a23e77a"},"vehicle_type_id":"4","last_reported":1740834800,"current_range_meters":3600,"station_id":"ce4bhqp2rcd13ifvqhng","pricing_plan_id":"cebpf4jnsgd1na2vs0mg"},{"bike_id":"765edde8-ebe0-4946-b63e-9a4d0d15a548","system_id":"levelo_inurba_marseille","lat":43.29788,"lon":5.37108,"is_reserved":false,"is_disabled":false,"rental_uris":{"android":"levelo://app?vid=765edde8-ebe0-4946-b63e-9a4d0d15a548","ios":"levelo://app?vid=765edde8-ebe0-4946-b63e-9a4d0d15a548"},"vehicle_type_id":"4","last_reported":1740834800,"current_range_meters":4000,"station_id":"ce4bgop2rcd13ifvqc1g","pricing_plan_id":"cebpf4jnsgd1na2vs0mg"},{"bike_id":"bcc6ec3f-ff83-406a-8f7f-5ddf2f4f0714","system_id":"levelo_inurba_marseille","lat":43.29545,"lon":5.42288,"is_reserved":false,"is_disabled":false,"rental_uris":{"android":"levelo://app?vid=bcc6ec3f-ff83-406a-8f7f-5ddf2f4f0714","ios":"levelo://app?vid=bcc6ec3f-ff83-406a-8f7f-5ddf2f4f0714"},"vehicle_type_id":"4","last_reported":1740834800,"current_range_meters":4000,"station_id":"ce4bhph2rcd13ifvqhdg","pricing_plan_id":"cebpf4jnsgd1na2vs0mg"},{"bike_id":"0579d14d-a6e7-4de0-a400-aaaf78daef85","system_id":"levelo_inurba_marseille","lat":43.254978,"lon":5.37651,"is_reserved":false,"is_disabled":false,"rental_uris":{"android":"levelo://app?vid=0579d14d-a6e7-4de0-a400-aaaf78daef85","ios":"levelo://app?vid=0579d14d-a6e7-4de0-a400-aaaf78daef85"},"vehicle_type_id":"4","last_reported":1740834800,"current_range_meters":4000,"station_id":"ce4bgi12rcd13ifvqb70","pricing_plan_id":"cebpf4jnsgd1na2vs0mg"},{"bike_id":"adf89d74-0c1c-433b-9b2c-22841d2f937a","system_id":"levelo_inurba_marseille","lat":43.29303,"lon":5.37177,"is_reserved":false,"is_disabled":false,"rental_uris":{"android":"levelo://app?vid=adf89d74-0c1c-433b-9b2c-22841d2f937a","ios":"levelo://app?vid=adf89d74-0c1c-433b-9b2c-22841d2f937a"},"vehicle_type_id":"4","last_reported":1740834800,"current_range_meters":4000,"station_id":"ce4bgh92rcd13ifvqb40","pricing_plan_id":"cebpf4jnsgd1na2vs0mg"},{"bike_id":"f32ea091-8d65-493c-8fff-13bbf53faa68","system_id":"levelo_inurba_marseille","lat":43.31726,"lon":5.4369,"is_reserved":false,"is_disabled":false,"rental_uris":{"android":"levelo://app?vid=f32ea091-8d65-493c-8fff-13bbf53faa68","ios":"levelo://app?vid=f32ea091-8d65-493c-8fff-13bbf53faa68"},"vehicle_type_id":"4","last_reported":1740834800,"current_range_meters":4400,"station_id":"ce4bhp92rcd13ifvqhcg","pricing_plan_id":"cebpf4jnsgd1na2vs0mg"},{"bike_id":"8e890f6d-20d0-41de-99b1-67d8f20cc9ee","system_id":"levelo_inurba_marseille","lat":43.29034,"lon":5.37567,"is_reserved":false,"is_disabled":false,"rental_uris":{"android":"levelo://app?vid=8e890f6d-20d0-41de-99b1-67d8f20cc9ee","ios":"levelo://app?vid=8e890f6d-20d0-41de-99b1-67d8f20cc9ee"},"vehicle_type_id":"4","last_reported":1740834800,"current_range_meters":8400,"station_id":"ce4bh692rcd13ifvqe90","pricing_plan_id":"cebpf4jnsgd1na2vs0mg"},{"bike_id":"0e07936b-b5f4-4ce0-90ff-73c063994f1c","system_id":"levelo_inurba_marseille","lat":43.30462,"lon":5.37275,"is_reserved":false,"is_disabled":false,"rental_uris":{"android":"levelo://app?vid=0e07936b-b5f4-4ce0-90ff-73c063994f1c","ios":"levelo://app?vid=0e07936b-b5f4-4ce0-90ff-73c063994f1c"},"vehicle_type_id":"4","last_reported":1740834800,"current_range_meters":4400,"station_id":"","pricing_plan_id":"cebpf4jnsgd1na2vs0mg"},{"bike_id":"fec06910-07f0-48a6-a5fb-cac0e9b54af9","system_id":"levelo_inurba_marseille","lat":43.25719,"lon":5.41805,"is_reserved":false,"is_disabled":false,"rental_uris":{"android":"levelo://app?vid=fec06910-07f0-48a6-a5fb-cac0e9b54af9","ios":"levelo://app?vid=fec06910-07f0-48a6-a5fb-cac0e9b54af9"},"vehicle_type_id":"4","last_reported":1740834800,"current_range_meters":4800,"station_id":"","pricing_plan_id":"cebpf4jnsgd1na2vs0mg"},{"bike_id":"d5268437-48bd-439b-a1ad-02724b992d95","system_id":"levelo_inurba_marseille","lat":43.28934,"lon":5.36636,"is_reserved":false,"is_disabled":false,"rental_uris":{"android":"levelo://app?vid=d5268437-48bd-439b-a1ad-02724b992d95","ios":"levelo://app?vid=d5268437-48bd-439b-a1ad-02724b992d95"},"vehicle_type_id":"4","last_reported":1740834800,"current_range_meters":4800,"station_id":"ce4bhap2rcd13ifvqek0","pricing_plan_id":"cebpf4jnsgd1na2vs0mg"},{"bike_id":"5d28bf31-7f63-4e57-9ec1-293e076c7cd0","system_id":"levelo_inurba_marseille","lat":43.28428,"lon":5.37506,"is_reserved":false,"is_disabled":false,"rental_uris":{"android":"levelo://app?vid=5d28bf31-7f63-4e57-9ec1-293e076c7cd0","ios":"levelo://app?vid=5d28bf31-7f63-4e57-9ec1-293e076c7cd0"},"vehicle_type_id":"4","last_reported":1740834800,"current_range_meters":5600,"station_id":"ce4bh412rcd13ifvqds0","pricing_plan_id":"cebpf4jnsgd1na2vs0mg"},{"bike_id":"6bbd9ee1-9038-4139-a6ec-30d2056acaaf","system_id":"levelo_inurba_marseille","lat":43.292298,"lon":5.360605,"is_reserved":false,"is_disabled":false,"rental_uris":{"android":"levelo://app?vid=6bbd9ee1-9038-4139-a6ec-30d2056acaaf","ios":"levelo://app?vid=6bbd9ee1-9038-4139-a6ec-30d2056acaaf"},"vehicle_type_id":"4","last_reported":1740834800,"current_range_meters":5600,"station_id":"ce4bhbh2rcd13ifvqeqg","pricing_plan_id":"cebpf4jnsgd1na2vs0mg"},{"bike_id":"b7e2c369-d84f-4338-9533-a63aa3a15001","system_id":"levelo_inurba_marseille","lat":43.31737,"lon":5.43678,"is_reserved":false,"is_disabled":false,"rental_uris":{"android":"levelo://app?vid=b7e2c369-d84f-4338-9533-a63aa3a15001","ios":"levelo://app?vid=b7e2c369-d84f-4338-9533-a63aa3a15001"},"vehicle_type_id":"4","last_reported":1740834800,"current_range_meters":5600,"station_id":"ce4bhp92rcd13ifvqhcg","pricing_plan_id":"cebpf4jnsgd1na2vs0mg"},{"bike_id":"87310b15-ec3c-4657-826b-f02ffabec7fc","system_id":"levelo_inurba_marseille","lat":43.30433,"lon":5.39742,"is_reserved":false,"is_disabled":false,"rental_uris":{"android":"levelo://app?vid=87310b15-ec3c-4657-826b-f02ffabec7fc","ios":"levelo://app?vid=87310b15-ec3c-4657-826b-f02ffabec7fc"},"vehicle_type_id":"4","last_reported":1740834800,"current_range_meters":5600,"station_id":"ce4bh092rcd13ifvqd20","pricing_plan_id":"cebpf4jnsgd1na2vs0mg"},{"bike_id":"49e0a034-277f-4658-83cf-83e39377ef50","system_id":"levelo_inurba_marseille","lat":43.29524,"lon":5.37944,"is_reserved":false,"is_disabled":false,"rental_uris":{"android":"levelo://app?vid=49e0a034-277f-4658-83cf-83e39377ef50","ios":"levelo://app?vid=49e0a034-277f-4658-83cf-83e39377ef50"},"vehicle_type_id":"4","last_reported":1740834800,"current_range_meters":5600,"station_id":"","pricing_plan_id":"cebpf4jnsgd1na2vs0mg"},{"bike_id":"4097b1c9-81ed-4381-9f60-ce4d99e4355d","system_id":"levelo_inurba_marseille","lat":43.23056,"lon":5.35499,"is_reserved":false,"is_disabled":false,"rental_uris":{"android":"levelo://app?vid=4097b1c9-81ed-4381-9f60-ce4d99e4355d","ios":"levelo://app?vid=4097b1c9-81ed-4381-9f60-ce4d99e4355d"},"vehicle_type_id":"4","last_reported":1740834800,"current_range_meters":6000,"station_id":"cpo3342slgdg3j2ifvpg","pricing_plan_id":"cebpf4jnsgd1na2vs0mg"},{"bike_id":"58a68f7e-3a58-4830-88c7-f299e7022d3e","system_id":"levelo_inurba_marseille","lat":43.31508,"lon":5.37296,"is_reserved":false,"is_disabled":false,"rental_uris":{"android":"levelo://app?vid=58a68f7e-3a58-4830-88c7-f299e7022d3e","ios":"levelo://app?vid=58a68f7e-3a58-4830-88c7-f299e7022d3e"},"vehicle_type_id":"4","last_reported":1740834800,"current_range_meters":6000,"station_id":"ce4bgt12rcd13ifvqcd0","pricing_plan_id":"cebpf4jnsgd1na2vs0mg"},{"bike_id":"3de9aeda-1f9a-4bbc-8b90-e02a49e56ca9","system_id":"levelo_inurba_marseille","lat":43.23193,"lon":5.35566,"is_reserved":false,"is_disabled":false,"rental_uris":{"android":"levelo://app?vid=3de9aeda-1f9a-4bbc-8b90-e02a49e56ca9","ios":"levelo://app?vid=3de9aeda-1f9a-4bbc-8b90-e02a49e56ca9"},"vehicle_type_id":"4","last_reported":1740834800,"current_range_meters":6000,"station_id":"ce4bhu92rcd13ifvqi70","pricing_plan_id":"cebpf4jnsgd1na2vs0mg"},{"bike_id":"bcb3dd3d-4bbe-4a55-8cc6-0ab0579bcdbe","system_id":"levelo_inurba_marseille","lat":43.31722,"lon":5.37744,"is_reserved":false,"is_disabled":false,"rental_uris":{"android":"levelo://app?vid=bcb3dd3d-4bbe-4a55-8cc6-0ab0579bcdbe","ios":"levelo://app?vid=bcb3dd3d-4bbe-4a55-8cc6-0ab0579bcdbe"},"vehicle_type_id":"4","last_reported":1740834800,"current_range_meters":6000,"station_id":"ce4bgth2rcd13ifvqch0","pricing_plan_id":"cebpf4jnsgd1na2vs0mg"},{"bike_id":"b7724a81-83a9-4845-824d-f54b02a44727","system_id":"levelo_inurba_marseille","lat":43.29294,"lon":5.37465,"is_reserved":false,"is_disabled":false,"rental_uris":{"android":"levelo://app?vid=b7724a81-83a9-4845-824d-f54b02a44727","ios":"levelo://app?vid=b7724a81-83a9-4845-824d-f54b02a44727"},"vehicle_type_id":"4","last_reported":1740834800,"current_range_meters":6400,"station_id":"ce4bgi12rcd13ifvqb70","pricing_plan_id":"cebpf4jnsgd1na2vs0mg"},{"bike_id":"e3e5d0a0-2b8e-4546-b4bd-04f8a6cfc265","system_id":"levelo_inurba_marseille","lat":43.28034,"lon":5.36942,"is_reserved":false,"is_disabled":false,"rental_uris":{"android":"levelo://app?vid=e3e5d0a0-2b8e-4546-b4bd-04f8a6cfc265","ios":"levelo://app?vid=e3e5d0a0-2b8e-4546-b4bd-04f8a6cfc265"},"vehicle_type_id":"4","last_reported":1740834800,"current_range_meters":6400,"station_id":"ce4bha12rcd13ifvqef0","pricing_plan_id":"cebpf4jnsgd1na2vs0mg"},{"bike_id":"4cf5188c-d2e7-4df0-b8d4-7934652c385d","system_id":"levelo_inurba_marseille","lat":43.33612,"lon":5.41012,"is_reserved":false,"is_disabled":false,"rental_uris":{"android":"levelo://app?vid=4cf5188c-d2e7-4df0-b8d4-7934652c385d","ios":"levelo://app?vid=4cf5188c-d2e7-4df0-b8d4-7934652c385d"},"vehicle_type_id":"4","last_reported":1740834800,"current_range_meters":6400,"station_id":"ce4bhqh2rcd13ifvqhmg","pricing_plan_id":"cebpf4jnsgd1na2vs0mg"},{"bike_id":"f1df5103-b2df-40ac-a443-252d2c43af39","system_id":"levelo_inurba_marseille","lat":43.26203,"lon":5.37924,"is_reserved":false,"is_disabled":false,"rental_uris":{"android":"levelo://app?vid=f1df5103-b2df-40ac-a443-252d2c43af39","ios":"levelo://app?vid=f1df5103-b2df-40ac-a443-252d2c43af39"},"vehicle_type_id":"4","last_reported":1740834800,"current_range_meters":6400,"station_id":"ce4bhjp2rcd13ifvqg90","pricing_plan_id":"cebpf4jnsgd1na2vs0mg"},{"bike_id":"1ce5bd57-2a3e-44ae-b02f-c91d7c4fe993","system_id":"levelo_inurba_marseille","lat":43.29617,"lon":5.37732,"is_reserved":false,"is_disabled":false,"rental_uris":{"android":"levelo://app?vid=1ce5bd57-2a3e-44ae-b02f-c91d7c4fe993","ios":"levelo://app?vid=1ce5bd57-2a3e-44ae-b02f-c91d7c4fe993"},"vehicle_type_id":"4","last_reported":1740834800,"current_range_meters":8000,"station_id":"ce4bgi92rcd13ifvqb90","pricing_plan_id":"cebpf4jnsgd1na2vs0mg"},{"bike_id":"9125a52a-7636-4ef7-91be-dae27247ba17","system_id":"levelo_inurba_marseille","lat":43.25497,"lon":5.37659,"is_reserved":false,"is_disabled":false,"rental_uris":{"android":"levelo://app?vid=9125a52a-7636-4ef7-91be-dae27247ba17","ios":"levelo://app?vid=9125a52a-7636-4ef7-91be-dae27247ba17"},"vehicle_type_id":"4","last_reported":1740834800,"current_range_meters":6400,"station_id":"ce4bhh12rcd13ifvqff0","pricing_plan_id":"cebpf4jnsgd1na2vs0mg"},{"bike_id":"457cb67d-8962-48f5-b9c1-fadc0aebc649","system_id":"levelo_inurba_marseille","lat":43.31494,"lon":5.37311,"is_reserved":false,"is_disabled":false,"rental_uris":{"android":"levelo://app?vid=457cb67d-8962-48f5-b9c1-fadc0aebc649","ios":"levelo://app?vid=457cb67d-8962-48f5-b9c1-fadc0aebc649"},"vehicle_type_id":"4","last_reported":1740834800,"current_range_meters":6400,"station_id":"ce4bgt12rcd13ifvqcd0","pricing_plan_id":"cebpf4jnsgd1na2vs0mg"},{"bike_id":"9eb62bd7-0fdc-491b-9eef-be0a9f73fbfb","system_id":"levelo_inurba_marseille","lat":43.24232,"lon":5.36411,"is_reserved":false,"is_disabled":false,"rental_uris":{"android":"levelo://app?vid=9eb62bd7-0fdc-491b-9eef-be0a9f73fbfb","ios":"levelo://app?vid=9eb62bd7-0fdc-491b-9eef-be0a9f73fbfb"},"vehicle_type_id":"4","last_reported":1740834800,"current_range_meters":6800,"station_id":"","pricing_plan_id":"cebpf4jnsgd1na2vs0mg"},{"bike_id":"e489c998-1186-487d-bcb2-da9e83c9c825","system_id":"levelo_inurba_marseille","lat":43.28005,"lon":5.40019,"is_reserved":false,"is_disabled":false,"rental_uris":{"android":"levelo://app?vid=e489c998-1186-487d-bcb2-da9e83c9c825","ios":"levelo://app?vid=e489c998-1186-487d-bcb2-da9e83c9c825"},"vehicle_type_id":"4","last_reported":1740834800,"current_range_meters":6800,"station_id":"ce4bho92rcd13ifvqh4g","pricing_plan_id":"cebpf4jnsgd1na2vs0mg"},{"bike_id":"add87fbc-07ee-40b7-a0fd-52d83c630aad","system_id":"levelo_inurba_marseille","lat":43.29298,"lon":5.37466,"is_reserved":false,"is_disabled":false,"rental_uris":{"android":"levelo://app?vid=add87fbc-07ee-40b7-a0fd-52d83c630aad","ios":"levelo://app?vid=add87fbc-07ee-40b7-a0fd-52d83c630aad"},"vehicle_type_id":"4","last_reported":1740834800,"current_range_meters":9600,"station_id":"ce4bgi12rcd13ifvqb70","pricing_plan_id":"cebpf4jnsgd1na2vs0mg"},{"bike_id":"a546ac99-2bff-472e-a2bd-3cfd1115c0d4","system_id":"levelo_inurba_marseille","lat":43.29419,"lon":5.3862,"is_reserved":false,"is_disabled":false,"rental_uris":{"android":"levelo://app?vid=a546ac99-2bff-472e-a2bd-3cfd1115c0d4","ios":"levelo://app?vid=a546ac99-2bff-472e-a2bd-3cfd1115c0d4"},"vehicle_type_id":"4","last_reported":1740834800,"current_range_meters":4400,"station_id":"ce4bh2h2rcd13ifvqdh0","pricing_plan_id":"cebpf4jnsgd1na2vs0mg"},{"bike_id":"fc5541c7-5d9e-4cca-bfbb-626ced6dc0e0","system_id":"levelo_inurba_marseille","lat":43.29554,"lon":5.42293,"is_reserved":false,"is_disabled":false,"rental_uris":{"android":"levelo://app?vid=fc5541c7-5d9e-4cca-bfbb-626ced6dc0e0","ios":"levelo://app?vid=fc5541c7-5d9e-4cca-bfbb-626ced6dc0e0"},"vehicle_type_id":"4","last_reported":1740834800,"current_range_meters":6800,"station_id":"ce4bhph2rcd13ifvqhdg","pricing_plan_id":"cebpf4jnsgd1na2vs0mg"},{"bike_id":"3252ce38-942a-44c1-8efc-f562cd340bf6","system_id":"levelo_inurba_marseille","lat":43.26811,"lon":5.40705,"is_reserved":false,"is_disabled":false,"rental_uris":{"android":"levelo://app?vid=3252ce38-942a-44c1-8efc-f562cd340bf6","ios":"levelo://app?vid=3252ce38-942a-44c1-8efc-f562cd340bf6"},"vehicle_type_id":"4","last_reported":1740834800,"current_range_meters":6800,"station_id":"","pricing_plan_id":"cebpf4jnsgd1na2vs0mg"},{"bike_id":"b5a2265c-20f9-4c40-8925-f8a3d220a38b","system_id":"levelo_inurba_marseille","lat":43.29609,"lon":5.43858,"is_reserved":false,"is_disabled":false,"rental_uris":{"android":"levelo://app?vid=b5a2265c-20f9-4c40-8925-f8a3d220a38b","ios":"levelo://app?vid=b5a2265c-20f9-4c40-8925-f8a3d220a38b"},"vehicle_type_id":"4","last_reported":1740834800,"current_range_meters":7200,"station_id":"","pricing_plan_id":"cebpf4jnsgd1na2vs0mg"},{"bike_id":"468cc411-5a10-46f4-8919-d9a120794357","system_id":"levelo_inurba_marseille","lat":43.28001,"lon":5.40045,"is_reserved":false,"is_disabled":false,"rental_uris":{"android":"levelo://app?vid=468cc411-5a10-46f4-8919-d9a120794357","ios":"levelo://app?vid=468cc411-5a10-46f4-8919-d9a120794357"},"vehicle_type_id":"4","last_reported":1740834800,"current_range_meters":7200,"station_id":"ce4bho92rcd13ifvqh4g","pricing_plan_id":"cebpf4jnsgd1na2vs0mg"},{"bike_id":"0ab120ab-3a7e-4696-a6dc-798f549c5678","system_id":"levelo_inurba_marseille","lat":43.29269,"lon":5.36854,"is_reserved":false,"is_disabled":false,"rental_uris":{"android":"levelo://app?vid=0ab120ab-3a7e-4696-a6dc-798f549c5678","ios":"levelo://app?vid=0ab120ab-3a7e-4696-a6dc-798f549c5678"},"vehicle_type_id":"4","last_reported":1740834800,"current_range_meters":7200,"station_id":"ce4bhbp2rcd13ifvqesg","pricing_plan_id":"cebpf4jnsgd1na2vs0mg"},{"bike_id":"d36301ff-065c-4644-9520-d9e8e53fafb9","system_id":"levelo_inurba_marseille","lat":43.27224,"lon":5.39194,"is_reserved":false,"is_disabled":false,"rental_uris":{"android":"levelo://app?vid=d36301ff-065c-4644-9520-d9e8e53fafb9","ios":"levelo://app?vid=d36301ff-065c-4644-9520-d9e8e53fafb9"},"vehicle_type_id":"4","last_reported":1740834800,"current_range_meters":7200,"station_id":"ce4bhhp2rcd13ifvqfm0","pricing_plan_id":"cebpf4jnsgd1na2vs0mg"},{"bike_id":"8dbd79ab-8d7e-44ba-9f11-4afd7e562df1","system_id":"levelo_inurba_marseille","lat":43.25004,"lon":5.38929,"is_reserved":false,"is_disabled":false,"rental_uris":{"android":"levelo://app?vid=8dbd79ab-8d7e-44ba-9f11-4afd7e562df1","ios":"levelo://app?vid=8dbd79ab-8d7e-44ba-9f11-4afd7e562df1"},"vehicle_type_id":"4","last_reported":1740834800,"current_range_meters":7200,"station_id":"ce4bhgp2rcd13ifvqfd0","pricing_plan_id":"cebpf4jnsgd1na2vs0mg"},{"bike_id":"e845bf52-a25e-4912-aaba-f98c45384e4f","system_id":"levelo_inurba_marseille","lat":43.30132,"lon":5.39878,"is_reserved":false,"is_disabled":false,"rental_uris":{"android":"levelo://app?vid=e845bf52-a25e-4912-aaba-f98c45384e4f","ios":"levelo://app?vid=e845bf52-a25e-4912-aaba-f98c45384e4f"},"vehicle_type_id":"4","last_reported":1740834800,"current_range_meters":8000,"station_id":"ce4bh0h2rcd13ifvqd40","pricing_plan_id":"cebpf4jnsgd1na2vs0mg"},{"bike_id":"d5481c01-2984-43f7-9ca9-876cf6aa8921","system_id":"levelo_inurba_marseille","lat":43.27987,"lon":5.40021,"is_reserved":false,"is_disabled":false,"rental_uris":{"android":"levelo://app?vid=d5481c01-2984-43f7-9ca9-876cf6aa8921","ios":"levelo://app?vid=d5481c01-2984-43f7-9ca9-876cf6aa8921"},"vehicle_type_id":"4","last_reported":1740834800,"current_range_meters":8000,"station_id":"ce4bho92rcd13ifvqh4g","pricing_plan_id":"cebpf4jnsgd1na2vs0mg"},{"bike_id":"e8e574a6-d13a-4906-9b60-657faa08b971","system_id":"levelo_inurba_marseille","lat":43.26834,"lon":5.40241,"is_reserved":false,"is_disabled":false,"rental_uris":{"android":"levelo://app?vid=e8e574a6-d13a-4906-9b60-657faa08b971","ios":"levelo://app?vid=e8e574a6-d13a-4906-9b60-657faa08b971"},"vehicle_type_id":"4","last_reported":1740834800,"current_range_meters":8000,"station_id":"ce501612rcd8frsf0b60","pricing_plan_id":"cebpf4jnsgd1na2vs0mg"},{"bike_id":"87b985b0-b21a-457b-876e-995bf2ff8f5e","system_id":"levelo_inurba_marseille","lat":43.32114,"lon":5.3679,"is_reserved":false,"is_disabled":false,"rental_uris":{"android":"levelo://app?vid=87b985b0-b21a-457b-876e-995bf2ff8f5e","ios":"levelo://app?vid=87b985b0-b21a-457b-876e-995bf2ff8f5e"},"vehicle_type_id":"4","last_reported":1740834800,"current_range_meters":8000,"station_id":"ce4bhrh2rcd13ifvqhug","pricing_plan_id":"cebpf4jnsgd1na2vs0mg"},{"bike_id":"be047da3-12fb-470e-9d78-68641c40dc2c","system_id":"levelo_inurba_marseille","lat":43.286781,"lon":5.409576,"is_reserved":false,"is_disabled":false,"rental_uris":{"android":"levelo://app?vid=be047da3-12fb-470e-9d78-68641c40dc2c","ios":"levelo://app?vid=be047da3-12fb-470e-9d78-68641c40dc2c"},"vehicle_type_id":"4","last_reported":1740834800,"current_range_meters":8000,"station_id":"","pricing_plan_id":"cebpf4jnsgd1na2vs0mg"},{"bike_id":"77b7c322-7703-4fb8-9103-770e7bb5551e","system_id":"levelo_inurba_marseille","lat":43.26552,"lon":5.37285,"is_reserved":false,"is_disabled":false,"rental_uris":{"android":"levelo://app?vid=77b7c322-7703-4fb8-9103-770e7bb5551e","ios":"levelo://app?vid=77b7c322-7703-4fb8-9103-770e7bb5551e"},"vehicle_type_id":"4","last_reported":1740834800,"current_range_meters":8000,"station_id":"ce4bhg12rcd13ifvqf70","pricing_plan_id":"cebpf4jnsgd1na2vs0mg"},{"bike_id":"a6b80584-6453-4fc7-9b63-74321c6e86a1","system_id":"levelo_inurba_marseille","lat":43.27074,"lon":5.42278,"is_reserved":false,"is_disabled":false,"rental_uris":{"android":"levelo://app?vid=a6b80584-6453-4fc7-9b63-74321c6e86a1","ios":"levelo://app?vid=a6b80584-6453-4fc7-9b63-74321c6e86a1"},"vehicle_type_id":"4","last_reported":1740834800,"current_range_meters":1600,"station_id":"ce4bhk92rcd13ifvqgb0","pricing_plan_id":"cebpf4jnsgd1na2vs0mg"},{"bike_id":"1ef83ca4-2f4d-464d-9fb6-924b48a09432","system_id":"levelo_inurba_marseille","lat":43.29445,"lon":5.39768,"is_reserved":false,"is_disabled":false,"rental_uris":{"android":"levelo://app?vid=1ef83ca4-2f4d-464d-9fb6-924b48a09432","ios":"levelo://app?vid=1ef83ca4-2f4d-464d-9fb6-924b48a09432"},"vehicle_type_id":"4","last_reported":1740834800,"current_range_meters":8400,"station_id":"ce4bh3h2rcd13ifvqdo0","pricing_plan_id":"cebpf4jnsgd1na2vs0mg"},{"bike_id":"257c4849-dc72-4ebc-b295-ab798a49160b","system_id":"levelo_inurba_marseille","lat":43.26201,"lon":5.37933,"is_reserved":false,"is_disabled":false,"rental_uris":{"android":"levelo://app?vid=257c4849-dc72-4ebc-b295-ab798a49160b","ios":"levelo://app?vid=257c4849-dc72-4ebc-b295-ab798a49160b"},"vehicle_type_id":"4","last_reported":1740834800,"current_range_meters":8400,"station_id":"ce4bhjp2rcd13ifvqg90","pricing_plan_id":"cebpf4jnsgd1na2vs0mg"},{"bike_id":"749fee80-dfaa-43de-aa58-d21bbf5e0792","system_id":"levelo_inurba_marseille","lat":43.23186,"lon":5.39991,"is_reserved":false,"is_disabled":false,"rental_uris":{"android":"levelo://app?vid=749fee80-dfaa-43de-aa58-d21bbf5e0792","ios":"levelo://app?vid=749fee80-dfaa-43de-aa58-d21bbf5e0792"},"vehicle_type_id":"4","last_reported":1740834800,"current_range_meters":8400,"station_id":"ce4bhn12rcd13ifvqgqg","pricing_plan_id":"cebpf4jnsgd1na2vs0mg"},{"bike_id":"f786570b-cbc1-4f2e-838f-372c88a867d6","system_id":"levelo_inurba_marseille","lat":43.29638,"lon":5.40602,"is_reserved":false,"is_disabled":false,"rental_uris":{"android":"levelo://app?vid=f786570b-cbc1-4f2e-838f-372c88a867d6","ios":"levelo://app?vid=f786570b-cbc1-4f2e-838f-372c88a867d6"},"vehicle_type_id":"4","last_reported":1740834800,"current_range_meters":7200,"station_id":"ce4bh0h2rcd13ifvqd60","pricing_plan_id":"cebpf4jnsgd1na2vs0mg"},{"bike_id":"35a4782e-5d2e-4fb8-8175-5ce018572fa7","system_id":"levelo_inurba_marseille","lat":43.30022,"lon":5.37694,"is_reserved":false,"is_disabled":false,"rental_uris":{"android":"levelo://app?vid=35a4782e-5d2e-4fb8-8175-5ce018572fa7","ios":"levelo://app?vid=35a4782e-5d2e-4fb8-8175-5ce018572fa7"},"vehicle_type_id":"4","last_reported":1740834800,"current_range_meters":8400,"station_id":"","pricing_plan_id":"cebpf4jnsgd1na2vs0mg"},{"bike_id":"a5fd71ea-4807-4e2d-a716-448c8cd70326","system_id":"levelo_inurba_marseille","lat":43.26557,"lon":5.37299,"is_reserved":false,"is_disabled":true,"rental_uris":{"android":"levelo://app?vid=a5fd71ea-4807-4e2d-a716-448c8cd70326","ios":"levelo://app?vid=a5fd71ea-4807-4e2d-a716-448c8cd70326"},"vehicle_type_id":"4","last_reported":1740834800,"current_range_meters":8400,"station_id":"ce4bhg12rcd13ifvqf70","pricing_plan_id":"cebpf4jnsgd1na2vs0mg"},{"bike_id":"3da78ab0-75d5-4337-a1f4-b74afe30742e","system_id":"levelo_inurba_marseille","lat":43.29894,"lon":5.43684,"is_reserved":false,"is_disabled":false,"rental_uris":{"android":"levelo://app?vid=3da78ab0-75d5-4337-a1f4-b74afe30742e","ios":"levelo://app?vid=3da78ab0-75d5-4337-a1f4-b74afe30742e"},"vehicle_type_id":"4","last_reported":1740834800,"current_range_meters":6000,"station_id":"ce4bhpp2rcd13ifvqhfg","pricing_plan_id":"cebpf4jnsgd1na2vs0mg"},{"bike_id":"bd4d047f-c101-4bc6-bd96-59ee035f5a00","system_id":"levelo_inurba_marseille","lat":43.28723,"lon":5.38933,"is_reserved":false,"is_disabled":false,"rental_uris":{"android":"levelo://app?vid=bd4d047f-c101-4bc6-bd96-59ee035f5a00","ios":"levelo://app?vid=bd4d047f-c101-4bc6-bd96-59ee035f5a00"},"vehicle_type_id":"4","last_reported":1740834800,"current_range_meters":8800,"station_id":"","pricing_plan_id":"cebpf4jnsgd1na2vs0mg"},{"bike_id":"3b004c4c-1542-45da-9b62-6242bb7b5eab","system_id":"levelo_inurba_marseille","lat":43.28078,"lon":5.39659,"is_reserved":false,"is_disabled":false,"rental_uris":{"android":"levelo://app?vid=3b004c4c-1542-45da-9b62-6242bb7b5eab","ios":"levelo://app?vid=3b004c4c-1542-45da-9b62-6242bb7b5eab"},"vehicle_type_id":"4","last_reported":1740834800,"current_range_meters":8800,"station_id":"ce4bho12rcd13ifvqh2g","pricing_plan_id":"cebpf4jnsgd1na2vs0mg"},{"bike_id":"2f2014cd-a3cb-42fd-9d45-8c9bbd09611c","system_id":"levelo_inurba_marseille","lat":43.24392,"lon":5.37059,"is_reserved":false,"is_disabled":false,"rental_uris":{"android":"levelo://app?vid=2f2014cd-a3cb-42fd-9d45-8c9bbd09611c","ios":"levelo://app?vid=2f2014cd-a3cb-42fd-9d45-8c9bbd09611c"},"vehicle_type_id":"4","last_reported":1740834800,"current_range_meters":8800,"station_id":"ce4bhhh2rcd13ifvqfk0","pricing_plan_id":"cebpf4jnsgd1na2vs0mg"},{"bike_id":"bf6bac71-41d6-4283-8c68-f5dcc4d40d52","system_id":"levelo_inurba_marseille","lat":43.282525,"lon":5.350701,"is_reserved":false,"is_disabled":false,"rental_uris":{"android":"levelo://app?vid=bf6bac71-41d6-4283-8c68-f5dcc4d40d52","ios":"levelo://app?vid=bf6bac71-41d6-4283-8c68-f5dcc4d40d52"},"vehicle_type_id":"4","last_reported":1740834800,"current_range_meters":8800,"station_id":"ce4bhbp2rcd13ifvqerg","pricing_plan_id":"cebpf4jnsgd1na2vs0mg"},{"bike_id":"3f5e4c77-943b-4a46-b257-614bf13afec4","system_id":"levelo_inurba_marseille","lat":43.24168,"lon":5.36409,"is_reserved":false,"is_disabled":false,"rental_uris":{"android":"levelo://app?vid=3f5e4c77-943b-4a46-b257-614bf13afec4","ios":"levelo://app?vid=3f5e4c77-943b-4a46-b257-614bf13afec4"},"vehicle_type_id":"4","last_reported":1740834800,"current_range_meters":8800,"station_id":"cpo36qri1sfpv3e86is0","pricing_plan_id":"cebpf4jnsgd1na2vs0mg"},{"bike_id":"afb2ba15-7296-4d79-a3a2-07d069185413","system_id":"levelo_inurba_marseille","lat":43.3055,"lon":5.36534,"is_reserved":false,"is_disabled":false,"rental_uris":{"android":"levelo://app?vid=afb2ba15-7296-4d79-a3a2-07d069185413","ios":"levelo://app?vid=afb2ba15-7296-4d79-a3a2-07d069185413"},"vehicle_type_id":"4","last_reported":1740834800,"current_range_meters":8800,"station_id":"ce4bgs12rcd13ifvqcag","pricing_plan_id":"cebpf4jnsgd1na2vs0mg"},{"bike_id":"fa32e183-306a-47e5-ad8c-fff869084beb","system_id":"levelo_inurba_marseille","lat":43.29591,"lon":5.38098,"is_reserved":false,"is_disabled":false,"rental_uris":{"android":"levelo://app?vid=fa32e183-306a-47e5-ad8c-fff869084beb","ios":"levelo://app?vid=fa32e183-306a-47e5-ad8c-fff869084beb"},"vehicle_type_id":"4","last_reported":1740834800,"current_range_meters":8800,"station_id":"ce4bgl12rcd13ifvqbo0","pricing_plan_id":"cebpf4jnsgd1na2vs0mg"},{"bike_id":"1e90af25-4e98-4932-bc55-e4f702068827","system_id":"levelo_inurba_marseille","lat":43.31724,"lon":5.42415,"is_reserved":false,"is_disabled":false,"rental_uris":{"android":"levelo://app?vid=1e90af25-4e98-4932-bc55-e4f702068827","ios":"levelo://app?vid=1e90af25-4e98-4932-bc55-e4f702068827"},"vehicle_type_id":"4","last_reported":1740834800,"current_range_meters":8800,"station_id":"ce4bhp92rcd13ifvqhbg","pricing_plan_id":"cebpf4jnsgd1na2vs0mg"},{"bike_id":"2e5b1c00-cc3f-4398-9d7c-2f6eede7d980","system_id":"levelo_inurba_marseille","lat":43.30107,"lon":5.39906,"is_reserved":false,"is_disabled":false,"rental_uris":{"android":"levelo://app?vid=2e5b1c00-cc3f-4398-9d7c-2f6eede7d980","ios":"levelo://app?vid=2e5b1c00-cc3f-4398-9d7c-2f6eede7d980"},"vehicle_type_id":"4","last_reported":1740834800,"current_range_meters":8800,"station_id":"ce4bh0h2rcd13ifvqd40","pricing_plan_id":"cebpf4jnsgd1na2vs0mg"},{"bike_id":"f7888e25-446f-4da8-96e6-65d5daad9223","system_id":"levelo_inurba_marseille","lat":43.28425,"lon":5.35001,"is_reserved":false,"is_disabled":false,"rental_uris":{"android":"levelo://app?vid=f7888e25-446f-4da8-96e6-65d5daad9223","ios":"levelo://app?vid=f7888e25-446f-4da8-96e6-65d5daad9223"},"vehicle_type_id":"4","last_reported":1740834800,"current_range_meters":8800,"station_id":"ce4bhbh2rcd13ifvqepg","pricing_plan_id":"cebpf4jnsgd1na2vs0mg"},{"bike_id":"2a8a8bc4-127e-4634-92a3-499f9feb0098","system_id":"levelo_inurba_marseille","lat":43.29979,"lon":5.38494,"is_reserved":false,"is_disabled":false,"rental_uris":{"android":"levelo://app?vid=2a8a8bc4-127e-4634-92a3-499f9feb0098","ios":"levelo://app?vid=2a8a8bc4-127e-4634-92a3-499f9feb0098"},"vehicle_type_id":"4","last_reported":1740834800,"current_range_meters":9600,"station_id":"ce4bgj92rcd13ifvqbd0","pricing_plan_id":"cebpf4jnsgd1na2vs0mg"},{"bike_id":"a25a4bca-1a72-419f-af06-cf47c412ca14","system_id":"levelo_inurba_marseille","lat":43.308104,"lon":5.435279,"is_reserved":false,"is_disabled":false,"rental_uris":{"android":"levelo://app?vid=a25a4bca-1a72-419f-af06-cf47c412ca14","ios":"levelo://app?vid=a25a4bca-1a72-419f-af06-cf47c412ca14"},"vehicle_type_id":"4","last_reported":1740834800,"current_range_meters":9200,"station_id":"ce4bhph2rcd13ifvqheg","pricing_plan_id":"cebpf4jnsgd1na2vs0mg"},{"bike_id":"5ebfd1a0-c249-4c98-835d-9c17b0f393bf","system_id":"levelo_inurba_marseille","lat":43.30158,"lon":5.38093,"is_reserved":false,"is_disabled":false,"rental_uris":{"android":"levelo://app?vid=5ebfd1a0-c249-4c98-835d-9c17b0f393bf","ios":"levelo://app?vid=5ebfd1a0-c249-4c98-835d-9c17b0f393bf"},"vehicle_type_id":"4","last_reported":1740834800,"current_range_meters":9200,"station_id":"ce4bgjp2rcd13ifvqbh0","pricing_plan_id":"cebpf4jnsgd1na2vs0mg"},{"bike_id":"7f9a5607-3d05-4199-a7b0-fd9e68e531eb","system_id":"levelo_inurba_marseille","lat":43.300837,"lon":5.386929,"is_reserved":false,"is_disabled":false,"rental_uris":{"android":"levelo://app?vid=7f9a5607-3d05-4199-a7b0-fd9e68e531eb","ios":"levelo://app?vid=7f9a5607-3d05-4199-a7b0-fd9e68e531eb"},"vehicle_type_id":"4","last_reported":1740834800,"current_range_meters":9600,"station_id":"ce4bgr92rcd13ifvqc7g","pricing_plan_id":"cebpf4jnsgd1na2vs0mg"},{"bike_id":"14e899f8-c491-445a-9f0c-dac8c1de361b","system_id":"levelo_inurba_marseille","lat":43.27999,"lon":5.40012,"is_reserved":false,"is_disabled":false,"rental_uris":{"android":"levelo://app?vid=14e899f8-c491-445a-9f0c-dac8c1de361b","ios":"levelo://app?vid=14e899f8-c491-445a-9f0c-dac8c1de361b"},"vehicle_type_id":"4","last_reported":1740834800,"current_range_meters":9200,"station_id":"ce4bho92rcd13ifvqh4g","pricing_plan_id":"cebpf4jnsgd1na2vs0mg"},{"bike_id":"593edb3c-7add-4a3d-9dbe-95cef549de0d","system_id":"levelo_inurba_marseille","lat":43.23059,"lon":5.35489,"is_reserved":false,"is_disabled":false,"rental_uris":{"android":"levelo://app?vid=593edb3c-7add-4a3d-9dbe-95cef549de0d","ios":"levelo://app?vid=593edb3c-7add-4a3d-9dbe-95cef549de0d"},"vehicle_type_id":"4","last_reported":1740834800,"current_range_meters":9200,"station_id":"cpo3342slgdg3j2ifvpg","pricing_plan_id":"cebpf4jnsgd1na2vs0mg"},{"bike_id":"06c244b9-00db-41f8-80d3-a0534c994322","system_id":"levelo_inurba_marseille","lat":43.27629,"lon":5.38408,"is_reserved":false,"is_disabled":false,"rental_uris":{"android":"levelo://app?vid=06c244b9-00db-41f8-80d3-a0534c994322","ios":"levelo://app?vid=06c244b9-00db-41f8-80d3-a0534c994322"},"vehicle_type_id":"4","last_reported":1740834800,"current_range_meters":9600,"station_id":"ce4bhh92rcd13ifvqfh0","pricing_plan_id":"cebpf4jnsgd1na2vs0mg"},{"bike_id":"f9388811-58f6-490f-9417-8dcd21feeb24","system_id":"levelo_inurba_marseille","lat":43.27999,"lon":5.40019,"is_reserved":false,"is_disabled":false,"rental_uris":{"android":"levelo://app?vid=f9388811-58f6-490f-9417-8dcd21feeb24","ios":"levelo://app?vid=f9388811-58f6-490f-9417-8dcd21feeb24"},"vehicle_type_id":"4","last_reported":1740834800,"current_range_meters":9600,"station_id":"ce4bho92rcd13ifvqh4g","pricing_plan_id":"cebpf4jnsgd1na2vs0mg"},{"bike_id":"3d5a815b-7b48-4fef-8d37-2377eac9de32","system_id":"levelo_inurba_marseille","lat":43.29,"lon":5.35603,"is_reserved":false,"is_disabled":false,"rental_uris":{"android":"levelo://app?vid=3d5a815b-7b48-4fef-8d37-2377eac9de32","ios":"levelo://app?vid=3d5a815b-7b48-4fef-8d37-2377eac9de32"},"vehicle_type_id":"4","last_reported":1740834800,"current_range_meters":9600,"station_id":"ce4bhb92rcd13ifvqen0","pricing_plan_id":"cebpf4jnsgd1na2vs0mg"},{"bike_id":"bddf37d4-a2ae-4c74-bcad-602e7e9ee614","system_id":"levelo_inurba_marseille","lat":43.24716,"lon":5.38159,"is_reserved":false,"is_disabled":false,"rental_uris":{"android":"levelo://app?vid=bddf37d4-a2ae-4c74-bcad-602e7e9ee614","ios":"levelo://app?vid=bddf37d4-a2ae-4c74-bcad-602e7e9ee614"},"vehicle_type_id":"4","last_reported":1740834800,"current_range_meters":9600,"station_id":"ce4bhih2rcd13ifvqfr0","pricing_plan_id":"cebpf4jnsgd1na2vs0mg"},{"bike_id":"4771ecb6-9ac2-4a09-9d85-af96ce7165c9","system_id":"levelo_inurba_marseille","lat":43.30635,"lon":5.40077,"is_reserved":false,"is_disabled":false,"rental_uris":{"android":"levelo://app?vid=4771ecb6-9ac2-4a09-9d85-af96ce7165c9","ios":"levelo://app?vid=4771ecb6-9ac2-4a09-9d85-af96ce7165c9"},"vehicle_type_id":"4","last_reported":1740834800,"current_range_meters":9600,"station_id":"ce4bh112rcd13ifvqda0","pricing_plan_id":"cebpf4jnsgd1na2vs0mg"},{"bike_id":"364b209e-752e-45ea-b26c-06b2552c1833","system_id":"levelo_inurba_marseille","lat":43.2319,"lon":5.3556,"is_reserved":false,"is_disabled":false,"rental_uris":{"android":"levelo://app?vid=364b209e-752e-45ea-b26c-06b2552c1833","ios":"levelo://app?vid=364b209e-752e-45ea-b26c-06b2552c1833"},"vehicle_type_id":"4","last_reported":1740834800,"current_range_meters":9600,"station_id":"ce4bhu92rcd13ifvqi70","pricing_plan_id":"cebpf4jnsgd1na2vs0mg"},{"bike_id":"49e9cdc7-76a5-4b66-ae2d-61c73beb73a8","system_id":"levelo_inurba_marseille","lat":43.24169,"lon":5.36406,"is_reserved":false,"is_disabled":false,"rental_uris":{"android":"levelo://app?vid=49e9cdc7-76a5-4b66-ae2d-61c73beb73a8","ios":"levelo://app?vid=49e9cdc7-76a5-4b66-ae2d-61c73beb73a8"},"vehicle_type_id":"4","last_reported":1740834800,"current_range_meters":9600,"station_id":"cpo36qri1sfpv3e86is0","pricing_plan_id":"cebpf4jnsgd1na2vs0mg"},{"bike_id":"60d4e3af-a938-45a6-a89b-d7fe9130f2cc","system_id":"levelo_inurba_marseille","lat":43.24179,"lon":5.39728,"is_reserved":false,"is_disabled":false,"rental_uris":{"android":"levelo://app?vid=60d4e3af-a938-45a6-a89b-d7fe9130f2cc","ios":"levelo://app?vid=60d4e3af-a938-45a6-a89b-d7fe9130f2cc"},"vehicle_type_id":"4","last_reported":1740834800,"current_range_meters":10000,"station_id":"ce4bhn12rcd13ifvqgpg","pricing_plan_id":"cebpf4jnsgd1na2vs0mg"},{"bike_id":"72e88d77-afcc-4d0d-a02c-a80e19395667","system_id":"levelo_inurba_marseille","lat":43.32716,"lon":5.39024,"is_reserved":false,"is_disabled":false,"rental_uris":{"android":"levelo://app?vid=72e88d77-afcc-4d0d-a02c-a80e19395667","ios":"levelo://app?vid=72e88d77-afcc-4d0d-a02c-a80e19395667"},"vehicle_type_id":"4","last_reported":1740834800,"current_range_meters":10000,"station_id":"","pricing_plan_id":"cebpf4jnsgd1na2vs0mg"},{"bike_id":"591e4c91-4ae2-48db-a850-e6bc66d7a323","system_id":"levelo_inurba_marseille","lat":43.29541,"lon":5.422942,"is_reserved":false,"is_disabled":false,"rental_uris":{"android":"levelo://app?vid=591e4c91-4ae2-48db-a850-e6bc66d7a323","ios":"levelo://app?vid=591e4c91-4ae2-48db-a850-e6bc66d7a323"},"vehicle_type_id":"4","last_reported":1740834800,"current_range_meters":10000,"station_id":"ce4bhph2rcd13ifvqhdg","pricing_plan_id":"cebpf4jnsgd1na2vs0mg"},{"bike_id":"597c78d8-1097-48db-b3be-fafc8754eab9","system_id":"levelo_inurba_marseille","lat":43.24171,"lon":5.36406,"is_reserved":false,"is_disabled":false,"rental_uris":{"android":"levelo://app?vid=597c78d8-1097-48db-b3be-fafc8754eab9","ios":"levelo://app?vid=597c78d8-1097-48db-b3be-fafc8754eab9"},"vehicle_type_id":"4","last_reported":1740834800,"current_range_meters":10000,"station_id":"cpo36qri1sfpv3e86is0","pricing_plan_id":"cebpf4jnsgd1na2vs0mg"},{"bike_id":"11eeaa41-65fd-4096-aabf-ea952f76267a","system_id":"levelo_inurba_marseille","lat":43.34149,"lon":5.40901,"is_reserved":false,"is_disabled":false,"rental_uris":{"android":"levelo://app?vid=11eeaa41-65fd-4096-aabf-ea952f76267a","ios":"levelo://app?vid=11eeaa41-65fd-4096-aabf-ea952f76267a"},"vehicle_type_id":"4","last_reported":1740834800,"current_range_meters":10000,"station_id":"ce4bhqh2rcd13ifvqhlg","pricing_plan_id":"cebpf4jnsgd1na2vs0mg"},{"bike_id":"c65e2549-0bd4-4200-87e8-04da94f3c3c4","system_id":"levelo_inurba_marseille","lat":43.28423,"lon":5.34992,"is_reserved":false,"is_disabled":false,"rental_uris":{"android":"levelo://app?vid=c65e2549-0bd4-4200-87e8-04da94f3c3c4","ios":"levelo://app?vid=c65e2549-0bd4-4200-87e8-04da94f3c3c4"},"vehicle_type_id":"4","last_reported":1740834800,"current_range_meters":10800,"station_id":"ce4bhbh2rcd13ifvqepg","pricing_plan_id":"cebpf4jnsgd1na2vs0mg"},{"bike_id":"4bd4b995-1984-49fc-b229-218c3bec2a20","system_id":"levelo_inurba_marseille","lat":43.28415,"lon":5.3498,"is_reserved":false,"is_disabled":false,"rental_uris":{"android":"levelo://app?vid=4bd4b995-1984-49fc-b229-218c3bec2a20","ios":"levelo://app?vid=4bd4b995-1984-49fc-b229-218c3bec2a20"},"vehicle_type_id":"4","last_reported":1740834800,"current_range_meters":10800,"station_id":"ce4bhbh2rcd13ifvqepg","pricing_plan_id":"cebpf4jnsgd1na2vs0mg"},{"bike_id":"3ae43e61-e460-4942-a7d7-9a08b7b0118e","system_id":"levelo_inurba_marseille","lat":43.24817,"lon":5.37446,"is_reserved":false,"is_disabled":false,"rental_uris":{"android":"levelo://app?vid=3ae43e61-e460-4942-a7d7-9a08b7b0118e","ios":"levelo://app?vid=3ae43e61-e460-4942-a7d7-9a08b7b0118e"},"vehicle_type_id":"4","last_reported":1740834800,"current_range_meters":10800,"station_id":"ce4bhgh2rcd13ifvqfb0","pricing_plan_id":"cebpf4jnsgd1na2vs0mg"},{"bike_id":"b777b4cf-3a59-4bd6-bbe8-877c47f15172","system_id":"levelo_inurba_marseille","lat":43.29301,"lon":5.36833,"is_reserved":false,"is_disabled":false,"rental_uris":{"android":"levelo://app?vid=b777b4cf-3a59-4bd6-bbe8-877c47f15172","ios":"levelo://app?vid=b777b4cf-3a59-4bd6-bbe8-877c47f15172"},"vehicle_type_id":"4","last_reported":1740834800,"current_range_meters":10800,"station_id":"ce4bhbp2rcd13ifvqesg","pricing_plan_id":"cebpf4jnsgd1na2vs0mg"},{"bike_id":"a0f4785f-b6c3-496b-9268-b69bebe4b0b2","system_id":"levelo_inurba_marseille","lat":43.29721,"lon":5.37672,"is_reserved":false,"is_disabled":false,"rental_uris":{"android":"levelo://app?vid=a0f4785f-b6c3-496b-9268-b69bebe4b0b2","ios":"levelo://app?vid=a0f4785f-b6c3-496b-9268-b69bebe4b0b2"},"vehicle_type_id":"4","last_reported":1740834800,"current_range_meters":10800,"station_id":"ce4bgkh2rcd13ifvqbl0","pricing_plan_id":"cebpf4jnsgd1na2vs0mg"},{"bike_id":"009618cb-96b9-4ae3-ac6a-4d849df7c9f7","system_id":"levelo_inurba_marseille","lat":43.30543,"lon":5.36557,"is_reserved":false,"is_disabled":false,"rental_uris":{"android":"levelo://app?vid=009618cb-96b9-4ae3-ac6a-4d849df7c9f7","ios":"levelo://app?vid=009618cb-96b9-4ae3-ac6a-4d849df7c9f7"},"vehicle_type_id":"4","last_reported":1740834800,"current_range_meters":10000,"station_id":"ce4bgs12rcd13ifvqcag","pricing_plan_id":"cebpf4jnsgd1na2vs0mg"},{"bike_id":"d8ce033e-f3a5-430d-b70d-26539a7235b3","system_id":"levelo_inurba_marseille","lat":43.3137,"lon":5.39704,"is_reserved":false,"is_disabled":false,"rental_uris":{"android":"levelo://app?vid=d8ce033e-f3a5-430d-b70d-26539a7235b3","ios":"levelo://app?vid=d8ce033e-f3a5-430d-b70d-26539a7235b3"},"vehicle_type_id":"4","last_reported":1740834800,"current_range_meters":10800,"station_id":"ce4bgvp2rcd13ifvqcu0","pricing_plan_id":"cebpf4jnsgd1na2vs0mg"},{"bike_id":"d2a1de00-9cd6-48ca-81e0-42b729cd3f33","system_id":"levelo_inurba_marseille","lat":43.28653,"lon":5.394708,"is_reserved":false,"is_disabled":false,"rental_uris":{"android":"levelo://app?vid=d2a1de00-9cd6-48ca-81e0-42b729cd3f33","ios":"levelo://app?vid=d2a1de00-9cd6-48ca-81e0-42b729cd3f33"},"vehicle_type_id":"4","last_reported":1740834800,"current_range_meters":12000,"station_id":"ce4bgjh2rcd13ifvqbg0","pricing_plan_id":"cebpf4jnsgd1na2vs0mg"},{"bike_id":"7caaa4c8-904b-406e-a97b-239ccc591b0f","system_id":"levelo_inurba_marseille","lat":43.29228,"lon":5.36075,"is_reserved":false,"is_disabled":false,"rental_uris":{"android":"levelo://app?vid=7caaa4c8-904b-406e-a97b-239ccc591b0f","ios":"levelo://app?vid=7caaa4c8-904b-406e-a97b-239ccc591b0f"},"vehicle_type_id":"4","last_reported":1740834800,"current_range_meters":12800,"station_id":"ce4bhbh2rcd13ifvqeqg","pricing_plan_id":"cebpf4jnsgd1na2vs0mg"},{"bike_id":"161d70e9-e213-4bf5-bde1-9c3d7296d89c","system_id":"levelo_inurba_marseille","lat":43.2784,"lon":5.39196,"is_reserved":false,"is_disabled":true,"rental_uris":{"android":"levelo://app?vid=161d70e9-e213-4bf5-bde1-9c3d7296d89c","ios":"levelo://app?vid=161d70e9-e213-4bf5-bde1-9c3d7296d89c"},"vehicle_type_id":"4","last_reported":1740834800,"current_range_meters":11600,"station_id":"ce4bhjp2rcd13ifvqga0","pricing_plan_id":"cebpf4jnsgd1na2vs0mg"},{"bike_id":"a63384aa-6f0a-4cf1-9ba9-d858e6fae1e6","system_id":"levelo_inurba_marseille","lat":43.29268,"lon":5.38445,"is_reserved":false,"is_disabled":false,"rental_uris":{"android":"levelo://app?vid=a63384aa-6f0a-4cf1-9ba9-d858e6fae1e6","ios":"levelo://app?vid=a63384aa-6f0a-4cf1-9ba9-d858e6fae1e6"},"vehicle_type_id":"4","last_reported":1740834800,"current_range_meters":11600,"station_id":"ce4bh692rcd13ifvqea0","pricing_plan_id":"cebpf4jnsgd1na2vs0mg"},{"bike_id":"d667e371-7c65-4a05-9cf7-d77fa58652c3","system_id":"levelo_inurba_marseille","lat":43.30145,"lon":5.38084,"is_reserved":false,"is_disabled":false,"rental_uris":{"android":"levelo://app?vid=d667e371-7c65-4a05-9cf7-d77fa58652c3","ios":"levelo://app?vid=d667e371-7c65-4a05-9cf7-d77fa58652c3"},"vehicle_type_id":"4","last_reported":1740834800,"current_range_meters":11600,"station_id":"ce4bgjp2rcd13ifvqbh0","pricing_plan_id":"cebpf4jnsgd1na2vs0mg"},{"bike_id":"243d6d63-781b-40f5-8195-dafde1efe04a","system_id":"levelo_inurba_marseille","lat":43.29787,"lon":5.37119,"is_reserved":false,"is_disabled":false,"rental_uris":{"android":"levelo://app?vid=243d6d63-781b-40f5-8195-dafde1efe04a","ios":"levelo://app?vid=243d6d63-781b-40f5-8195-dafde1efe04a"},"vehicle_type_id":"4","last_reported":1740834800,"current_range_meters":12000,"station_id":"ce4bgop2rcd13ifvqc1g","pricing_plan_id":"cebpf4jnsgd1na2vs0mg"},{"bike_id":"43e1e04c-280b-4d54-bbb9-c3921d8e975b","system_id":"levelo_inurba_marseille","lat":43.29268,"lon":5.3685,"is_reserved":false,"is_disabled":false,"rental_uris":{"android":"levelo://app?vid=43e1e04c-280b-4d54-bbb9-c3921d8e975b","ios":"levelo://app?vid=43e1e04c-280b-4d54-bbb9-c3921d8e975b"},"vehicle_type_id":"4","last_reported":1740834800,"current_range_meters":12000,"station_id":"ce4bhbp2rcd13ifvqesg","pricing_plan_id":"cebpf4jnsgd1na2vs0mg"},{"bike_id":"4015c440-7267-44b4-8be2-f4b87cb51aa9","system_id":"levelo_inurba_marseille","lat":43.25574,"lon":5.38237,"is_reserved":false,"is_disabled":false,"rental_uris":{"android":"levelo://app?vid=4015c440-7267-44b4-8be2-f4b87cb51aa9","ios":"levelo://app?vid=4015c440-7267-44b4-8be2-f4b87cb51aa9"},"vehicle_type_id":"4","last_reported":1740834800,"current_range_meters":12000,"station_id":"ce4bhih2rcd13ifvqfs0","pricing_plan_id":"cebpf4jnsgd1na2vs0mg"},{"bike_id":"86604349-f130-4270-9758-b13c2363e2e7","system_id":"levelo_inurba_marseille","lat":43.29623,"lon":5.37172,"is_reserved":false,"is_disabled":false,"rental_uris":{"android":"levelo://app?vid=86604349-f130-4270-9758-b13c2363e2e7","ios":"levelo://app?vid=86604349-f130-4270-9758-b13c2363e2e7"},"vehicle_type_id":"4","last_reported":1740834800,"current_range_meters":12000,"station_id":"ce4bgnh2rcd13ifvqc0g","pricing_plan_id":"cebpf4jnsgd1na2vs0mg"},{"bike_id":"2667b23c-67ae-471f-a157-93cd2283f666","system_id":"levelo_inurba_marseille","lat":43.29606,"lon":5.381,"is_reserved":false,"is_disabled":false,"rental_uris":{"android":"levelo://app?vid=2667b23c-67ae-471f-a157-93cd2283f666","ios":"levelo://app?vid=2667b23c-67ae-471f-a157-93cd2283f666"},"vehicle_type_id":"4","last_reported":1740834800,"current_range_meters":12000,"station_id":"ce4bgl12rcd13ifvqbo0","pricing_plan_id":"cebpf4jnsgd1na2vs0mg"},{"bike_id":"8bb33282-5a35-4582-9cde-e53a3dbdbcc5","system_id":"levelo_inurba_marseille","lat":43.24408,"lon":5.37029,"is_reserved":false,"is_disabled":false,"rental_uris":{"android":"levelo://app?vid=8bb33282-5a35-4582-9cde-e53a3dbdbcc5","ios":"levelo://app?vid=8bb33282-5a35-4582-9cde-e53a3dbdbcc5"},"vehicle_type_id":"4","last_reported":1740834800,"current_range_meters":12000,"station_id":"ce4bhhh2rcd13ifvqfk0","pricing_plan_id":"cebpf4jnsgd1na2vs0mg"},{"bike_id":"d7413954-b5d7-4971-a5e6-3c9f193a11ee","system_id":"levelo_inurba_marseille","lat":43.33603,"lon":5.41019,"is_reserved":false,"is_disabled":false,"rental_uris":{"android":"levelo://app?vid=d7413954-b5d7-4971-a5e6-3c9f193a11ee","ios":"levelo://app?vid=d7413954-b5d7-4971-a5e6-3c9f193a11ee"},"vehicle_type_id":"4","last_reported":1740834800,"current_range_meters":12000,"station_id":"ce4bhqh2rcd13ifvqhmg","pricing_plan_id":"cebpf4jnsgd1na2vs0mg"},{"bike_id":"0693b9d6-4a9d-4e38-bfa2-80f934bcc2e3","system_id":"levelo_inurba_marseille","lat":43.24164,"lon":5.36409,"is_reserved":false,"is_disabled":false,"rental_uris":{"android":"levelo://app?vid=0693b9d6-4a9d-4e38-bfa2-80f934bcc2e3","ios":"levelo://app?vid=0693b9d6-4a9d-4e38-bfa2-80f934bcc2e3"},"vehicle_type_id":"4","last_reported":1740834800,"current_range_meters":12400,"station_id":"cpo36qri1sfpv3e86is0","pricing_plan_id":"cebpf4jnsgd1na2vs0mg"},{"bike_id":"31c0e24b-42d8-4837-af8d-97c389878bc1","system_id":"levelo_inurba_marseille","lat":43.30416,"lon":5.41281,"is_reserved":false,"is_disabled":false,"rental_uris":{"android":"levelo://app?vid=31c0e24b-42d8-4837-af8d-97c389878bc1","ios":"levelo://app?vid=31c0e24b-42d8-4837-af8d-97c389878bc1"},"vehicle_type_id":"4","last_reported":1740834800,"current_range_meters":12400,"station_id":"ce4bhop2rcd13ifvqh8g","pricing_plan_id":"cebpf4jnsgd1na2vs0mg"},{"bike_id":"284ccf54-027c-46be-951e-e78156f52c46","system_id":"levelo_inurba_marseille","lat":43.29273,"lon":5.38442,"is_reserved":false,"is_disabled":false,"rental_uris":{"android":"levelo://app?vid=284ccf54-027c-46be-951e-e78156f52c46","ios":"levelo://app?vid=284ccf54-027c-46be-951e-e78156f52c46"},"vehicle_type_id":"4","last_reported":1740834800,"current_range_meters":12400,"station_id":"ce4bh692rcd13ifvqea0","pricing_plan_id":"cebpf4jnsgd1na2vs0mg"},{"bike_id":"ebe8b8fa-1ddd-428b-bf9e-e7b89ff05972","system_id":"levelo_inurba_marseille","lat":43.29707,"lon":5.37694,"is_reserved":false,"is_disabled":false,"rental_uris":{"android":"levelo://app?vid=ebe8b8fa-1ddd-428b-bf9e-e7b89ff05972","ios":"levelo://app?vid=ebe8b8fa-1ddd-428b-bf9e-e7b89ff05972"},"vehicle_type_id":"4","last_reported":1740834800,"current_range_meters":10000,"station_id":"ce4bgkh2rcd13ifvqbl0","pricing_plan_id":"cebpf4jnsgd1na2vs0mg"},{"bike_id":"cdbf46d9-f988-4826-8ade-8f36fb1a257f","system_id":"levelo_inurba_marseille","lat":43.29264,"lon":5.3844,"is_reserved":false,"is_disabled":false,"rental_uris":{"android":"levelo://app?vid=cdbf46d9-f988-4826-8ade-8f36fb1a257f","ios":"levelo://app?vid=cdbf46d9-f988-4826-8ade-8f36fb1a257f"},"vehicle_type_id":"4","last_reported":1740834800,"current_range_meters":12400,"station_id":"ce4bh692rcd13ifvqea0","pricing_plan_id":"cebpf4jnsgd1na2vs0mg"},{"bike_id":"cf31ca58-c35f-4acd-899d-382553283284","system_id":"levelo_inurba_marseille","lat":43.29025,"lon":5.38649,"is_reserved":false,"is_disabled":false,"rental_uris":{"android":"levelo://app?vid=cf31ca58-c35f-4acd-899d-382553283284","ios":"levelo://app?vid=cf31ca58-c35f-4acd-899d-382553283284"},"vehicle_type_id":"4","last_reported":1740834800,"current_range_meters":12400,"station_id":"ce4bh4p2rcd13ifvqe0g","pricing_plan_id":"cebpf4jnsgd1na2vs0mg"},{"bike_id":"af049065-c9f0-4189-960c-caead01984c5","system_id":"levelo_inurba_marseille","lat":43.27326,"lon":5.39111,"is_reserved":false,"is_disabled":false,"rental_uris":{"android":"levelo://app?vid=af049065-c9f0-4189-960c-caead01984c5","ios":"levelo://app?vid=af049065-c9f0-4189-960c-caead01984c5"},"vehicle_type_id":"4","last_reported":1740834800,"current_range_meters":12000,"station_id":"ce4bhgp2rcd13ifvqfe0","pricing_plan_id":"cebpf4jnsgd1na2vs0mg"},{"bike_id":"69077f6e-5f3b-4f9d-8861-35061cb9c609","system_id":"levelo_inurba_marseille","lat":43.30538,"lon":5.36725,"is_reserved":false,"is_disabled":false,"rental_uris":{"android":"levelo://app?vid=69077f6e-5f3b-4f9d-8861-35061cb9c609","ios":"levelo://app?vid=69077f6e-5f3b-4f9d-8861-35061cb9c609"},"vehicle_type_id":"4","last_reported":1740834800,"current_range_meters":14000,"station_id":"ce4bgrp2rcd13ifvqc9g","pricing_plan_id":"cebpf4jnsgd1na2vs0mg"},{"bike_id":"9f4deda5-76e4-48c2-b596-52dcf3f3bc23","system_id":"levelo_inurba_marseille","lat":43.29646,"lon":5.37742,"is_reserved":false,"is_disabled":false,"rental_uris":{"android":"levelo://app?vid=9f4deda5-76e4-48c2-b596-52dcf3f3bc23","ios":"levelo://app?vid=9f4deda5-76e4-48c2-b596-52dcf3f3bc23"},"vehicle_type_id":"4","last_reported":1740834800,"current_range_meters":12800,"station_id":"ce4bgi92rcd13ifvqb90","pricing_plan_id":"cebpf4jnsgd1na2vs0mg"},{"bike_id":"dce704e8-d235-4d63-a2e3-acccc657079e","system_id":"levelo_inurba_marseille","lat":43.23191,"lon":5.35558,"is_reserved":false,"is_disabled":false,"rental_uris":{"android":"levelo://app?vid=dce704e8-d235-4d63-a2e3-acccc657079e","ios":"levelo://app?vid=dce704e8-d235-4d63-a2e3-acccc657079e"},"vehicle_type_id":"4","last_reported":1740834800,"current_range_meters":12800,"station_id":"ce4bhu92rcd13ifvqi70","pricing_plan_id":"cebpf4jnsgd1na2vs0mg"},{"bike_id":"1891becd-571a-4837-a053-8b5a85ac4231","system_id":"levelo_inurba_marseille","lat":43.24421,"lon":5.37019,"is_reserved":false,"is_disabled":false,"rental_uris":{"android":"levelo://app?vid=1891becd-571a-4837-a053-8b5a85ac4231","ios":"levelo://app?vid=1891becd-571a-4837-a053-8b5a85ac4231"},"vehicle_type_id":"4","last_reported":1740834800,"current_range_meters":13600,"station_id":"","pricing_plan_id":"cebpf4jnsgd1na2vs0mg"},{"bike_id":"2b368b3d-d962-4c21-9c9d-5bc7c2351d31","system_id":"levelo_inurba_marseille","lat":43.31724,"lon":5.40447,"is_reserved":false,"is_disabled":false,"rental_uris":{"android":"levelo://app?vid=2b368b3d-d962-4c21-9c9d-5bc7c2351d31","ios":"levelo://app?vid=2b368b3d-d962-4c21-9c9d-5bc7c2351d31"},"vehicle_type_id":"4","last_reported":1740834800,"current_range_meters":13600,"station_id":"ce4bh012rcd13ifvqd00","pricing_plan_id":"cebpf4jnsgd1na2vs0mg"},{"bike_id":"e3ea0c82-575d-4f15-b57c-6eebd57f815a","system_id":"levelo_inurba_marseille","lat":43.27324,"lon":5.39128,"is_reserved":false,"is_disabled":true,"rental_uris":{"android":"levelo://app?vid=e3ea0c82-575d-4f15-b57c-6eebd57f815a","ios":"levelo://app?vid=e3ea0c82-575d-4f15-b57c-6eebd57f815a"},"vehicle_type_id":"4","last_reported":1740834800,"current_range_meters":13600,"station_id":"ce4bhgp2rcd13ifvqfe0","pricing_plan_id":"cebpf4jnsgd1na2vs0mg"},{"bike_id":"f542a602-bf1f-4c57-91d3-d48dc7db9930","system_id":"levelo_inurba_marseille","lat":43.29414,"lon":5.38613,"is_reserved":false,"is_disabled":false,"rental_uris":{"android":"levelo://app?vid=f542a602-bf1f-4c57-91d3-d48dc7db9930","ios":"levelo://app?vid=f542a602-bf1f-4c57-91d3-d48dc7db9930"},"vehicle_type_id":"4","last_reported":1740834800,"current_range_meters":16400,"station_id":"ce4bh2h2rcd13ifvqdh0","pricing_plan_id":"cebpf4jnsgd1na2vs0mg"},{"bike_id":"9e70006a-cdf2-4919-93a2-3c66955a3b59","system_id":"levelo_inurba_marseille","lat":43.32363,"lon":5.36753,"is_reserved":false,"is_disabled":false,"rental_uris":{"android":"levelo://app?vid=9e70006a-cdf2-4919-93a2-3c66955a3b59","ios":"levelo://app?vid=9e70006a-cdf2-4919-93a2-3c66955a3b59"},"vehicle_type_id":"4","last_reported":1740834800,"current_range_meters":13600,"station_id":"ce4bhsh2rcd13ifvqi2g","pricing_plan_id":"cebpf4jnsgd1na2vs0mg"},{"bike_id":"f5d3ac68-6969-41d5-bc29-93594324e7ab","system_id":"levelo_inurba_marseille","lat":43.29218,"lon":5.39569,"is_reserved":false,"is_disabled":false,"rental_uris":{"android":"levelo://app?vid=f5d3ac68-6969-41d5-bc29-93594324e7ab","ios":"levelo://app?vid=f5d3ac68-6969-41d5-bc29-93594324e7ab"},"vehicle_type_id":"4","last_reported":1740834800,"current_range_meters":13600,"station_id":"","pricing_plan_id":"cebpf4jnsgd1na2vs0mg"},{"bike_id":"a5d0b9d3-e2dd-48e3-99fb-6bc67eb3cd49","system_id":"levelo_inurba_marseille","lat":43.29279,"lon":5.36844,"is_reserved":false,"is_disabled":false,"rental_uris":{"android":"levelo://app?vid=a5d0b9d3-e2dd-48e3-99fb-6bc67eb3cd49","ios":"levelo://app?vid=a5d0b9d3-e2dd-48e3-99fb-6bc67eb3cd49"},"vehicle_type_id":"4","last_reported":1740834800,"current_range_meters":13600,"station_id":"ce4bhbp2rcd13ifvqesg","pricing_plan_id":"cebpf4jnsgd1na2vs0mg"},{"bike_id":"b67989ee-d469-488f-912d-1aedc6b162c3","system_id":"levelo_inurba_marseille","lat":43.23175,"lon":5.39994,"is_reserved":false,"is_disabled":false,"rental_uris":{"android":"levelo://app?vid=b67989ee-d469-488f-912d-1aedc6b162c3","ios":"levelo://app?vid=b67989ee-d469-488f-912d-1aedc6b162c3"},"vehicle_type_id":"4","last_reported":1740834800,"current_range_meters":13600,"station_id":"ce4bhn12rcd13ifvqgqg","pricing_plan_id":"cebpf4jnsgd1na2vs0mg"},{"bike_id":"fb18759c-f3ca-4612-8704-baf08a44bab2","system_id":"levelo_inurba_marseille","lat":43.28415,"lon":5.35,"is_reserved":false,"is_disabled":false,"rental_uris":{"android":"levelo://app?vid=fb18759c-f3ca-4612-8704-baf08a44bab2","ios":"levelo://app?vid=fb18759c-f3ca-4612-8704-baf08a44bab2"},"vehicle_type_id":"4","last_reported":1740834800,"current_range_meters":14000,"station_id":"ce4bhbh2rcd13ifvqepg","pricing_plan_id":"cebpf4jnsgd1na2vs0mg"},{"bike_id":"3d326c83-df55-456d-a39d-f1c118f8a994","system_id":"levelo_inurba_marseille","lat":43.30247,"lon":5.400855,"is_reserved":false,"is_disabled":true,"rental_uris":{"android":"levelo://app?vid=3d326c83-df55-456d-a39d-f1c118f8a994","ios":"levelo://app?vid=3d326c83-df55-456d-a39d-f1c118f8a994"},"vehicle_type_id":"4","last_reported":1740834800,"current_range_meters":14000,"station_id":"ce4bgvh2rcd13ifvqcs0","pricing_plan_id":"cebpf4jnsgd1na2vs0mg"},{"bike_id":"e073bf73-a8ed-4c10-b562-bb022d797459","system_id":"levelo_inurba_marseille","lat":43.31526,"lon":5.38044,"is_reserved":false,"is_disabled":false,"rental_uris":{"android":"levelo://app?vid=e073bf73-a8ed-4c10-b562-bb022d797459","ios":"levelo://app?vid=e073bf73-a8ed-4c10-b562-bb022d797459"},"vehicle_type_id":"4","last_reported":1740834800,"current_range_meters":14000,"station_id":"ce4bhsp2rcd13ifvqi50","pricing_plan_id":"cebpf4jnsgd1na2vs0mg"},{"bike_id":"f29cf692-8c6d-4211-8104-375b5ebb9160","system_id":"levelo_inurba_marseille","lat":43.23158,"lon":5.43713,"is_reserved":false,"is_disabled":false,"rental_uris":{"android":"levelo://app?vid=f29cf692-8c6d-4211-8104-375b5ebb9160","ios":"levelo://app?vid=f29cf692-8c6d-4211-8104-375b5ebb9160"},"vehicle_type_id":"4","last_reported":1740834800,"current_range_meters":14400,"station_id":"ce4bhmp2rcd13ifvqgog","pricing_plan_id":"cebpf4jnsgd1na2vs0mg"},{"bike_id":"112ab245-0e86-483c-b08b-7076e9168f77","system_id":"levelo_inurba_marseille","lat":43.2418,"lon":5.39741,"is_reserved":false,"is_disabled":false,"rental_uris":{"android":"levelo://app?vid=112ab245-0e86-483c-b08b-7076e9168f77","ios":"levelo://app?vid=112ab245-0e86-483c-b08b-7076e9168f77"},"vehicle_type_id":"4","last_reported":1740834800,"current_range_meters":14400,"station_id":"ce4bhn12rcd13ifvqgpg","pricing_plan_id":"cebpf4jnsgd1na2vs0mg"},{"bike_id":"d876cf5d-2e50-4606-9f11-2ff62b9adc7b","system_id":"levelo_inurba_marseille","lat":43.23053,"lon":5.35505,"is_reserved":false,"is_disabled":false,"rental_uris":{"android":"levelo://app?vid=d876cf5d-2e50-4606-9f11-2ff62b9adc7b","ios":"levelo://app?vid=d876cf5d-2e50-4606-9f11-2ff62b9adc7b"},"vehicle_type_id":"4","last_reported":1740834800,"current_range_meters":14400,"station_id":"cpo3342slgdg3j2ifvpg","pricing_plan_id":"cebpf4jnsgd1na2vs0mg"},{"bike_id":"08a2d3ad-f2dd-4493-8549-3d6141caf513","system_id":"levelo_inurba_marseille","lat":43.29299,"lon":5.37158,"is_reserved":false,"is_disabled":false,"rental_uris":{"android":"levelo://app?vid=08a2d3ad-f2dd-4493-8549-3d6141caf513","ios":"levelo://app?vid=08a2d3ad-f2dd-4493-8549-3d6141caf513"},"vehicle_type_id":"4","last_reported":1740834800,"current_range_meters":14800,"station_id":"ce4bgh92rcd13ifvqb40","pricing_plan_id":"cebpf4jnsgd1na2vs0mg"},{"bike_id":"77cd5975-59ff-4178-92d8-e639e9a332a7","system_id":"levelo_inurba_marseille","lat":43.29927,"lon":5.36517,"is_reserved":false,"is_disabled":false,"rental_uris":{"android":"levelo://app?vid=77cd5975-59ff-4178-92d8-e639e9a332a7","ios":"levelo://app?vid=77cd5975-59ff-4178-92d8-e639e9a332a7"},"vehicle_type_id":"4","last_reported":1740834800,"current_range_meters":14800,"station_id":"ce4bgm92rcd13ifvqbr0","pricing_plan_id":"cebpf4jnsgd1na2vs0mg"},{"bike_id":"11d4c032-3791-48c7-acd3-8523a90f4dd0","system_id":"levelo_inurba_marseille","lat":43.29087,"lon":5.38135,"is_reserved":false,"is_disabled":false,"rental_uris":{"android":"levelo://app?vid=11d4c032-3791-48c7-acd3-8523a90f4dd0","ios":"levelo://app?vid=11d4c032-3791-48c7-acd3-8523a90f4dd0"},"vehicle_type_id":"4","last_reported":1740834800,"current_range_meters":15200,"station_id":"ce4bh512rcd13ifvqe2g","pricing_plan_id":"cebpf4jnsgd1na2vs0mg"},{"bike_id":"a0568a2d-5744-4393-a769-f8a4199ff590","system_id":"levelo_inurba_marseille","lat":43.29248,"lon":5.37139,"is_reserved":false,"is_disabled":false,"rental_uris":{"android":"levelo://app?vid=a0568a2d-5744-4393-a769-f8a4199ff590","ios":"levelo://app?vid=a0568a2d-5744-4393-a769-f8a4199ff590"},"vehicle_type_id":"4","last_reported":1740834800,"current_range_meters":14800,"station_id":"","pricing_plan_id":"cebpf4jnsgd1na2vs0mg"},{"bike_id":"49dae6dc-fea0-4fb3-8e37-03ce1dbe2090","system_id":"levelo_inurba_marseille","lat":43.27213,"lon":5.39194,"is_reserved":false,"is_disabled":false,"rental_uris":{"android":"levelo://app?vid=49dae6dc-fea0-4fb3-8e37-03ce1dbe2090","ios":"levelo://app?vid=49dae6dc-fea0-4fb3-8e37-03ce1dbe2090"},"vehicle_type_id":"4","last_reported":1740834800,"current_range_meters":14800,"station_id":"ce4bhhp2rcd13ifvqfm0","pricing_plan_id":"cebpf4jnsgd1na2vs0mg"},{"bike_id":"064d90da-1075-420d-8bf6-1a31c1014200","system_id":"levelo_inurba_marseille","lat":43.30935,"lon":5.40138,"is_reserved":false,"is_disabled":false,"rental_uris":{"android":"levelo://app?vid=064d90da-1075-420d-8bf6-1a31c1014200","ios":"levelo://app?vid=064d90da-1075-420d-8bf6-1a31c1014200"},"vehicle_type_id":"4","last_reported":1740834800,"current_range_meters":14800,"station_id":"ce4bgvp2rcd13ifvqct0","pricing_plan_id":"cebpf4jnsgd1na2vs0mg"},{"bike_id":"3e89a7de-8c08-4c9b-bbc9-5e1d905d7df8","system_id":"levelo_inurba_marseille","lat":43.2511,"lon":5.40321,"is_reserved":false,"is_disabled":false,"rental_uris":{"android":"levelo://app?vid=3e89a7de-8c08-4c9b-bbc9-5e1d905d7df8","ios":"levelo://app?vid=3e89a7de-8c08-4c9b-bbc9-5e1d905d7df8"},"vehicle_type_id":"4","last_reported":1740834800,"current_range_meters":14800,"station_id":"ce4bhlh2rcd13ifvqgig","pricing_plan_id":"cebpf4jnsgd1na2vs0mg"},{"bike_id":"e0a413a7-bc6b-4647-8e86-c0926ac098ec","system_id":"levelo_inurba_marseille","lat":43.29273,"lon":5.36866,"is_reserved":false,"is_disabled":false,"rental_uris":{"android":"levelo://app?vid=e0a413a7-bc6b-4647-8e86-c0926ac098ec","ios":"levelo://app?vid=e0a413a7-bc6b-4647-8e86-c0926ac098ec"},"vehicle_type_id":"4","last_reported":1740834800,"current_range_meters":14800,"station_id":"ce4bhbp2rcd13ifvqesg","pricing_plan_id":"cebpf4jnsgd1na2vs0mg"},{"bike_id":"8235333d-301f-40af-bcff-249a4ee0b3a0","system_id":"levelo_inurba_marseille","lat":43.29598,"lon":5.38094,"is_reserved":false,"is_disabled":false,"rental_uris":{"android":"levelo://app?vid=8235333d-301f-40af-bcff-249a4ee0b3a0","ios":"levelo://app?vid=8235333d-301f-40af-bcff-249a4ee0b3a0"},"vehicle_type_id":"4","last_reported":1740834800,"current_range_meters":14800,"station_id":"ce4bgl12rcd13ifvqbo0","pricing_plan_id":"cebpf4jnsgd1na2vs0mg"},{"bike_id":"761546c5-be0c-4342-b24b-2df20a5a6b56","system_id":"levelo_inurba_marseille","lat":43.31761,"lon":5.39029,"is_reserved":false,"is_disabled":false,"rental_uris":{"android":"levelo://app?vid=761546c5-be0c-4342-b24b-2df20a5a6b56","ios":"levelo://app?vid=761546c5-be0c-4342-b24b-2df20a5a6b56"},"vehicle_type_id":"4","last_reported":1740834800,"current_range_meters":15200,"station_id":"ce4bhqp2rcd13ifvqhng","pricing_plan_id":"cebpf4jnsgd1na2vs0mg"},{"bike_id":"e4d5b20a-d69d-4cf1-8c5f-190aaa5400cd","system_id":"levelo_inurba_marseille","lat":43.27562,"lon":5.38415,"is_reserved":false,"is_disabled":false,"rental_uris":{"android":"levelo://app?vid=e4d5b20a-d69d-4cf1-8c5f-190aaa5400cd","ios":"levelo://app?vid=e4d5b20a-d69d-4cf1-8c5f-190aaa5400cd"},"vehicle_type_id":"4","last_reported":1740834800,"current_range_meters":14800,"station_id":"ce4bhh92rcd13ifvqfi0","pricing_plan_id":"cebpf4jnsgd1na2vs0mg"},{"bike_id":"c8c8ed04-9124-48c0-baf1-9b120112b149","system_id":"levelo_inurba_marseille","lat":43.30209,"lon":5.39482,"is_reserved":false,"is_disabled":false,"rental_uris":{"android":"levelo://app?vid=c8c8ed04-9124-48c0-baf1-9b120112b149","ios":"levelo://app?vid=c8c8ed04-9124-48c0-baf1-9b120112b149"},"vehicle_type_id":"4","last_reported":1740834800,"current_range_meters":14800,"station_id":"ce4bh0p2rcd13ifvqd70","pricing_plan_id":"cebpf4jnsgd1na2vs0mg"},{"bike_id":"75cacdd1-032d-44f3-80c0-7c98daff7c98","system_id":"levelo_inurba_marseille","lat":43.29856,"lon":5.36279,"is_reserved":false,"is_disabled":false,"rental_uris":{"android":"levelo://app?vid=75cacdd1-032d-44f3-80c0-7c98daff7c98","ios":"levelo://app?vid=75cacdd1-032d-44f3-80c0-7c98daff7c98"},"vehicle_type_id":"4","last_reported":1740834800,"current_range_meters":16000,"station_id":"ce4bgpp2rcd13ifvqc3g","pricing_plan_id":"cebpf4jnsgd1na2vs0mg"},{"bike_id":"8c5231f5-29f1-4747-80f3-6519b184ab1a","system_id":"levelo_inurba_marseille","lat":43.30255,"lon":5.4006,"is_reserved":false,"is_disabled":false,"rental_uris":{"android":"levelo://app?vid=8c5231f5-29f1-4747-80f3-6519b184ab1a","ios":"levelo://app?vid=8c5231f5-29f1-4747-80f3-6519b184ab1a"},"vehicle_type_id":"4","last_reported":1740834800,"current_range_meters":15200,"station_id":"ce4bgvh2rcd13ifvqcs0","pricing_plan_id":"cebpf4jnsgd1na2vs0mg"},{"bike_id":"bca773bd-41a2-4077-baa2-572bc4e411f4","system_id":"levelo_inurba_marseille","lat":43.26916,"lon":5.40318,"is_reserved":false,"is_disabled":false,"rental_uris":{"android":"levelo://app?vid=bca773bd-41a2-4077-baa2-572bc4e411f4","ios":"levelo://app?vid=bca773bd-41a2-4077-baa2-572bc4e411f4"},"vehicle_type_id":"4","last_reported":1740834800,"current_range_meters":16000,"station_id":"cjm6bp8fraef2m0cb0m0","pricing_plan_id":"cebpf4jnsgd1na2vs0mg"},{"bike_id":"ef03a3f5-7eb7-484e-a782-a578552c3412","system_id":"levelo_inurba_marseille","lat":43.30214,"lon":5.39464,"is_reserved":false,"is_disabled":false,"rental_uris":{"android":"levelo://app?vid=ef03a3f5-7eb7-484e-a782-a578552c3412","ios":"levelo://app?vid=ef03a3f5-7eb7-484e-a782-a578552c3412"},"vehicle_type_id":"4","last_reported":1740834800,"current_range_meters":16000,"station_id":"ce4bh0p2rcd13ifvqd70","pricing_plan_id":"cebpf4jnsgd1na2vs0mg"},{"bike_id":"218457ac-5064-4483-b256-7af7da02f0cd","system_id":"levelo_inurba_marseille","lat":43.27976,"lon":5.38734,"is_reserved":false,"is_disabled":true,"rental_uris":{"android":"levelo://app?vid=218457ac-5064-4483-b256-7af7da02f0cd","ios":"levelo://app?vid=218457ac-5064-4483-b256-7af7da02f0cd"},"vehicle_type_id":"4","last_reported":1740834800,"current_range_meters":16000,"station_id":"ce4bhg12rcd13ifvqf80","pricing_plan_id":"cebpf4jnsgd1na2vs0mg"},{"bike_id":"737bd308-29d8-433a-973b-9a618c05932e","system_id":"levelo_inurba_marseille","lat":43.29006,"lon":5.3561,"is_reserved":false,"is_disabled":false,"rental_uris":{"android":"levelo://app?vid=737bd308-29d8-433a-973b-9a618c05932e","ios":"levelo://app?vid=737bd308-29d8-433a-973b-9a618c05932e"},"vehicle_type_id":"4","last_reported":1740834800,"current_range_meters":16000,"station_id":"ce4bhb92rcd13ifvqen0","pricing_plan_id":"cebpf4jnsgd1na2vs0mg"},{"bike_id":"4ea6229c-086a-445e-8a9b-12a56039c27e","system_id":"levelo_inurba_marseille","lat":43.28565,"lon":5.39504,"is_reserved":false,"is_disabled":false,"rental_uris":{"android":"levelo://app?vid=4ea6229c-086a-445e-8a9b-12a56039c27e","ios":"levelo://app?vid=4ea6229c-086a-445e-8a9b-12a56039c27e"},"vehicle_type_id":"4","last_reported":1740834800,"current_range_meters":16000,"station_id":"ce4bh292rcd13ifvqdg0","pricing_plan_id":"cebpf4jnsgd1na2vs0mg"},{"bike_id":"27d57ba8-cb2b-4da3-bcfc-1efd3956d0fa","system_id":"levelo_inurba_marseille","lat":43.29556,"lon":5.4228,"is_reserved":false,"is_disabled":false,"rental_uris":{"android":"levelo://app?vid=27d57ba8-cb2b-4da3-bcfc-1efd3956d0fa","ios":"levelo://app?vid=27d57ba8-cb2b-4da3-bcfc-1efd3956d0fa"},"vehicle_type_id":"4","last_reported":1740834800,"current_range_meters":16400,"station_id":"ce4bhph2rcd13ifvqhdg","pricing_plan_id":"cebpf4jnsgd1na2vs0mg"},{"bike_id":"97585fad-9490-4e57-b217-1b43f3a78e11","system_id":"levelo_inurba_marseille","lat":43.31089,"lon":5.42416,"is_reserved":false,"is_disabled":false,"rental_uris":{"android":"levelo://app?vid=97585fad-9490-4e57-b217-1b43f3a78e11","ios":"levelo://app?vid=97585fad-9490-4e57-b217-1b43f3a78e11"},"vehicle_type_id":"4","last_reported":1740834800,"current_range_meters":16400,"station_id":"ce4bhp92rcd13ifvqhag","pricing_plan_id":"cebpf4jnsgd1na2vs0mg"},{"bike_id":"d8ecf2db-89e2-424f-8137-efdc92ff9974","system_id":"levelo_inurba_marseille","lat":43.29844,"lon":5.36269,"is_reserved":false,"is_disabled":false,"rental_uris":{"android":"levelo://app?vid=d8ecf2db-89e2-424f-8137-efdc92ff9974","ios":"levelo://app?vid=d8ecf2db-89e2-424f-8137-efdc92ff9974"},"vehicle_type_id":"4","last_reported":1740834800,"current_range_meters":17200,"station_id":"ce4bgpp2rcd13ifvqc3g","pricing_plan_id":"cebpf4jnsgd1na2vs0mg"},{"bike_id":"f1317508-b318-42b3-b6cc-485d3729a439","system_id":"levelo_inurba_marseille","lat":43.26211,"lon":5.3793,"is_reserved":false,"is_disabled":false,"rental_uris":{"android":"levelo://app?vid=f1317508-b318-42b3-b6cc-485d3729a439","ios":"levelo://app?vid=f1317508-b318-42b3-b6cc-485d3729a439"},"vehicle_type_id":"4","last_reported":1740834800,"current_range_meters":16400,"station_id":"ce4bhjp2rcd13ifvqg90","pricing_plan_id":"cebpf4jnsgd1na2vs0mg"},{"bike_id":"20d46fcb-4529-4896-b225-392c7b6d1f52","system_id":"levelo_inurba_marseille","lat":43.292228,"lon":5.393187,"is_reserved":false,"is_disabled":true,"rental_uris":{"android":"levelo://app?vid=20d46fcb-4529-4896-b225-392c7b6d1f52","ios":"levelo://app?vid=20d46fcb-4529-4896-b225-392c7b6d1f52"},"vehicle_type_id":"4","last_reported":1740834800,"current_range_meters":16400,"station_id":"ce4bh192rcd13ifvqdd0","pricing_plan_id":"cebpf4jnsgd1na2vs0mg"},{"bike_id":"eb353dc0-7506-4174-935e-315256184a7f","system_id":"levelo_inurba_marseille","lat":43.23197,"lon":5.35553,"is_reserved":false,"is_disabled":false,"rental_uris":{"android":"levelo://app?vid=eb353dc0-7506-4174-935e-315256184a7f","ios":"levelo://app?vid=eb353dc0-7506-4174-935e-315256184a7f"},"vehicle_type_id":"4","last_reported":1740834800,"current_range_meters":16400,"station_id":"ce4bhu92rcd13ifvqi70","pricing_plan_id":"cebpf4jnsgd1na2vs0mg"},{"bike_id":"0f8dc723-f288-4ef9-a295-e1b7db86db79","system_id":"levelo_inurba_marseille","lat":43.26806,"lon":5.40272,"is_reserved":false,"is_disabled":false,"rental_uris":{"android":"levelo://app?vid=0f8dc723-f288-4ef9-a295-e1b7db86db79","ios":"levelo://app?vid=0f8dc723-f288-4ef9-a295-e1b7db86db79"},"vehicle_type_id":"4","last_reported":1740834800,"current_range_meters":16400,"station_id":"ce501612rcd8frsf0b60","pricing_plan_id":"cebpf4jnsgd1na2vs0mg"},{"bike_id":"3eea0f89-b137-40d9-a4fd-d1c6a11e78cf","system_id":"levelo_inurba_marseille","lat":43.25577,"lon":5.38236,"is_reserved":false,"is_disabled":false,"rental_uris":{"android":"levelo://app?vid=3eea0f89-b137-40d9-a4fd-d1c6a11e78cf","ios":"levelo://app?vid=3eea0f89-b137-40d9-a4fd-d1c6a11e78cf"},"vehicle_type_id":"4","last_reported":1740834800,"current_range_meters":16400,"station_id":"ce4bhih2rcd13ifvqfs0","pricing_plan_id":"cebpf4jnsgd1na2vs0mg"},{"bike_id":"5e3f9bd5-751c-42c2-9bb8-31b66263a129","system_id":"levelo_inurba_marseille","lat":43.2721,"lon":5.39179,"is_reserved":false,"is_disabled":false,"rental_uris":{"android":"levelo://app?vid=5e3f9bd5-751c-42c2-9bb8-31b66263a129","ios":"levelo://app?vid=5e3f9bd5-751c-42c2-9bb8-31b66263a129"},"vehicle_type_id":"4","last_reported":1740834800,"current_range_meters":16800,"station_id":"ce4bhhp2rcd13ifvqfm0","pricing_plan_id":"cebpf4jnsgd1na2vs0mg"},{"bike_id":"2d1d2386-425e-4d3b-a42c-d9fab8a51247","system_id":"levelo_inurba_marseille","lat":43.28943,"lon":5.36641,"is_reserved":false,"is_disabled":false,"rental_uris":{"android":"levelo://app?vid=2d1d2386-425e-4d3b-a42c-d9fab8a51247","ios":"levelo://app?vid=2d1d2386-425e-4d3b-a42c-d9fab8a51247"},"vehicle_type_id":"4","last_reported":1740834800,"current_range_meters":16800,"station_id":"ce4bhap2rcd13ifvqek0","pricing_plan_id":"cebpf4jnsgd1na2vs0mg"},{"bike_id":"97660e11-152b-48a1-9b57-8ac6abeca229","system_id":"levelo_inurba_marseille","lat":43.29902,"lon":5.43693,"is_reserved":false,"is_disabled":false,"rental_uris":{"android":"levelo://app?vid=97660e11-152b-48a1-9b57-8ac6abeca229","ios":"levelo://app?vid=97660e11-152b-48a1-9b57-8ac6abeca229"},"vehicle_type_id":"4","last_reported":1740834800,"current_range_meters":16800,"station_id":"ce4bhpp2rcd13ifvqhfg","pricing_plan_id":"cebpf4jnsgd1na2vs0mg"},{"bike_id":"715c5172-2db9-4e77-abba-3b6c0991537b","system_id":"levelo_inurba_marseille","lat":43.243874,"lon":5.370576,"is_reserved":false,"is_disabled":false,"rental_uris":{"android":"levelo://app?vid=715c5172-2db9-4e77-abba-3b6c0991537b","ios":"levelo://app?vid=715c5172-2db9-4e77-abba-3b6c0991537b"},"vehicle_type_id":"4","last_reported":1740834800,"current_range_meters":16800,"station_id":"ce4bhhh2rcd13ifvqfk0","pricing_plan_id":"cebpf4jnsgd1na2vs0mg"},{"bike_id":"4455cbf0-fd1f-40fe-957f-4cd3a4607f1a","system_id":"levelo_inurba_marseille","lat":43.27995,"lon":5.40009,"is_reserved":false,"is_disabled":false,"rental_uris":{"android":"levelo://app?vid=4455cbf0-fd1f-40fe-957f-4cd3a4607f1a","ios":"levelo://app?vid=4455cbf0-fd1f-40fe-957f-4cd3a4607f1a"},"vehicle_type_id":"4","last_reported":1740834800,"current_range_meters":17200,"station_id":"ce4bho92rcd13ifvqh4g","pricing_plan_id":"cebpf4jnsgd1na2vs0mg"},{"bike_id":"3bb09152-75b2-4229-b4a4-cc2dd48bc9aa","system_id":"levelo_inurba_marseille","lat":43.32064,"lon":5.41535,"is_reserved":false,"is_disabled":false,"rental_uris":{"android":"levelo://app?vid=3bb09152-75b2-4229-b4a4-cc2dd48bc9aa","ios":"levelo://app?vid=3bb09152-75b2-4229-b4a4-cc2dd48bc9aa"},"vehicle_type_id":"4","last_reported":1740834800,"current_range_meters":16800,"station_id":"ce4bhq92rcd13ifvqhkg","pricing_plan_id":"cebpf4jnsgd1na2vs0mg"},{"bike_id":"83b577d2-041a-4db7-ae5c-27899fd31d04","system_id":"levelo_inurba_marseille","lat":43.29519,"lon":5.37519,"is_reserved":false,"is_disabled":false,"rental_uris":{"android":"levelo://app?vid=83b577d2-041a-4db7-ae5c-27899fd31d04","ios":"levelo://app?vid=83b577d2-041a-4db7-ae5c-27899fd31d04"},"vehicle_type_id":"4","last_reported":1740834800,"current_range_meters":17600,"station_id":"ce4bgkp2rcd13ifvqbmg","pricing_plan_id":"cebpf4jnsgd1na2vs0mg"},{"bike_id":"74cc3d82-dbc6-4a78-9c71-d36418f378c5","system_id":"levelo_inurba_marseille","lat":43.28938,"lon":5.39647,"is_reserved":false,"is_disabled":false,"rental_uris":{"android":"levelo://app?vid=74cc3d82-dbc6-4a78-9c71-d36418f378c5","ios":"levelo://app?vid=74cc3d82-dbc6-4a78-9c71-d36418f378c5"},"vehicle_type_id":"4","last_reported":1740834800,"current_range_meters":17600,"station_id":"ce4bh3h2rcd13ifvqdn0","pricing_plan_id":"cebpf4jnsgd1na2vs0mg"},{"bike_id":"ae07f147-26ae-41a1-8aee-2851f6dcc9df","system_id":"levelo_inurba_marseille","lat":43.28112,"lon":5.39843,"is_reserved":false,"is_disabled":false,"rental_uris":{"android":"levelo://app?vid=ae07f147-26ae-41a1-8aee-2851f6dcc9df","ios":"levelo://app?vid=ae07f147-26ae-41a1-8aee-2851f6dcc9df"},"vehicle_type_id":"4","last_reported":1740834800,"current_range_meters":17200,"station_id":"","pricing_plan_id":"cebpf4jnsgd1na2vs0mg"},{"bike_id":"ffe714ed-8c20-4a89-8de0-4dba1597b1d3","system_id":"levelo_inurba_marseille","lat":43.29629,"lon":5.37163,"is_reserved":false,"is_disabled":false,"rental_uris":{"android":"levelo://app?vid=ffe714ed-8c20-4a89-8de0-4dba1597b1d3","ios":"levelo://app?vid=ffe714ed-8c20-4a89-8de0-4dba1597b1d3"},"vehicle_type_id":"4","last_reported":1740834800,"current_range_meters":17200,"station_id":"ce4bgnh2rcd13ifvqc0g","pricing_plan_id":"cebpf4jnsgd1na2vs0mg"},{"bike_id":"953cc1e5-7e17-4c1d-b0f2-bff801d3a91c","system_id":"levelo_inurba_marseille","lat":43.29268,"lon":5.38436,"is_reserved":false,"is_disabled":true,"rental_uris":{"android":"levelo://app?vid=953cc1e5-7e17-4c1d-b0f2-bff801d3a91c","ios":"levelo://app?vid=953cc1e5-7e17-4c1d-b0f2-bff801d3a91c"},"vehicle_type_id":"4","last_reported":1740834800,"current_range_meters":17200,"station_id":"ce4bh692rcd13ifvqea0","pricing_plan_id":"cebpf4jnsgd1na2vs0mg"},{"bike_id":"0227ea74-0b89-4dbe-8256-3e039a52c7d3","system_id":"levelo_inurba_marseille","lat":43.29638,"lon":5.40599,"is_reserved":false,"is_disabled":false,"rental_uris":{"android":"levelo://app?vid=0227ea74-0b89-4dbe-8256-3e039a52c7d3","ios":"levelo://app?vid=0227ea74-0b89-4dbe-8256-3e039a52c7d3"},"vehicle_type_id":"4","last_reported":1740834800,"current_range_meters":17200,"station_id":"ce4bh0h2rcd13ifvqd60","pricing_plan_id":"cebpf4jnsgd1na2vs0mg"},{"bike_id":"a197c053-f495-4388-bb09-62f1a25a335b","system_id":"levelo_inurba_marseille","lat":43.230687,"lon":5.354873,"is_reserved":false,"is_disabled":false,"rental_uris":{"android":"levelo://app?vid=a197c053-f495-4388-bb09-62f1a25a335b","ios":"levelo://app?vid=a197c053-f495-4388-bb09-62f1a25a335b"},"vehicle_type_id":"4","last_reported":1740834800,"current_range_meters":17200,"station_id":"cpo3342slgdg3j2ifvpg","pricing_plan_id":"cebpf4jnsgd1na2vs0mg"},{"bike_id":"3c9c65ff-a2a8-4c52-a6f4-62bcc77556ef","system_id":"levelo_inurba_marseille","lat":43.24155,"lon":5.36414,"is_reserved":false,"is_disabled":false,"rental_uris":{"android":"levelo://app?vid=3c9c65ff-a2a8-4c52-a6f4-62bcc77556ef","ios":"levelo://app?vid=3c9c65ff-a2a8-4c52-a6f4-62bcc77556ef"},"vehicle_type_id":"4","last_reported":1740834800,"current_range_meters":17200,"station_id":"cpo36qri1sfpv3e86is0","pricing_plan_id":"cebpf4jnsgd1na2vs0mg"},{"bike_id":"54adf5fa-926b-4227-b5ee-b31390421ef4","system_id":"levelo_inurba_marseille","lat":43.26218,"lon":5.37933,"is_reserved":false,"is_disabled":false,"rental_uris":{"android":"levelo://app?vid=54adf5fa-926b-4227-b5ee-b31390421ef4","ios":"levelo://app?vid=54adf5fa-926b-4227-b5ee-b31390421ef4"},"vehicle_type_id":"4","last_reported":1740834800,"current_range_meters":17200,"station_id":"ce4bhjp2rcd13ifvqg90","pricing_plan_id":"cebpf4jnsgd1na2vs0mg"},{"bike_id":"1556471f-6879-4a12-868e-de93a30e85f4","system_id":"levelo_inurba_marseille","lat":43.24671,"lon":5.38167,"is_reserved":false,"is_disabled":false,"rental_uris":{"android":"levelo://app?vid=1556471f-6879-4a12-868e-de93a30e85f4","ios":"levelo://app?vid=1556471f-6879-4a12-868e-de93a30e85f4"},"vehicle_type_id":"4","last_reported":1740834800,"current_range_meters":17600,"station_id":"ce4bhih2rcd13ifvqfr0","pricing_plan_id":"cebpf4jnsgd1na2vs0mg"},{"bike_id":"5f58e767-9619-4aff-a7ce-6fecff2cc717","system_id":"levelo_inurba_marseille","lat":43.28424,"lon":5.39176,"is_reserved":false,"is_disabled":false,"rental_uris":{"android":"levelo://app?vid=5f58e767-9619-4aff-a7ce-6fecff2cc717","ios":"levelo://app?vid=5f58e767-9619-4aff-a7ce-6fecff2cc717"},"vehicle_type_id":"4","last_reported":1740834800,"current_range_meters":17600,"station_id":"ce4bhoh2rcd13ifvqh5g","pricing_plan_id":"cebpf4jnsgd1na2vs0mg"},{"bike_id":"86cc9982-5618-4cb8-9954-f0030787db2e","system_id":"levelo_inurba_marseille","lat":43.30214,"lon":5.3946,"is_reserved":false,"is_disabled":false,"rental_uris":{"android":"levelo://app?vid=86cc9982-5618-4cb8-9954-f0030787db2e","ios":"levelo://app?vid=86cc9982-5618-4cb8-9954-f0030787db2e"},"vehicle_type_id":"4","last_reported":1740834800,"current_range_meters":17600,"station_id":"ce4bh0p2rcd13ifvqd70","pricing_plan_id":"cebpf4jnsgd1na2vs0mg"},{"bike_id":"49645587-4897-47af-80cb-ea0df5af90cc","system_id":"levelo_inurba_marseille","lat":43.26223,"lon":5.37431,"is_reserved":false,"is_disabled":false,"rental_uris":{"android":"levelo://app?vid=49645587-4897-47af-80cb-ea0df5af90cc","ios":"levelo://app?vid=49645587-4897-47af-80cb-ea0df5af90cc"},"vehicle_type_id":"4","last_reported":1740834800,"current_range_meters":17600,"station_id":"","pricing_plan_id":"cebpf4jnsgd1na2vs0mg"},{"bike_id":"57cd94f2-e7d7-48fa-948e-308f17077047","system_id":"levelo_inurba_marseille","lat":43.29095,"lon":5.38134,"is_reserved":false,"is_disabled":false,"rental_uris":{"android":"levelo://app?vid=57cd94f2-e7d7-48fa-948e-308f17077047","ios":"levelo://app?vid=57cd94f2-e7d7-48fa-948e-308f17077047"},"vehicle_type_id":"4","last_reported":1740834800,"current_range_meters":17600,"station_id":"ce4bh512rcd13ifvqe2g","pricing_plan_id":"cebpf4jnsgd1na2vs0mg"},{"bike_id":"3d3e1218-9db2-47a8-a44c-42be77ca5680","system_id":"levelo_inurba_marseille","lat":43.29276,"lon":5.36861,"is_reserved":false,"is_disabled":false,"rental_uris":{"android":"levelo://app?vid=3d3e1218-9db2-47a8-a44c-42be77ca5680","ios":"levelo://app?vid=3d3e1218-9db2-47a8-a44c-42be77ca5680"},"vehicle_type_id":"4","last_reported":1740834800,"current_range_meters":17600,"station_id":"ce4bhbp2rcd13ifvqesg","pricing_plan_id":"cebpf4jnsgd1na2vs0mg"},{"bike_id":"82ce3d8e-f85f-4f5a-a45f-96b5ebaa8cc4","system_id":"levelo_inurba_marseille","lat":43.29624,"lon":5.3717,"is_reserved":false,"is_disabled":false,"rental_uris":{"android":"levelo://app?vid=82ce3d8e-f85f-4f5a-a45f-96b5ebaa8cc4","ios":"levelo://app?vid=82ce3d8e-f85f-4f5a-a45f-96b5ebaa8cc4"},"vehicle_type_id":"4","last_reported":1740834800,"current_range_meters":17600,"station_id":"ce4bgnh2rcd13ifvqc0g","pricing_plan_id":"cebpf4jnsgd1na2vs0mg"},{"bike_id":"91559e47-f54b-452f-b25b-2cfb9bbf7ce1","system_id":"levelo_inurba_marseille","lat":43.29799,"lon":5.38084,"is_reserved":false,"is_disabled":false,"rental_uris":{"android":"levelo://app?vid=91559e47-f54b-452f-b25b-2cfb9bbf7ce1","ios":"levelo://app?vid=91559e47-f54b-452f-b25b-2cfb9bbf7ce1"},"vehicle_type_id":"4","last_reported":1740834800,"current_range_meters":17600,"station_id":"ce4bgip2rcd13ifvqbb0","pricing_plan_id":"cebpf4jnsgd1na2vs0mg"},{"bike_id":"dbd24d78-1e72-4b79-b29c-55756f89ecc8","system_id":"levelo_inurba_marseille","lat":43.25011,"lon":5.38944,"is_reserved":false,"is_disabled":false,"rental_uris":{"android":"levelo://app?vid=dbd24d78-1e72-4b79-b29c-55756f89ecc8","ios":"levelo://app?vid=dbd24d78-1e72-4b79-b29c-55756f89ecc8"},"vehicle_type_id":"4","last_reported":1740834800,"current_range_meters":17600,"station_id":"ce4bhgp2rcd13ifvqfd0","pricing_plan_id":"cebpf4jnsgd1na2vs0mg"},{"bike_id":"3a1ecda5-87d4-455c-8c92-7cec3ae2e945","system_id":"levelo_inurba_marseille","lat":43.26939,"lon":5.40264,"is_reserved":false,"is_disabled":false,"rental_uris":{"android":"levelo://app?vid=3a1ecda5-87d4-455c-8c92-7cec3ae2e945","ios":"levelo://app?vid=3a1ecda5-87d4-455c-8c92-7cec3ae2e945"},"vehicle_type_id":"4","last_reported":1740834800,"current_range_meters":18800,"station_id":"cjm6bp8fraef2m0cb0m0","pricing_plan_id":"cebpf4jnsgd1na2vs0mg"},{"bike_id":"7823a789-113a-40ae-a3f9-3b27eb5735e7","system_id":"levelo_inurba_marseille","lat":43.29586,"lon":5.39946,"is_reserved":false,"is_disabled":false,"rental_uris":{"android":"levelo://app?vid=7823a789-113a-40ae-a3f9-3b27eb5735e7","ios":"levelo://app?vid=7823a789-113a-40ae-a3f9-3b27eb5735e7"},"vehicle_type_id":"4","last_reported":1740834800,"current_range_meters":18000,"station_id":"ce4bh312rcd13ifvqdj0","pricing_plan_id":"cebpf4jnsgd1na2vs0mg"},{"bike_id":"33c951cc-444f-49ba-bdb7-2ae131148385","system_id":"levelo_inurba_marseille","lat":43.28715,"lon":5.39983,"is_reserved":false,"is_disabled":false,"rental_uris":{"android":"levelo://app?vid=33c951cc-444f-49ba-bdb7-2ae131148385","ios":"levelo://app?vid=33c951cc-444f-49ba-bdb7-2ae131148385"},"vehicle_type_id":"4","last_reported":1740834800,"current_range_meters":18000,"station_id":"ce4bho92rcd13ifvqh3g","pricing_plan_id":"cebpf4jnsgd1na2vs0mg"},{"bike_id":"525a8d9b-26c1-4a75-a7f9-bc7d0b5a7f45","system_id":"levelo_inurba_marseille","lat":43.29903,"lon":5.3747,"is_reserved":false,"is_disabled":false,"rental_uris":{"android":"levelo://app?vid=525a8d9b-26c1-4a75-a7f9-bc7d0b5a7f45","ios":"levelo://app?vid=525a8d9b-26c1-4a75-a7f9-bc7d0b5a7f45"},"vehicle_type_id":"4","last_reported":1740834800,"current_range_meters":18000,"station_id":"ce4bgjh2rcd13ifvqbg0","pricing_plan_id":"cebpf4jnsgd1na2vs0mg"},{"bike_id":"e2b1a97c-05f9-4994-8c76-5c4c26614832","system_id":"levelo_inurba_marseille","lat":43.2657,"lon":5.37309,"is_reserved":false,"is_disabled":false,"rental_uris":{"android":"levelo://app?vid=e2b1a97c-05f9-4994-8c76-5c4c26614832","ios":"levelo://app?vid=e2b1a97c-05f9-4994-8c76-5c4c26614832"},"vehicle_type_id":"4","last_reported":1740834800,"current_range_meters":18800,"station_id":"ce4bhg12rcd13ifvqf70","pricing_plan_id":"cebpf4jnsgd1na2vs0mg"},{"bike_id":"620a5eb3-daee-44ad-a3ba-f984dc8c768a","system_id":"levelo_inurba_marseille","lat":43.3018,"lon":5.3661,"is_reserved":false,"is_disabled":true,"rental_uris":{"android":"levelo://app?vid=620a5eb3-daee-44ad-a3ba-f984dc8c768a","ios":"levelo://app?vid=620a5eb3-daee-44ad-a3ba-f984dc8c768a"},"vehicle_type_id":"4","last_reported":1740834800,"current_range_meters":18000,"station_id":"ce4bgrh2rcd13ifvqc8g","pricing_plan_id":"cebpf4jnsgd1na2vs0mg"},{"bike_id":"c6bc9b85-3803-49aa-b83c-08f0c6dcab90","system_id":"levelo_inurba_marseille","lat":43.2439,"lon":5.37056,"is_reserved":false,"is_disabled":false,"rental_uris":{"android":"levelo://app?vid=c6bc9b85-3803-49aa-b83c-08f0c6dcab90","ios":"levelo://app?vid=c6bc9b85-3803-49aa-b83c-08f0c6dcab90"},"vehicle_type_id":"4","last_reported":1740834800,"current_range_meters":18000,"station_id":"ce4bhhh2rcd13ifvqfk0","pricing_plan_id":"cebpf4jnsgd1na2vs0mg"},{"bike_id":"d0338d15-401f-4f02-ad15-e1eebf71fa48","system_id":"levelo_inurba_marseille","lat":43.29606,"lon":5.38112,"is_reserved":false,"is_disabled":false,"rental_uris":{"android":"levelo://app?vid=d0338d15-401f-4f02-ad15-e1eebf71fa48","ios":"levelo://app?vid=d0338d15-401f-4f02-ad15-e1eebf71fa48"},"vehicle_type_id":"4","last_reported":1740834800,"current_range_meters":18000,"station_id":"ce4bgl12rcd13ifvqbo0","pricing_plan_id":"cebpf4jnsgd1na2vs0mg"},{"bike_id":"1a19f09d-0b6a-4b64-9d93-aa6bb1c37f46","system_id":"levelo_inurba_marseille","lat":43.29594,"lon":5.38107,"is_reserved":false,"is_disabled":false,"rental_uris":{"android":"levelo://app?vid=1a19f09d-0b6a-4b64-9d93-aa6bb1c37f46","ios":"levelo://app?vid=1a19f09d-0b6a-4b64-9d93-aa6bb1c37f46"},"vehicle_type_id":"4","last_reported":1740834800,"current_range_meters":18000,"station_id":"ce4bgl12rcd13ifvqbo0","pricing_plan_id":"cebpf4jnsgd1na2vs0mg"},{"bike_id":"3ad4e367-65de-459f-bb28-07c64d86a608","system_id":"levelo_inurba_marseille","lat":43.29568,"lon":5.37521,"is_reserved":false,"is_disabled":false,"rental_uris":{"android":"levelo://app?vid=3ad4e367-65de-459f-bb28-07c64d86a608","ios":"levelo://app?vid=3ad4e367-65de-459f-bb28-07c64d86a608"},"vehicle_type_id":"4","last_reported":1740834800,"current_range_meters":18000,"station_id":"ce4bgh92rcd13ifvqb50","pricing_plan_id":"cebpf4jnsgd1na2vs0mg"},{"bike_id":"d8e7ec47-d5c3-442b-9798-e48cfce76b44","system_id":"levelo_inurba_marseille","lat":43.29553,"lon":5.42299,"is_reserved":false,"is_disabled":false,"rental_uris":{"android":"levelo://app?vid=d8e7ec47-d5c3-442b-9798-e48cfce76b44","ios":"levelo://app?vid=d8e7ec47-d5c3-442b-9798-e48cfce76b44"},"vehicle_type_id":"4","last_reported":1740834800,"current_range_meters":20000,"station_id":"ce4bhph2rcd13ifvqhdg","pricing_plan_id":"cebpf4jnsgd1na2vs0mg"},{"bike_id":"51488355-cec3-4549-a8df-af618d811700","system_id":"levelo_inurba_marseille","lat":43.31694,"lon":5.40485,"is_reserved":false,"is_disabled":false,"rental_uris":{"android":"levelo://app?vid=51488355-cec3-4549-a8df-af618d811700","ios":"levelo://app?vid=51488355-cec3-4549-a8df-af618d811700"},"vehicle_type_id":"4","last_reported":1740834800,"current_range_meters":18000,"station_id":"ce4bh012rcd13ifvqd00","pricing_plan_id":"cebpf4jnsgd1na2vs0mg"},{"bike_id":"d5792e34-1a9b-4bc2-abd5-2c645e524662","system_id":"levelo_inurba_marseille","lat":43.31693,"lon":5.40429,"is_reserved":false,"is_disabled":false,"rental_uris":{"android":"levelo://app?vid=d5792e34-1a9b-4bc2-abd5-2c645e524662","ios":"levelo://app?vid=d5792e34-1a9b-4bc2-abd5-2c645e524662"},"vehicle_type_id":"4","last_reported":1740834800,"current_range_meters":18000,"station_id":"ce4bh012rcd13ifvqd00","pricing_plan_id":"cebpf4jnsgd1na2vs0mg"},{"bike_id":"785b2088-e997-4eaf-a2a1-57cc25d13a31","system_id":"levelo_inurba_marseille","lat":43.25577,"lon":5.38251,"is_reserved":false,"is_disabled":false,"rental_uris":{"android":"levelo://app?vid=785b2088-e997-4eaf-a2a1-57cc25d13a31","ios":"levelo://app?vid=785b2088-e997-4eaf-a2a1-57cc25d13a31"},"vehicle_type_id":"4","last_reported":1740834800,"current_range_meters":18800,"station_id":"ce4bhih2rcd13ifvqfs0","pricing_plan_id":"cebpf4jnsgd1na2vs0mg"},{"bike_id":"becc1179-b330-49e8-8c01-0081d3d2357e","system_id":"levelo_inurba_marseille","lat":43.29849,"lon":5.36275,"is_reserved":false,"is_disabled":false,"rental_uris":{"android":"levelo://app?vid=becc1179-b330-49e8-8c01-0081d3d2357e","ios":"levelo://app?vid=becc1179-b330-49e8-8c01-0081d3d2357e"},"vehicle_type_id":"4","last_reported":1740834800,"current_range_meters":18800,"station_id":"ce4bgpp2rcd13ifvqc3g","pricing_plan_id":"cebpf4jnsgd1na2vs0mg"},{"bike_id":"9e249663-5f14-4283-8fa3-d557bc1f1cf9","system_id":"levelo_inurba_marseille","lat":43.30208,"lon":5.39458,"is_reserved":false,"is_disabled":false,"rental_uris":{"android":"levelo://app?vid=9e249663-5f14-4283-8fa3-d557bc1f1cf9","ios":"levelo://app?vid=9e249663-5f14-4283-8fa3-d557bc1f1cf9"},"vehicle_type_id":"4","last_reported":1740834800,"current_range_meters":18800,"station_id":"ce4bh0p2rcd13ifvqd70","pricing_plan_id":"cebpf4jnsgd1na2vs0mg"},{"bike_id":"96090500-e92b-4618-a8ce-3e71815df01c","system_id":"levelo_inurba_marseille","lat":43.31057,"lon":5.38252,"is_reserved":false,"is_disabled":false,"rental_uris":{"android":"levelo://app?vid=96090500-e92b-4618-a8ce-3e71815df01c","ios":"levelo://app?vid=96090500-e92b-4618-a8ce-3e71815df01c"},"vehicle_type_id":"4","last_reported":1740834800,"current_range_meters":18800,"station_id":"","pricing_plan_id":"cebpf4jnsgd1na2vs0mg"},{"bike_id":"be6c51ac-2fce-4431-b60d-e882f8240f03","system_id":"levelo_inurba_marseille","lat":43.28861,"lon":5.35853,"is_reserved":false,"is_disabled":false,"rental_uris":{"android":"levelo://app?vid=be6c51ac-2fce-4431-b60d-e882f8240f03","ios":"levelo://app?vid=be6c51ac-2fce-4431-b60d-e882f8240f03"},"vehicle_type_id":"4","last_reported":1740834800,"current_range_meters":19200,"station_id":"ce4bhb12rcd13ifvqem0","pricing_plan_id":"cebpf4jnsgd1na2vs0mg"},{"bike_id":"2a23d718-92f0-41a6-864d-e68ac618d458","system_id":"levelo_inurba_marseille","lat":43.28364,"lon":5.40137,"is_reserved":false,"is_disabled":false,"rental_uris":{"android":"levelo://app?vid=2a23d718-92f0-41a6-864d-e68ac618d458","ios":"levelo://app?vid=2a23d718-92f0-41a6-864d-e68ac618d458"},"vehicle_type_id":"4","last_reported":1740834800,"current_range_meters":18800,"station_id":"","pricing_plan_id":"cebpf4jnsgd1na2vs0mg"},{"bike_id":"9d9ea3d7-9a8c-4118-bff6-a1dc51515da1","system_id":"levelo_inurba_marseille","lat":43.29807,"lon":5.40423,"is_reserved":false,"is_disabled":false,"rental_uris":{"android":"levelo://app?vid=9d9ea3d7-9a8c-4118-bff6-a1dc51515da1","ios":"levelo://app?vid=9d9ea3d7-9a8c-4118-bff6-a1dc51515da1"},"vehicle_type_id":"4","last_reported":1740834800,"current_range_meters":19200,"station_id":"ce4bh112rcd13ifvqd90","pricing_plan_id":"cebpf4jnsgd1na2vs0mg"},{"bike_id":"8b4eac13-9923-4d4f-b352-1b63f99f96f9","system_id":"levelo_inurba_marseille","lat":43.30649,"lon":5.40063,"is_reserved":false,"is_disabled":false,"rental_uris":{"android":"levelo://app?vid=8b4eac13-9923-4d4f-b352-1b63f99f96f9","ios":"levelo://app?vid=8b4eac13-9923-4d4f-b352-1b63f99f96f9"},"vehicle_type_id":"4","last_reported":1740834800,"current_range_meters":19200,"station_id":"ce4bh112rcd13ifvqda0","pricing_plan_id":"cebpf4jnsgd1na2vs0mg"},{"bike_id":"eb9f27e8-11a6-4fcf-8240-7050305fdbb6","system_id":"levelo_inurba_marseille","lat":43.29266,"lon":5.36855,"is_reserved":false,"is_disabled":false,"rental_uris":{"android":"levelo://app?vid=eb9f27e8-11a6-4fcf-8240-7050305fdbb6","ios":"levelo://app?vid=eb9f27e8-11a6-4fcf-8240-7050305fdbb6"},"vehicle_type_id":"4","last_reported":1740834800,"current_range_meters":19200,"station_id":"ce4bhbp2rcd13ifvqesg","pricing_plan_id":"cebpf4jnsgd1na2vs0mg"},{"bike_id":"91debd91-f221-4e87-8afb-07f3c74f953a","system_id":"levelo_inurba_marseille","lat":43.29632,"lon":5.40599,"is_reserved":false,"is_disabled":false,"rental_uris":{"android":"levelo://app?vid=91debd91-f221-4e87-8afb-07f3c74f953a","ios":"levelo://app?vid=91debd91-f221-4e87-8afb-07f3c74f953a"},"vehicle_type_id":"4","last_reported":1740834800,"current_range_meters":19200,"station_id":"ce4bh0h2rcd13ifvqd60","pricing_plan_id":"cebpf4jnsgd1na2vs0mg"},{"bike_id":"d810e810-553a-4e34-84c4-48d40741c143","system_id":"levelo_inurba_marseille","lat":43.282576,"lon":5.385384,"is_reserved":false,"is_disabled":false,"rental_uris":{"android":"levelo://app?vid=d810e810-553a-4e34-84c4-48d40741c143","ios":"levelo://app?vid=d810e810-553a-4e34-84c4-48d40741c143"},"vehicle_type_id":"4","last_reported":1740834800,"current_range_meters":18800,"station_id":"ce4bht12rcd13ifvqi60","pricing_plan_id":"cebpf4jnsgd1na2vs0mg"},{"bike_id":"4ef29248-ec76-4a7f-92b3-bb4f2a342d44","system_id":"levelo_inurba_marseille","lat":43.30128,"lon":5.39865,"is_reserved":false,"is_disabled":false,"rental_uris":{"android":"levelo://app?vid=4ef29248-ec76-4a7f-92b3-bb4f2a342d44","ios":"levelo://app?vid=4ef29248-ec76-4a7f-92b3-bb4f2a342d44"},"vehicle_type_id":"4","last_reported":1740834800,"current_range_meters":19200,"station_id":"ce4bh0h2rcd13ifvqd40","pricing_plan_id":"cebpf4jnsgd1na2vs0mg"},{"bike_id":"c7667e1e-a7fd-4ca4-bfc2-57d7a7392cfb","system_id":"levelo_inurba_marseille","lat":43.29262,"lon":5.38441,"is_reserved":false,"is_disabled":false,"rental_uris":{"android":"levelo://app?vid=c7667e1e-a7fd-4ca4-bfc2-57d7a7392cfb","ios":"levelo://app?vid=c7667e1e-a7fd-4ca4-bfc2-57d7a7392cfb"},"vehicle_type_id":"4","last_reported":1740834800,"current_range_meters":19600,"station_id":"ce4bh692rcd13ifvqea0","pricing_plan_id":"cebpf4jnsgd1na2vs0mg"},{"bike_id":"df2e9e2f-8806-423d-81ee-36dfb8080e61","system_id":"levelo_inurba_marseille","lat":43.29564,"lon":5.3752,"is_reserved":false,"is_disabled":false,"rental_uris":{"android":"levelo://app?vid=df2e9e2f-8806-423d-81ee-36dfb8080e61","ios":"levelo://app?vid=df2e9e2f-8806-423d-81ee-36dfb8080e61"},"vehicle_type_id":"4","last_reported":1740834800,"current_range_meters":19600,"station_id":"ce4bgh92rcd13ifvqb50","pricing_plan_id":"cebpf4jnsgd1na2vs0mg"},{"bike_id":"4af8f312-c2fc-4a1b-a445-8a2beb7ef297","system_id":"levelo_inurba_marseille","lat":43.28415,"lon":5.37525,"is_reserved":false,"is_disabled":false,"rental_uris":{"android":"levelo://app?vid=4af8f312-c2fc-4a1b-a445-8a2beb7ef297","ios":"levelo://app?vid=4af8f312-c2fc-4a1b-a445-8a2beb7ef297"},"vehicle_type_id":"4","last_reported":1740834800,"current_range_meters":19200,"station_id":"ce4bh412rcd13ifvqds0","pricing_plan_id":"cebpf4jnsgd1na2vs0mg"},{"bike_id":"420c4dea-ee00-4ec7-a2d6-d86fa009d616","system_id":"levelo_inurba_marseille","lat":43.27676,"lon":5.38895,"is_reserved":false,"is_disabled":false,"rental_uris":{"android":"levelo://app?vid=420c4dea-ee00-4ec7-a2d6-d86fa009d616","ios":"levelo://app?vid=420c4dea-ee00-4ec7-a2d6-d86fa009d616"},"vehicle_type_id":"4","last_reported":1740834800,"current_range_meters":19200,"station_id":"ce4bhi12rcd13ifvqfo0","pricing_plan_id":"cebpf4jnsgd1na2vs0mg"},{"bike_id":"e795c277-030f-4fc6-80e3-73668cccaa32","system_id":"levelo_inurba_marseille","lat":43.27049,"lon":5.4026,"is_reserved":false,"is_disabled":false,"rental_uris":{"android":"levelo://app?vid=e795c277-030f-4fc6-80e3-73668cccaa32","ios":"levelo://app?vid=e795c277-030f-4fc6-80e3-73668cccaa32"},"vehicle_type_id":"4","last_reported":1740834800,"current_range_meters":19600,"station_id":"ce4bhk92rcd13ifvqgc0","pricing_plan_id":"cebpf4jnsgd1na2vs0mg"},{"bike_id":"cc38455f-9c7e-4dde-b9fa-ef4a19c402b8","system_id":"levelo_inurba_marseille","lat":43.2885,"lon":5.37062,"is_reserved":false,"is_disabled":false,"rental_uris":{"android":"levelo://app?vid=cc38455f-9c7e-4dde-b9fa-ef4a19c402b8","ios":"levelo://app?vid=cc38455f-9c7e-4dde-b9fa-ef4a19c402b8"},"vehicle_type_id":"4","last_reported":1740834800,"current_range_meters":19600,"station_id":"","pricing_plan_id":"cebpf4jnsgd1na2vs0mg"},{"bike_id":"c606cbf8-a101-4f22-884a-7739fc5c2da4","system_id":"levelo_inurba_marseille","lat":43.25499,"lon":5.37646,"is_reserved":false,"is_disabled":false,"rental_uris":{"android":"levelo://app?vid=c606cbf8-a101-4f22-884a-7739fc5c2da4","ios":"levelo://app?vid=c606cbf8-a101-4f22-884a-7739fc5c2da4"},"vehicle_type_id":"4","last_reported":1740834800,"current_range_meters":20000,"station_id":"ce4bhh12rcd13ifvqff0","pricing_plan_id":"cebpf4jnsgd1na2vs0mg"},{"bike_id":"2e82128a-a662-4404-aff2-c5b873ace22a","system_id":"levelo_inurba_marseille","lat":43.3176,"lon":5.39038,"is_reserved":false,"is_disabled":false,"rental_uris":{"android":"levelo://app?vid=2e82128a-a662-4404-aff2-c5b873ace22a","ios":"levelo://app?vid=2e82128a-a662-4404-aff2-c5b873ace22a"},"vehicle_type_id":"4","last_reported":1740834800,"current_range_meters":19600,"station_id":"ce4bhqp2rcd13ifvqhng","pricing_plan_id":"cebpf4jnsgd1na2vs0mg"},{"bike_id":"921d1256-91d5-46a1-8c1c-3473ac691b5d","system_id":"levelo_inurba_marseille","lat":43.2927,"lon":5.38457,"is_reserved":false,"is_disabled":false,"rental_uris":{"android":"levelo://app?vid=921d1256-91d5-46a1-8c1c-3473ac691b5d","ios":"levelo://app?vid=921d1256-91d5-46a1-8c1c-3473ac691b5d"},"vehicle_type_id":"4","last_reported":1740834800,"current_range_meters":19600,"station_id":"ce4bh692rcd13ifvqea0","pricing_plan_id":"cebpf4jnsgd1na2vs0mg"},{"bike_id":"7d5d958f-b83f-4bbe-ad9e-7f4f52446c19","system_id":"levelo_inurba_marseille","lat":43.3096,"lon":5.39059,"is_reserved":false,"is_disabled":false,"rental_uris":{"android":"levelo://app?vid=7d5d958f-b83f-4bbe-ad9e-7f4f52446c19","ios":"levelo://app?vid=7d5d958f-b83f-4bbe-ad9e-7f4f52446c19"},"vehicle_type_id":"4","last_reported":1740834800,"current_range_meters":20000,"station_id":"ce4bgup2rcd13ifvqco0","pricing_plan_id":"cebpf4jnsgd1na2vs0mg"},{"bike_id":"ba51daaf-7fab-49bb-ade5-2ba363414c8f","system_id":"levelo_inurba_marseille","lat":43.25493,"lon":5.37648,"is_reserved":false,"is_disabled":false,"rental_uris":{"android":"levelo://app?vid=ba51daaf-7fab-49bb-ade5-2ba363414c8f","ios":"levelo://app?vid=ba51daaf-7fab-49bb-ade5-2ba363414c8f"},"vehicle_type_id":"4","last_reported":1740834800,"current_range_meters":20000,"station_id":"ce4bhh12rcd13ifvqff0","pricing_plan_id":"cebpf4jnsgd1na2vs0mg"},{"bike_id":"606bdd66-5162-4f4c-bf53-fba710dcc40d","system_id":"levelo_inurba_marseille","lat":43.24399,"lon":5.37062,"is_reserved":false,"is_disabled":true,"rental_uris":{"android":"levelo://app?vid=606bdd66-5162-4f4c-bf53-fba710dcc40d","ios":"levelo://app?vid=606bdd66-5162-4f4c-bf53-fba710dcc40d"},"vehicle_type_id":"4","last_reported":1740834800,"current_range_meters":20000,"station_id":"ce4bhhh2rcd13ifvqfk0","pricing_plan_id":"cebpf4jnsgd1na2vs0mg"},{"bike_id":"d66b749a-0808-469e-b143-0787b08d816b","system_id":"levelo_inurba_marseille","lat":43.26206,"lon":5.37464,"is_reserved":false,"is_disabled":false,"rental_uris":{"android":"levelo://app?vid=d66b749a-0808-469e-b143-0787b08d816b","ios":"levelo://app?vid=d66b749a-0808-469e-b143-0787b08d816b"},"vehicle_type_id":"4","last_reported":1740834800,"current_range_meters":20000,"station_id":"ce4bhgp2rcd13ifvqfc0","pricing_plan_id":"cebpf4jnsgd1na2vs0mg"},{"bike_id":"35de5d9e-453d-4b6e-a49a-d72de279088a","system_id":"levelo_inurba_marseille","lat":43.26209,"lon":5.37465,"is_reserved":false,"is_disabled":false,"rental_uris":{"android":"levelo://app?vid=35de5d9e-453d-4b6e-a49a-d72de279088a","ios":"levelo://app?vid=35de5d9e-453d-4b6e-a49a-d72de279088a"},"vehicle_type_id":"4","last_reported":1740834800,"current_range_meters":20000,"station_id":"ce4bhgp2rcd13ifvqfc0","pricing_plan_id":"cebpf4jnsgd1na2vs0mg"},{"bike_id":"a2f42bb1-b2d6-4c99-b318-c84418d456c3","system_id":"levelo_inurba_marseille","lat":43.27832,"lon":5.39207,"is_reserved":false,"is_disabled":false,"rental_uris":{"android":"levelo://app?vid=a2f42bb1-b2d6-4c99-b318-c84418d456c3","ios":"levelo://app?vid=a2f42bb1-b2d6-4c99-b318-c84418d456c3"},"vehicle_type_id":"4","last_reported":1740834800,"current_range_meters":20400,"station_id":"ce4bhjp2rcd13ifvqga0","pricing_plan_id":"cebpf4jnsgd1na2vs0mg"},{"bike_id":"119ed2ef-2405-45bb-9728-875f235368c7","system_id":"levelo_inurba_marseille","lat":43.29562,"lon":5.37508,"is_reserved":false,"is_disabled":false,"rental_uris":{"android":"levelo://app?vid=119ed2ef-2405-45bb-9728-875f235368c7","ios":"levelo://app?vid=119ed2ef-2405-45bb-9728-875f235368c7"},"vehicle_type_id":"4","last_reported":1740834800,"current_range_meters":20000,"station_id":"ce4bgh92rcd13ifvqb50","pricing_plan_id":"cebpf4jnsgd1na2vs0mg"},{"bike_id":"870cb7e2-6550-46bc-b5e2-ea6f7afae2cf","system_id":"levelo_inurba_marseille","lat":43.31086,"lon":5.3835,"is_reserved":false,"is_disabled":false,"rental_uris":{"android":"levelo://app?vid=870cb7e2-6550-46bc-b5e2-ea6f7afae2cf","ios":"levelo://app?vid=870cb7e2-6550-46bc-b5e2-ea6f7afae2cf"},"vehicle_type_id":"4","last_reported":1740834800,"current_range_meters":20000,"station_id":"ce4bgv92rcd13ifvqcr0","pricing_plan_id":"cebpf4jnsgd1na2vs0mg"},{"bike_id":"cc836fe0-3cfd-4fe9-beb4-1fec15d76872","system_id":"levelo_inurba_marseille","lat":43.30423,"lon":5.37329,"is_reserved":false,"is_disabled":false,"rental_uris":{"android":"levelo://app?vid=cc836fe0-3cfd-4fe9-beb4-1fec15d76872","ios":"levelo://app?vid=cc836fe0-3cfd-4fe9-beb4-1fec15d76872"},"vehicle_type_id":"4","last_reported":1740834800,"current_range_meters":20000,"station_id":"","pricing_plan_id":"cebpf4jnsgd1na2vs0mg"},{"bike_id":"70dcb220-938c-464b-bb87-511b2e54c149","system_id":"levelo_inurba_marseille","lat":43.28409,"lon":5.37511,"is_reserved":false,"is_disabled":false,"rental_uris":{"android":"levelo://app?vid=70dcb220-938c-464b-bb87-511b2e54c149","ios":"levelo://app?vid=70dcb220-938c-464b-bb87-511b2e54c149"},"vehicle_type_id":"4","last_reported":1740834800,"current_range_meters":20400,"station_id":"ce4bh412rcd13ifvqds0","pricing_plan_id":"cebpf4jnsgd1na2vs0mg"},{"bike_id":"12619477-24e5-4654-82ba-35b94d72a1cf","system_id":"levelo_inurba_marseille","lat":43.29325,"lon":5.3742,"is_reserved":false,"is_disabled":false,"rental_uris":{"android":"levelo://app?vid=12619477-24e5-4654-82ba-35b94d72a1cf","ios":"levelo://app?vid=12619477-24e5-4654-82ba-35b94d72a1cf"},