{"last_updated":1742015312,"ttl":60,"version":"2.2","data":{"bikes":[{"bike_id":"68a2d667-1fdb-41d5-8177-5ee0cf7fa382","system_id":"levelo_inurba_marseille","lat":43.29789,"lon":5.39362,"is_reserved":false,"is_disabled":true,"rental_uris":{"android":"levelo://app?vid=68a2d667-1fdb-41d5-8177-5ee0cf7fa382","ios":"levelo://app?vid=68a2d667-1fdb-41d5-8177-5ee0cf7fa382"},"vehicle_type_id":"4","last_reported":1742015312,"current_range_meters":2800,"station_id":"chh1huq6cuj3fo74tm60","pricing_plan_id":"cebpf4jnsgd1na2vs0mg"},{"bike_id":"b01f14b3-9367-4769-b896-45dc4f82ebc1","system_id":"levelo_inurba_marseille","lat":43.23149,"lon":5.43721,"is_reserved":false,"is_disabled":false,"rental_uris":{"android":"levelo://app?vid=b01f14b3-9367-4769-b896-45dc4f82ebc1","ios":"levelo://app?vid=b01f14b3-9367-4769-b896-45dc4f82ebc1"},"vehicle_type_id":"4","last_reported":1742015312,"current_range_meters":2800,"station_id":"ce4bhmp2rcd13ifvqgog","pricing_plan_id":"cebpf4jnsgd1na2vs0mg"},{"bike_id":"707e2c42-ecf4-45a8-91ad-04662f06fbb8","system_id":"levelo_inurba_marseille","lat":43.29771,"lon":5.36261,"is_reserved":false,"is_disabled":false,"rental_uris":{"android":"levelo://app?vid=707e2c42-ecf4-45a8-91ad-04662f06fbb8","ios":"levelo://app?vid=707e2c42-ecf4-45a8-91ad-04662f06fbb8"},"vehicle_type_id":"4","last_reported":1742015312,"current_range_meters":2800,"station_id":"","pricing_plan_id":"cebpf4jnsgd1na2vs0mg"},{"bike_id":"4ca9c5b8-2d82-4bd6-8a48-b1d8ada25a92","system_id":"levelo_inurba_marseille","lat":43.28686,"lon":5.39979,"is_reserved":false,"is_disabled":false,"rental_uris":{"android":"levelo://app?vid=4ca9c5b8-2d82-4bd6-8a48-b1d8ada25a92","ios":"levelo://app?vid=4ca9c5b8-2d82-4bd6-8a48-b1d8ada25a92"},"vehicle_type_id":"4","last_reported":1742015312,"current_range_meters":3200,"station_id":"ce4bho92rcd13ifvqh3g","pricing_plan_id":"cebpf4jnsgd1na2vs0mg"},{"bike_id":"459d89e6-018f-4609-b29b-1bc5ad9d93da","system_id":"levelo_inurba_marseille","lat":43.321088,"lon":5.367616,"is_reserved":false,"is_disabled":true,"rental_uris":{"android":"levelo://app?vid=459d89e6-018f-4609-b29b-1bc5ad9d93da","ios":"levelo://app?vid=459d89e6-018f-4609-b29b-1bc5ad9d93da"},"vehicle_type_id":"4","last_reported":1742015312,"current_range_meters":3200,"station_id":"ce4bhrh2rcd13ifvqhug","pricing_plan_id":"cebpf4jnsgd1na2vs0mg"},{"bike_id":"45dce5d6-fdd9-43b7-8cb1-c7832923b7a4","system_id":"levelo_inurba_marseille","lat":43.270629,"lon":5.402652,"is_reserved":false,"is_disabled":true,"rental_uris":{"android":"levelo://app?vid=45dce5d6-fdd9-43b7-8cb1-c7832923b7a4","ios":"levelo://app?vid=45dce5d6-fdd9-43b7-8cb1-c7832923b7a4"},"vehicle_type_id":"4","last_reported":1742015312,"current_range_meters":3600,"station_id":"ce4bhk92rcd13ifvqgc0","pricing_plan_id":"cebpf4jnsgd1na2vs0mg"},{"bike_id":"fb1a00a3-1d5d-4b97-b556-8255b9e76003","system_id":"levelo_inurba_marseille","lat":43.25822,"lon":5.39436,"is_reserved":false,"is_disabled":false,"rental_uris":{"android":"levelo://app?vid=fb1a00a3-1d5d-4b97-b556-8255b9e76003","ios":"levelo://app?vid=fb1a00a3-1d5d-4b97-b556-8255b9e76003"},"vehicle_type_id":"4","last_reported":1742015312,"current_range_meters":3600,"station_id":"ce4bhip2rcd13ifvqft0","pricing_plan_id":"cebpf4jnsgd1na2vs0mg"},{"bike_id":"fda0b102-9d3c-45a6-b5a3-94bb057366ee","system_id":"levelo_inurba_marseille","lat":43.297845,"lon":5.393575,"is_reserved":false,"is_disabled":false,"rental_uris":{"android":"levelo://app?vid=fda0b102-9d3c-45a6-b5a3-94bb057366ee","ios":"levelo://app?vid=fda0b102-9d3c-45a6-b5a3-94bb057366ee"},"vehicle_type_id":"4","last_reported":1742015312,"current_range_meters":3600,"station_id":"chh1huq6cuj3fo74tm60","pricing_plan_id":"cebpf4jnsgd1na2vs0mg"},{"bike_id":"64dd8281-0a18-461b-8a2f-c0c8b65adb2d","system_id":"levelo_inurba_marseille","lat":43.30141,"lon":5.37394,"is_reserved":false,"is_disabled":false,"rental_uris":{"android":"levelo://app?vid=64dd8281-0a18-461b-8a2f-c0c8b65adb2d","ios":"levelo://app?vid=64dd8281-0a18-461b-8a2f-c0c8b65adb2d"},"vehicle_type_id":"4","last_reported":1742015312,"current_range_meters":4000,"station_id":"ce4bgs92rcd13ifvqcc0","pricing_plan_id":"cebpf4jnsgd1na2vs0mg"},{"bike_id":"1bf0ada9-6054-4498-9bc9-7e3afeb585a9","system_id":"levelo_inurba_marseille","lat":43.30637,"lon":5.40086,"is_reserved":false,"is_disabled":false,"rental_uris":{"android":"levelo://app?vid=1bf0ada9-6054-4498-9bc9-7e3afeb585a9","ios":"levelo://app?vid=1bf0ada9-6054-4498-9bc9-7e3afeb585a9"},"vehicle_type_id":"4","last_reported":1742015312,"current_range_meters":4000,"station_id":"ce4bh112rcd13ifvqda0","pricing_plan_id":"cebpf4jnsgd1na2vs0mg"},{"bike_id":"34419613-555b-4a7e-89c4-cf8a91ec83b7","system_id":"levelo_inurba_marseille","lat":43.27064,"lon":5.4024,"is_reserved":false,"is_disabled":true,"rental_uris":{"android":"levelo://app?vid=34419613-555b-4a7e-89c4-cf8a91ec83b7","ios":"levelo://app?vid=34419613-555b-4a7e-89c4-cf8a91ec83b7"},"vehicle_type_id":"4","last_reported":1742015312,"current_range_meters":4800,"station_id":"ce4bhk92rcd13ifvqgc0","pricing_plan_id":"cebpf4jnsgd1na2vs0mg"},{"bike_id":"b0c89315-8ab3-467b-b10b-80354fb2d560","system_id":"levelo_inurba_marseille","lat":43.30241,"lon":5.39446,"is_reserved":false,"is_disabled":false,"rental_uris":{"android":"levelo://app?vid=b0c89315-8ab3-467b-b10b-80354fb2d560","ios":"levelo://app?vid=b0c89315-8ab3-467b-b10b-80354fb2d560"},"vehicle_type_id":"4","last_reported":1742015312,"current_range_meters":4800,"station_id":"ce4bh0p2rcd13ifvqd70","pricing_plan_id":"cebpf4jnsgd1na2vs0mg"},{"bike_id":"24eb098d-4b18-4a79-abc3-af3223838804","system_id":"levelo_inurba_marseille","lat":43.30132,"lon":5.39867,"is_reserved":false,"is_disabled":false,"rental_uris":{"android":"levelo://app?vid=24eb098d-4b18-4a79-abc3-af3223838804","ios":"levelo://app?vid=24eb098d-4b18-4a79-abc3-af3223838804"},"vehicle_type_id":"4","last_reported":1742015312,"current_range_meters":5600,"station_id":"ce4bh0h2rcd13ifvqd40","pricing_plan_id":"cebpf4jnsgd1na2vs0mg"},{"bike_id":"dd749f3b-c706-4448-958d-8c1d79784664","system_id":"levelo_inurba_marseille","lat":43.32332,"lon":5.40637,"is_reserved":false,"is_disabled":false,"rental_uris":{"android":"levelo://app?vid=dd749f3b-c706-4448-958d-8c1d79784664","ios":"levelo://app?vid=dd749f3b-c706-4448-958d-8c1d79784664"},"vehicle_type_id":"4","last_reported":1742015312,"current_range_meters":5600,"station_id":"ce4bhq92rcd13ifvqhjg","pricing_plan_id":"cebpf4jnsgd1na2vs0mg"},{"bike_id":"eba2a759-80cf-43e6-9111-3ca369128ab3","system_id":"levelo_inurba_marseille","lat":43.29628,"lon":5.40595,"is_reserved":false,"is_disabled":false,"rental_uris":{"android":"levelo://app?vid=eba2a759-80cf-43e6-9111-3ca369128ab3","ios":"levelo://app?vid=eba2a759-80cf-43e6-9111-3ca369128ab3"},"vehicle_type_id":"4","last_reported":1742015312,"current_range_meters":6000,"station_id":"ce4bh0h2rcd13ifvqd60","pricing_plan_id":"cebpf4jnsgd1na2vs0mg"},{"bike_id":"fb25c0f6-5882-4734-a76a-2aeb0b117f9b","system_id":"levelo_inurba_marseille","lat":43.31761,"lon":5.39033,"is_reserved":false,"is_disabled":true,"rental_uris":{"android":"levelo://app?vid=fb25c0f6-5882-4734-a76a-2aeb0b117f9b","ios":"levelo://app?vid=fb25c0f6-5882-4734-a76a-2aeb0b117f9b"},"vehicle_type_id":"4","last_reported":1742015312,"current_range_meters":6000,"station_id":"ce4bhqp2rcd13ifvqhng","pricing_plan_id":"cebpf4jnsgd1na2vs0mg"},{"bike_id":"aa3c5349-766e-4992-8e95-c670f1f543fb","system_id":"levelo_inurba_marseille","lat":43.22917,"lon":5.40166,"is_reserved":false,"is_disabled":false,"rental_uris":{"android":"levelo://app?vid=aa3c5349-766e-4992-8e95-c670f1f543fb","ios":"levelo://app?vid=aa3c5349-766e-4992-8e95-c670f1f543fb"},"vehicle_type_id":"4","last_reported":1742015312,"current_range_meters":6000,"station_id":"","pricing_plan_id":"cebpf4jnsgd1na2vs0mg"},{"bike_id":"36ec5a15-215b-4367-a3ca-336aadd9a251","system_id":"levelo_inurba_marseille","lat":43.33746,"lon":5.3745,"is_reserved":false,"is_disabled":false,"rental_uris":{"android":"levelo://app?vid=36ec5a15-215b-4367-a3ca-336aadd9a251","ios":"levelo://app?vid=36ec5a15-215b-4367-a3ca-336aadd9a251"},"vehicle_type_id":"4","last_reported":1742015312,"current_range_meters":6000,"station_id":"","pricing_plan_id":"cebpf4jnsgd1na2vs0mg"},{"bike_id":"e48b5189-9d09-49fd-bc00-62268902f308","system_id":"levelo_inurba_marseille","lat":43.25003,"lon":5.38942,"is_reserved":false,"is_disabled":true,"rental_uris":{"android":"levelo://app?vid=e48b5189-9d09-49fd-bc00-62268902f308","ios":"levelo://app?vid=e48b5189-9d09-49fd-bc00-62268902f308"},"vehicle_type_id":"4","last_reported":1742015312,"current_range_meters":6400,"station_id":"ce4bhgp2rcd13ifvqfd0","pricing_plan_id":"cebpf4jnsgd1na2vs0mg"},{"bike_id":"8600e973-6bae-49e6-a541-074b0686e3d2","system_id":"levelo_inurba_marseille","lat":43.323652,"lon":5.388759,"is_reserved":false,"is_disabled":false,"rental_uris":{"android":"levelo://app?vid=8600e973-6bae-49e6-a541-074b0686e3d2","ios":"levelo://app?vid=8600e973-6bae-49e6-a541-074b0686e3d2"},"vehicle_type_id":"4","last_reported":1742015312,"current_range_meters":6400,"station_id":"ce4bhqp2rcd13ifvqhog","pricing_plan_id":"cebpf4jnsgd1na2vs0mg"},{"bike_id":"de27148c-9139-4b87-b73a-06e43af57146","system_id":"levelo_inurba_marseille","lat":43.309051,"lon":5.368609,"is_reserved":false,"is_disabled":false,"rental_uris":{"android":"levelo://app?vid=de27148c-9139-4b87-b73a-06e43af57146","ios":"levelo://app?vid=de27148c-9139-4b87-b73a-06e43af57146"},"vehicle_type_id":"4","last_reported":1742015312,"current_range_meters":6400,"station_id":"ce4bgn92rcd13ifvqbvg","pricing_plan_id":"cebpf4jnsgd1na2vs0mg"},{"bike_id":"cfbfae81-2b5a-4512-adc5-3545d5eb48ff","system_id":"levelo_inurba_marseille","lat":43.32333,"lon":5.38914,"is_reserved":false,"is_disabled":false,"rental_uris":{"android":"levelo://app?vid=cfbfae81-2b5a-4512-adc5-3545d5eb48ff","ios":"levelo://app?vid=cfbfae81-2b5a-4512-adc5-3545d5eb48ff"},"vehicle_type_id":"4","last_reported":1742015312,"current_range_meters":6400,"station_id":"ce4bhqp2rcd13ifvqhog","pricing_plan_id":"cebpf4jnsgd1na2vs0mg"},{"bike_id":"436bf6fd-98f0-4c70-968c-7fcac8f398a5","system_id":"levelo_inurba_marseille","lat":43.25085,"lon":5.41067,"is_reserved":false,"is_disabled":false,"rental_uris":{"android":"levelo://app?vid=436bf6fd-98f0-4c70-968c-7fcac8f398a5","ios":"levelo://app?vid=436bf6fd-98f0-4c70-968c-7fcac8f398a5"},"vehicle_type_id":"4","last_reported":1742015312,"current_range_meters":6800,"station_id":"","pricing_plan_id":"cebpf4jnsgd1na2vs0mg"},{"bike_id":"e680d681-5451-4e79-9861-5f89e81b6e1f","system_id":"levelo_inurba_marseille","lat":43.29022,"lon":5.38158,"is_reserved":false,"is_disabled":true,"rental_uris":{"android":"levelo://app?vid=e680d681-5451-4e79-9861-5f89e81b6e1f","ios":"levelo://app?vid=e680d681-5451-4e79-9861-5f89e81b6e1f"},"vehicle_type_id":"4","last_reported":1742015312,"current_range_meters":6800,"station_id":"ce4bh4p2rcd13ifvqe1g","pricing_plan_id":"cebpf4jnsgd1na2vs0mg"},{"bike_id":"703a27ab-78c1-4da2-9977-9c24f54834c8","system_id":"levelo_inurba_marseille","lat":43.32498,"lon":5.36581,"is_reserved":false,"is_disabled":false,"rental_uris":{"android":"levelo://app?vid=703a27ab-78c1-4da2-9977-9c24f54834c8","ios":"levelo://app?vid=703a27ab-78c1-4da2-9977-9c24f54834c8"},"vehicle_type_id":"4","last_reported":1742015312,"current_range_meters":6800,"station_id":"ce4bhs12rcd13ifvqhvg","pricing_plan_id":"cebpf4jnsgd1na2vs0mg"},{"bike_id":"3363e5ed-aafd-4c83-9f97-12270e6ffcf4","system_id":"levelo_inurba_marseille","lat":43.2486,"lon":5.40644,"is_reserved":false,"is_disabled":false,"rental_uris":{"android":"levelo://app?vid=3363e5ed-aafd-4c83-9f97-12270e6ffcf4","ios":"levelo://app?vid=3363e5ed-aafd-4c83-9f97-12270e6ffcf4"},"vehicle_type_id":"4","last_reported":1742015312,"current_range_meters":6800,"station_id":"","pricing_plan_id":"cebpf4jnsgd1na2vs0mg"},{"bike_id":"f2ee8bc0-312d-4388-b78b-2fe33c2c7cb8","system_id":"levelo_inurba_marseille","lat":43.245458,"lon":5.395252,"is_reserved":false,"is_disabled":false,"rental_uris":{"android":"levelo://app?vid=f2ee8bc0-312d-4388-b78b-2fe33c2c7cb8","ios":"levelo://app?vid=f2ee8bc0-312d-4388-b78b-2fe33c2c7cb8"},"vehicle_type_id":"4","last_reported":1742015312,"current_range_meters":6800,"station_id":"ce4bhlp2rcd13ifvqgjg","pricing_plan_id":"cebpf4jnsgd1na2vs0mg"},{"bike_id":"22eef8e9-28d0-4055-9740-16ced5bd43fc","system_id":"levelo_inurba_marseille","lat":43.24678,"lon":5.38193,"is_reserved":false,"is_disabled":false,"rental_uris":{"android":"levelo://app?vid=22eef8e9-28d0-4055-9740-16ced5bd43fc","ios":"levelo://app?vid=22eef8e9-28d0-4055-9740-16ced5bd43fc"},"vehicle_type_id":"4","last_reported":1742015312,"current_range_meters":6800,"station_id":"ce4bhih2rcd13ifvqfr0","pricing_plan_id":"cebpf4jnsgd1na2vs0mg"},{"bike_id":"7cf0d743-f2dd-4554-ad88-f4ffd24540e7","system_id":"levelo_inurba_marseille","lat":43.30311,"lon":5.40453,"is_reserved":false,"is_disabled":true,"rental_uris":{"android":"levelo://app?vid=7cf0d743-f2dd-4554-ad88-f4ffd24540e7","ios":"levelo://app?vid=7cf0d743-f2dd-4554-ad88-f4ffd24540e7"},"vehicle_type_id":"4","last_reported":1742015312,"current_range_meters":7200,"station_id":"ce4bh012rcd13ifvqd10","pricing_plan_id":"cebpf4jnsgd1na2vs0mg"},{"bike_id":"99e3497e-d5bc-4f7b-9b94-f6046a8fd0c6","system_id":"levelo_inurba_marseille","lat":43.30768,"lon":5.37685,"is_reserved":false,"is_disabled":false,"rental_uris":{"android":"levelo://app?vid=99e3497e-d5bc-4f7b-9b94-f6046a8fd0c6","ios":"levelo://app?vid=99e3497e-d5bc-4f7b-9b94-f6046a8fd0c6"},"vehicle_type_id":"4","last_reported":1742015312,"current_range_meters":7200,"station_id":"ce4bgv92rcd13ifvqcq0","pricing_plan_id":"cebpf4jnsgd1na2vs0mg"},{"bike_id":"36aad7e9-4791-4984-8df9-a8cded192aa8","system_id":"levelo_inurba_marseille","lat":43.27501,"lon":5.42426,"is_reserved":false,"is_disabled":false,"rental_uris":{"android":"levelo://app?vid=36aad7e9-4791-4984-8df9-a8cded192aa8","ios":"levelo://app?vid=36aad7e9-4791-4984-8df9-a8cded192aa8"},"vehicle_type_id":"4","last_reported":1742015312,"current_range_meters":7200,"station_id":"ce4bhn92rcd13ifvqgrg","pricing_plan_id":"cebpf4jnsgd1na2vs0mg"},{"bike_id":"f2d00548-a5af-43a5-9ad4-5205ddc617dc","system_id":"levelo_inurba_marseille","lat":43.3098,"lon":5.4176,"is_reserved":false,"is_disabled":false,"rental_uris":{"android":"levelo://app?vid=f2d00548-a5af-43a5-9ad4-5205ddc617dc","ios":"levelo://app?vid=f2d00548-a5af-43a5-9ad4-5205ddc617dc"},"vehicle_type_id":"4","last_reported":1742015312,"current_range_meters":7200,"station_id":"","pricing_plan_id":"cebpf4jnsgd1na2vs0mg"},{"bike_id":"594a33ea-5c85-49b0-893b-48b1f5e1011a","system_id":"levelo_inurba_marseille","lat":43.309348,"lon":5.40141,"is_reserved":false,"is_disabled":true,"rental_uris":{"android":"levelo://app?vid=594a33ea-5c85-49b0-893b-48b1f5e1011a","ios":"levelo://app?vid=594a33ea-5c85-49b0-893b-48b1f5e1011a"},"vehicle_type_id":"4","last_reported":1742015312,"current_range_meters":7200,"station_id":"ce4bgvp2rcd13ifvqct0","pricing_plan_id":"cebpf4jnsgd1na2vs0mg"},{"bike_id":"a8b75b51-f301-4a87-a935-16bee0cec824","system_id":"levelo_inurba_marseille","lat":43.28422,"lon":5.37527,"is_reserved":false,"is_disabled":false,"rental_uris":{"android":"levelo://app?vid=a8b75b51-f301-4a87-a935-16bee0cec824","ios":"levelo://app?vid=a8b75b51-f301-4a87-a935-16bee0cec824"},"vehicle_type_id":"4","last_reported":1742015312,"current_range_meters":7200,"station_id":"ce4bh412rcd13ifvqds0","pricing_plan_id":"cebpf4jnsgd1na2vs0mg"},{"bike_id":"4640ed7b-2ef1-41cf-afe9-4f5c3eed86d3","system_id":"levelo_inurba_marseille","lat":43.30891,"lon":5.39663,"is_reserved":false,"is_disabled":false,"rental_uris":{"android":"levelo://app?vid=4640ed7b-2ef1-41cf-afe9-4f5c3eed86d3","ios":"levelo://app?vid=4640ed7b-2ef1-41cf-afe9-4f5c3eed86d3"},"vehicle_type_id":"4","last_reported":1742015312,"current_range_meters":7200,"station_id":"ce4bh012rcd13ifvqcv0","pricing_plan_id":"cebpf4jnsgd1na2vs0mg"},{"bike_id":"faf4c27a-d7eb-4435-bbca-3d07a59b2d3c","system_id":"levelo_inurba_marseille","lat":43.312795,"lon":5.401679,"is_reserved":false,"is_disabled":false,"rental_uris":{"android":"levelo://app?vid=faf4c27a-d7eb-4435-bbca-3d07a59b2d3c","ios":"levelo://app?vid=faf4c27a-d7eb-4435-bbca-3d07a59b2d3c"},"vehicle_type_id":"4","last_reported":1742015312,"current_range_meters":7200,"station_id":"ce4bh092rcd13ifvqd30","pricing_plan_id":"cebpf4jnsgd1na2vs0mg"},{"bike_id":"91b12a37-f477-4c10-ad1a-c6fc1ad2db69","system_id":"levelo_inurba_marseille","lat":43.28011,"lon":5.42498,"is_reserved":false,"is_disabled":false,"rental_uris":{"android":"levelo://app?vid=91b12a37-f477-4c10-ad1a-c6fc1ad2db69","ios":"levelo://app?vid=91b12a37-f477-4c10-ad1a-c6fc1ad2db69"},"vehicle_type_id":"4","last_reported":1742015312,"current_range_meters":8000,"station_id":"","pricing_plan_id":"cebpf4jnsgd1na2vs0mg"},{"bike_id":"d38ec561-2826-4710-8b79-38af7b6460aa","system_id":"levelo_inurba_marseille","lat":43.24668,"lon":5.3819,"is_reserved":false,"is_disabled":false,"rental_uris":{"android":"levelo://app?vid=d38ec561-2826-4710-8b79-38af7b6460aa","ios":"levelo://app?vid=d38ec561-2826-4710-8b79-38af7b6460aa"},"vehicle_type_id":"4","last_reported":1742015312,"current_range_meters":8000,"station_id":"ce4bhih2rcd13ifvqfr0","pricing_plan_id":"cebpf4jnsgd1na2vs0mg"},{"bike_id":"521268db-a242-4cfc-8fdc-034156cfef95","system_id":"levelo_inurba_marseille","lat":43.24046,"lon":5.37806,"is_reserved":false,"is_disabled":false,"rental_uris":{"android":"levelo://app?vid=521268db-a242-4cfc-8fdc-034156cfef95","ios":"levelo://app?vid=521268db-a242-4cfc-8fdc-034156cfef95"},"vehicle_type_id":"4","last_reported":1742015312,"current_range_meters":8000,"station_id":"ce4bhnp2rcd13ifvqgvg","pricing_plan_id":"cebpf4jnsgd1na2vs0mg"},{"bike_id":"f656b2ac-e6fa-4dab-be9e-81d8f99ae755","system_id":"levelo_inurba_marseille","lat":43.29622,"lon":5.37176,"is_reserved":false,"is_disabled":false,"rental_uris":{"android":"levelo://app?vid=f656b2ac-e6fa-4dab-be9e-81d8f99ae755","ios":"levelo://app?vid=f656b2ac-e6fa-4dab-be9e-81d8f99ae755"},"vehicle_type_id":"4","last_reported":1742015312,"current_range_meters":8000,"station_id":"ce4bgnh2rcd13ifvqc0g","pricing_plan_id":"cebpf4jnsgd1na2vs0mg"},{"bike_id":"77f0430f-3350-4963-ac6b-e35c49a943e2","system_id":"levelo_inurba_marseille","lat":43.31668,"lon":5.39628,"is_reserved":false,"is_disabled":false,"rental_uris":{"android":"levelo://app?vid=77f0430f-3350-4963-ac6b-e35c49a943e2","ios":"levelo://app?vid=77f0430f-3350-4963-ac6b-e35c49a943e2"},"vehicle_type_id":"4","last_reported":1742015312,"current_range_meters":8000,"station_id":"","pricing_plan_id":"cebpf4jnsgd1na2vs0mg"},{"bike_id":"48f968e9-2670-450c-9a50-b12a7ac1907f","system_id":"levelo_inurba_marseille","lat":43.25711,"lon":5.4114,"is_reserved":false,"is_disabled":false,"rental_uris":{"android":"levelo://app?vid=48f968e9-2670-450c-9a50-b12a7ac1907f","ios":"levelo://app?vid=48f968e9-2670-450c-9a50-b12a7ac1907f"},"vehicle_type_id":"4","last_reported":1742015312,"current_range_meters":8400,"station_id":"ce4bhkp2rcd13ifvqgd0","pricing_plan_id":"cebpf4jnsgd1na2vs0mg"},{"bike_id":"2a767443-3c93-49d2-97d6-52ed82bb8d6a","system_id":"levelo_inurba_marseille","lat":43.29603,"lon":5.3676,"is_reserved":false,"is_disabled":false,"rental_uris":{"android":"levelo://app?vid=2a767443-3c93-49d2-97d6-52ed82bb8d6a","ios":"levelo://app?vid=2a767443-3c93-49d2-97d6-52ed82bb8d6a"},"vehicle_type_id":"4","last_reported":1742015312,"current_range_meters":8400,"station_id":"ce4bgph2rcd13ifvqc2g","pricing_plan_id":"cebpf4jnsgd1na2vs0mg"},{"bike_id":"a8e67676-89ba-43e0-82dc-5ef4b0a5e328","system_id":"levelo_inurba_marseille","lat":43.31376,"lon":5.39187,"is_reserved":false,"is_disabled":false,"rental_uris":{"android":"levelo://app?vid=a8e67676-89ba-43e0-82dc-5ef4b0a5e328","ios":"levelo://app?vid=a8e67676-89ba-43e0-82dc-5ef4b0a5e328"},"vehicle_type_id":"4","last_reported":1742015312,"current_range_meters":8400,"station_id":"","pricing_plan_id":"cebpf4jnsgd1na2vs0mg"},{"bike_id":"e6710280-bd86-46cd-80e3-b715c7f5659b","system_id":"levelo_inurba_marseille","lat":43.24395,"lon":5.370664,"is_reserved":false,"is_disabled":false,"rental_uris":{"android":"levelo://app?vid=e6710280-bd86-46cd-80e3-b715c7f5659b","ios":"levelo://app?vid=e6710280-bd86-46cd-80e3-b715c7f5659b"},"vehicle_type_id":"4","last_reported":1742015312,"current_range_meters":8400,"station_id":"ce4bhhh2rcd13ifvqfk0","pricing_plan_id":"cebpf4jnsgd1na2vs0mg"},{"bike_id":"92a4b2de-1a40-47de-8941-8583c8b587d4","system_id":"levelo_inurba_marseille","lat":43.27664,"lon":5.3895,"is_reserved":false,"is_disabled":true,"rental_uris":{"android":"levelo://app?vid=92a4b2de-1a40-47de-8941-8583c8b587d4","ios":"levelo://app?vid=92a4b2de-1a40-47de-8941-8583c8b587d4"},"vehicle_type_id":"4","last_reported":1742015312,"current_range_meters":8400,"station_id":"ce4bhi12rcd13ifvqfo0","pricing_plan_id":"cebpf4jnsgd1na2vs0mg"},{"bike_id":"56c8ab4b-f797-426e-9cbb-e50b9e2e11f0","system_id":"levelo_inurba_marseille","lat":43.28675,"lon":5.38656,"is_reserved":false,"is_disabled":false,"rental_uris":{"android":"levelo://app?vid=56c8ab4b-f797-426e-9cbb-e50b9e2e11f0","ios":"levelo://app?vid=56c8ab4b-f797-426e-9cbb-e50b9e2e11f0"},"vehicle_type_id":"4","last_reported":1742015312,"current_range_meters":8400,"station_id":"ce4bh492rcd13ifvqdug","pricing_plan_id":"cebpf4jnsgd1na2vs0mg"},{"bike_id":"9be7091d-8dbc-4ba8-8d3d-ed716c93433c","system_id":"levelo_inurba_marseille","lat":43.2987,"lon":5.36328,"is_reserved":false,"is_disabled":false,"rental_uris":{"android":"levelo://app?vid=9be7091d-8dbc-4ba8-8d3d-ed716c93433c","ios":"levelo://app?vid=9be7091d-8dbc-4ba8-8d3d-ed716c93433c"},"vehicle_type_id":"4","last_reported":1742015312,"current_range_meters":8400,"station_id":"ce4bgpp2rcd13ifvqc3g","pricing_plan_id":"cebpf4jnsgd1na2vs0mg"},{"bike_id":"2ec0f046-4e68-4150-a618-5c892d6b2cb5","system_id":"levelo_inurba_marseille","lat":43.26216,"lon":5.40462,"is_reserved":false,"is_disabled":false,"rental_uris":{"android":"levelo://app?vid=2ec0f046-4e68-4150-a618-5c892d6b2cb5","ios":"levelo://app?vid=2ec0f046-4e68-4150-a618-5c892d6b2cb5"},"vehicle_type_id":"4","last_reported":1742015312,"current_range_meters":8400,"station_id":"ce4bhmh2rcd13ifvqgmg","pricing_plan_id":"cebpf4jnsgd1na2vs0mg"},{"bike_id":"886259f7-d5b4-4258-b9b1-334bcf1ab143","system_id":"levelo_inurba_marseille","lat":43.27063,"lon":5.42279,"is_reserved":false,"is_disabled":false,"rental_uris":{"android":"levelo://app?vid=886259f7-d5b4-4258-b9b1-334bcf1ab143","ios":"levelo://app?vid=886259f7-d5b4-4258-b9b1-334bcf1ab143"},"vehicle_type_id":"4","last_reported":1742015312,"current_range_meters":8800,"station_id":"ce4bhk92rcd13ifvqgb0","pricing_plan_id":"cebpf4jnsgd1na2vs0mg"},{"bike_id":"b9c5e16e-f63e-4f83-97e4-2b05f2c355ca","system_id":"levelo_inurba_marseille","lat":43.27065,"lon":5.40235,"is_reserved":false,"is_disabled":false,"rental_uris":{"android":"levelo://app?vid=b9c5e16e-f63e-4f83-97e4-2b05f2c355ca","ios":"levelo://app?vid=b9c5e16e-f63e-4f83-97e4-2b05f2c355ca"},"vehicle_type_id":"4","last_reported":1742015312,"current_range_meters":8800,"station_id":"ce4bhk92rcd13ifvqgc0","pricing_plan_id":"cebpf4jnsgd1na2vs0mg"},{"bike_id":"0f71c17f-e153-4330-8bed-2c82c0b6284a","system_id":"levelo_inurba_marseille","lat":43.2886,"lon":5.35889,"is_reserved":false,"is_disabled":false,"rental_uris":{"android":"levelo://app?vid=0f71c17f-e153-4330-8bed-2c82c0b6284a","ios":"levelo://app?vid=0f71c17f-e153-4330-8bed-2c82c0b6284a"},"vehicle_type_id":"4","last_reported":1742015312,"current_range_meters":8800,"station_id":"ce4bhb12rcd13ifvqem0","pricing_plan_id":"cebpf4jnsgd1na2vs0mg"},{"bike_id":"dc2dc920-7061-4611-9ad3-02d4898aaa15","system_id":"levelo_inurba_marseille","lat":43.2322,"lon":5.40032,"is_reserved":false,"is_disabled":false,"rental_uris":{"android":"levelo://app?vid=dc2dc920-7061-4611-9ad3-02d4898aaa15","ios":"levelo://app?vid=dc2dc920-7061-4611-9ad3-02d4898aaa15"},"vehicle_type_id":"4","last_reported":1742015312,"current_range_meters":8800,"station_id":"","pricing_plan_id":"cebpf4jnsgd1na2vs0mg"},{"bike_id":"441146ec-c2e7-45f1-b6bc-e65405bbf9fd","system_id":"levelo_inurba_marseille","lat":43.27617,"lon":5.36135,"is_reserved":false,"is_disabled":false,"rental_uris":{"android":"levelo://app?vid=441146ec-c2e7-45f1-b6bc-e65405bbf9fd","ios":"levelo://app?vid=441146ec-c2e7-45f1-b6bc-e65405bbf9fd"},"vehicle_type_id":"4","last_reported":1742015312,"current_range_meters":8800,"station_id":"ce4bgj92rcd13ifvqbe0","pricing_plan_id":"cebpf4jnsgd1na2vs0mg"},{"bike_id":"dd6b897c-d192-45a9-a1ff-4be331bbeb6a","system_id":"levelo_inurba_marseille","lat":43.28665,"lon":5.36348,"is_reserved":false,"is_disabled":false,"rental_uris":{"android":"levelo://app?vid=dd6b897c-d192-45a9-a1ff-4be331bbeb6a","ios":"levelo://app?vid=dd6b897c-d192-45a9-a1ff-4be331bbeb6a"},"vehicle_type_id":"4","last_reported":1742015312,"current_range_meters":8800,"station_id":"ce4bhah2rcd13ifvqej0","pricing_plan_id":"cebpf4jnsgd1na2vs0mg"},{"bike_id":"48f3a40e-658c-443b-8908-cf181e5627b0","system_id":"levelo_inurba_marseille","lat":43.30142,"lon":5.374161,"is_reserved":false,"is_disabled":false,"rental_uris":{"android":"levelo://app?vid=48f3a40e-658c-443b-8908-cf181e5627b0","ios":"levelo://app?vid=48f3a40e-658c-443b-8908-cf181e5627b0"},"vehicle_type_id":"4","last_reported":1742015312,"current_range_meters":8800,"station_id":"ce4bgs92rcd13ifvqcc0","pricing_plan_id":"cebpf4jnsgd1na2vs0mg"},{"bike_id":"bd7fb638-a561-41df-90ca-f32685780427","system_id":"levelo_inurba_marseille","lat":43.22927,"lon":5.35347,"is_reserved":false,"is_disabled":false,"rental_uris":{"android":"levelo://app?vid=bd7fb638-a561-41df-90ca-f32685780427","ios":"levelo://app?vid=bd7fb638-a561-41df-90ca-f32685780427"},"vehicle_type_id":"4","last_reported":1742015312,"current_range_meters":8800,"station_id":"cpo3532slgdg3j2ikp40","pricing_plan_id":"cebpf4jnsgd1na2vs0mg"},{"bike_id":"d9d112ab-bb0c-48a8-b7d7-88dde0b5d086","system_id":"levelo_inurba_marseille","lat":43.32283,"lon":5.3825,"is_reserved":false,"is_disabled":false,"rental_uris":{"android":"levelo://app?vid=d9d112ab-bb0c-48a8-b7d7-88dde0b5d086","ios":"levelo://app?vid=d9d112ab-bb0c-48a8-b7d7-88dde0b5d086"},"vehicle_type_id":"4","last_reported":1742015312,"current_range_meters":9200,"station_id":"ce4bhr12rcd13ifvqhqg","pricing_plan_id":"cebpf4jnsgd1na2vs0mg"},{"bike_id":"11d85863-2797-46b4-9b1a-85e693cd9605","system_id":"levelo_inurba_marseille","lat":43.28457,"lon":5.35882,"is_reserved":false,"is_disabled":false,"rental_uris":{"android":"levelo://app?vid=11d85863-2797-46b4-9b1a-85e693cd9605","ios":"levelo://app?vid=11d85863-2797-46b4-9b1a-85e693cd9605"},"vehicle_type_id":"4","last_reported":1742015312,"current_range_meters":9200,"station_id":"ce4bhah2rcd13ifvqei0","pricing_plan_id":"cebpf4jnsgd1na2vs0mg"},{"bike_id":"e4776f2e-5cba-4203-b125-2cacf4791022","system_id":"levelo_inurba_marseille","lat":43.31324,"lon":5.39706,"is_reserved":false,"is_disabled":false,"rental_uris":{"android":"levelo://app?vid=e4776f2e-5cba-4203-b125-2cacf4791022","ios":"levelo://app?vid=e4776f2e-5cba-4203-b125-2cacf4791022"},"vehicle_type_id":"4","last_reported":1742015312,"current_range_meters":9200,"station_id":"ce4bgvp2rcd13ifvqcu0","pricing_plan_id":"cebpf4jnsgd1na2vs0mg"},{"bike_id":"fa4c0914-cec8-4deb-8c9f-5f78b4170f38","system_id":"levelo_inurba_marseille","lat":43.28265,"lon":5.35079,"is_reserved":false,"is_disabled":false,"rental_uris":{"android":"levelo://app?vid=fa4c0914-cec8-4deb-8c9f-5f78b4170f38","ios":"levelo://app?vid=fa4c0914-cec8-4deb-8c9f-5f78b4170f38"},"vehicle_type_id":"4","last_reported":1742015312,"current_range_meters":9200,"station_id":"ce4bhbp2rcd13ifvqerg","pricing_plan_id":"cebpf4jnsgd1na2vs0mg"},{"bike_id":"ccd31dea-9090-4259-b977-143b30ebefa0","system_id":"levelo_inurba_marseille","lat":43.26192,"lon":5.37457,"is_reserved":false,"is_disabled":false,"rental_uris":{"android":"levelo://app?vid=ccd31dea-9090-4259-b977-143b30ebefa0","ios":"levelo://app?vid=ccd31dea-9090-4259-b977-143b30ebefa0"},"vehicle_type_id":"4","last_reported":1742015312,"current_range_meters":9200,"station_id":"ce4bhgp2rcd13ifvqfc0","pricing_plan_id":"cebpf4jnsgd1na2vs0mg"},{"bike_id":"8a5bd971-61c1-4475-933b-dffdb284dd01","system_id":"levelo_inurba_marseille","lat":43.2501,"lon":5.38915,"is_reserved":false,"is_disabled":false,"rental_uris":{"android":"levelo://app?vid=8a5bd971-61c1-4475-933b-dffdb284dd01","ios":"levelo://app?vid=8a5bd971-61c1-4475-933b-dffdb284dd01"},"vehicle_type_id":"4","last_reported":1742015312,"current_range_meters":9600,"station_id":"ce4bhgp2rcd13ifvqfd0","pricing_plan_id":"cebpf4jnsgd1na2vs0mg"},{"bike_id":"184492ce-9f5c-47e4-a3e5-d0eccfcef42b","system_id":"levelo_inurba_marseille","lat":43.27603,"lon":5.36156,"is_reserved":false,"is_disabled":false,"rental_uris":{"android":"levelo://app?vid=184492ce-9f5c-47e4-a3e5-d0eccfcef42b","ios":"levelo://app?vid=184492ce-9f5c-47e4-a3e5-d0eccfcef42b"},"vehicle_type_id":"4","last_reported":1742015312,"current_range_meters":9600,"station_id":"ce4bgj92rcd13ifvqbe0","pricing_plan_id":"cebpf4jnsgd1na2vs0mg"},{"bike_id":"6df798d1-60aa-466d-807e-854a55f55c33","system_id":"levelo_inurba_marseille","lat":43.26927,"lon":5.38926,"is_reserved":false,"is_disabled":false,"rental_uris":{"android":"levelo://app?vid=6df798d1-60aa-466d-807e-854a55f55c33","ios":"levelo://app?vid=6df798d1-60aa-466d-807e-854a55f55c33"},"vehicle_type_id":"4","last_reported":1742015312,"current_range_meters":9600,"station_id":"ce4bhhh2rcd13ifvqfl0","pricing_plan_id":"cebpf4jnsgd1na2vs0mg"},{"bike_id":"37e7693b-e623-4437-9c67-6ae03343eb65","system_id":"levelo_inurba_marseille","lat":43.275911,"lon":5.377764,"is_reserved":false,"is_disabled":false,"rental_uris":{"android":"levelo://app?vid=37e7693b-e623-4437-9c67-6ae03343eb65","ios":"levelo://app?vid=37e7693b-e623-4437-9c67-6ae03343eb65"},"vehicle_type_id":"4","last_reported":1742015312,"current_range_meters":9600,"station_id":"","pricing_plan_id":"cebpf4jnsgd1na2vs0mg"},{"bike_id":"18a1cfa4-0583-4465-858e-41f769d09057","system_id":"levelo_inurba_marseille","lat":43.31253,"lon":5.40186,"is_reserved":false,"is_disabled":false,"rental_uris":{"android":"levelo://app?vid=18a1cfa4-0583-4465-858e-41f769d09057","ios":"levelo://app?vid=18a1cfa4-0583-4465-858e-41f769d09057"},"vehicle_type_id":"4","last_reported":1742015312,"current_range_meters":9600,"station_id":"ce4bh092rcd13ifvqd30","pricing_plan_id":"cebpf4jnsgd1na2vs0mg"},{"bike_id":"808cc0fe-9e53-473c-8551-1dc9670c8b2f","system_id":"levelo_inurba_marseille","lat":43.30761,"lon":5.37676,"is_reserved":false,"is_disabled":false,"rental_uris":{"android":"levelo://app?vid=808cc0fe-9e53-473c-8551-1dc9670c8b2f","ios":"levelo://app?vid=808cc0fe-9e53-473c-8551-1dc9670c8b2f"},"vehicle_type_id":"4","last_reported":1742015312,"current_range_meters":9600,"station_id":"ce4bgv92rcd13ifvqcq0","pricing_plan_id":"cebpf4jnsgd1na2vs0mg"},{"bike_id":"9fd8a695-1141-48a7-a275-ae03aade4f9e","system_id":"levelo_inurba_marseille","lat":43.245495,"lon":5.395248,"is_reserved":false,"is_disabled":false,"rental_uris":{"android":"levelo://app?vid=9fd8a695-1141-48a7-a275-ae03aade4f9e","ios":"levelo://app?vid=9fd8a695-1141-48a7-a275-ae03aade4f9e"},"vehicle_type_id":"4","last_reported":1742015312,"current_range_meters":10000,"station_id":"ce4bhlp2rcd13ifvqgjg","pricing_plan_id":"cebpf4jnsgd1na2vs0mg"},{"bike_id":"5aba52df-8a3f-4b29-82a1-604be3c638f6","system_id":"levelo_inurba_marseille","lat":43.28856,"lon":5.35823,"is_reserved":false,"is_disabled":false,"rental_uris":{"android":"levelo://app?vid=5aba52df-8a3f-4b29-82a1-604be3c638f6","ios":"levelo://app?vid=5aba52df-8a3f-4b29-82a1-604be3c638f6"},"vehicle_type_id":"4","last_reported":1742015312,"current_range_meters":10000,"station_id":"ce4bhb12rcd13ifvqem0","pricing_plan_id":"cebpf4jnsgd1na2vs0mg"},{"bike_id":"4053e09d-f30f-4ed5-a08b-b11ac2cc763b","system_id":"levelo_inurba_marseille","lat":43.28417,"lon":5.37508,"is_reserved":false,"is_disabled":false,"rental_uris":{"android":"levelo://app?vid=4053e09d-f30f-4ed5-a08b-b11ac2cc763b","ios":"levelo://app?vid=4053e09d-f30f-4ed5-a08b-b11ac2cc763b"},"vehicle_type_id":"4","last_reported":1742015312,"current_range_meters":10000,"station_id":"ce4bh412rcd13ifvqds0","pricing_plan_id":"cebpf4jnsgd1na2vs0mg"},{"bike_id":"2833c42b-d64a-4e72-93ee-d21fe40ff679","system_id":"levelo_inurba_marseille","lat":43.31169,"lon":5.38744,"is_reserved":false,"is_disabled":false,"rental_uris":{"android":"levelo://app?vid=2833c42b-d64a-4e72-93ee-d21fe40ff679","ios":"levelo://app?vid=2833c42b-d64a-4e72-93ee-d21fe40ff679"},"vehicle_type_id":"4","last_reported":1742015312,"current_range_meters":10000,"station_id":"ce4bgv12rcd13ifvqcp0","pricing_plan_id":"cebpf4jnsgd1na2vs0mg"},{"bike_id":"0193a9e1-3a64-4d57-b359-e4abb03d9544","system_id":"levelo_inurba_marseille","lat":43.308938,"lon":5.371816,"is_reserved":false,"is_disabled":false,"rental_uris":{"android":"levelo://app?vid=0193a9e1-3a64-4d57-b359-e4abb03d9544","ios":"levelo://app?vid=0193a9e1-3a64-4d57-b359-e4abb03d9544"},"vehicle_type_id":"4","last_reported":1742015312,"current_range_meters":10000,"station_id":"ce4bguh2rcd13ifvqckg","pricing_plan_id":"cebpf4jnsgd1na2vs0mg"},{"bike_id":"0d1b2129-b18b-4dfa-b355-90ec4e4e0735","system_id":"levelo_inurba_marseille","lat":43.29695,"lon":5.36623,"is_reserved":false,"is_disabled":false,"rental_uris":{"android":"levelo://app?vid=0d1b2129-b18b-4dfa-b355-90ec4e4e0735","ios":"levelo://app?vid=0d1b2129-b18b-4dfa-b355-90ec4e4e0735"},"vehicle_type_id":"4","last_reported":1742015312,"current_range_meters":10000,"station_id":"ce4bgn12rcd13ifvqbt0","pricing_plan_id":"cebpf4jnsgd1na2vs0mg"},{"bike_id":"5c09fa10-66af-4d08-984a-1d41e4e2c41b","system_id":"levelo_inurba_marseille","lat":43.2317,"lon":5.4001,"is_reserved":false,"is_disabled":false,"rental_uris":{"android":"levelo://app?vid=5c09fa10-66af-4d08-984a-1d41e4e2c41b","ios":"levelo://app?vid=5c09fa10-66af-4d08-984a-1d41e4e2c41b"},"vehicle_type_id":"4","last_reported":1742015312,"current_range_meters":10000,"station_id":"ce4bhn12rcd13ifvqgqg","pricing_plan_id":"cebpf4jnsgd1na2vs0mg"},{"bike_id":"04f149c6-a120-4218-b435-a952d9eb67d0","system_id":"levelo_inurba_marseille","lat":43.24867,"lon":5.4066,"is_reserved":false,"is_disabled":false,"rental_uris":{"android":"levelo://app?vid=04f149c6-a120-4218-b435-a952d9eb67d0","ios":"levelo://app?vid=04f149c6-a120-4218-b435-a952d9eb67d0"},"vehicle_type_id":"4","last_reported":1742015312,"current_range_meters":10000,"station_id":"","pricing_plan_id":"cebpf4jnsgd1na2vs0mg"},{"bike_id":"385ae15c-2c3c-4490-a507-5eb20fb883a5","system_id":"levelo_inurba_marseille","lat":43.25935,"lon":5.40901,"is_reserved":false,"is_disabled":false,"rental_uris":{"android":"levelo://app?vid=385ae15c-2c3c-4490-a507-5eb20fb883a5","ios":"levelo://app?vid=385ae15c-2c3c-4490-a507-5eb20fb883a5"},"vehicle_type_id":"4","last_reported":1742015312,"current_range_meters":10000,"station_id":"ce4bhm92rcd13ifvqglg","pricing_plan_id":"cebpf4jnsgd1na2vs0mg"},{"bike_id":"3467e1fd-f097-4239-9227-10aa85bb4e8b","system_id":"levelo_inurba_marseille","lat":43.30877,"lon":5.39641,"is_reserved":false,"is_disabled":false,"rental_uris":{"android":"levelo://app?vid=3467e1fd-f097-4239-9227-10aa85bb4e8b","ios":"levelo://app?vid=3467e1fd-f097-4239-9227-10aa85bb4e8b"},"vehicle_type_id":"4","last_reported":1742015312,"current_range_meters":10000,"station_id":"ce4bh012rcd13ifvqcv0","pricing_plan_id":"cebpf4jnsgd1na2vs0mg"},{"bike_id":"9d2d752e-416c-49e5-a687-1caacbda7dcb","system_id":"levelo_inurba_marseille","lat":43.28088,"lon":5.39679,"is_reserved":false,"is_disabled":true,"rental_uris":{"android":"levelo://app?vid=9d2d752e-416c-49e5-a687-1caacbda7dcb","ios":"levelo://app?vid=9d2d752e-416c-49e5-a687-1caacbda7dcb"},"vehicle_type_id":"4","last_reported":1742015312,"current_range_meters":10000,"station_id":"ce4bho12rcd13ifvqh2g","pricing_plan_id":"cebpf4jnsgd1na2vs0mg"},{"bike_id":"d9d977cc-0f92-45a5-bfbf-b1ce9c683f22","system_id":"levelo_inurba_marseille","lat":43.31889,"lon":5.40735,"is_reserved":false,"is_disabled":false,"rental_uris":{"android":"levelo://app?vid=d9d977cc-0f92-45a5-bfbf-b1ce9c683f22","ios":"levelo://app?vid=d9d977cc-0f92-45a5-bfbf-b1ce9c683f22"},"vehicle_type_id":"4","last_reported":1742015312,"current_range_meters":10000,"station_id":"ce4bhq12rcd13ifvqhig","pricing_plan_id":"cebpf4jnsgd1na2vs0mg"},{"bike_id":"4c31218c-2010-49f2-a304-0501d5f8c799","system_id":"levelo_inurba_marseille","lat":43.28344,"lon":5.38107,"is_reserved":false,"is_disabled":false,"rental_uris":{"android":"levelo://app?vid=4c31218c-2010-49f2-a304-0501d5f8c799","ios":"levelo://app?vid=4c31218c-2010-49f2-a304-0501d5f8c799"},"vehicle_type_id":"4","last_reported":1742015312,"current_range_meters":10000,"station_id":"ce4bh412rcd13ifvqdr0","pricing_plan_id":"cebpf4jnsgd1na2vs0mg"},{"bike_id":"9916307e-073a-427d-94d7-7f23fc4d666d","system_id":"levelo_inurba_marseille","lat":43.286913,"lon":5.399832,"is_reserved":false,"is_disabled":false,"rental_uris":{"android":"levelo://app?vid=9916307e-073a-427d-94d7-7f23fc4d666d","ios":"levelo://app?vid=9916307e-073a-427d-94d7-7f23fc4d666d"},"vehicle_type_id":"4","last_reported":1742015312,"current_range_meters":10000,"station_id":"ce4bho92rcd13ifvqh3g","pricing_plan_id":"cebpf4jnsgd1na2vs0mg"},{"bike_id":"41ba19a0-0e14-4479-a30d-99eb9075edc9","system_id":"levelo_inurba_marseille","lat":43.23204,"lon":5.35549,"is_reserved":false,"is_disabled":false,"rental_uris":{"android":"levelo://app?vid=41ba19a0-0e14-4479-a30d-99eb9075edc9","ios":"levelo://app?vid=41ba19a0-0e14-4479-a30d-99eb9075edc9"},"vehicle_type_id":"4","last_reported":1742015312,"current_range_meters":10800,"station_id":"ce4bhu92rcd13ifvqi70","pricing_plan_id":"cebpf4jnsgd1na2vs0mg"},{"bike_id":"676e66c6-8e50-404c-b512-5f94c7d6a8fc","system_id":"levelo_inurba_marseille","lat":43.241641,"lon":5.364049,"is_reserved":false,"is_disabled":false,"rental_uris":{"android":"levelo://app?vid=676e66c6-8e50-404c-b512-5f94c7d6a8fc","ios":"levelo://app?vid=676e66c6-8e50-404c-b512-5f94c7d6a8fc"},"vehicle_type_id":"4","last_reported":1742015312,"current_range_meters":10800,"station_id":"cpo36qri1sfpv3e86is0","pricing_plan_id":"cebpf4jnsgd1na2vs0mg"},{"bike_id":"b37db8b9-d0d9-421b-85af-469fa613b348","system_id":"levelo_inurba_marseille","lat":43.31287,"lon":5.40164,"is_reserved":false,"is_disabled":false,"rental_uris":{"android":"levelo://app?vid=b37db8b9-d0d9-421b-85af-469fa613b348","ios":"levelo://app?vid=b37db8b9-d0d9-421b-85af-469fa613b348"},"vehicle_type_id":"4","last_reported":1742015312,"current_range_meters":10800,"station_id":"ce4bh092rcd13ifvqd30","pricing_plan_id":"cebpf4jnsgd1na2vs0mg"},{"bike_id":"65bea2c5-78a7-4fbf-92b5-f338edebb748","system_id":"levelo_inurba_marseille","lat":43.26108,"lon":5.41451,"is_reserved":false,"is_disabled":false,"rental_uris":{"android":"levelo://app?vid=65bea2c5-78a7-4fbf-92b5-f338edebb748","ios":"levelo://app?vid=65bea2c5-78a7-4fbf-92b5-f338edebb748"},"vehicle_type_id":"4","last_reported":1742015312,"current_range_meters":10800,"station_id":"","pricing_plan_id":"cebpf4jnsgd1na2vs0mg"},{"bike_id":"85e84d04-a2bc-4db6-81df-42a78f2366a3","system_id":"levelo_inurba_marseille","lat":43.29725,"lon":5.36597,"is_reserved":false,"is_disabled":false,"rental_uris":{"android":"levelo://app?vid=85e84d04-a2bc-4db6-81df-42a78f2366a3","ios":"levelo://app?vid=85e84d04-a2bc-4db6-81df-42a78f2366a3"},"vehicle_type_id":"4","last_reported":1742015312,"current_range_meters":10800,"station_id":"ce4bgn12rcd13ifvqbt0","pricing_plan_id":"cebpf4jnsgd1na2vs0mg"},{"bike_id":"cabd3d2d-330e-43b2-8d0b-3e86699f79e1","system_id":"levelo_inurba_marseille","lat":43.24175,"lon":5.36391,"is_reserved":false,"is_disabled":false,"rental_uris":{"android":"levelo://app?vid=cabd3d2d-330e-43b2-8d0b-3e86699f79e1","ios":"levelo://app?vid=cabd3d2d-330e-43b2-8d0b-3e86699f79e1"},"vehicle_type_id":"4","last_reported":1742015312,"current_range_meters":11200,"station_id":"cpo36qri1sfpv3e86is0","pricing_plan_id":"cebpf4jnsgd1na2vs0mg"},{"bike_id":"cd2eb4ba-77cf-40ae-a991-34cec5701430","system_id":"levelo_inurba_marseille","lat":43.231425,"lon":5.43708,"is_reserved":false,"is_disabled":false,"rental_uris":{"android":"levelo://app?vid=cd2eb4ba-77cf-40ae-a991-34cec5701430","ios":"levelo://app?vid=cd2eb4ba-77cf-40ae-a991-34cec5701430"},"vehicle_type_id":"4","last_reported":1742015312,"current_range_meters":11200,"station_id":"ce4bhmp2rcd13ifvqgog","pricing_plan_id":"cebpf4jnsgd1na2vs0mg"},{"bike_id":"57c78e0d-3eb3-48c0-8e9a-43b9537b8d1f","system_id":"levelo_inurba_marseille","lat":43.24079,"lon":5.37769,"is_reserved":false,"is_disabled":false,"rental_uris":{"android":"levelo://app?vid=57c78e0d-3eb3-48c0-8e9a-43b9537b8d1f","ios":"levelo://app?vid=57c78e0d-3eb3-48c0-8e9a-43b9537b8d1f"},"vehicle_type_id":"4","last_reported":1742015312,"current_range_meters":11200,"station_id":"ce4bhnp2rcd13ifvqgvg","pricing_plan_id":"cebpf4jnsgd1na2vs0mg"},{"bike_id":"e0f00ea1-5190-455d-8f01-943045ce62ae","system_id":"levelo_inurba_marseille","lat":43.311884,"lon":5.37773,"is_reserved":false,"is_disabled":false,"rental_uris":{"android":"levelo://app?vid=e0f00ea1-5190-455d-8f01-943045ce62ae","ios":"levelo://app?vid=e0f00ea1-5190-455d-8f01-943045ce62ae"},"vehicle_type_id":"4","last_reported":1742015312,"current_range_meters":11200,"station_id":"","pricing_plan_id":"cebpf4jnsgd1na2vs0mg"},{"bike_id":"62750819-90ea-49db-b059-da19472d9390","system_id":"levelo_inurba_marseille","lat":43.315644,"lon":5.422781,"is_reserved":false,"is_disabled":false,"rental_uris":{"android":"levelo://app?vid=62750819-90ea-49db-b059-da19472d9390","ios":"levelo://app?vid=62750819-90ea-49db-b059-da19472d9390"},"vehicle_type_id":"4","last_reported":1742015312,"current_range_meters":11200,"station_id":"","pricing_plan_id":"cebpf4jnsgd1na2vs0mg"},{"bike_id":"64986549-2c9e-4b9f-8464-f74cc2571bf2","system_id":"levelo_inurba_marseille","lat":43.240862,"lon":5.377356,"is_reserved":false,"is_disabled":false,"rental_uris":{"android":"levelo://app?vid=64986549-2c9e-4b9f-8464-f74cc2571bf2","ios":"levelo://app?vid=64986549-2c9e-4b9f-8464-f74cc2571bf2"},"vehicle_type_id":"4","last_reported":1742015312,"current_range_meters":11200,"station_id":"ce4bhnp2rcd13ifvqgvg","pricing_plan_id":"cebpf4jnsgd1na2vs0mg"},{"bike_id":"b492a5ac-e999-4d99-a121-1c1983e57e8f","system_id":"levelo_inurba_marseille","lat":43.28855,"lon":5.35864,"is_reserved":false,"is_disabled":false,"rental_uris":{"android":"levelo://app?vid=b492a5ac-e999-4d99-a121-1c1983e57e8f","ios":"levelo://app?vid=b492a5ac-e999-4d99-a121-1c1983e57e8f"},"vehicle_type_id":"4","last_reported":1742015312,"current_range_meters":11200,"station_id":"ce4bhb12rcd13ifvqem0","pricing_plan_id":"cebpf4jnsgd1na2vs0mg"},{"bike_id":"cb18c41c-e472-4ca0-a233-6e3349aacd22","system_id":"levelo_inurba_marseille","lat":43.28943,"lon":5.36413,"is_reserved":false,"is_disabled":false,"rental_uris":{"android":"levelo://app?vid=cb18c41c-e472-4ca0-a233-6e3349aacd22","ios":"levelo://app?vid=cb18c41c-e472-4ca0-a233-6e3349aacd22"},"vehicle_type_id":"4","last_reported":1742015312,"current_range_meters":11200,"station_id":"ce4bhc92rcd13ifvqetg","pricing_plan_id":"cebpf4jnsgd1na2vs0mg"},{"bike_id":"dc0a2dab-6977-4311-9c84-6f4743af4a27","system_id":"levelo_inurba_marseille","lat":43.28836,"lon":5.35814,"is_reserved":false,"is_disabled":false,"rental_uris":{"android":"levelo://app?vid=dc0a2dab-6977-4311-9c84-6f4743af4a27","ios":"levelo://app?vid=dc0a2dab-6977-4311-9c84-6f4743af4a27"},"vehicle_type_id":"4","last_reported":1742015312,"current_range_meters":11200,"station_id":"ce4bhb12rcd13ifvqem0","pricing_plan_id":"cebpf4jnsgd1na2vs0mg"},{"bike_id":"aa125934-36f2-4778-9cc6-aaa97af72a9a","system_id":"levelo_inurba_marseille","lat":43.31183,"lon":5.38702,"is_reserved":false,"is_disabled":false,"rental_uris":{"android":"levelo://app?vid=aa125934-36f2-4778-9cc6-aaa97af72a9a","ios":"levelo://app?vid=aa125934-36f2-4778-9cc6-aaa97af72a9a"},"vehicle_type_id":"4","last_reported":1742015312,"current_range_meters":11600,"station_id":"ce4bgv12rcd13ifvqcp0","pricing_plan_id":"cebpf4jnsgd1na2vs0mg"},{"bike_id":"08d7ad39-29b9-4d1d-ab44-5a56dd13dd34","system_id":"levelo_inurba_marseille","lat":43.24089,"lon":5.37761,"is_reserved":false,"is_disabled":false,"rental_uris":{"android":"levelo://app?vid=08d7ad39-29b9-4d1d-ab44-5a56dd13dd34","ios":"levelo://app?vid=08d7ad39-29b9-4d1d-ab44-5a56dd13dd34"},"vehicle_type_id":"4","last_reported":1742015312,"current_range_meters":11600,"station_id":"ce4bhnp2rcd13ifvqgvg","pricing_plan_id":"cebpf4jnsgd1na2vs0mg"},{"bike_id":"03d5c30f-9b67-4c42-b496-00580617f460","system_id":"levelo_inurba_marseille","lat":43.31075,"lon":5.3836,"is_reserved":false,"is_disabled":false,"rental_uris":{"android":"levelo://app?vid=03d5c30f-9b67-4c42-b496-00580617f460","ios":"levelo://app?vid=03d5c30f-9b67-4c42-b496-00580617f460"},"vehicle_type_id":"4","last_reported":1742015312,"current_range_meters":11600,"station_id":"ce4bgv92rcd13ifvqcr0","pricing_plan_id":"cebpf4jnsgd1na2vs0mg"},{"bike_id":"269491db-b98a-49e3-a3b5-e04159ff8cbf","system_id":"levelo_inurba_marseille","lat":43.26938,"lon":5.40258,"is_reserved":false,"is_disabled":false,"rental_uris":{"android":"levelo://app?vid=269491db-b98a-49e3-a3b5-e04159ff8cbf","ios":"levelo://app?vid=269491db-b98a-49e3-a3b5-e04159ff8cbf"},"vehicle_type_id":"4","last_reported":1742015312,"current_range_meters":11600,"station_id":"cjm6bp8fraef2m0cb0m0","pricing_plan_id":"cebpf4jnsgd1na2vs0mg"},{"bike_id":"3e855fc9-7985-40b2-8b41-f65298beab70","system_id":"levelo_inurba_marseille","lat":43.2804,"lon":5.36971,"is_reserved":false,"is_disabled":false,"rental_uris":{"android":"levelo://app?vid=3e855fc9-7985-40b2-8b41-f65298beab70","ios":"levelo://app?vid=3e855fc9-7985-40b2-8b41-f65298beab70"},"vehicle_type_id":"4","last_reported":1742015312,"current_range_meters":11600,"station_id":"ce4bha12rcd13ifvqef0","pricing_plan_id":"cebpf4jnsgd1na2vs0mg"},{"bike_id":"7d17ea0b-8770-4745-9918-6034431f77e4","system_id":"levelo_inurba_marseille","lat":43.27806,"lon":5.4071,"is_reserved":false,"is_disabled":false,"rental_uris":{"android":"levelo://app?vid=7d17ea0b-8770-4745-9918-6034431f77e4","ios":"levelo://app?vid=7d17ea0b-8770-4745-9918-6034431f77e4"},"vehicle_type_id":"4","last_reported":1742015312,"current_range_meters":11200,"station_id":"ce4bhnh2rcd13ifvqgtg","pricing_plan_id":"cebpf4jnsgd1na2vs0mg"},{"bike_id":"a212850b-d961-4e6c-83d5-c03c146a618f","system_id":"levelo_inurba_marseille","lat":43.30244,"lon":5.40071,"is_reserved":false,"is_disabled":false,"rental_uris":{"android":"levelo://app?vid=a212850b-d961-4e6c-83d5-c03c146a618f","ios":"levelo://app?vid=a212850b-d961-4e6c-83d5-c03c146a618f"},"vehicle_type_id":"4","last_reported":1742015312,"current_range_meters":11600,"station_id":"ce4bgvh2rcd13ifvqcs0","pricing_plan_id":"cebpf4jnsgd1na2vs0mg"},{"bike_id":"4ef323ec-55a6-4673-9998-ca7fe4a3fb37","system_id":"levelo_inurba_marseille","lat":43.3302,"lon":5.3904,"is_reserved":false,"is_disabled":false,"rental_uris":{"android":"levelo://app?vid=4ef323ec-55a6-4673-9998-ca7fe4a3fb37","ios":"levelo://app?vid=4ef323ec-55a6-4673-9998-ca7fe4a3fb37"},"vehicle_type_id":"4","last_reported":1742015312,"current_range_meters":11600,"station_id":"ce4bhr92rcd13ifvqhrg","pricing_plan_id":"cebpf4jnsgd1na2vs0mg"},{"bike_id":"c6b824bb-649b-4740-832b-8ce2932b8909","system_id":"levelo_inurba_marseille","lat":43.287212,"lon":5.360868,"is_reserved":false,"is_disabled":false,"rental_uris":{"android":"levelo://app?vid=c6b824bb-649b-4740-832b-8ce2932b8909","ios":"levelo://app?vid=c6b824bb-649b-4740-832b-8ce2932b8909"},"vehicle_type_id":"4","last_reported":1742015312,"current_range_meters":11600,"station_id":"cki0cbj6b192h4jlfktg","pricing_plan_id":"cebpf4jnsgd1na2vs0mg"},{"bike_id":"7f720f01-f8b9-4d21-91a7-22faa351b6a5","system_id":"levelo_inurba_marseille","lat":43.28936,"lon":5.3642,"is_reserved":false,"is_disabled":false,"rental_uris":{"android":"levelo://app?vid=7f720f01-f8b9-4d21-91a7-22faa351b6a5","ios":"levelo://app?vid=7f720f01-f8b9-4d21-91a7-22faa351b6a5"},"vehicle_type_id":"4","last_reported":1742015312,"current_range_meters":11600,"station_id":"ce4bhc92rcd13ifvqetg","pricing_plan_id":"cebpf4jnsgd1na2vs0mg"},{"bike_id":"9d9bd579-ca4a-49a8-84d8-e0a9c1600b5e","system_id":"levelo_inurba_marseille","lat":43.25088,"lon":5.39533,"is_reserved":false,"is_disabled":false,"rental_uris":{"android":"levelo://app?vid=9d9bd579-ca4a-49a8-84d8-e0a9c1600b5e","ios":"levelo://app?vid=9d9bd579-ca4a-49a8-84d8-e0a9c1600b5e"},"vehicle_type_id":"4","last_reported":1742015312,"current_range_meters":12000,"station_id":"ce4bhm12rcd13ifvqgkg","pricing_plan_id":"cebpf4jnsgd1na2vs0mg"},{"bike_id":"0b7bfdb8-fd03-4687-9225-8085184f929c","system_id":"levelo_inurba_marseille","lat":43.3236,"lon":5.36768,"is_reserved":false,"is_disabled":false,"rental_uris":{"android":"levelo://app?vid=0b7bfdb8-fd03-4687-9225-8085184f929c","ios":"levelo://app?vid=0b7bfdb8-fd03-4687-9225-8085184f929c"},"vehicle_type_id":"4","last_reported":1742015312,"current_range_meters":12000,"station_id":"ce4bhsh2rcd13ifvqi2g","pricing_plan_id":"cebpf4jnsgd1na2vs0mg"},{"bike_id":"25228edc-ae2b-41d4-9e7e-87f35203c830","system_id":"levelo_inurba_marseille","lat":43.2669,"lon":5.38276,"is_reserved":false,"is_disabled":false,"rental_uris":{"android":"levelo://app?vid=25228edc-ae2b-41d4-9e7e-87f35203c830","ios":"levelo://app?vid=25228edc-ae2b-41d4-9e7e-87f35203c830"},"vehicle_type_id":"4","last_reported":1742015312,"current_range_meters":12000,"station_id":"ce4bhg92rcd13ifvqf90","pricing_plan_id":"cebpf4jnsgd1na2vs0mg"},{"bike_id":"09292f2f-2cae-45e2-8758-74378214c4cf","system_id":"levelo_inurba_marseille","lat":43.24161,"lon":5.39745,"is_reserved":false,"is_disabled":false,"rental_uris":{"android":"levelo://app?vid=09292f2f-2cae-45e2-8758-74378214c4cf","ios":"levelo://app?vid=09292f2f-2cae-45e2-8758-74378214c4cf"},"vehicle_type_id":"4","last_reported":1742015312,"current_range_meters":12000,"station_id":"ce4bhn12rcd13ifvqgpg","pricing_plan_id":"cebpf4jnsgd1na2vs0mg"},{"bike_id":"83783ead-721f-4d82-86e9-a8ac641b2edd","system_id":"levelo_inurba_marseille","lat":43.262227,"lon":5.404596,"is_reserved":false,"is_disabled":false,"rental_uris":{"android":"levelo://app?vid=83783ead-721f-4d82-86e9-a8ac641b2edd","ios":"levelo://app?vid=83783ead-721f-4d82-86e9-a8ac641b2edd"},"vehicle_type_id":"4","last_reported":1742015312,"current_range_meters":12000,"station_id":"ce4bhmh2rcd13ifvqgmg","pricing_plan_id":"cebpf4jnsgd1na2vs0mg"},{"bike_id":"d12efc9c-1e53-4a91-8a40-59f15e7054e9","system_id":"levelo_inurba_marseille","lat":43.30522,"lon":5.36703,"is_reserved":false,"is_disabled":false,"rental_uris":{"android":"levelo://app?vid=d12efc9c-1e53-4a91-8a40-59f15e7054e9","ios":"levelo://app?vid=d12efc9c-1e53-4a91-8a40-59f15e7054e9"},"vehicle_type_id":"4","last_reported":1742015312,"current_range_meters":12400,"station_id":"ce4bgrp2rcd13ifvqc9g","pricing_plan_id":"cebpf4jnsgd1na2vs0mg"},{"bike_id":"009b8a38-7c9c-4a99-95e2-7297e8eb538c","system_id":"levelo_inurba_marseille","lat":43.32342,"lon":5.40617,"is_reserved":false,"is_disabled":false,"rental_uris":{"android":"levelo://app?vid=009b8a38-7c9c-4a99-95e2-7297e8eb538c","ios":"levelo://app?vid=009b8a38-7c9c-4a99-95e2-7297e8eb538c"},"vehicle_type_id":"4","last_reported":1742015312,"current_range_meters":12400,"station_id":"ce4bhq92rcd13ifvqhjg","pricing_plan_id":"cebpf4jnsgd1na2vs0mg"},{"bike_id":"9985ae74-2125-49fa-891b-15370436909b","system_id":"levelo_inurba_marseille","lat":43.27828,"lon":5.39214,"is_reserved":false,"is_disabled":false,"rental_uris":{"android":"levelo://app?vid=9985ae74-2125-49fa-891b-15370436909b","ios":"levelo://app?vid=9985ae74-2125-49fa-891b-15370436909b"},"vehicle_type_id":"4","last_reported":1742015312,"current_range_meters":12400,"station_id":"ce4bhjp2rcd13ifvqga0","pricing_plan_id":"cebpf4jnsgd1na2vs0mg"},{"bike_id":"e52b41b5-52df-4c67-a85c-3cebb3bf7504","system_id":"levelo_inurba_marseille","lat":43.32368,"lon":5.36778,"is_reserved":false,"is_disabled":false,"rental_uris":{"android":"levelo://app?vid=e52b41b5-52df-4c67-a85c-3cebb3bf7504","ios":"levelo://app?vid=e52b41b5-52df-4c67-a85c-3cebb3bf7504"},"vehicle_type_id":"4","last_reported":1742015312,"current_range_meters":12400,"station_id":"ce4bhsh2rcd13ifvqi2g","pricing_plan_id":"cebpf4jnsgd1na2vs0mg"},{"bike_id":"ed4d790a-9854-49a9-827f-20bd3cffa2d7","system_id":"levelo_inurba_marseille","lat":43.31177,"lon":5.38709,"is_reserved":false,"is_disabled":false,"rental_uris":{"android":"levelo://app?vid=ed4d790a-9854-49a9-827f-20bd3cffa2d7","ios":"levelo://app?vid=ed4d790a-9854-49a9-827f-20bd3cffa2d7"},"vehicle_type_id":"4","last_reported":1742015312,"current_range_meters":12400,"station_id":"ce4bgv12rcd13ifvqcp0","pricing_plan_id":"cebpf4jnsgd1na2vs0mg"},{"bike_id":"c418edfd-e67c-45c7-a3bc-0c27ce0d0e41","system_id":"levelo_inurba_marseille","lat":43.31261,"lon":5.40167,"is_reserved":false,"is_disabled":false,"rental_uris":{"android":"levelo://app?vid=c418edfd-e67c-45c7-a3bc-0c27ce0d0e41","ios":"levelo://app?vid=c418edfd-e67c-45c7-a3bc-0c27ce0d0e41"},"vehicle_type_id":"4","last_reported":1742015312,"current_range_meters":12400,"station_id":"ce4bh092rcd13ifvqd30","pricing_plan_id":"cebpf4jnsgd1na2vs0mg"},{"bike_id":"6ceff3a7-2089-4452-a80c-797e513bd928","system_id":"levelo_inurba_marseille","lat":43.28101,"lon":5.37844,"is_reserved":false,"is_disabled":false,"rental_uris":{"android":"levelo://app?vid=6ceff3a7-2089-4452-a80c-797e513bd928","ios":"levelo://app?vid=6ceff3a7-2089-4452-a80c-797e513bd928"},"vehicle_type_id":"4","last_reported":1742015312,"current_range_meters":12400,"station_id":"ce4bha12rcd13ifvqee0","pricing_plan_id":"cebpf4jnsgd1na2vs0mg"},{"bike_id":"7275ac19-f926-4d23-9e9d-7142ec2c130c","system_id":"levelo_inurba_marseille","lat":43.313759,"lon":5.384875,"is_reserved":false,"is_disabled":false,"rental_uris":{"android":"levelo://app?vid=7275ac19-f926-4d23-9e9d-7142ec2c130c","ios":"levelo://app?vid=7275ac19-f926-4d23-9e9d-7142ec2c130c"},"vehicle_type_id":"4","last_reported":1742015312,"current_range_meters":12400,"station_id":"ce4bgt92rcd13ifvqcf0","pricing_plan_id":"cebpf4jnsgd1na2vs0mg"},{"bike_id":"3fbdbed3-81eb-4ebd-99e8-fe7ae5272906","system_id":"levelo_inurba_marseille","lat":43.25821,"lon":5.3945,"is_reserved":false,"is_disabled":false,"rental_uris":{"android":"levelo://app?vid=3fbdbed3-81eb-4ebd-99e8-fe7ae5272906","ios":"levelo://app?vid=3fbdbed3-81eb-4ebd-99e8-fe7ae5272906"},"vehicle_type_id":"4","last_reported":1742015312,"current_range_meters":12400,"station_id":"ce4bhip2rcd13ifvqft0","pricing_plan_id":"cebpf4jnsgd1na2vs0mg"},{"bike_id":"73e5a0f7-990d-4cd5-a507-5015e5e3d79f","system_id":"levelo_inurba_marseille","lat":43.330901,"lon":5.376664,"is_reserved":false,"is_disabled":false,"rental_uris":{"android":"levelo://app?vid=73e5a0f7-990d-4cd5-a507-5015e5e3d79f","ios":"levelo://app?vid=73e5a0f7-990d-4cd5-a507-5015e5e3d79f"},"vehicle_type_id":"4","last_reported":1742015312,"current_range_meters":12800,"station_id":"","pricing_plan_id":"cebpf4jnsgd1na2vs0mg"},{"bike_id":"76b5d343-6624-4366-8e6e-f702d50ae492","system_id":"levelo_inurba_marseille","lat":43.23193,"lon":5.35545,"is_reserved":false,"is_disabled":false,"rental_uris":{"android":"levelo://app?vid=76b5d343-6624-4366-8e6e-f702d50ae492","ios":"levelo://app?vid=76b5d343-6624-4366-8e6e-f702d50ae492"},"vehicle_type_id":"4","last_reported":1742015312,"current_range_meters":12800,"station_id":"ce4bhu92rcd13ifvqi70","pricing_plan_id":"cebpf4jnsgd1na2vs0mg"},{"bike_id":"d186dcb0-0024-40f4-a78f-fc94ed9a4a15","system_id":"levelo_inurba_marseille","lat":43.30801,"lon":5.381576,"is_reserved":false,"is_disabled":false,"rental_uris":{"android":"levelo://app?vid=d186dcb0-0024-40f4-a78f-fc94ed9a4a15","ios":"levelo://app?vid=d186dcb0-0024-40f4-a78f-fc94ed9a4a15"},"vehicle_type_id":"4","last_reported":1742015312,"current_range_meters":12800,"station_id":"ce4bgt12rcd13ifvqce0","pricing_plan_id":"cebpf4jnsgd1na2vs0mg"},{"bike_id":"d9a1cca8-ee8b-47f2-9d56-964a9b7f03bf","system_id":"levelo_inurba_marseille","lat":43.313304,"lon":5.39694,"is_reserved":false,"is_disabled":true,"rental_uris":{"android":"levelo://app?vid=d9a1cca8-ee8b-47f2-9d56-964a9b7f03bf","ios":"levelo://app?vid=d9a1cca8-ee8b-47f2-9d56-964a9b7f03bf"},"vehicle_type_id":"4","last_reported":1742015312,"current_range_meters":12800,"station_id":"ce4bgvp2rcd13ifvqcu0","pricing_plan_id":"cebpf4jnsgd1na2vs0mg"},{"bike_id":"7730ca17-885d-4544-b92d-1014dccd47d8","system_id":"levelo_inurba_marseille","lat":43.30524,"lon":5.38422,"is_reserved":false,"is_disabled":false,"rental_uris":{"android":"levelo://app?vid=7730ca17-885d-4544-b92d-1014dccd47d8","ios":"levelo://app?vid=7730ca17-885d-4544-b92d-1014dccd47d8"},"vehicle_type_id":"4","last_reported":1742015312,"current_range_meters":12800,"station_id":"ce4bgg92rcd13ifvqb30","pricing_plan_id":"cebpf4jnsgd1na2vs0mg"},{"bike_id":"782eb9b5-ef5a-4a8d-aefb-e596ead395e2","system_id":"levelo_inurba_marseille","lat":43.310731,"lon":5.383478,"is_reserved":false,"is_disabled":false,"rental_uris":{"android":"levelo://app?vid=782eb9b5-ef5a-4a8d-aefb-e596ead395e2","ios":"levelo://app?vid=782eb9b5-ef5a-4a8d-aefb-e596ead395e2"},"vehicle_type_id":"4","last_reported":1742015312,"current_range_meters":13600,"station_id":"ce4bgv92rcd13ifvqcr0","pricing_plan_id":"cebpf4jnsgd1na2vs0mg"},{"bike_id":"1742665e-3cf5-4d91-9f4d-8afacbb37c97","system_id":"levelo_inurba_marseille","lat":43.30324,"lon":5.39254,"is_reserved":false,"is_disabled":false,"rental_uris":{"android":"levelo://app?vid=1742665e-3cf5-4d91-9f4d-8afacbb37c97","ios":"levelo://app?vid=1742665e-3cf5-4d91-9f4d-8afacbb37c97"},"vehicle_type_id":"4","last_reported":1742015312,"current_range_meters":13600,"station_id":"ce4bgkh2rcd13ifvqbk0","pricing_plan_id":"cebpf4jnsgd1na2vs0mg"},{"bike_id":"c4256ff1-2880-4bad-b930-20b6d083e714","system_id":"levelo_inurba_marseille","lat":43.30543,"lon":5.36682,"is_reserved":false,"is_disabled":false,"rental_uris":{"android":"levelo://app?vid=c4256ff1-2880-4bad-b930-20b6d083e714","ios":"levelo://app?vid=c4256ff1-2880-4bad-b930-20b6d083e714"},"vehicle_type_id":"4","last_reported":1742015312,"current_range_meters":13600,"station_id":"ce4bgrp2rcd13ifvqc9g","pricing_plan_id":"cebpf4jnsgd1na2vs0mg"},{"bike_id":"ecda60d8-e769-4fb2-a5bc-5ac96d22c9ed","system_id":"levelo_inurba_marseille","lat":43.28454,"lon":5.3592,"is_reserved":false,"is_disabled":false,"rental_uris":{"android":"levelo://app?vid=ecda60d8-e769-4fb2-a5bc-5ac96d22c9ed","ios":"levelo://app?vid=ecda60d8-e769-4fb2-a5bc-5ac96d22c9ed"},"vehicle_type_id":"4","last_reported":1742015312,"current_range_meters":13600,"station_id":"ce4bhah2rcd13ifvqei0","pricing_plan_id":"cebpf4jnsgd1na2vs0mg"},{"bike_id":"b2cbd0d1-2f9b-48eb-b981-19e649f9780d","system_id":"levelo_inurba_marseille","lat":43.30895,"lon":5.37192,"is_reserved":false,"is_disabled":false,"rental_uris":{"android":"levelo://app?vid=b2cbd0d1-2f9b-48eb-b981-19e649f9780d","ios":"levelo://app?vid=b2cbd0d1-2f9b-48eb-b981-19e649f9780d"},"vehicle_type_id":"4","last_reported":1742015312,"current_range_meters":13600,"station_id":"ce4bguh2rcd13ifvqckg","pricing_plan_id":"cebpf4jnsgd1na2vs0mg"},{"bike_id":"17915f8e-faed-48ce-a9ed-f95cf86c3a36","system_id":"levelo_inurba_marseille","lat":43.28467,"lon":5.35903,"is_reserved":false,"is_disabled":false,"rental_uris":{"android":"levelo://app?vid=17915f8e-faed-48ce-a9ed-f95cf86c3a36","ios":"levelo://app?vid=17915f8e-faed-48ce-a9ed-f95cf86c3a36"},"vehicle_type_id":"4","last_reported":1742015312,"current_range_meters":14000,"station_id":"ce4bhah2rcd13ifvqei0","pricing_plan_id":"cebpf4jnsgd1na2vs0mg"},{"bike_id":"2c5aa530-b47f-422b-9cfb-8ea5a70fd9b1","system_id":"levelo_inurba_marseille","lat":43.31323,"lon":5.39709,"is_reserved":false,"is_disabled":false,"rental_uris":{"android":"levelo://app?vid=2c5aa530-b47f-422b-9cfb-8ea5a70fd9b1","ios":"levelo://app?vid=2c5aa530-b47f-422b-9cfb-8ea5a70fd9b1"},"vehicle_type_id":"4","last_reported":1742015312,"current_range_meters":14000,"station_id":"ce4bgvp2rcd13ifvqcu0","pricing_plan_id":"cebpf4jnsgd1na2vs0mg"},{"bike_id":"7d24174d-d10b-414c-be10-a866c2e24646","system_id":"levelo_inurba_marseille","lat":43.30538,"lon":5.36679,"is_reserved":false,"is_disabled":false,"rental_uris":{"android":"levelo://app?vid=7d24174d-d10b-414c-be10-a866c2e24646","ios":"levelo://app?vid=7d24174d-d10b-414c-be10-a866c2e24646"},"vehicle_type_id":"4","last_reported":1742015312,"current_range_meters":14000,"station_id":"ce4bgrp2rcd13ifvqc9g","pricing_plan_id":"cebpf4jnsgd1na2vs0mg"},{"bike_id":"52d5c875-3609-4039-a86e-3e5108b5309e","system_id":"levelo_inurba_marseille","lat":43.29225,"lon":5.36061,"is_reserved":false,"is_disabled":false,"rental_uris":{"android":"levelo://app?vid=52d5c875-3609-4039-a86e-3e5108b5309e","ios":"levelo://app?vid=52d5c875-3609-4039-a86e-3e5108b5309e"},"vehicle_type_id":"4","last_reported":1742015312,"current_range_meters":14000,"station_id":"ce4bhbh2rcd13ifvqeqg","pricing_plan_id":"cebpf4jnsgd1na2vs0mg"},{"bike_id":"a7bf43f3-dbf8-47c3-97b2-b3dfd7ac0119","system_id":"levelo_inurba_marseille","lat":43.30554,"lon":5.36551,"is_reserved":false,"is_disabled":false,"rental_uris":{"android":"levelo://app?vid=a7bf43f3-dbf8-47c3-97b2-b3dfd7ac0119","ios":"levelo://app?vid=a7bf43f3-dbf8-47c3-97b2-b3dfd7ac0119"},"vehicle_type_id":"4","last_reported":1742015312,"current_range_meters":14000,"station_id":"ce4bgs12rcd13ifvqcag","pricing_plan_id":"cebpf4jnsgd1na2vs0mg"},{"bike_id":"87b7f147-0ac2-4b35-8bcc-3f02f503bd7c","system_id":"levelo_inurba_marseille","lat":43.26202,"lon":5.37916,"is_reserved":false,"is_disabled":false,"rental_uris":{"android":"levelo://app?vid=87b7f147-0ac2-4b35-8bcc-3f02f503bd7c","ios":"levelo://app?vid=87b7f147-0ac2-4b35-8bcc-3f02f503bd7c"},"vehicle_type_id":"4","last_reported":1742015312,"current_range_meters":14000,"station_id":"ce4bhjp2rcd13ifvqg90","pricing_plan_id":"cebpf4jnsgd1na2vs0mg"},{"bike_id":"fcfb0226-b92a-48e1-8109-97d8670e0387","system_id":"levelo_inurba_marseille","lat":43.25928,"lon":5.40913,"is_reserved":false,"is_disabled":false,"rental_uris":{"android":"levelo://app?vid=fcfb0226-b92a-48e1-8109-97d8670e0387","ios":"levelo://app?vid=fcfb0226-b92a-48e1-8109-97d8670e0387"},"vehicle_type_id":"4","last_reported":1742015312,"current_range_meters":14400,"station_id":"ce4bhm92rcd13ifvqglg","pricing_plan_id":"cebpf4jnsgd1na2vs0mg"},{"bike_id":"f0d3291f-33ff-4a36-afc1-5ee1dcf854db","system_id":"levelo_inurba_marseille","lat":43.27055,"lon":5.40259,"is_reserved":false,"is_disabled":false,"rental_uris":{"android":"levelo://app?vid=f0d3291f-33ff-4a36-afc1-5ee1dcf854db","ios":"levelo://app?vid=f0d3291f-33ff-4a36-afc1-5ee1dcf854db"},"vehicle_type_id":"4","last_reported":1742015312,"current_range_meters":14400,"station_id":"ce4bhk92rcd13ifvqgc0","pricing_plan_id":"cebpf4jnsgd1na2vs0mg"},{"bike_id":"dbd2bb0e-ea3e-4793-94a9-4f22a304dc71","system_id":"levelo_inurba_marseille","lat":43.28433,"lon":5.39188,"is_reserved":false,"is_disabled":false,"rental_uris":{"android":"levelo://app?vid=dbd2bb0e-ea3e-4793-94a9-4f22a304dc71","ios":"levelo://app?vid=dbd2bb0e-ea3e-4793-94a9-4f22a304dc71"},"vehicle_type_id":"4","last_reported":1742015312,"current_range_meters":14400,"station_id":"ce4bhoh2rcd13ifvqh5g","pricing_plan_id":"cebpf4jnsgd1na2vs0mg"},{"bike_id":"35170032-9fbd-466b-b080-21388ed7720a","system_id":"levelo_inurba_marseille","lat":43.25082,"lon":5.39521,"is_reserved":false,"is_disabled":false,"rental_uris":{"android":"levelo://app?vid=35170032-9fbd-466b-b080-21388ed7720a","ios":"levelo://app?vid=35170032-9fbd-466b-b080-21388ed7720a"},"vehicle_type_id":"4","last_reported":1742015312,"current_range_meters":14800,"station_id":"ce4bhm12rcd13ifvqgkg","pricing_plan_id":"cebpf4jnsgd1na2vs0mg"},{"bike_id":"412b9149-277a-4815-8fa9-3e7a792a0332","system_id":"levelo_inurba_marseille","lat":43.280772,"lon":5.396498,"is_reserved":false,"is_disabled":false,"rental_uris":{"android":"levelo://app?vid=412b9149-277a-4815-8fa9-3e7a792a0332","ios":"levelo://app?vid=412b9149-277a-4815-8fa9-3e7a792a0332"},"vehicle_type_id":"4","last_reported":1742015312,"current_range_meters":14800,"station_id":"ce4bho12rcd13ifvqh2g","pricing_plan_id":"cebpf4jnsgd1na2vs0mg"},{"bike_id":"608f0462-484e-441f-9837-82475dce48ee","system_id":"levelo_inurba_marseille","lat":43.2991,"lon":5.43675,"is_reserved":false,"is_disabled":false,"rental_uris":{"android":"levelo://app?vid=608f0462-484e-441f-9837-82475dce48ee","ios":"levelo://app?vid=608f0462-484e-441f-9837-82475dce48ee"},"vehicle_type_id":"4","last_reported":1742015312,"current_range_meters":14800,"station_id":"ce4bhpp2rcd13ifvqhfg","pricing_plan_id":"cebpf4jnsgd1na2vs0mg"},{"bike_id":"67ba5532-a4de-45d0-bd2d-aa06a7264fb6","system_id":"levelo_inurba_marseille","lat":43.308849,"lon":5.37194,"is_reserved":false,"is_disabled":false,"rental_uris":{"android":"levelo://app?vid=67ba5532-a4de-45d0-bd2d-aa06a7264fb6","ios":"levelo://app?vid=67ba5532-a4de-45d0-bd2d-aa06a7264fb6"},"vehicle_type_id":"4","last_reported":1742015312,"current_range_meters":14800,"station_id":"ce4bguh2rcd13ifvqckg","pricing_plan_id":"cebpf4jnsgd1na2vs0mg"},{"bike_id":"27bac330-d155-49e8-82e6-eb8b69d07d77","system_id":"levelo_inurba_marseille","lat":43.301831,"lon":5.366193,"is_reserved":false,"is_disabled":false,"rental_uris":{"android":"levelo://app?vid=27bac330-d155-49e8-82e6-eb8b69d07d77","ios":"levelo://app?vid=27bac330-d155-49e8-82e6-eb8b69d07d77"},"vehicle_type_id":"4","last_reported":1742015312,"current_range_meters":14800,"station_id":"ce4bgrh2rcd13ifvqc8g","pricing_plan_id":"cebpf4jnsgd1na2vs0mg"},{"bike_id":"11e69b77-91b1-40db-80d5-d5392d177271","system_id":"levelo_inurba_marseille","lat":43.30618,"lon":5.40085,"is_reserved":false,"is_disabled":false,"rental_uris":{"android":"levelo://app?vid=11e69b77-91b1-40db-80d5-d5392d177271","ios":"levelo://app?vid=11e69b77-91b1-40db-80d5-d5392d177271"},"vehicle_type_id":"4","last_reported":1742015312,"current_range_meters":14800,"station_id":"ce4bh112rcd13ifvqda0","pricing_plan_id":"cebpf4jnsgd1na2vs0mg"},{"bike_id":"80655ce2-e639-48c4-a14c-5e9bf0968440","system_id":"levelo_inurba_marseille","lat":43.28835,"lon":5.35848,"is_reserved":false,"is_disabled":false,"rental_uris":{"android":"levelo://app?vid=80655ce2-e639-48c4-a14c-5e9bf0968440","ios":"levelo://app?vid=80655ce2-e639-48c4-a14c-5e9bf0968440"},"vehicle_type_id":"4","last_reported":1742015312,"current_range_meters":15200,"station_id":"ce4bhb12rcd13ifvqem0","pricing_plan_id":"cebpf4jnsgd1na2vs0mg"},{"bike_id":"fc071de1-2cc0-488a-a43e-f8037a5a9a49","system_id":"levelo_inurba_marseille","lat":43.23075,"lon":5.35502,"is_reserved":false,"is_disabled":false,"rental_uris":{"android":"levelo://app?vid=fc071de1-2cc0-488a-a43e-f8037a5a9a49","ios":"levelo://app?vid=fc071de1-2cc0-488a-a43e-f8037a5a9a49"},"vehicle_type_id":"4","last_reported":1742015312,"current_range_meters":15200,"station_id":"cpo3342slgdg3j2ifvpg","pricing_plan_id":"cebpf4jnsgd1na2vs0mg"},{"bike_id":"d751a31e-a518-44cc-8641-315d036d1e06","system_id":"levelo_inurba_marseille","lat":43.29883,"lon":5.39706,"is_reserved":false,"is_disabled":true,"rental_uris":{"android":"levelo://app?vid=d751a31e-a518-44cc-8641-315d036d1e06","ios":"levelo://app?vid=d751a31e-a518-44cc-8641-315d036d1e06"},"vehicle_type_id":"4","last_reported":1742015312,"current_range_meters":15200,"station_id":"ce4bh0h2rcd13ifvqd50","pricing_plan_id":"cebpf4jnsgd1na2vs0mg"},{"bike_id":"f313e511-70a9-4d28-9105-f80f9ce3e50c","system_id":"levelo_inurba_marseille","lat":43.23958,"lon":5.36628,"is_reserved":false,"is_disabled":false,"rental_uris":{"android":"levelo://app?vid=f313e511-70a9-4d28-9105-f80f9ce3e50c","ios":"levelo://app?vid=f313e511-70a9-4d28-9105-f80f9ce3e50c"},"vehicle_type_id":"4","last_reported":1742015312,"current_range_meters":15200,"station_id":"ce4bhi12rcd13ifvqfp0","pricing_plan_id":"cebpf4jnsgd1na2vs0mg"},{"bike_id":"78df367a-4264-4241-a94f-f890135b7404","system_id":"levelo_inurba_marseille","lat":43.3361,"lon":5.41051,"is_reserved":false,"is_disabled":false,"rental_uris":{"android":"levelo://app?vid=78df367a-4264-4241-a94f-f890135b7404","ios":"levelo://app?vid=78df367a-4264-4241-a94f-f890135b7404"},"vehicle_type_id":"4","last_reported":1742015312,"current_range_meters":15200,"station_id":"ce4bhqh2rcd13ifvqhmg","pricing_plan_id":"cebpf4jnsgd1na2vs0mg"},{"bike_id":"a9760b35-77a1-4c48-883c-83d3cc628457","system_id":"levelo_inurba_marseille","lat":43.256,"lon":5.41174,"is_reserved":false,"is_disabled":false,"rental_uris":{"android":"levelo://app?vid=a9760b35-77a1-4c48-883c-83d3cc628457","ios":"levelo://app?vid=a9760b35-77a1-4c48-883c-83d3cc628457"},"vehicle_type_id":"4","last_reported":1742015312,"current_range_meters":16000,"station_id":"ce4bhkp2rcd13ifvqgd0","pricing_plan_id":"cebpf4jnsgd1na2vs0mg"},{"bike_id":"74f2950d-f639-4809-bff2-7e52cd116e06","system_id":"levelo_inurba_marseille","lat":43.231432,"lon":5.437163,"is_reserved":false,"is_disabled":false,"rental_uris":{"android":"levelo://app?vid=74f2950d-f639-4809-bff2-7e52cd116e06","ios":"levelo://app?vid=74f2950d-f639-4809-bff2-7e52cd116e06"},"vehicle_type_id":"4","last_reported":1742015312,"current_range_meters":16000,"station_id":"ce4bhmp2rcd13ifvqgog","pricing_plan_id":"cebpf4jnsgd1na2vs0mg"},{"bike_id":"71b342b8-694b-40d5-99e8-310baf77a970","system_id":"levelo_inurba_marseille","lat":43.230606,"lon":5.354903,"is_reserved":false,"is_disabled":false,"rental_uris":{"android":"levelo://app?vid=71b342b8-694b-40d5-99e8-310baf77a970","ios":"levelo://app?vid=71b342b8-694b-40d5-99e8-310baf77a970"},"vehicle_type_id":"4","last_reported":1742015312,"current_range_meters":16000,"station_id":"cpo3342slgdg3j2ifvpg","pricing_plan_id":"cebpf4jnsgd1na2vs0mg"},{"bike_id":"90c707aa-0edc-4e94-a911-252e6bd4d4c2","system_id":"levelo_inurba_marseille","lat":43.28612,"lon":5.35125,"is_reserved":false,"is_disabled":false,"rental_uris":{"android":"levelo://app?vid=90c707aa-0edc-4e94-a911-252e6bd4d4c2","ios":"levelo://app?vid=90c707aa-0edc-4e94-a911-252e6bd4d4c2"},"vehicle_type_id":"4","last_reported":1742015312,"current_range_meters":16000,"station_id":"ce4bhch2rcd13ifvqeug","pricing_plan_id":"cebpf4jnsgd1na2vs0mg"},{"bike_id":"d1f25e26-48ee-4930-af45-d768aa3e1000","system_id":"levelo_inurba_marseille","lat":43.26954,"lon":5.38643,"is_reserved":false,"is_disabled":false,"rental_uris":{"android":"levelo://app?vid=d1f25e26-48ee-4930-af45-d768aa3e1000","ios":"levelo://app?vid=d1f25e26-48ee-4930-af45-d768aa3e1000"},"vehicle_type_id":"4","last_reported":1742015312,"current_range_meters":16000,"station_id":"ce4bhh92rcd13ifvqfh0","pricing_plan_id":"cebpf4jnsgd1na2vs0mg"},{"bike_id":"9bedb5e4-4d9a-4082-9f39-f9e9277ed09c","system_id":"levelo_inurba_marseille","lat":43.292325,"lon":5.428309,"is_reserved":false,"is_disabled":false,"rental_uris":{"android":"levelo://app?vid=9bedb5e4-4d9a-4082-9f39-f9e9277ed09c","ios":"levelo://app?vid=9bedb5e4-4d9a-4082-9f39-f9e9277ed09c"},"vehicle_type_id":"4","last_reported":1742015312,"current_range_meters":16000,"station_id":"","pricing_plan_id":"cebpf4jnsgd1na2vs0mg"},{"bike_id":"246a7c92-d175-4429-80ae-4fc7e5491571","system_id":"levelo_inurba_marseille","lat":43.30513,"lon":5.36704,"is_reserved":false,"is_disabled":false,"rental_uris":{"android":"levelo://app?vid=246a7c92-d175-4429-80ae-4fc7e5491571","ios":"levelo://app?vid=246a7c92-d175-4429-80ae-4fc7e5491571"},"vehicle_type_id":"4","last_reported":1742015312,"current_range_meters":16000,"station_id":"ce4bgrp2rcd13ifvqc9g","pricing_plan_id":"cebpf4jnsgd1na2vs0mg"},{"bike_id":"c69a0189-c69b-46b7-bf01-ed8fa65f4cbc","system_id":"levelo_inurba_marseille","lat":43.29003,"lon":5.35609,"is_reserved":false,"is_disabled":false,"rental_uris":{"android":"levelo://app?vid=c69a0189-c69b-46b7-bf01-ed8fa65f4cbc","ios":"levelo://app?vid=c69a0189-c69b-46b7-bf01-ed8fa65f4cbc"},"vehicle_type_id":"4","last_reported":1742015312,"current_range_meters":16000,"station_id":"ce4bhb92rcd13ifvqen0","pricing_plan_id":"cebpf4jnsgd1na2vs0mg"},{"bike_id":"8dee89b1-f251-449e-a212-f0a0e46943ef","system_id":"levelo_inurba_marseille","lat":43.27617,"lon":5.36121,"is_reserved":false,"is_disabled":false,"rental_uris":{"android":"levelo://app?vid=8dee89b1-f251-449e-a212-f0a0e46943ef","ios":"levelo://app?vid=8dee89b1-f251-449e-a212-f0a0e46943ef"},"vehicle_type_id":"4","last_reported":1742015312,"current_range_meters":16000,"station_id":"ce4bgj92rcd13ifvqbe0","pricing_plan_id":"cebpf4jnsgd1na2vs0mg"},{"bike_id":"e1bc5517-89cc-4fbd-afdb-e8d3c61b8e55","system_id":"levelo_inurba_marseille","lat":43.323611,"lon":5.367574,"is_reserved":false,"is_disabled":false,"rental_uris":{"android":"levelo://app?vid=e1bc5517-89cc-4fbd-afdb-e8d3c61b8e55","ios":"levelo://app?vid=e1bc5517-89cc-4fbd-afdb-e8d3c61b8e55"},"vehicle_type_id":"4","last_reported":1742015312,"current_range_meters":16000,"station_id":"ce4bhsh2rcd13ifvqi2g","pricing_plan_id":"cebpf4jnsgd1na2vs0mg"},{"bike_id":"e056e6b6-6680-4fc7-b2ee-2dca251ca582","system_id":"levelo_inurba_marseille","lat":43.265543,"lon":5.390309,"is_reserved":false,"is_disabled":false,"rental_uris":{"android":"levelo://app?vid=e056e6b6-6680-4fc7-b2ee-2dca251ca582","ios":"levelo://app?vid=e056e6b6-6680-4fc7-b2ee-2dca251ca582"},"vehicle_type_id":"4","last_reported":1742015312,"current_range_meters":16000,"station_id":"ce4bhe12rcd13ifvqf30","pricing_plan_id":"cebpf4jnsgd1na2vs0mg"},{"bike_id":"3a65fa45-5962-4cce-a684-326978fd9e02","system_id":"levelo_inurba_marseille","lat":43.27058,"lon":5.42297,"is_reserved":false,"is_disabled":false,"rental_uris":{"android":"levelo://app?vid=3a65fa45-5962-4cce-a684-326978fd9e02","ios":"levelo://app?vid=3a65fa45-5962-4cce-a684-326978fd9e02"},"vehicle_type_id":"4","last_reported":1742015312,"current_range_meters":16000,"station_id":"ce4bhk92rcd13ifvqgb0","pricing_plan_id":"cebpf4jnsgd1na2vs0mg"},{"bike_id":"3a89315b-62de-4a2c-a0ba-c40dd86a913d","system_id":"levelo_inurba_marseille","lat":43.27038,"lon":5.40207,"is_reserved":false,"is_disabled":false,"rental_uris":{"android":"levelo://app?vid=3a89315b-62de-4a2c-a0ba-c40dd86a913d","ios":"levelo://app?vid=3a89315b-62de-4a2c-a0ba-c40dd86a913d"},"vehicle_type_id":"4","last_reported":1742015312,"current_range_meters":16000,"station_id":"ce4bhk92rcd13ifvqgc0","pricing_plan_id":"cebpf4jnsgd1na2vs0mg"},{"bike_id":"6850f114-f664-4675-ae66-935c99a0db8e","system_id":"levelo_inurba_marseille","lat":43.2706,"lon":5.40245,"is_reserved":false,"is_disabled":false,"rental_uris":{"android":"levelo://app?vid=6850f114-f664-4675-ae66-935c99a0db8e","ios":"levelo://app?vid=6850f114-f664-4675-ae66-935c99a0db8e"},"vehicle_type_id":"4","last_reported":1742015312,"current_range_meters":16400,"station_id":"ce4bhk92rcd13ifvqgc0","pricing_plan_id":"cebpf4jnsgd1na2vs0mg"},{"bike_id":"013ced06-6d05-49d1-9ddf-da80dc2a951b","system_id":"levelo_inurba_marseille","lat":43.2668,"lon":5.38275,"is_reserved":false,"is_disabled":false,"rental_uris":{"android":"levelo://app?vid=013ced06-6d05-49d1-9ddf-da80dc2a951b","ios":"levelo://app?vid=013ced06-6d05-49d1-9ddf-da80dc2a951b"},"vehicle_type_id":"4","last_reported":1742015312,"current_range_meters":16400,"station_id":"ce4bhg92rcd13ifvqf90","pricing_plan_id":"cebpf4jnsgd1na2vs0mg"},{"bike_id":"d6c1e643-2051-4138-a9f8-7f38af5902dd","system_id":"levelo_inurba_marseille","lat":43.30614,"lon":5.40133,"is_reserved":false,"is_disabled":false,"rental_uris":{"android":"levelo://app?vid=d6c1e643-2051-4138-a9f8-7f38af5902dd","ios":"levelo://app?vid=d6c1e643-2051-4138-a9f8-7f38af5902dd"},"vehicle_type_id":"4","last_reported":1742015312,"current_range_meters":16400,"station_id":"ce4bh112rcd13ifvqda0","pricing_plan_id":"cebpf4jnsgd1na2vs0mg"},{"bike_id":"f238c0df-d3c9-4577-a186-a5d3f05e229a","system_id":"levelo_inurba_marseille","lat":43.25831,"lon":5.39458,"is_reserved":false,"is_disabled":false,"rental_uris":{"android":"levelo://app?vid=f238c0df-d3c9-4577-a186-a5d3f05e229a","ios":"levelo://app?vid=f238c0df-d3c9-4577-a186-a5d3f05e229a"},"vehicle_type_id":"4","last_reported":1742015312,"current_range_meters":16400,"station_id":"ce4bhip2rcd13ifvqft0","pricing_plan_id":"cebpf4jnsgd1na2vs0mg"},{"bike_id":"df2bd365-182b-4a07-b573-1593f98b410a","system_id":"levelo_inurba_marseille","lat":43.287269,"lon":5.360962,"is_reserved":false,"is_disabled":true,"rental_uris":{"android":"levelo://app?vid=df2bd365-182b-4a07-b573-1593f98b410a","ios":"levelo://app?vid=df2bd365-182b-4a07-b573-1593f98b410a"},"vehicle_type_id":"4","last_reported":1742015312,"current_range_meters":16400,"station_id":"cki0cbj6b192h4jlfktg","pricing_plan_id":"cebpf4jnsgd1na2vs0mg"},{"bike_id":"6d5422c4-452b-4208-b974-1d563a8e9da3","system_id":"levelo_inurba_marseille","lat":43.24165,"lon":5.39726,"is_reserved":false,"is_disabled":false,"rental_uris":{"android":"levelo://app?vid=6d5422c4-452b-4208-b974-1d563a8e9da3","ios":"levelo://app?vid=6d5422c4-452b-4208-b974-1d563a8e9da3"},"vehicle_type_id":"4","last_reported":1742015312,"current_range_meters":16400,"station_id":"ce4bhn12rcd13ifvqgpg","pricing_plan_id":"cebpf4jnsgd1na2vs0mg"},{"bike_id":"11026308-9cf0-4bf7-9745-a609e69eb26b","system_id":"levelo_inurba_marseille","lat":43.28449,"lon":5.3918,"is_reserved":false,"is_disabled":false,"rental_uris":{"android":"levelo://app?vid=11026308-9cf0-4bf7-9745-a609e69eb26b","ios":"levelo://app?vid=11026308-9cf0-4bf7-9745-a609e69eb26b"},"vehicle_type_id":"4","last_reported":1742015312,"current_range_meters":16400,"station_id":"ce4bhoh2rcd13ifvqh5g","pricing_plan_id":"cebpf4jnsgd1na2vs0mg"},{"bike_id":"d20b1ea1-68d8-4d84-b2b2-7af425a1c02d","system_id":"levelo_inurba_marseille","lat":43.269401,"lon":5.402466,"is_reserved":false,"is_disabled":false,"rental_uris":{"android":"levelo://app?vid=d20b1ea1-68d8-4d84-b2b2-7af425a1c02d","ios":"levelo://app?vid=d20b1ea1-68d8-4d84-b2b2-7af425a1c02d"},"vehicle_type_id":"4","last_reported":1742015312,"current_range_meters":16400,"station_id":"cjm6bp8fraef2m0cb0m0","pricing_plan_id":"cebpf4jnsgd1na2vs0mg"},{"bike_id":"530dcf3f-baa5-4f42-b9c7-b4b5afe3c2c8","system_id":"levelo_inurba_marseille","lat":43.30312,"lon":5.40458,"is_reserved":false,"is_disabled":false,"rental_uris":{"android":"levelo://app?vid=530dcf3f-baa5-4f42-b9c7-b4b5afe3c2c8","ios":"levelo://app?vid=530dcf3f-baa5-4f42-b9c7-b4b5afe3c2c8"},"vehicle_type_id":"4","last_reported":1742015312,"current_range_meters":16400,"station_id":"ce4bh012rcd13ifvqd10","pricing_plan_id":"cebpf4jnsgd1na2vs0mg"},{"bike_id":"63260076-f22b-4dff-83b6-e36d9ff67968","system_id":"levelo_inurba_marseille","lat":43.25715,"lon":5.41125,"is_reserved":false,"is_disabled":false,"rental_uris":{"android":"levelo://app?vid=63260076-f22b-4dff-83b6-e36d9ff67968","ios":"levelo://app?vid=63260076-f22b-4dff-83b6-e36d9ff67968"},"vehicle_type_id":"4","last_reported":1742015312,"current_range_meters":16400,"station_id":"ce4bhkp2rcd13ifvqgd0","pricing_plan_id":"cebpf4jnsgd1na2vs0mg"},{"bike_id":"efa182c5-e8bb-4316-9ac4-4d06270b10d4","system_id":"levelo_inurba_marseille","lat":43.32366,"lon":5.38897,"is_reserved":false,"is_disabled":false,"rental_uris":{"android":"levelo://app?vid=efa182c5-e8bb-4316-9ac4-4d06270b10d4","ios":"levelo://app?vid=efa182c5-e8bb-4316-9ac4-4d06270b10d4"},"vehicle_type_id":"4","last_reported":1742015312,"current_range_meters":16400,"station_id":"ce4bhqp2rcd13ifvqhog","pricing_plan_id":"cebpf4jnsgd1na2vs0mg"},{"bike_id":"f0bca22f-e209-4fd9-b311-4c3b7896a530","system_id":"levelo_inurba_marseille","lat":43.298049,"lon":5.403969,"is_reserved":false,"is_disabled":false,"rental_uris":{"android":"levelo://app?vid=f0bca22f-e209-4fd9-b311-4c3b7896a530","ios":"levelo://app?vid=f0bca22f-e209-4fd9-b311-4c3b7896a530"},"vehicle_type_id":"4","last_reported":1742015312,"current_range_meters":16400,"station_id":"ce4bh112rcd13ifvqd90","pricing_plan_id":"cebpf4jnsgd1na2vs0mg"},{"bike_id":"57281445-aacc-4c77-b9a9-f9307451f32e","system_id":"levelo_inurba_marseille","lat":43.25873,"lon":5.39912,"is_reserved":false,"is_disabled":false,"rental_uris":{"android":"levelo://app?vid=57281445-aacc-4c77-b9a9-f9307451f32e","ios":"levelo://app?vid=57281445-aacc-4c77-b9a9-f9307451f32e"},"vehicle_type_id":"4","last_reported":1742015312,"current_range_meters":16800,"station_id":"ce4bhl92rcd13ifvqghg","pricing_plan_id":"cebpf4jnsgd1na2vs0mg"},{"bike_id":"d223b888-8aed-43c6-a393-ac1852419085","system_id":"levelo_inurba_marseille","lat":43.28459,"lon":5.35896,"is_reserved":false,"is_disabled":false,"rental_uris":{"android":"levelo://app?vid=d223b888-8aed-43c6-a393-ac1852419085","ios":"levelo://app?vid=d223b888-8aed-43c6-a393-ac1852419085"},"vehicle_type_id":"4","last_reported":1742015312,"current_range_meters":16800,"station_id":"ce4bhah2rcd13ifvqei0","pricing_plan_id":"cebpf4jnsgd1na2vs0mg"},{"bike_id":"ed968fdb-84da-4c7e-9e7e-2ee0ac6d6123","system_id":"levelo_inurba_marseille","lat":43.28084,"lon":5.39643,"is_reserved":false,"is_disabled":false,"rental_uris":{"android":"levelo://app?vid=ed968fdb-84da-4c7e-9e7e-2ee0ac6d6123","ios":"levelo://app?vid=ed968fdb-84da-4c7e-9e7e-2ee0ac6d6123"},"vehicle_type_id":"4","last_reported":1742015312,"current_range_meters":16800,"station_id":"ce4bho12rcd13ifvqh2g","pricing_plan_id":"cebpf4jnsgd1na2vs0mg"},{"bike_id":"76dc6b54-d734-46aa-a193-49b39ec79b75","system_id":"levelo_inurba_marseille","lat":43.33711,"lon":5.39214,"is_reserved":false,"is_disabled":false,"rental_uris":{"android":"levelo://app?vid=76dc6b54-d734-46aa-a193-49b39ec79b75","ios":"levelo://app?vid=76dc6b54-d734-46aa-a193-49b39ec79b75"},"vehicle_type_id":"4","last_reported":1742015312,"current_range_meters":16800,"station_id":"ce4bhr92rcd13ifvqhsg","pricing_plan_id":"cebpf4jnsgd1na2vs0mg"},{"bike_id":"2e11829c-c539-4249-a99d-d72cb2a8e369","system_id":"levelo_inurba_marseille","lat":43.288594,"lon":5.358494,"is_reserved":false,"is_disabled":false,"rental_uris":{"android":"levelo://app?vid=2e11829c-c539-4249-a99d-d72cb2a8e369","ios":"levelo://app?vid=2e11829c-c539-4249-a99d-d72cb2a8e369"},"vehicle_type_id":"4","last_reported":1742015312,"current_range_meters":16800,"station_id":"ce4bhb12rcd13ifvqem0","pricing_plan_id":"cebpf4jnsgd1na2vs0mg"},{"bike_id":"3211dbf9-b186-4905-8464-44c5efcdf2b4","system_id":"levelo_inurba_marseille","lat":43.30207,"lon":5.3659,"is_reserved":false,"is_disabled":false,"rental_uris":{"android":"levelo://app?vid=3211dbf9-b186-4905-8464-44c5efcdf2b4","ios":"levelo://app?vid=3211dbf9-b186-4905-8464-44c5efcdf2b4"},"vehicle_type_id":"4","last_reported":1742015312,"current_range_meters":16800,"station_id":"ce4bgrh2rcd13ifvqc8g","pricing_plan_id":"cebpf4jnsgd1na2vs0mg"},{"bike_id":"f709cb7e-4bd4-4503-ab85-447b0bd380b5","system_id":"levelo_inurba_marseille","lat":43.323621,"lon":5.388886,"is_reserved":false,"is_disabled":false,"rental_uris":{"android":"levelo://app?vid=f709cb7e-4bd4-4503-ab85-447b0bd380b5","ios":"levelo://app?vid=f709cb7e-4bd4-4503-ab85-447b0bd380b5"},"vehicle_type_id":"4","last_reported":1742015312,"current_range_meters":16800,"station_id":"ce4bhqp2rcd13ifvqhog","pricing_plan_id":"cebpf4jnsgd1na2vs0mg"},{"bike_id":"27917686-aba1-488b-b3e7-822f5af18ee3","system_id":"levelo_inurba_marseille","lat":43.30373,"lon":5.41902,"is_reserved":false,"is_disabled":false,"rental_uris":{"android":"levelo://app?vid=27917686-aba1-488b-b3e7-822f5af18ee3","ios":"levelo://app?vid=27917686-aba1-488b-b3e7-822f5af18ee3"},"vehicle_type_id":"4","last_reported":1742015312,"current_range_meters":16800,"station_id":"ce4bhop2rcd13ifvqh7g","pricing_plan_id":"cebpf4jnsgd1na2vs0mg"},{"bike_id":"7a5448e8-621b-4d0e-aa96-a6370c3a87df","system_id":"levelo_inurba_marseille","lat":43.32036,"lon":5.41545,"is_reserved":false,"is_disabled":false,"rental_uris":{"android":"levelo://app?vid=7a5448e8-621b-4d0e-aa96-a6370c3a87df","ios":"levelo://app?vid=7a5448e8-621b-4d0e-aa96-a6370c3a87df"},"vehicle_type_id":"4","last_reported":1742015312,"current_range_meters":16800,"station_id":"ce4bhq92rcd13ifvqhkg","pricing_plan_id":"cebpf4jnsgd1na2vs0mg"},{"bike_id":"d60d57fc-1fb2-4fe1-a1a3-7107d28e8c63","system_id":"levelo_inurba_marseille","lat":43.326645,"lon":5.409854,"is_reserved":false,"is_disabled":false,"rental_uris":{"android":"levelo://app?vid=d60d57fc-1fb2-4fe1-a1a3-7107d28e8c63","ios":"levelo://app?vid=d60d57fc-1fb2-4fe1-a1a3-7107d28e8c63"},"vehicle_type_id":"4","last_reported":1742015312,"current_range_meters":16800,"station_id":"ce4bhpp2rcd13ifvqhgg","pricing_plan_id":"cebpf4jnsgd1na2vs0mg"},{"bike_id":"ca30e0f8-8ed0-4c1d-9246-84693ab5484e","system_id":"levelo_inurba_marseille","lat":43.338368,"lon":5.406828,"is_reserved":false,"is_disabled":false,"rental_uris":{"android":"levelo://app?vid=ca30e0f8-8ed0-4c1d-9246-84693ab5484e","ios":"levelo://app?vid=ca30e0f8-8ed0-4c1d-9246-84693ab5484e"},"vehicle_type_id":"4","last_reported":1742015312,"current_range_meters":17200,"station_id":"ce4bhqh2rcd13ifvqhmg","pricing_plan_id":"cebpf4jnsgd1na2vs0mg"},{"bike_id":"9dd6cc25-dfe0-469f-88d2-6f805756b4c9","system_id":"levelo_inurba_marseille","lat":43.286595,"lon":5.363645,"is_reserved":false,"is_disabled":false,"rental_uris":{"android":"levelo://app?vid=9dd6cc25-dfe0-469f-88d2-6f805756b4c9","ios":"levelo://app?vid=9dd6cc25-dfe0-469f-88d2-6f805756b4c9"},"vehicle_type_id":"4","last_reported":1742015312,"current_range_meters":17200,"station_id":"ce4bhah2rcd13ifvqej0","pricing_plan_id":"cebpf4jnsgd1na2vs0mg"},{"bike_id":"4a7756d7-96b4-4244-8589-0d6472a05729","system_id":"levelo_inurba_marseille","lat":43.27827,"lon":5.39196,"is_reserved":false,"is_disabled":false,"rental_uris":{"android":"levelo://app?vid=4a7756d7-96b4-4244-8589-0d6472a05729","ios":"levelo://app?vid=4a7756d7-96b4-4244-8589-0d6472a05729"},"vehicle_type_id":"4","last_reported":1742015312,"current_range_meters":17200,"station_id":"ce4bhjp2rcd13ifvqga0","pricing_plan_id":"cebpf4jnsgd1na2vs0mg"},{"bike_id":"642d5ba0-f707-4aa5-abbf-944400c409b6","system_id":"levelo_inurba_marseille","lat":43.27642,"lon":5.36043,"is_reserved":false,"is_disabled":false,"rental_uris":{"android":"levelo://app?vid=642d5ba0-f707-4aa5-abbf-944400c409b6","ios":"levelo://app?vid=642d5ba0-f707-4aa5-abbf-944400c409b6"},"vehicle_type_id":"4","last_reported":1742015312,"current_range_meters":17200,"station_id":"","pricing_plan_id":"cebpf4jnsgd1na2vs0mg"},{"bike_id":"9a5586ef-f94a-4961-9b21-b744a4966d34","system_id":"levelo_inurba_marseille","lat":43.28854,"lon":5.39301,"is_reserved":false,"is_disabled":false,"rental_uris":{"android":"levelo://app?vid=9a5586ef-f94a-4961-9b21-b744a4966d34","ios":"levelo://app?vid=9a5586ef-f94a-4961-9b21-b744a4966d34"},"vehicle_type_id":"4","last_reported":1742015312,"current_range_meters":16800,"station_id":"ce4bh2p2rcd13ifvqdi0","pricing_plan_id":"cebpf4jnsgd1na2vs0mg"},{"bike_id":"4d20b878-6603-4328-ab6e-4a7ae0b08224","system_id":"levelo_inurba_marseille","lat":43.25926,"lon":5.40917,"is_reserved":false,"is_disabled":false,"rental_uris":{"android":"levelo://app?vid=4d20b878-6603-4328-ab6e-4a7ae0b08224","ios":"levelo://app?vid=4d20b878-6603-4328-ab6e-4a7ae0b08224"},"vehicle_type_id":"4","last_reported":1742015312,"current_range_meters":17200,"station_id":"ce4bhm92rcd13ifvqglg","pricing_plan_id":"cebpf4jnsgd1na2vs0mg"},{"bike_id":"7dd4a40a-db81-4bf8-a2fc-1ffac8f37535","system_id":"levelo_inurba_marseille","lat":43.25111,"lon":5.40337,"is_reserved":false,"is_disabled":false,"rental_uris":{"android":"levelo://app?vid=7dd4a40a-db81-4bf8-a2fc-1ffac8f37535","ios":"levelo://app?vid=7dd4a40a-db81-4bf8-a2fc-1ffac8f37535"},"vehicle_type_id":"4","last_reported":1742015312,"current_range_meters":17200,"station_id":"ce4bhn12rcd13ifvqgqg","pricing_plan_id":"cebpf4jnsgd1na2vs0mg"},{"bike_id":"96744a18-3316-43e0-9153-7a6032ab1b09","system_id":"levelo_inurba_marseille","lat":43.25009,"lon":5.38918,"is_reserved":false,"is_disabled":false,"rental_uris":{"android":"levelo://app?vid=96744a18-3316-43e0-9153-7a6032ab1b09","ios":"levelo://app?vid=96744a18-3316-43e0-9153-7a6032ab1b09"},"vehicle_type_id":"4","last_reported":1742015312,"current_range_meters":17200,"station_id":"ce4bhgp2rcd13ifvqfd0","pricing_plan_id":"cebpf4jnsgd1na2vs0mg"},{"bike_id":"b89eb48b-e97b-4abf-8014-42ec3603d979","system_id":"levelo_inurba_marseille","lat":43.262251,"lon":5.404512,"is_reserved":false,"is_disabled":false,"rental_uris":{"android":"levelo://app?vid=b89eb48b-e97b-4abf-8014-42ec3603d979","ios":"levelo://app?vid=b89eb48b-e97b-4abf-8014-42ec3603d979"},"vehicle_type_id":"4","last_reported":1742015312,"current_range_meters":17200,"station_id":"ce4bhmh2rcd13ifvqgmg","pricing_plan_id":"cebpf4jnsgd1na2vs0mg"},{"bike_id":"37d6b6b3-c485-4987-9bc5-8406395f6e1a","system_id":"levelo_inurba_marseille","lat":43.26694,"lon":5.38249,"is_reserved":false,"is_disabled":false,"rental_uris":{"android":"levelo://app?vid=37d6b6b3-c485-4987-9bc5-8406395f6e1a","ios":"levelo://app?vid=37d6b6b3-c485-4987-9bc5-8406395f6e1a"},"vehicle_type_id":"4","last_reported":1742015312,"current_range_meters":17200,"station_id":"ce4bhg92rcd13ifvqf90","pricing_plan_id":"cebpf4jnsgd1na2vs0mg"},{"bike_id":"a5d25e73-30c5-40b5-8d7e-865df923e9a1","system_id":"levelo_inurba_marseille","lat":43.30315,"lon":5.40449,"is_reserved":false,"is_disabled":false,"rental_uris":{"android":"levelo://app?vid=a5d25e73-30c5-40b5-8d7e-865df923e9a1","ios":"levelo://app?vid=a5d25e73-30c5-40b5-8d7e-865df923e9a1"},"vehicle_type_id":"4","last_reported":1742015312,"current_range_meters":17200,"station_id":"ce4bh012rcd13ifvqd10","pricing_plan_id":"cebpf4jnsgd1na2vs0mg"},{"bike_id":"672d046d-745f-4e9b-a4af-0b7b09b8f5ce","system_id":"levelo_inurba_marseille","lat":43.323626,"lon":5.388833,"is_reserved":false,"is_disabled":false,"rental_uris":{"android":"levelo://app?vid=672d046d-745f-4e9b-a4af-0b7b09b8f5ce","ios":"levelo://app?vid=672d046d-745f-4e9b-a4af-0b7b09b8f5ce"},"vehicle_type_id":"4","last_reported":1742015312,"current_range_meters":17200,"station_id":"ce4bhqp2rcd13ifvqhog","pricing_plan_id":"cebpf4jnsgd1na2vs0mg"},{"bike_id":"0fe4f308-8db0-40a3-8e56-44b5cee54b31","system_id":"levelo_inurba_marseille","lat":43.28706,"lon":5.39996,"is_reserved":false,"is_disabled":false,"rental_uris":{"android":"levelo://app?vid=0fe4f308-8db0-40a3-8e56-44b5cee54b31","ios":"levelo://app?vid=0fe4f308-8db0-40a3-8e56-44b5cee54b31"},"vehicle_type_id":"4","last_reported":1742015312,"current_range_meters":17200,"station_id":"ce4bho92rcd13ifvqh3g","pricing_plan_id":"cebpf4jnsgd1na2vs0mg"},{"bike_id":"8527826e-88f1-4362-ae49-a2d988939265","system_id":"levelo_inurba_marseille","lat":43.27616,"lon":5.36114,"is_reserved":false,"is_disabled":false,"rental_uris":{"android":"levelo://app?vid=8527826e-88f1-4362-ae49-a2d988939265","ios":"levelo://app?vid=8527826e-88f1-4362-ae49-a2d988939265"},"vehicle_type_id":"4","last_reported":1742015312,"current_range_meters":17600,"station_id":"ce4bgj92rcd13ifvqbe0","pricing_plan_id":"cebpf4jnsgd1na2vs0mg"},{"bike_id":"56a1a9c3-61fd-4176-bcc9-d053f72749d0","system_id":"levelo_inurba_marseille","lat":43.28263,"lon":5.35077,"is_reserved":false,"is_disabled":false,"rental_uris":{"android":"levelo://app?vid=56a1a9c3-61fd-4176-bcc9-d053f72749d0","ios":"levelo://app?vid=56a1a9c3-61fd-4176-bcc9-d053f72749d0"},"vehicle_type_id":"4","last_reported":1742015312,"current_range_meters":17600,"station_id":"ce4bhbp2rcd13ifvqerg","pricing_plan_id":"cebpf4jnsgd1na2vs0mg"},{"bike_id":"9a3cb0f7-f00b-44d2-a6f8-46ee1a43208e","system_id":"levelo_inurba_marseille","lat":43.30519,"lon":5.36707,"is_reserved":false,"is_disabled":false,"rental_uris":{"android":"levelo://app?vid=9a3cb0f7-f00b-44d2-a6f8-46ee1a43208e","ios":"levelo://app?vid=9a3cb0f7-f00b-44d2-a6f8-46ee1a43208e"},"vehicle_type_id":"4","last_reported":1742015312,"current_range_meters":17200,"station_id":"ce4bgrp2rcd13ifvqc9g","pricing_plan_id":"cebpf4jnsgd1na2vs0mg"},{"bike_id":"10a5dfbf-3aa3-4cf3-ac17-cd4d12fd6782","system_id":"levelo_inurba_marseille","lat":43.32365,"lon":5.36758,"is_reserved":false,"is_disabled":false,"rental_uris":{"android":"levelo://app?vid=10a5dfbf-3aa3-4cf3-ac17-cd4d12fd6782","ios":"levelo://app?vid=10a5dfbf-3aa3-4cf3-ac17-cd4d12fd6782"},"vehicle_type_id":"4","last_reported":1742015312,"current_range_meters":17600,"station_id":"ce4bhsh2rcd13ifvqi2g","pricing_plan_id":"cebpf4jnsgd1na2vs0mg"},{"bike_id":"2ff4138e-8b86-413b-bb24-afd5e55fff4f","system_id":"levelo_inurba_marseille","lat":43.28478,"lon":5.35922,"is_reserved":false,"is_disabled":false,"rental_uris":{"android":"levelo://app?vid=2ff4138e-8b86-413b-bb24-afd5e55fff4f","ios":"levelo://app?vid=2ff4138e-8b86-413b-bb24-afd5e55fff4f"},"vehicle_type_id":"4","last_reported":1742015312,"current_range_meters":17600,"station_id":"ce4bhah2rcd13ifvqei0","pricing_plan_id":"cebpf4jnsgd1na2vs0mg"},{"bike_id":"63de112b-8926-44ae-b37e-c65a7c89f888","system_id":"levelo_inurba_marseille","lat":43.30871,"lon":5.39689,"is_reserved":false,"is_disabled":false,"rental_uris":{"android":"levelo://app?vid=63de112b-8926-44ae-b37e-c65a7c89f888","ios":"levelo://app?vid=63de112b-8926-44ae-b37e-c65a7c89f888"},"vehicle_type_id":"4","last_reported":1742015312,"current_range_meters":17600,"station_id":"ce4bh012rcd13ifvqcv0","pricing_plan_id":"cebpf4jnsgd1na2vs0mg"},{"bike_id":"7099c38a-2986-4dc9-9398-307b562f7d30","system_id":"levelo_inurba_marseille","lat":43.25941,"lon":5.40896,"is_reserved":false,"is_disabled":false,"rental_uris":{"android":"levelo://app?vid=7099c38a-2986-4dc9-9398-307b562f7d30","ios":"levelo://app?vid=7099c38a-2986-4dc9-9398-307b562f7d30"},"vehicle_type_id":"4","last_reported":1742015312,"current_range_meters":17600,"station_id":"ce4bhm92rcd13ifvqglg","pricing_plan_id":"cebpf4jnsgd1na2vs0mg"},{"bike_id":"e9554909-0abe-4a01-ac30-5e19b4445b23","system_id":"levelo_inurba_marseille","lat":43.32329,"lon":5.38883,"is_reserved":false,"is_disabled":false,"rental_uris":{"android":"levelo://app?vid=e9554909-0abe-4a01-ac30-5e19b4445b23","ios":"levelo://app?vid=e9554909-0abe-4a01-ac30-5e19b4445b23"},"vehicle_type_id":"4","last_reported":1742015312,"current_range_meters":17600,"station_id":"ce4bhqp2rcd13ifvqhog","pricing_plan_id":"cebpf4jnsgd1na2vs0mg"},{"bike_id":"04291597-1f63-422b-8894-848cb7b5856d","system_id":"levelo_inurba_marseille","lat":43.2594,"lon":5.40874,"is_reserved":false,"is_disabled":false,"rental_uris":{"android":"levelo://app?vid=04291597-1f63-422b-8894-848cb7b5856d","ios":"levelo://app?vid=04291597-1f63-422b-8894-848cb7b5856d"},"vehicle_type_id":"4","last_reported":1742015312,"current_range_meters":17600,"station_id":"ce4bhm92rcd13ifvqglg","pricing_plan_id":"cebpf4jnsgd1na2vs0mg"},{"bike_id":"7ede3e1e-f682-40c6-b151-cd6ecef7c811","system_id":"levelo_inurba_marseille","lat":43.240703,"lon":5.377568,"is_reserved":false,"is_disabled":false,"rental_uris":{"android":"levelo://app?vid=7ede3e1e-f682-40c6-b151-cd6ecef7c811","ios":"levelo://app?vid=7ede3e1e-f682-40c6-b151-cd6ecef7c811"},"vehicle_type_id":"4","last_reported":1742015312,"current_range_meters":17600,"station_id":"ce4bhnp2rcd13ifvqgvg","pricing_plan_id":"cebpf4jnsgd1na2vs0mg"},{"bike_id":"75123447-2b69-42e2-be90-9aa99ce954e5","system_id":"levelo_inurba_marseille","lat":43.32349,"lon":5.3891,"is_reserved":false,"is_disabled":false,"rental_uris":{"android":"levelo://app?vid=75123447-2b69-42e2-be90-9aa99ce954e5","ios":"levelo://app?vid=75123447-2b69-42e2-be90-9aa99ce954e5"},"vehicle_type_id":"4","last_reported":1742015312,"current_range_meters":18000,"station_id":"ce4bhqp2rcd13ifvqhog","pricing_plan_id":"cebpf4jnsgd1na2vs0mg"},{"bike_id":"937006d4-256e-4276-90fa-83b260647208","system_id":"levelo_inurba_marseille","lat":43.295849,"lon":5.367473,"is_reserved":false,"is_disabled":false,"rental_uris":{"android":"levelo://app?vid=937006d4-256e-4276-90fa-83b260647208","ios":"levelo://app?vid=937006d4-256e-4276-90fa-83b260647208"},"vehicle_type_id":"4","last_reported":1742015312,"current_range_meters":18000,"station_id":"ce4bgph2rcd13ifvqc2g","pricing_plan_id":"cebpf4jnsgd1na2vs0mg"},{"bike_id":"566e0489-1013-464c-941b-6fbcd4c26340","system_id":"levelo_inurba_marseille","lat":43.32102,"lon":5.3679,"is_reserved":false,"is_disabled":false,"rental_uris":{"android":"levelo://app?vid=566e0489-1013-464c-941b-6fbcd4c26340","ios":"levelo://app?vid=566e0489-1013-464c-941b-6fbcd4c26340"},"vehicle_type_id":"4","last_reported":1742015312,"current_range_meters":18000,"station_id":"ce4bhrh2rcd13ifvqhug","pricing_plan_id":"cebpf4jnsgd1na2vs0mg"},{"bike_id":"b3c1d7c0-4d2e-47b0-8c09-e5f996b8f46f","system_id":"levelo_inurba_marseille","lat":43.28443,"lon":5.3593,"is_reserved":false,"is_disabled":false,"rental_uris":{"android":"levelo://app?vid=b3c1d7c0-4d2e-47b0-8c09-e5f996b8f46f","ios":"levelo://app?vid=b3c1d7c0-4d2e-47b0-8c09-e5f996b8f46f"},"vehicle_type_id":"4","last_reported":1742015312,"current_range_meters":18000,"station_id":"ce4bhah2rcd13ifvqei0","pricing_plan_id":"cebpf4jnsgd1na2vs0mg"},{"bike_id":"bafd57f9-42ca-4d51-b0a0-95f66f340e25","system_id":"levelo_inurba_marseille","lat":43.258304,"lon":5.394282,"is_reserved":false,"is_disabled":false,"rental_uris":{"android":"levelo://app?vid=bafd57f9-42ca-4d51-b0a0-95f66f340e25","ios":"levelo://app?vid=bafd57f9-42ca-4d51-b0a0-95f66f340e25"},"vehicle_type_id":"4","last_reported":1742015312,"current_range_meters":18000,"station_id":"ce4bhip2rcd13ifvqft0","pricing_plan_id":"cebpf4jnsgd1na2vs0mg"},{"bike_id":"8bcf9978-0a0f-4514-b162-723c6b634fa0","system_id":"levelo_inurba_marseille","lat":43.24543,"lon":5.39537,"is_reserved":false,"is_disabled":false,"rental_uris":{"android":"levelo://app?vid=8bcf9978-0a0f-4514-b162-723c6b634fa0","ios":"levelo://app?vid=8bcf9978-0a0f-4514-b162-723c6b634fa0"},"vehicle_type_id":"4","last_reported":1742015312,"current_range_meters":18000,"station_id":"ce4bhlp2rcd13ifvqgjg","pricing_plan_id":"cebpf4jnsgd1na2vs0mg"},{"bike_id":"8338d9e1-4eee-4277-a106-6dfc57c0a24e","system_id":"levelo_inurba_marseille","lat":43.323582,"lon":5.388829,"is_reserved":false,"is_disabled":false,"rental_uris":{"android":"levelo://app?vid=8338d9e1-4eee-4277-a106-6dfc57c0a24e","ios":"levelo://app?vid=8338d9e1-4eee-4277-a106-6dfc57c0a24e"},"vehicle_type_id":"4","last_reported":1742015312,"current_range_meters":18000,"station_id":"ce4bhqp2rcd13ifvqhog","pricing_plan_id":"cebpf4jnsgd1na2vs0mg"},{"bike_id":"5deff3b1-7de0-4233-8bbb-77cee504cc6e","system_id":"levelo_inurba_marseille","lat":43.28609,"lon":5.35008,"is_reserved":false,"is_disabled":false,"rental_uris":{"android":"levelo://app?vid=5deff3b1-7de0-4233-8bbb-77cee504cc6e","ios":"levelo://app?vid=5deff3b1-7de0-4233-8bbb-77cee504cc6e"},"vehicle_type_id":"4","last_reported":1742015312,"current_range_meters":18000,"station_id":"","pricing_plan_id":"cebpf4jnsgd1na2vs0mg"},{"bike_id":"d5919fda-7a40-4419-b77b-8aacbc6ac2b1","system_id":"levelo_inurba_marseille","lat":43.25717,"lon":5.42161,"is_reserved":false,"is_disabled":false,"rental_uris":{"android":"levelo://app?vid=d5919fda-7a40-4419-b77b-8aacbc6ac2b1","ios":"levelo://app?vid=d5919fda-7a40-4419-b77b-8aacbc6ac2b1"},"vehicle_type_id":"4","last_reported":1742015312,"current_range_meters":18000,"station_id":"","pricing_plan_id":"cebpf4jnsgd1na2vs0mg"},{"bike_id":"b3804e0c-7705-4cae-853c-9fc7a017c871","system_id":"levelo_inurba_marseille","lat":43.27616,"lon":5.36118,"is_reserved":false,"is_disabled":false,"rental_uris":{"android":"levelo://app?vid=b3804e0c-7705-4cae-853c-9fc7a017c871","ios":"levelo://app?vid=b3804e0c-7705-4cae-853c-9fc7a017c871"},"vehicle_type_id":"4","last_reported":1742015312,"current_range_meters":18800,"station_id":"ce4bgj92rcd13ifvqbe0","pricing_plan_id":"cebpf4jnsgd1na2vs0mg"},{"bike_id":"985ce29b-c73e-4a46-8bec-a34a0cea9484","system_id":"levelo_inurba_marseille","lat":43.30199,"lon":5.36607,"is_reserved":false,"is_disabled":false,"rental_uris":{"android":"levelo://app?vid=985ce29b-c73e-4a46-8bec-a34a0cea9484","ios":"levelo://app?vid=985ce29b-c73e-4a46-8bec-a34a0cea9484"},"vehicle_type_id":"4","last_reported":1742015312,"current_range_meters":18800,"station_id":"ce4bgrh2rcd13ifvqc8g","pricing_plan_id":"cebpf4jnsgd1na2vs0mg"},