{"last_updated":1700963507,"ttl":30,"version":"2.2","data":{"bikes":[{"bike_id":"a3208e15-00ce-4b8b-924f-13de341e42e5","system_id":"levelo_inurba_marseille","lat":43.31341,"lon":5.367098,"is_reserved":false,"is_disabled":false,"rental_uris":{"android":"levelo://app?vid=a3208e15-00ce-4b8b-924f-13de341e42e5","ios":"levelo://app?vid=a3208e15-00ce-4b8b-924f-13de341e42e5"},"vehicle_type_id":"4","last_reported":1700963508,"current_range_meters":8800,"station_id":"ce4bgr92rcd13ifvqc6g","pricing_plan_id":"free"},{"bike_id":"1be7a314-267b-4c36-b676-668997f729fc","system_id":"levelo_inurba_marseille","lat":43.31341,"lon":5.367098,"is_reserved":false,"is_disabled":false,"rental_uris":{"android":"levelo://app?vid=1be7a314-267b-4c36-b676-668997f729fc","ios":"levelo://app?vid=1be7a314-267b-4c36-b676-668997f729fc"},"vehicle_type_id":"4","last_reported":1700963508,"current_range_meters":31200,"station_id":"ce4bgr92rcd13ifvqc6g","pricing_plan_id":"free"},{"bike_id":"f4fb1d38-2fdd-49ab-829c-fe0d2a83f68c","system_id":"levelo_inurba_marseille","lat":43.31234,"lon":5.36856,"is_reserved":false,"is_disabled":false,"rental_uris":{"android":"levelo://app?vid=f4fb1d38-2fdd-49ab-829c-fe0d2a83f68c","ios":"levelo://app?vid=f4fb1d38-2fdd-49ab-829c-fe0d2a83f68c"},"vehicle_type_id":"4","last_reported":1700963508,"current_range_meters":8400,"station_id":"ce4bgl92rcd13ifvqbq0","pricing_plan_id":"free"},{"bike_id":"f4f9df94-0768-49f6-8b51-9dbccf4a14f5","system_id":"levelo_inurba_marseille","lat":43.31341,"lon":5.367098,"is_reserved":false,"is_disabled":false,"rental_uris":{"android":"levelo://app?vid=f4f9df94-0768-49f6-8b51-9dbccf4a14f5","ios":"levelo://app?vid=f4f9df94-0768-49f6-8b51-9dbccf4a14f5"},"vehicle_type_id":"4","last_reported":1700963508,"current_range_meters":15600,"station_id":"ce4bgr92rcd13ifvqc6g","pricing_plan_id":"free"},{"bike_id":"2c4e2ab4-2bc9-4e71-8e28-b7f9c78b7444","system_id":"levelo_inurba_marseille","lat":43.30579,"lon":5.36576,"is_reserved":false,"is_disabled":false,"rental_uris":{"android":"levelo://app?vid=2c4e2ab4-2bc9-4e71-8e28-b7f9c78b7444","ios":"levelo://app?vid=2c4e2ab4-2bc9-4e71-8e28-b7f9c78b7444"},"vehicle_type_id":"4","last_reported":1700963508,"current_range_meters":1600,"station_id":"","pricing_plan_id":"free"},{"bike_id":"32ea06f7-cda0-4fd2-9fc0-1c134d916134","system_id":"levelo_inurba_marseille","lat":43.305469,"lon":5.365329,"is_reserved":false,"is_disabled":false,"rental_uris":{"android":"levelo://app?vid=32ea06f7-cda0-4fd2-9fc0-1c134d916134","ios":"levelo://app?vid=32ea06f7-cda0-4fd2-9fc0-1c134d916134"},"vehicle_type_id":"4","last_reported":1700963508,"current_range_meters":30400,"station_id":"ce4bgs12rcd13ifvqcag","pricing_plan_id":"free"},{"bike_id":"3b72b69b-8a55-4915-8f56-ef478dd6c754","system_id":"levelo_inurba_marseille","lat":43.30534,"lon":5.36518,"is_reserved":false,"is_disabled":false,"rental_uris":{"android":"levelo://app?vid=3b72b69b-8a55-4915-8f56-ef478dd6c754","ios":"levelo://app?vid=3b72b69b-8a55-4915-8f56-ef478dd6c754"},"vehicle_type_id":"4","last_reported":1700963508,"current_range_meters":28800,"station_id":"ce4bgs12rcd13ifvqcag","pricing_plan_id":"free"},{"bike_id":"be07dfbb-aab2-418f-bbc8-efe97c62d91b","system_id":"levelo_inurba_marseille","lat":43.305989,"lon":5.37225,"is_reserved":false,"is_disabled":false,"rental_uris":{"android":"levelo://app?vid=be07dfbb-aab2-418f-bbc8-efe97c62d91b","ios":"levelo://app?vid=be07dfbb-aab2-418f-bbc8-efe97c62d91b"},"vehicle_type_id":"4","last_reported":1700963508,"current_range_meters":22400,"station_id":"ce4bgqh2rcd13ifvqc4g","pricing_plan_id":"free"},{"bike_id":"74b86f72-5bac-40d3-8697-6e3b66044c95","system_id":"levelo_inurba_marseille","lat":43.306025,"lon":5.372226,"is_reserved":false,"is_disabled":false,"rental_uris":{"android":"levelo://app?vid=74b86f72-5bac-40d3-8697-6e3b66044c95","ios":"levelo://app?vid=74b86f72-5bac-40d3-8697-6e3b66044c95"},"vehicle_type_id":"4","last_reported":1700963508,"current_range_meters":0,"station_id":"ce4bgqh2rcd13ifvqc4g","pricing_plan_id":"free"},{"bike_id":"5bc8bafc-7ec0-4cca-a3a2-21dbcbe6d760","system_id":"levelo_inurba_marseille","lat":43.311193,"lon":5.377657,"is_reserved":false,"is_disabled":false,"rental_uris":{"android":"levelo://app?vid=5bc8bafc-7ec0-4cca-a3a2-21dbcbe6d760","ios":"levelo://app?vid=5bc8bafc-7ec0-4cca-a3a2-21dbcbe6d760"},"vehicle_type_id":"4","last_reported":1700963508,"current_range_meters":3200,"station_id":"ce4bgt92rcd13ifvqcg0","pricing_plan_id":"free"},{"bike_id":"573a870a-b6c4-429d-8587-8103772b84bc","system_id":"levelo_inurba_marseille","lat":43.308221,"lon":5.376685,"is_reserved":false,"is_disabled":false,"rental_uris":{"android":"levelo://app?vid=573a870a-b6c4-429d-8587-8103772b84bc","ios":"levelo://app?vid=573a870a-b6c4-429d-8587-8103772b84bc"},"vehicle_type_id":"4","last_reported":1700963508,"current_range_meters":3200,"station_id":"ce4bgv92rcd13ifvqcq0","pricing_plan_id":"free"},{"bike_id":"f427a2c3-6e4a-446b-ae2f-9be8aa7f4122","system_id":"levelo_inurba_marseille","lat":43.31719,"lon":5.376813,"is_reserved":false,"is_disabled":false,"rental_uris":{"android":"levelo://app?vid=f427a2c3-6e4a-446b-ae2f-9be8aa7f4122","ios":"levelo://app?vid=f427a2c3-6e4a-446b-ae2f-9be8aa7f4122"},"vehicle_type_id":"4","last_reported":1700963508,"current_range_meters":22800,"station_id":"ce4bgth2rcd13ifvqch0","pricing_plan_id":"free"},{"bike_id":"b898b018-f57d-4901-bab2-fdd15d391de9","system_id":"levelo_inurba_marseille","lat":43.317168,"lon":5.376883,"is_reserved":false,"is_disabled":false,"rental_uris":{"android":"levelo://app?vid=b898b018-f57d-4901-bab2-fdd15d391de9","ios":"levelo://app?vid=b898b018-f57d-4901-bab2-fdd15d391de9"},"vehicle_type_id":"4","last_reported":1700963508,"current_range_meters":25200,"station_id":"ce4bgth2rcd13ifvqch0","pricing_plan_id":"free"},{"bike_id":"feabf240-300e-4dde-9bed-c475a4b39eec","system_id":"levelo_inurba_marseille","lat":43.307945,"lon":5.376487,"is_reserved":false,"is_disabled":false,"rental_uris":{"android":"levelo://app?vid=feabf240-300e-4dde-9bed-c475a4b39eec","ios":"levelo://app?vid=feabf240-300e-4dde-9bed-c475a4b39eec"},"vehicle_type_id":"4","last_reported":1700963508,"current_range_meters":18000,"station_id":"ce4bgv92rcd13ifvqcq0","pricing_plan_id":"free"},{"bike_id":"a20c7cfc-9f36-4fab-a1cf-f846b630340f","system_id":"levelo_inurba_marseille","lat":43.317075,"lon":5.377367,"is_reserved":false,"is_disabled":false,"rental_uris":{"android":"levelo://app?vid=a20c7cfc-9f36-4fab-a1cf-f846b630340f","ios":"levelo://app?vid=a20c7cfc-9f36-4fab-a1cf-f846b630340f"},"vehicle_type_id":"4","last_reported":1700963508,"current_range_meters":22400,"station_id":"ce4bgth2rcd13ifvqch0","pricing_plan_id":"free"},{"bike_id":"08db3c7f-c42c-4b60-b1cc-3dc67d08d464","system_id":"levelo_inurba_marseille","lat":43.315333,"lon":5.380264,"is_reserved":false,"is_disabled":false,"rental_uris":{"android":"levelo://app?vid=08db3c7f-c42c-4b60-b1cc-3dc67d08d464","ios":"levelo://app?vid=08db3c7f-c42c-4b60-b1cc-3dc67d08d464"},"vehicle_type_id":"4","last_reported":1700963508,"current_range_meters":24800,"station_id":"ce4bhsp2rcd13ifvqi50","pricing_plan_id":"free"},{"bike_id":"3dd1bd93-5287-4ffc-94aa-addf69396612","system_id":"levelo_inurba_marseille","lat":43.31531,"lon":5.380359,"is_reserved":false,"is_disabled":false,"rental_uris":{"android":"levelo://app?vid=3dd1bd93-5287-4ffc-94aa-addf69396612","ios":"levelo://app?vid=3dd1bd93-5287-4ffc-94aa-addf69396612"},"vehicle_type_id":"4","last_reported":1700963508,"current_range_meters":10800,"station_id":"ce4bhsp2rcd13ifvqi50","pricing_plan_id":"free"},{"bike_id":"17531208-bd07-4eb6-bf1c-ab937c5ca51c","system_id":"levelo_inurba_marseille","lat":43.308012,"lon":5.381511,"is_reserved":false,"is_disabled":false,"rental_uris":{"android":"levelo://app?vid=17531208-bd07-4eb6-bf1c-ab937c5ca51c","ios":"levelo://app?vid=17531208-bd07-4eb6-bf1c-ab937c5ca51c"},"vehicle_type_id":"4","last_reported":1700963508,"current_range_meters":6400,"station_id":"ce4bgt12rcd13ifvqce0","pricing_plan_id":"free"},{"bike_id":"5a4496c1-9b99-43e7-b842-31a30322b19b","system_id":"levelo_inurba_marseille","lat":43.308012,"lon":5.381511,"is_reserved":false,"is_disabled":false,"rental_uris":{"android":"levelo://app?vid=5a4496c1-9b99-43e7-b842-31a30322b19b","ios":"levelo://app?vid=5a4496c1-9b99-43e7-b842-31a30322b19b"},"vehicle_type_id":"4","last_reported":1700963508,"current_range_meters":15200,"station_id":"ce4bgt12rcd13ifvqce0","pricing_plan_id":"free"},{"bike_id":"b16c9a63-80f8-4403-944c-c6856aad0c57","system_id":"levelo_inurba_marseille","lat":43.308012,"lon":5.381511,"is_reserved":false,"is_disabled":false,"rental_uris":{"android":"levelo://app?vid=b16c9a63-80f8-4403-944c-c6856aad0c57","ios":"levelo://app?vid=b16c9a63-80f8-4403-944c-c6856aad0c57"},"vehicle_type_id":"4","last_reported":1700963508,"current_range_meters":31600,"station_id":"ce4bgt12rcd13ifvqce0","pricing_plan_id":"free"},{"bike_id":"04338774-beff-439c-845c-bc7270f9f789","system_id":"levelo_inurba_marseille","lat":43.301429,"lon":5.37413,"is_reserved":false,"is_disabled":false,"rental_uris":{"android":"levelo://app?vid=04338774-beff-439c-845c-bc7270f9f789","ios":"levelo://app?vid=04338774-beff-439c-845c-bc7270f9f789"},"vehicle_type_id":"4","last_reported":1700963508,"current_range_meters":0,"station_id":"ce4bgs92rcd13ifvqcc0","pricing_plan_id":"free"},{"bike_id":"2c0cfbc9-8aed-4ab2-9052-67d693991efd","system_id":"levelo_inurba_marseille","lat":43.31993,"lon":5.3815,"is_reserved":false,"is_disabled":false,"rental_uris":{"android":"levelo://app?vid=2c0cfbc9-8aed-4ab2-9052-67d693991efd","ios":"levelo://app?vid=2c0cfbc9-8aed-4ab2-9052-67d693991efd"},"vehicle_type_id":"4","last_reported":1700963508,"current_range_meters":3600,"station_id":"ce4bhr12rcd13ifvqhpg","pricing_plan_id":"free"},{"bike_id":"9adda1c0-69b0-4cd2-8a9b-3388a2b807a8","system_id":"levelo_inurba_marseille","lat":43.319974,"lon":5.381473,"is_reserved":false,"is_disabled":false,"rental_uris":{"android":"levelo://app?vid=9adda1c0-69b0-4cd2-8a9b-3388a2b807a8","ios":"levelo://app?vid=9adda1c0-69b0-4cd2-8a9b-3388a2b807a8"},"vehicle_type_id":"4","last_reported":1700963508,"current_range_meters":18800,"station_id":"ce4bhr12rcd13ifvqhpg","pricing_plan_id":"free"},{"bike_id":"6a26d0ec-e476-4178-b7a4-38d9d3eba74c","system_id":"levelo_inurba_marseille","lat":43.31998,"lon":5.38156,"is_reserved":false,"is_disabled":false,"rental_uris":{"android":"levelo://app?vid=6a26d0ec-e476-4178-b7a4-38d9d3eba74c","ios":"levelo://app?vid=6a26d0ec-e476-4178-b7a4-38d9d3eba74c"},"vehicle_type_id":"4","last_reported":1700963508,"current_range_meters":17200,"station_id":"ce4bhr12rcd13ifvqhpg","pricing_plan_id":"free"},{"bike_id":"85a1b2e7-1092-41dc-8fea-b07cb6175595","system_id":"levelo_inurba_marseille","lat":43.320001,"lon":5.381566,"is_reserved":false,"is_disabled":false,"rental_uris":{"android":"levelo://app?vid=85a1b2e7-1092-41dc-8fea-b07cb6175595","ios":"levelo://app?vid=85a1b2e7-1092-41dc-8fea-b07cb6175595"},"vehicle_type_id":"4","last_reported":1700963508,"current_range_meters":19600,"station_id":"ce4bhr12rcd13ifvqhpg","pricing_plan_id":"free"},{"bike_id":"f020304f-1893-4321-be05-e98cf596dc9f","system_id":"levelo_inurba_marseille","lat":43.320001,"lon":5.38158,"is_reserved":false,"is_disabled":false,"rental_uris":{"android":"levelo://app?vid=f020304f-1893-4321-be05-e98cf596dc9f","ios":"levelo://app?vid=f020304f-1893-4321-be05-e98cf596dc9f"},"vehicle_type_id":"4","last_reported":1700963508,"current_range_meters":22400,"station_id":"ce4bhr12rcd13ifvqhpg","pricing_plan_id":"free"},{"bike_id":"c9ef90d1-7b07-4165-a21a-1d647a6dade2","system_id":"levelo_inurba_marseille","lat":43.313571,"lon":5.384829,"is_reserved":false,"is_disabled":false,"rental_uris":{"android":"levelo://app?vid=c9ef90d1-7b07-4165-a21a-1d647a6dade2","ios":"levelo://app?vid=c9ef90d1-7b07-4165-a21a-1d647a6dade2"},"vehicle_type_id":"4","last_reported":1700963508,"current_range_meters":0,"station_id":"ce4bgt92rcd13ifvqcf0","pricing_plan_id":"free"},{"bike_id":"2d1e0193-2ac0-43a5-9ec8-2ca77d1a89c0","system_id":"levelo_inurba_marseille","lat":43.313571,"lon":5.384829,"is_reserved":false,"is_disabled":false,"rental_uris":{"android":"levelo://app?vid=2d1e0193-2ac0-43a5-9ec8-2ca77d1a89c0","ios":"levelo://app?vid=2d1e0193-2ac0-43a5-9ec8-2ca77d1a89c0"},"vehicle_type_id":"4","last_reported":1700963508,"current_range_meters":4800,"station_id":"ce4bgt92rcd13ifvqcf0","pricing_plan_id":"free"},{"bike_id":"54cb0418-5cf0-4569-aff2-4805a97225b2","system_id":"levelo_inurba_marseille","lat":43.313571,"lon":5.384829,"is_reserved":false,"is_disabled":false,"rental_uris":{"android":"levelo://app?vid=54cb0418-5cf0-4569-aff2-4805a97225b2","ios":"levelo://app?vid=54cb0418-5cf0-4569-aff2-4805a97225b2"},"vehicle_type_id":"4","last_reported":1700963508,"current_range_meters":29600,"station_id":"ce4bgt92rcd13ifvqcf0","pricing_plan_id":"free"},{"bike_id":"9b84aeb4-2366-46f3-bb1c-af6ede82ef14","system_id":"levelo_inurba_marseille","lat":43.299222,"lon":5.365554,"is_reserved":false,"is_disabled":false,"rental_uris":{"android":"levelo://app?vid=9b84aeb4-2366-46f3-bb1c-af6ede82ef14","ios":"levelo://app?vid=9b84aeb4-2366-46f3-bb1c-af6ede82ef14"},"vehicle_type_id":"4","last_reported":1700963508,"current_range_meters":19200,"station_id":"ce4bgm92rcd13ifvqbr0","pricing_plan_id":"free"},{"bike_id":"087b5bcf-bc90-4404-a1eb-cf7819c3b764","system_id":"levelo_inurba_marseille","lat":43.305364,"lon":5.384119,"is_reserved":false,"is_disabled":false,"rental_uris":{"android":"levelo://app?vid=087b5bcf-bc90-4404-a1eb-cf7819c3b764","ios":"levelo://app?vid=087b5bcf-bc90-4404-a1eb-cf7819c3b764"},"vehicle_type_id":"4","last_reported":1700963508,"current_range_meters":18000,"station_id":"ce4bgg92rcd13ifvqb30","pricing_plan_id":"free"},{"bike_id":"2512e5d9-2293-4ef3-ad8d-62a3ad2e3891","system_id":"levelo_inurba_marseille","lat":43.311722,"lon":5.387247,"is_reserved":false,"is_disabled":false,"rental_uris":{"android":"levelo://app?vid=2512e5d9-2293-4ef3-ad8d-62a3ad2e3891","ios":"levelo://app?vid=2512e5d9-2293-4ef3-ad8d-62a3ad2e3891"},"vehicle_type_id":"4","last_reported":1700963508,"current_range_meters":29200,"station_id":"ce4bgv12rcd13ifvqcp0","pricing_plan_id":"free"},{"bike_id":"54f1ae3c-a0bb-4bd3-b567-1dfe34eab1dd","system_id":"levelo_inurba_marseille","lat":43.311722,"lon":5.387247,"is_reserved":false,"is_disabled":false,"rental_uris":{"android":"levelo://app?vid=54f1ae3c-a0bb-4bd3-b567-1dfe34eab1dd","ios":"levelo://app?vid=54f1ae3c-a0bb-4bd3-b567-1dfe34eab1dd"},"vehicle_type_id":"4","last_reported":1700963508,"current_range_meters":29600,"station_id":"ce4bgv12rcd13ifvqcp0","pricing_plan_id":"free"},{"bike_id":"6febb32d-c1d1-40d7-8fda-bf592101e313","system_id":"levelo_inurba_marseille","lat":43.311722,"lon":5.387247,"is_reserved":false,"is_disabled":false,"rental_uris":{"android":"levelo://app?vid=6febb32d-c1d1-40d7-8fda-bf592101e313","ios":"levelo://app?vid=6febb32d-c1d1-40d7-8fda-bf592101e313"},"vehicle_type_id":"4","last_reported":1700963508,"current_range_meters":13600,"station_id":"ce4bgv12rcd13ifvqcp0","pricing_plan_id":"free"},{"bike_id":"a0d57a4b-877d-4534-bcb9-d08b5c2c704d","system_id":"levelo_inurba_marseille","lat":43.297794,"lon":5.370888,"is_reserved":false,"is_disabled":false,"rental_uris":{"android":"levelo://app?vid=a0d57a4b-877d-4534-bcb9-d08b5c2c704d","ios":"levelo://app?vid=a0d57a4b-877d-4534-bcb9-d08b5c2c704d"},"vehicle_type_id":"4","last_reported":1700963508,"current_range_meters":14400,"station_id":"ce4bgop2rcd13ifvqc1g","pricing_plan_id":"free"},{"bike_id":"b93b6f8d-67a8-4500-afbb-e8d2d1b655cf","system_id":"levelo_inurba_marseille","lat":43.32287,"lon":5.38268,"is_reserved":false,"is_disabled":false,"rental_uris":{"android":"levelo://app?vid=b93b6f8d-67a8-4500-afbb-e8d2d1b655cf","ios":"levelo://app?vid=b93b6f8d-67a8-4500-afbb-e8d2d1b655cf"},"vehicle_type_id":"4","last_reported":1700963508,"current_range_meters":4000,"station_id":"ce4bhr12rcd13ifvqhqg","pricing_plan_id":"free"},{"bike_id":"0b85aafd-2d06-4b3d-bf23-17256839d1de","system_id":"levelo_inurba_marseille","lat":43.322872,"lon":5.382756,"is_reserved":false,"is_disabled":false,"rental_uris":{"android":"levelo://app?vid=0b85aafd-2d06-4b3d-bf23-17256839d1de","ios":"levelo://app?vid=0b85aafd-2d06-4b3d-bf23-17256839d1de"},"vehicle_type_id":"4","last_reported":1700963508,"current_range_meters":8800,"station_id":"ce4bhr12rcd13ifvqhqg","pricing_plan_id":"free"},{"bike_id":"5a1baf68-f9af-496c-ab26-e428d44bc382","system_id":"levelo_inurba_marseille","lat":43.322872,"lon":5.382756,"is_reserved":false,"is_disabled":false,"rental_uris":{"android":"levelo://app?vid=5a1baf68-f9af-496c-ab26-e428d44bc382","ios":"levelo://app?vid=5a1baf68-f9af-496c-ab26-e428d44bc382"},"vehicle_type_id":"4","last_reported":1700963508,"current_range_meters":30800,"station_id":"ce4bhr12rcd13ifvqhqg","pricing_plan_id":"free"},{"bike_id":"f9fce30d-0cf4-4e60-9d5e-3e6280524e9e","system_id":"levelo_inurba_marseille","lat":43.322872,"lon":5.382756,"is_reserved":false,"is_disabled":false,"rental_uris":{"android":"levelo://app?vid=f9fce30d-0cf4-4e60-9d5e-3e6280524e9e","ios":"levelo://app?vid=f9fce30d-0cf4-4e60-9d5e-3e6280524e9e"},"vehicle_type_id":"4","last_reported":1700963508,"current_range_meters":30400,"station_id":"ce4bhr12rcd13ifvqhqg","pricing_plan_id":"free"},{"bike_id":"d4ce39f9-7fa1-46e3-a433-f250b4fdb796","system_id":"levelo_inurba_marseille","lat":43.322872,"lon":5.382756,"is_reserved":false,"is_disabled":false,"rental_uris":{"android":"levelo://app?vid=d4ce39f9-7fa1-46e3-a433-f250b4fdb796","ios":"levelo://app?vid=d4ce39f9-7fa1-46e3-a433-f250b4fdb796"},"vehicle_type_id":"4","last_reported":1700963508,"current_range_meters":28400,"station_id":"ce4bhr12rcd13ifvqhqg","pricing_plan_id":"free"},{"bike_id":"95825c38-6c59-4753-b43e-2f944bdb26b9","system_id":"levelo_inurba_marseille","lat":43.32822,"lon":5.36694,"is_reserved":false,"is_disabled":false,"rental_uris":{"android":"levelo://app?vid=95825c38-6c59-4753-b43e-2f944bdb26b9","ios":"levelo://app?vid=95825c38-6c59-4753-b43e-2f944bdb26b9"},"vehicle_type_id":"4","last_reported":1700963508,"current_range_meters":13600,"station_id":"ce4bhs92rcd13ifvqi0g","pricing_plan_id":"free"},{"bike_id":"4971dcfa-613e-4e3d-aa49-70e956debcbb","system_id":"levelo_inurba_marseille","lat":43.285848,"lon":5.350787,"is_reserved":false,"is_disabled":false,"rental_uris":{"android":"levelo://app?vid=4971dcfa-613e-4e3d-aa49-70e956debcbb","ios":"levelo://app?vid=4971dcfa-613e-4e3d-aa49-70e956debcbb"},"vehicle_type_id":"4","last_reported":1700963508,"current_range_meters":12400,"station_id":"ce4bhch2rcd13ifvqeug","pricing_plan_id":"free"},{"bike_id":"b929df2d-eaf2-4323-b2db-6ee4e10c019d","system_id":"levelo_inurba_marseille","lat":43.296,"lon":5.367953,"is_reserved":false,"is_disabled":false,"rental_uris":{"android":"levelo://app?vid=b929df2d-eaf2-4323-b2db-6ee4e10c019d","ios":"levelo://app?vid=b929df2d-eaf2-4323-b2db-6ee4e10c019d"},"vehicle_type_id":"4","last_reported":1700963508,"current_range_meters":1200,"station_id":"","pricing_plan_id":"free"},{"bike_id":"a679149c-73f9-49af-94ab-cd76e20ee7a4","system_id":"levelo_inurba_marseille","lat":43.309589,"lon":5.390258,"is_reserved":false,"is_disabled":false,"rental_uris":{"android":"levelo://app?vid=a679149c-73f9-49af-94ab-cd76e20ee7a4","ios":"levelo://app?vid=a679149c-73f9-49af-94ab-cd76e20ee7a4"},"vehicle_type_id":"4","last_reported":1700963508,"current_range_meters":0,"station_id":"ce4bgup2rcd13ifvqco0","pricing_plan_id":"free"},{"bike_id":"3b339994-3557-4ddd-b662-012dc9114e7e","system_id":"levelo_inurba_marseille","lat":43.31753,"lon":5.39023,"is_reserved":false,"is_disabled":false,"rental_uris":{"android":"levelo://app?vid=3b339994-3557-4ddd-b662-012dc9114e7e","ios":"levelo://app?vid=3b339994-3557-4ddd-b662-012dc9114e7e"},"vehicle_type_id":"4","last_reported":1700963508,"current_range_meters":17200,"station_id":"ce4bhqp2rcd13ifvqhng","pricing_plan_id":"free"},{"bike_id":"9c9c4356-4ff6-4183-b736-db27462f3d59","system_id":"levelo_inurba_marseille","lat":43.304278,"lon":5.388868,"is_reserved":false,"is_disabled":false,"rental_uris":{"android":"levelo://app?vid=9c9c4356-4ff6-4183-b736-db27462f3d59","ios":"levelo://app?vid=9c9c4356-4ff6-4183-b736-db27462f3d59"},"vehicle_type_id":"4","last_reported":1700963508,"current_range_meters":22800,"station_id":"ce4bgk12rcd13ifvqbi0","pricing_plan_id":"free"},{"bike_id":"4cb0dc34-a8c9-4d4b-bd54-60d71e7a43ce","system_id":"levelo_inurba_marseille","lat":43.295697,"lon":5.375276,"is_reserved":false,"is_disabled":false,"rental_uris":{"android":"levelo://app?vid=4cb0dc34-a8c9-4d4b-bd54-60d71e7a43ce","ios":"levelo://app?vid=4cb0dc34-a8c9-4d4b-bd54-60d71e7a43ce"},"vehicle_type_id":"4","last_reported":1700963508,"current_range_meters":24000,"station_id":"ce4bgj92rcd13ifvqbd0","pricing_plan_id":"free"},{"bike_id":"06c6bc22-6038-4c9b-9697-113ba8f9f0f3","system_id":"levelo_inurba_marseille","lat":43.299707,"lon":5.384859,"is_reserved":false,"is_disabled":false,"rental_uris":{"android":"levelo://app?vid=06c6bc22-6038-4c9b-9697-113ba8f9f0f3","ios":"levelo://app?vid=06c6bc22-6038-4c9b-9697-113ba8f9f0f3"},"vehicle_type_id":"4","last_reported":1700963508,"current_range_meters":0,"station_id":"ce4bgj92rcd13ifvqbd0","pricing_plan_id":"free"},{"bike_id":"f14158ae-3557-4295-9975-59ee95f12eb8","system_id":"levelo_inurba_marseille","lat":43.299717,"lon":5.384845,"is_reserved":false,"is_disabled":false,"rental_uris":{"android":"levelo://app?vid=f14158ae-3557-4295-9975-59ee95f12eb8","ios":"levelo://app?vid=f14158ae-3557-4295-9975-59ee95f12eb8"},"vehicle_type_id":"4","last_reported":1700963508,"current_range_meters":22000,"station_id":"ce4bgj92rcd13ifvqbd0","pricing_plan_id":"free"},{"bike_id":"6b621983-5e9e-42f7-990d-ad5a093820d2","system_id":"levelo_inurba_marseille","lat":43.293801,"lon":5.363066,"is_reserved":false,"is_disabled":false,"rental_uris":{"android":"levelo://app?vid=6b621983-5e9e-42f7-990d-ad5a093820d2","ios":"levelo://app?vid=6b621983-5e9e-42f7-990d-ad5a093820d2"},"vehicle_type_id":"4","last_reported":1700963508,"current_range_meters":0,"station_id":"","pricing_plan_id":"free"},{"bike_id":"24630887-f44e-4c7b-af36-3f697dadf4ac","system_id":"levelo_inurba_marseille","lat":43.292749,"lon":5.368402,"is_reserved":false,"is_disabled":false,"rental_uris":{"android":"levelo://app?vid=24630887-f44e-4c7b-af36-3f697dadf4ac","ios":"levelo://app?vid=24630887-f44e-4c7b-af36-3f697dadf4ac"},"vehicle_type_id":"4","last_reported":1700963508,"current_range_meters":22800,"station_id":"ce4bhbp2rcd13ifvqesg","pricing_plan_id":"free"},{"bike_id":"2c879d60-b3c2-4a74-8897-cb015dbc7c54","system_id":"levelo_inurba_marseille","lat":43.305994,"lon":5.393687,"is_reserved":false,"is_disabled":false,"rental_uris":{"android":"levelo://app?vid=2c879d60-b3c2-4a74-8897-cb015dbc7c54","ios":"levelo://app?vid=2c879d60-b3c2-4a74-8897-cb015dbc7c54"},"vehicle_type_id":"4","last_reported":1700963508,"current_range_meters":1200,"station_id":"ce4bh0p2rcd13ifvqd80","pricing_plan_id":"free"},{"bike_id":"7742942f-34c8-4d11-ae3a-e53237bc3742","system_id":"levelo_inurba_marseille","lat":43.292311,"lon":5.360731,"is_reserved":false,"is_disabled":false,"rental_uris":{"android":"levelo://app?vid=7742942f-34c8-4d11-ae3a-e53237bc3742","ios":"levelo://app?vid=7742942f-34c8-4d11-ae3a-e53237bc3742"},"vehicle_type_id":"4","last_reported":1700963508,"current_range_meters":29200,"station_id":"ce4bhbh2rcd13ifvqeqg","pricing_plan_id":"free"},{"bike_id":"118eb32a-3cd8-43d5-aa47-764836971e68","system_id":"levelo_inurba_marseille","lat":43.309047,"lon":5.396551,"is_reserved":false,"is_disabled":false,"rental_uris":{"android":"levelo://app?vid=118eb32a-3cd8-43d5-aa47-764836971e68","ios":"levelo://app?vid=118eb32a-3cd8-43d5-aa47-764836971e68"},"vehicle_type_id":"4","last_reported":1700963508,"current_range_meters":4400,"station_id":"ce4bh012rcd13ifvqcv0","pricing_plan_id":"free"},{"bike_id":"9828d763-60ae-4b12-9fc5-f181a2204a13","system_id":"levelo_inurba_marseille","lat":43.30869,"lon":5.39632,"is_reserved":false,"is_disabled":false,"rental_uris":{"android":"levelo://app?vid=9828d763-60ae-4b12-9fc5-f181a2204a13","ios":"levelo://app?vid=9828d763-60ae-4b12-9fc5-f181a2204a13"},"vehicle_type_id":"4","last_reported":1700963508,"current_range_meters":1200,"station_id":"ce4bh012rcd13ifvqcv0","pricing_plan_id":"free"},{"bike_id":"7fb0e822-f802-4eee-9fe8-dc6679eaff76","system_id":"levelo_inurba_marseille","lat":43.30881,"lon":5.396394,"is_reserved":false,"is_disabled":false,"rental_uris":{"android":"levelo://app?vid=7fb0e822-f802-4eee-9fe8-dc6679eaff76","ios":"levelo://app?vid=7fb0e822-f802-4eee-9fe8-dc6679eaff76"},"vehicle_type_id":"4","last_reported":1700963508,"current_range_meters":4000,"station_id":"ce4bh012rcd13ifvqcv0","pricing_plan_id":"free"},{"bike_id":"be8beb00-f4e4-4b3a-b021-d3c5ca72c974","system_id":"levelo_inurba_marseille","lat":43.308823,"lon":5.396413,"is_reserved":false,"is_disabled":false,"rental_uris":{"android":"levelo://app?vid=be8beb00-f4e4-4b3a-b021-d3c5ca72c974","ios":"levelo://app?vid=be8beb00-f4e4-4b3a-b021-d3c5ca72c974"},"vehicle_type_id":"4","last_reported":1700963508,"current_range_meters":15600,"station_id":"ce4bh012rcd13ifvqcv0","pricing_plan_id":"free"},{"bike_id":"d50accdd-0958-4344-a7b1-99d6174e896a","system_id":"levelo_inurba_marseille","lat":43.309047,"lon":5.396551,"is_reserved":false,"is_disabled":false,"rental_uris":{"android":"levelo://app?vid=d50accdd-0958-4344-a7b1-99d6174e896a","ios":"levelo://app?vid=d50accdd-0958-4344-a7b1-99d6174e896a"},"vehicle_type_id":"4","last_reported":1700963508,"current_range_meters":19200,"station_id":"ce4bh012rcd13ifvqcv0","pricing_plan_id":"free"},{"bike_id":"978d5753-9802-4cde-bcfc-55fed039c785","system_id":"levelo_inurba_marseille","lat":43.31326,"lon":5.39694,"is_reserved":false,"is_disabled":false,"rental_uris":{"android":"levelo://app?vid=978d5753-9802-4cde-bcfc-55fed039c785","ios":"levelo://app?vid=978d5753-9802-4cde-bcfc-55fed039c785"},"vehicle_type_id":"4","last_reported":1700963508,"current_range_meters":21200,"station_id":"ce4bgvp2rcd13ifvqcu0","pricing_plan_id":"free"},{"bike_id":"9f5ba6a2-f242-4a4c-922f-9eccf7518702","system_id":"levelo_inurba_marseille","lat":43.302008,"lon":5.394694,"is_reserved":false,"is_disabled":false,"rental_uris":{"android":"levelo://app?vid=9f5ba6a2-f242-4a4c-922f-9eccf7518702","ios":"levelo://app?vid=9f5ba6a2-f242-4a4c-922f-9eccf7518702"},"vehicle_type_id":"4","last_reported":1700963508,"current_range_meters":22400,"station_id":"ce4bh0p2rcd13ifvqd70","pricing_plan_id":"free"},{"bike_id":"d69dd1c4-961a-438a-ae98-0822e8cbfc7d","system_id":"levelo_inurba_marseille","lat":43.290624,"lon":5.359245,"is_reserved":false,"is_disabled":false,"rental_uris":{"android":"levelo://app?vid=d69dd1c4-961a-438a-ae98-0822e8cbfc7d","ios":"levelo://app?vid=d69dd1c4-961a-438a-ae98-0822e8cbfc7d"},"vehicle_type_id":"4","last_reported":1700963508,"current_range_meters":30400,"station_id":"ce4bha92rcd13ifvqeg0","pricing_plan_id":"free"},{"bike_id":"c1d3e6bc-31ad-4df9-9049-b018b33c6b07","system_id":"levelo_inurba_marseille","lat":43.294162,"lon":5.386292,"is_reserved":false,"is_disabled":false,"rental_uris":{"android":"levelo://app?vid=c1d3e6bc-31ad-4df9-9049-b018b33c6b07","ios":"levelo://app?vid=c1d3e6bc-31ad-4df9-9049-b018b33c6b07"},"vehicle_type_id":"4","last_reported":1700963508,"current_range_meters":25600,"station_id":"ce4bh2h2rcd13ifvqdh0","pricing_plan_id":"free"},{"bike_id":"db4d85a6-639b-474b-9c5a-c831ec32c8a8","system_id":"levelo_inurba_marseille","lat":43.29783,"lon":5.39329,"is_reserved":false,"is_disabled":false,"rental_uris":{"android":"levelo://app?vid=db4d85a6-639b-474b-9c5a-c831ec32c8a8","ios":"levelo://app?vid=db4d85a6-639b-474b-9c5a-c831ec32c8a8"},"vehicle_type_id":"4","last_reported":1700963508,"current_range_meters":24000,"station_id":"chh1huq6cuj3fo74tm60","pricing_plan_id":"free"},{"bike_id":"919c61d5-4b36-475c-bd44-1995ab7878a9","system_id":"levelo_inurba_marseille","lat":43.28978,"lon":5.37827,"is_reserved":false,"is_disabled":false,"rental_uris":{"android":"levelo://app?vid=919c61d5-4b36-475c-bd44-1995ab7878a9","ios":"levelo://app?vid=919c61d5-4b36-475c-bd44-1995ab7878a9"},"vehicle_type_id":"4","last_reported":1700963508,"current_range_meters":16000,"station_id":"ce4bh9p2rcd13ifvqed0","pricing_plan_id":"free"},{"bike_id":"d5f67cb2-1ff9-4039-bb56-465d734ff2cf","system_id":"levelo_inurba_marseille","lat":43.28856,"lon":5.358371,"is_reserved":false,"is_disabled":false,"rental_uris":{"android":"levelo://app?vid=d5f67cb2-1ff9-4039-bb56-465d734ff2cf","ios":"levelo://app?vid=d5f67cb2-1ff9-4039-bb56-465d734ff2cf"},"vehicle_type_id":"4","last_reported":1700963508,"current_range_meters":28400,"station_id":"ce4bhb12rcd13ifvqem0","pricing_plan_id":"free"},{"bike_id":"fe00b4ec-bdc2-4691-bfa3-ee7739de9301","system_id":"levelo_inurba_marseille","lat":43.312609,"lon":5.401662,"is_reserved":false,"is_disabled":false,"rental_uris":{"android":"levelo://app?vid=fe00b4ec-bdc2-4691-bfa3-ee7739de9301","ios":"levelo://app?vid=fe00b4ec-bdc2-4691-bfa3-ee7739de9301"},"vehicle_type_id":"4","last_reported":1700963508,"current_range_meters":0,"station_id":"ce4bh092rcd13ifvqd30","pricing_plan_id":"free"},{"bike_id":"c7e67411-b593-4262-9bce-191379d23e08","system_id":"levelo_inurba_marseille","lat":43.309371,"lon":5.401449,"is_reserved":false,"is_disabled":false,"rental_uris":{"android":"levelo://app?vid=c7e67411-b593-4262-9bce-191379d23e08","ios":"levelo://app?vid=c7e67411-b593-4262-9bce-191379d23e08"},"vehicle_type_id":"4","last_reported":1700963508,"current_range_meters":1600,"station_id":"ce4bgvp2rcd13ifvqct0","pricing_plan_id":"free"},{"bike_id":"24a16b2d-2fc6-4c08-b01b-e656d45f59ba","system_id":"levelo_inurba_marseille","lat":43.31273,"lon":5.40172,"is_reserved":false,"is_disabled":false,"rental_uris":{"android":"levelo://app?vid=24a16b2d-2fc6-4c08-b01b-e656d45f59ba","ios":"levelo://app?vid=24a16b2d-2fc6-4c08-b01b-e656d45f59ba"},"vehicle_type_id":"4","last_reported":1700963508,"current_range_meters":8000,"station_id":"ce4bh092rcd13ifvqd30","pricing_plan_id":"free"},{"bike_id":"7ff87943-907a-4a39-851d-ddd2553586ff","system_id":"levelo_inurba_marseille","lat":43.306412,"lon":5.401035,"is_reserved":false,"is_disabled":false,"rental_uris":{"android":"levelo://app?vid=7ff87943-907a-4a39-851d-ddd2553586ff","ios":"levelo://app?vid=7ff87943-907a-4a39-851d-ddd2553586ff"},"vehicle_type_id":"4","last_reported":1700963508,"current_range_meters":26800,"station_id":"ce4bh112rcd13ifvqda0","pricing_plan_id":"free"},{"bike_id":"3f1f2dd6-5e9a-47c5-9dd0-ef382d9d6e38","system_id":"levelo_inurba_marseille","lat":43.30642,"lon":5.401031,"is_reserved":false,"is_disabled":false,"rental_uris":{"android":"levelo://app?vid=3f1f2dd6-5e9a-47c5-9dd0-ef382d9d6e38","ios":"levelo://app?vid=3f1f2dd6-5e9a-47c5-9dd0-ef382d9d6e38"},"vehicle_type_id":"4","last_reported":1700963508,"current_range_meters":24000,"station_id":"ce4bh112rcd13ifvqda0","pricing_plan_id":"free"},{"bike_id":"451f4a21-49b3-4338-bd7a-e1e96a70754e","system_id":"levelo_inurba_marseille","lat":43.30642,"lon":5.401031,"is_reserved":false,"is_disabled":false,"rental_uris":{"android":"levelo://app?vid=451f4a21-49b3-4338-bd7a-e1e96a70754e","ios":"levelo://app?vid=451f4a21-49b3-4338-bd7a-e1e96a70754e"},"vehicle_type_id":"4","last_reported":1700963508,"current_range_meters":23600,"station_id":"ce4bh112rcd13ifvqda0","pricing_plan_id":"free"},{"bike_id":"a24e63fd-e638-4727-926b-15ee6a9c4fe8","system_id":"levelo_inurba_marseille","lat":43.301117,"lon":5.398795,"is_reserved":false,"is_disabled":false,"rental_uris":{"android":"levelo://app?vid=a24e63fd-e638-4727-926b-15ee6a9c4fe8","ios":"levelo://app?vid=a24e63fd-e638-4727-926b-15ee6a9c4fe8"},"vehicle_type_id":"4","last_reported":1700963508,"current_range_meters":10800,"station_id":"ce4bh0h2rcd13ifvqd40","pricing_plan_id":"free"},{"bike_id":"f8ab89b7-0da9-432a-94c0-db28906edad9","system_id":"levelo_inurba_marseille","lat":43.28727,"lon":5.36078,"is_reserved":false,"is_disabled":false,"rental_uris":{"android":"levelo://app?vid=f8ab89b7-0da9-432a-94c0-db28906edad9","ios":"levelo://app?vid=f8ab89b7-0da9-432a-94c0-db28906edad9"},"vehicle_type_id":"4","last_reported":1700963508,"current_range_meters":17200,"station_id":"cki0cbj6b192h4jlfktg","pricing_plan_id":"free"},{"bike_id":"21b5e463-2201-4245-813c-be2e6038e430","system_id":"levelo_inurba_marseille","lat":43.286591,"lon":5.363346,"is_reserved":false,"is_disabled":false,"rental_uris":{"android":"levelo://app?vid=21b5e463-2201-4245-813c-be2e6038e430","ios":"levelo://app?vid=21b5e463-2201-4245-813c-be2e6038e430"},"vehicle_type_id":"4","last_reported":1700963508,"current_range_meters":28400,"station_id":"ce4bhah2rcd13ifvqej0","pricing_plan_id":"free"},{"bike_id":"019dcbb8-0b7e-47da-887b-8172a0662d79","system_id":"levelo_inurba_marseille","lat":43.286591,"lon":5.363346,"is_reserved":false,"is_disabled":false,"rental_uris":{"android":"levelo://app?vid=019dcbb8-0b7e-47da-887b-8172a0662d79","ios":"levelo://app?vid=019dcbb8-0b7e-47da-887b-8172a0662d79"},"vehicle_type_id":"4","last_reported":1700963508,"current_range_meters":31600,"station_id":"ce4bhah2rcd13ifvqej0","pricing_plan_id":"free"},{"bike_id":"ff5c1df6-078a-4912-b0bc-d0d41242aaea","system_id":"levelo_inurba_marseille","lat":43.29034,"lon":5.38645,"is_reserved":false,"is_disabled":false,"rental_uris":{"android":"levelo://app?vid=ff5c1df6-078a-4912-b0bc-d0d41242aaea","ios":"levelo://app?vid=ff5c1df6-078a-4912-b0bc-d0d41242aaea"},"vehicle_type_id":"4","last_reported":1700963508,"current_range_meters":8400,"station_id":"","pricing_plan_id":"free"},{"bike_id":"2967e580-4075-40a5-b4e3-f6c0225f647b","system_id":"levelo_inurba_marseille","lat":43.316517,"lon":5.404375,"is_reserved":false,"is_disabled":false,"rental_uris":{"android":"levelo://app?vid=2967e580-4075-40a5-b4e3-f6c0225f647b","ios":"levelo://app?vid=2967e580-4075-40a5-b4e3-f6c0225f647b"},"vehicle_type_id":"4","last_reported":1700963508,"current_range_meters":9200,"station_id":"ce4bh012rcd13ifvqd00","pricing_plan_id":"free"},{"bike_id":"98e6d063-1b99-454e-93d1-826b7fd86d05","system_id":"levelo_inurba_marseille","lat":43.284538,"lon":5.358657,"is_reserved":false,"is_disabled":false,"rental_uris":{"android":"levelo://app?vid=98e6d063-1b99-454e-93d1-826b7fd86d05","ios":"levelo://app?vid=98e6d063-1b99-454e-93d1-826b7fd86d05"},"vehicle_type_id":"4","last_reported":1700963508,"current_range_meters":12800,"station_id":"ce4bhah2rcd13ifvqei0","pricing_plan_id":"free"},{"bike_id":"45e55278-a547-4681-b906-d349bae8f99a","system_id":"levelo_inurba_marseille","lat":43.284538,"lon":5.358657,"is_reserved":false,"is_disabled":false,"rental_uris":{"android":"levelo://app?vid=45e55278-a547-4681-b906-d349bae8f99a","ios":"levelo://app?vid=45e55278-a547-4681-b906-d349bae8f99a"},"vehicle_type_id":"4","last_reported":1700963508,"current_range_meters":13600,"station_id":"ce4bhah2rcd13ifvqei0","pricing_plan_id":"free"},{"bike_id":"7de591ad-735a-49cd-beed-f19e855f2d56","system_id":"levelo_inurba_marseille","lat":43.284538,"lon":5.358657,"is_reserved":false,"is_disabled":false,"rental_uris":{"android":"levelo://app?vid=7de591ad-735a-49cd-beed-f19e855f2d56","ios":"levelo://app?vid=7de591ad-735a-49cd-beed-f19e855f2d56"},"vehicle_type_id":"4","last_reported":1700963508,"current_range_meters":22800,"station_id":"ce4bhah2rcd13ifvqei0","pricing_plan_id":"free"},{"bike_id":"cdead48e-fa06-4435-b6f4-505cbd3628cf","system_id":"levelo_inurba_marseille","lat":43.294314,"lon":5.397498,"is_reserved":false,"is_disabled":false,"rental_uris":{"android":"levelo://app?vid=cdead48e-fa06-4435-b6f4-505cbd3628cf","ios":"levelo://app?vid=cdead48e-fa06-4435-b6f4-505cbd3628cf"},"vehicle_type_id":"4","last_reported":1700963508,"current_range_meters":20800,"station_id":"ce4bh3h2rcd13ifvqdo0","pricing_plan_id":"free"},{"bike_id":"99613ebb-315e-4eff-8fea-3dbbf7149a60","system_id":"levelo_inurba_marseille","lat":43.284538,"lon":5.358657,"is_reserved":false,"is_disabled":false,"rental_uris":{"android":"levelo://app?vid=99613ebb-315e-4eff-8fea-3dbbf7149a60","ios":"levelo://app?vid=99613ebb-315e-4eff-8fea-3dbbf7149a60"},"vehicle_type_id":"4","last_reported":1700963508,"current_range_meters":15200,"station_id":"ce4bhah2rcd13ifvqei0","pricing_plan_id":"free"},{"bike_id":"1dfc6947-4c95-4bb3-8a30-f5e60025ff57","system_id":"levelo_inurba_marseille","lat":43.284538,"lon":5.358657,"is_reserved":false,"is_disabled":false,"rental_uris":{"android":"levelo://app?vid=1dfc6947-4c95-4bb3-8a30-f5e60025ff57","ios":"levelo://app?vid=1dfc6947-4c95-4bb3-8a30-f5e60025ff57"},"vehicle_type_id":"4","last_reported":1700963508,"current_range_meters":10000,"station_id":"ce4bhah2rcd13ifvqei0","pricing_plan_id":"free"},{"bike_id":"0f076a98-8cce-45b9-9bdb-c50dddff293e","system_id":"levelo_inurba_marseille","lat":43.284538,"lon":5.358657,"is_reserved":false,"is_disabled":false,"rental_uris":{"android":"levelo://app?vid=0f076a98-8cce-45b9-9bdb-c50dddff293e","ios":"levelo://app?vid=0f076a98-8cce-45b9-9bdb-c50dddff293e"},"vehicle_type_id":"4","last_reported":1700963508,"current_range_meters":20000,"station_id":"ce4bhah2rcd13ifvqei0","pricing_plan_id":"free"},{"bike_id":"0198b91c-fbb7-489d-b864-5fd9b49e1792","system_id":"levelo_inurba_marseille","lat":43.2845,"lon":5.3589,"is_reserved":false,"is_disabled":false,"rental_uris":{"android":"levelo://app?vid=0198b91c-fbb7-489d-b864-5fd9b49e1792","ios":"levelo://app?vid=0198b91c-fbb7-489d-b864-5fd9b49e1792"},"vehicle_type_id":"4","last_reported":1700963508,"current_range_meters":30800,"station_id":"ce4bhah2rcd13ifvqei0","pricing_plan_id":"free"},{"bike_id":"f4651b6c-86f9-422d-9955-b350afe9044b","system_id":"levelo_inurba_marseille","lat":43.286134,"lon":5.351118,"is_reserved":false,"is_disabled":false,"rental_uris":{"android":"levelo://app?vid=f4651b6c-86f9-422d-9955-b350afe9044b","ios":"levelo://app?vid=f4651b6c-86f9-422d-9955-b350afe9044b"},"vehicle_type_id":"4","last_reported":1700963508,"current_range_meters":29600,"station_id":"ce4bhch2rcd13ifvqeug","pricing_plan_id":"free"},{"bike_id":"d714be27-90ef-44cd-babe-81cbeb41d708","system_id":"levelo_inurba_marseille","lat":43.285856,"lon":5.350771,"is_reserved":false,"is_disabled":false,"rental_uris":{"android":"levelo://app?vid=d714be27-90ef-44cd-babe-81cbeb41d708","ios":"levelo://app?vid=d714be27-90ef-44cd-babe-81cbeb41d708"},"vehicle_type_id":"4","last_reported":1700963508,"current_range_meters":11200,"station_id":"ce4bhch2rcd13ifvqeug","pricing_plan_id":"free"},{"bike_id":"82879760-d9ab-4a21-989b-752874465ced","system_id":"levelo_inurba_marseille","lat":43.285856,"lon":5.350771,"is_reserved":false,"is_disabled":false,"rental_uris":{"android":"levelo://app?vid=82879760-d9ab-4a21-989b-752874465ced","ios":"levelo://app?vid=82879760-d9ab-4a21-989b-752874465ced"},"vehicle_type_id":"4","last_reported":1700963508,"current_range_meters":17600,"station_id":"ce4bhch2rcd13ifvqeug","pricing_plan_id":"free"},{"bike_id":"6c75e270-e87d-4fc7-a1c6-e4b3d5c451ba","system_id":"levelo_inurba_marseille","lat":43.283998,"lon":5.375062,"is_reserved":false,"is_disabled":false,"rental_uris":{"android":"levelo://app?vid=6c75e270-e87d-4fc7-a1c6-e4b3d5c451ba","ios":"levelo://app?vid=6c75e270-e87d-4fc7-a1c6-e4b3d5c451ba"},"vehicle_type_id":"4","last_reported":1700963508,"current_range_meters":24400,"station_id":"ce4bh412rcd13ifvqds0","pricing_plan_id":"free"},{"bike_id":"e5d7a276-6bd8-49a0-a556-2c03f79d2290","system_id":"levelo_inurba_marseille","lat":43.283998,"lon":5.375062,"is_reserved":false,"is_disabled":false,"rental_uris":{"android":"levelo://app?vid=e5d7a276-6bd8-49a0-a556-2c03f79d2290","ios":"levelo://app?vid=e5d7a276-6bd8-49a0-a556-2c03f79d2290"},"vehicle_type_id":"4","last_reported":1700963508,"current_range_meters":26400,"station_id":"ce4bh412rcd13ifvqds0","pricing_plan_id":"free"},{"bike_id":"2dbd9885-a55e-4b32-8723-854d669cbcbd","system_id":"levelo_inurba_marseille","lat":43.283998,"lon":5.375062,"is_reserved":false,"is_disabled":false,"rental_uris":{"android":"levelo://app?vid=2dbd9885-a55e-4b32-8723-854d669cbcbd","ios":"levelo://app?vid=2dbd9885-a55e-4b32-8723-854d669cbcbd"},"vehicle_type_id":"4","last_reported":1700963508,"current_range_meters":800,"station_id":"ce4bh412rcd13ifvqds0","pricing_plan_id":"free"},{"bike_id":"e7c054b3-e3f5-438d-adae-c0e05032da6f","system_id":"levelo_inurba_marseille","lat":43.295713,"lon":5.399639,"is_reserved":false,"is_disabled":false,"rental_uris":{"android":"levelo://app?vid=e7c054b3-e3f5-438d-adae-c0e05032da6f","ios":"levelo://app?vid=e7c054b3-e3f5-438d-adae-c0e05032da6f"},"vehicle_type_id":"4","last_reported":1700963508,"current_range_meters":18800,"station_id":"ce4bh312rcd13ifvqdj0","pricing_plan_id":"free"},{"bike_id":"7cf52dea-e37a-4390-8809-d493c9f02c97","system_id":"levelo_inurba_marseille","lat":43.319179,"lon":5.407725,"is_reserved":false,"is_disabled":false,"rental_uris":{"android":"levelo://app?vid=7cf52dea-e37a-4390-8809-d493c9f02c97","ios":"levelo://app?vid=7cf52dea-e37a-4390-8809-d493c9f02c97"},"vehicle_type_id":"4","last_reported":1700963508,"current_range_meters":25600,"station_id":"ce4bhq12rcd13ifvqhig","pricing_plan_id":"free"},{"bike_id":"a3c897cd-3fcc-4045-93e6-4c5a72149642","system_id":"levelo_inurba_marseille","lat":43.33717,"lon":5.391857,"is_reserved":false,"is_disabled":false,"rental_uris":{"android":"levelo://app?vid=a3c897cd-3fcc-4045-93e6-4c5a72149642","ios":"levelo://app?vid=a3c897cd-3fcc-4045-93e6-4c5a72149642"},"vehicle_type_id":"4","last_reported":1700963508,"current_range_meters":26800,"station_id":"ce4bhr92rcd13ifvqhsg","pricing_plan_id":"free"},{"bike_id":"78744c7e-ea4e-4906-a6c3-63d725f4c0e6","system_id":"levelo_inurba_marseille","lat":43.33717,"lon":5.39186,"is_reserved":false,"is_disabled":false,"rental_uris":{"android":"levelo://app?vid=78744c7e-ea4e-4906-a6c3-63d725f4c0e6","ios":"levelo://app?vid=78744c7e-ea4e-4906-a6c3-63d725f4c0e6"},"vehicle_type_id":"4","last_reported":1700963508,"current_range_meters":4400,"station_id":"ce4bhr92rcd13ifvqhsg","pricing_plan_id":"free"},{"bike_id":"bf8242ed-eae2-4435-9f5f-25a66fd5e97f","system_id":"levelo_inurba_marseille","lat":43.337168,"lon":5.391825,"is_reserved":false,"is_disabled":false,"rental_uris":{"android":"levelo://app?vid=bf8242ed-eae2-4435-9f5f-25a66fd5e97f","ios":"levelo://app?vid=bf8242ed-eae2-4435-9f5f-25a66fd5e97f"},"vehicle_type_id":"4","last_reported":1700963508,"current_range_meters":28000,"station_id":"ce4bhr92rcd13ifvqhsg","pricing_plan_id":"free"},{"bike_id":"baaa30f2-3ad6-4c81-b5b0-56a3692cab5d","system_id":"levelo_inurba_marseille","lat":43.323464,"lon":5.406297,"is_reserved":false,"is_disabled":false,"rental_uris":{"android":"levelo://app?vid=baaa30f2-3ad6-4c81-b5b0-56a3692cab5d","ios":"levelo://app?vid=baaa30f2-3ad6-4c81-b5b0-56a3692cab5d"},"vehicle_type_id":"4","last_reported":1700963508,"current_range_meters":30000,"station_id":"ce4bhq92rcd13ifvqhjg","pricing_plan_id":"free"},{"bike_id":"007a3eb0-6cc4-4335-94f1-36a78a10d670","system_id":"levelo_inurba_marseille","lat":43.288557,"lon":5.393108,"is_reserved":false,"is_disabled":false,"rental_uris":{"android":"levelo://app?vid=007a3eb0-6cc4-4335-94f1-36a78a10d670","ios":"levelo://app?vid=007a3eb0-6cc4-4335-94f1-36a78a10d670"},"vehicle_type_id":"4","last_reported":1700963508,"current_range_meters":27200,"station_id":"ce4bh2p2rcd13ifvqdi0","pricing_plan_id":"free"},{"bike_id":"ec787e1e-db2a-4cf0-b872-f832c429e8ac","system_id":"levelo_inurba_marseille","lat":43.297946,"lon":5.404063,"is_reserved":false,"is_disabled":false,"rental_uris":{"android":"levelo://app?vid=ec787e1e-db2a-4cf0-b872-f832c429e8ac","ios":"levelo://app?vid=ec787e1e-db2a-4cf0-b872-f832c429e8ac"},"vehicle_type_id":"4","last_reported":1700963508,"current_range_meters":32000,"station_id":"ce4bh112rcd13ifvqd90","pricing_plan_id":"free"},{"bike_id":"5bf33191-5154-4db2-b837-dba3fca49230","system_id":"levelo_inurba_marseille","lat":43.297946,"lon":5.404063,"is_reserved":false,"is_disabled":false,"rental_uris":{"android":"levelo://app?vid=5bf33191-5154-4db2-b837-dba3fca49230","ios":"levelo://app?vid=5bf33191-5154-4db2-b837-dba3fca49230"},"vehicle_type_id":"4","last_reported":1700963508,"current_range_meters":24800,"station_id":"ce4bh112rcd13ifvqd90","pricing_plan_id":"free"},{"bike_id":"1ed7f0f4-37bb-406d-9e3b-c4f3d737ef62","system_id":"levelo_inurba_marseille","lat":43.288501,"lon":5.393087,"is_reserved":false,"is_disabled":false,"rental_uris":{"android":"levelo://app?vid=1ed7f0f4-37bb-406d-9e3b-c4f3d737ef62","ios":"levelo://app?vid=1ed7f0f4-37bb-406d-9e3b-c4f3d737ef62"},"vehicle_type_id":"4","last_reported":1700963508,"current_range_meters":25200,"station_id":"ce4bh2p2rcd13ifvqdi0","pricing_plan_id":"free"},{"bike_id":"351c94bf-64d5-47b3-99f5-86699f936991","system_id":"levelo_inurba_marseille","lat":43.283494,"lon":5.380945,"is_reserved":false,"is_disabled":false,"rental_uris":{"android":"levelo://app?vid=351c94bf-64d5-47b3-99f5-86699f936991","ios":"levelo://app?vid=351c94bf-64d5-47b3-99f5-86699f936991"},"vehicle_type_id":"4","last_reported":1700963508,"current_range_meters":17200,"station_id":"ce4bh412rcd13ifvqdr0","pricing_plan_id":"free"},{"bike_id":"2d63a72b-63ea-4b7b-896b-59b42244e41c","system_id":"levelo_inurba_marseille","lat":43.284217,"lon":5.349697,"is_reserved":false,"is_disabled":false,"rental_uris":{"android":"levelo://app?vid=2d63a72b-63ea-4b7b-896b-59b42244e41c","ios":"levelo://app?vid=2d63a72b-63ea-4b7b-896b-59b42244e41c"},"vehicle_type_id":"4","last_reported":1700963508,"current_range_meters":28800,"station_id":"ce4bhbh2rcd13ifvqepg","pricing_plan_id":"free"},{"bike_id":"b4eac869-ab5e-4e99-a882-b301c485240f","system_id":"levelo_inurba_marseille","lat":43.289363,"lon":5.396322,"is_reserved":false,"is_disabled":false,"rental_uris":{"android":"levelo://app?vid=b4eac869-ab5e-4e99-a882-b301c485240f","ios":"levelo://app?vid=b4eac869-ab5e-4e99-a882-b301c485240f"},"vehicle_type_id":"4","last_reported":1700963508,"current_range_meters":25600,"station_id":"ce4bh3h2rcd13ifvqdn0","pricing_plan_id":"free"},{"bike_id":"e457a3be-d955-469d-b30b-df909feb4bd6","system_id":"levelo_inurba_marseille","lat":43.289363,"lon":5.396322,"is_reserved":false,"is_disabled":false,"rental_uris":{"android":"levelo://app?vid=e457a3be-d955-469d-b30b-df909feb4bd6","ios":"levelo://app?vid=e457a3be-d955-469d-b30b-df909feb4bd6"},"vehicle_type_id":"4","last_reported":1700963508,"current_range_meters":26000,"station_id":"ce4bh3h2rcd13ifvqdn0","pricing_plan_id":"free"},{"bike_id":"e2284003-4e46-4e0a-93e7-73d05c3666d9","system_id":"levelo_inurba_marseille","lat":43.33508,"lon":5.397755,"is_reserved":false,"is_disabled":false,"rental_uris":{"android":"levelo://app?vid=e2284003-4e46-4e0a-93e7-73d05c3666d9","ios":"levelo://app?vid=e2284003-4e46-4e0a-93e7-73d05c3666d9"},"vehicle_type_id":"4","last_reported":1700963508,"current_range_meters":20400,"station_id":"","pricing_plan_id":"free"},{"bike_id":"eb8dfbff-744a-4154-8d91-bb56b0d25e10","system_id":"levelo_inurba_marseille","lat":43.289363,"lon":5.396322,"is_reserved":false,"is_disabled":false,"rental_uris":{"android":"levelo://app?vid=eb8dfbff-744a-4154-8d91-bb56b0d25e10","ios":"levelo://app?vid=eb8dfbff-744a-4154-8d91-bb56b0d25e10"},"vehicle_type_id":"4","last_reported":1700963508,"current_range_meters":25200,"station_id":"ce4bh3h2rcd13ifvqdn0","pricing_plan_id":"free"},{"bike_id":"bf1da870-8e26-4b9d-8147-93f2f27f9e50","system_id":"levelo_inurba_marseille","lat":43.292724,"lon":5.401131,"is_reserved":false,"is_disabled":false,"rental_uris":{"android":"levelo://app?vid=bf1da870-8e26-4b9d-8147-93f2f27f9e50","ios":"levelo://app?vid=bf1da870-8e26-4b9d-8147-93f2f27f9e50"},"vehicle_type_id":"4","last_reported":1700963508,"current_range_meters":16000,"station_id":"ce4bh312rcd13ifvqdk0","pricing_plan_id":"free"},{"bike_id":"db0ed9a9-6a60-4581-a8d4-06a35ad67137","system_id":"levelo_inurba_marseille","lat":43.282754,"lon":5.350519,"is_reserved":false,"is_disabled":false,"rental_uris":{"android":"levelo://app?vid=db0ed9a9-6a60-4581-a8d4-06a35ad67137","ios":"levelo://app?vid=db0ed9a9-6a60-4581-a8d4-06a35ad67137"},"vehicle_type_id":"4","last_reported":1700963508,"current_range_meters":31600,"station_id":"ce4bhbp2rcd13ifvqerg","pricing_plan_id":"free"},{"bike_id":"6ac7559d-766f-424e-98d9-2ad5998281b0","system_id":"levelo_inurba_marseille","lat":43.28039,"lon":5.369297,"is_reserved":false,"is_disabled":false,"rental_uris":{"android":"levelo://app?vid=6ac7559d-766f-424e-98d9-2ad5998281b0","ios":"levelo://app?vid=6ac7559d-766f-424e-98d9-2ad5998281b0"},"vehicle_type_id":"4","last_reported":1700963508,"current_range_meters":25600,"station_id":"ce4bha12rcd13ifvqef0","pricing_plan_id":"free"},{"bike_id":"57ae1c4e-3134-4051-8a20-577d938684d7","system_id":"levelo_inurba_marseille","lat":43.28039,"lon":5.369297,"is_reserved":false,"is_disabled":false,"rental_uris":{"android":"levelo://app?vid=57ae1c4e-3134-4051-8a20-577d938684d7","ios":"levelo://app?vid=57ae1c4e-3134-4051-8a20-577d938684d7"},"vehicle_type_id":"4","last_reported":1700963508,"current_range_meters":19200,"station_id":"ce4bha12rcd13ifvqef0","pricing_plan_id":"free"},{"bike_id":"db9334a0-0093-411c-aac9-d2c04233863c","system_id":"levelo_inurba_marseille","lat":43.28039,"lon":5.369297,"is_reserved":false,"is_disabled":false,"rental_uris":{"android":"levelo://app?vid=db9334a0-0093-411c-aac9-d2c04233863c","ios":"levelo://app?vid=db9334a0-0093-411c-aac9-d2c04233863c"},"vehicle_type_id":"4","last_reported":1700963508,"current_range_meters":30000,"station_id":"ce4bha12rcd13ifvqef0","pricing_plan_id":"free"},{"bike_id":"ec3b3fd1-5bfc-4d6f-bc0e-3062bce32f53","system_id":"levelo_inurba_marseille","lat":43.28039,"lon":5.369297,"is_reserved":false,"is_disabled":false,"rental_uris":{"android":"levelo://app?vid=ec3b3fd1-5bfc-4d6f-bc0e-3062bce32f53","ios":"levelo://app?vid=ec3b3fd1-5bfc-4d6f-bc0e-3062bce32f53"},"vehicle_type_id":"4","last_reported":1700963508,"current_range_meters":31600,"station_id":"ce4bha12rcd13ifvqef0","pricing_plan_id":"free"},{"bike_id":"29c477c3-ec16-4965-a1ed-e23bc6cf7946","system_id":"levelo_inurba_marseille","lat":43.290412,"lon":5.399633,"is_reserved":false,"is_disabled":false,"rental_uris":{"android":"levelo://app?vid=29c477c3-ec16-4965-a1ed-e23bc6cf7946","ios":"levelo://app?vid=29c477c3-ec16-4965-a1ed-e23bc6cf7946"},"vehicle_type_id":"4","last_reported":1700963508,"current_range_meters":27600,"station_id":"ce4bh392rcd13ifvqdm0","pricing_plan_id":"free"},{"bike_id":"deb61259-c7dd-40c9-bc15-498d7b981251","system_id":"levelo_inurba_marseille","lat":43.29041,"lon":5.399634,"is_reserved":false,"is_disabled":false,"rental_uris":{"android":"levelo://app?vid=deb61259-c7dd-40c9-bc15-498d7b981251","ios":"levelo://app?vid=deb61259-c7dd-40c9-bc15-498d7b981251"},"vehicle_type_id":"4","last_reported":1700963508,"current_range_meters":12400,"station_id":"ce4bh392rcd13ifvqdm0","pricing_plan_id":"free"},{"bike_id":"8b5fa9aa-33b2-4d3d-8022-678cb5275d9a","system_id":"levelo_inurba_marseille","lat":43.281044,"lon":5.378308,"is_reserved":false,"is_disabled":false,"rental_uris":{"android":"levelo://app?vid=8b5fa9aa-33b2-4d3d-8022-678cb5275d9a","ios":"levelo://app?vid=8b5fa9aa-33b2-4d3d-8022-678cb5275d9a"},"vehicle_type_id":"4","last_reported":1700963508,"current_range_meters":14400,"station_id":"ce4bha12rcd13ifvqee0","pricing_plan_id":"free"},{"bike_id":"7b0f93e1-58c4-43d6-a0cf-7d2931f47a6b","system_id":"levelo_inurba_marseille","lat":43.290412,"lon":5.399633,"is_reserved":false,"is_disabled":false,"rental_uris":{"android":"levelo://app?vid=7b0f93e1-58c4-43d6-a0cf-7d2931f47a6b","ios":"levelo://app?vid=7b0f93e1-58c4-43d6-a0cf-7d2931f47a6b"},"vehicle_type_id":"4","last_reported":1700963508,"current_range_meters":22800,"station_id":"ce4bh392rcd13ifvqdm0","pricing_plan_id":"free"},{"bike_id":"9d3f5624-b3d7-43b2-9f84-615004750da7","system_id":"levelo_inurba_marseille","lat":43.28106,"lon":5.378417,"is_reserved":false,"is_disabled":false,"rental_uris":{"android":"levelo://app?vid=9d3f5624-b3d7-43b2-9f84-615004750da7","ios":"levelo://app?vid=9d3f5624-b3d7-43b2-9f84-615004750da7"},"vehicle_type_id":"4","last_reported":1700963508,"current_range_meters":0,"station_id":"ce4bha12rcd13ifvqee0","pricing_plan_id":"free"},{"bike_id":"7e4d2370-96b6-4fa7-837d-8d6f1290d6bf","system_id":"levelo_inurba_marseille","lat":43.28106,"lon":5.37843,"is_reserved":false,"is_disabled":false,"rental_uris":{"android":"levelo://app?vid=7e4d2370-96b6-4fa7-837d-8d6f1290d6bf","ios":"levelo://app?vid=7e4d2370-96b6-4fa7-837d-8d6f1290d6bf"},"vehicle_type_id":"4","last_reported":1700963508,"current_range_meters":19200,"station_id":"ce4bha12rcd13ifvqee0","pricing_plan_id":"free"},{"bike_id":"207a51fd-a244-45c0-814a-36db849d3a06","system_id":"levelo_inurba_marseille","lat":43.296263,"lon":5.40601,"is_reserved":false,"is_disabled":false,"rental_uris":{"android":"levelo://app?vid=207a51fd-a244-45c0-814a-36db849d3a06","ios":"levelo://app?vid=207a51fd-a244-45c0-814a-36db849d3a06"},"vehicle_type_id":"4","last_reported":1700963508,"current_range_meters":21200,"station_id":"ce4bh0h2rcd13ifvqd60","pricing_plan_id":"free"},{"bike_id":"9f82135b-52f2-48b0-bb7c-d289fdaab813","system_id":"levelo_inurba_marseille","lat":43.296263,"lon":5.40601,"is_reserved":false,"is_disabled":false,"rental_uris":{"android":"levelo://app?vid=9f82135b-52f2-48b0-bb7c-d289fdaab813","ios":"levelo://app?vid=9f82135b-52f2-48b0-bb7c-d289fdaab813"},"vehicle_type_id":"4","last_reported":1700963508,"current_range_meters":30400,"station_id":"ce4bh0h2rcd13ifvqd60","pricing_plan_id":"free"},{"bike_id":"aa3b3f0f-bd29-4d57-acad-6c02ba7eee93","system_id":"levelo_inurba_marseille","lat":43.296263,"lon":5.40601,"is_reserved":false,"is_disabled":false,"rental_uris":{"android":"levelo://app?vid=aa3b3f0f-bd29-4d57-acad-6c02ba7eee93","ios":"levelo://app?vid=aa3b3f0f-bd29-4d57-acad-6c02ba7eee93"},"vehicle_type_id":"4","last_reported":1700963508,"current_range_meters":13600,"station_id":"ce4bh0h2rcd13ifvqd60","pricing_plan_id":"free"},{"bike_id":"b4e83d2a-e61f-4f0a-9c38-3bdd82a71c10","system_id":"levelo_inurba_marseille","lat":43.296263,"lon":5.40601,"is_reserved":false,"is_disabled":false,"rental_uris":{"android":"levelo://app?vid=b4e83d2a-e61f-4f0a-9c38-3bdd82a71c10","ios":"levelo://app?vid=b4e83d2a-e61f-4f0a-9c38-3bdd82a71c10"},"vehicle_type_id":"4","last_reported":1700963508,"current_range_meters":16000,"station_id":"ce4bh0h2rcd13ifvqd60","pricing_plan_id":"free"},{"bike_id":"c96935d6-0ce6-4280-bcf9-0ef6b4e7a56d","system_id":"levelo_inurba_marseille","lat":43.28098,"lon":5.3784,"is_reserved":false,"is_disabled":false,"rental_uris":{"android":"levelo://app?vid=c96935d6-0ce6-4280-bcf9-0ef6b4e7a56d","ios":"levelo://app?vid=c96935d6-0ce6-4280-bcf9-0ef6b4e7a56d"},"vehicle_type_id":"4","last_reported":1700963508,"current_range_meters":16400,"station_id":"ce4bha12rcd13ifvqee0","pricing_plan_id":"free"},{"bike_id":"20476fb2-3ba2-40b8-9da3-1ee98254bb43","system_id":"levelo_inurba_marseille","lat":43.296263,"lon":5.40601,"is_reserved":false,"is_disabled":false,"rental_uris":{"android":"levelo://app?vid=20476fb2-3ba2-40b8-9da3-1ee98254bb43","ios":"levelo://app?vid=20476fb2-3ba2-40b8-9da3-1ee98254bb43"},"vehicle_type_id":"4","last_reported":1700963508,"current_range_meters":20400,"station_id":"ce4bh0h2rcd13ifvqd60","pricing_plan_id":"free"},{"bike_id":"023fdaca-f3aa-4d3b-a492-f44533ac0957","system_id":"levelo_inurba_marseille","lat":43.284462,"lon":5.392121,"is_reserved":false,"is_disabled":false,"rental_uris":{"android":"levelo://app?vid=023fdaca-f3aa-4d3b-a492-f44533ac0957","ios":"levelo://app?vid=023fdaca-f3aa-4d3b-a492-f44533ac0957"},"vehicle_type_id":"4","last_reported":1700963508,"current_range_meters":18000,"station_id":"ce4bhoh2rcd13ifvqh5g","pricing_plan_id":"free"},{"bike_id":"b9511e3f-ddb4-47d2-846f-c9cb650f532e","system_id":"levelo_inurba_marseille","lat":43.284462,"lon":5.392121,"is_reserved":false,"is_disabled":false,"rental_uris":{"android":"levelo://app?vid=b9511e3f-ddb4-47d2-846f-c9cb650f532e","ios":"levelo://app?vid=b9511e3f-ddb4-47d2-846f-c9cb650f532e"},"vehicle_type_id":"4","last_reported":1700963508,"current_range_meters":31200,"station_id":"ce4bhoh2rcd13ifvqh5g","pricing_plan_id":"free"},{"bike_id":"88a2de9b-fc0c-4fd5-8eca-6d04246ef4fb","system_id":"levelo_inurba_marseille","lat":43.284462,"lon":5.392121,"is_reserved":false,"is_disabled":false,"rental_uris":{"android":"levelo://app?vid=88a2de9b-fc0c-4fd5-8eca-6d04246ef4fb","ios":"levelo://app?vid=88a2de9b-fc0c-4fd5-8eca-6d04246ef4fb"},"vehicle_type_id":"4","last_reported":1700963508,"current_range_meters":28400,"station_id":"ce4bhoh2rcd13ifvqh5g","pricing_plan_id":"free"},{"bike_id":"c5c39fa1-2a93-4700-b15b-bd80b5b55ee3","system_id":"levelo_inurba_marseille","lat":43.285742,"lon":5.395004,"is_reserved":false,"is_disabled":false,"rental_uris":{"android":"levelo://app?vid=c5c39fa1-2a93-4700-b15b-bd80b5b55ee3","ios":"levelo://app?vid=c5c39fa1-2a93-4700-b15b-bd80b5b55ee3"},"vehicle_type_id":"4","last_reported":1700963508,"current_range_meters":27200,"station_id":"ce4bh292rcd13ifvqdg0","pricing_plan_id":"free"},{"bike_id":"8d90e7d1-d40e-4142-89a4-47bbc1e9b6fb","system_id":"levelo_inurba_marseille","lat":43.32655,"lon":5.40989,"is_reserved":false,"is_disabled":false,"rental_uris":{"android":"levelo://app?vid=8d90e7d1-d40e-4142-89a4-47bbc1e9b6fb","ios":"levelo://app?vid=8d90e7d1-d40e-4142-89a4-47bbc1e9b6fb"},"vehicle_type_id":"4","last_reported":1700963508,"current_range_meters":18800,"station_id":"ce4bhpp2rcd13ifvqhgg","pricing_plan_id":"free"},{"bike_id":"4a7b3b19-145f-4afa-98af-4e2d69cf5477","system_id":"levelo_inurba_marseille","lat":43.32658,"lon":5.40991,"is_reserved":false,"is_disabled":false,"rental_uris":{"android":"levelo://app?vid=4a7b3b19-145f-4afa-98af-4e2d69cf5477","ios":"levelo://app?vid=4a7b3b19-145f-4afa-98af-4e2d69cf5477"},"vehicle_type_id":"4","last_reported":1700963508,"current_range_meters":23200,"station_id":"ce4bhpp2rcd13ifvqhgg","pricing_plan_id":"free"},{"bike_id":"f50a0bdb-19de-44d8-9611-df0a9af3c622","system_id":"levelo_inurba_marseille","lat":43.304188,"lon":5.412904,"is_reserved":false,"is_disabled":false,"rental_uris":{"android":"levelo://app?vid=f50a0bdb-19de-44d8-9611-df0a9af3c622","ios":"levelo://app?vid=f50a0bdb-19de-44d8-9611-df0a9af3c622"},"vehicle_type_id":"4","last_reported":1700963508,"current_range_meters":13600,"station_id":"ce4bhop2rcd13ifvqh8g","pricing_plan_id":"free"},{"bike_id":"41e88250-3c41-464a-a741-48144a7dd8ff","system_id":"levelo_inurba_marseille","lat":43.28703,"lon":5.39972,"is_reserved":false,"is_disabled":false,"rental_uris":{"android":"levelo://app?vid=41e88250-3c41-464a-a741-48144a7dd8ff","ios":"levelo://app?vid=41e88250-3c41-464a-a741-48144a7dd8ff"},"vehicle_type_id":"4","last_reported":1700963508,"current_range_meters":24000,"station_id":"ce4bho92rcd13ifvqh3g","pricing_plan_id":"free"},{"bike_id":"278ed9b5-f90a-459f-a795-acd177e96612","system_id":"levelo_inurba_marseille","lat":43.279087,"lon":5.380114,"is_reserved":false,"is_disabled":false,"rental_uris":{"android":"levelo://app?vid=278ed9b5-f90a-459f-a795-acd177e96612","ios":"levelo://app?vid=278ed9b5-f90a-459f-a795-acd177e96612"},"vehicle_type_id":"4","last_reported":1700963508,"current_range_meters":19600,"station_id":"ce4bhf92rcd13ifvqf50","pricing_plan_id":"free"},{"bike_id":"8d0edc89-da88-4418-970a-d70f971e3b6e","system_id":"levelo_inurba_marseille","lat":43.287154,"lon":5.399979,"is_reserved":false,"is_disabled":false,"rental_uris":{"android":"levelo://app?vid=8d0edc89-da88-4418-970a-d70f971e3b6e","ios":"levelo://app?vid=8d0edc89-da88-4418-970a-d70f971e3b6e"},"vehicle_type_id":"4","last_reported":1700963508,"current_range_meters":25600,"station_id":"ce4bho92rcd13ifvqh3g","pricing_plan_id":"free"},{"bike_id":"f16b2a30-fdf8-4498-b123-427478e0d68a","system_id":"levelo_inurba_marseille","lat":43.28699,"lon":5.39979,"is_reserved":false,"is_disabled":false,"rental_uris":{"android":"levelo://app?vid=f16b2a30-fdf8-4498-b123-427478e0d68a","ios":"levelo://app?vid=f16b2a30-fdf8-4498-b123-427478e0d68a"},"vehicle_type_id":"4","last_reported":1700963508,"current_range_meters":11200,"station_id":"ce4bho92rcd13ifvqh3g","pricing_plan_id":"free"},{"bike_id":"abc44e98-ffe8-4d9b-a2f7-52313f1e8d5a","system_id":"levelo_inurba_marseille","lat":43.28697,"lon":5.39979,"is_reserved":false,"is_disabled":false,"rental_uris":{"android":"levelo://app?vid=abc44e98-ffe8-4d9b-a2f7-52313f1e8d5a","ios":"levelo://app?vid=abc44e98-ffe8-4d9b-a2f7-52313f1e8d5a"},"vehicle_type_id":"4","last_reported":1700963508,"current_range_meters":14000,"station_id":"ce4bho92rcd13ifvqh3g","pricing_plan_id":"free"},{"bike_id":"caf9e590-7da1-4232-a093-ca2e890df38a","system_id":"levelo_inurba_marseille","lat":43.29265,"lon":5.40909,"is_reserved":false,"is_disabled":false,"rental_uris":{"android":"levelo://app?vid=caf9e590-7da1-4232-a093-ca2e890df38a","ios":"levelo://app?vid=caf9e590-7da1-4232-a093-ca2e890df38a"},"vehicle_type_id":"4","last_reported":1700963508,"current_range_meters":23200,"station_id":"ce4bh192rcd13ifvqdc0","pricing_plan_id":"free"},{"bike_id":"f9d066c3-fbe0-40d4-954a-a587fc786196","system_id":"levelo_inurba_marseille","lat":43.292571,"lon":5.409107,"is_reserved":false,"is_disabled":false,"rental_uris":{"android":"levelo://app?vid=f9d066c3-fbe0-40d4-954a-a587fc786196","ios":"levelo://app?vid=f9d066c3-fbe0-40d4-954a-a587fc786196"},"vehicle_type_id":"4","last_reported":1700963508,"current_range_meters":8800,"station_id":"ce4bh192rcd13ifvqdc0","pricing_plan_id":"free"},{"bike_id":"e9333e17-ea63-4942-a642-cb0a1ba22a55","system_id":"levelo_inurba_marseille","lat":43.325243,"lon":5.414326,"is_reserved":false,"is_disabled":false,"rental_uris":{"android":"levelo://app?vid=e9333e17-ea63-4942-a642-cb0a1ba22a55","ios":"levelo://app?vid=e9333e17-ea63-4942-a642-cb0a1ba22a55"},"vehicle_type_id":"4","last_reported":1700963508,"current_range_meters":28800,"station_id":"ce4bhq12rcd13ifvqhhg","pricing_plan_id":"free"},{"bike_id":"c25ea147-e804-4786-9d25-91f61a8ed59a","system_id":"levelo_inurba_marseille","lat":43.293651,"lon":5.41268,"is_reserved":false,"is_disabled":false,"rental_uris":{"android":"levelo://app?vid=c25ea147-e804-4786-9d25-91f61a8ed59a","ios":"levelo://app?vid=c25ea147-e804-4786-9d25-91f61a8ed59a"},"vehicle_type_id":"4","last_reported":1700963508,"current_range_meters":0,"station_id":"","pricing_plan_id":"free"},{"bike_id":"1a41ba2d-126a-45a0-9786-3a69c6425282","system_id":"levelo_inurba_marseille","lat":43.273613,"lon":5.362705,"is_reserved":false,"is_disabled":false,"rental_uris":{"android":"levelo://app?vid=1a41ba2d-126a-45a0-9786-3a69c6425282","ios":"levelo://app?vid=1a41ba2d-126a-45a0-9786-3a69c6425282"},"vehicle_type_id":"4","last_reported":1700963508,"current_range_meters":31600,"station_id":"ce4bhbh2rcd13ifvqeo0","pricing_plan_id":"free"},{"bike_id":"1283cee1-794d-43ad-b494-016d481a09d2","system_id":"levelo_inurba_marseille","lat":43.33612,"lon":5.410321,"is_reserved":false,"is_disabled":false,"rental_uris":{"android":"levelo://app?vid=1283cee1-794d-43ad-b494-016d481a09d2","ios":"levelo://app?vid=1283cee1-794d-43ad-b494-016d481a09d2"},"vehicle_type_id":"4","last_reported":1700963508,"current_range_meters":31200,"station_id":"ce4bhqh2rcd13ifvqhmg","pricing_plan_id":"free"},{"bike_id":"3309b9b4-8631-43cb-b850-81cfe13f3b20","system_id":"levelo_inurba_marseille","lat":43.33612,"lon":5.410321,"is_reserved":false,"is_disabled":false,"rental_uris":{"android":"levelo://app?vid=3309b9b4-8631-43cb-b850-81cfe13f3b20","ios":"levelo://app?vid=3309b9b4-8631-43cb-b850-81cfe13f3b20"},"vehicle_type_id":"4","last_reported":1700963508,"current_range_meters":30000,"station_id":"ce4bhqh2rcd13ifvqhmg","pricing_plan_id":"free"},{"bike_id":"815ed55d-2ef5-446d-851b-8a9e38f5e13e","system_id":"levelo_inurba_marseille","lat":43.336134,"lon":5.410341,"is_reserved":false,"is_disabled":false,"rental_uris":{"android":"levelo://app?vid=815ed55d-2ef5-446d-851b-8a9e38f5e13e","ios":"levelo://app?vid=815ed55d-2ef5-446d-851b-8a9e38f5e13e"},"vehicle_type_id":"4","last_reported":1700963508,"current_range_meters":23200,"station_id":"ce4bhqh2rcd13ifvqhmg","pricing_plan_id":"free"},{"bike_id":"3d25cc63-3df8-4d66-bc20-6d257254f455","system_id":"levelo_inurba_marseille","lat":43.336134,"lon":5.410341,"is_reserved":false,"is_disabled":false,"rental_uris":{"android":"levelo://app?vid=3d25cc63-3df8-4d66-bc20-6d257254f455","ios":"levelo://app?vid=3d25cc63-3df8-4d66-bc20-6d257254f455"},"vehicle_type_id":"4","last_reported":1700963508,"current_range_meters":16800,"station_id":"ce4bhqh2rcd13ifvqhmg","pricing_plan_id":"free"},{"bike_id":"aad13955-9ce9-4ec5-be9e-f89c8cc375cd","system_id":"levelo_inurba_marseille","lat":43.33612,"lon":5.410321,"is_reserved":false,"is_disabled":false,"rental_uris":{"android":"levelo://app?vid=aad13955-9ce9-4ec5-be9e-f89c8cc375cd","ios":"levelo://app?vid=aad13955-9ce9-4ec5-be9e-f89c8cc375cd"},"vehicle_type_id":"4","last_reported":1700963508,"current_range_meters":28000,"station_id":"ce4bhqh2rcd13ifvqhmg","pricing_plan_id":"free"},{"bike_id":"94284315-d2e9-4352-95e0-000aace26a61","system_id":"levelo_inurba_marseille","lat":43.27998,"lon":5.40013,"is_reserved":false,"is_disabled":false,"rental_uris":{"android":"levelo://app?vid=94284315-d2e9-4352-95e0-000aace26a61","ios":"levelo://app?vid=94284315-d2e9-4352-95e0-000aace26a61"},"vehicle_type_id":"4","last_reported":1700963508,"current_range_meters":0,"station_id":"ce4bho92rcd13ifvqh4g","pricing_plan_id":"free"},{"bike_id":"2bac63be-2248-4f83-9913-6fa6e719b914","system_id":"levelo_inurba_marseille","lat":43.310785,"lon":5.424305,"is_reserved":false,"is_disabled":false,"rental_uris":{"android":"levelo://app?vid=2bac63be-2248-4f83-9913-6fa6e719b914","ios":"levelo://app?vid=2bac63be-2248-4f83-9913-6fa6e719b914"},"vehicle_type_id":"4","last_reported":1700963508,"current_range_meters":12800,"station_id":"ce4bhp92rcd13ifvqhag","pricing_plan_id":"free"},{"bike_id":"60395232-e532-4f5a-ae3e-52a22da3b50f","system_id":"levelo_inurba_marseille","lat":43.310809,"lon":5.424301,"is_reserved":false,"is_disabled":false,"rental_uris":{"android":"levelo://app?vid=60395232-e532-4f5a-ae3e-52a22da3b50f","ios":"levelo://app?vid=60395232-e532-4f5a-ae3e-52a22da3b50f"},"vehicle_type_id":"4","last_reported":1700963508,"current_range_meters":5600,"station_id":"ce4bhp92rcd13ifvqhag","pricing_plan_id":"free"},{"bike_id":"0b12a7ea-0967-46fb-a8ef-3b36dce428f0","system_id":"levelo_inurba_marseille","lat":43.310785,"lon":5.424305,"is_reserved":false,"is_disabled":false,"rental_uris":{"android":"levelo://app?vid=0b12a7ea-0967-46fb-a8ef-3b36dce428f0","ios":"levelo://app?vid=0b12a7ea-0967-46fb-a8ef-3b36dce428f0"},"vehicle_type_id":"4","last_reported":1700963508,"current_range_meters":28400,"station_id":"ce4bhp92rcd13ifvqhag","pricing_plan_id":"free"},{"bike_id":"2de05027-7797-4106-81c1-0fbaf060e0d4","system_id":"levelo_inurba_marseille","lat":43.31715,"lon":5.42407,"is_reserved":false,"is_disabled":false,"rental_uris":{"android":"levelo://app?vid=2de05027-7797-4106-81c1-0fbaf060e0d4","ios":"levelo://app?vid=2de05027-7797-4106-81c1-0fbaf060e0d4"},"vehicle_type_id":"4","last_reported":1700963508,"current_range_meters":14800,"station_id":"ce4bhp92rcd13ifvqhbg","pricing_plan_id":"free"},{"bike_id":"8eb5bdb0-5c9b-4999-93c3-a1a499ccf536","system_id":"levelo_inurba_marseille","lat":43.310785,"lon":5.424305,"is_reserved":false,"is_disabled":false,"rental_uris":{"android":"levelo://app?vid=8eb5bdb0-5c9b-4999-93c3-a1a499ccf536","ios":"levelo://app?vid=8eb5bdb0-5c9b-4999-93c3-a1a499ccf536"},"vehicle_type_id":"4","last_reported":1700963508,"current_range_meters":7200,"station_id":"ce4bhp92rcd13ifvqhag","pricing_plan_id":"free"},{"bike_id":"97e3b868-516a-4717-91d1-15212899daab","system_id":"levelo_inurba_marseille","lat":43.340804,"lon":5.410219,"is_reserved":false,"is_disabled":false,"rental_uris":{"android":"levelo://app?vid=97e3b868-516a-4717-91d1-15212899daab","ios":"levelo://app?vid=97e3b868-516a-4717-91d1-15212899daab"},"vehicle_type_id":"4","last_reported":1700963508,"current_range_meters":24800,"station_id":"ce4bhqh2rcd13ifvqhlg","pricing_plan_id":"free"},{"bike_id":"204dc7a8-2128-4a6e-aad3-04f673f35cbb","system_id":"levelo_inurba_marseille","lat":43.340804,"lon":5.410219,"is_reserved":false,"is_disabled":false,"rental_uris":{"android":"levelo://app?vid=204dc7a8-2128-4a6e-aad3-04f673f35cbb","ios":"levelo://app?vid=204dc7a8-2128-4a6e-aad3-04f673f35cbb"},"vehicle_type_id":"4","last_reported":1700963508,"current_range_meters":17600,"station_id":"ce4bhqh2rcd13ifvqhlg","pricing_plan_id":"free"},{"bike_id":"3f7a559c-008d-463f-b6a5-5b652928b168","system_id":"levelo_inurba_marseille","lat":43.340804,"lon":5.410219,"is_reserved":false,"is_disabled":false,"rental_uris":{"android":"levelo://app?vid=3f7a559c-008d-463f-b6a5-5b652928b168","ios":"levelo://app?vid=3f7a559c-008d-463f-b6a5-5b652928b168"},"vehicle_type_id":"4","last_reported":1700963508,"current_range_meters":5200,"station_id":"ce4bhqh2rcd13ifvqhlg","pricing_plan_id":"free"},{"bike_id":"84df32b8-5209-4713-9a7c-35f1c5e64527","system_id":"levelo_inurba_marseille","lat":43.27422,"lon":5.39409,"is_reserved":false,"is_disabled":false,"rental_uris":{"android":"levelo://app?vid=84df32b8-5209-4713-9a7c-35f1c5e64527","ios":"levelo://app?vid=84df32b8-5209-4713-9a7c-35f1c5e64527"},"vehicle_type_id":"4","last_reported":1700963508,"current_range_meters":28400,"station_id":"ce4bhdp2rcd13ifvqf20","pricing_plan_id":"free"},{"bike_id":"4ee479cd-a160-40d8-9650-68d450f33729","system_id":"levelo_inurba_marseille","lat":43.304096,"lon":5.425385,"is_reserved":false,"is_disabled":false,"rental_uris":{"android":"levelo://app?vid=4ee479cd-a160-40d8-9650-68d450f33729","ios":"levelo://app?vid=4ee479cd-a160-40d8-9650-68d450f33729"},"vehicle_type_id":"4","last_reported":1700963508,"current_range_meters":6000,"station_id":"ce4bhoh2rcd13ifvqh6g","pricing_plan_id":"free"},{"bike_id":"a47ef0e3-338f-4543-8e63-8e0132c5e349","system_id":"levelo_inurba_marseille","lat":43.278128,"lon":5.407195,"is_reserved":false,"is_disabled":false,"rental_uris":{"android":"levelo://app?vid=a47ef0e3-338f-4543-8e63-8e0132c5e349","ios":"levelo://app?vid=a47ef0e3-338f-4543-8e63-8e0132c5e349"},"vehicle_type_id":"4","last_reported":1700963508,"current_range_meters":30400,"station_id":"ce4bhnh2rcd13ifvqgtg","pricing_plan_id":"free"},{"bike_id":"18238bc1-a7d6-4bf1-97ad-06f73ddaa374","system_id":"levelo_inurba_marseille","lat":43.278128,"lon":5.407195,"is_reserved":false,"is_disabled":false,"rental_uris":{"android":"levelo://app?vid=18238bc1-a7d6-4bf1-97ad-06f73ddaa374","ios":"levelo://app?vid=18238bc1-a7d6-4bf1-97ad-06f73ddaa374"},"vehicle_type_id":"4","last_reported":1700963508,"current_range_meters":29200,"station_id":"ce4bhnh2rcd13ifvqgtg","pricing_plan_id":"free"},{"bike_id":"b263c360-06c8-4f3d-8e06-07bbbf3b8544","system_id":"levelo_inurba_marseille","lat":43.278128,"lon":5.407195,"is_reserved":false,"is_disabled":false,"rental_uris":{"android":"levelo://app?vid=b263c360-06c8-4f3d-8e06-07bbbf3b8544","ios":"levelo://app?vid=b263c360-06c8-4f3d-8e06-07bbbf3b8544"},"vehicle_type_id":"4","last_reported":1700963508,"current_range_meters":15200,"station_id":"ce4bhnh2rcd13ifvqgtg","pricing_plan_id":"free"},{"bike_id":"5c6ff074-752b-4e7b-b426-7201d9c547af","system_id":"levelo_inurba_marseille","lat":43.265714,"lon":5.372891,"is_reserved":false,"is_disabled":false,"rental_uris":{"android":"levelo://app?vid=5c6ff074-752b-4e7b-b426-7201d9c547af","ios":"levelo://app?vid=5c6ff074-752b-4e7b-b426-7201d9c547af"},"vehicle_type_id":"4","last_reported":1700963508,"current_range_meters":19200,"station_id":"ce4bhg12rcd13ifvqf70","pricing_plan_id":"free"},{"bike_id":"53084004-ec8b-4060-87dd-faf90576d944","system_id":"levelo_inurba_marseille","lat":43.289363,"lon":5.396322,"is_reserved":false,"is_disabled":false,"rental_uris":{"android":"levelo://app?vid=53084004-ec8b-4060-87dd-faf90576d944","ios":"levelo://app?vid=53084004-ec8b-4060-87dd-faf90576d944"},"vehicle_type_id":"4","last_reported":1700963508,"current_range_meters":400,"station_id":"ce4bh3h2rcd13ifvqdn0","pricing_plan_id":"free"},{"bike_id":"f23d8119-b478-4639-98c5-6883279f9f84","system_id":"levelo_inurba_marseille","lat":43.32592,"lon":5.43067,"is_reserved":false,"is_disabled":false,"rental_uris":{"android":"levelo://app?vid=f23d8119-b478-4639-98c5-6883279f9f84","ios":"levelo://app?vid=f23d8119-b478-4639-98c5-6883279f9f84"},"vehicle_type_id":"4","last_reported":1700963508,"current_range_meters":24800,"station_id":"","pricing_plan_id":"free"},{"bike_id":"e7b368e8-9edf-4ac8-acef-7e9558d427aa","system_id":"levelo_inurba_marseille","lat":43.32591,"lon":5.430713,"is_reserved":false,"is_disabled":false,"rental_uris":{"android":"levelo://app?vid=e7b368e8-9edf-4ac8-acef-7e9558d427aa","ios":"levelo://app?vid=e7b368e8-9edf-4ac8-acef-7e9558d427aa"},"vehicle_type_id":"4","last_reported":1700963508,"current_range_meters":0,"station_id":"","pricing_plan_id":"free"},{"bike_id":"ed30d6a1-b23a-49e5-9c83-5546be72a734","system_id":"levelo_inurba_marseille","lat":43.3259,"lon":5.43075,"is_reserved":false,"is_disabled":false,"rental_uris":{"android":"levelo://app?vid=ed30d6a1-b23a-49e5-9c83-5546be72a734","ios":"levelo://app?vid=ed30d6a1-b23a-49e5-9c83-5546be72a734"},"vehicle_type_id":"4","last_reported":1700963508,"current_range_meters":19600,"station_id":"","pricing_plan_id":"free"},{"bike_id":"d67469ee-5362-4610-a163-fe05ae3cf4f7","system_id":"levelo_inurba_marseille","lat":43.32604,"lon":5.430817,"is_reserved":false,"is_disabled":false,"rental_uris":{"android":"levelo://app?vid=d67469ee-5362-4610-a163-fe05ae3cf4f7","ios":"levelo://app?vid=d67469ee-5362-4610-a163-fe05ae3cf4f7"},"vehicle_type_id":"4","last_reported":1700963508,"current_range_meters":8000,"station_id":"","pricing_plan_id":"free"},{"bike_id":"97e80021-871f-43cf-ad8e-99b17a254f61","system_id":"levelo_inurba_marseille","lat":43.27996,"lon":5.416624,"is_reserved":false,"is_disabled":false,"rental_uris":{"android":"levelo://app?vid=97e80021-871f-43cf-ad8e-99b17a254f61","ios":"levelo://app?vid=97e80021-871f-43cf-ad8e-99b17a254f61"},"vehicle_type_id":"4","last_reported":1700963508,"current_range_meters":0,"station_id":"ce4bho12rcd13ifvqh1g","pricing_plan_id":"free"},{"bike_id":"f17f5be1-2a1f-4f2d-9e09-dc20202f6ad8","system_id":"levelo_inurba_marseille","lat":43.267966,"lon":5.393976,"is_reserved":false,"is_disabled":false,"rental_uris":{"android":"levelo://app?vid=f17f5be1-2a1f-4f2d-9e09-dc20202f6ad8","ios":"levelo://app?vid=f17f5be1-2a1f-4f2d-9e09-dc20202f6ad8"},"vehicle_type_id":"4","last_reported":1700963508,"current_range_meters":20400,"station_id":"ce4bhh12rcd13ifvqfg0","pricing_plan_id":"free"},{"bike_id":"2b5f0b27-ae58-4e9e-bd76-c585f78e8a73","system_id":"levelo_inurba_marseille","lat":43.26386,"lon":5.37454,"is_reserved":false,"is_disabled":false,"rental_uris":{"android":"levelo://app?vid=2b5f0b27-ae58-4e9e-bd76-c585f78e8a73","ios":"levelo://app?vid=2b5f0b27-ae58-4e9e-bd76-c585f78e8a73"},"vehicle_type_id":"4","last_reported":1700963508,"current_range_meters":8800,"station_id":"","pricing_plan_id":"free"},{"bike_id":"a4f9a8b2-f5b8-407d-a376-36701a142a74","system_id":"levelo_inurba_marseille","lat":43.265569,"lon":5.390047,"is_reserved":false,"is_disabled":false,"rental_uris":{"android":"levelo://app?vid=a4f9a8b2-f5b8-407d-a376-36701a142a74","ios":"levelo://app?vid=a4f9a8b2-f5b8-407d-a376-36701a142a74"},"vehicle_type_id":"4","last_reported":1700963508,"current_range_meters":4800,"station_id":"ce4bhe12rcd13ifvqf30","pricing_plan_id":"free"},{"bike_id":"9a93adce-6482-40b6-aff9-594a15811470","system_id":"levelo_inurba_marseille","lat":43.26564,"lon":5.39016,"is_reserved":false,"is_disabled":false,"rental_uris":{"android":"levelo://app?vid=9a93adce-6482-40b6-aff9-594a15811470","ios":"levelo://app?vid=9a93adce-6482-40b6-aff9-594a15811470"},"vehicle_type_id":"4","last_reported":1700963508,"current_range_meters":24400,"station_id":"ce4bhe12rcd13ifvqf30","pricing_plan_id":"free"},{"bike_id":"abc24956-5c84-47e6-9753-f39cb2e00995","system_id":"levelo_inurba_marseille","lat":43.26562,"lon":5.39016,"is_reserved":false,"is_disabled":false,"rental_uris":{"android":"levelo://app?vid=abc24956-5c84-47e6-9753-f39cb2e00995","ios":"levelo://app?vid=abc24956-5c84-47e6-9753-f39cb2e00995"},"vehicle_type_id":"4","last_reported":1700963508,"current_range_meters":6400,"station_id":"ce4bhe12rcd13ifvqf30","pricing_plan_id":"free"},{"bike_id":"7eb84224-ddd2-4ee3-9ea9-0c75c393e799","system_id":"levelo_inurba_marseille","lat":43.26949,"lon":5.40262,"is_reserved":false,"is_disabled":false,"rental_uris":{"android":"levelo://app?vid=7eb84224-ddd2-4ee3-9ea9-0c75c393e799","ios":"levelo://app?vid=7eb84224-ddd2-4ee3-9ea9-0c75c393e799"},"vehicle_type_id":"4","last_reported":1700963508,"current_range_meters":18800,"station_id":"cjm6bp8fraef2m0cb0m0","pricing_plan_id":"free"},{"bike_id":"ec593df7-85d2-4a7c-a892-75fec147bf75","system_id":"levelo_inurba_marseille","lat":43.317104,"lon":5.436818,"is_reserved":false,"is_disabled":false,"rental_uris":{"android":"levelo://app?vid=ec593df7-85d2-4a7c-a892-75fec147bf75","ios":"levelo://app?vid=ec593df7-85d2-4a7c-a892-75fec147bf75"},"vehicle_type_id":"4","last_reported":1700963508,"current_range_meters":3600,"station_id":"ce4bhp92rcd13ifvqhcg","pricing_plan_id":"free"},{"bike_id":"149de16b-7aa0-4c51-98d0-fc74b233cb43","system_id":"levelo_inurba_marseille","lat":43.317104,"lon":5.436818,"is_reserved":false,"is_disabled":false,"rental_uris":{"android":"levelo://app?vid=149de16b-7aa0-4c51-98d0-fc74b233cb43","ios":"levelo://app?vid=149de16b-7aa0-4c51-98d0-fc74b233cb43"},"vehicle_type_id":"4","last_reported":1700963508,"current_range_meters":14000,"station_id":"ce4bhp92rcd13ifvqhcg","pricing_plan_id":"free"},{"bike_id":"e6ae5fa6-9435-4ad0-836c-d6e0a81870ce","system_id":"levelo_inurba_marseille","lat":43.317104,"lon":5.436818,"is_reserved":false,"is_disabled":false,"rental_uris":{"android":"levelo://app?vid=e6ae5fa6-9435-4ad0-836c-d6e0a81870ce","ios":"levelo://app?vid=e6ae5fa6-9435-4ad0-836c-d6e0a81870ce"},"vehicle_type_id":"4","last_reported":1700963508,"current_range_meters":11200,"station_id":"ce4bhp92rcd13ifvqhcg","pricing_plan_id":"free"},{"bike_id":"9e593d08-8c96-44ca-b16e-7bf16e9cac2f","system_id":"levelo_inurba_marseille","lat":43.271368,"lon":5.40928,"is_reserved":false,"is_disabled":false,"rental_uris":{"android":"levelo://app?vid=9e593d08-8c96-44ca-b16e-7bf16e9cac2f","ios":"levelo://app?vid=9e593d08-8c96-44ca-b16e-7bf16e9cac2f"},"vehicle_type_id":"4","last_reported":1700963508,"current_range_meters":30800,"station_id":"ce4bhl12rcd13ifvqgf0","pricing_plan_id":"free"},{"bike_id":"dbf62bfb-d43b-46dc-b301-0e9e00d707fe","system_id":"levelo_inurba_marseille","lat":43.261755,"lon":5.379001,"is_reserved":false,"is_disabled":false,"rental_uris":{"android":"levelo://app?vid=dbf62bfb-d43b-46dc-b301-0e9e00d707fe","ios":"levelo://app?vid=dbf62bfb-d43b-46dc-b301-0e9e00d707fe"},"vehicle_type_id":"4","last_reported":1700963508,"current_range_meters":26000,"station_id":"ce4bhjp2rcd13ifvqg90","pricing_plan_id":"free"},{"bike_id":"f4f2e1d5-dafa-412d-9b3a-3611814786ce","system_id":"levelo_inurba_marseille","lat":43.298768,"lon":5.43643,"is_reserved":false,"is_disabled":false,"rental_uris":{"android":"levelo://app?vid=f4f2e1d5-dafa-412d-9b3a-3611814786ce","ios":"levelo://app?vid=f4f2e1d5-dafa-412d-9b3a-3611814786ce"},"vehicle_type_id":"4","last_reported":1700963508,"current_range_meters":31600,"station_id":"ce4bhpp2rcd13ifvqhfg","pricing_plan_id":"free"},{"bike_id":"7c5a83ac-336c-4b91-a5ea-82b3c6d6127d","system_id":"levelo_inurba_marseille","lat":43.298768,"lon":5.43643,"is_reserved":false,"is_disabled":false,"rental_uris":{"android":"levelo://app?vid=7c5a83ac-336c-4b91-a5ea-82b3c6d6127d","ios":"levelo://app?vid=7c5a83ac-336c-4b91-a5ea-82b3c6d6127d"},"vehicle_type_id":"4","last_reported":1700963508,"current_range_meters":31600,"station_id":"ce4bhpp2rcd13ifvqhfg","pricing_plan_id":"free"},{"bike_id":"1abe3e2c-431e-436d-ba02-88693e47ad74","system_id":"levelo_inurba_marseille","lat":43.298768,"lon":5.43643,"is_reserved":false,"is_disabled":false,"rental_uris":{"android":"levelo://app?vid=1abe3e2c-431e-436d-ba02-88693e47ad74","ios":"levelo://app?vid=1abe3e2c-431e-436d-ba02-88693e47ad74"},"vehicle_type_id":"4","last_reported":1700963508,"current_range_meters":26000,"station_id":"ce4bhpp2rcd13ifvqhfg","pricing_plan_id":"free"},{"bike_id":"d24921c1-8c61-4b91-941a-2e11a6ed2b73","system_id":"levelo_inurba_marseille","lat":43.29896,"lon":5.4367,"is_reserved":false,"is_disabled":false,"rental_uris":{"android":"levelo://app?vid=d24921c1-8c61-4b91-941a-2e11a6ed2b73","ios":"levelo://app?vid=d24921c1-8c61-4b91-941a-2e11a6ed2b73"},"vehicle_type_id":"4","last_reported":1700963508,"current_range_meters":8400,"station_id":"ce4bhpp2rcd13ifvqhfg","pricing_plan_id":"free"},{"bike_id":"3d594fb7-50a2-4810-ab82-7b60d7bb8bbf","system_id":"levelo_inurba_marseille","lat":43.298768,"lon":5.43643,"is_reserved":false,"is_disabled":false,"rental_uris":{"android":"levelo://app?vid=3d594fb7-50a2-4810-ab82-7b60d7bb8bbf","ios":"levelo://app?vid=3d594fb7-50a2-4810-ab82-7b60d7bb8bbf"},"vehicle_type_id":"4","last_reported":1700963508,"current_range_meters":10800,"station_id":"ce4bhpp2rcd13ifvqhfg","pricing_plan_id":"free"},{"bike_id":"8af0d2ed-93d1-485d-9803-40c71e52d0d9","system_id":"levelo_inurba_marseille","lat":43.29902,"lon":5.43676,"is_reserved":false,"is_disabled":false,"rental_uris":{"android":"levelo://app?vid=8af0d2ed-93d1-485d-9803-40c71e52d0d9","ios":"levelo://app?vid=8af0d2ed-93d1-485d-9803-40c71e52d0d9"},"vehicle_type_id":"4","last_reported":1700963508,"current_range_meters":11200,"station_id":"ce4bhpp2rcd13ifvqhfg","pricing_plan_id":"free"},{"bike_id":"1c8d74f7-5570-450a-a3f0-692cd9a40004","system_id":"levelo_inurba_marseille","lat":43.281548,"lon":5.42643,"is_reserved":false,"is_disabled":false,"rental_uris":{"android":"levelo://app?vid=1c8d74f7-5570-450a-a3f0-692cd9a40004","ios":"levelo://app?vid=1c8d74f7-5570-450a-a3f0-692cd9a40004"},"vehicle_type_id":"4","last_reported":1700963508,"current_range_meters":28400,"station_id":"ce4bhnh2rcd13ifvqgug","pricing_plan_id":"free"},{"bike_id":"2c1989d6-4d8e-4730-ae6e-e52a5d5d5bad","system_id":"levelo_inurba_marseille","lat":43.2607,"lon":5.393983,"is_reserved":false,"is_disabled":false,"rental_uris":{"android":"levelo://app?vid=2c1989d6-4d8e-4730-ae6e-e52a5d5d5bad","ios":"levelo://app?vid=2c1989d6-4d8e-4730-ae6e-e52a5d5d5bad"},"vehicle_type_id":"4","last_reported":1700963508,"current_range_meters":0,"station_id":"ce4bhh92rcd13ifvqfj0","pricing_plan_id":"free"},{"bike_id":"25f53fe9-442d-4a6b-bff7-b174c2430662","system_id":"levelo_inurba_marseille","lat":43.2607,"lon":5.393983,"is_reserved":false,"is_disabled":false,"rental_uris":{"android":"levelo://app?vid=25f53fe9-442d-4a6b-bff7-b174c2430662","ios":"levelo://app?vid=25f53fe9-442d-4a6b-bff7-b174c2430662"},"vehicle_type_id":"4","last_reported":1700963508,"current_range_meters":26000,"station_id":"ce4bhh92rcd13ifvqfj0","pricing_plan_id":"free"},{"bike_id":"8c98fc60-bfce-4622-8c56-f37c184197a6","system_id":"levelo_inurba_marseille","lat":43.260909,"lon":5.397591,"is_reserved":false,"is_disabled":false,"rental_uris":{"android":"levelo://app?vid=8c98fc60-bfce-4622-8c56-f37c184197a6","ios":"levelo://app?vid=8c98fc60-bfce-4622-8c56-f37c184197a6"},"vehicle_type_id":"4","last_reported":1700963508,"current_range_meters":4800,"station_id":"ce4bhi12rcd13ifvqfq0","pricing_plan_id":"free"},{"bike_id":"15faebde-c4f6-4d57-9bfa-913502eca75c","system_id":"levelo_inurba_marseille","lat":43.275028,"lon":5.424534,"is_reserved":false,"is_disabled":false,"rental_uris":{"android":"levelo://app?vid=15faebde-c4f6-4d57-9bfa-913502eca75c","ios":"levelo://app?vid=15faebde-c4f6-4d57-9bfa-913502eca75c"},"vehicle_type_id":"4","last_reported":1700963508,"current_range_meters":27600,"station_id":"ce4bhn92rcd13ifvqgrg","pricing_plan_id":"free"},{"bike_id":"e2482bab-1eb4-4a6f-b7fd-75767a4a3271","system_id":"levelo_inurba_marseille","lat":43.275028,"lon":5.424534,"is_reserved":false,"is_disabled":false,"rental_uris":{"android":"levelo://app?vid=e2482bab-1eb4-4a6f-b7fd-75767a4a3271","ios":"levelo://app?vid=e2482bab-1eb4-4a6f-b7fd-75767a4a3271"},"vehicle_type_id":"4","last_reported":1700963508,"current_range_meters":28800,"station_id":"ce4bhn92rcd13ifvqgrg","pricing_plan_id":"free"},{"bike_id":"783e5a08-5c76-48d6-b5a2-4da09393953f","system_id":"levelo_inurba_marseille","lat":43.260909,"lon":5.397591,"is_reserved":false,"is_disabled":false,"rental_uris":{"android":"levelo://app?vid=783e5a08-5c76-48d6-b5a2-4da09393953f","ios":"levelo://app?vid=783e5a08-5c76-48d6-b5a2-4da09393953f"},"vehicle_type_id":"4","last_reported":1700963508,"current_range_meters":10800,"station_id":"ce4bhi12rcd13ifvqfq0","pricing_plan_id":"free"},{"bike_id":"c85f7616-3a9e-47a4-ae16-28a03e51ab4f","system_id":"levelo_inurba_marseille","lat":43.289273,"lon":5.438764,"is_reserved":false,"is_disabled":false,"rental_uris":{"android":"levelo://app?vid=c85f7616-3a9e-47a4-ae16-28a03e51ab4f","ios":"levelo://app?vid=c85f7616-3a9e-47a4-ae16-28a03e51ab4f"},"vehicle_type_id":"4","last_reported":1700963508,"current_range_meters":5600,"station_id":"","pricing_plan_id":"free"},{"bike_id":"53ae05c5-1664-4ddb-ae58-547f63e25710","system_id":"levelo_inurba_marseille","lat":43.25829,"lon":5.39427,"is_reserved":false,"is_disabled":false,"rental_uris":{"android":"levelo://app?vid=53ae05c5-1664-4ddb-ae58-547f63e25710","ios":"levelo://app?vid=53ae05c5-1664-4ddb-ae58-547f63e25710"},"vehicle_type_id":"4","last_reported":1700963508,"current_range_meters":28800,"station_id":"ce4bhip2rcd13ifvqft0","pricing_plan_id":"free"},{"bike_id":"117768a1-b0ac-46a9-b40f-e30b20e5f56f","system_id":"levelo_inurba_marseille","lat":43.258224,"lon":5.394369,"is_reserved":false,"is_disabled":false,"rental_uris":{"android":"levelo://app?vid=117768a1-b0ac-46a9-b40f-e30b20e5f56f","ios":"levelo://app?vid=117768a1-b0ac-46a9-b40f-e30b20e5f56f"},"vehicle_type_id":"4","last_reported":1700963508,"current_range_meters":30000,"station_id":"ce4bhip2rcd13ifvqft0","pricing_plan_id":"free"},{"bike_id":"4b1a6838-7bca-4929-8376-58411a6bee6c","system_id":"levelo_inurba_marseille","lat":43.258224,"lon":5.394369,"is_reserved":false,"is_disabled":false,"rental_uris":{"android":"levelo://app?vid=4b1a6838-7bca-4929-8376-58411a6bee6c","ios":"levelo://app?vid=4b1a6838-7bca-4929-8376-58411a6bee6c"},"vehicle_type_id":"4","last_reported":1700963508,"current_range_meters":23600,"station_id":"ce4bhip2rcd13ifvqft0","pricing_plan_id":"free"},{"bike_id":"9187a420-b46a-4558-9d96-fccb753a64cf","system_id":"levelo_inurba_marseille","lat":43.258224,"lon":5.394369,"is_reserved":false,"is_disabled":false,"rental_uris":{"android":"levelo://app?vid=9187a420-b46a-4558-9d96-fccb753a64cf","ios":"levelo://app?vid=9187a420-b46a-4558-9d96-fccb753a64cf"},"vehicle_type_id":"4","last_reported":1700963508,"current_range_meters":18400,"station_id":"ce4bhip2rcd13ifvqft0","pricing_plan_id":"free"},{"bike_id":"3533a6b9-c640-434b-b433-4e41e36be1b7","system_id":"levelo_inurba_marseille","lat":43.270721,"lon":5.422764,"is_reserved":false,"is_disabled":false,"rental_uris":{"android":"levelo://app?vid=3533a6b9-c640-434b-b433-4e41e36be1b7","ios":"levelo://app?vid=3533a6b9-c640-434b-b433-4e41e36be1b7"},"vehicle_type_id":"4","last_reported":1700963508,"current_range_meters":28000,"station_id":"ce4bhk92rcd13ifvqgb0","pricing_plan_id":"free"},{"bike_id":"e06a8c78-4d48-491c-8072-84514714cbe8","system_id":"levelo_inurba_marseille","lat":43.270721,"lon":5.422764,"is_reserved":false,"is_disabled":false,"rental_uris":{"android":"levelo://app?vid=e06a8c78-4d48-491c-8072-84514714cbe8","ios":"levelo://app?vid=e06a8c78-4d48-491c-8072-84514714cbe8"},"vehicle_type_id":"4","last_reported":1700963508,"current_range_meters":31600,"station_id":"ce4bhk92rcd13ifvqgb0","pricing_plan_id":"free"},{"bike_id":"0b8e004f-c033-4d03-aaed-ee97b6faae0d","system_id":"levelo_inurba_marseille","lat":43.25935,"lon":5.40919,"is_reserved":false,"is_disabled":false,"rental_uris":{"android":"levelo://app?vid=0b8e004f-c033-4d03-aaed-ee97b6faae0d","ios":"levelo://app?vid=0b8e004f-c033-4d03-aaed-ee97b6faae0d"},"vehicle_type_id":"4","last_reported":1700963508,"current_range_meters":22000,"station_id":"ce4bhm92rcd13ifvqglg","pricing_plan_id":"free"},{"bike_id":"22a366ac-5382-4e2c-9fc6-96ed97199718","system_id":"levelo_inurba_marseille","lat":43.2593,"lon":5.40915,"is_reserved":false,"is_disabled":false,"rental_uris":{"android":"levelo://app?vid=22a366ac-5382-4e2c-9fc6-96ed97199718","ios":"levelo://app?vid=22a366ac-5382-4e2c-9fc6-96ed97199718"},"vehicle_type_id":"4","last_reported":1700963508,"current_range_meters":25600,"station_id":"ce4bhm92rcd13ifvqglg","pricing_plan_id":"free"},{"bike_id":"abc24cba-273e-49ce-bd59-5385a430ee8b","system_id":"levelo_inurba_marseille","lat":43.257079,"lon":5.411051,"is_reserved":false,"is_disabled":false,"rental_uris":{"android":"levelo://app?vid=abc24cba-273e-49ce-bd59-5385a430ee8b","ios":"levelo://app?vid=abc24cba-273e-49ce-bd59-5385a430ee8b"},"vehicle_type_id":"4","last_reported":1700963508,"current_range_meters":18000,"station_id":"ce4bhkp2rcd13ifvqgd0","pricing_plan_id":"free"},{"bike_id":"02c627a8-ed8a-4643-aca5-8acd3afbca7a","system_id":"levelo_inurba_marseille","lat":43.257079,"lon":5.411051,"is_reserved":false,"is_disabled":false,"rental_uris":{"android":"levelo://app?vid=02c627a8-ed8a-4643-aca5-8acd3afbca7a","ios":"levelo://app?vid=02c627a8-ed8a-4643-aca5-8acd3afbca7a"},"vehicle_type_id":"4","last_reported":1700963508,"current_range_meters":28400,"station_id":"ce4bhkp2rcd13ifvqgd0","pricing_plan_id":"free"},{"bike_id":"8b6e2a1b-c4f1-43f8-ad2c-fdfaa77fc447","system_id":"levelo_inurba_marseille","lat":43.25721,"lon":5.41117,"is_reserved":false,"is_disabled":false,"rental_uris":{"android":"levelo://app?vid=8b6e2a1b-c4f1-43f8-ad2c-fdfaa77fc447","ios":"levelo://app?vid=8b6e2a1b-c4f1-43f8-ad2c-fdfaa77fc447"},"vehicle_type_id":"4","last_reported":1700963508,"current_range_meters":28800,"station_id":"ce4bhkp2rcd13ifvqgd0","pricing_plan_id":"free"},{"bike_id":"76f36148-5dd9-400b-baa8-9aa3b229b966","system_id":"levelo_inurba_marseille","lat":43.250009,"lon":5.389195,"is_reserved":false,"is_disabled":false,"rental_uris":{"android":"levelo://app?vid=76f36148-5dd9-400b-baa8-9aa3b229b966","ios":"levelo://app?vid=76f36148-5dd9-400b-baa8-9aa3b229b966"},"vehicle_type_id":"4","last_reported":1700963508,"current_range_meters":30400,"station_id":"ce4bhgp2rcd13ifvqfd0","pricing_plan_id":"free"},{"bike_id":"e7764f93-b91e-4fba-aaa4-776ee669edb9","system_id":"levelo_inurba_marseille","lat":43.250023,"lon":5.38919,"is_reserved":false,"is_disabled":false,"rental_uris":{"android":"levelo://app?vid=e7764f93-b91e-4fba-aaa4-776ee669edb9","ios":"levelo://app?vid=e7764f93-b91e-4fba-aaa4-776ee669edb9"},"vehicle_type_id":"4","last_reported":1700963508,"current_range_meters":26800,"station_id":"ce4bhgp2rcd13ifvqfd0","pricing_plan_id":"free"},{"bike_id":"6b573e3b-f283-4036-9bc9-c40496c30355","system_id":"levelo_inurba_marseille","lat":43.24805,"lon":5.37452,"is_reserved":false,"is_disabled":false,"rental_uris":{"android":"levelo://app?vid=6b573e3b-f283-4036-9bc9-c40496c30355","ios":"levelo://app?vid=6b573e3b-f283-4036-9bc9-c40496c30355"},"vehicle_type_id":"4","last_reported":1700963508,"current_range_meters":18400,"station_id":"ce4bhgh2rcd13ifvqfb0","pricing_plan_id":"free"},{"bike_id":"32c5e434-060c-4b2f-af89-9834d3df3b5d","system_id":"levelo_inurba_marseille","lat":43.2479,"lon":5.374457,"is_reserved":false,"is_disabled":false,"rental_uris":{"android":"levelo://app?vid=32c5e434-060c-4b2f-af89-9834d3df3b5d","ios":"levelo://app?vid=32c5e434-060c-4b2f-af89-9834d3df3b5d"},"vehicle_type_id":"4","last_reported":1700963508,"current_range_meters":28000,"station_id":"ce4bhgh2rcd13ifvqfb0","pricing_plan_id":"free"},{"bike_id":"4718b3d7-4847-4237-a22f-3d52e449c36d","system_id":"levelo_inurba_marseille","lat":43.250897,"lon":5.395161,"is_reserved":false,"is_disabled":false,"rental_uris":{"android":"levelo://app?vid=4718b3d7-4847-4237-a22f-3d52e449c36d","ios":"levelo://app?vid=4718b3d7-4847-4237-a22f-3d52e449c36d"},"vehicle_type_id":"4","last_reported":1700963508,"current_range_meters":26000,"station_id":"ce4bhm12rcd13ifvqgkg","pricing_plan_id":"free"},{"bike_id":"4e22f755-9fb8-454a-aed8-0ce31691dc80","system_id":"levelo_inurba_marseille","lat":43.2473,"lon":5.37395,"is_reserved":false,"is_disabled":false,"rental_uris":{"android":"levelo://app?vid=4e22f755-9fb8-454a-aed8-0ce31691dc80","ios":"levelo://app?vid=4e22f755-9fb8-454a-aed8-0ce31691dc80"},"vehicle_type_id":"4","last_reported":1700963508,"current_range_meters":17200,"station_id":"","pricing_plan_id":"free"},{"bike_id":"2645cd39-512e-4061-b025-45f27893a23b","system_id":"levelo_inurba_marseille","lat":43.246646,"lon":5.381555,"is_reserved":false,"is_disabled":false,"rental_uris":{"android":"levelo://app?vid=2645cd39-512e-4061-b025-45f27893a23b","ios":"levelo://app?vid=2645cd39-512e-4061-b025-45f27893a23b"},"vehicle_type_id":"4","last_reported":1700963508,"current_range_meters":29200,"station_id":"ce4bhih2rcd13ifvqfr0","pricing_plan_id":"free"},{"bike_id":"c5abd94b-53ad-4088-a14a-139d39627fc9","system_id":"levelo_inurba_marseille","lat":43.25102,"lon":5.403214,"is_reserved":false,"is_disabled":false,"rental_uris":{"android":"levelo://app?vid=c5abd94b-53ad-4088-a14a-139d39627fc9","ios":"levelo://app?vid=c5abd94b-53ad-4088-a14a-139d39627fc9"},"vehicle_type_id":"4","last_reported":1700963508,"current_range_meters":21600,"station_id":"ce4bhlh2rcd13ifvqgig","pricing_plan_id":"free"},{"bike_id":"890f1931-e5ec-4066-b5a7-0222afec386c","system_id":"levelo_inurba_marseille","lat":43.25102,"lon":5.403214,"is_reserved":false,"is_disabled":false,"rental_uris":{"android":"levelo://app?vid=890f1931-e5ec-4066-b5a7-0222afec386c","ios":"levelo://app?vid=890f1931-e5ec-4066-b5a7-0222afec386c"},"vehicle_type_id":"4","last_reported":1700963508,"current_range_meters":32000,"station_id":"ce4bhlh2rcd13ifvqgig","pricing_plan_id":"free"},{"bike_id":"903ed4a8-c1d1-413a-9081-9eff9c4d7773","system_id":"levelo_inurba_marseille","lat":43.246467,"lon":5.388984,"is_reserved":false,"is_disabled":false,"rental_uris":{"android":"levelo://app?vid=903ed4a8-c1d1-413a-9081-9eff9c4d7773","ios":"levelo://app?vid=903ed4a8-c1d1-413a-9081-9eff9c4d7773"},"vehicle_type_id":"4","last_reported":1700963508,"current_range_meters":29200,"station_id":"ce4bhg12rcd13ifvqf60","pricing_plan_id":"free"},{"bike_id":"16cbc471-e842-49b7-be91-1309994883e2","system_id":"levelo_inurba_marseille","lat":43.246435,"lon":5.388955,"is_reserved":false,"is_disabled":false,"rental_uris":{"android":"levelo://app?vid=16cbc471-e842-49b7-be91-1309994883e2","ios":"levelo://app?vid=16cbc471-e842-49b7-be91-1309994883e2"},"vehicle_type_id":"4","last_reported":1700963508,"current_range_meters":23200,"station_id":"ce4bhg12rcd13ifvqf60","pricing_plan_id":"free"},{"bike_id":"e33e68a4-6943-4536-9417-dabe38fe3c20","system_id":"levelo_inurba_marseille","lat":43.243884,"lon":5.370737,"is_reserved":false,"is_disabled":false,"rental_uris":{"android":"levelo://app?vid=e33e68a4-6943-4536-9417-dabe38fe3c20","ios":"levelo://app?vid=e33e68a4-6943-4536-9417-dabe38fe3c20"},"vehicle_type_id":"4","last_reported":1700963508,"current_range_meters":26800,"station_id":"ce4bhhh2rcd13ifvqfk0","pricing_plan_id":"free"},{"bike_id":"7639a052-d686-4e15-99fe-f110b2f19460","system_id":"levelo_inurba_marseille","lat":43.243884,"lon":5.370736,"is_reserved":false,"is_disabled":false,"rental_uris":{"android":"levelo://app?vid=7639a052-d686-4e15-99fe-f110b2f19460","ios":"levelo://app?vid=7639a052-d686-4e15-99fe-f110b2f19460"},"vehicle_type_id":"4","last_reported":1700963508,"current_range_meters":30800,"station_id":"ce4bhhh2rcd13ifvqfk0","pricing_plan_id":"free"},{"bike_id":"853e46e5-f95f-40e2-8766-1c0baa0b7899","system_id":"levelo_inurba_marseille","lat":43.245581,"lon":5.395069,"is_reserved":false,"is_disabled":false,"rental_uris":{"android":"levelo://app?vid=853e46e5-f95f-40e2-8766-1c0baa0b7899","ios":"levelo://app?vid=853e46e5-f95f-40e2-8766-1c0baa0b7899"},"vehicle_type_id":"4","last_reported":1700963508,"current_range_meters":7200,"station_id":"ce4bhlp2rcd13ifvqgjg","pricing_plan_id":"free"},{"bike_id":"0265b60e-d829-4d27-8cee-8f8a0b69f409","system_id":"levelo_inurba_marseille","lat":43.24074,"lon":5.37745,"is_reserved":false,"is_disabled":false,"rental_uris":{"android":"levelo://app?vid=0265b60e-d829-4d27-8cee-8f8a0b69f409","ios":"levelo://app?vid=0265b60e-d829-4d27-8cee-8f8a0b69f409"},"vehicle_type_id":"4","last_reported":1700963508,"current_range_meters":0,"station_id":"ce4bhnp2rcd13ifvqgvg","pricing_plan_id":"free"},{"bike_id":"8ddc8e40-82e4-4cc6-90af-c119357648f0","system_id":"levelo_inurba_marseille","lat":43.239588,"lon":5.366238,"is_reserved":false,"is_disabled":false,"rental_uris":{"android":"levelo://app?vid=8ddc8e40-82e4-4cc6-90af-c119357648f0","ios":"levelo://app?vid=8ddc8e40-82e4-4cc6-90af-c119357648f0"},"vehicle_type_id":"4","last_reported":1700963508,"current_range_meters":24000,"station_id":"ce4bhi12rcd13ifvqfp0","pricing_plan_id":"free"},{"bike_id":"ff01dbe1-223f-43a9-b0c6-51a5a8d2ed05","system_id":"levelo_inurba_marseille","lat":43.239588,"lon":5.366238,"is_reserved":false,"is_disabled":false,"rental_uris":{"android":"levelo://app?vid=ff01dbe1-223f-43a9-b0c6-51a5a8d2ed05","ios":"levelo://app?vid=ff01dbe1-223f-43a9-b0c6-51a5a8d2ed05"},"vehicle_type_id":"4","last_reported":1700963508,"current_range_meters":32000,"station_id":"ce4bhi12rcd13ifvqfp0","pricing_plan_id":"free"},{"bike_id":"a0e1f1d6-3f92-4eff-927c-9ca415b7ca93","system_id":"levelo_inurba_marseille","lat":43.23963,"lon":5.366319,"is_reserved":false,"is_disabled":false,"rental_uris":{"android":"levelo://app?vid=a0e1f1d6-3f92-4eff-927c-9ca415b7ca93","ios":"levelo://app?vid=a0e1f1d6-3f92-4eff-927c-9ca415b7ca93"},"vehicle_type_id":"4","last_reported":1700963508,"current_range_meters":4000,"station_id":"ce4bhi12rcd13ifvqfp0","pricing_plan_id":"free"},{"bike_id":"05291694-2672-4b1e-9b26-7f92e1594559","system_id":"levelo_inurba_marseille","lat":43.239588,"lon":5.366238,"is_reserved":false,"is_disabled":false,"rental_uris":{"android":"levelo://app?vid=05291694-2672-4b1e-9b26-7f92e1594559","ios":"levelo://app?vid=05291694-2672-4b1e-9b26-7f92e1594559"},"vehicle_type_id":"4","last_reported":1700963508,"current_range_meters":27600,"station_id":"ce4bhi12rcd13ifvqfp0","pricing_plan_id":"free"},{"bike_id":"fb7be5a0-e980-436b-ac60-879a3e279215","system_id":"levelo_inurba_marseille","lat":43.239627,"lon":5.366302,"is_reserved":false,"is_disabled":false,"rental_uris":{"android":"levelo://app?vid=fb7be5a0-e980-436b-ac60-879a3e279215","ios":"levelo://app?vid=fb7be5a0-e980-436b-ac60-879a3e279215"},"vehicle_type_id":"4","last_reported":1700963508,"current_range_meters":22400,"station_id":"ce4bhi12rcd13ifvqfp0","pricing_plan_id":"free"},{"bike_id":"a59a9f52-9d06-4b12-9392-cdd5f569c2ca","system_id":"levelo_inurba_marseille","lat":43.23962,"lon":5.36629,"is_reserved":false,"is_disabled":false,"rental_uris":{"android":"levelo://app?vid=a59a9f52-9d06-4b12-9392-cdd5f569c2ca","ios":"levelo://app?vid=a59a9f52-9d06-4b12-9392-cdd5f569c2ca"},"vehicle_type_id":"4","last_reported":1700963508,"current_range_meters":28800,"station_id":"ce4bhi12rcd13ifvqfp0","pricing_plan_id":"free"},{"bike_id":"47e43998-06a7-44f6-a336-05874a757f9d","system_id":"levelo_inurba_marseille","lat":43.239588,"lon":5.366238,"is_reserved":false,"is_disabled":false,"rental_uris":{"android":"levelo://app?vid=47e43998-06a7-44f6-a336-05874a757f9d","ios":"levelo://app?vid=47e43998-06a7-44f6-a336-05874a757f9d"},"vehicle_type_id":"4","last_reported":1700963508,"current_range_meters":14800,"station_id":"ce4bhi12rcd13ifvqfp0","pricing_plan_id":"free"},{"bike_id":"c8b0fc92-e06b-450c-b7d7-d6ab9ca59443","system_id":"levelo_inurba_marseille","lat":43.239605,"lon":5.366279,"is_reserved":false,"is_disabled":false,"rental_uris":{"android":"levelo://app?vid=c8b0fc92-e06b-450c-b7d7-d6ab9ca59443","ios":"levelo://app?vid=c8b0fc92-e06b-450c-b7d7-d6ab9ca59443"},