{"last_updated":1728209290,"ttl":60,"version":"2.2","data":{"bikes":[{"bike_id":"b3fb91ee-2552-4bb1-b638-e1c008f0fbc7","system_id":"levelo_inurba_marseille","lat":43.26059,"lon":5.39391,"is_reserved":false,"is_disabled":false,"rental_uris":{"android":"levelo://app?vid=b3fb91ee-2552-4bb1-b638-e1c008f0fbc7","ios":"levelo://app?vid=b3fb91ee-2552-4bb1-b638-e1c008f0fbc7"},"vehicle_type_id":"4","last_reported":1728209290,"current_range_meters":37600,"station_id":"ce4bhh92rcd13ifvqfj0","pricing_plan_id":"cebpf4jnsgd1na2vs0mg"},{"bike_id":"e626ce58-ed24-403d-b16f-1544c4a5d89a","system_id":"levelo_inurba_marseille","lat":43.23191,"lon":5.35546,"is_reserved":false,"is_disabled":false,"rental_uris":{"android":"levelo://app?vid=e626ce58-ed24-403d-b16f-1544c4a5d89a","ios":"levelo://app?vid=e626ce58-ed24-403d-b16f-1544c4a5d89a"},"vehicle_type_id":"4","last_reported":1728209290,"current_range_meters":37600,"station_id":"ce4bhu92rcd13ifvqi70","pricing_plan_id":"cebpf4jnsgd1na2vs0mg"},{"bike_id":"8141a509-e797-4ec3-9b27-a12ebc8090b6","system_id":"levelo_inurba_marseille","lat":43.25112,"lon":5.4032,"is_reserved":false,"is_disabled":false,"rental_uris":{"android":"levelo://app?vid=8141a509-e797-4ec3-9b27-a12ebc8090b6","ios":"levelo://app?vid=8141a509-e797-4ec3-9b27-a12ebc8090b6"},"vehicle_type_id":"4","last_reported":1728209290,"current_range_meters":37600,"station_id":"ce4bhlh2rcd13ifvqgig","pricing_plan_id":"cebpf4jnsgd1na2vs0mg"},{"bike_id":"9671f252-4906-4ded-9eb9-fd7886dcac1f","system_id":"levelo_inurba_marseille","lat":43.317484,"lon":5.390188,"is_reserved":false,"is_disabled":false,"rental_uris":{"android":"levelo://app?vid=9671f252-4906-4ded-9eb9-fd7886dcac1f","ios":"levelo://app?vid=9671f252-4906-4ded-9eb9-fd7886dcac1f"},"vehicle_type_id":"4","last_reported":1728209290,"current_range_meters":38000,"station_id":"ce4bhqp2rcd13ifvqhng","pricing_plan_id":"cebpf4jnsgd1na2vs0mg"},{"bike_id":"940cde9c-6243-4a9e-89af-97831cb9ac45","system_id":"levelo_inurba_marseille","lat":43.24392,"lon":5.37054,"is_reserved":false,"is_disabled":false,"rental_uris":{"android":"levelo://app?vid=940cde9c-6243-4a9e-89af-97831cb9ac45","ios":"levelo://app?vid=940cde9c-6243-4a9e-89af-97831cb9ac45"},"vehicle_type_id":"4","last_reported":1728209290,"current_range_meters":33600,"station_id":"ce4bhhh2rcd13ifvqfk0","pricing_plan_id":"cebpf4jnsgd1na2vs0mg"},{"bike_id":"8e27a86e-43cd-424b-8feb-b85d8cb7a469","system_id":"levelo_inurba_marseille","lat":43.27829,"lon":5.39208,"is_reserved":false,"is_disabled":false,"rental_uris":{"android":"levelo://app?vid=8e27a86e-43cd-424b-8feb-b85d8cb7a469","ios":"levelo://app?vid=8e27a86e-43cd-424b-8feb-b85d8cb7a469"},"vehicle_type_id":"4","last_reported":1728209290,"current_range_meters":29600,"station_id":"ce4bhjp2rcd13ifvqga0","pricing_plan_id":"cebpf4jnsgd1na2vs0mg"},{"bike_id":"3edccbad-c604-40df-acb2-6e9d91b67298","system_id":"levelo_inurba_marseille","lat":43.21334,"lon":5.34942,"is_reserved":false,"is_disabled":false,"rental_uris":{"android":"levelo://app?vid=3edccbad-c604-40df-acb2-6e9d91b67298","ios":"levelo://app?vid=3edccbad-c604-40df-acb2-6e9d91b67298"},"vehicle_type_id":"4","last_reported":1728209290,"current_range_meters":29600,"station_id":"crv51consjfaj9uu89c0","pricing_plan_id":"cebpf4jnsgd1na2vs0mg"},{"bike_id":"1cfeae63-a577-4e03-9463-bfce4103d491","system_id":"levelo_inurba_marseille","lat":43.29627,"lon":5.40597,"is_reserved":false,"is_disabled":false,"rental_uris":{"android":"levelo://app?vid=1cfeae63-a577-4e03-9463-bfce4103d491","ios":"levelo://app?vid=1cfeae63-a577-4e03-9463-bfce4103d491"},"vehicle_type_id":"4","last_reported":1728209290,"current_range_meters":37600,"station_id":"ce4bh0h2rcd13ifvqd60","pricing_plan_id":"cebpf4jnsgd1na2vs0mg"},{"bike_id":"f42ba909-c6af-4d4c-bcad-ee9c6f8944ff","system_id":"levelo_inurba_marseille","lat":43.31748,"lon":5.39036,"is_reserved":false,"is_disabled":false,"rental_uris":{"android":"levelo://app?vid=f42ba909-c6af-4d4c-bcad-ee9c6f8944ff","ios":"levelo://app?vid=f42ba909-c6af-4d4c-bcad-ee9c6f8944ff"},"vehicle_type_id":"4","last_reported":1728209290,"current_range_meters":38800,"station_id":"ce4bhqp2rcd13ifvqhng","pricing_plan_id":"cebpf4jnsgd1na2vs0mg"},{"bike_id":"5753b4cd-508e-40cf-9b18-608ae9a4cd96","system_id":"levelo_inurba_marseille","lat":43.2964,"lon":5.37991,"is_reserved":false,"is_disabled":false,"rental_uris":{"android":"levelo://app?vid=5753b4cd-508e-40cf-9b18-608ae9a4cd96","ios":"levelo://app?vid=5753b4cd-508e-40cf-9b18-608ae9a4cd96"},"vehicle_type_id":"4","last_reported":1728209290,"current_range_meters":32000,"station_id":"","pricing_plan_id":"cebpf4jnsgd1na2vs0mg"},{"bike_id":"0690d114-c8c7-4e46-a5a2-7f449cdff008","system_id":"levelo_inurba_marseille","lat":43.30798,"lon":5.43519,"is_reserved":false,"is_disabled":false,"rental_uris":{"android":"levelo://app?vid=0690d114-c8c7-4e46-a5a2-7f449cdff008","ios":"levelo://app?vid=0690d114-c8c7-4e46-a5a2-7f449cdff008"},"vehicle_type_id":"4","last_reported":1728209290,"current_range_meters":21600,"station_id":"ce4bhph2rcd13ifvqheg","pricing_plan_id":"cebpf4jnsgd1na2vs0mg"},{"bike_id":"307819a2-e2f8-4451-b892-f7b3d2a27704","system_id":"levelo_inurba_marseille","lat":43.26553,"lon":5.37281,"is_reserved":false,"is_disabled":false,"rental_uris":{"android":"levelo://app?vid=307819a2-e2f8-4451-b892-f7b3d2a27704","ios":"levelo://app?vid=307819a2-e2f8-4451-b892-f7b3d2a27704"},"vehicle_type_id":"4","last_reported":1728209290,"current_range_meters":19600,"station_id":"ce4bhg12rcd13ifvqf70","pricing_plan_id":"cebpf4jnsgd1na2vs0mg"},{"bike_id":"45724e92-532e-484e-b4a7-5ca3c85c5df6","system_id":"levelo_inurba_marseille","lat":43.23054,"lon":5.35486,"is_reserved":false,"is_disabled":false,"rental_uris":{"android":"levelo://app?vid=45724e92-532e-484e-b4a7-5ca3c85c5df6","ios":"levelo://app?vid=45724e92-532e-484e-b4a7-5ca3c85c5df6"},"vehicle_type_id":"4","last_reported":1728209290,"current_range_meters":19200,"station_id":"cpo3342slgdg3j2ifvpg","pricing_plan_id":"cebpf4jnsgd1na2vs0mg"},{"bike_id":"8b4b06da-a8ff-4dc9-ab9f-042b5fa35747","system_id":"levelo_inurba_marseille","lat":43.25576,"lon":5.38234,"is_reserved":false,"is_disabled":false,"rental_uris":{"android":"levelo://app?vid=8b4b06da-a8ff-4dc9-ab9f-042b5fa35747","ios":"levelo://app?vid=8b4b06da-a8ff-4dc9-ab9f-042b5fa35747"},"vehicle_type_id":"4","last_reported":1728209290,"current_range_meters":7200,"station_id":"ce4bhih2rcd13ifvqfs0","pricing_plan_id":"cebpf4jnsgd1na2vs0mg"},{"bike_id":"3d3e93be-8a67-4628-9af2-2661c9a0daa4","system_id":"levelo_inurba_marseille","lat":43.22931,"lon":5.3537,"is_reserved":false,"is_disabled":false,"rental_uris":{"android":"levelo://app?vid=3d3e93be-8a67-4628-9af2-2661c9a0daa4","ios":"levelo://app?vid=3d3e93be-8a67-4628-9af2-2661c9a0daa4"},"vehicle_type_id":"4","last_reported":1728209290,"current_range_meters":36800,"station_id":"cpo3532slgdg3j2ikp40","pricing_plan_id":"cebpf4jnsgd1na2vs0mg"},{"bike_id":"83bd8e08-648e-4fc6-8901-05219804adac","system_id":"levelo_inurba_marseille","lat":43.2293,"lon":5.35367,"is_reserved":false,"is_disabled":false,"rental_uris":{"android":"levelo://app?vid=83bd8e08-648e-4fc6-8901-05219804adac","ios":"levelo://app?vid=83bd8e08-648e-4fc6-8901-05219804adac"},"vehicle_type_id":"4","last_reported":1728209290,"current_range_meters":30400,"station_id":"cpo3532slgdg3j2ikp40","pricing_plan_id":"cebpf4jnsgd1na2vs0mg"},{"bike_id":"ac5813f6-072e-40e6-8a8c-e65db2a145d8","system_id":"levelo_inurba_marseille","lat":43.24545,"lon":5.39519,"is_reserved":false,"is_disabled":false,"rental_uris":{"android":"levelo://app?vid=ac5813f6-072e-40e6-8a8c-e65db2a145d8","ios":"levelo://app?vid=ac5813f6-072e-40e6-8a8c-e65db2a145d8"},"vehicle_type_id":"4","last_reported":1728209290,"current_range_meters":12400,"station_id":"ce4bhlp2rcd13ifvqgjg","pricing_plan_id":"cebpf4jnsgd1na2vs0mg"},{"bike_id":"6266ab0d-036e-4351-aec4-c2f2013119e5","system_id":"levelo_inurba_marseille","lat":43.32479,"lon":5.36569,"is_reserved":false,"is_disabled":false,"rental_uris":{"android":"levelo://app?vid=6266ab0d-036e-4351-aec4-c2f2013119e5","ios":"levelo://app?vid=6266ab0d-036e-4351-aec4-c2f2013119e5"},"vehicle_type_id":"4","last_reported":1728209290,"current_range_meters":38800,"station_id":"ce4bhs12rcd13ifvqhvg","pricing_plan_id":"cebpf4jnsgd1na2vs0mg"},{"bike_id":"6d1960c2-73b0-416f-ac18-052150a2fe98","system_id":"levelo_inurba_marseille","lat":43.31683,"lon":5.40471,"is_reserved":false,"is_disabled":false,"rental_uris":{"android":"levelo://app?vid=6d1960c2-73b0-416f-ac18-052150a2fe98","ios":"levelo://app?vid=6d1960c2-73b0-416f-ac18-052150a2fe98"},"vehicle_type_id":"4","last_reported":1728209290,"current_range_meters":39200,"station_id":"ce4bh012rcd13ifvqd00","pricing_plan_id":"cebpf4jnsgd1na2vs0mg"},{"bike_id":"85919855-620e-4b13-9027-ca497f735245","system_id":"levelo_inurba_marseille","lat":43.27946,"lon":5.41042,"is_reserved":false,"is_disabled":false,"rental_uris":{"android":"levelo://app?vid=85919855-620e-4b13-9027-ca497f735245","ios":"levelo://app?vid=85919855-620e-4b13-9027-ca497f735245"},"vehicle_type_id":"4","last_reported":1728209290,"current_range_meters":39200,"station_id":"ce4bhnp2rcd13ifvqh0g","pricing_plan_id":"cebpf4jnsgd1na2vs0mg"},{"bike_id":"2c1ccc48-7b9a-4b96-82c1-feb476287a75","system_id":"levelo_inurba_marseille","lat":43.25083,"lon":5.39512,"is_reserved":false,"is_disabled":false,"rental_uris":{"android":"levelo://app?vid=2c1ccc48-7b9a-4b96-82c1-feb476287a75","ios":"levelo://app?vid=2c1ccc48-7b9a-4b96-82c1-feb476287a75"},"vehicle_type_id":"4","last_reported":1728209290,"current_range_meters":36000,"station_id":"ce4bhm12rcd13ifvqgkg","pricing_plan_id":"cebpf4jnsgd1na2vs0mg"},{"bike_id":"a41df883-033a-4307-bfb7-c30788c38ba2","system_id":"levelo_inurba_marseille","lat":43.24074,"lon":5.37756,"is_reserved":false,"is_disabled":false,"rental_uris":{"android":"levelo://app?vid=a41df883-033a-4307-bfb7-c30788c38ba2","ios":"levelo://app?vid=a41df883-033a-4307-bfb7-c30788c38ba2"},"vehicle_type_id":"4","last_reported":1728209290,"current_range_meters":6400,"station_id":"ce4bhnp2rcd13ifvqgvg","pricing_plan_id":"cebpf4jnsgd1na2vs0mg"},{"bike_id":"f11dd066-6b94-4d0b-8a87-cb59e5dabda0","system_id":"levelo_inurba_marseille","lat":43.31276,"lon":5.40164,"is_reserved":false,"is_disabled":false,"rental_uris":{"android":"levelo://app?vid=f11dd066-6b94-4d0b-8a87-cb59e5dabda0","ios":"levelo://app?vid=f11dd066-6b94-4d0b-8a87-cb59e5dabda0"},"vehicle_type_id":"4","last_reported":1728209290,"current_range_meters":40000,"station_id":"ce4bh092rcd13ifvqd30","pricing_plan_id":"cebpf4jnsgd1na2vs0mg"},{"bike_id":"2e438963-e41f-405d-a1f2-5eab4e79c68a","system_id":"levelo_inurba_marseille","lat":43.29954,"lon":5.41313,"is_reserved":false,"is_disabled":false,"rental_uris":{"android":"levelo://app?vid=2e438963-e41f-405d-a1f2-5eab4e79c68a","ios":"levelo://app?vid=2e438963-e41f-405d-a1f2-5eab4e79c68a"},"vehicle_type_id":"4","last_reported":1728209290,"current_range_meters":25600,"station_id":"ce4bhp12rcd13ifvqh9g","pricing_plan_id":"cebpf4jnsgd1na2vs0mg"},{"bike_id":"b0040836-58e9-42e6-8de8-353d70a30213","system_id":"levelo_inurba_marseille","lat":43.302338,"lon":5.395169,"is_reserved":false,"is_disabled":false,"rental_uris":{"android":"levelo://app?vid=b0040836-58e9-42e6-8de8-353d70a30213","ios":"levelo://app?vid=b0040836-58e9-42e6-8de8-353d70a30213"},"vehicle_type_id":"4","last_reported":1728209290,"current_range_meters":35600,"station_id":"ce4bh0p2rcd13ifvqd70","pricing_plan_id":"cebpf4jnsgd1na2vs0mg"},{"bike_id":"32ab325a-0e98-4bb3-809c-c26d46577549","system_id":"levelo_inurba_marseille","lat":43.22927,"lon":5.35374,"is_reserved":false,"is_disabled":false,"rental_uris":{"android":"levelo://app?vid=32ab325a-0e98-4bb3-809c-c26d46577549","ios":"levelo://app?vid=32ab325a-0e98-4bb3-809c-c26d46577549"},"vehicle_type_id":"4","last_reported":1728209290,"current_range_meters":27200,"station_id":"cpo3532slgdg3j2ikp40","pricing_plan_id":"cebpf4jnsgd1na2vs0mg"},{"bike_id":"0b99fca7-37e3-4084-816e-a420334fbf77","system_id":"levelo_inurba_marseille","lat":43.30133,"lon":5.39867,"is_reserved":false,"is_disabled":false,"rental_uris":{"android":"levelo://app?vid=0b99fca7-37e3-4084-816e-a420334fbf77","ios":"levelo://app?vid=0b99fca7-37e3-4084-816e-a420334fbf77"},"vehicle_type_id":"4","last_reported":1728209290,"current_range_meters":36800,"station_id":"ce4bh0h2rcd13ifvqd40","pricing_plan_id":"cebpf4jnsgd1na2vs0mg"},{"bike_id":"17d8cbcd-0f4c-4a6c-968b-0b9ea072e4cf","system_id":"levelo_inurba_marseille","lat":43.32479,"lon":5.36554,"is_reserved":false,"is_disabled":false,"rental_uris":{"android":"levelo://app?vid=17d8cbcd-0f4c-4a6c-968b-0b9ea072e4cf","ios":"levelo://app?vid=17d8cbcd-0f4c-4a6c-968b-0b9ea072e4cf"},"vehicle_type_id":"4","last_reported":1728209290,"current_range_meters":33200,"station_id":"ce4bhs12rcd13ifvqhvg","pricing_plan_id":"cebpf4jnsgd1na2vs0mg"},{"bike_id":"03ebdfef-60b9-4383-b780-f6e10ef5dff9","system_id":"levelo_inurba_marseille","lat":43.33742,"lon":5.37438,"is_reserved":false,"is_disabled":false,"rental_uris":{"android":"levelo://app?vid=03ebdfef-60b9-4383-b780-f6e10ef5dff9","ios":"levelo://app?vid=03ebdfef-60b9-4383-b780-f6e10ef5dff9"},"vehicle_type_id":"4","last_reported":1728209290,"current_range_meters":28000,"station_id":"","pricing_plan_id":"cebpf4jnsgd1na2vs0mg"},{"bike_id":"9f4f297e-eb5d-4946-a6c7-1cdb02af42ab","system_id":"levelo_inurba_marseille","lat":43.29598,"lon":5.38089,"is_reserved":false,"is_disabled":false,"rental_uris":{"android":"levelo://app?vid=9f4f297e-eb5d-4946-a6c7-1cdb02af42ab","ios":"levelo://app?vid=9f4f297e-eb5d-4946-a6c7-1cdb02af42ab"},"vehicle_type_id":"4","last_reported":1728209290,"current_range_meters":34000,"station_id":"ce4bgl12rcd13ifvqbo0","pricing_plan_id":"cebpf4jnsgd1na2vs0mg"},{"bike_id":"5c08e252-2839-4947-989c-31c1eb0bd795","system_id":"levelo_inurba_marseille","lat":43.30132,"lon":5.39871,"is_reserved":false,"is_disabled":false,"rental_uris":{"android":"levelo://app?vid=5c08e252-2839-4947-989c-31c1eb0bd795","ios":"levelo://app?vid=5c08e252-2839-4947-989c-31c1eb0bd795"},"vehicle_type_id":"4","last_reported":1728209290,"current_range_meters":33600,"station_id":"ce4bh0h2rcd13ifvqd40","pricing_plan_id":"cebpf4jnsgd1na2vs0mg"},{"bike_id":"72227fed-9b68-49a2-a888-384f9be8abf6","system_id":"levelo_inurba_marseille","lat":43.32368,"lon":5.38885,"is_reserved":false,"is_disabled":false,"rental_uris":{"android":"levelo://app?vid=72227fed-9b68-49a2-a888-384f9be8abf6","ios":"levelo://app?vid=72227fed-9b68-49a2-a888-384f9be8abf6"},"vehicle_type_id":"4","last_reported":1728209290,"current_range_meters":24800,"station_id":"ce4bhqp2rcd13ifvqhog","pricing_plan_id":"cebpf4jnsgd1na2vs0mg"},{"bike_id":"0952ea56-7f44-4708-ab22-7a7a98985b63","system_id":"levelo_inurba_marseille","lat":43.33023,"lon":5.39037,"is_reserved":false,"is_disabled":false,"rental_uris":{"android":"levelo://app?vid=0952ea56-7f44-4708-ab22-7a7a98985b63","ios":"levelo://app?vid=0952ea56-7f44-4708-ab22-7a7a98985b63"},"vehicle_type_id":"4","last_reported":1728209290,"current_range_meters":31200,"station_id":"ce4bhr92rcd13ifvqhrg","pricing_plan_id":"cebpf4jnsgd1na2vs0mg"},{"bike_id":"8c4ede2a-8479-4951-912b-e9104b176599","system_id":"levelo_inurba_marseille","lat":43.33731,"lon":5.391938,"is_reserved":false,"is_disabled":false,"rental_uris":{"android":"levelo://app?vid=8c4ede2a-8479-4951-912b-e9104b176599","ios":"levelo://app?vid=8c4ede2a-8479-4951-912b-e9104b176599"},"vehicle_type_id":"4","last_reported":1728209290,"current_range_meters":8400,"station_id":"ce4bhr92rcd13ifvqhsg","pricing_plan_id":"cebpf4jnsgd1na2vs0mg"},{"bike_id":"3920a801-f95a-442e-910e-dda1083c3719","system_id":"levelo_inurba_marseille","lat":43.27977,"lon":5.41662,"is_reserved":false,"is_disabled":false,"rental_uris":{"android":"levelo://app?vid=3920a801-f95a-442e-910e-dda1083c3719","ios":"levelo://app?vid=3920a801-f95a-442e-910e-dda1083c3719"},"vehicle_type_id":"4","last_reported":1728209290,"current_range_meters":11200,"station_id":"ce4bho12rcd13ifvqh1g","pricing_plan_id":"cebpf4jnsgd1na2vs0mg"},{"bike_id":"a209a971-131e-491a-94c0-3302688dd8c9","system_id":"levelo_inurba_marseille","lat":43.3081,"lon":5.43518,"is_reserved":false,"is_disabled":false,"rental_uris":{"android":"levelo://app?vid=a209a971-131e-491a-94c0-3302688dd8c9","ios":"levelo://app?vid=a209a971-131e-491a-94c0-3302688dd8c9"},"vehicle_type_id":"4","last_reported":1728209290,"current_range_meters":12800,"station_id":"ce4bhph2rcd13ifvqheg","pricing_plan_id":"cebpf4jnsgd1na2vs0mg"},{"bike_id":"4018fa26-9a2a-4214-af21-76b3667a940b","system_id":"levelo_inurba_marseille","lat":43.33765,"lon":5.3742,"is_reserved":false,"is_disabled":false,"rental_uris":{"android":"levelo://app?vid=4018fa26-9a2a-4214-af21-76b3667a940b","ios":"levelo://app?vid=4018fa26-9a2a-4214-af21-76b3667a940b"},"vehicle_type_id":"4","last_reported":1728209290,"current_range_meters":28400,"station_id":"","pricing_plan_id":"cebpf4jnsgd1na2vs0mg"},{"bike_id":"fac6f7d5-25da-4d75-bd37-6eb9ec641f1f","system_id":"levelo_inurba_marseille","lat":43.23191,"lon":5.35551,"is_reserved":false,"is_disabled":false,"rental_uris":{"android":"levelo://app?vid=fac6f7d5-25da-4d75-bd37-6eb9ec641f1f","ios":"levelo://app?vid=fac6f7d5-25da-4d75-bd37-6eb9ec641f1f"},"vehicle_type_id":"4","last_reported":1728209290,"current_range_meters":37600,"station_id":"ce4bhu92rcd13ifvqi70","pricing_plan_id":"cebpf4jnsgd1na2vs0mg"},{"bike_id":"ac7477e2-647f-4698-b2f1-05ac6bd7ca79","system_id":"levelo_inurba_marseille","lat":43.27373,"lon":5.36255,"is_reserved":false,"is_disabled":false,"rental_uris":{"android":"levelo://app?vid=ac7477e2-647f-4698-b2f1-05ac6bd7ca79","ios":"levelo://app?vid=ac7477e2-647f-4698-b2f1-05ac6bd7ca79"},"vehicle_type_id":"4","last_reported":1728209290,"current_range_meters":34000,"station_id":"ce4bhbh2rcd13ifvqeo0","pricing_plan_id":"cebpf4jnsgd1na2vs0mg"},{"bike_id":"ea1558d2-8ab1-46c9-b214-6b68c55ad7cc","system_id":"levelo_inurba_marseille","lat":43.30956,"lon":5.39033,"is_reserved":false,"is_disabled":false,"rental_uris":{"android":"levelo://app?vid=ea1558d2-8ab1-46c9-b214-6b68c55ad7cc","ios":"levelo://app?vid=ea1558d2-8ab1-46c9-b214-6b68c55ad7cc"},"vehicle_type_id":"4","last_reported":1728209290,"current_range_meters":37600,"station_id":"ce4bgup2rcd13ifvqco0","pricing_plan_id":"cebpf4jnsgd1na2vs0mg"},{"bike_id":"c2631e27-f561-45cd-964c-4f2a217a8c4e","system_id":"levelo_inurba_marseille","lat":43.30639,"lon":5.40067,"is_reserved":false,"is_disabled":false,"rental_uris":{"android":"levelo://app?vid=c2631e27-f561-45cd-964c-4f2a217a8c4e","ios":"levelo://app?vid=c2631e27-f561-45cd-964c-4f2a217a8c4e"},"vehicle_type_id":"4","last_reported":1728209290,"current_range_meters":4000,"station_id":"ce4bh112rcd13ifvqda0","pricing_plan_id":"cebpf4jnsgd1na2vs0mg"},{"bike_id":"9452f831-8c06-4fd2-b57e-3e9000983e32","system_id":"levelo_inurba_marseille","lat":43.31494,"lon":5.37302,"is_reserved":false,"is_disabled":false,"rental_uris":{"android":"levelo://app?vid=9452f831-8c06-4fd2-b57e-3e9000983e32","ios":"levelo://app?vid=9452f831-8c06-4fd2-b57e-3e9000983e32"},"vehicle_type_id":"4","last_reported":1728209290,"current_range_meters":39200,"station_id":"ce4bgt12rcd13ifvqcd0","pricing_plan_id":"cebpf4jnsgd1na2vs0mg"},{"bike_id":"cf365f4a-1842-4f0f-b6d3-9f5ae66c837e","system_id":"levelo_inurba_marseille","lat":43.22931,"lon":5.35373,"is_reserved":false,"is_disabled":false,"rental_uris":{"android":"levelo://app?vid=cf365f4a-1842-4f0f-b6d3-9f5ae66c837e","ios":"levelo://app?vid=cf365f4a-1842-4f0f-b6d3-9f5ae66c837e"},"vehicle_type_id":"4","last_reported":1728209290,"current_range_meters":2800,"station_id":"cpo3532slgdg3j2ikp40","pricing_plan_id":"cebpf4jnsgd1na2vs0mg"},{"bike_id":"aeb150c0-d784-4966-882d-39b5e68454ea","system_id":"levelo_inurba_marseille","lat":43.30653,"lon":5.4007,"is_reserved":false,"is_disabled":false,"rental_uris":{"android":"levelo://app?vid=aeb150c0-d784-4966-882d-39b5e68454ea","ios":"levelo://app?vid=aeb150c0-d784-4966-882d-39b5e68454ea"},"vehicle_type_id":"4","last_reported":1728209290,"current_range_meters":32400,"station_id":"ce4bh112rcd13ifvqda0","pricing_plan_id":"cebpf4jnsgd1na2vs0mg"},{"bike_id":"bba6d92b-aba5-40cf-8c89-a8001c521ff8","system_id":"levelo_inurba_marseille","lat":43.30146,"lon":5.38069,"is_reserved":false,"is_disabled":false,"rental_uris":{"android":"levelo://app?vid=bba6d92b-aba5-40cf-8c89-a8001c521ff8","ios":"levelo://app?vid=bba6d92b-aba5-40cf-8c89-a8001c521ff8"},"vehicle_type_id":"4","last_reported":1728209290,"current_range_meters":6800,"station_id":"ce4bgjp2rcd13ifvqbh0","pricing_plan_id":"cebpf4jnsgd1na2vs0mg"},{"bike_id":"be80d8a2-d07f-4e97-a19e-421069027a70","system_id":"levelo_inurba_marseille","lat":43.24546,"lon":5.3952,"is_reserved":false,"is_disabled":false,"rental_uris":{"android":"levelo://app?vid=be80d8a2-d07f-4e97-a19e-421069027a70","ios":"levelo://app?vid=be80d8a2-d07f-4e97-a19e-421069027a70"},"vehicle_type_id":"4","last_reported":1728209290,"current_range_meters":37600,"station_id":"ce4bhlp2rcd13ifvqgjg","pricing_plan_id":"cebpf4jnsgd1na2vs0mg"},{"bike_id":"491813ec-5bcd-4eda-acb2-c01ccb4e9894","system_id":"levelo_inurba_marseille","lat":43.33751,"lon":5.3744,"is_reserved":false,"is_disabled":false,"rental_uris":{"android":"levelo://app?vid=491813ec-5bcd-4eda-acb2-c01ccb4e9894","ios":"levelo://app?vid=491813ec-5bcd-4eda-acb2-c01ccb4e9894"},"vehicle_type_id":"4","last_reported":1728209290,"current_range_meters":27600,"station_id":"","pricing_plan_id":"cebpf4jnsgd1na2vs0mg"},{"bike_id":"8314afce-5c76-45ae-958c-61928c717fd9","system_id":"levelo_inurba_marseille","lat":43.27984,"lon":5.41653,"is_reserved":false,"is_disabled":false,"rental_uris":{"android":"levelo://app?vid=8314afce-5c76-45ae-958c-61928c717fd9","ios":"levelo://app?vid=8314afce-5c76-45ae-958c-61928c717fd9"},"vehicle_type_id":"4","last_reported":1728209290,"current_range_meters":31200,"station_id":"ce4bho12rcd13ifvqh1g","pricing_plan_id":"cebpf4jnsgd1na2vs0mg"},{"bike_id":"00111326-dc48-45e0-ab76-3fec246ae32f","system_id":"levelo_inurba_marseille","lat":43.30883,"lon":5.39639,"is_reserved":false,"is_disabled":false,"rental_uris":{"android":"levelo://app?vid=00111326-dc48-45e0-ab76-3fec246ae32f","ios":"levelo://app?vid=00111326-dc48-45e0-ab76-3fec246ae32f"},"vehicle_type_id":"4","last_reported":1728209290,"current_range_meters":32800,"station_id":"ce4bh012rcd13ifvqcv0","pricing_plan_id":"cebpf4jnsgd1na2vs0mg"},{"bike_id":"8066cbd9-6f5f-4c8b-82e0-670217342883","system_id":"levelo_inurba_marseille","lat":43.21345,"lon":5.34938,"is_reserved":false,"is_disabled":false,"rental_uris":{"android":"levelo://app?vid=8066cbd9-6f5f-4c8b-82e0-670217342883","ios":"levelo://app?vid=8066cbd9-6f5f-4c8b-82e0-670217342883"},"vehicle_type_id":"4","last_reported":1728209290,"current_range_meters":34000,"station_id":"crv51consjfaj9uu89c0","pricing_plan_id":"cebpf4jnsgd1na2vs0mg"},{"bike_id":"87be7a17-4302-4965-8336-821c2174ed32","system_id":"levelo_inurba_marseille","lat":43.25114,"lon":5.4032,"is_reserved":false,"is_disabled":false,"rental_uris":{"android":"levelo://app?vid=87be7a17-4302-4965-8336-821c2174ed32","ios":"levelo://app?vid=87be7a17-4302-4965-8336-821c2174ed32"},"vehicle_type_id":"4","last_reported":1728209290,"current_range_meters":37600,"station_id":"ce4bhlh2rcd13ifvqgig","pricing_plan_id":"cebpf4jnsgd1na2vs0mg"},{"bike_id":"26b82ece-a942-4fe4-99ec-d92c49d7ac02","system_id":"levelo_inurba_marseille","lat":43.29897,"lon":5.4367,"is_reserved":false,"is_disabled":false,"rental_uris":{"android":"levelo://app?vid=26b82ece-a942-4fe4-99ec-d92c49d7ac02","ios":"levelo://app?vid=26b82ece-a942-4fe4-99ec-d92c49d7ac02"},"vehicle_type_id":"4","last_reported":1728209290,"current_range_meters":20800,"station_id":"ce4bhpp2rcd13ifvqhfg","pricing_plan_id":"cebpf4jnsgd1na2vs0mg"},{"bike_id":"baba7691-81ff-4c7d-90d9-c89eba9696cb","system_id":"levelo_inurba_marseille","lat":43.25928,"lon":5.40908,"is_reserved":false,"is_disabled":false,"rental_uris":{"android":"levelo://app?vid=baba7691-81ff-4c7d-90d9-c89eba9696cb","ios":"levelo://app?vid=baba7691-81ff-4c7d-90d9-c89eba9696cb"},"vehicle_type_id":"4","last_reported":1728209290,"current_range_meters":32400,"station_id":"ce4bhm92rcd13ifvqglg","pricing_plan_id":"cebpf4jnsgd1na2vs0mg"},{"bike_id":"a6007e39-eafe-4c4f-8bcd-ba3040fddf98","system_id":"levelo_inurba_marseille","lat":43.29269,"lon":5.3684,"is_reserved":false,"is_disabled":false,"rental_uris":{"android":"levelo://app?vid=a6007e39-eafe-4c4f-8bcd-ba3040fddf98","ios":"levelo://app?vid=a6007e39-eafe-4c4f-8bcd-ba3040fddf98"},"vehicle_type_id":"4","last_reported":1728209290,"current_range_meters":20400,"station_id":"ce4bhbp2rcd13ifvqesg","pricing_plan_id":"cebpf4jnsgd1na2vs0mg"},{"bike_id":"50b3012e-ec86-40b5-9328-579a7f881b99","system_id":"levelo_inurba_marseille","lat":43.29044,"lon":5.35908,"is_reserved":false,"is_disabled":false,"rental_uris":{"android":"levelo://app?vid=50b3012e-ec86-40b5-9328-579a7f881b99","ios":"levelo://app?vid=50b3012e-ec86-40b5-9328-579a7f881b99"},"vehicle_type_id":"4","last_reported":1728209290,"current_range_meters":22800,"station_id":"ce4bha92rcd13ifvqeg0","pricing_plan_id":"cebpf4jnsgd1na2vs0mg"},{"bike_id":"2b08579d-333c-4fe2-94e8-5ba5b8475885","system_id":"levelo_inurba_marseille","lat":43.27071,"lon":5.42277,"is_reserved":false,"is_disabled":false,"rental_uris":{"android":"levelo://app?vid=2b08579d-333c-4fe2-94e8-5ba5b8475885","ios":"levelo://app?vid=2b08579d-333c-4fe2-94e8-5ba5b8475885"},"vehicle_type_id":"4","last_reported":1728209290,"current_range_meters":38800,"station_id":"ce4bhk92rcd13ifvqgb0","pricing_plan_id":"cebpf4jnsgd1na2vs0mg"},{"bike_id":"d73e4c46-b32f-4eb4-8be2-86b635c69fb6","system_id":"levelo_inurba_marseille","lat":43.2699,"lon":5.38759,"is_reserved":false,"is_disabled":false,"rental_uris":{"android":"levelo://app?vid=d73e4c46-b32f-4eb4-8be2-86b635c69fb6","ios":"levelo://app?vid=d73e4c46-b32f-4eb4-8be2-86b635c69fb6"},"vehicle_type_id":"4","last_reported":1728209290,"current_range_meters":24000,"station_id":"","pricing_plan_id":"cebpf4jnsgd1na2vs0mg"},{"bike_id":"1a4b9bee-9297-474e-8c5a-addba9e72262","system_id":"levelo_inurba_marseille","lat":43.27484,"lon":5.42452,"is_reserved":false,"is_disabled":false,"rental_uris":{"android":"levelo://app?vid=1a4b9bee-9297-474e-8c5a-addba9e72262","ios":"levelo://app?vid=1a4b9bee-9297-474e-8c5a-addba9e72262"},"vehicle_type_id":"4","last_reported":1728209290,"current_range_meters":32400,"station_id":"ce4bhn92rcd13ifvqgrg","pricing_plan_id":"cebpf4jnsgd1na2vs0mg"},{"bike_id":"d23ddbe4-840b-4d6d-8e13-a20922334a77","system_id":"levelo_inurba_marseille","lat":43.32487,"lon":5.36559,"is_reserved":false,"is_disabled":false,"rental_uris":{"android":"levelo://app?vid=d23ddbe4-840b-4d6d-8e13-a20922334a77","ios":"levelo://app?vid=d23ddbe4-840b-4d6d-8e13-a20922334a77"},"vehicle_type_id":"4","last_reported":1728209290,"current_range_meters":38800,"station_id":"ce4bhs12rcd13ifvqhvg","pricing_plan_id":"cebpf4jnsgd1na2vs0mg"},{"bike_id":"3c3af3af-d63a-409a-a7ec-495fc615f97c","system_id":"levelo_inurba_marseille","lat":43.30558,"lon":5.36562,"is_reserved":false,"is_disabled":false,"rental_uris":{"android":"levelo://app?vid=3c3af3af-d63a-409a-a7ec-495fc615f97c","ios":"levelo://app?vid=3c3af3af-d63a-409a-a7ec-495fc615f97c"},"vehicle_type_id":"4","last_reported":1728209290,"current_range_meters":8800,"station_id":"ce4bgs12rcd13ifvqcag","pricing_plan_id":"cebpf4jnsgd1na2vs0mg"},{"bike_id":"4af55307-045f-4c66-a045-a91d88bb4c16","system_id":"levelo_inurba_marseille","lat":43.22931,"lon":5.35376,"is_reserved":false,"is_disabled":false,"rental_uris":{"android":"levelo://app?vid=4af55307-045f-4c66-a045-a91d88bb4c16","ios":"levelo://app?vid=4af55307-045f-4c66-a045-a91d88bb4c16"},"vehicle_type_id":"4","last_reported":1728209290,"current_range_meters":31200,"station_id":"cpo3532slgdg3j2ikp40","pricing_plan_id":"cebpf4jnsgd1na2vs0mg"},{"bike_id":"4548b517-12f1-4bdf-bf19-bf56f4b90c1d","system_id":"levelo_inurba_marseille","lat":43.28965,"lon":5.37833,"is_reserved":false,"is_disabled":false,"rental_uris":{"android":"levelo://app?vid=4548b517-12f1-4bdf-bf19-bf56f4b90c1d","ios":"levelo://app?vid=4548b517-12f1-4bdf-bf19-bf56f4b90c1d"},"vehicle_type_id":"4","last_reported":1728209290,"current_range_meters":38400,"station_id":"ce4bh9p2rcd13ifvqed0","pricing_plan_id":"cebpf4jnsgd1na2vs0mg"},{"bike_id":"b3e1a15e-f8c8-48d6-b6bd-0b541f7f61fd","system_id":"levelo_inurba_marseille","lat":43.29846,"lon":5.36285,"is_reserved":false,"is_disabled":false,"rental_uris":{"android":"levelo://app?vid=b3e1a15e-f8c8-48d6-b6bd-0b541f7f61fd","ios":"levelo://app?vid=b3e1a15e-f8c8-48d6-b6bd-0b541f7f61fd"},"vehicle_type_id":"4","last_reported":1728209290,"current_range_meters":34000,"station_id":"ce4bgpp2rcd13ifvqc3g","pricing_plan_id":"cebpf4jnsgd1na2vs0mg"},{"bike_id":"13a35d1a-1c21-4cdd-9282-17040c700716","system_id":"levelo_inurba_marseille","lat":43.32545,"lon":5.41439,"is_reserved":false,"is_disabled":false,"rental_uris":{"android":"levelo://app?vid=13a35d1a-1c21-4cdd-9282-17040c700716","ios":"levelo://app?vid=13a35d1a-1c21-4cdd-9282-17040c700716"},"vehicle_type_id":"4","last_reported":1728209290,"current_range_meters":35600,"station_id":"ce4bhq12rcd13ifvqhhg","pricing_plan_id":"cebpf4jnsgd1na2vs0mg"},{"bike_id":"5fe9af2d-0282-40cf-ae73-3a1b842e2f4b","system_id":"levelo_inurba_marseille","lat":43.23055,"lon":5.35495,"is_reserved":false,"is_disabled":false,"rental_uris":{"android":"levelo://app?vid=5fe9af2d-0282-40cf-ae73-3a1b842e2f4b","ios":"levelo://app?vid=5fe9af2d-0282-40cf-ae73-3a1b842e2f4b"},"vehicle_type_id":"4","last_reported":1728209290,"current_range_meters":36800,"station_id":"cpo3342slgdg3j2ifvpg","pricing_plan_id":"cebpf4jnsgd1na2vs0mg"},{"bike_id":"235344ae-d40d-4c9e-a986-52bb5c104ce0","system_id":"levelo_inurba_marseille","lat":43.31685,"lon":5.40467,"is_reserved":false,"is_disabled":false,"rental_uris":{"android":"levelo://app?vid=235344ae-d40d-4c9e-a986-52bb5c104ce0","ios":"levelo://app?vid=235344ae-d40d-4c9e-a986-52bb5c104ce0"},"vehicle_type_id":"4","last_reported":1728209290,"current_range_meters":38000,"station_id":"ce4bh012rcd13ifvqd00","pricing_plan_id":"cebpf4jnsgd1na2vs0mg"},{"bike_id":"265b6257-cac5-4700-be81-5022c39ebf02","system_id":"levelo_inurba_marseille","lat":43.21346,"lon":5.3494,"is_reserved":false,"is_disabled":false,"rental_uris":{"android":"levelo://app?vid=265b6257-cac5-4700-be81-5022c39ebf02","ios":"levelo://app?vid=265b6257-cac5-4700-be81-5022c39ebf02"},"vehicle_type_id":"4","last_reported":1728209290,"current_range_meters":32800,"station_id":"crv51consjfaj9uu89c0","pricing_plan_id":"cebpf4jnsgd1na2vs0mg"},{"bike_id":"60b55658-605f-439c-9d92-20e54141b5ae","system_id":"levelo_inurba_marseille","lat":43.29305,"lon":5.3716,"is_reserved":false,"is_disabled":false,"rental_uris":{"android":"levelo://app?vid=60b55658-605f-439c-9d92-20e54141b5ae","ios":"levelo://app?vid=60b55658-605f-439c-9d92-20e54141b5ae"},"vehicle_type_id":"4","last_reported":1728209290,"current_range_meters":20400,"station_id":"ce4bgh92rcd13ifvqb40","pricing_plan_id":"cebpf4jnsgd1na2vs0mg"},{"bike_id":"ec6e251e-99d1-4ac4-a075-545dbd029bdc","system_id":"levelo_inurba_marseille","lat":43.28894,"lon":5.36213,"is_reserved":false,"is_disabled":false,"rental_uris":{"android":"levelo://app?vid=ec6e251e-99d1-4ac4-a075-545dbd029bdc","ios":"levelo://app?vid=ec6e251e-99d1-4ac4-a075-545dbd029bdc"},"vehicle_type_id":"4","last_reported":1728209290,"current_range_meters":29600,"station_id":"","pricing_plan_id":"cebpf4jnsgd1na2vs0mg"},{"bike_id":"32de8690-8902-45d9-9261-1a5a54055b39","system_id":"levelo_inurba_marseille","lat":43.33025,"lon":5.39035,"is_reserved":false,"is_disabled":false,"rental_uris":{"android":"levelo://app?vid=32de8690-8902-45d9-9261-1a5a54055b39","ios":"levelo://app?vid=32de8690-8902-45d9-9261-1a5a54055b39"},"vehicle_type_id":"4","last_reported":1728209290,"current_range_meters":38000,"station_id":"ce4bhr92rcd13ifvqhrg","pricing_plan_id":"cebpf4jnsgd1na2vs0mg"},{"bike_id":"97ef281f-c717-429c-a078-d6a368902950","system_id":"levelo_inurba_marseille","lat":43.21347,"lon":5.34941,"is_reserved":false,"is_disabled":false,"rental_uris":{"android":"levelo://app?vid=97ef281f-c717-429c-a078-d6a368902950","ios":"levelo://app?vid=97ef281f-c717-429c-a078-d6a368902950"},"vehicle_type_id":"4","last_reported":1728209290,"current_range_meters":25200,"station_id":"crv51consjfaj9uu89c0","pricing_plan_id":"cebpf4jnsgd1na2vs0mg"},{"bike_id":"f41af709-4741-45bf-a75a-e5e2fdef89e3","system_id":"levelo_inurba_marseille","lat":43.28718,"lon":5.36088,"is_reserved":false,"is_disabled":false,"rental_uris":{"android":"levelo://app?vid=f41af709-4741-45bf-a75a-e5e2fdef89e3","ios":"levelo://app?vid=f41af709-4741-45bf-a75a-e5e2fdef89e3"},"vehicle_type_id":"4","last_reported":1728209290,"current_range_meters":36800,"station_id":"cki0cbj6b192h4jlfktg","pricing_plan_id":"cebpf4jnsgd1na2vs0mg"},{"bike_id":"2342e712-b3d0-4dcf-9842-1074e15440f1","system_id":"levelo_inurba_marseille","lat":43.23176,"lon":5.39991,"is_reserved":false,"is_disabled":false,"rental_uris":{"android":"levelo://app?vid=2342e712-b3d0-4dcf-9842-1074e15440f1","ios":"levelo://app?vid=2342e712-b3d0-4dcf-9842-1074e15440f1"},"vehicle_type_id":"4","last_reported":1728209290,"current_range_meters":22800,"station_id":"ce4bhn12rcd13ifvqgqg","pricing_plan_id":"cebpf4jnsgd1na2vs0mg"},{"bike_id":"6130bd2c-179b-4a80-bd38-a328e0d72079","system_id":"levelo_inurba_marseille","lat":43.30413,"lon":5.39755,"is_reserved":false,"is_disabled":false,"rental_uris":{"android":"levelo://app?vid=6130bd2c-179b-4a80-bd38-a328e0d72079","ios":"levelo://app?vid=6130bd2c-179b-4a80-bd38-a328e0d72079"},"vehicle_type_id":"4","last_reported":1728209290,"current_range_meters":32800,"station_id":"ce4bh092rcd13ifvqd20","pricing_plan_id":"cebpf4jnsgd1na2vs0mg"},{"bike_id":"024880c1-272b-4678-9df8-6458d6fed4a1","system_id":"levelo_inurba_marseille","lat":43.30204,"lon":5.39469,"is_reserved":false,"is_disabled":false,"rental_uris":{"android":"levelo://app?vid=024880c1-272b-4678-9df8-6458d6fed4a1","ios":"levelo://app?vid=024880c1-272b-4678-9df8-6458d6fed4a1"},"vehicle_type_id":"4","last_reported":1728209290,"current_range_meters":8800,"station_id":"ce4bh0p2rcd13ifvqd70","pricing_plan_id":"cebpf4jnsgd1na2vs0mg"},{"bike_id":"c437175d-0e29-478f-bc71-93de3b699267","system_id":"levelo_inurba_marseille","lat":43.27935,"lon":5.41042,"is_reserved":false,"is_disabled":false,"rental_uris":{"android":"levelo://app?vid=c437175d-0e29-478f-bc71-93de3b699267","ios":"levelo://app?vid=c437175d-0e29-478f-bc71-93de3b699267"},"vehicle_type_id":"4","last_reported":1728209290,"current_range_meters":13600,"station_id":"ce4bhnp2rcd13ifvqh0g","pricing_plan_id":"cebpf4jnsgd1na2vs0mg"},{"bike_id":"be56f1a4-275f-4091-81c4-2d7d1e9dc326","system_id":"levelo_inurba_marseille","lat":43.28149,"lon":5.42647,"is_reserved":false,"is_disabled":false,"rental_uris":{"android":"levelo://app?vid=be56f1a4-275f-4091-81c4-2d7d1e9dc326","ios":"levelo://app?vid=be56f1a4-275f-4091-81c4-2d7d1e9dc326"},"vehicle_type_id":"4","last_reported":1728209290,"current_range_meters":5600,"station_id":"ce4bhnh2rcd13ifvqgug","pricing_plan_id":"cebpf4jnsgd1na2vs0mg"},{"bike_id":"be05a507-b150-48d5-b1f5-ea98f2a6ee83","system_id":"levelo_inurba_marseille","lat":43.32052,"lon":5.4154,"is_reserved":false,"is_disabled":false,"rental_uris":{"android":"levelo://app?vid=be05a507-b150-48d5-b1f5-ea98f2a6ee83","ios":"levelo://app?vid=be05a507-b150-48d5-b1f5-ea98f2a6ee83"},"vehicle_type_id":"4","last_reported":1728209290,"current_range_meters":3200,"station_id":"ce4bhq92rcd13ifvqhkg","pricing_plan_id":"cebpf4jnsgd1na2vs0mg"},{"bike_id":"05ddab4b-2219-453e-b9f6-9211ae63c830","system_id":"levelo_inurba_marseille","lat":43.21343,"lon":5.34943,"is_reserved":false,"is_disabled":false,"rental_uris":{"android":"levelo://app?vid=05ddab4b-2219-453e-b9f6-9211ae63c830","ios":"levelo://app?vid=05ddab4b-2219-453e-b9f6-9211ae63c830"},"vehicle_type_id":"4","last_reported":1728209290,"current_range_meters":34000,"station_id":"crv51consjfaj9uu89c0","pricing_plan_id":"cebpf4jnsgd1na2vs0mg"},{"bike_id":"c7fcb03b-eee4-4df7-b870-da63a5355e11","system_id":"levelo_inurba_marseille","lat":43.2866,"lon":5.36353,"is_reserved":false,"is_disabled":false,"rental_uris":{"android":"levelo://app?vid=c7fcb03b-eee4-4df7-b870-da63a5355e11","ios":"levelo://app?vid=c7fcb03b-eee4-4df7-b870-da63a5355e11"},"vehicle_type_id":"4","last_reported":1728209290,"current_range_meters":8000,"station_id":"ce4bhah2rcd13ifvqej0","pricing_plan_id":"cebpf4jnsgd1na2vs0mg"},{"bike_id":"1a978a89-dbeb-45cc-8c83-bb4f90d46fcc","system_id":"levelo_inurba_marseille","lat":43.31688,"lon":5.40467,"is_reserved":false,"is_disabled":false,"rental_uris":{"android":"levelo://app?vid=1a978a89-dbeb-45cc-8c83-bb4f90d46fcc","ios":"levelo://app?vid=1a978a89-dbeb-45cc-8c83-bb4f90d46fcc"},"vehicle_type_id":"4","last_reported":1728209290,"current_range_meters":38400,"station_id":"ce4bh012rcd13ifvqd00","pricing_plan_id":"cebpf4jnsgd1na2vs0mg"},{"bike_id":"2223b6cf-60c6-41bf-b1cd-7d09873a1aa5","system_id":"levelo_inurba_marseille","lat":43.26054,"lon":5.39385,"is_reserved":false,"is_disabled":false,"rental_uris":{"android":"levelo://app?vid=2223b6cf-60c6-41bf-b1cd-7d09873a1aa5","ios":"levelo://app?vid=2223b6cf-60c6-41bf-b1cd-7d09873a1aa5"},"vehicle_type_id":"4","last_reported":1728209290,"current_range_meters":37600,"station_id":"ce4bhh92rcd13ifvqfj0","pricing_plan_id":"cebpf4jnsgd1na2vs0mg"},{"bike_id":"d0ca1193-12e8-4ac2-9a60-4ae6e0040151","system_id":"levelo_inurba_marseille","lat":43.22932,"lon":5.35375,"is_reserved":false,"is_disabled":false,"rental_uris":{"android":"levelo://app?vid=d0ca1193-12e8-4ac2-9a60-4ae6e0040151","ios":"levelo://app?vid=d0ca1193-12e8-4ac2-9a60-4ae6e0040151"},"vehicle_type_id":"4","last_reported":1728209290,"current_range_meters":28400,"station_id":"cpo3532slgdg3j2ikp40","pricing_plan_id":"cebpf4jnsgd1na2vs0mg"},{"bike_id":"87b1bc01-44be-4f62-843c-f4f05cde788f","system_id":"levelo_inurba_marseille","lat":43.30548,"lon":5.36712,"is_reserved":false,"is_disabled":false,"rental_uris":{"android":"levelo://app?vid=87b1bc01-44be-4f62-843c-f4f05cde788f","ios":"levelo://app?vid=87b1bc01-44be-4f62-843c-f4f05cde788f"},"vehicle_type_id":"4","last_reported":1728209290,"current_range_meters":11200,"station_id":"ce4bgrp2rcd13ifvqc9g","pricing_plan_id":"cebpf4jnsgd1na2vs0mg"},{"bike_id":"480adf17-48da-4a88-9fcd-dcec4e853ca2","system_id":"levelo_inurba_marseille","lat":43.26782,"lon":5.39414,"is_reserved":false,"is_disabled":false,"rental_uris":{"android":"levelo://app?vid=480adf17-48da-4a88-9fcd-dcec4e853ca2","ios":"levelo://app?vid=480adf17-48da-4a88-9fcd-dcec4e853ca2"},"vehicle_type_id":"4","last_reported":1728209290,"current_range_meters":38800,"station_id":"ce4bhh12rcd13ifvqfg0","pricing_plan_id":"cebpf4jnsgd1na2vs0mg"},{"bike_id":"0a6b01aa-b6c2-4470-b22d-5ec2a2954043","system_id":"levelo_inurba_marseille","lat":43.2749,"lon":5.42456,"is_reserved":false,"is_disabled":false,"rental_uris":{"android":"levelo://app?vid=0a6b01aa-b6c2-4470-b22d-5ec2a2954043","ios":"levelo://app?vid=0a6b01aa-b6c2-4470-b22d-5ec2a2954043"},"vehicle_type_id":"4","last_reported":1728209290,"current_range_meters":38800,"station_id":"ce4bhn92rcd13ifvqgrg","pricing_plan_id":"cebpf4jnsgd1na2vs0mg"},{"bike_id":"3c2be5bd-7175-4c2e-b9a1-264cf0a80b7e","system_id":"levelo_inurba_marseille","lat":43.30532,"lon":5.36538,"is_reserved":false,"is_disabled":false,"rental_uris":{"android":"levelo://app?vid=3c2be5bd-7175-4c2e-b9a1-264cf0a80b7e","ios":"levelo://app?vid=3c2be5bd-7175-4c2e-b9a1-264cf0a80b7e"},"vehicle_type_id":"4","last_reported":1728209290,"current_range_meters":32400,"station_id":"ce4bgs12rcd13ifvqcag","pricing_plan_id":"cebpf4jnsgd1na2vs0mg"},{"bike_id":"be418cc3-4334-4ce4-9486-dc18b246cad9","system_id":"levelo_inurba_marseille","lat":43.28153,"lon":5.4264,"is_reserved":false,"is_disabled":false,"rental_uris":{"android":"levelo://app?vid=be418cc3-4334-4ce4-9486-dc18b246cad9","ios":"levelo://app?vid=be418cc3-4334-4ce4-9486-dc18b246cad9"},"vehicle_type_id":"4","last_reported":1728209290,"current_range_meters":34000,"station_id":"ce4bhnh2rcd13ifvqgug","pricing_plan_id":"cebpf4jnsgd1na2vs0mg"},{"bike_id":"1bd2f7ec-d06e-4723-b3c8-18546fc91d7d","system_id":"levelo_inurba_marseille","lat":43.312767,"lon":5.401665,"is_reserved":false,"is_disabled":false,"rental_uris":{"android":"levelo://app?vid=1bd2f7ec-d06e-4723-b3c8-18546fc91d7d","ios":"levelo://app?vid=1bd2f7ec-d06e-4723-b3c8-18546fc91d7d"},"vehicle_type_id":"4","last_reported":1728209290,"current_range_meters":8000,"station_id":"ce4bh092rcd13ifvqd30","pricing_plan_id":"cebpf4jnsgd1na2vs0mg"},{"bike_id":"a7e3c33c-7c19-4f08-97ac-19ceeb2c4118","system_id":"levelo_inurba_marseille","lat":43.27813,"lon":5.40709,"is_reserved":false,"is_disabled":false,"rental_uris":{"android":"levelo://app?vid=a7e3c33c-7c19-4f08-97ac-19ceeb2c4118","ios":"levelo://app?vid=a7e3c33c-7c19-4f08-97ac-19ceeb2c4118"},"vehicle_type_id":"4","last_reported":1728209290,"current_range_meters":30400,"station_id":"ce4bhnh2rcd13ifvqgtg","pricing_plan_id":"cebpf4jnsgd1na2vs0mg"},{"bike_id":"83ba6d17-91ee-434a-8190-a32385dc4a16","system_id":"levelo_inurba_marseille","lat":43.26974,"lon":5.38746,"is_reserved":false,"is_disabled":false,"rental_uris":{"android":"levelo://app?vid=83ba6d17-91ee-434a-8190-a32385dc4a16","ios":"levelo://app?vid=83ba6d17-91ee-434a-8190-a32385dc4a16"},"vehicle_type_id":"4","last_reported":1728209290,"current_range_meters":33200,"station_id":"","pricing_plan_id":"cebpf4jnsgd1na2vs0mg"},{"bike_id":"f3df3064-c734-4e7b-94b0-d8eb4e0a033e","system_id":"levelo_inurba_marseille","lat":43.27986,"lon":5.41663,"is_reserved":false,"is_disabled":false,"rental_uris":{"android":"levelo://app?vid=f3df3064-c734-4e7b-94b0-d8eb4e0a033e","ios":"levelo://app?vid=f3df3064-c734-4e7b-94b0-d8eb4e0a033e"},"vehicle_type_id":"4","last_reported":1728209290,"current_range_meters":30800,"station_id":"ce4bho12rcd13ifvqh1g","pricing_plan_id":"cebpf4jnsgd1na2vs0mg"},{"bike_id":"7eeaf9af-3135-4755-bb27-87d2fbd85443","system_id":"levelo_inurba_marseille","lat":43.31087,"lon":5.42439,"is_reserved":false,"is_disabled":false,"rental_uris":{"android":"levelo://app?vid=7eeaf9af-3135-4755-bb27-87d2fbd85443","ios":"levelo://app?vid=7eeaf9af-3135-4755-bb27-87d2fbd85443"},"vehicle_type_id":"4","last_reported":1728209290,"current_range_meters":25600,"station_id":"ce4bhp92rcd13ifvqhag","pricing_plan_id":"cebpf4jnsgd1na2vs0mg"},{"bike_id":"2e823ca9-acad-4e59-b240-5790d27f1ff5","system_id":"levelo_inurba_marseille","lat":43.27937,"lon":5.41037,"is_reserved":false,"is_disabled":false,"rental_uris":{"android":"levelo://app?vid=2e823ca9-acad-4e59-b240-5790d27f1ff5","ios":"levelo://app?vid=2e823ca9-acad-4e59-b240-5790d27f1ff5"},"vehicle_type_id":"4","last_reported":1728209290,"current_range_meters":23200,"station_id":"ce4bhnp2rcd13ifvqh0g","pricing_plan_id":"cebpf4jnsgd1na2vs0mg"},{"bike_id":"f7734afb-d27e-4752-9d28-fbb557f33be8","system_id":"levelo_inurba_marseille","lat":43.30463,"lon":5.37906,"is_reserved":false,"is_disabled":false,"rental_uris":{"android":"levelo://app?vid=f7734afb-d27e-4752-9d28-fbb557f33be8","ios":"levelo://app?vid=f7734afb-d27e-4752-9d28-fbb557f33be8"},"vehicle_type_id":"4","last_reported":1728209290,"current_range_meters":38000,"station_id":"ce4bgup2rcd13ifvqcn0","pricing_plan_id":"cebpf4jnsgd1na2vs0mg"},{"bike_id":"3e992ab3-37c4-4f38-be5c-aeaea204ff4c","system_id":"levelo_inurba_marseille","lat":43.301377,"lon":5.398875,"is_reserved":false,"is_disabled":false,"rental_uris":{"android":"levelo://app?vid=3e992ab3-37c4-4f38-be5c-aeaea204ff4c","ios":"levelo://app?vid=3e992ab3-37c4-4f38-be5c-aeaea204ff4c"},"vehicle_type_id":"4","last_reported":1728209290,"current_range_meters":20400,"station_id":"ce4bh0h2rcd13ifvqd40","pricing_plan_id":"cebpf4jnsgd1na2vs0mg"},{"bike_id":"691bb5e1-1d96-4d72-9bcc-1d7a013856b1","system_id":"levelo_inurba_marseille","lat":43.30589,"lon":5.39356,"is_reserved":false,"is_disabled":false,"rental_uris":{"android":"levelo://app?vid=691bb5e1-1d96-4d72-9bcc-1d7a013856b1","ios":"levelo://app?vid=691bb5e1-1d96-4d72-9bcc-1d7a013856b1"},"vehicle_type_id":"4","last_reported":1728209290,"current_range_meters":19200,"station_id":"ce4bh0p2rcd13ifvqd80","pricing_plan_id":"cebpf4jnsgd1na2vs0mg"},{"bike_id":"1c6e8542-0efa-43bd-a17b-1a8ffeb5acdf","system_id":"levelo_inurba_marseille","lat":43.26569,"lon":5.39001,"is_reserved":false,"is_disabled":false,"rental_uris":{"android":"levelo://app?vid=1c6e8542-0efa-43bd-a17b-1a8ffeb5acdf","ios":"levelo://app?vid=1c6e8542-0efa-43bd-a17b-1a8ffeb5acdf"},"vehicle_type_id":"4","last_reported":1728209290,"current_range_meters":36800,"station_id":"ce4bhe12rcd13ifvqf30","pricing_plan_id":"cebpf4jnsgd1na2vs0mg"},{"bike_id":"ddfd2731-425e-439a-a9d3-08efcb3b931b","system_id":"levelo_inurba_marseille","lat":43.28666,"lon":5.36356,"is_reserved":false,"is_disabled":false,"rental_uris":{"android":"levelo://app?vid=ddfd2731-425e-439a-a9d3-08efcb3b931b","ios":"levelo://app?vid=ddfd2731-425e-439a-a9d3-08efcb3b931b"},"vehicle_type_id":"4","last_reported":1728209290,"current_range_meters":22400,"station_id":"ce4bhah2rcd13ifvqej0","pricing_plan_id":"cebpf4jnsgd1na2vs0mg"},{"bike_id":"51082f1c-b28d-4faa-a3aa-0dea3e8cd2c4","system_id":"levelo_inurba_marseille","lat":43.25002,"lon":5.38922,"is_reserved":false,"is_disabled":false,"rental_uris":{"android":"levelo://app?vid=51082f1c-b28d-4faa-a3aa-0dea3e8cd2c4","ios":"levelo://app?vid=51082f1c-b28d-4faa-a3aa-0dea3e8cd2c4"},"vehicle_type_id":"4","last_reported":1728209290,"current_range_meters":38000,"station_id":"ce4bhgp2rcd13ifvqfd0","pricing_plan_id":"cebpf4jnsgd1na2vs0mg"},{"bike_id":"0b705294-84a6-40ca-af83-b3d28d84f406","system_id":"levelo_inurba_marseille","lat":43.29626,"lon":5.37152,"is_reserved":false,"is_disabled":false,"rental_uris":{"android":"levelo://app?vid=0b705294-84a6-40ca-af83-b3d28d84f406","ios":"levelo://app?vid=0b705294-84a6-40ca-af83-b3d28d84f406"},"vehicle_type_id":"4","last_reported":1728209290,"current_range_meters":19600,"station_id":"ce4bgpp2rcd13ifvqc3g","pricing_plan_id":"cebpf4jnsgd1na2vs0mg"},{"bike_id":"7e764f2b-b5f9-4a10-b1be-189838b6a6be","system_id":"levelo_inurba_marseille","lat":43.27308,"lon":5.39083,"is_reserved":false,"is_disabled":false,"rental_uris":{"android":"levelo://app?vid=7e764f2b-b5f9-4a10-b1be-189838b6a6be","ios":"levelo://app?vid=7e764f2b-b5f9-4a10-b1be-189838b6a6be"},"vehicle_type_id":"4","last_reported":1728209290,"current_range_meters":38800,"station_id":"ce4bhgp2rcd13ifvqfe0","pricing_plan_id":"cebpf4jnsgd1na2vs0mg"},{"bike_id":"490889b1-cee9-4892-9db5-299333956c90","system_id":"levelo_inurba_marseille","lat":43.3414,"lon":5.40901,"is_reserved":false,"is_disabled":false,"rental_uris":{"android":"levelo://app?vid=490889b1-cee9-4892-9db5-299333956c90","ios":"levelo://app?vid=490889b1-cee9-4892-9db5-299333956c90"},"vehicle_type_id":"4","last_reported":1728209290,"current_range_meters":37600,"station_id":"ce4bhqh2rcd13ifvqhlg","pricing_plan_id":"cebpf4jnsgd1na2vs0mg"},{"bike_id":"2086bf2b-22a5-40d0-a43f-1938f6cf993e","system_id":"levelo_inurba_marseille","lat":43.31163,"lon":5.38735,"is_reserved":false,"is_disabled":false,"rental_uris":{"android":"levelo://app?vid=2086bf2b-22a5-40d0-a43f-1938f6cf993e","ios":"levelo://app?vid=2086bf2b-22a5-40d0-a43f-1938f6cf993e"},"vehicle_type_id":"4","last_reported":1728209290,"current_range_meters":27200,"station_id":"ce4bgv12rcd13ifvqcp0","pricing_plan_id":"cebpf4jnsgd1na2vs0mg"},{"bike_id":"85ef83d9-fec6-405f-8a01-7a2d5ed9a2a1","system_id":"levelo_inurba_marseille","lat":43.29256,"lon":5.40896,"is_reserved":false,"is_disabled":false,"rental_uris":{"android":"levelo://app?vid=85ef83d9-fec6-405f-8a01-7a2d5ed9a2a1","ios":"levelo://app?vid=85ef83d9-fec6-405f-8a01-7a2d5ed9a2a1"},"vehicle_type_id":"4","last_reported":1728209290,"current_range_meters":26000,"station_id":"ce4bh192rcd13ifvqdc0","pricing_plan_id":"cebpf4jnsgd1na2vs0mg"},{"bike_id":"faf38e40-f5a8-46ab-af5c-91ac219c2d51","system_id":"levelo_inurba_marseille","lat":43.26488,"lon":5.39538,"is_reserved":false,"is_disabled":false,"rental_uris":{"android":"levelo://app?vid=faf38e40-f5a8-46ab-af5c-91ac219c2d51","ios":"levelo://app?vid=faf38e40-f5a8-46ab-af5c-91ac219c2d51"},"vehicle_type_id":"4","last_reported":1728209290,"current_range_meters":24400,"station_id":"ce4bhi12rcd13ifvqfq0","pricing_plan_id":"cebpf4jnsgd1na2vs0mg"},{"bike_id":"62dc0ed1-3276-4977-88dd-32c1a19dfbe5","system_id":"levelo_inurba_marseille","lat":43.27488,"lon":5.42458,"is_reserved":false,"is_disabled":false,"rental_uris":{"android":"levelo://app?vid=62dc0ed1-3276-4977-88dd-32c1a19dfbe5","ios":"levelo://app?vid=62dc0ed1-3276-4977-88dd-32c1a19dfbe5"},"vehicle_type_id":"4","last_reported":1728209290,"current_range_meters":38800,"station_id":"ce4bhn92rcd13ifvqgrg","pricing_plan_id":"cebpf4jnsgd1na2vs0mg"},{"bike_id":"cdc917cd-8609-4bab-8a00-197d50b2daa3","system_id":"levelo_inurba_marseille","lat":43.28611,"lon":5.37048,"is_reserved":false,"is_disabled":false,"rental_uris":{"android":"levelo://app?vid=cdc917cd-8609-4bab-8a00-197d50b2daa3","ios":"levelo://app?vid=cdc917cd-8609-4bab-8a00-197d50b2daa3"},"vehicle_type_id":"4","last_reported":1728209290,"current_range_meters":27200,"station_id":"ce4bht12rcd13ifvqi60","pricing_plan_id":"cebpf4jnsgd1na2vs0mg"},{"bike_id":"256fa177-60ee-45a2-a2aa-de47baeac3b4","system_id":"levelo_inurba_marseille","lat":43.32202,"lon":5.41351,"is_reserved":false,"is_disabled":false,"rental_uris":{"android":"levelo://app?vid=256fa177-60ee-45a2-a2aa-de47baeac3b4","ios":"levelo://app?vid=256fa177-60ee-45a2-a2aa-de47baeac3b4"},"vehicle_type_id":"4","last_reported":1728209290,"current_range_meters":37600,"station_id":"","pricing_plan_id":"cebpf4jnsgd1na2vs0mg"},{"bike_id":"389cdf32-7eb1-4775-914a-6dc8318d3538","system_id":"levelo_inurba_marseille","lat":43.26768,"lon":5.39422,"is_reserved":false,"is_disabled":false,"rental_uris":{"android":"levelo://app?vid=389cdf32-7eb1-4775-914a-6dc8318d3538","ios":"levelo://app?vid=389cdf32-7eb1-4775-914a-6dc8318d3538"},"vehicle_type_id":"4","last_reported":1728209290,"current_range_meters":30000,"station_id":"ce4bhh12rcd13ifvqfg0","pricing_plan_id":"cebpf4jnsgd1na2vs0mg"},{"bike_id":"98fab8a1-a284-40da-8df2-14f71a37d57b","system_id":"levelo_inurba_marseille","lat":43.21352,"lon":5.34937,"is_reserved":false,"is_disabled":false,"rental_uris":{"android":"levelo://app?vid=98fab8a1-a284-40da-8df2-14f71a37d57b","ios":"levelo://app?vid=98fab8a1-a284-40da-8df2-14f71a37d57b"},"vehicle_type_id":"4","last_reported":1728209290,"current_range_meters":32800,"station_id":"crv51consjfaj9uu89c0","pricing_plan_id":"cebpf4jnsgd1na2vs0mg"},{"bike_id":"168fdd0d-638b-492d-b1ce-678f05dbeac9","system_id":"levelo_inurba_marseille","lat":43.28721,"lon":5.361,"is_reserved":false,"is_disabled":false,"rental_uris":{"android":"levelo://app?vid=168fdd0d-638b-492d-b1ce-678f05dbeac9","ios":"levelo://app?vid=168fdd0d-638b-492d-b1ce-678f05dbeac9"},"vehicle_type_id":"4","last_reported":1728209290,"current_range_meters":38400,"station_id":"cki0cbj6b192h4jlfktg","pricing_plan_id":"cebpf4jnsgd1na2vs0mg"},{"bike_id":"8da5e341-6cab-4468-9790-0734e5cf3e0b","system_id":"levelo_inurba_marseille","lat":43.24073,"lon":5.37752,"is_reserved":false,"is_disabled":false,"rental_uris":{"android":"levelo://app?vid=8da5e341-6cab-4468-9790-0734e5cf3e0b","ios":"levelo://app?vid=8da5e341-6cab-4468-9790-0734e5cf3e0b"},"vehicle_type_id":"4","last_reported":1728209290,"current_range_meters":38000,"station_id":"ce4bhnp2rcd13ifvqgvg","pricing_plan_id":"cebpf4jnsgd1na2vs0mg"},{"bike_id":"6bf16a2a-f63b-47d9-9110-1efaed25b77a","system_id":"levelo_inurba_marseille","lat":43.2293,"lon":5.35378,"is_reserved":false,"is_disabled":false,"rental_uris":{"android":"levelo://app?vid=6bf16a2a-f63b-47d9-9110-1efaed25b77a","ios":"levelo://app?vid=6bf16a2a-f63b-47d9-9110-1efaed25b77a"},"vehicle_type_id":"4","last_reported":1728209290,"current_range_meters":34800,"station_id":"cpo3532slgdg3j2ikp40","pricing_plan_id":"cebpf4jnsgd1na2vs0mg"},{"bike_id":"428f793c-4121-423c-8663-6edf254533e0","system_id":"levelo_inurba_marseille","lat":43.27565,"lon":5.38415,"is_reserved":false,"is_disabled":false,"rental_uris":{"android":"levelo://app?vid=428f793c-4121-423c-8663-6edf254533e0","ios":"levelo://app?vid=428f793c-4121-423c-8663-6edf254533e0"},"vehicle_type_id":"4","last_reported":1728209290,"current_range_meters":38800,"station_id":"ce4bhh92rcd13ifvqfi0","pricing_plan_id":"cebpf4jnsgd1na2vs0mg"},{"bike_id":"8d2f6570-31ce-438a-a827-434ef78a78d1","system_id":"levelo_inurba_marseille","lat":43.29585,"lon":5.36737,"is_reserved":false,"is_disabled":false,"rental_uris":{"android":"levelo://app?vid=8d2f6570-31ce-438a-a827-434ef78a78d1","ios":"levelo://app?vid=8d2f6570-31ce-438a-a827-434ef78a78d1"},"vehicle_type_id":"4","last_reported":1728209290,"current_range_meters":25600,"station_id":"ce4bgph2rcd13ifvqc2g","pricing_plan_id":"cebpf4jnsgd1na2vs0mg"},{"bike_id":"09b6dc29-36dc-48a6-88c1-8d4f3ae3fdfc","system_id":"levelo_inurba_marseille","lat":43.29259,"lon":5.36845,"is_reserved":false,"is_disabled":false,"rental_uris":{"android":"levelo://app?vid=09b6dc29-36dc-48a6-88c1-8d4f3ae3fdfc","ios":"levelo://app?vid=09b6dc29-36dc-48a6-88c1-8d4f3ae3fdfc"},"vehicle_type_id":"4","last_reported":1728209290,"current_range_meters":17200,"station_id":"","pricing_plan_id":"cebpf4jnsgd1na2vs0mg"},{"bike_id":"f16a1e3c-43c9-4345-8f77-6960f75f80b0","system_id":"levelo_inurba_marseille","lat":43.24994,"lon":5.38931,"is_reserved":false,"is_disabled":false,"rental_uris":{"android":"levelo://app?vid=f16a1e3c-43c9-4345-8f77-6960f75f80b0","ios":"levelo://app?vid=f16a1e3c-43c9-4345-8f77-6960f75f80b0"},"vehicle_type_id":"4","last_reported":1728209290,"current_range_meters":34800,"station_id":"ce4bhgp2rcd13ifvqfd0","pricing_plan_id":"cebpf4jnsgd1na2vs0mg"},{"bike_id":"0cc6a2e0-7a1c-4f86-835d-68164f0baf9e","system_id":"levelo_inurba_marseille","lat":43.29278,"lon":5.3684,"is_reserved":false,"is_disabled":false,"rental_uris":{"android":"levelo://app?vid=0cc6a2e0-7a1c-4f86-835d-68164f0baf9e","ios":"levelo://app?vid=0cc6a2e0-7a1c-4f86-835d-68164f0baf9e"},"vehicle_type_id":"4","last_reported":1728209290,"current_range_meters":28400,"station_id":"ce4bhbp2rcd13ifvqesg","pricing_plan_id":"cebpf4jnsgd1na2vs0mg"},{"bike_id":"bb6993dd-1bba-4d66-ac65-fc507df90b6d","system_id":"levelo_inurba_marseille","lat":43.30531,"lon":5.3654,"is_reserved":false,"is_disabled":false,"rental_uris":{"android":"levelo://app?vid=bb6993dd-1bba-4d66-ac65-fc507df90b6d","ios":"levelo://app?vid=bb6993dd-1bba-4d66-ac65-fc507df90b6d"},"vehicle_type_id":"4","last_reported":1728209290,"current_range_meters":30000,"station_id":"ce4bgs12rcd13ifvqcag","pricing_plan_id":"cebpf4jnsgd1na2vs0mg"},{"bike_id":"467f4dad-860b-40f5-b4ca-9e05ccc20611","system_id":"levelo_inurba_marseille","lat":43.30908,"lon":5.40135,"is_reserved":false,"is_disabled":false,"rental_uris":{"android":"levelo://app?vid=467f4dad-860b-40f5-b4ca-9e05ccc20611","ios":"levelo://app?vid=467f4dad-860b-40f5-b4ca-9e05ccc20611"},"vehicle_type_id":"4","last_reported":1728209290,"current_range_meters":37600,"station_id":"ce4bgvp2rcd13ifvqct0","pricing_plan_id":"cebpf4jnsgd1na2vs0mg"},{"bike_id":"54a74be3-c242-46ce-9878-c249787a7807","system_id":"levelo_inurba_marseille","lat":43.312764,"lon":5.401709,"is_reserved":false,"is_disabled":false,"rental_uris":{"android":"levelo://app?vid=54a74be3-c242-46ce-9878-c249787a7807","ios":"levelo://app?vid=54a74be3-c242-46ce-9878-c249787a7807"},"vehicle_type_id":"4","last_reported":1728209290,"current_range_meters":25600,"station_id":"ce4bh092rcd13ifvqd30","pricing_plan_id":"cebpf4jnsgd1na2vs0mg"},{"bike_id":"6897eb21-6648-4336-9363-b1b7adb40bd3","system_id":"levelo_inurba_marseille","lat":43.29839,"lon":5.36273,"is_reserved":false,"is_disabled":false,"rental_uris":{"android":"levelo://app?vid=6897eb21-6648-4336-9363-b1b7adb40bd3","ios":"levelo://app?vid=6897eb21-6648-4336-9363-b1b7adb40bd3"},"vehicle_type_id":"4","last_reported":1728209290,"current_range_meters":30400,"station_id":"ce4bgpp2rcd13ifvqc3g","pricing_plan_id":"cebpf4jnsgd1na2vs0mg"},{"bike_id":"7504a23a-f673-4233-97ae-aeb6d9ba3528","system_id":"levelo_inurba_marseille","lat":43.2815,"lon":5.42641,"is_reserved":false,"is_disabled":false,"rental_uris":{"android":"levelo://app?vid=7504a23a-f673-4233-97ae-aeb6d9ba3528","ios":"levelo://app?vid=7504a23a-f673-4233-97ae-aeb6d9ba3528"},"vehicle_type_id":"4","last_reported":1728209290,"current_range_meters":36800,"station_id":"ce4bhnh2rcd13ifvqgug","pricing_plan_id":"cebpf4jnsgd1na2vs0mg"},{"bike_id":"270b90ca-7521-4165-af49-e1c727e5fa34","system_id":"levelo_inurba_marseille","lat":43.21346,"lon":5.34939,"is_reserved":false,"is_disabled":false,"rental_uris":{"android":"levelo://app?vid=270b90ca-7521-4165-af49-e1c727e5fa34","ios":"levelo://app?vid=270b90ca-7521-4165-af49-e1c727e5fa34"},"vehicle_type_id":"4","last_reported":1728209290,"current_range_meters":35200,"station_id":"crv51consjfaj9uu89c0","pricing_plan_id":"cebpf4jnsgd1na2vs0mg"},{"bike_id":"52b0e467-930c-44c6-824d-c7f67633b412","system_id":"levelo_inurba_marseille","lat":43.26689,"lon":5.38262,"is_reserved":false,"is_disabled":false,"rental_uris":{"android":"levelo://app?vid=52b0e467-930c-44c6-824d-c7f67633b412","ios":"levelo://app?vid=52b0e467-930c-44c6-824d-c7f67633b412"},"vehicle_type_id":"4","last_reported":1728209290,"current_range_meters":38400,"station_id":"ce4bhg92rcd13ifvqf90","pricing_plan_id":"cebpf4jnsgd1na2vs0mg"},{"bike_id":"470e14f9-d5ca-4fa6-b8b5-3d3d2a363ced","system_id":"levelo_inurba_marseille","lat":43.24806,"lon":5.37456,"is_reserved":false,"is_disabled":false,"rental_uris":{"android":"levelo://app?vid=470e14f9-d5ca-4fa6-b8b5-3d3d2a363ced","ios":"levelo://app?vid=470e14f9-d5ca-4fa6-b8b5-3d3d2a363ced"},"vehicle_type_id":"4","last_reported":1728209290,"current_range_meters":28800,"station_id":"ce4bhgh2rcd13ifvqfb0","pricing_plan_id":"cebpf4jnsgd1na2vs0mg"},{"bike_id":"cda92b40-896e-4689-a3b6-5c49ee6f3906","system_id":"levelo_inurba_marseille","lat":43.28999,"lon":5.35616,"is_reserved":false,"is_disabled":false,"rental_uris":{"android":"levelo://app?vid=cda92b40-896e-4689-a3b6-5c49ee6f3906","ios":"levelo://app?vid=cda92b40-896e-4689-a3b6-5c49ee6f3906"},"vehicle_type_id":"4","last_reported":1728209290,"current_range_meters":20000,"station_id":"ce4bhb92rcd13ifvqen0","pricing_plan_id":"cebpf4jnsgd1na2vs0mg"},{"bike_id":"2912abb1-e6fe-40f9-a80b-b98fc8142039","system_id":"levelo_inurba_marseille","lat":43.31994,"lon":5.38145,"is_reserved":false,"is_disabled":false,"rental_uris":{"android":"levelo://app?vid=2912abb1-e6fe-40f9-a80b-b98fc8142039","ios":"levelo://app?vid=2912abb1-e6fe-40f9-a80b-b98fc8142039"},"vehicle_type_id":"4","last_reported":1728209290,"current_range_meters":38000,"station_id":"ce4bhr12rcd13ifvqhpg","pricing_plan_id":"cebpf4jnsgd1na2vs0mg"},{"bike_id":"35243998-bc02-4f25-9fa2-2bcac6592d8c","system_id":"levelo_inurba_marseille","lat":43.27422,"lon":5.39404,"is_reserved":false,"is_disabled":false,"rental_uris":{"android":"levelo://app?vid=35243998-bc02-4f25-9fa2-2bcac6592d8c","ios":"levelo://app?vid=35243998-bc02-4f25-9fa2-2bcac6592d8c"},"vehicle_type_id":"4","last_reported":1728209290,"current_range_meters":16000,"station_id":"ce4bhdp2rcd13ifvqf20","pricing_plan_id":"cebpf4jnsgd1na2vs0mg"},{"bike_id":"5ed1c359-627e-4835-9959-230f7bf3336f","system_id":"levelo_inurba_marseille","lat":43.28611,"lon":5.37063,"is_reserved":false,"is_disabled":false,"rental_uris":{"android":"levelo://app?vid=5ed1c359-627e-4835-9959-230f7bf3336f","ios":"levelo://app?vid=5ed1c359-627e-4835-9959-230f7bf3336f"},"vehicle_type_id":"4","last_reported":1728209290,"current_range_meters":40000,"station_id":"ce4bht12rcd13ifvqi60","pricing_plan_id":"cebpf4jnsgd1na2vs0mg"},{"bike_id":"bb5f5452-4b9b-417d-b148-b396a874f3d9","system_id":"levelo_inurba_marseille","lat":43.33759,"lon":5.37414,"is_reserved":false,"is_disabled":false,"rental_uris":{"android":"levelo://app?vid=bb5f5452-4b9b-417d-b148-b396a874f3d9","ios":"levelo://app?vid=bb5f5452-4b9b-417d-b148-b396a874f3d9"},"vehicle_type_id":"4","last_reported":1728209290,"current_range_meters":26800,"station_id":"","pricing_plan_id":"cebpf4jnsgd1na2vs0mg"},{"bike_id":"f8dc0ff5-6c8a-4ba6-abb8-5e3ab8e94100","system_id":"levelo_inurba_marseille","lat":43.27177,"lon":5.40983,"is_reserved":false,"is_disabled":false,"rental_uris":{"android":"levelo://app?vid=f8dc0ff5-6c8a-4ba6-abb8-5e3ab8e94100","ios":"levelo://app?vid=f8dc0ff5-6c8a-4ba6-abb8-5e3ab8e94100"},"vehicle_type_id":"4","last_reported":1728209290,"current_range_meters":38800,"station_id":"ce4bhl12rcd13ifvqgf0","pricing_plan_id":"cebpf4jnsgd1na2vs0mg"},{"bike_id":"932857b7-8c79-467c-8004-ecb251740366","system_id":"levelo_inurba_marseille","lat":43.288517,"lon":5.393237,"is_reserved":false,"is_disabled":false,"rental_uris":{"android":"levelo://app?vid=932857b7-8c79-467c-8004-ecb251740366","ios":"levelo://app?vid=932857b7-8c79-467c-8004-ecb251740366"},"vehicle_type_id":"4","last_reported":1728209290,"current_range_meters":37600,"station_id":"ce4bh2p2rcd13ifvqdi0","pricing_plan_id":"cebpf4jnsgd1na2vs0mg"},{"bike_id":"78122acb-a79d-48de-83e8-a056f92d3276","system_id":"levelo_inurba_marseille","lat":43.29713,"lon":5.36611,"is_reserved":false,"is_disabled":false,"rental_uris":{"android":"levelo://app?vid=78122acb-a79d-48de-83e8-a056f92d3276","ios":"levelo://app?vid=78122acb-a79d-48de-83e8-a056f92d3276"},"vehicle_type_id":"4","last_reported":1728209290,"current_range_meters":38400,"station_id":"ce4bgn12rcd13ifvqbt0","pricing_plan_id":"cebpf4jnsgd1na2vs0mg"},{"bike_id":"3da8b74e-712a-49f7-8556-bec0fd3094c4","system_id":"levelo_inurba_marseille","lat":43.29222,"lon":5.36064,"is_reserved":false,"is_disabled":false,"rental_uris":{"android":"levelo://app?vid=3da8b74e-712a-49f7-8556-bec0fd3094c4","ios":"levelo://app?vid=3da8b74e-712a-49f7-8556-bec0fd3094c4"},"vehicle_type_id":"4","last_reported":1728209290,"current_range_meters":28800,"station_id":"ce4bhbh2rcd13ifvqeqg","pricing_plan_id":"cebpf4jnsgd1na2vs0mg"},{"bike_id":"85081b74-3c48-4b75-b6b6-b181683e784a","system_id":"levelo_inurba_marseille","lat":43.25723,"lon":5.41105,"is_reserved":false,"is_disabled":false,"rental_uris":{"android":"levelo://app?vid=85081b74-3c48-4b75-b6b6-b181683e784a","ios":"levelo://app?vid=85081b74-3c48-4b75-b6b6-b181683e784a"},"vehicle_type_id":"4","last_reported":1728209290,"current_range_meters":38800,"station_id":"ce4bhkp2rcd13ifvqgd0","pricing_plan_id":"cebpf4jnsgd1na2vs0mg"},{"bike_id":"d5bd4fc9-b596-4a66-8faa-61c6a5dce860","system_id":"levelo_inurba_marseille","lat":43.29893,"lon":5.43663,"is_reserved":false,"is_disabled":false,"rental_uris":{"android":"levelo://app?vid=d5bd4fc9-b596-4a66-8faa-61c6a5dce860","ios":"levelo://app?vid=d5bd4fc9-b596-4a66-8faa-61c6a5dce860"},"vehicle_type_id":"4","last_reported":1728209290,"current_range_meters":39200,"station_id":"ce4bhpp2rcd13ifvqhfg","pricing_plan_id":"cebpf4jnsgd1na2vs0mg"},{"bike_id":"41dade42-d8fd-4ebb-b2fc-cc2eccddb9c5","system_id":"levelo_inurba_marseille","lat":43.26198,"lon":5.3793,"is_reserved":false,"is_disabled":false,"rental_uris":{"android":"levelo://app?vid=41dade42-d8fd-4ebb-b2fc-cc2eccddb9c5","ios":"levelo://app?vid=41dade42-d8fd-4ebb-b2fc-cc2eccddb9c5"},"vehicle_type_id":"4","last_reported":1728209290,"current_range_meters":38400,"station_id":"ce4bhjp2rcd13ifvqg90","pricing_plan_id":"cebpf4jnsgd1na2vs0mg"},{"bike_id":"86a601c4-137c-43b2-95de-3de1d97cdc47","system_id":"levelo_inurba_marseille","lat":43.29569,"lon":5.37519,"is_reserved":false,"is_disabled":false,"rental_uris":{"android":"levelo://app?vid=86a601c4-137c-43b2-95de-3de1d97cdc47","ios":"levelo://app?vid=86a601c4-137c-43b2-95de-3de1d97cdc47"},"vehicle_type_id":"4","last_reported":1728209290,"current_range_meters":38000,"station_id":"ce4bgh92rcd13ifvqb50","pricing_plan_id":"cebpf4jnsgd1na2vs0mg"},{"bike_id":"7cba0374-be77-4d49-8476-e0da3cccc891","system_id":"levelo_inurba_marseille","lat":43.21347,"lon":5.34938,"is_reserved":false,"is_disabled":false,"rental_uris":{"android":"levelo://app?vid=7cba0374-be77-4d49-8476-e0da3cccc891","ios":"levelo://app?vid=7cba0374-be77-4d49-8476-e0da3cccc891"},"vehicle_type_id":"4","last_reported":1728209290,"current_range_meters":33200,"station_id":"crv51consjfaj9uu89c0","pricing_plan_id":"cebpf4jnsgd1na2vs0mg"},{"bike_id":"7a6d7045-a0c6-474e-97a3-8a750c51af90","system_id":"levelo_inurba_marseille","lat":43.27948,"lon":5.41048,"is_reserved":false,"is_disabled":false,"rental_uris":{"android":"levelo://app?vid=7a6d7045-a0c6-474e-97a3-8a750c51af90","ios":"levelo://app?vid=7a6d7045-a0c6-474e-97a3-8a750c51af90"},"vehicle_type_id":"4","last_reported":1728209290,"current_range_meters":37600,"station_id":"ce4bhnp2rcd13ifvqh0g","pricing_plan_id":"cebpf4jnsgd1na2vs0mg"},{"bike_id":"8e94c158-3450-4d74-9a10-086db250f48e","system_id":"levelo_inurba_marseille","lat":43.27157,"lon":5.39026,"is_reserved":false,"is_disabled":false,"rental_uris":{"android":"levelo://app?vid=8e94c158-3450-4d74-9a10-086db250f48e","ios":"levelo://app?vid=8e94c158-3450-4d74-9a10-086db250f48e"},"vehicle_type_id":"4","last_reported":1728209290,"current_range_meters":33200,"station_id":"","pricing_plan_id":"cebpf4jnsgd1na2vs0mg"},{"bike_id":"b8913350-1dd7-4ae4-b231-e44a524da8ad","system_id":"levelo_inurba_marseille","lat":43.29561,"lon":5.37507,"is_reserved":false,"is_disabled":false,"rental_uris":{"android":"levelo://app?vid=b8913350-1dd7-4ae4-b231-e44a524da8ad","ios":"levelo://app?vid=b8913350-1dd7-4ae4-b231-e44a524da8ad"},"vehicle_type_id":"4","last_reported":1728209290,"current_range_meters":3200,"station_id":"ce4bgh92rcd13ifvqb50","pricing_plan_id":"cebpf4jnsgd1na2vs0mg"},{"bike_id":"52040213-e2a0-4c29-ad5c-23f287c96e58","system_id":"levelo_inurba_marseille","lat":43.25722,"lon":5.41108,"is_reserved":false,"is_disabled":false,"rental_uris":{"android":"levelo://app?vid=52040213-e2a0-4c29-ad5c-23f287c96e58","ios":"levelo://app?vid=52040213-e2a0-4c29-ad5c-23f287c96e58"},"vehicle_type_id":"4","last_reported":1728209290,"current_range_meters":38800,"station_id":"ce4bhkp2rcd13ifvqgd0","pricing_plan_id":"cebpf4jnsgd1na2vs0mg"},{"bike_id":"77409b00-bc48-4191-b28e-b760cdd78c6f","system_id":"levelo_inurba_marseille","lat":43.25725,"lon":5.41099,"is_reserved":false,"is_disabled":false,"rental_uris":{"android":"levelo://app?vid=77409b00-bc48-4191-b28e-b760cdd78c6f","ios":"levelo://app?vid=77409b00-bc48-4191-b28e-b760cdd78c6f"},"vehicle_type_id":"4","last_reported":1728209290,"current_range_meters":38800,"station_id":"ce4bhkp2rcd13ifvqgd0","pricing_plan_id":"cebpf4jnsgd1na2vs0mg"},{"bike_id":"5bfa6108-e2d0-4ec1-ae3e-750be2da3bf1","system_id":"levelo_inurba_marseille","lat":43.33739,"lon":5.37451,"is_reserved":false,"is_disabled":false,"rental_uris":{"android":"levelo://app?vid=5bfa6108-e2d0-4ec1-ae3e-750be2da3bf1","ios":"levelo://app?vid=5bfa6108-e2d0-4ec1-ae3e-750be2da3bf1"},"vehicle_type_id":"4","last_reported":1728209290,"current_range_meters":28000,"station_id":"ce4bha92rcd13ifvqeg0","pricing_plan_id":"cebpf4jnsgd1na2vs0mg"},{"bike_id":"2f1f7e56-c6cd-448e-b406-4d3dfc3a4de4","system_id":"levelo_inurba_marseille","lat":43.25728,"lon":5.41104,"is_reserved":false,"is_disabled":false,"rental_uris":{"android":"levelo://app?vid=2f1f7e56-c6cd-448e-b406-4d3dfc3a4de4","ios":"levelo://app?vid=2f1f7e56-c6cd-448e-b406-4d3dfc3a4de4"},"vehicle_type_id":"4","last_reported":1728209290,"current_range_meters":30000,"station_id":"ce4bhkp2rcd13ifvqgd0","pricing_plan_id":"cebpf4jnsgd1na2vs0mg"},{"bike_id":"1ee81508-41a1-4e3e-8ff6-e4273d8073de","system_id":"levelo_inurba_marseille","lat":43.31996,"lon":5.38146,"is_reserved":false,"is_disabled":false,"rental_uris":{"android":"levelo://app?vid=1ee81508-41a1-4e3e-8ff6-e4273d8073de","ios":"levelo://app?vid=1ee81508-41a1-4e3e-8ff6-e4273d8073de"},"vehicle_type_id":"4","last_reported":1728209290,"current_range_meters":2800,"station_id":"ce4bhr12rcd13ifvqhpg","pricing_plan_id":"cebpf4jnsgd1na2vs0mg"},{"bike_id":"64855baa-1f54-499d-be49-9bd6e0bd2698","system_id":"levelo_inurba_marseille","lat":43.30544,"lon":5.36551,"is_reserved":false,"is_disabled":false,"rental_uris":{"android":"levelo://app?vid=64855baa-1f54-499d-be49-9bd6e0bd2698","ios":"levelo://app?vid=64855baa-1f54-499d-be49-9bd6e0bd2698"},"vehicle_type_id":"4","last_reported":1728209290,"current_range_meters":36400,"station_id":"ce4bgs12rcd13ifvqcag","pricing_plan_id":"cebpf4jnsgd1na2vs0mg"},{"bike_id":"b8d8de06-2b1f-426e-8fc8-7c4f5441801b","system_id":"levelo_inurba_marseille","lat":43.29571,"lon":5.37497,"is_reserved":false,"is_disabled":false,"rental_uris":{"android":"levelo://app?vid=b8d8de06-2b1f-426e-8fc8-7c4f5441801b","ios":"levelo://app?vid=b8d8de06-2b1f-426e-8fc8-7c4f5441801b"},"vehicle_type_id":"4","last_reported":1728209290,"current_range_meters":28800,"station_id":"ce4bgh92rcd13ifvqb50","pricing_plan_id":"cebpf4jnsgd1na2vs0mg"},{"bike_id":"ecddc9b0-a70b-47de-b6e6-53c6cbd4486d","system_id":"levelo_inurba_marseille","lat":43.30543,"lon":5.36535,"is_reserved":false,"is_disabled":false,"rental_uris":{"android":"levelo://app?vid=ecddc9b0-a70b-47de-b6e6-53c6cbd4486d","ios":"levelo://app?vid=ecddc9b0-a70b-47de-b6e6-53c6cbd4486d"},"vehicle_type_id":"4","last_reported":1728209290,"current_range_meters":30800,"station_id":"ce4bgs12rcd13ifvqcag","pricing_plan_id":"cebpf4jnsgd1na2vs0mg"},{"bike_id":"0cc06454-4f94-4890-9053-583acbf55a97","system_id":"levelo_inurba_marseille","lat":43.24999,"lon":5.38924,"is_reserved":false,"is_disabled":false,"rental_uris":{"android":"levelo://app?vid=0cc06454-4f94-4890-9053-583acbf55a97","ios":"levelo://app?vid=0cc06454-4f94-4890-9053-583acbf55a97"},"vehicle_type_id":"4","last_reported":1728209290,"current_range_meters":5600,"station_id":"ce4bhgp2rcd13ifvqfd0","pricing_plan_id":"cebpf4jnsgd1na2vs0mg"},{"bike_id":"06ecdccc-3bd3-4263-9f3d-c77910904439","system_id":"levelo_inurba_marseille","lat":43.2919,"lon":5.35817,"is_reserved":false,"is_disabled":false,"rental_uris":{"android":"levelo://app?vid=06ecdccc-3bd3-4263-9f3d-c77910904439","ios":"levelo://app?vid=06ecdccc-3bd3-4263-9f3d-c77910904439"},"vehicle_type_id":"4","last_reported":1728209290,"current_range_meters":28800,"station_id":"ce4bhb12rcd13ifvqel0","pricing_plan_id":"cebpf4jnsgd1na2vs0mg"},{"bike_id":"a94f106c-921c-40e5-90b8-0a0b7d3f49ab","system_id":"levelo_inurba_marseille","lat":43.33357,"lon":5.35842,"is_reserved":false,"is_disabled":false,"rental_uris":{"android":"levelo://app?vid=a94f106c-921c-40e5-90b8-0a0b7d3f49ab","ios":"levelo://app?vid=a94f106c-921c-40e5-90b8-0a0b7d3f49ab"},"vehicle_type_id":"4","last_reported":1728209290,"current_range_meters":18800,"station_id":"","pricing_plan_id":"cebpf4jnsgd1na2vs0mg"},{"bike_id":"52d4276f-2848-4c82-ac33-83fbf79e6585","system_id":"levelo_inurba_marseille","lat":43.24387,"lon":5.37056,"is_reserved":false,"is_disabled":false,"rental_uris":{"android":"levelo://app?vid=52d4276f-2848-4c82-ac33-83fbf79e6585","ios":"levelo://app?vid=52d4276f-2848-4c82-ac33-83fbf79e6585"},"vehicle_type_id":"4","last_reported":1728209290,"current_range_meters":24800,"station_id":"ce4bhhh2rcd13ifvqfk0","pricing_plan_id":"cebpf4jnsgd1na2vs0mg"},{"bike_id":"9f6c19b8-adb6-43d9-a821-c59a5a9ee177","system_id":"levelo_inurba_marseille","lat":43.2455,"lon":5.39521,"is_reserved":false,"is_disabled":false,"rental_uris":{"android":"levelo://app?vid=9f6c19b8-adb6-43d9-a821-c59a5a9ee177","ios":"levelo://app?vid=9f6c19b8-adb6-43d9-a821-c59a5a9ee177"},"vehicle_type_id":"4","last_reported":1728209290,"current_range_meters":38800,"station_id":"ce4bhlp2rcd13ifvqgjg","pricing_plan_id":"cebpf4jnsgd1na2vs0mg"},{"bike_id":"a7a0ce32-a2e1-414d-9cb4-b7863590ca64","system_id":"levelo_inurba_marseille","lat":43.275614,"lon":5.384179,"is_reserved":false,"is_disabled":false,"rental_uris":{"android":"levelo://app?vid=a7a0ce32-a2e1-414d-9cb4-b7863590ca64","ios":"levelo://app?vid=a7a0ce32-a2e1-414d-9cb4-b7863590ca64"},"vehicle_type_id":"4","last_reported":1728209290,"current_range_meters":39200,"station_id":"ce4bhh92rcd13ifvqfi0","pricing_plan_id":"cebpf4jnsgd1na2vs0mg"},{"bike_id":"4037c19f-b08a-4f2f-9716-23a4592989a7","system_id":"levelo_inurba_marseille","lat":43.32353,"lon":5.3888,"is_reserved":false,"is_disabled":false,"rental_uris":{"android":"levelo://app?vid=4037c19f-b08a-4f2f-9716-23a4592989a7","ios":"levelo://app?vid=4037c19f-b08a-4f2f-9716-23a4592989a7"},"vehicle_type_id":"4","last_reported":1728209290,"current_range_meters":36800,"station_id":"ce4bhqp2rcd13ifvqhog","pricing_plan_id":"cebpf4jnsgd1na2vs0mg"},{"bike_id":"1c6ced08-6c65-4e22-a8e3-0734c3156234","system_id":"levelo_inurba_marseille","lat":43.25722,"lon":5.41101,"is_reserved":false,"is_disabled":false,"rental_uris":{"android":"levelo://app?vid=1c6ced08-6c65-4e22-a8e3-0734c3156234","ios":"levelo://app?vid=1c6ced08-6c65-4e22-a8e3-0734c3156234"},"vehicle_type_id":"4","last_reported":1728209290,"current_range_meters":38800,"station_id":"ce4bhkp2rcd13ifvqgd0","pricing_plan_id":"cebpf4jnsgd1na2vs0mg"},{"bike_id":"45c73950-3228-4fa9-b78a-10041682d3e8","system_id":"levelo_inurba_marseille","lat":43.29421,"lon":5.39771,"is_reserved":false,"is_disabled":false,"rental_uris":{"android":"levelo://app?vid=45c73950-3228-4fa9-b78a-10041682d3e8","ios":"levelo://app?vid=45c73950-3228-4fa9-b78a-10041682d3e8"},"vehicle_type_id":"4","last_reported":1728209290,"current_range_meters":13600,"station_id":"ce4bh3h2rcd13ifvqdo0","pricing_plan_id":"cebpf4jnsgd1na2vs0mg"},{"bike_id":"59a7f273-a2ca-4104-80ce-2798aed1b2a6","system_id":"levelo_inurba_marseille","lat":43.22929,"lon":5.35374,"is_reserved":false,"is_disabled":false,"rental_uris":{"android":"levelo://app?vid=59a7f273-a2ca-4104-80ce-2798aed1b2a6","ios":"levelo://app?vid=59a7f273-a2ca-4104-80ce-2798aed1b2a6"},"vehicle_type_id":"4","last_reported":1728209290,"current_range_meters":25600,"station_id":"cpo3532slgdg3j2ikp40","pricing_plan_id":"cebpf4jnsgd1na2vs0mg"},{"bike_id":"7d832797-a368-47ce-80a8-50d6a3763de8","system_id":"levelo_inurba_marseille","lat":43.2842,"lon":5.38457,"is_reserved":false,"is_disabled":false,"rental_uris":{"android":"levelo://app?vid=7d832797-a368-47ce-80a8-50d6a3763de8","ios":"levelo://app?vid=7d832797-a368-47ce-80a8-50d6a3763de8"},"vehicle_type_id":"4","last_reported":1728209290,"current_range_meters":28800,"station_id":"","pricing_plan_id":"cebpf4jnsgd1na2vs0mg"},{"bike_id":"868fa2c3-859c-4b5a-b69c-933c8c522d35","system_id":"levelo_inurba_marseille","lat":43.31353,"lon":5.38489,"is_reserved":false,"is_disabled":false,"rental_uris":{"android":"levelo://app?vid=868fa2c3-859c-4b5a-b69c-933c8c522d35","ios":"levelo://app?vid=868fa2c3-859c-4b5a-b69c-933c8c522d35"},"vehicle_type_id":"4","last_reported":1728209290,"current_range_meters":36800,"station_id":"ce4bgt92rcd13ifvqcf0","pricing_plan_id":"cebpf4jnsgd1na2vs0mg"},{"bike_id":"d4c920e4-1248-49a8-a8e5-259cacf54fbb","system_id":"levelo_inurba_marseille","lat":43.29223,"lon":5.36059,"is_reserved":false,"is_disabled":false,"rental_uris":{"android":"levelo://app?vid=d4c920e4-1248-49a8-a8e5-259cacf54fbb","ios":"levelo://app?vid=d4c920e4-1248-49a8-a8e5-259cacf54fbb"},"vehicle_type_id":"4","last_reported":1728209290,"current_range_meters":30000,"station_id":"ce4bhbh2rcd13ifvqeqg","pricing_plan_id":"cebpf4jnsgd1na2vs0mg"},{"bike_id":"126e8b9c-d4ba-4fdf-b891-8a69ddbd21f6","system_id":"levelo_inurba_marseille","lat":43.32102,"lon":5.36775,"is_reserved":false,"is_disabled":false,"rental_uris":{"android":"levelo://app?vid=126e8b9c-d4ba-4fdf-b891-8a69ddbd21f6","ios":"levelo://app?vid=126e8b9c-d4ba-4fdf-b891-8a69ddbd21f6"},"vehicle_type_id":"4","last_reported":1728209290,"current_range_meters":26800,"station_id":"ce4bhrh2rcd13ifvqhug","pricing_plan_id":"cebpf4jnsgd1na2vs0mg"},{"bike_id":"68b77a88-2067-422a-ab7b-e29094a40dcc","system_id":"levelo_inurba_marseille","lat":43.25116,"lon":5.40316,"is_reserved":false,"is_disabled":false,"rental_uris":{"android":"levelo://app?vid=68b77a88-2067-422a-ab7b-e29094a40dcc","ios":"levelo://app?vid=68b77a88-2067-422a-ab7b-e29094a40dcc"},"vehicle_type_id":"4","last_reported":1728209290,"current_range_meters":38800,"station_id":"ce4bhlh2rcd13ifvqgig","pricing_plan_id":"cebpf4jnsgd1na2vs0mg"},{"bike_id":"262d64f8-746b-493c-bbf8-3700b93c4b6d","system_id":"levelo_inurba_marseille","lat":43.24386,"lon":5.37054,"is_reserved":false,"is_disabled":false,"rental_uris":{"android":"levelo://app?vid=262d64f8-746b-493c-bbf8-3700b93c4b6d","ios":"levelo://app?vid=262d64f8-746b-493c-bbf8-3700b93c4b6d"},"vehicle_type_id":"4","last_reported":1728209290,"current_range_meters":37600,"station_id":"ce4bhhh2rcd13ifvqfk0","pricing_plan_id":"cebpf4jnsgd1na2vs0mg"},{"bike_id":"b680d7bd-31db-4e86-8e19-b2e9c0cbf0fd","system_id":"levelo_inurba_marseille","lat":43.26782,"lon":5.39413,"is_reserved":false,"is_disabled":false,"rental_uris":{"android":"levelo://app?vid=b680d7bd-31db-4e86-8e19-b2e9c0cbf0fd","ios":"levelo://app?vid=b680d7bd-31db-4e86-8e19-b2e9c0cbf0fd"},"vehicle_type_id":"4","last_reported":1728209290,"current_range_meters":34800,"station_id":"ce4bhh12rcd13ifvqfg0","pricing_plan_id":"cebpf4jnsgd1na2vs0mg"},{"bike_id":"b40df5c5-2aa5-4e8b-8b27-4c7492a30a8b","system_id":"levelo_inurba_marseille","lat":43.3088,"lon":5.39655,"is_reserved":false,"is_disabled":false,"rental_uris":{"android":"levelo://app?vid=b40df5c5-2aa5-4e8b-8b27-4c7492a30a8b","ios":"levelo://app?vid=b40df5c5-2aa5-4e8b-8b27-4c7492a30a8b"},"vehicle_type_id":"4","last_reported":1728209290,"current_range_meters":20800,"station_id":"ce4bh012rcd13ifvqcv0","pricing_plan_id":"cebpf4jnsgd1na2vs0mg"},{"bike_id":"c073b2bd-8bfc-439a-b4ef-caa9e57bfdf8","system_id":"levelo_inurba_marseille","lat":43.26024,"lon":5.37546,"is_reserved":false,"is_disabled":false,"rental_uris":{"android":"levelo://app?vid=c073b2bd-8bfc-439a-b4ef-caa9e57bfdf8","ios":"levelo://app?vid=c073b2bd-8bfc-439a-b4ef-caa9e57bfdf8"},"vehicle_type_id":"4","last_reported":1728209290,"current_range_meters":11600,"station_id":"ce4bhgh2rcd13ifvqfa0","pricing_plan_id":"cebpf4jnsgd1na2vs0mg"},{"bike_id":"77daaf62-044d-42ef-bbc5-a5ee767adcac","system_id":"levelo_inurba_marseille","lat":43.298842,"lon":5.390128,"is_reserved":false,"is_disabled":false,"rental_uris":{"android":"levelo://app?vid=77daaf62-044d-42ef-bbc5-a5ee767adcac","ios":"levelo://app?vid=77daaf62-044d-42ef-bbc5-a5ee767adcac"},"vehicle_type_id":"4","last_reported":1728209290,"current_range_meters":28000,"station_id":"ce4bh392rcd13ifvqdl0","pricing_plan_id":"cebpf4jnsgd1na2vs0mg"},{"bike_id":"863c432c-e778-4763-95d0-0685bd716f58","system_id":"levelo_inurba_marseille","lat":43.29551,"lon":5.42276,"is_reserved":false,"is_disabled":false,"rental_uris":{"android":"levelo://app?vid=863c432c-e778-4763-95d0-0685bd716f58","ios":"levelo://app?vid=863c432c-e778-4763-95d0-0685bd716f58"},"vehicle_type_id":"4","last_reported":1728209290,"current_range_meters":38800,"station_id":"ce4bhph2rcd13ifvqhdg","pricing_plan_id":"cebpf4jnsgd1na2vs0mg"},{"bike_id":"6fef15cb-75bd-4bdd-b0eb-0e370da91d23","system_id":"levelo_inurba_marseille","lat":43.29837,"lon":5.36266,"is_reserved":false,"is_disabled":false,"rental_uris":{"android":"levelo://app?vid=6fef15cb-75bd-4bdd-b0eb-0e370da91d23","ios":"levelo://app?vid=6fef15cb-75bd-4bdd-b0eb-0e370da91d23"},"vehicle_type_id":"4","last_reported":1728209290,"current_range_meters":31200,"station_id":"ce4bgpp2rcd13ifvqc3g","pricing_plan_id":"cebpf4jnsgd1na2vs0mg"},{"bike_id":"8f80c157-b00a-48a5-bf59-a54e72750b91","system_id":"levelo_inurba_marseille","lat":43.288341,"lon":5.358415,"is_reserved":false,"is_disabled":false,"rental_uris":{"android":"levelo://app?vid=8f80c157-b00a-48a5-bf59-a54e72750b91","ios":"levelo://app?vid=8f80c157-b00a-48a5-bf59-a54e72750b91"},"vehicle_type_id":"4","last_reported":1728209290,"current_range_meters":38000,"station_id":"ce4bhb12rcd13ifvqem0","pricing_plan_id":"cebpf4jnsgd1na2vs0mg"},{"bike_id":"b4a144a6-be64-4a9f-886c-8c1cd9644a15","system_id":"levelo_inurba_marseille","lat":43.28656,"lon":5.3635,"is_reserved":false,"is_disabled":false,"rental_uris":{"android":"levelo://app?vid=b4a144a6-be64-4a9f-886c-8c1cd9644a15","ios":"levelo://app?vid=b4a144a6-be64-4a9f-886c-8c1cd9644a15"},"vehicle_type_id":"4","last_reported":1728209290,"current_range_meters":4000,"station_id":"ce4bhah2rcd13ifvqej0","pricing_plan_id":"cebpf4jnsgd1na2vs0mg"},{"bike_id":"b6fd76d3-34a5-4c26-a80e-03dca3f57387","system_id":"levelo_inurba_marseille","lat":43.33608,"lon":5.41025,"is_reserved":false,"is_disabled":false,"rental_uris":{"android":"levelo://app?vid=b6fd76d3-34a5-4c26-a80e-03dca3f57387","ios":"levelo://app?vid=b6fd76d3-34a5-4c26-a80e-03dca3f57387"},"vehicle_type_id":"4","last_reported":1728209290,"current_range_meters":7200,"station_id":"ce4bhqh2rcd13ifvqhmg","pricing_plan_id":"cebpf4jnsgd1na2vs0mg"},{"bike_id":"6923309b-f112-4ddf-aeb0-24629871d728","system_id":"levelo_inurba_marseille","lat":43.28435,"lon":5.35875,"is_reserved":false,"is_disabled":false,"rental_uris":{"android":"levelo://app?vid=6923309b-f112-4ddf-aeb0-24629871d728","ios":"levelo://app?vid=6923309b-f112-4ddf-aeb0-24629871d728"},"vehicle_type_id":"4","last_reported":1728209290,"current_range_meters":19200,"station_id":"ce4bgpp2rcd13ifvqc3g","pricing_plan_id":"cebpf4jnsgd1na2vs0mg"},{"bike_id":"4b32da39-55fc-4702-8209-bf48c2cf5c44","system_id":"levelo_inurba_marseille","lat":43.29198,"lon":5.39322,"is_reserved":false,"is_disabled":false,"rental_uris":{"android":"levelo://app?vid=4b32da39-55fc-4702-8209-bf48c2cf5c44","ios":"levelo://app?vid=4b32da39-55fc-4702-8209-bf48c2cf5c44"},"vehicle_type_id":"4","last_reported":1728209290,"current_range_meters":32000,"station_id":"ce4bh192rcd13ifvqdd0","pricing_plan_id":"cebpf4jnsgd1na2vs0mg"},{"bike_id":"152f3a24-1071-41b9-a2ed-934df83e2faa","system_id":"levelo_inurba_marseille","lat":43.25857,"lon":5.39895,"is_reserved":false,"is_disabled":false,"rental_uris":{"android":"levelo://app?vid=152f3a24-1071-41b9-a2ed-934df83e2faa","ios":"levelo://app?vid=152f3a24-1071-41b9-a2ed-934df83e2faa"},"vehicle_type_id":"4","last_reported":1728209290,"current_range_meters":20800,"station_id":"ce4bhl92rcd13ifvqghg","pricing_plan_id":"cebpf4jnsgd1na2vs0mg"},{"bike_id":"fea3a001-6b80-457d-8fa7-59eb6a9d5742","system_id":"levelo_inurba_marseille","lat":43.29019,"lon":5.37554,"is_reserved":false,"is_disabled":false,"rental_uris":{"android":"levelo://app?vid=fea3a001-6b80-457d-8fa7-59eb6a9d5742","ios":"levelo://app?vid=fea3a001-6b80-457d-8fa7-59eb6a9d5742"},"vehicle_type_id":"4","last_reported":1728209290,"current_range_meters":29600,"station_id":"ce4bh692rcd13ifvqe90","pricing_plan_id":"cebpf4jnsgd1na2vs0mg"},{"bike_id":"e52556a0-eec0-42f8-9dff-bfa9d9b67ba6","system_id":"levelo_inurba_marseille","lat":43.32479,"lon":5.36566,"is_reserved":false,"is_disabled":false,"rental_uris":{"android":"levelo://app?vid=e52556a0-eec0-42f8-9dff-bfa9d9b67ba6","ios":"levelo://app?vid=e52556a0-eec0-42f8-9dff-bfa9d9b67ba6"},"vehicle_type_id":"4","last_reported":1728209290,"current_range_meters":25200,"station_id":"ce4bhs12rcd13ifvqhvg","pricing_plan_id":"cebpf4jnsgd1na2vs0mg"},{"bike_id":"bee0cd21-a648-4f04-8bc2-b57277130683","system_id":"levelo_inurba_marseille","lat":43.255798,"lon":5.38232,"is_reserved":false,"is_disabled":false,"rental_uris":{"android":"levelo://app?vid=bee0cd21-a648-4f04-8bc2-b57277130683","ios":"levelo://app?vid=bee0cd21-a648-4f04-8bc2-b57277130683"},"vehicle_type_id":"4","last_reported":1728209290,"current_range_meters":21600,"station_id":"ce4bhih2rcd13ifvqfs0","pricing_plan_id":"cebpf4jnsgd1na2vs0mg"},{"bike_id":"3af48eb3-1d1f-4a32-a948-7cc05add2405","system_id":"levelo_inurba_marseille","lat":43.22489,"lon":5.34753,"is_reserved":false,"is_disabled":false,"rental_uris":{"android":"levelo://app?vid=3af48eb3-1d1f-4a32-a948-7cc05add2405","ios":"levelo://app?vid=3af48eb3-1d1f-4a32-a948-7cc05add2405"},"vehicle_type_id":"4","last_reported":1728209290,"current_range_meters":30000,"station_id":"","pricing_plan_id":"cebpf4jnsgd1na2vs0mg"},{"bike_id":"77e44f96-8992-4ec5-ba2c-5e51b9e5b288","system_id":"levelo_inurba_marseille","lat":43.27047,"lon":5.3878,"is_reserved":false,"is_disabled":false,"rental_uris":{"android":"levelo://app?vid=77e44f96-8992-4ec5-ba2c-5e51b9e5b288","ios":"levelo://app?vid=77e44f96-8992-4ec5-ba2c-5e51b9e5b288"},"vehicle_type_id":"4","last_reported":1728209290,"current_range_meters":36800,"station_id":"","pricing_plan_id":"cebpf4jnsgd1na2vs0mg"},{"bike_id":"2a848ed7-98e3-4f0c-af19-07d0d011e09f","system_id":"levelo_inurba_marseille","lat":43.26795,"lon":5.39401,"is_reserved":false,"is_disabled":false,"rental_uris":{"android":"levelo://app?vid=2a848ed7-98e3-4f0c-af19-07d0d011e09f","ios":"levelo://app?vid=2a848ed7-98e3-4f0c-af19-07d0d011e09f"},"vehicle_type_id":"4","last_reported":1728209290,"current_range_meters":31200,"station_id":"ce4bhh12rcd13ifvqfg0","pricing_plan_id":"cebpf4jnsgd1na2vs0mg"},{"bike_id":"32ef6b2d-14cc-4e67-b293-0635ae9e74ce","system_id":"levelo_inurba_marseille","lat":43.27205,"lon":5.39188,"is_reserved":false,"is_disabled":false,"rental_uris":{"android":"levelo://app?vid=32ef6b2d-14cc-4e67-b293-0635ae9e74ce","ios":"levelo://app?vid=32ef6b2d-14cc-4e67-b293-0635ae9e74ce"},"vehicle_type_id":"4","last_reported":1728209290,"current_range_meters":4800,"station_id":"ce4bhhp2rcd13ifvqfm0","pricing_plan_id":"cebpf4jnsgd1na2vs0mg"},{"bike_id":"b51ee6d2-4574-4587-a7f0-3852397ae634","system_id":"levelo_inurba_marseille","lat":43.22924,"lon":5.35372,"is_reserved":false,"is_disabled":false,"rental_uris":{"android":"levelo://app?vid=b51ee6d2-4574-4587-a7f0-3852397ae634","ios":"levelo://app?vid=b51ee6d2-4574-4587-a7f0-3852397ae634"},"vehicle_type_id":"4","last_reported":1728209290,"current_range_meters":36800,"station_id":"cpo3532slgdg3j2ikp40","pricing_plan_id":"cebpf4jnsgd1na2vs0mg"},{"bike_id":"4f5038fe-9ccd-4d04-a6cd-afe04d9be89f","system_id":"levelo_inurba_marseille","lat":43.2738,"lon":5.36258,"is_reserved":false,"is_disabled":false,"rental_uris":{"android":"levelo://app?vid=4f5038fe-9ccd-4d04-a6cd-afe04d9be89f","ios":"levelo://app?vid=4f5038fe-9ccd-4d04-a6cd-afe04d9be89f"},"vehicle_type_id":"4","last_reported":1728209290,"current_range_meters":32800,"station_id":"ce4bhbh2rcd13ifvqeo0","pricing_plan_id":"cebpf4jnsgd1na2vs0mg"},{"bike_id":"b3d48d71-af0e-431b-b556-cbc9797d50f2","system_id":"levelo_inurba_marseille","lat":43.30144,"lon":5.39874,"is_reserved":false,"is_disabled":false,"rental_uris":{"android":"levelo://app?vid=b3d48d71-af0e-431b-b556-cbc9797d50f2","ios":"levelo://app?vid=b3d48d71-af0e-431b-b556-cbc9797d50f2"},"vehicle_type_id":"4","last_reported":1728209290,"current_range_meters":38800,"station_id":"ce4bh0h2rcd13ifvqd40","pricing_plan_id":"cebpf4jnsgd1na2vs0mg"},{"bike_id":"0a8c9a0d-0b0f-4138-98a5-c8e50caa5c7e","system_id":"levelo_inurba_marseille","lat":43.24172,"lon":5.39721,"is_reserved":false,"is_disabled":false,"rental_uris":{"android":"levelo://app?vid=0a8c9a0d-0b0f-4138-98a5-c8e50caa5c7e","ios":"levelo://app?vid=0a8c9a0d-0b0f-4138-98a5-c8e50caa5c7e"},"vehicle_type_id":"4","last_reported":1728209290,"current_range_meters":4800,"station_id":"ce4bhn12rcd13ifvqgpg","pricing_plan_id":"cebpf4jnsgd1na2vs0mg"},{"bike_id":"411b7766-5fd9-42f4-94e2-6d59554d4823","system_id":"levelo_inurba_marseille","lat":43.30648,"lon":5.4008,"is_reserved":false,"is_disabled":false,"rental_uris":{"android":"levelo://app?vid=411b7766-5fd9-42f4-94e2-6d59554d4823","ios":"levelo://app?vid=411b7766-5fd9-42f4-94e2-6d59554d4823"},"vehicle_type_id":"4","last_reported":1728209290,"current_range_meters":19600,"station_id":"ce4bh112rcd13ifvqda0","pricing_plan_id":"cebpf4jnsgd1na2vs0mg"},{"bike_id":"55c430cd-1669-4055-b1fd-7c8d8211662e","system_id":"levelo_inurba_marseille","lat":43.267872,"lon":5.39411,"is_reserved":false,"is_disabled":false,"rental_uris":{"android":"levelo://app?vid=55c430cd-1669-4055-b1fd-7c8d8211662e","ios":"levelo://app?vid=55c430cd-1669-4055-b1fd-7c8d8211662e"},"vehicle_type_id":"4","last_reported":1728209290,"current_range_meters":38800,"station_id":"ce4bhh12rcd13ifvqfg0","pricing_plan_id":"cebpf4jnsgd1na2vs0mg"},{"bike_id":"4e0c83a2-b0c3-4894-8559-e509681998d3","system_id":"levelo_inurba_marseille","lat":43.31123,"lon":5.38317,"is_reserved":false,"is_disabled":false,"rental_uris":{"android":"levelo://app?vid=4e0c83a2-b0c3-4894-8559-e509681998d3","ios":"levelo://app?vid=4e0c83a2-b0c3-4894-8559-e509681998d3"},"vehicle_type_id":"4","last_reported":1728209290,"current_range_meters":9600,"station_id":"","pricing_plan_id":"cebpf4jnsgd1na2vs0mg"},{"bike_id":"77048d88-c2ed-44f4-8000-0db02adff34e","system_id":"levelo_inurba_marseille","lat":43.2607,"lon":5.38705,"is_reserved":false,"is_disabled":false,"rental_uris":{"android":"levelo://app?vid=77048d88-c2ed-44f4-8000-0db02adff34e","ios":"levelo://app?vid=77048d88-c2ed-44f4-8000-0db02adff34e"},"vehicle_type_id":"4","last_reported":1728209290,"current_range_meters":34000,"station_id":"","pricing_plan_id":"cebpf4jnsgd1na2vs0mg"},{"bike_id":"ae53a9d1-01ac-447b-a4c7-269e1c5ac403","system_id":"levelo_inurba_marseille","lat":43.31822,"lon":5.40632,"is_reserved":false,"is_disabled":false,"rental_uris":{"android":"levelo://app?vid=ae53a9d1-01ac-447b-a4c7-269e1c5ac403","ios":"levelo://app?vid=ae53a9d1-01ac-447b-a4c7-269e1c5ac403"},"vehicle_type_id":"4","last_reported":1728209290,"current_range_meters":12000,"station_id":"","pricing_plan_id":"cebpf4jnsgd1na2vs0mg"},{"bike_id":"d3d0826a-8542-464c-893d-a0abebc55504","system_id":"levelo_inurba_marseille","lat":43.31266,"lon":5.40168,"is_reserved":false,"is_disabled":false,"rental_uris":{"android":"levelo://app?vid=d3d0826a-8542-464c-893d-a0abebc55504","ios":"levelo://app?vid=d3d0826a-8542-464c-893d-a0abebc55504"},"vehicle_type_id":"4","last_reported":1728209290,"current_range_meters":38400,"station_id":"ce4bh092rcd13ifvqd30","pricing_plan_id":"cebpf4jnsgd1na2vs0mg"},{"bike_id":"c8a81076-9586-4795-a406-3705874a4aa0","system_id":"levelo_inurba_marseille","lat":43.22931,"lon":5.35369,"is_reserved":false,"is_disabled":false,"rental_uris":{"android":"levelo://app?vid=c8a81076-9586-4795-a406-3705874a4aa0","ios":"levelo://app?vid=c8a81076-9586-4795-a406-3705874a4aa0"},"vehicle_type_id":"4","last_reported":1728209290,"current_range_meters":30400,"station_id":"cpo3532slgdg3j2ikp40","pricing_plan_id":"cebpf4jnsgd1na2vs0mg"},{"bike_id":"a7ac53a6-e081-46a9-9b2a-fe4f742a55d2","system_id":"levelo_inurba_marseille","lat":43.25721,"lon":5.41105,"is_reserved":false,"is_disabled":false,"rental_uris":{"android":"levelo://app?vid=a7ac53a6-e081-46a9-9b2a-fe4f742a55d2","ios":"levelo://app?vid=a7ac53a6-e081-46a9-9b2a-fe4f742a55d2"},"vehicle_type_id":"4","last_reported":1728209290,"current_range_meters":11600,"station_id":"ce4bhkp2rcd13ifvqgd0","pricing_plan_id":"cebpf4jnsgd1na2vs0mg"},{"bike_id":"8d4950f1-b301-449d-bcd0-f0ac70cb73de","system_id":"levelo_inurba_marseille","lat":43.28487,"lon":5.42191,"is_reserved":false,"is_disabled":false,"rental_uris":{"android":"levelo://app?vid=8d4950f1-b301-449d-bcd0-f0ac70cb73de","ios":"levelo://app?vid=8d4950f1-b301-449d-bcd0-f0ac70cb73de"},"vehicle_type_id":"4","last_reported":1728209290,"current_range_meters":4800,"station_id":"","pricing_plan_id":"cebpf4jnsgd1na2vs0mg"},{"bike_id":"63d586e1-9015-43d5-9c1b-f06b97918957","system_id":"levelo_inurba_marseille","lat":43.2558,"lon":5.38233,"is_reserved":false,"is_disabled":false,"rental_uris":{"android":"levelo://app?vid=63d586e1-9015-43d5-9c1b-f06b97918957","ios":"levelo://app?vid=63d586e1-9015-43d5-9c1b-f06b97918957"},"vehicle_type_id":"4","last_reported":1728209290,"current_range_meters":28800,"station_id":"ce4bhih2rcd13ifvqfs0","pricing_plan_id":"cebpf4jnsgd1na2vs0mg"},{"bike_id":"099e6a77-7f84-4a74-9d0b-ce71daf98d1a","system_id":"levelo_inurba_marseille","lat":43.289449,"lon":5.363967,"is_reserved":false,"is_disabled":false,"rental_uris":{"android":"levelo://app?vid=099e6a77-7f84-4a74-9d0b-ce71daf98d1a","ios":"levelo://app?vid=099e6a77-7f84-4a74-9d0b-ce71daf98d1a"},"vehicle_type_id":"4","last_reported":1728209290,"current_range_meters":36800,"station_id":"ce4bhah2rcd13ifvqei0","pricing_plan_id":"cebpf4jnsgd1na2vs0mg"},{"bike_id":"c378dc83-ebd1-41d3-9b5e-a9309637a11d","system_id":"levelo_inurba_marseille","lat":43.30927,"lon":5.40144,"is_reserved":false,"is_disabled":false,"rental_uris":{"android":"levelo://app?vid=c378dc83-ebd1-41d3-9b5e-a9309637a11d","ios":"levelo://app?vid=c378dc83-ebd1-41d3-9b5e-a9309637a11d"},"vehicle_type_id":"4","last_reported":1728209290,"current_range_meters":8000,"station_id":"ce4bgvp2rcd13ifvqct0","pricing_plan_id":"cebpf4jnsgd1na2vs0mg"},{"bike_id":"47fd952c-b84c-4fff-b691-98ea3d1d1fe3","system_id":"levelo_inurba_marseille","lat":43.32339,"lon":5.4062,"is_reserved":false,"is_disabled":false,"rental_uris":{"android":"levelo://app?vid=47fd952c-b84c-4fff-b691-98ea3d1d1fe3","ios":"levelo://app?vid=47fd952c-b84c-4fff-b691-98ea3d1d1fe3"},"vehicle_type_id":"4","last_reported":1728209290,"current_range_meters":24400,"station_id":"ce4bhq92rcd13ifvqhjg","pricing_plan_id":"cebpf4jnsgd1na2vs0mg"},{"bike_id":"c50e441c-d247-4c47-85e3-c59071bb20fa","system_id":"levelo_inurba_marseille","lat":43.21344,"lon":5.34932,"is_reserved":false,"is_disabled":false,"rental_uris":{"android":"levelo://app?vid=c50e441c-d247-4c47-85e3-c59071bb20fa","ios":"levelo://app?vid=c50e441c-d247-4c47-85e3-c59071bb20fa"},"vehicle_type_id":"4","last_reported":1728209290,"current_range_meters":30400,"station_id":"crv51consjfaj9uu89c0","pricing_plan_id":"cebpf4jnsgd1na2vs0mg"},{"bike_id":"ad3e8b2e-f164-490f-8326-ef981f72357a","system_id":"levelo_inurba_marseille","lat":43.2721,"lon":5.39177,"is_reserved":false,"is_disabled":false,"rental_uris":{"android":"levelo://app?vid=ad3e8b2e-f164-490f-8326-ef981f72357a","ios":"levelo://app?vid=ad3e8b2e-f164-490f-8326-ef981f72357a"},"vehicle_type_id":"4","last_reported":1728209290,"current_range_meters":20000,"station_id":"ce4bhhp2rcd13ifvqfm0","pricing_plan_id":"cebpf4jnsgd1na2vs0mg"},{"bike_id":"ec5f50a4-9d95-467d-ad82-91d3787e32da","system_id":"levelo_inurba_marseille","lat":43.25111,"lon":5.40323,"is_reserved":false,"is_disabled":false,"rental_uris":{"android":"levelo://app?vid=ec5f50a4-9d95-467d-ad82-91d3787e32da","ios":"levelo://app?vid=ec5f50a4-9d95-467d-ad82-91d3787e32da"},"vehicle_type_id":"4","last_reported":1728209290,"current_range_meters":3600,"station_id":"ce4bhlh2rcd13ifvqgig","pricing_plan_id":"cebpf4jnsgd1na2vs0mg"},{"bike_id":"50adf5c9-c061-481b-81a8-2b154bbc729c","system_id":"levelo_inurba_marseille","lat":43.2959,"lon":5.36731,"is_reserved":false,"is_disabled":false,"rental_uris":{"android":"levelo://app?vid=50adf5c9-c061-481b-81a8-2b154bbc729c","ios":"levelo://app?vid=50adf5c9-c061-481b-81a8-2b154bbc729c"},"vehicle_type_id":"4","last_reported":1728209290,"current_range_meters":38800,"station_id":"ce4bgph2rcd13ifvqc2g","pricing_plan_id":"cebpf4jnsgd1na2vs0mg"},{"bike_id":"a8d95618-f2ad-45b4-8eba-9bd5b2ef680e","system_id":"levelo_inurba_marseille","lat":43.25575,"lon":5.38236,"is_reserved":false,"is_disabled":false,"rental_uris":{"android":"levelo://app?vid=a8d95618-f2ad-45b4-8eba-9bd5b2ef680e","ios":"levelo://app?vid=a8d95618-f2ad-45b4-8eba-9bd5b2ef680e"},"vehicle_type_id":"4","last_reported":1728209290,"current_range_meters":23200,"station_id":"ce4bhih2rcd13ifvqfs0","pricing_plan_id":"cebpf4jnsgd1na2vs0mg"},{"bike_id":"0e706edc-d6c9-4695-a8ed-089f891deb61","system_id":"levelo_inurba_marseille","lat":43.306416,"lon":5.40073,"is_reserved":false,"is_disabled":false,"rental_uris":{"android":"levelo://app?vid=0e706edc-d6c9-4695-a8ed-089f891deb61","ios":"levelo://app?vid=0e706edc-d6c9-4695-a8ed-089f891deb61"},"vehicle_type_id":"4","last_reported":1728209290,"current_range_meters":11600,"station_id":"ce4bh112rcd13ifvqda0","pricing_plan_id":"cebpf4jnsgd1na2vs0mg"},{"bike_id":"fda83217-0fbb-4ea5-918f-8a21dd01cd01","system_id":"levelo_inurba_marseille","lat":43.305457,"lon":5.365543,"is_reserved":false,"is_disabled":false,"rental_uris":{"android":"levelo://app?vid=fda83217-0fbb-4ea5-918f-8a21dd01cd01","ios":"levelo://app?vid=fda83217-0fbb-4ea5-918f-8a21dd01cd01"},"vehicle_type_id":"4","last_reported":1728209290,"current_range_meters":30400,"station_id":"ce4bgs12rcd13ifvqcag","pricing_plan_id":"cebpf4jnsgd1na2vs0mg"},{"bike_id":"b1838a8a-5724-48f4-8b08-ccb2775a3430","system_id":"levelo_inurba_marseille","lat":43.30546,"lon":5.36535,"is_reserved":false,"is_disabled":false,"rental_uris":{"android":"levelo://app?vid=b1838a8a-5724-48f4-8b08-ccb2775a3430","ios":"levelo://app?vid=b1838a8a-5724-48f4-8b08-ccb2775a3430"},"vehicle_type_id":"4","last_reported":1728209290,"current_range_meters":16000,"station_id":"ce4bgs12rcd13ifvqcag","pricing_plan_id":"cebpf4jnsgd1na2vs0mg"},{"bike_id":"2c052363-cb43-4d1b-abc6-e860c8218f98","system_id":"levelo_inurba_marseille","lat":43.324831,"lon":5.365649,"is_reserved":false,"is_disabled":false,"rental_uris":{"android":"levelo://app?vid=2c052363-cb43-4d1b-abc6-e860c8218f98","ios":"levelo://app?vid=2c052363-cb43-4d1b-abc6-e860c8218f98"},"vehicle_type_id":"4","last_reported":1728209290,"current_range_meters":38800,"station_id":"ce4bhs12rcd13ifvqhvg","pricing_plan_id":"cebpf4jnsgd1na2vs0mg"},{"bike_id":"10c071b3-3db9-4dfb-a72d-91c4bfbaf353","system_id":"levelo_inurba_marseille","lat":43.29793,"lon":5.38085,"is_reserved":false,"is_disabled":false,"rental_uris":{"android":"levelo://app?vid=10c071b3-3db9-4dfb-a72d-91c4bfbaf353","ios":"levelo://app?vid=10c071b3-3db9-4dfb-a72d-91c4bfbaf353"},"vehicle_type_id":"4","last_reported":1728209290,"current_range_meters":38400,"station_id":"ce4bgip2rcd13ifvqbb0","pricing_plan_id":"cebpf4jnsgd1na2vs0mg"},{"bike_id":"514dec8b-5b2c-4e20-b0d7-c376c8ea0266","system_id":"levelo_inurba_marseille","lat":43.31222,"lon":5.36845,"is_reserved":false,"is_disabled":false,"rental_uris":{"android":"levelo://app?vid=514dec8b-5b2c-4e20-b0d7-c376c8ea0266","ios":"levelo://app?vid=514dec8b-5b2c-4e20-b0d7-c376c8ea0266"},"vehicle_type_id":"4","last_reported":1728209290,"current_range_meters":38000,"station_id":"ce4bgl92rcd13ifvqbq0","pricing_plan_id":"cebpf4jnsgd1na2vs0mg"},{"bike_id":"bdefae95-7cc5-4880-bfcb-b1af39586be0","system_id":"levelo_inurba_marseille","lat":43.32662,"lon":5.40992,"is_reserved":false,"is_disabled":false,"rental_uris":{"android":"levelo://app?vid=bdefae95-7cc5-4880-bfcb-b1af39586be0","ios":"levelo://app?vid=bdefae95-7cc5-4880-bfcb-b1af39586be0"},"vehicle_type_id":"4","last_reported":1728209290,"current_range_meters":36800,"station_id":"ce4bhpp2rcd13ifvqhgg","pricing_plan_id":"cebpf4jnsgd1na2vs0mg"},{"bike_id":"7f2584c3-186b-4ca9-b416-bee639b50e12","system_id":"levelo_inurba_marseille","lat":43.22933,"lon":5.35379,"is_reserved":false,"is_disabled":false,"rental_uris":{"android":"levelo://app?vid=7f2584c3-186b-4ca9-b416-bee639b50e12","ios":"levelo://app?vid=7f2584c3-186b-4ca9-b416-bee639b50e12"},"vehicle_type_id":"4","last_reported":1728209290,"current_range_meters":30000,"station_id":"cpo3532slgdg3j2ikp40","pricing_plan_id":"cebpf4jnsgd1na2vs0mg"},{"bike_id":"38bc2c09-8811-4d16-a1fd-618a24311465","system_id":"levelo_inurba_marseille","lat":43.31076,"lon":5.38351,"is_reserved":false,"is_disabled":false,"rental_uris":{"android":"levelo://app?vid=38bc2c09-8811-4d16-a1fd-618a24311465","ios":"levelo://app?vid=38bc2c09-8811-4d16-a1fd-618a24311465"},"vehicle_type_id":"4","last_reported":1728209290,"current_range_meters":36000,"station_id":"ce4bgv92rcd13ifvqcr0","pricing_plan_id":"cebpf4jnsgd1na2vs0mg"},{"bike_id":"19aead8e-f25a-4a49-b0f6-0b796958e216","system_id":"levelo_inurba_marseille","lat":43.30299,"lon":5.36891,"is_reserved":false,"is_disabled":false,"rental_uris":{"android":"levelo://app?vid=19aead8e-f25a-4a49-b0f6-0b796958e216","ios":"levelo://app?vid=19aead8e-f25a-4a49-b0f6-0b796958e216"},"vehicle_type_id":"4","last_reported":1728209290,"current_range_meters":37600,"station_id":"ce4bgqh2rcd13ifvqc5g","pricing_plan_id":"cebpf4jnsgd1na2vs0mg"},