{"last_updated":1683371074,"ttl":30,"version":"2.2","data":{"bikes":[{"bike_id":"03fc19c3-5582-4f19-964f-b231531cd2fd","system_id":"levelo_inurba_marseille","lat":43.31341,"lon":5.367098,"is_reserved":false,"is_disabled":false,"rental_uris":{"android":"levelo://app?vid=03fc19c3-5582-4f19-964f-b231531cd2fd","ios":"levelo://app?vid=03fc19c3-5582-4f19-964f-b231531cd2fd"},"vehicle_type_id":"4","last_reported":1683371075,"current_range_meters":27200,"station_id":"ce4bgr92rcd13ifvqc6g","pricing_plan_id":"free"},{"bike_id":"9a2b361c-16ba-4533-9589-177d00871445","system_id":"levelo_inurba_marseille","lat":43.312239,"lon":5.368562,"is_reserved":false,"is_disabled":false,"rental_uris":{"android":"levelo://app?vid=9a2b361c-16ba-4533-9589-177d00871445","ios":"levelo://app?vid=9a2b361c-16ba-4533-9589-177d00871445"},"vehicle_type_id":"4","last_reported":1683371075,"current_range_meters":22400,"station_id":"ce4bgl92rcd13ifvqbq0","pricing_plan_id":"free"},{"bike_id":"8491cdda-5727-419e-8e03-a19bbd4e5180","system_id":"levelo_inurba_marseille","lat":43.31221,"lon":5.36877,"is_reserved":false,"is_disabled":false,"rental_uris":{"android":"levelo://app?vid=8491cdda-5727-419e-8e03-a19bbd4e5180","ios":"levelo://app?vid=8491cdda-5727-419e-8e03-a19bbd4e5180"},"vehicle_type_id":"4","last_reported":1683371075,"current_range_meters":22800,"station_id":"ce4bgl92rcd13ifvqbq0","pricing_plan_id":"free"},{"bike_id":"4897c916-e9e2-440a-b225-7ace352307cb","system_id":"levelo_inurba_marseille","lat":43.309076,"lon":5.368465,"is_reserved":false,"is_disabled":false,"rental_uris":{"android":"levelo://app?vid=4897c916-e9e2-440a-b225-7ace352307cb","ios":"levelo://app?vid=4897c916-e9e2-440a-b225-7ace352307cb"},"vehicle_type_id":"4","last_reported":1683371075,"current_range_meters":31600,"station_id":"ce4bgn92rcd13ifvqbvg","pricing_plan_id":"free"},{"bike_id":"d0b19bdc-028c-4e53-824f-3158711604ba","system_id":"levelo_inurba_marseille","lat":43.309076,"lon":5.368465,"is_reserved":false,"is_disabled":false,"rental_uris":{"android":"levelo://app?vid=d0b19bdc-028c-4e53-824f-3158711604ba","ios":"levelo://app?vid=d0b19bdc-028c-4e53-824f-3158711604ba"},"vehicle_type_id":"4","last_reported":1683371075,"current_range_meters":31200,"station_id":"ce4bgn92rcd13ifvqbvg","pricing_plan_id":"free"},{"bike_id":"6482b8a3-70c9-4804-83f2-4836c15ec734","system_id":"levelo_inurba_marseille","lat":43.309076,"lon":5.368465,"is_reserved":false,"is_disabled":false,"rental_uris":{"android":"levelo://app?vid=6482b8a3-70c9-4804-83f2-4836c15ec734","ios":"levelo://app?vid=6482b8a3-70c9-4804-83f2-4836c15ec734"},"vehicle_type_id":"4","last_reported":1683371075,"current_range_meters":31200,"station_id":"ce4bgn92rcd13ifvqbvg","pricing_plan_id":"free"},{"bike_id":"7c2bab09-4e6d-441e-a367-420c5eaf4d77","system_id":"levelo_inurba_marseille","lat":43.309076,"lon":5.368465,"is_reserved":false,"is_disabled":false,"rental_uris":{"android":"levelo://app?vid=7c2bab09-4e6d-441e-a367-420c5eaf4d77","ios":"levelo://app?vid=7c2bab09-4e6d-441e-a367-420c5eaf4d77"},"vehicle_type_id":"4","last_reported":1683371075,"current_range_meters":31200,"station_id":"ce4bgn92rcd13ifvqbvg","pricing_plan_id":"free"},{"bike_id":"73adaaaf-9942-442f-930d-bef4f03eef0a","system_id":"levelo_inurba_marseille","lat":43.309076,"lon":5.368465,"is_reserved":false,"is_disabled":false,"rental_uris":{"android":"levelo://app?vid=73adaaaf-9942-442f-930d-bef4f03eef0a","ios":"levelo://app?vid=73adaaaf-9942-442f-930d-bef4f03eef0a"},"vehicle_type_id":"4","last_reported":1683371075,"current_range_meters":31200,"station_id":"ce4bgn92rcd13ifvqbvg","pricing_plan_id":"free"},{"bike_id":"aeb9cfe1-d81c-4b6c-9ac3-d02c6e5b475f","system_id":"levelo_inurba_marseille","lat":43.309076,"lon":5.368465,"is_reserved":false,"is_disabled":false,"rental_uris":{"android":"levelo://app?vid=aeb9cfe1-d81c-4b6c-9ac3-d02c6e5b475f","ios":"levelo://app?vid=aeb9cfe1-d81c-4b6c-9ac3-d02c6e5b475f"},"vehicle_type_id":"4","last_reported":1683371075,"current_range_meters":12800,"station_id":"ce4bgn92rcd13ifvqbvg","pricing_plan_id":"free"},{"bike_id":"2fe9e76f-3d13-411b-a561-194c0de1192c","system_id":"levelo_inurba_marseille","lat":43.30902,"lon":5.36856,"is_reserved":false,"is_disabled":false,"rental_uris":{"android":"levelo://app?vid=2fe9e76f-3d13-411b-a561-194c0de1192c","ios":"levelo://app?vid=2fe9e76f-3d13-411b-a561-194c0de1192c"},"vehicle_type_id":"4","last_reported":1683371075,"current_range_meters":24400,"station_id":"ce4bgn92rcd13ifvqbvg","pricing_plan_id":"free"},{"bike_id":"2a617a31-6c36-44fb-82dc-336516e806d6","system_id":"levelo_inurba_marseille","lat":43.314811,"lon":5.373103,"is_reserved":false,"is_disabled":false,"rental_uris":{"android":"levelo://app?vid=2a617a31-6c36-44fb-82dc-336516e806d6","ios":"levelo://app?vid=2a617a31-6c36-44fb-82dc-336516e806d6"},"vehicle_type_id":"4","last_reported":1683371075,"current_range_meters":18800,"station_id":"ce4bgt12rcd13ifvqcd0","pricing_plan_id":"free"},{"bike_id":"fc7e852f-227a-4bc5-b127-a5a46f2d9c31","system_id":"levelo_inurba_marseille","lat":43.314811,"lon":5.373104,"is_reserved":false,"is_disabled":false,"rental_uris":{"android":"levelo://app?vid=fc7e852f-227a-4bc5-b127-a5a46f2d9c31","ios":"levelo://app?vid=fc7e852f-227a-4bc5-b127-a5a46f2d9c31"},"vehicle_type_id":"4","last_reported":1683371075,"current_range_meters":28000,"station_id":"ce4bgt12rcd13ifvqcd0","pricing_plan_id":"free"},{"bike_id":"925fab31-3dd4-44a0-9ce3-e1fa1b47113c","system_id":"levelo_inurba_marseille","lat":43.30899,"lon":5.37193,"is_reserved":false,"is_disabled":false,"rental_uris":{"android":"levelo://app?vid=925fab31-3dd4-44a0-9ce3-e1fa1b47113c","ios":"levelo://app?vid=925fab31-3dd4-44a0-9ce3-e1fa1b47113c"},"vehicle_type_id":"4","last_reported":1683371075,"current_range_meters":26800,"station_id":"","pricing_plan_id":"free"},{"bike_id":"caea2489-5a5d-4f00-8e78-8c319f8ed68e","system_id":"levelo_inurba_marseille","lat":43.3057,"lon":5.36553,"is_reserved":false,"is_disabled":false,"rental_uris":{"android":"levelo://app?vid=caea2489-5a5d-4f00-8e78-8c319f8ed68e","ios":"levelo://app?vid=caea2489-5a5d-4f00-8e78-8c319f8ed68e"},"vehicle_type_id":"4","last_reported":1683371075,"current_range_meters":6800,"station_id":"","pricing_plan_id":"free"},{"bike_id":"929722cd-6e2d-4255-b6d3-21046a20e18c","system_id":"levelo_inurba_marseille","lat":43.3054,"lon":5.36699,"is_reserved":false,"is_disabled":false,"rental_uris":{"android":"levelo://app?vid=929722cd-6e2d-4255-b6d3-21046a20e18c","ios":"levelo://app?vid=929722cd-6e2d-4255-b6d3-21046a20e18c"},"vehicle_type_id":"4","last_reported":1683371075,"current_range_meters":26000,"station_id":"","pricing_plan_id":"free"},{"bike_id":"f86e5bd1-6115-4717-8828-3140cfc861c5","system_id":"levelo_inurba_marseille","lat":43.30544,"lon":5.36534,"is_reserved":false,"is_disabled":false,"rental_uris":{"android":"levelo://app?vid=f86e5bd1-6115-4717-8828-3140cfc861c5","ios":"levelo://app?vid=f86e5bd1-6115-4717-8828-3140cfc861c5"},"vehicle_type_id":"4","last_reported":1683371075,"current_range_meters":24800,"station_id":"","pricing_plan_id":"free"},{"bike_id":"31eb8c1d-98d8-4140-bfa8-584d7020cda2","system_id":"levelo_inurba_marseille","lat":43.305714,"lon":5.365633,"is_reserved":false,"is_disabled":false,"rental_uris":{"android":"levelo://app?vid=31eb8c1d-98d8-4140-bfa8-584d7020cda2","ios":"levelo://app?vid=31eb8c1d-98d8-4140-bfa8-584d7020cda2"},"vehicle_type_id":"4","last_reported":1683371075,"current_range_meters":18800,"station_id":"ce4bgs12rcd13ifvqcag","pricing_plan_id":"free"},{"bike_id":"c6819ff8-8920-4bd8-a529-d1449ab0d657","system_id":"levelo_inurba_marseille","lat":43.305714,"lon":5.365633,"is_reserved":false,"is_disabled":false,"rental_uris":{"android":"levelo://app?vid=c6819ff8-8920-4bd8-a529-d1449ab0d657","ios":"levelo://app?vid=c6819ff8-8920-4bd8-a529-d1449ab0d657"},"vehicle_type_id":"4","last_reported":1683371075,"current_range_meters":26800,"station_id":"ce4bgs12rcd13ifvqcag","pricing_plan_id":"free"},{"bike_id":"47169411-349d-4f17-baee-3aaccc915219","system_id":"levelo_inurba_marseille","lat":43.30537,"lon":5.36537,"is_reserved":false,"is_disabled":false,"rental_uris":{"android":"levelo://app?vid=47169411-349d-4f17-baee-3aaccc915219","ios":"levelo://app?vid=47169411-349d-4f17-baee-3aaccc915219"},"vehicle_type_id":"4","last_reported":1683371075,"current_range_meters":25600,"station_id":"","pricing_plan_id":"free"},{"bike_id":"df64e7df-dbac-4957-a1e8-4918f3ab8ce9","system_id":"levelo_inurba_marseille","lat":43.305989,"lon":5.37225,"is_reserved":false,"is_disabled":false,"rental_uris":{"android":"levelo://app?vid=df64e7df-dbac-4957-a1e8-4918f3ab8ce9","ios":"levelo://app?vid=df64e7df-dbac-4957-a1e8-4918f3ab8ce9"},"vehicle_type_id":"4","last_reported":1683371075,"current_range_meters":21600,"station_id":"ce4bgqh2rcd13ifvqc4g","pricing_plan_id":"free"},{"bike_id":"1b38cf28-c83d-490e-9305-46c626b74af0","system_id":"levelo_inurba_marseille","lat":43.305989,"lon":5.37225,"is_reserved":false,"is_disabled":false,"rental_uris":{"android":"levelo://app?vid=1b38cf28-c83d-490e-9305-46c626b74af0","ios":"levelo://app?vid=1b38cf28-c83d-490e-9305-46c626b74af0"},"vehicle_type_id":"4","last_reported":1683371075,"current_range_meters":28000,"station_id":"ce4bgqh2rcd13ifvqc4g","pricing_plan_id":"free"},{"bike_id":"ff4f77da-f13b-41c7-aff7-7f1bca549e8e","system_id":"levelo_inurba_marseille","lat":43.305989,"lon":5.37225,"is_reserved":false,"is_disabled":false,"rental_uris":{"android":"levelo://app?vid=ff4f77da-f13b-41c7-aff7-7f1bca549e8e","ios":"levelo://app?vid=ff4f77da-f13b-41c7-aff7-7f1bca549e8e"},"vehicle_type_id":"4","last_reported":1683371075,"current_range_meters":30800,"station_id":"ce4bgqh2rcd13ifvqc4g","pricing_plan_id":"free"},{"bike_id":"8b0841c8-9183-4536-b0da-2d55505e32fa","system_id":"levelo_inurba_marseille","lat":43.311125,"lon":5.377624,"is_reserved":false,"is_disabled":false,"rental_uris":{"android":"levelo://app?vid=8b0841c8-9183-4536-b0da-2d55505e32fa","ios":"levelo://app?vid=8b0841c8-9183-4536-b0da-2d55505e32fa"},"vehicle_type_id":"4","last_reported":1683371075,"current_range_meters":14400,"station_id":"ce4bgt92rcd13ifvqcg0","pricing_plan_id":"free"},{"bike_id":"452d8aa2-923d-4a4d-904e-1aaf1c481c7d","system_id":"levelo_inurba_marseille","lat":43.30438,"lon":5.36744,"is_reserved":false,"is_disabled":false,"rental_uris":{"android":"levelo://app?vid=452d8aa2-923d-4a4d-904e-1aaf1c481c7d","ios":"levelo://app?vid=452d8aa2-923d-4a4d-904e-1aaf1c481c7d"},"vehicle_type_id":"4","last_reported":1683371075,"current_range_meters":0,"station_id":"","pricing_plan_id":"free"},{"bike_id":"121bcd91-5f14-460c-a875-40e2214d56a2","system_id":"levelo_inurba_marseille","lat":43.317075,"lon":5.377367,"is_reserved":false,"is_disabled":false,"rental_uris":{"android":"levelo://app?vid=121bcd91-5f14-460c-a875-40e2214d56a2","ios":"levelo://app?vid=121bcd91-5f14-460c-a875-40e2214d56a2"},"vehicle_type_id":"4","last_reported":1683371075,"current_range_meters":28400,"station_id":"ce4bgth2rcd13ifvqch0","pricing_plan_id":"free"},{"bike_id":"ac81ec7d-bd04-4187-8b39-cfadbab6d2e0","system_id":"levelo_inurba_marseille","lat":43.317075,"lon":5.377367,"is_reserved":false,"is_disabled":false,"rental_uris":{"android":"levelo://app?vid=ac81ec7d-bd04-4187-8b39-cfadbab6d2e0","ios":"levelo://app?vid=ac81ec7d-bd04-4187-8b39-cfadbab6d2e0"},"vehicle_type_id":"4","last_reported":1683371075,"current_range_meters":28000,"station_id":"ce4bgth2rcd13ifvqch0","pricing_plan_id":"free"},{"bike_id":"b3b28336-ae3c-45c3-9187-488825acd3a3","system_id":"levelo_inurba_marseille","lat":43.317075,"lon":5.377367,"is_reserved":false,"is_disabled":false,"rental_uris":{"android":"levelo://app?vid=b3b28336-ae3c-45c3-9187-488825acd3a3","ios":"levelo://app?vid=b3b28336-ae3c-45c3-9187-488825acd3a3"},"vehicle_type_id":"4","last_reported":1683371075,"current_range_meters":14000,"station_id":"ce4bgth2rcd13ifvqch0","pricing_plan_id":"free"},{"bike_id":"245c1e28-3e9d-4163-a52a-9dcd1d6daa13","system_id":"levelo_inurba_marseille","lat":43.317075,"lon":5.377367,"is_reserved":false,"is_disabled":false,"rental_uris":{"android":"levelo://app?vid=245c1e28-3e9d-4163-a52a-9dcd1d6daa13","ios":"levelo://app?vid=245c1e28-3e9d-4163-a52a-9dcd1d6daa13"},"vehicle_type_id":"4","last_reported":1683371075,"current_range_meters":31200,"station_id":"ce4bgth2rcd13ifvqch0","pricing_plan_id":"free"},{"bike_id":"2114a6b2-e574-42fa-a3ce-a7c7154196b6","system_id":"levelo_inurba_marseille","lat":43.317075,"lon":5.377367,"is_reserved":false,"is_disabled":false,"rental_uris":{"android":"levelo://app?vid=2114a6b2-e574-42fa-a3ce-a7c7154196b6","ios":"levelo://app?vid=2114a6b2-e574-42fa-a3ce-a7c7154196b6"},"vehicle_type_id":"4","last_reported":1683371075,"current_range_meters":30400,"station_id":"ce4bgth2rcd13ifvqch0","pricing_plan_id":"free"},{"bike_id":"8170f3b4-b1c3-4994-93d8-7121a498d044","system_id":"levelo_inurba_marseille","lat":43.31528,"lon":5.38026,"is_reserved":false,"is_disabled":false,"rental_uris":{"android":"levelo://app?vid=8170f3b4-b1c3-4994-93d8-7121a498d044","ios":"levelo://app?vid=8170f3b4-b1c3-4994-93d8-7121a498d044"},"vehicle_type_id":"4","last_reported":1683371075,"current_range_meters":30400,"station_id":"ce4bhsp2rcd13ifvqi50","pricing_plan_id":"free"},{"bike_id":"d44ef1b5-aa87-494f-b80b-d91982363150","system_id":"levelo_inurba_marseille","lat":43.31526,"lon":5.38029,"is_reserved":false,"is_disabled":false,"rental_uris":{"android":"levelo://app?vid=d44ef1b5-aa87-494f-b80b-d91982363150","ios":"levelo://app?vid=d44ef1b5-aa87-494f-b80b-d91982363150"},"vehicle_type_id":"4","last_reported":1683371075,"current_range_meters":26800,"station_id":"ce4bhsp2rcd13ifvqi50","pricing_plan_id":"free"},{"bike_id":"10394994-36fd-400a-a11d-6616bcab1dd5","system_id":"levelo_inurba_marseille","lat":43.31527,"lon":5.38035,"is_reserved":false,"is_disabled":false,"rental_uris":{"android":"levelo://app?vid=10394994-36fd-400a-a11d-6616bcab1dd5","ios":"levelo://app?vid=10394994-36fd-400a-a11d-6616bcab1dd5"},"vehicle_type_id":"4","last_reported":1683371075,"current_range_meters":30800,"station_id":"ce4bhsp2rcd13ifvqi50","pricing_plan_id":"free"},{"bike_id":"9874f2b8-d4a3-4d74-8edc-73fdc29fd35d","system_id":"levelo_inurba_marseille","lat":43.30186,"lon":5.36615,"is_reserved":false,"is_disabled":false,"rental_uris":{"android":"levelo://app?vid=9874f2b8-d4a3-4d74-8edc-73fdc29fd35d","ios":"levelo://app?vid=9874f2b8-d4a3-4d74-8edc-73fdc29fd35d"},"vehicle_type_id":"4","last_reported":1683371075,"current_range_meters":17600,"station_id":"ce4bgrh2rcd13ifvqc8g","pricing_plan_id":"free"},{"bike_id":"9703fb70-382b-48d6-b586-50de555ae0cf","system_id":"levelo_inurba_marseille","lat":43.308012,"lon":5.381511,"is_reserved":false,"is_disabled":false,"rental_uris":{"android":"levelo://app?vid=9703fb70-382b-48d6-b586-50de555ae0cf","ios":"levelo://app?vid=9703fb70-382b-48d6-b586-50de555ae0cf"},"vehicle_type_id":"4","last_reported":1683371075,"current_range_meters":8400,"station_id":"ce4bgt12rcd13ifvqce0","pricing_plan_id":"free"},{"bike_id":"10ccce20-02ad-4dc0-81e1-c11cf011c776","system_id":"levelo_inurba_marseille","lat":43.304606,"lon":5.379026,"is_reserved":false,"is_disabled":false,"rental_uris":{"android":"levelo://app?vid=10ccce20-02ad-4dc0-81e1-c11cf011c776","ios":"levelo://app?vid=10ccce20-02ad-4dc0-81e1-c11cf011c776"},"vehicle_type_id":"4","last_reported":1683371075,"current_range_meters":31200,"station_id":"ce4bgup2rcd13ifvqcn0","pricing_plan_id":"free"},{"bike_id":"ce61796c-09f9-4397-9588-3528ab4d5fa6","system_id":"levelo_inurba_marseille","lat":43.304606,"lon":5.379026,"is_reserved":false,"is_disabled":false,"rental_uris":{"android":"levelo://app?vid=ce61796c-09f9-4397-9588-3528ab4d5fa6","ios":"levelo://app?vid=ce61796c-09f9-4397-9588-3528ab4d5fa6"},"vehicle_type_id":"4","last_reported":1683371075,"current_range_meters":24800,"station_id":"ce4bgup2rcd13ifvqcn0","pricing_plan_id":"free"},{"bike_id":"f13ad450-ae72-40dd-827e-6c61e17a89be","system_id":"levelo_inurba_marseille","lat":43.304606,"lon":5.379026,"is_reserved":false,"is_disabled":false,"rental_uris":{"android":"levelo://app?vid=f13ad450-ae72-40dd-827e-6c61e17a89be","ios":"levelo://app?vid=f13ad450-ae72-40dd-827e-6c61e17a89be"},"vehicle_type_id":"4","last_reported":1683371075,"current_range_meters":31200,"station_id":"ce4bgup2rcd13ifvqcn0","pricing_plan_id":"free"},{"bike_id":"ce2320d6-4bce-4e27-9438-c2a98fad4084","system_id":"levelo_inurba_marseille","lat":43.30138,"lon":5.37426,"is_reserved":false,"is_disabled":false,"rental_uris":{"android":"levelo://app?vid=ce2320d6-4bce-4e27-9438-c2a98fad4084","ios":"levelo://app?vid=ce2320d6-4bce-4e27-9438-c2a98fad4084"},"vehicle_type_id":"4","last_reported":1683371075,"current_range_meters":31200,"station_id":"ce4bgs92rcd13ifvqcc0","pricing_plan_id":"free"},{"bike_id":"756515ed-9767-482e-a4f0-c2e5da09b510","system_id":"levelo_inurba_marseille","lat":43.313571,"lon":5.384829,"is_reserved":false,"is_disabled":false,"rental_uris":{"android":"levelo://app?vid=756515ed-9767-482e-a4f0-c2e5da09b510","ios":"levelo://app?vid=756515ed-9767-482e-a4f0-c2e5da09b510"},"vehicle_type_id":"4","last_reported":1683371075,"current_range_meters":9600,"station_id":"ce4bgt92rcd13ifvqcf0","pricing_plan_id":"free"},{"bike_id":"d6c0ceba-84c4-43ce-8c24-b88d63853759","system_id":"levelo_inurba_marseille","lat":43.313571,"lon":5.384829,"is_reserved":false,"is_disabled":false,"rental_uris":{"android":"levelo://app?vid=d6c0ceba-84c4-43ce-8c24-b88d63853759","ios":"levelo://app?vid=d6c0ceba-84c4-43ce-8c24-b88d63853759"},"vehicle_type_id":"4","last_reported":1683371075,"current_range_meters":2800,"station_id":"ce4bgt92rcd13ifvqcf0","pricing_plan_id":"free"},{"bike_id":"cb6a3fc3-cd7f-4f20-8aed-1b890fc65bbd","system_id":"levelo_inurba_marseille","lat":43.3137,"lon":5.38496,"is_reserved":false,"is_disabled":false,"rental_uris":{"android":"levelo://app?vid=cb6a3fc3-cd7f-4f20-8aed-1b890fc65bbd","ios":"levelo://app?vid=cb6a3fc3-cd7f-4f20-8aed-1b890fc65bbd"},"vehicle_type_id":"4","last_reported":1683371075,"current_range_meters":29600,"station_id":"ce4bgt92rcd13ifvqcf0","pricing_plan_id":"free"},{"bike_id":"f6c64a9d-d5f6-48c4-8a81-960fe0f29fb2","system_id":"levelo_inurba_marseille","lat":43.31354,"lon":5.38527,"is_reserved":false,"is_disabled":false,"rental_uris":{"android":"levelo://app?vid=f6c64a9d-d5f6-48c4-8a81-960fe0f29fb2","ios":"levelo://app?vid=f6c64a9d-d5f6-48c4-8a81-960fe0f29fb2"},"vehicle_type_id":"4","last_reported":1683371075,"current_range_meters":18400,"station_id":"ce4bgt92rcd13ifvqcf0","pricing_plan_id":"free"},{"bike_id":"bcf12486-4d40-4884-969b-2c19f244a968","system_id":"levelo_inurba_marseille","lat":43.29884,"lon":5.36685,"is_reserved":false,"is_disabled":false,"rental_uris":{"android":"levelo://app?vid=bcf12486-4d40-4884-969b-2c19f244a968","ios":"levelo://app?vid=bcf12486-4d40-4884-969b-2c19f244a968"},"vehicle_type_id":"4","last_reported":1683371075,"current_range_meters":0,"station_id":"","pricing_plan_id":"free"},{"bike_id":"9a8cb2cd-7757-4f79-b6cf-f301b5954263","system_id":"levelo_inurba_marseille","lat":43.30042,"lon":5.37631,"is_reserved":false,"is_disabled":false,"rental_uris":{"android":"levelo://app?vid=9a8cb2cd-7757-4f79-b6cf-f301b5954263","ios":"levelo://app?vid=9a8cb2cd-7757-4f79-b6cf-f301b5954263"},"vehicle_type_id":"4","last_reported":1683371075,"current_range_meters":23200,"station_id":"","pricing_plan_id":"free"},{"bike_id":"41db2434-e223-4a22-b020-c40bdeda3032","system_id":"levelo_inurba_marseille","lat":43.298433,"lon":5.362774,"is_reserved":false,"is_disabled":false,"rental_uris":{"android":"levelo://app?vid=41db2434-e223-4a22-b020-c40bdeda3032","ios":"levelo://app?vid=41db2434-e223-4a22-b020-c40bdeda3032"},"vehicle_type_id":"4","last_reported":1683371075,"current_range_meters":15200,"station_id":"ce4bgpp2rcd13ifvqc3g","pricing_plan_id":"free"},{"bike_id":"1299f5ef-7e4a-41a4-a904-7ee78a919821","system_id":"levelo_inurba_marseille","lat":43.298433,"lon":5.362774,"is_reserved":false,"is_disabled":false,"rental_uris":{"android":"levelo://app?vid=1299f5ef-7e4a-41a4-a904-7ee78a919821","ios":"levelo://app?vid=1299f5ef-7e4a-41a4-a904-7ee78a919821"},"vehicle_type_id":"4","last_reported":1683371075,"current_range_meters":31600,"station_id":"ce4bgpp2rcd13ifvqc3g","pricing_plan_id":"free"},{"bike_id":"875b6dec-3822-4291-8e5b-8c554a9c90af","system_id":"levelo_inurba_marseille","lat":43.298433,"lon":5.362774,"is_reserved":false,"is_disabled":false,"rental_uris":{"android":"levelo://app?vid=875b6dec-3822-4291-8e5b-8c554a9c90af","ios":"levelo://app?vid=875b6dec-3822-4291-8e5b-8c554a9c90af"},"vehicle_type_id":"4","last_reported":1683371075,"current_range_meters":27200,"station_id":"ce4bgpp2rcd13ifvqc3g","pricing_plan_id":"free"},{"bike_id":"fe78af74-e983-4de1-84ac-4c55bf99a9fd","system_id":"levelo_inurba_marseille","lat":43.298433,"lon":5.362774,"is_reserved":false,"is_disabled":false,"rental_uris":{"android":"levelo://app?vid=fe78af74-e983-4de1-84ac-4c55bf99a9fd","ios":"levelo://app?vid=fe78af74-e983-4de1-84ac-4c55bf99a9fd"},"vehicle_type_id":"4","last_reported":1683371075,"current_range_meters":19200,"station_id":"ce4bgpp2rcd13ifvqc3g","pricing_plan_id":"free"},{"bike_id":"d2a8e75f-82ce-4c2d-b0d0-26a1181f7ad3","system_id":"levelo_inurba_marseille","lat":43.298433,"lon":5.362774,"is_reserved":false,"is_disabled":false,"rental_uris":{"android":"levelo://app?vid=d2a8e75f-82ce-4c2d-b0d0-26a1181f7ad3","ios":"levelo://app?vid=d2a8e75f-82ce-4c2d-b0d0-26a1181f7ad3"},"vehicle_type_id":"4","last_reported":1683371075,"current_range_meters":22000,"station_id":"ce4bgpp2rcd13ifvqc3g","pricing_plan_id":"free"},{"bike_id":"554fec9f-8289-46e2-a5c0-d31af128dc71","system_id":"levelo_inurba_marseille","lat":43.298433,"lon":5.362774,"is_reserved":false,"is_disabled":false,"rental_uris":{"android":"levelo://app?vid=554fec9f-8289-46e2-a5c0-d31af128dc71","ios":"levelo://app?vid=554fec9f-8289-46e2-a5c0-d31af128dc71"},"vehicle_type_id":"4","last_reported":1683371075,"current_range_meters":30400,"station_id":"ce4bgpp2rcd13ifvqc3g","pricing_plan_id":"free"},{"bike_id":"cd4feed5-fbdd-406b-9827-9ff307431217","system_id":"levelo_inurba_marseille","lat":43.298433,"lon":5.362774,"is_reserved":false,"is_disabled":false,"rental_uris":{"android":"levelo://app?vid=cd4feed5-fbdd-406b-9827-9ff307431217","ios":"levelo://app?vid=cd4feed5-fbdd-406b-9827-9ff307431217"},"vehicle_type_id":"4","last_reported":1683371075,"current_range_meters":18800,"station_id":"ce4bgpp2rcd13ifvqc3g","pricing_plan_id":"free"},{"bike_id":"eeed87c7-c983-4115-96d0-f3c0a378a777","system_id":"levelo_inurba_marseille","lat":43.298433,"lon":5.362774,"is_reserved":false,"is_disabled":false,"rental_uris":{"android":"levelo://app?vid=eeed87c7-c983-4115-96d0-f3c0a378a777","ios":"levelo://app?vid=eeed87c7-c983-4115-96d0-f3c0a378a777"},"vehicle_type_id":"4","last_reported":1683371075,"current_range_meters":27600,"station_id":"ce4bgpp2rcd13ifvqc3g","pricing_plan_id":"free"},{"bike_id":"3058bbf0-9cf7-4616-bf4d-06ae90bbe77a","system_id":"levelo_inurba_marseille","lat":43.298433,"lon":5.362774,"is_reserved":false,"is_disabled":false,"rental_uris":{"android":"levelo://app?vid=3058bbf0-9cf7-4616-bf4d-06ae90bbe77a","ios":"levelo://app?vid=3058bbf0-9cf7-4616-bf4d-06ae90bbe77a"},"vehicle_type_id":"4","last_reported":1683371075,"current_range_meters":26000,"station_id":"ce4bgpp2rcd13ifvqc3g","pricing_plan_id":"free"},{"bike_id":"05c4847d-c8a9-4166-b18b-0736833ba7fd","system_id":"levelo_inurba_marseille","lat":43.298433,"lon":5.362774,"is_reserved":false,"is_disabled":false,"rental_uris":{"android":"levelo://app?vid=05c4847d-c8a9-4166-b18b-0736833ba7fd","ios":"levelo://app?vid=05c4847d-c8a9-4166-b18b-0736833ba7fd"},"vehicle_type_id":"4","last_reported":1683371075,"current_range_meters":31200,"station_id":"ce4bgpp2rcd13ifvqc3g","pricing_plan_id":"free"},{"bike_id":"cbf7609a-68b2-4d5d-a9e2-0b2ba3d9f3dc","system_id":"levelo_inurba_marseille","lat":43.298433,"lon":5.362774,"is_reserved":false,"is_disabled":false,"rental_uris":{"android":"levelo://app?vid=cbf7609a-68b2-4d5d-a9e2-0b2ba3d9f3dc","ios":"levelo://app?vid=cbf7609a-68b2-4d5d-a9e2-0b2ba3d9f3dc"},"vehicle_type_id":"4","last_reported":1683371075,"current_range_meters":31200,"station_id":"ce4bgpp2rcd13ifvqc3g","pricing_plan_id":"free"},{"bike_id":"a83badee-abfa-48e9-b15c-3a4e9167183f","system_id":"levelo_inurba_marseille","lat":43.298433,"lon":5.362774,"is_reserved":false,"is_disabled":false,"rental_uris":{"android":"levelo://app?vid=a83badee-abfa-48e9-b15c-3a4e9167183f","ios":"levelo://app?vid=a83badee-abfa-48e9-b15c-3a4e9167183f"},"vehicle_type_id":"4","last_reported":1683371075,"current_range_meters":29600,"station_id":"ce4bgpp2rcd13ifvqc3g","pricing_plan_id":"free"},{"bike_id":"583fb971-9406-424e-b976-13c9597f8615","system_id":"levelo_inurba_marseille","lat":43.298433,"lon":5.362774,"is_reserved":false,"is_disabled":false,"rental_uris":{"android":"levelo://app?vid=583fb971-9406-424e-b976-13c9597f8615","ios":"levelo://app?vid=583fb971-9406-424e-b976-13c9597f8615"},"vehicle_type_id":"4","last_reported":1683371075,"current_range_meters":31200,"station_id":"ce4bgpp2rcd13ifvqc3g","pricing_plan_id":"free"},{"bike_id":"704c11bc-7d92-4634-a52d-bfd040945be3","system_id":"levelo_inurba_marseille","lat":43.299243,"lon":5.374807,"is_reserved":false,"is_disabled":false,"rental_uris":{"android":"levelo://app?vid=704c11bc-7d92-4634-a52d-bfd040945be3","ios":"levelo://app?vid=704c11bc-7d92-4634-a52d-bfd040945be3"},"vehicle_type_id":"4","last_reported":1683371075,"current_range_meters":29200,"station_id":"ce4bgjh2rcd13ifvqbg0","pricing_plan_id":"free"},{"bike_id":"bf5494b9-343f-498f-8c7e-c9b9f3e4f577","system_id":"levelo_inurba_marseille","lat":43.311722,"lon":5.387247,"is_reserved":false,"is_disabled":false,"rental_uris":{"android":"levelo://app?vid=bf5494b9-343f-498f-8c7e-c9b9f3e4f577","ios":"levelo://app?vid=bf5494b9-343f-498f-8c7e-c9b9f3e4f577"},"vehicle_type_id":"4","last_reported":1683371075,"current_range_meters":8000,"station_id":"ce4bgv12rcd13ifvqcp0","pricing_plan_id":"free"},{"bike_id":"294ef4b8-8e55-4312-bcd4-2fb00be7cf2e","system_id":"levelo_inurba_marseille","lat":43.297774,"lon":5.370875,"is_reserved":false,"is_disabled":false,"rental_uris":{"android":"levelo://app?vid=294ef4b8-8e55-4312-bcd4-2fb00be7cf2e","ios":"levelo://app?vid=294ef4b8-8e55-4312-bcd4-2fb00be7cf2e"},"vehicle_type_id":"4","last_reported":1683371075,"current_range_meters":6400,"station_id":"ce4bgop2rcd13ifvqc1g","pricing_plan_id":"free"},{"bike_id":"37c5c50d-8ffe-433f-9f9f-8b4e0b7f8401","system_id":"levelo_inurba_marseille","lat":43.297774,"lon":5.370875,"is_reserved":false,"is_disabled":false,"rental_uris":{"android":"levelo://app?vid=37c5c50d-8ffe-433f-9f9f-8b4e0b7f8401","ios":"levelo://app?vid=37c5c50d-8ffe-433f-9f9f-8b4e0b7f8401"},"vehicle_type_id":"4","last_reported":1683371075,"current_range_meters":20400,"station_id":"ce4bgop2rcd13ifvqc1g","pricing_plan_id":"free"},{"bike_id":"8db9845e-5837-48f3-a417-060763bd457e","system_id":"levelo_inurba_marseille","lat":43.297774,"lon":5.370875,"is_reserved":false,"is_disabled":false,"rental_uris":{"android":"levelo://app?vid=8db9845e-5837-48f3-a417-060763bd457e","ios":"levelo://app?vid=8db9845e-5837-48f3-a417-060763bd457e"},"vehicle_type_id":"4","last_reported":1683371075,"current_range_meters":22800,"station_id":"ce4bgop2rcd13ifvqc1g","pricing_plan_id":"free"},{"bike_id":"b7efdd23-7512-4115-9a4c-67200475cd62","system_id":"levelo_inurba_marseille","lat":43.297774,"lon":5.370875,"is_reserved":false,"is_disabled":false,"rental_uris":{"android":"levelo://app?vid=b7efdd23-7512-4115-9a4c-67200475cd62","ios":"levelo://app?vid=b7efdd23-7512-4115-9a4c-67200475cd62"},"vehicle_type_id":"4","last_reported":1683371075,"current_range_meters":2000,"station_id":"ce4bgop2rcd13ifvqc1g","pricing_plan_id":"free"},{"bike_id":"8248738e-1b42-4e67-99c7-3d31b76d49ab","system_id":"levelo_inurba_marseille","lat":43.297774,"lon":5.370875,"is_reserved":false,"is_disabled":false,"rental_uris":{"android":"levelo://app?vid=8248738e-1b42-4e67-99c7-3d31b76d49ab","ios":"levelo://app?vid=8248738e-1b42-4e67-99c7-3d31b76d49ab"},"vehicle_type_id":"4","last_reported":1683371075,"current_range_meters":29600,"station_id":"ce4bgop2rcd13ifvqc1g","pricing_plan_id":"free"},{"bike_id":"90e634e3-8e6d-481e-a05a-6a7d29b728f4","system_id":"levelo_inurba_marseille","lat":43.2968,"lon":5.37291,"is_reserved":false,"is_disabled":false,"rental_uris":{"android":"levelo://app?vid=90e634e3-8e6d-481e-a05a-6a7d29b728f4","ios":"levelo://app?vid=90e634e3-8e6d-481e-a05a-6a7d29b728f4"},"vehicle_type_id":"4","last_reported":1683371075,"current_range_meters":31200,"station_id":"ce4bgk12rcd13ifvqbj0","pricing_plan_id":"free"},{"bike_id":"86fad378-83e9-4fc6-bbca-320ce3fa9d81","system_id":"levelo_inurba_marseille","lat":43.2968,"lon":5.37291,"is_reserved":false,"is_disabled":false,"rental_uris":{"android":"levelo://app?vid=86fad378-83e9-4fc6-bbca-320ce3fa9d81","ios":"levelo://app?vid=86fad378-83e9-4fc6-bbca-320ce3fa9d81"},"vehicle_type_id":"4","last_reported":1683371075,"current_range_meters":28400,"station_id":"ce4bgk12rcd13ifvqbj0","pricing_plan_id":"free"},{"bike_id":"b6a93899-ac06-4e98-a44c-b2d37c0bd789","system_id":"levelo_inurba_marseille","lat":43.2968,"lon":5.37291,"is_reserved":false,"is_disabled":false,"rental_uris":{"android":"levelo://app?vid=b6a93899-ac06-4e98-a44c-b2d37c0bd789","ios":"levelo://app?vid=b6a93899-ac06-4e98-a44c-b2d37c0bd789"},"vehicle_type_id":"4","last_reported":1683371075,"current_range_meters":31200,"station_id":"ce4bgk12rcd13ifvqbj0","pricing_plan_id":"free"},{"bike_id":"aafcc005-5e38-4c52-a10d-6d0f89f0012b","system_id":"levelo_inurba_marseille","lat":43.302008,"lon":5.394694,"is_reserved":false,"is_disabled":false,"rental_uris":{"android":"levelo://app?vid=aafcc005-5e38-4c52-a10d-6d0f89f0012b","ios":"levelo://app?vid=aafcc005-5e38-4c52-a10d-6d0f89f0012b"},"vehicle_type_id":"4","last_reported":1683371075,"current_range_meters":5200,"station_id":"ce4bh0p2rcd13ifvqd70","pricing_plan_id":"free"},{"bike_id":"01ea8842-a875-4dff-830a-2b36e777d780","system_id":"levelo_inurba_marseille","lat":43.296131,"lon":5.370773,"is_reserved":false,"is_disabled":false,"rental_uris":{"android":"levelo://app?vid=01ea8842-a875-4dff-830a-2b36e777d780","ios":"levelo://app?vid=01ea8842-a875-4dff-830a-2b36e777d780"},"vehicle_type_id":"4","last_reported":1683371075,"current_range_meters":21600,"station_id":"ce4bgnh2rcd13ifvqc0g","pricing_plan_id":"free"},{"bike_id":"5a7558b1-9c35-4332-b67a-e6ee1c87e13d","system_id":"levelo_inurba_marseille","lat":43.296131,"lon":5.370773,"is_reserved":false,"is_disabled":false,"rental_uris":{"android":"levelo://app?vid=5a7558b1-9c35-4332-b67a-e6ee1c87e13d","ios":"levelo://app?vid=5a7558b1-9c35-4332-b67a-e6ee1c87e13d"},"vehicle_type_id":"4","last_reported":1683371075,"current_range_meters":31600,"station_id":"ce4bgnh2rcd13ifvqc0g","pricing_plan_id":"free"},{"bike_id":"db76acee-7fe7-40a3-a414-92194b83996d","system_id":"levelo_inurba_marseille","lat":43.296131,"lon":5.370773,"is_reserved":false,"is_disabled":false,"rental_uris":{"android":"levelo://app?vid=db76acee-7fe7-40a3-a414-92194b83996d","ios":"levelo://app?vid=db76acee-7fe7-40a3-a414-92194b83996d"},"vehicle_type_id":"4","last_reported":1683371075,"current_range_meters":6400,"station_id":"ce4bgnh2rcd13ifvqc0g","pricing_plan_id":"free"},{"bike_id":"b7f0ceb2-0a0d-4b9c-ae16-e7d201542f16","system_id":"levelo_inurba_marseille","lat":43.296129,"lon":5.370777,"is_reserved":false,"is_disabled":false,"rental_uris":{"android":"levelo://app?vid=b7f0ceb2-0a0d-4b9c-ae16-e7d201542f16","ios":"levelo://app?vid=b7f0ceb2-0a0d-4b9c-ae16-e7d201542f16"},"vehicle_type_id":"4","last_reported":1683371075,"current_range_meters":30000,"station_id":"ce4bgnh2rcd13ifvqc0g","pricing_plan_id":"free"},{"bike_id":"5f708886-c442-4ba5-a30f-d0412d359c36","system_id":"levelo_inurba_marseille","lat":43.2958,"lon":5.36733,"is_reserved":false,"is_disabled":false,"rental_uris":{"android":"levelo://app?vid=5f708886-c442-4ba5-a30f-d0412d359c36","ios":"levelo://app?vid=5f708886-c442-4ba5-a30f-d0412d359c36"},"vehicle_type_id":"4","last_reported":1683371075,"current_range_meters":31600,"station_id":"ce4bgph2rcd13ifvqc2g","pricing_plan_id":"free"},{"bike_id":"8eceffc6-1411-4c22-96d4-b49b60e4dc19","system_id":"levelo_inurba_marseille","lat":43.2958,"lon":5.36739,"is_reserved":false,"is_disabled":false,"rental_uris":{"android":"levelo://app?vid=8eceffc6-1411-4c22-96d4-b49b60e4dc19","ios":"levelo://app?vid=8eceffc6-1411-4c22-96d4-b49b60e4dc19"},"vehicle_type_id":"4","last_reported":1683371075,"current_range_meters":27200,"station_id":"ce4bgph2rcd13ifvqc2g","pricing_plan_id":"free"},{"bike_id":"c459207e-8c5a-4f5e-9e14-12c2b77a31ea","system_id":"levelo_inurba_marseille","lat":43.29577,"lon":5.36738,"is_reserved":false,"is_disabled":false,"rental_uris":{"android":"levelo://app?vid=c459207e-8c5a-4f5e-9e14-12c2b77a31ea","ios":"levelo://app?vid=c459207e-8c5a-4f5e-9e14-12c2b77a31ea"},"vehicle_type_id":"4","last_reported":1683371075,"current_range_meters":30400,"station_id":"ce4bgph2rcd13ifvqc2g","pricing_plan_id":"free"},{"bike_id":"f5ab8c44-3459-46c9-9ef7-c56ec337ffbc","system_id":"levelo_inurba_marseille","lat":43.29576,"lon":5.36735,"is_reserved":false,"is_disabled":false,"rental_uris":{"android":"levelo://app?vid=f5ab8c44-3459-46c9-9ef7-c56ec337ffbc","ios":"levelo://app?vid=f5ab8c44-3459-46c9-9ef7-c56ec337ffbc"},"vehicle_type_id":"4","last_reported":1683371075,"current_range_meters":12800,"station_id":"ce4bgph2rcd13ifvqc2g","pricing_plan_id":"free"},{"bike_id":"0ca1e1fe-4433-4ea2-bd6f-e9b87e208147","system_id":"levelo_inurba_marseille","lat":43.296921,"lon":5.376579,"is_reserved":false,"is_disabled":false,"rental_uris":{"android":"levelo://app?vid=0ca1e1fe-4433-4ea2-bd6f-e9b87e208147","ios":"levelo://app?vid=0ca1e1fe-4433-4ea2-bd6f-e9b87e208147"},"vehicle_type_id":"4","last_reported":1683371075,"current_range_meters":31200,"station_id":"ce4bgkh2rcd13ifvqbl0","pricing_plan_id":"free"},{"bike_id":"514b46d2-03e7-4895-9ee1-c8d21f4822e3","system_id":"levelo_inurba_marseille","lat":43.296921,"lon":5.376579,"is_reserved":false,"is_disabled":false,"rental_uris":{"android":"levelo://app?vid=514b46d2-03e7-4895-9ee1-c8d21f4822e3","ios":"levelo://app?vid=514b46d2-03e7-4895-9ee1-c8d21f4822e3"},"vehicle_type_id":"4","last_reported":1683371075,"current_range_meters":24800,"station_id":"ce4bgkh2rcd13ifvqbl0","pricing_plan_id":"free"},{"bike_id":"a4ed4416-8dc1-40dd-847b-4948ccdf79c8","system_id":"levelo_inurba_marseille","lat":43.296935,"lon":5.376544,"is_reserved":false,"is_disabled":false,"rental_uris":{"android":"levelo://app?vid=a4ed4416-8dc1-40dd-847b-4948ccdf79c8","ios":"levelo://app?vid=a4ed4416-8dc1-40dd-847b-4948ccdf79c8"},"vehicle_type_id":"4","last_reported":1683371075,"current_range_meters":21600,"station_id":"ce4bgkh2rcd13ifvqbl0","pricing_plan_id":"free"},{"bike_id":"72cec534-9462-4787-8193-29f851a95b4f","system_id":"levelo_inurba_marseille","lat":43.299028,"lon":5.381509,"is_reserved":false,"is_disabled":false,"rental_uris":{"android":"levelo://app?vid=72cec534-9462-4787-8193-29f851a95b4f","ios":"levelo://app?vid=72cec534-9462-4787-8193-29f851a95b4f"},"vehicle_type_id":"4","last_reported":1683371075,"current_range_meters":17200,"station_id":"ce4bgj12rcd13ifvqbc0","pricing_plan_id":"free"},{"bike_id":"1d791bba-db66-4b9f-aa53-f9f5f92aaf11","system_id":"levelo_inurba_marseille","lat":43.296935,"lon":5.376544,"is_reserved":false,"is_disabled":false,"rental_uris":{"android":"levelo://app?vid=1d791bba-db66-4b9f-aa53-f9f5f92aaf11","ios":"levelo://app?vid=1d791bba-db66-4b9f-aa53-f9f5f92aaf11"},"vehicle_type_id":"4","last_reported":1683371075,"current_range_meters":2400,"station_id":"ce4bgkh2rcd13ifvqbl0","pricing_plan_id":"free"},{"bike_id":"4c8685ac-2503-485d-b919-5c7cc6d41429","system_id":"levelo_inurba_marseille","lat":43.299028,"lon":5.381509,"is_reserved":false,"is_disabled":false,"rental_uris":{"android":"levelo://app?vid=4c8685ac-2503-485d-b919-5c7cc6d41429","ios":"levelo://app?vid=4c8685ac-2503-485d-b919-5c7cc6d41429"},"vehicle_type_id":"4","last_reported":1683371075,"current_range_meters":28000,"station_id":"ce4bgj12rcd13ifvqbc0","pricing_plan_id":"free"},{"bike_id":"abcd2c81-3e05-4e1d-8df5-99f5d97c6d4c","system_id":"levelo_inurba_marseille","lat":43.296921,"lon":5.376579,"is_reserved":false,"is_disabled":false,"rental_uris":{"android":"levelo://app?vid=abcd2c81-3e05-4e1d-8df5-99f5d97c6d4c","ios":"levelo://app?vid=abcd2c81-3e05-4e1d-8df5-99f5d97c6d4c"},"vehicle_type_id":"4","last_reported":1683371075,"current_range_meters":18000,"station_id":"ce4bgkh2rcd13ifvqbl0","pricing_plan_id":"free"},{"bike_id":"f610a733-be79-40c6-bc93-862c9a9ec54c","system_id":"levelo_inurba_marseille","lat":43.30948,"lon":5.39031,"is_reserved":false,"is_disabled":false,"rental_uris":{"android":"levelo://app?vid=f610a733-be79-40c6-bc93-862c9a9ec54c","ios":"levelo://app?vid=f610a733-be79-40c6-bc93-862c9a9ec54c"},"vehicle_type_id":"4","last_reported":1683371075,"current_range_meters":19200,"station_id":"ce4bgup2rcd13ifvqco0","pricing_plan_id":"free"},{"bike_id":"d8759e64-60bb-4f19-a49a-00c91bc04f7f","system_id":"levelo_inurba_marseille","lat":43.309589,"lon":5.390258,"is_reserved":false,"is_disabled":false,"rental_uris":{"android":"levelo://app?vid=d8759e64-60bb-4f19-a49a-00c91bc04f7f","ios":"levelo://app?vid=d8759e64-60bb-4f19-a49a-00c91bc04f7f"},"vehicle_type_id":"4","last_reported":1683371075,"current_range_meters":19200,"station_id":"ce4bgup2rcd13ifvqco0","pricing_plan_id":"free"},{"bike_id":"a25e1565-2565-4122-8cd8-405b701857b6","system_id":"levelo_inurba_marseille","lat":43.30958,"lon":5.39046,"is_reserved":false,"is_disabled":false,"rental_uris":{"android":"levelo://app?vid=a25e1565-2565-4122-8cd8-405b701857b6","ios":"levelo://app?vid=a25e1565-2565-4122-8cd8-405b701857b6"},"vehicle_type_id":"4","last_reported":1683371075,"current_range_meters":23600,"station_id":"ce4bgup2rcd13ifvqco0","pricing_plan_id":"free"},{"bike_id":"21707c42-162a-43bf-8364-b48b1e4a934f","system_id":"levelo_inurba_marseille","lat":43.30964,"lon":5.39054,"is_reserved":false,"is_disabled":false,"rental_uris":{"android":"levelo://app?vid=21707c42-162a-43bf-8364-b48b1e4a934f","ios":"levelo://app?vid=21707c42-162a-43bf-8364-b48b1e4a934f"},"vehicle_type_id":"4","last_reported":1683371075,"current_range_meters":12000,"station_id":"ce4bgup2rcd13ifvqco0","pricing_plan_id":"free"},{"bike_id":"ec34f3a9-d482-4e5a-94e2-33bdbc23232d","system_id":"levelo_inurba_marseille","lat":43.30954,"lon":5.39054,"is_reserved":false,"is_disabled":false,"rental_uris":{"android":"levelo://app?vid=ec34f3a9-d482-4e5a-94e2-33bdbc23232d","ios":"levelo://app?vid=ec34f3a9-d482-4e5a-94e2-33bdbc23232d"},"vehicle_type_id":"4","last_reported":1683371075,"current_range_meters":19600,"station_id":"ce4bgup2rcd13ifvqco0","pricing_plan_id":"free"},{"bike_id":"8ac1836d-7e05-43b1-bd33-1be6f8080850","system_id":"levelo_inurba_marseille","lat":43.317557,"lon":5.390173,"is_reserved":false,"is_disabled":false,"rental_uris":{"android":"levelo://app?vid=8ac1836d-7e05-43b1-bd33-1be6f8080850","ios":"levelo://app?vid=8ac1836d-7e05-43b1-bd33-1be6f8080850"},"vehicle_type_id":"4","last_reported":1683371075,"current_range_meters":27200,"station_id":"ce4bhqp2rcd13ifvqhng","pricing_plan_id":"free"},{"bike_id":"d3bded05-295a-4e27-816d-28fd9af6ceed","system_id":"levelo_inurba_marseille","lat":43.317557,"lon":5.390173,"is_reserved":false,"is_disabled":false,"rental_uris":{"android":"levelo://app?vid=d3bded05-295a-4e27-816d-28fd9af6ceed","ios":"levelo://app?vid=d3bded05-295a-4e27-816d-28fd9af6ceed"},"vehicle_type_id":"4","last_reported":1683371075,"current_range_meters":26800,"station_id":"ce4bhqp2rcd13ifvqhng","pricing_plan_id":"free"},{"bike_id":"c8376053-40d6-4e25-8659-f524839f5c25","system_id":"levelo_inurba_marseille","lat":43.317557,"lon":5.390173,"is_reserved":false,"is_disabled":false,"rental_uris":{"android":"levelo://app?vid=c8376053-40d6-4e25-8659-f524839f5c25","ios":"levelo://app?vid=c8376053-40d6-4e25-8659-f524839f5c25"},"vehicle_type_id":"4","last_reported":1683371075,"current_range_meters":18400,"station_id":"ce4bhqp2rcd13ifvqhng","pricing_plan_id":"free"},{"bike_id":"f0a79efd-31b0-4acc-877f-da20f7f96242","system_id":"levelo_inurba_marseille","lat":43.317557,"lon":5.390173,"is_reserved":false,"is_disabled":false,"rental_uris":{"android":"levelo://app?vid=f0a79efd-31b0-4acc-877f-da20f7f96242","ios":"levelo://app?vid=f0a79efd-31b0-4acc-877f-da20f7f96242"},"vehicle_type_id":"4","last_reported":1683371075,"current_range_meters":6800,"station_id":"ce4bhqp2rcd13ifvqhng","pricing_plan_id":"free"},{"bike_id":"07463b46-c47f-489c-9c27-a6fb2c473c78","system_id":"levelo_inurba_marseille","lat":43.31485,"lon":5.39122,"is_reserved":false,"is_disabled":false,"rental_uris":{"android":"levelo://app?vid=07463b46-c47f-489c-9c27-a6fb2c473c78","ios":"levelo://app?vid=07463b46-c47f-489c-9c27-a6fb2c473c78"},"vehicle_type_id":"4","last_reported":1683371075,"current_range_meters":1200,"station_id":"","pricing_plan_id":"free"},{"bike_id":"ae714182-4c0d-4f48-b581-2b529a1d99d1","system_id":"levelo_inurba_marseille","lat":43.298037,"lon":5.381066,"is_reserved":false,"is_disabled":false,"rental_uris":{"android":"levelo://app?vid=ae714182-4c0d-4f48-b581-2b529a1d99d1","ios":"levelo://app?vid=ae714182-4c0d-4f48-b581-2b529a1d99d1"},"vehicle_type_id":"4","last_reported":1683371075,"current_range_meters":26000,"station_id":"ce4bgip2rcd13ifvqbb0","pricing_plan_id":"free"},{"bike_id":"c89981fa-4c38-4b48-95fc-91ebee8257ab","system_id":"levelo_inurba_marseille","lat":43.30436,"lon":5.38884,"is_reserved":false,"is_disabled":false,"rental_uris":{"android":"levelo://app?vid=c89981fa-4c38-4b48-95fc-91ebee8257ab","ios":"levelo://app?vid=c89981fa-4c38-4b48-95fc-91ebee8257ab"},"vehicle_type_id":"4","last_reported":1683371075,"current_range_meters":28400,"station_id":"ce4bgk12rcd13ifvqbi0","pricing_plan_id":"free"},{"bike_id":"7d4434a5-1a1f-4ef0-bb8f-00e31db80211","system_id":"levelo_inurba_marseille","lat":43.29787,"lon":5.38091,"is_reserved":false,"is_disabled":false,"rental_uris":{"android":"levelo://app?vid=7d4434a5-1a1f-4ef0-bb8f-00e31db80211","ios":"levelo://app?vid=7d4434a5-1a1f-4ef0-bb8f-00e31db80211"},"vehicle_type_id":"4","last_reported":1683371075,"current_range_meters":0,"station_id":"ce4bgip2rcd13ifvqbb0","pricing_plan_id":"free"},{"bike_id":"cb9c9a03-c6e0-4e0a-aceb-bce6383b09c1","system_id":"levelo_inurba_marseille","lat":43.29573,"lon":5.37514,"is_reserved":false,"is_disabled":false,"rental_uris":{"android":"levelo://app?vid=cb9c9a03-c6e0-4e0a-aceb-bce6383b09c1","ios":"levelo://app?vid=cb9c9a03-c6e0-4e0a-aceb-bce6383b09c1"},"vehicle_type_id":"4","last_reported":1683371075,"current_range_meters":24800,"station_id":"ce4bgh92rcd13ifvqb50","pricing_plan_id":"free"},{"bike_id":"d730c2c9-ecd2-4080-9310-2b81e6eb46ac","system_id":"levelo_inurba_marseille","lat":43.304278,"lon":5.388868,"is_reserved":false,"is_disabled":false,"rental_uris":{"android":"levelo://app?vid=d730c2c9-ecd2-4080-9310-2b81e6eb46ac","ios":"levelo://app?vid=d730c2c9-ecd2-4080-9310-2b81e6eb46ac"},"vehicle_type_id":"4","last_reported":1683371075,"current_range_meters":3600,"station_id":"ce4bgk12rcd13ifvqbi0","pricing_plan_id":"free"},{"bike_id":"a86dc44a-c4e2-44bf-8800-6557e582e0ff","system_id":"levelo_inurba_marseille","lat":43.30432,"lon":5.38888,"is_reserved":false,"is_disabled":false,"rental_uris":{"android":"levelo://app?vid=a86dc44a-c4e2-44bf-8800-6557e582e0ff","ios":"levelo://app?vid=a86dc44a-c4e2-44bf-8800-6557e582e0ff"},"vehicle_type_id":"4","last_reported":1683371075,"current_range_meters":20400,"station_id":"ce4bgk12rcd13ifvqbi0","pricing_plan_id":"free"},{"bike_id":"15fdb7c2-3111-4948-8a3c-48e0e4287687","system_id":"levelo_inurba_marseille","lat":43.30423,"lon":5.38882,"is_reserved":false,"is_disabled":false,"rental_uris":{"android":"levelo://app?vid=15fdb7c2-3111-4948-8a3c-48e0e4287687","ios":"levelo://app?vid=15fdb7c2-3111-4948-8a3c-48e0e4287687"},"vehicle_type_id":"4","last_reported":1683371075,"current_range_meters":2400,"station_id":"ce4bgk12rcd13ifvqbi0","pricing_plan_id":"free"},{"bike_id":"04e36a42-518f-4462-93dc-1b70f7511c72","system_id":"levelo_inurba_marseille","lat":43.29566,"lon":5.37507,"is_reserved":false,"is_disabled":false,"rental_uris":{"android":"levelo://app?vid=04e36a42-518f-4462-93dc-1b70f7511c72","ios":"levelo://app?vid=04e36a42-518f-4462-93dc-1b70f7511c72"},"vehicle_type_id":"4","last_reported":1683371075,"current_range_meters":14000,"station_id":"ce4bgh92rcd13ifvqb50","pricing_plan_id":"free"},{"bike_id":"89bb3774-ac8a-40a0-b7e1-7f825f67c46e","system_id":"levelo_inurba_marseille","lat":43.295748,"lon":5.37522,"is_reserved":false,"is_disabled":false,"rental_uris":{"android":"levelo://app?vid=89bb3774-ac8a-40a0-b7e1-7f825f67c46e","ios":"levelo://app?vid=89bb3774-ac8a-40a0-b7e1-7f825f67c46e"},"vehicle_type_id":"4","last_reported":1683371075,"current_range_meters":31200,"station_id":"ce4bgh92rcd13ifvqb50","pricing_plan_id":"free"},{"bike_id":"6f7dc8e7-d401-427e-8be6-539097f9c81a","system_id":"levelo_inurba_marseille","lat":43.304274,"lon":5.388873,"is_reserved":false,"is_disabled":false,"rental_uris":{"android":"levelo://app?vid=6f7dc8e7-d401-427e-8be6-539097f9c81a","ios":"levelo://app?vid=6f7dc8e7-d401-427e-8be6-539097f9c81a"},"vehicle_type_id":"4","last_reported":1683371075,"current_range_meters":18400,"station_id":"ce4bgk12rcd13ifvqbi0","pricing_plan_id":"free"},{"bike_id":"1732a129-2a2b-4979-9759-685d9154af95","system_id":"levelo_inurba_marseille","lat":43.3044,"lon":5.38899,"is_reserved":false,"is_disabled":false,"rental_uris":{"android":"levelo://app?vid=1732a129-2a2b-4979-9759-685d9154af95","ios":"levelo://app?vid=1732a129-2a2b-4979-9759-685d9154af95"},"vehicle_type_id":"4","last_reported":1683371075,"current_range_meters":0,"station_id":"ce4bgk12rcd13ifvqbi0","pricing_plan_id":"free"},{"bike_id":"279652ab-a9d4-4e84-9c0e-3f6f8e3fd849","system_id":"levelo_inurba_marseille","lat":43.29566,"lon":5.37518,"is_reserved":false,"is_disabled":false,"rental_uris":{"android":"levelo://app?vid=279652ab-a9d4-4e84-9c0e-3f6f8e3fd849","ios":"levelo://app?vid=279652ab-a9d4-4e84-9c0e-3f6f8e3fd849"},"vehicle_type_id":"4","last_reported":1683371075,"current_range_meters":12000,"station_id":"ce4bgh92rcd13ifvqb50","pricing_plan_id":"free"},{"bike_id":"2df87b42-4c21-4230-a8f4-24eb26d298ae","system_id":"levelo_inurba_marseille","lat":43.295748,"lon":5.37522,"is_reserved":false,"is_disabled":false,"rental_uris":{"android":"levelo://app?vid=2df87b42-4c21-4230-a8f4-24eb26d298ae","ios":"levelo://app?vid=2df87b42-4c21-4230-a8f4-24eb26d298ae"},"vehicle_type_id":"4","last_reported":1683371075,"current_range_meters":19200,"station_id":"ce4bgh92rcd13ifvqb50","pricing_plan_id":"free"},{"bike_id":"f9b3c3b7-472e-412f-ab49-9049f3895b50","system_id":"levelo_inurba_marseille","lat":43.299717,"lon":5.384845,"is_reserved":false,"is_disabled":false,"rental_uris":{"android":"levelo://app?vid=f9b3c3b7-472e-412f-ab49-9049f3895b50","ios":"levelo://app?vid=f9b3c3b7-472e-412f-ab49-9049f3895b50"},"vehicle_type_id":"4","last_reported":1683371075,"current_range_meters":24800,"station_id":"ce4bgj92rcd13ifvqbd0","pricing_plan_id":"free"},{"bike_id":"3313036c-f8d2-4c36-b356-7daddf1a447c","system_id":"levelo_inurba_marseille","lat":43.295279,"lon":5.375048,"is_reserved":false,"is_disabled":false,"rental_uris":{"android":"levelo://app?vid=3313036c-f8d2-4c36-b356-7daddf1a447c","ios":"levelo://app?vid=3313036c-f8d2-4c36-b356-7daddf1a447c"},"vehicle_type_id":"4","last_reported":1683371075,"current_range_meters":27600,"station_id":"ce4bgkp2rcd13ifvqbmg","pricing_plan_id":"free"},{"bike_id":"9eba2524-2906-4fee-af4c-bc6915de516c","system_id":"levelo_inurba_marseille","lat":43.299717,"lon":5.384845,"is_reserved":false,"is_disabled":false,"rental_uris":{"android":"levelo://app?vid=9eba2524-2906-4fee-af4c-bc6915de516c","ios":"levelo://app?vid=9eba2524-2906-4fee-af4c-bc6915de516c"},"vehicle_type_id":"4","last_reported":1683371075,"current_range_meters":17200,"station_id":"ce4bgj92rcd13ifvqbd0","pricing_plan_id":"free"},{"bike_id":"1dd06c98-c200-4a3d-afc9-e5fd057d158b","system_id":"levelo_inurba_marseille","lat":43.30462,"lon":5.39051,"is_reserved":false,"is_disabled":false,"rental_uris":{"android":"levelo://app?vid=1dd06c98-c200-4a3d-afc9-e5fd057d158b","ios":"levelo://app?vid=1dd06c98-c200-4a3d-afc9-e5fd057d158b"},"vehicle_type_id":"4","last_reported":1683371075,"current_range_meters":14400,"station_id":"","pricing_plan_id":"free"},{"bike_id":"165d458e-9adf-4946-a687-870cd44a2a37","system_id":"levelo_inurba_marseille","lat":43.29613,"lon":5.3811,"is_reserved":false,"is_disabled":false,"rental_uris":{"android":"levelo://app?vid=165d458e-9adf-4946-a687-870cd44a2a37","ios":"levelo://app?vid=165d458e-9adf-4946-a687-870cd44a2a37"},"vehicle_type_id":"4","last_reported":1683371075,"current_range_meters":26800,"station_id":"ce4bgl12rcd13ifvqbo0","pricing_plan_id":"free"},{"bike_id":"fdf0a676-e355-44aa-881a-8f226aa61498","system_id":"levelo_inurba_marseille","lat":43.293249,"lon":5.371578,"is_reserved":false,"is_disabled":false,"rental_uris":{"android":"levelo://app?vid=fdf0a676-e355-44aa-881a-8f226aa61498","ios":"levelo://app?vid=fdf0a676-e355-44aa-881a-8f226aa61498"},"vehicle_type_id":"4","last_reported":1683371075,"current_range_meters":7600,"station_id":"ce4bgh92rcd13ifvqb40","pricing_plan_id":"free"},{"bike_id":"c56ca2ff-77cc-47e1-bbda-2795ef989ba1","system_id":"levelo_inurba_marseille","lat":43.293249,"lon":5.371578,"is_reserved":false,"is_disabled":false,"rental_uris":{"android":"levelo://app?vid=c56ca2ff-77cc-47e1-bbda-2795ef989ba1","ios":"levelo://app?vid=c56ca2ff-77cc-47e1-bbda-2795ef989ba1"},"vehicle_type_id":"4","last_reported":1683371075,"current_range_meters":4400,"station_id":"ce4bgh92rcd13ifvqb40","pricing_plan_id":"free"},{"bike_id":"ea22974b-6c3b-4102-962e-8cc28d269c72","system_id":"levelo_inurba_marseille","lat":43.292749,"lon":5.368402,"is_reserved":false,"is_disabled":false,"rental_uris":{"android":"levelo://app?vid=ea22974b-6c3b-4102-962e-8cc28d269c72","ios":"levelo://app?vid=ea22974b-6c3b-4102-962e-8cc28d269c72"},"vehicle_type_id":"4","last_reported":1683371075,"current_range_meters":30400,"station_id":"ce4bhbp2rcd13ifvqesg","pricing_plan_id":"free"},{"bike_id":"4d49d598-ea0c-4b46-b038-876eb8fb5825","system_id":"levelo_inurba_marseille","lat":43.292749,"lon":5.368402,"is_reserved":false,"is_disabled":false,"rental_uris":{"android":"levelo://app?vid=4d49d598-ea0c-4b46-b038-876eb8fb5825","ios":"levelo://app?vid=4d49d598-ea0c-4b46-b038-876eb8fb5825"},"vehicle_type_id":"4","last_reported":1683371075,"current_range_meters":31200,"station_id":"ce4bhbp2rcd13ifvqesg","pricing_plan_id":"free"},{"bike_id":"fe199b36-3412-4e08-9712-afffdc784b12","system_id":"levelo_inurba_marseille","lat":43.292749,"lon":5.368402,"is_reserved":false,"is_disabled":false,"rental_uris":{"android":"levelo://app?vid=fe199b36-3412-4e08-9712-afffdc784b12","ios":"levelo://app?vid=fe199b36-3412-4e08-9712-afffdc784b12"},"vehicle_type_id":"4","last_reported":1683371075,"current_range_meters":25600,"station_id":"ce4bhbp2rcd13ifvqesg","pricing_plan_id":"free"},{"bike_id":"a9c588d6-9d3b-4171-95f1-ddd3d410cdfd","system_id":"levelo_inurba_marseille","lat":43.302992,"lon":5.392136,"is_reserved":false,"is_disabled":false,"rental_uris":{"android":"levelo://app?vid=a9c588d6-9d3b-4171-95f1-ddd3d410cdfd","ios":"levelo://app?vid=a9c588d6-9d3b-4171-95f1-ddd3d410cdfd"},"vehicle_type_id":"4","last_reported":1683371075,"current_range_meters":22000,"station_id":"ce4bgkh2rcd13ifvqbk0","pricing_plan_id":"free"},{"bike_id":"5c958777-d217-4f4b-b535-587ca2108bb9","system_id":"levelo_inurba_marseille","lat":43.303002,"lon":5.392142,"is_reserved":false,"is_disabled":false,"rental_uris":{"android":"levelo://app?vid=5c958777-d217-4f4b-b535-587ca2108bb9","ios":"levelo://app?vid=5c958777-d217-4f4b-b535-587ca2108bb9"},"vehicle_type_id":"4","last_reported":1683371075,"current_range_meters":30400,"station_id":"ce4bgkh2rcd13ifvqbk0","pricing_plan_id":"free"},{"bike_id":"9bf52ed4-32f5-4dfd-b223-3b83f5e1d4b1","system_id":"levelo_inurba_marseille","lat":43.29363,"lon":5.37841,"is_reserved":false,"is_disabled":false,"rental_uris":{"android":"levelo://app?vid=9bf52ed4-32f5-4dfd-b223-3b83f5e1d4b1","ios":"levelo://app?vid=9bf52ed4-32f5-4dfd-b223-3b83f5e1d4b1"},"vehicle_type_id":"4","last_reported":1683371075,"current_range_meters":14800,"station_id":"","pricing_plan_id":"free"},{"bike_id":"79cbe122-0af4-40c1-9a30-d3f14d526eb7","system_id":"levelo_inurba_marseille","lat":43.30085,"lon":5.390856,"is_reserved":false,"is_disabled":false,"rental_uris":{"android":"levelo://app?vid=79cbe122-0af4-40c1-9a30-d3f14d526eb7","ios":"levelo://app?vid=79cbe122-0af4-40c1-9a30-d3f14d526eb7"},"vehicle_type_id":"4","last_reported":1683371075,"current_range_meters":29200,"station_id":"ce4bh192rcd13ifvqdb0","pricing_plan_id":"free"},{"bike_id":"c8f2ffb8-08d9-4ac2-b3fd-d1a8077df4c8","system_id":"levelo_inurba_marseille","lat":43.300852,"lon":5.390859,"is_reserved":false,"is_disabled":false,"rental_uris":{"android":"levelo://app?vid=c8f2ffb8-08d9-4ac2-b3fd-d1a8077df4c8","ios":"levelo://app?vid=c8f2ffb8-08d9-4ac2-b3fd-d1a8077df4c8"},"vehicle_type_id":"4","last_reported":1683371075,"current_range_meters":17200,"station_id":"ce4bh192rcd13ifvqdb0","pricing_plan_id":"free"},{"bike_id":"ad2a3d4e-85af-4ba7-bb9e-450aa8db9bf6","system_id":"levelo_inurba_marseille","lat":43.29218,"lon":5.36042,"is_reserved":false,"is_disabled":false,"rental_uris":{"android":"levelo://app?vid=ad2a3d4e-85af-4ba7-bb9e-450aa8db9bf6","ios":"levelo://app?vid=ad2a3d4e-85af-4ba7-bb9e-450aa8db9bf6"},"vehicle_type_id":"4","last_reported":1683371075,"current_range_meters":21200,"station_id":"","pricing_plan_id":"free"},{"bike_id":"71ca0efe-078d-4180-a7aa-4879b801efed","system_id":"levelo_inurba_marseille","lat":43.29214,"lon":5.36049,"is_reserved":false,"is_disabled":false,"rental_uris":{"android":"levelo://app?vid=71ca0efe-078d-4180-a7aa-4879b801efed","ios":"levelo://app?vid=71ca0efe-078d-4180-a7aa-4879b801efed"},"vehicle_type_id":"4","last_reported":1683371075,"current_range_meters":5200,"station_id":"","pricing_plan_id":"free"},{"bike_id":"80aaa82b-44a9-48a8-810c-20926f83b914","system_id":"levelo_inurba_marseille","lat":43.29211,"lon":5.36056,"is_reserved":false,"is_disabled":false,"rental_uris":{"android":"levelo://app?vid=80aaa82b-44a9-48a8-810c-20926f83b914","ios":"levelo://app?vid=80aaa82b-44a9-48a8-810c-20926f83b914"},"vehicle_type_id":"4","last_reported":1683371075,"current_range_meters":19200,"station_id":"ce4bhbh2rcd13ifvqeqg","pricing_plan_id":"free"},{"bike_id":"d80dfb6b-8538-4b2c-bc55-98a6abe6d6e5","system_id":"levelo_inurba_marseille","lat":43.298764,"lon":5.388973,"is_reserved":false,"is_disabled":false,"rental_uris":{"android":"levelo://app?vid=d80dfb6b-8538-4b2c-bc55-98a6abe6d6e5","ios":"levelo://app?vid=d80dfb6b-8538-4b2c-bc55-98a6abe6d6e5"},"vehicle_type_id":"4","last_reported":1683371075,"current_range_meters":16400,"station_id":"ce4bh392rcd13ifvqdl0","pricing_plan_id":"free"},{"bike_id":"e63b1c9e-7474-42d0-9f28-f167c7e5ceb5","system_id":"levelo_inurba_marseille","lat":43.292663,"lon":5.376394,"is_reserved":false,"is_disabled":false,"rental_uris":{"android":"levelo://app?vid=e63b1c9e-7474-42d0-9f28-f167c7e5ceb5","ios":"levelo://app?vid=e63b1c9e-7474-42d0-9f28-f167c7e5ceb5"},"vehicle_type_id":"4","last_reported":1683371075,"current_range_meters":19200,"station_id":"ce4bgi12rcd13ifvqb80","pricing_plan_id":"free"},{"bike_id":"faab5a62-cbab-41d5-9a5f-60c32434b02a","system_id":"levelo_inurba_marseille","lat":43.29154,"lon":5.37073,"is_reserved":false,"is_disabled":false,"rental_uris":{"android":"levelo://app?vid=faab5a62-cbab-41d5-9a5f-60c32434b02a","ios":"levelo://app?vid=faab5a62-cbab-41d5-9a5f-60c32434b02a"},"vehicle_type_id":"4","last_reported":1683371075,"current_range_meters":11600,"station_id":"","pricing_plan_id":"free"},{"bike_id":"265edb18-95ef-4d2c-867f-6830efa86c97","system_id":"levelo_inurba_marseille","lat":43.31323,"lon":5.39679,"is_reserved":false,"is_disabled":false,"rental_uris":{"android":"levelo://app?vid=265edb18-95ef-4d2c-867f-6830efa86c97","ios":"levelo://app?vid=265edb18-95ef-4d2c-867f-6830efa86c97"},"vehicle_type_id":"4","last_reported":1683371075,"current_range_meters":25200,"station_id":"ce4bgvp2rcd13ifvqcu0","pricing_plan_id":"free"},{"bike_id":"20b31b5e-b99f-4ba0-b4c9-1d8455a6dc44","system_id":"levelo_inurba_marseille","lat":43.31324,"lon":5.3968,"is_reserved":false,"is_disabled":false,"rental_uris":{"android":"levelo://app?vid=20b31b5e-b99f-4ba0-b4c9-1d8455a6dc44","ios":"levelo://app?vid=20b31b5e-b99f-4ba0-b4c9-1d8455a6dc44"},"vehicle_type_id":"4","last_reported":1683371075,"current_range_meters":1600,"station_id":"ce4bgvp2rcd13ifvqcu0","pricing_plan_id":"free"},{"bike_id":"4ed6125a-fbd1-42c1-9215-303c306cfcde","system_id":"levelo_inurba_marseille","lat":43.309038,"lon":5.396546,"is_reserved":false,"is_disabled":false,"rental_uris":{"android":"levelo://app?vid=4ed6125a-fbd1-42c1-9215-303c306cfcde","ios":"levelo://app?vid=4ed6125a-fbd1-42c1-9215-303c306cfcde"},"vehicle_type_id":"4","last_reported":1683371075,"current_range_meters":22800,"station_id":"ce4bh012rcd13ifvqcv0","pricing_plan_id":"free"},{"bike_id":"62de6734-b0c8-41a0-a339-f643166c6a54","system_id":"levelo_inurba_marseille","lat":43.309038,"lon":5.396546,"is_reserved":false,"is_disabled":false,"rental_uris":{"android":"levelo://app?vid=62de6734-b0c8-41a0-a339-f643166c6a54","ios":"levelo://app?vid=62de6734-b0c8-41a0-a339-f643166c6a54"},"vehicle_type_id":"4","last_reported":1683371075,"current_range_meters":29200,"station_id":"ce4bh012rcd13ifvqcv0","pricing_plan_id":"free"},{"bike_id":"d70b52ce-20cb-4aa0-aba3-74ce839f91cb","system_id":"levelo_inurba_marseille","lat":43.31325,"lon":5.39685,"is_reserved":false,"is_disabled":false,"rental_uris":{"android":"levelo://app?vid=d70b52ce-20cb-4aa0-aba3-74ce839f91cb","ios":"levelo://app?vid=d70b52ce-20cb-4aa0-aba3-74ce839f91cb"},"vehicle_type_id":"4","last_reported":1683371075,"current_range_meters":28000,"station_id":"ce4bgvp2rcd13ifvqcu0","pricing_plan_id":"free"},{"bike_id":"cfeb834c-3076-4a2a-936a-316b4f49cd2c","system_id":"levelo_inurba_marseille","lat":43.31328,"lon":5.39685,"is_reserved":false,"is_disabled":false,"rental_uris":{"android":"levelo://app?vid=cfeb834c-3076-4a2a-936a-316b4f49cd2c","ios":"levelo://app?vid=cfeb834c-3076-4a2a-936a-316b4f49cd2c"},"vehicle_type_id":"4","last_reported":1683371075,"current_range_meters":16000,"station_id":"ce4bgvp2rcd13ifvqcu0","pricing_plan_id":"free"},{"bike_id":"a9c6e4fd-3ae1-46d7-b246-0ac0d6a11056","system_id":"levelo_inurba_marseille","lat":43.313291,"lon":5.396838,"is_reserved":false,"is_disabled":false,"rental_uris":{"android":"levelo://app?vid=a9c6e4fd-3ae1-46d7-b246-0ac0d6a11056","ios":"levelo://app?vid=a9c6e4fd-3ae1-46d7-b246-0ac0d6a11056"},"vehicle_type_id":"4","last_reported":1683371075,"current_range_meters":22800,"station_id":"ce4bgvp2rcd13ifvqcu0","pricing_plan_id":"free"},{"bike_id":"317605e0-adfa-4898-b83a-9c58711c77d0","system_id":"levelo_inurba_marseille","lat":43.309038,"lon":5.396546,"is_reserved":false,"is_disabled":false,"rental_uris":{"android":"levelo://app?vid=317605e0-adfa-4898-b83a-9c58711c77d0","ios":"levelo://app?vid=317605e0-adfa-4898-b83a-9c58711c77d0"},"vehicle_type_id":"4","last_reported":1683371075,"current_range_meters":28000,"station_id":"ce4bh012rcd13ifvqcv0","pricing_plan_id":"free"},{"bike_id":"a8a44b43-d4e9-4dba-9295-35a113a172d3","system_id":"levelo_inurba_marseille","lat":43.31329,"lon":5.39693,"is_reserved":false,"is_disabled":false,"rental_uris":{"android":"levelo://app?vid=a8a44b43-d4e9-4dba-9295-35a113a172d3","ios":"levelo://app?vid=a8a44b43-d4e9-4dba-9295-35a113a172d3"},"vehicle_type_id":"4","last_reported":1683371075,"current_range_meters":9200,"station_id":"ce4bgvp2rcd13ifvqcu0","pricing_plan_id":"free"},{"bike_id":"b72bb075-8c4d-4e51-a5a9-3057e5999670","system_id":"levelo_inurba_marseille","lat":43.313291,"lon":5.396838,"is_reserved":false,"is_disabled":false,"rental_uris":{"android":"levelo://app?vid=b72bb075-8c4d-4e51-a5a9-3057e5999670","ios":"levelo://app?vid=b72bb075-8c4d-4e51-a5a9-3057e5999670"},"vehicle_type_id":"4","last_reported":1683371075,"current_range_meters":25600,"station_id":"ce4bgvp2rcd13ifvqcu0","pricing_plan_id":"free"},{"bike_id":"eb6b4802-88fa-4c9f-bc1b-71a1b52ff5ba","system_id":"levelo_inurba_marseille","lat":43.31329,"lon":5.39694,"is_reserved":false,"is_disabled":false,"rental_uris":{"android":"levelo://app?vid=eb6b4802-88fa-4c9f-bc1b-71a1b52ff5ba","ios":"levelo://app?vid=eb6b4802-88fa-4c9f-bc1b-71a1b52ff5ba"},"vehicle_type_id":"4","last_reported":1683371075,"current_range_meters":22000,"station_id":"ce4bgvp2rcd13ifvqcu0","pricing_plan_id":"free"},{"bike_id":"386418ee-99e9-4589-a3f5-e6b20b0327a9","system_id":"levelo_inurba_marseille","lat":43.309038,"lon":5.396546,"is_reserved":false,"is_disabled":false,"rental_uris":{"android":"levelo://app?vid=386418ee-99e9-4589-a3f5-e6b20b0327a9","ios":"levelo://app?vid=386418ee-99e9-4589-a3f5-e6b20b0327a9"},"vehicle_type_id":"4","last_reported":1683371075,"current_range_meters":24400,"station_id":"ce4bh012rcd13ifvqcv0","pricing_plan_id":"free"},{"bike_id":"e266368a-ef7f-48ec-9176-2f0b48884fb8","system_id":"levelo_inurba_marseille","lat":43.309038,"lon":5.396546,"is_reserved":false,"is_disabled":false,"rental_uris":{"android":"levelo://app?vid=e266368a-ef7f-48ec-9176-2f0b48884fb8","ios":"levelo://app?vid=e266368a-ef7f-48ec-9176-2f0b48884fb8"},"vehicle_type_id":"4","last_reported":1683371075,"current_range_meters":22000,"station_id":"ce4bh012rcd13ifvqcv0","pricing_plan_id":"free"},{"bike_id":"dc06d3b8-c997-4587-aaa9-d0b7a43637f1","system_id":"levelo_inurba_marseille","lat":43.309038,"lon":5.396546,"is_reserved":false,"is_disabled":false,"rental_uris":{"android":"levelo://app?vid=dc06d3b8-c997-4587-aaa9-d0b7a43637f1","ios":"levelo://app?vid=dc06d3b8-c997-4587-aaa9-d0b7a43637f1"},"vehicle_type_id":"4","last_reported":1683371075,"current_range_meters":23200,"station_id":"ce4bh012rcd13ifvqcv0","pricing_plan_id":"free"},{"bike_id":"e7311056-2a78-413f-b693-ff7a65b966ce","system_id":"levelo_inurba_marseille","lat":43.308842,"lon":5.396552,"is_reserved":false,"is_disabled":false,"rental_uris":{"android":"levelo://app?vid=e7311056-2a78-413f-b693-ff7a65b966ce","ios":"levelo://app?vid=e7311056-2a78-413f-b693-ff7a65b966ce"},"vehicle_type_id":"4","last_reported":1683371075,"current_range_meters":9200,"station_id":"","pricing_plan_id":"free"},{"bike_id":"b3dbffff-6c66-4f8d-b8f7-971b92be9995","system_id":"levelo_inurba_marseille","lat":43.302008,"lon":5.394694,"is_reserved":false,"is_disabled":false,"rental_uris":{"android":"levelo://app?vid=b3dbffff-6c66-4f8d-b8f7-971b92be9995","ios":"levelo://app?vid=b3dbffff-6c66-4f8d-b8f7-971b92be9995"},"vehicle_type_id":"4","last_reported":1683371075,"current_range_meters":28000,"station_id":"ce4bh0p2rcd13ifvqd70","pricing_plan_id":"free"},{"bike_id":"b974dad3-90d0-4dc1-a654-d08b92e0f626","system_id":"levelo_inurba_marseille","lat":43.302008,"lon":5.394694,"is_reserved":false,"is_disabled":false,"rental_uris":{"android":"levelo://app?vid=b974dad3-90d0-4dc1-a654-d08b92e0f626","ios":"levelo://app?vid=b974dad3-90d0-4dc1-a654-d08b92e0f626"},"vehicle_type_id":"4","last_reported":1683371075,"current_range_meters":28800,"station_id":"ce4bh0p2rcd13ifvqd70","pricing_plan_id":"free"},{"bike_id":"f5eedad0-1da2-4cda-9389-e1e21f2a7f46","system_id":"levelo_inurba_marseille","lat":43.302008,"lon":5.394694,"is_reserved":false,"is_disabled":false,"rental_uris":{"android":"levelo://app?vid=f5eedad0-1da2-4cda-9389-e1e21f2a7f46","ios":"levelo://app?vid=f5eedad0-1da2-4cda-9389-e1e21f2a7f46"},"vehicle_type_id":"4","last_reported":1683371075,"current_range_meters":24800,"station_id":"ce4bh0p2rcd13ifvqd70","pricing_plan_id":"free"},{"bike_id":"e5bcbdfd-afc9-4457-8bac-c99b8b387102","system_id":"levelo_inurba_marseille","lat":43.2905,"lon":5.35914,"is_reserved":false,"is_disabled":false,"rental_uris":{"android":"levelo://app?vid=e5bcbdfd-afc9-4457-8bac-c99b8b387102","ios":"levelo://app?vid=e5bcbdfd-afc9-4457-8bac-c99b8b387102"},"vehicle_type_id":"4","last_reported":1683371075,"current_range_meters":800,"station_id":"","pricing_plan_id":"free"},{"bike_id":"b1f5c016-4c31-4c85-abf9-4deed9bb6535","system_id":"levelo_inurba_marseille","lat":43.290327,"lon":5.375711,"is_reserved":false,"is_disabled":false,"rental_uris":{"android":"levelo://app?vid=b1f5c016-4c31-4c85-abf9-4deed9bb6535","ios":"levelo://app?vid=b1f5c016-4c31-4c85-abf9-4deed9bb6535"},"vehicle_type_id":"4","last_reported":1683371075,"current_range_meters":28800,"station_id":"ce4bh692rcd13ifvqe90","pricing_plan_id":"free"},{"bike_id":"cc0ce9ea-e0a8-42dd-a815-9ddba4b716f5","system_id":"levelo_inurba_marseille","lat":43.29042,"lon":5.37573,"is_reserved":false,"is_disabled":false,"rental_uris":{"android":"levelo://app?vid=cc0ce9ea-e0a8-42dd-a815-9ddba4b716f5","ios":"levelo://app?vid=cc0ce9ea-e0a8-42dd-a815-9ddba4b716f5"},"vehicle_type_id":"4","last_reported":1683371075,"current_range_meters":19600,"station_id":"","pricing_plan_id":"free"},{"bike_id":"0bece492-edbd-4a29-85bc-4ac4da142212","system_id":"levelo_inurba_marseille","lat":43.290327,"lon":5.375711,"is_reserved":false,"is_disabled":false,"rental_uris":{"android":"levelo://app?vid=0bece492-edbd-4a29-85bc-4ac4da142212","ios":"levelo://app?vid=0bece492-edbd-4a29-85bc-4ac4da142212"},"vehicle_type_id":"4","last_reported":1683371075,"current_range_meters":27200,"station_id":"ce4bh692rcd13ifvqe90","pricing_plan_id":"free"},{"bike_id":"82ace65a-a599-4d31-875f-31e208a1278c","system_id":"levelo_inurba_marseille","lat":43.289184,"lon":5.366408,"is_reserved":false,"is_disabled":false,"rental_uris":{"android":"levelo://app?vid=82ace65a-a599-4d31-875f-31e208a1278c","ios":"levelo://app?vid=82ace65a-a599-4d31-875f-31e208a1278c"},"vehicle_type_id":"4","last_reported":1683371075,"current_range_meters":23600,"station_id":"ce4bhap2rcd13ifvqek0","pricing_plan_id":"free"},{"bike_id":"a0650cc3-d953-478c-95ed-cac219aaeef1","system_id":"levelo_inurba_marseille","lat":43.292642,"lon":5.384254,"is_reserved":false,"is_disabled":false,"rental_uris":{"android":"levelo://app?vid=a0650cc3-d953-478c-95ed-cac219aaeef1","ios":"levelo://app?vid=a0650cc3-d953-478c-95ed-cac219aaeef1"},"vehicle_type_id":"4","last_reported":1683371075,"current_range_meters":24400,"station_id":"ce4bh692rcd13ifvqea0","pricing_plan_id":"free"},{"bike_id":"4036a779-b8ee-4694-9873-0f1843cf119e","system_id":"levelo_inurba_marseille","lat":43.292642,"lon":5.384254,"is_reserved":false,"is_disabled":false,"rental_uris":{"android":"levelo://app?vid=4036a779-b8ee-4694-9873-0f1843cf119e","ios":"levelo://app?vid=4036a779-b8ee-4694-9873-0f1843cf119e"},"vehicle_type_id":"4","last_reported":1683371075,"current_range_meters":10000,"station_id":"ce4bh692rcd13ifvqea0","pricing_plan_id":"free"},{"bike_id":"8acb0ddf-4eb0-4bb1-91e3-26493e49eaee","system_id":"levelo_inurba_marseille","lat":43.292642,"lon":5.384254,"is_reserved":false,"is_disabled":false,"rental_uris":{"android":"levelo://app?vid=8acb0ddf-4eb0-4bb1-91e3-26493e49eaee","ios":"levelo://app?vid=8acb0ddf-4eb0-4bb1-91e3-26493e49eaee"},"vehicle_type_id":"4","last_reported":1683371075,"current_range_meters":22800,"station_id":"ce4bh692rcd13ifvqea0","pricing_plan_id":"free"},{"bike_id":"9892d82e-5425-40a5-9403-bc39e084bab9","system_id":"levelo_inurba_marseille","lat":43.33015,"lon":5.38928,"is_reserved":false,"is_disabled":false,"rental_uris":{"android":"levelo://app?vid=9892d82e-5425-40a5-9403-bc39e084bab9","ios":"levelo://app?vid=9892d82e-5425-40a5-9403-bc39e084bab9"},"vehicle_type_id":"4","last_reported":1683371075,"current_range_meters":28000,"station_id":"ce4bhr92rcd13ifvqhrg","pricing_plan_id":"free"},{"bike_id":"46c8867e-0dd3-4981-b23a-dff36cb6859b","system_id":"levelo_inurba_marseille","lat":43.304296,"lon":5.397513,"is_reserved":false,"is_disabled":false,"rental_uris":{"android":"levelo://app?vid=46c8867e-0dd3-4981-b23a-dff36cb6859b","ios":"levelo://app?vid=46c8867e-0dd3-4981-b23a-dff36cb6859b"},"vehicle_type_id":"4","last_reported":1683371075,"current_range_meters":28800,"station_id":"ce4bh092rcd13ifvqd20","pricing_plan_id":"free"},{"bike_id":"b19188c7-d374-4f35-9d6f-4ee40c840621","system_id":"levelo_inurba_marseille","lat":43.330427,"lon":5.389108,"is_reserved":false,"is_disabled":false,"rental_uris":{"android":"levelo://app?vid=b19188c7-d374-4f35-9d6f-4ee40c840621","ios":"levelo://app?vid=b19188c7-d374-4f35-9d6f-4ee40c840621"},"vehicle_type_id":"4","last_reported":1683371075,"current_range_meters":22800,"station_id":"ce4bhr92rcd13ifvqhrg","pricing_plan_id":"free"},{"bike_id":"1f662943-fd3c-4d30-8e8d-761822cb14d2","system_id":"levelo_inurba_marseille","lat":43.330429,"lon":5.389111,"is_reserved":false,"is_disabled":false,"rental_uris":{"android":"levelo://app?vid=1f662943-fd3c-4d30-8e8d-761822cb14d2","ios":"levelo://app?vid=1f662943-fd3c-4d30-8e8d-761822cb14d2"},"vehicle_type_id":"4","last_reported":1683371075,"current_range_meters":21600,"station_id":"ce4bhr92rcd13ifvqhrg","pricing_plan_id":"free"},{"bike_id":"c9455a8e-920b-4e52-910e-7a1224d93dcf","system_id":"levelo_inurba_marseille","lat":43.330429,"lon":5.389113,"is_reserved":false,"is_disabled":false,"rental_uris":{"android":"levelo://app?vid=c9455a8e-920b-4e52-910e-7a1224d93dcf","ios":"levelo://app?vid=c9455a8e-920b-4e52-910e-7a1224d93dcf"},"vehicle_type_id":"4","last_reported":1683371075,"current_range_meters":21600,"station_id":"ce4bhr92rcd13ifvqhrg","pricing_plan_id":"free"},{"bike_id":"c7d204ce-6619-491c-8812-dc4b0a6a663b","system_id":"levelo_inurba_marseille","lat":43.33041,"lon":5.38917,"is_reserved":false,"is_disabled":false,"rental_uris":{"android":"levelo://app?vid=c7d204ce-6619-491c-8812-dc4b0a6a663b","ios":"levelo://app?vid=c7d204ce-6619-491c-8812-dc4b0a6a663b"},"vehicle_type_id":"4","last_reported":1683371075,"current_range_meters":29600,"station_id":"ce4bhr92rcd13ifvqhrg","pricing_plan_id":"free"},{"bike_id":"10a8eeb7-4f93-4e8d-81bd-f27d3d4ef515","system_id":"levelo_inurba_marseille","lat":43.33041,"lon":5.38918,"is_reserved":false,"is_disabled":false,"rental_uris":{"android":"levelo://app?vid=10a8eeb7-4f93-4e8d-81bd-f27d3d4ef515","ios":"levelo://app?vid=10a8eeb7-4f93-4e8d-81bd-f27d3d4ef515"},"vehicle_type_id":"4","last_reported":1683371075,"current_range_meters":26800,"station_id":"ce4bhr92rcd13ifvqhrg","pricing_plan_id":"free"},{"bike_id":"4da2ea4c-0587-4161-8586-452f9bca890c","system_id":"levelo_inurba_marseille","lat":43.33045,"lon":5.38912,"is_reserved":false,"is_disabled":false,"rental_uris":{"android":"levelo://app?vid=4da2ea4c-0587-4161-8586-452f9bca890c","ios":"levelo://app?vid=4da2ea4c-0587-4161-8586-452f9bca890c"},"vehicle_type_id":"4","last_reported":1683371075,"current_range_meters":20000,"station_id":"ce4bhr92rcd13ifvqhrg","pricing_plan_id":"free"},{"bike_id":"c0b39783-7886-4047-9a8d-355fea0e4444","system_id":"levelo_inurba_marseille","lat":43.33043,"lon":5.38916,"is_reserved":false,"is_disabled":false,"rental_uris":{"android":"levelo://app?vid=c0b39783-7886-4047-9a8d-355fea0e4444","ios":"levelo://app?vid=c0b39783-7886-4047-9a8d-355fea0e4444"},"vehicle_type_id":"4","last_reported":1683371075,"current_range_meters":21600,"station_id":"ce4bhr92rcd13ifvqhrg","pricing_plan_id":"free"},{"bike_id":"d6233f8b-531d-433b-b8e9-589e3920c098","system_id":"levelo_inurba_marseille","lat":43.33044,"lon":5.38915,"is_reserved":false,"is_disabled":false,"rental_uris":{"android":"levelo://app?vid=d6233f8b-531d-433b-b8e9-589e3920c098","ios":"levelo://app?vid=d6233f8b-531d-433b-b8e9-589e3920c098"},"vehicle_type_id":"4","last_reported":1683371075,"current_range_meters":22000,"station_id":"ce4bhr92rcd13ifvqhrg","pricing_plan_id":"free"},{"bike_id":"da86836b-d020-456b-ad95-a73c452d8db8","system_id":"levelo_inurba_marseille","lat":43.33041,"lon":5.3892,"is_reserved":false,"is_disabled":false,"rental_uris":{"android":"levelo://app?vid=da86836b-d020-456b-ad95-a73c452d8db8","ios":"levelo://app?vid=da86836b-d020-456b-ad95-a73c452d8db8"},"vehicle_type_id":"4","last_reported":1683371075,"current_range_meters":25200,"station_id":"ce4bhr92rcd13ifvqhrg","pricing_plan_id":"free"},{"bike_id":"928717aa-fed2-44dc-9dda-0b43fb5e963e","system_id":"levelo_inurba_marseille","lat":43.33043,"lon":5.38918,"is_reserved":false,"is_disabled":false,"rental_uris":{"android":"levelo://app?vid=928717aa-fed2-44dc-9dda-0b43fb5e963e","ios":"levelo://app?vid=928717aa-fed2-44dc-9dda-0b43fb5e963e"},"vehicle_type_id":"4","last_reported":1683371075,"current_range_meters":25200,"station_id":"ce4bhr92rcd13ifvqhrg","pricing_plan_id":"free"},{"bike_id":"b07745f0-142f-4fda-929f-5253ccadcb4b","system_id":"levelo_inurba_marseille","lat":43.290103,"lon":5.356114,"is_reserved":false,"is_disabled":false,"rental_uris":{"android":"levelo://app?vid=b07745f0-142f-4fda-929f-5253ccadcb4b","ios":"levelo://app?vid=b07745f0-142f-4fda-929f-5253ccadcb4b"},"vehicle_type_id":"4","last_reported":1683371075,"current_range_meters":8800,"station_id":"ce4bhb92rcd13ifvqen0","pricing_plan_id":"free"},{"bike_id":"ca24a59f-d386-41a3-bec3-cccfb35035a7","system_id":"levelo_inurba_marseille","lat":43.330471,"lon":5.389126,"is_reserved":false,"is_disabled":false,"rental_uris":{"android":"levelo://app?vid=ca24a59f-d386-41a3-bec3-cccfb35035a7","ios":"levelo://app?vid=ca24a59f-d386-41a3-bec3-cccfb35035a7"},"vehicle_type_id":"4","last_reported":1683371075,"current_range_meters":0,"station_id":"ce4bhr92rcd13ifvqhrg","pricing_plan_id":"free"},{"bike_id":"6bff39af-b880-495b-87c5-e559d7e2e65e","system_id":"levelo_inurba_marseille","lat":43.330475,"lon":5.389121,"is_reserved":false,"is_disabled":false,"rental_uris":{"android":"levelo://app?vid=6bff39af-b880-495b-87c5-e559d7e2e65e","ios":"levelo://app?vid=6bff39af-b880-495b-87c5-e559d7e2e65e"},"vehicle_type_id":"4","last_reported":1683371075,"current_range_meters":15600,"station_id":"ce4bhr92rcd13ifvqhrg","pricing_plan_id":"free"},{"bike_id":"eec179c5-79de-473a-a2fe-2282099fce04","system_id":"levelo_inurba_marseille","lat":43.33047,"lon":5.38913,"is_reserved":false,"is_disabled":false,"rental_uris":{"android":"levelo://app?vid=eec179c5-79de-473a-a2fe-2282099fce04","ios":"levelo://app?vid=eec179c5-79de-473a-a2fe-2282099fce04"},"vehicle_type_id":"4","last_reported":1683371075,"current_range_meters":20000,"station_id":"ce4bhr92rcd13ifvqhrg","pricing_plan_id":"free"},{"bike_id":"575afc17-30ae-44aa-b2b7-439f83e57cf5","system_id":"levelo_inurba_marseille","lat":43.330479,"lon":5.389118,"is_reserved":false,"is_disabled":false,"rental_uris":{"android":"levelo://app?vid=575afc17-30ae-44aa-b2b7-439f83e57cf5","ios":"levelo://app?vid=575afc17-30ae-44aa-b2b7-439f83e57cf5"},"vehicle_type_id":"4","last_reported":1683371075,"current_range_meters":24800,"station_id":"ce4bhr92rcd13ifvqhrg","pricing_plan_id":"free"},{"bike_id":"496fc879-c6a2-4335-9eab-2fdd6a6f8bf1","system_id":"levelo_inurba_marseille","lat":43.33042,"lon":5.38921,"is_reserved":false,"is_disabled":false,"rental_uris":{"android":"levelo://app?vid=496fc879-c6a2-4335-9eab-2fdd6a6f8bf1","ios":"levelo://app?vid=496fc879-c6a2-4335-9eab-2fdd6a6f8bf1"},"vehicle_type_id":"4","last_reported":1683371075,"current_range_meters":17200,"station_id":"ce4bhr92rcd13ifvqhrg","pricing_plan_id":"free"},{"bike_id":"8354f027-4ab3-43cf-aa5a-b91f8b7b635d","system_id":"levelo_inurba_marseille","lat":43.330493,"lon":5.389103,"is_reserved":false,"is_disabled":false,"rental_uris":{"android":"levelo://app?vid=8354f027-4ab3-43cf-aa5a-b91f8b7b635d","ios":"levelo://app?vid=8354f027-4ab3-43cf-aa5a-b91f8b7b635d"},"vehicle_type_id":"4","last_reported":1683371075,"current_range_meters":12400,"station_id":"ce4bhr92rcd13ifvqhrg","pricing_plan_id":"free"},{"bike_id":"9cc13337-a19e-40f5-b636-2bafa5380dab","system_id":"levelo_inurba_marseille","lat":43.33047,"lon":5.38915,"is_reserved":false,"is_disabled":false,"rental_uris":{"android":"levelo://app?vid=9cc13337-a19e-40f5-b636-2bafa5380dab","ios":"levelo://app?vid=9cc13337-a19e-40f5-b636-2bafa5380dab"},"vehicle_type_id":"4","last_reported":1683371075,"current_range_meters":28800,"station_id":"ce4bhr92rcd13ifvqhrg","pricing_plan_id":"free"},{"bike_id":"0f17f817-0a12-4fd4-af4c-cceebcb1b47e","system_id":"levelo_inurba_marseille","lat":43.290104,"lon":5.356111,"is_reserved":false,"is_disabled":false,"rental_uris":{"android":"levelo://app?vid=0f17f817-0a12-4fd4-af4c-cceebcb1b47e","ios":"levelo://app?vid=0f17f817-0a12-4fd4-af4c-cceebcb1b47e"},"vehicle_type_id":"4","last_reported":1683371075,"current_range_meters":31200,"station_id":"ce4bhb92rcd13ifvqen0","pricing_plan_id":"free"},{"bike_id":"c6a5f3db-467c-47f5-acd9-61fe8cd674ee","system_id":"levelo_inurba_marseille","lat":43.33047,"lon":5.38916,"is_reserved":false,"is_disabled":false,"rental_uris":{"android":"levelo://app?vid=c6a5f3db-467c-47f5-acd9-61fe8cd674ee","ios":"levelo://app?vid=c6a5f3db-467c-47f5-acd9-61fe8cd674ee"},"vehicle_type_id":"4","last_reported":1683371075,"current_range_meters":23600,"station_id":"ce4bhr92rcd13ifvqhrg","pricing_plan_id":"free"},{"bike_id":"f0259ac6-9140-49b6-85b9-c51090aa3763","system_id":"levelo_inurba_marseille","lat":43.29006,"lon":5.3561,"is_reserved":false,"is_disabled":false,"rental_uris":{"android":"levelo://app?vid=f0259ac6-9140-49b6-85b9-c51090aa3763","ios":"levelo://app?vid=f0259ac6-9140-49b6-85b9-c51090aa3763"},"vehicle_type_id":"4","last_reported":1683371075,"current_range_meters":20400,"station_id":"ce4bhb92rcd13ifvqen0","pricing_plan_id":"free"},{"bike_id":"82843011-ce7a-457e-bdc8-82782ef86da6","system_id":"levelo_inurba_marseille","lat":43.330464,"lon":5.389189,"is_reserved":false,"is_disabled":false,"rental_uris":{"android":"levelo://app?vid=82843011-ce7a-457e-bdc8-82782ef86da6","ios":"levelo://app?vid=82843011-ce7a-457e-bdc8-82782ef86da6"},"vehicle_type_id":"4","last_reported":1683371075,"current_range_meters":19600,"station_id":"ce4bhr92rcd13ifvqhrg","pricing_plan_id":"free"},{"bike_id":"1cd8baf0-5550-4716-8d5e-6381fd878ebd","system_id":"levelo_inurba_marseille","lat":43.33045,"lon":5.38921,"is_reserved":false,"is_disabled":false,"rental_uris":{"android":"levelo://app?vid=1cd8baf0-5550-4716-8d5e-6381fd878ebd","ios":"levelo://app?vid=1cd8baf0-5550-4716-8d5e-6381fd878ebd"},"vehicle_type_id":"4","last_reported":1683371075,"current_range_meters":25600,"station_id":"ce4bhr92rcd13ifvqhrg","pricing_plan_id":"free"},{"bike_id":"b37530c3-df7d-435c-9ee3-6e2c436758a8","system_id":"levelo_inurba_marseille","lat":43.290034,"lon":5.356127,"is_reserved":false,"is_disabled":false,"rental_uris":{"android":"levelo://app?vid=b37530c3-df7d-435c-9ee3-6e2c436758a8","ios":"levelo://app?vid=b37530c3-df7d-435c-9ee3-6e2c436758a8"},"vehicle_type_id":"4","last_reported":1683371075,"current_range_meters":24000,"station_id":"ce4bhb92rcd13ifvqen0","pricing_plan_id":"free"},{"bike_id":"f534f96f-bd57-4e6e-8324-6ac963d15f8b","system_id":"levelo_inurba_marseille","lat":43.290031,"lon":5.356121,"is_reserved":false,"is_disabled":false,"rental_uris":{"android":"levelo://app?vid=f534f96f-bd57-4e6e-8324-6ac963d15f8b","ios":"levelo://app?vid=f534f96f-bd57-4e6e-8324-6ac963d15f8b"},"vehicle_type_id":"4","last_reported":1683371075,"current_range_meters":21600,"station_id":"ce4bhb92rcd13ifvqen0","pricing_plan_id":"free"},{"bike_id":"c492944e-bd13-46ab-8683-f3553f3e929a","system_id":"levelo_inurba_marseille","lat":43.290023,"lon":5.356119,"is_reserved":false,"is_disabled":false,"rental_uris":{"android":"levelo://app?vid=c492944e-bd13-46ab-8683-f3553f3e929a","ios":"levelo://app?vid=c492944e-bd13-46ab-8683-f3553f3e929a"},"vehicle_type_id":"4","last_reported":1683371075,"current_range_meters":21600,"station_id":"ce4bhb92rcd13ifvqen0","pricing_plan_id":"free"},{"bike_id":"1c428933-9aa8-4192-82c5-42b6b16b5880","system_id":"levelo_inurba_marseille","lat":43.28999,"lon":5.35599,"is_reserved":false,"is_disabled":false,"rental_uris":{"android":"levelo://app?vid=1c428933-9aa8-4192-82c5-42b6b16b5880","ios":"levelo://app?vid=1c428933-9aa8-4192-82c5-42b6b16b5880"},"vehicle_type_id":"4","last_reported":1683371075,"current_range_meters":2000,"station_id":"ce4bhb92rcd13ifvqen0","pricing_plan_id":"free"},{"bike_id":"b5c4ec11-beb1-448e-b6cb-581a9e557461","system_id":"levelo_inurba_marseille","lat":43.28995,"lon":5.35611,"is_reserved":false,"is_disabled":false,"rental_uris":{"android":"levelo://app?vid=b5c4ec11-beb1-448e-b6cb-581a9e557461","ios":"levelo://app?vid=b5c4ec11-beb1-448e-b6cb-581a9e557461"},"vehicle_type_id":"4","last_reported":1683371075,"current_range_meters":23200,"station_id":"ce4bhb92rcd13ifvqen0","pricing_plan_id":"free"},{"bike_id":"ff0ad87d-4a35-450c-9290-d6b69771c022","system_id":"levelo_inurba_marseille","lat":43.295169,"lon":5.390426,"is_reserved":false,"is_disabled":false,"rental_uris":{"android":"levelo://app?vid=ff0ad87d-4a35-450c-9290-d6b69771c022","ios":"levelo://app?vid=ff0ad87d-4a35-450c-9290-d6b69771c022"},"vehicle_type_id":"4","last_reported":1683371075,"current_range_meters":18000,"station_id":"ce4bh3p2rcd13ifvqdp0","pricing_plan_id":"free"},{"bike_id":"34320fce-24bb-4291-be42-2c361aed67f0","system_id":"levelo_inurba_marseille","lat":43.33746,"lon":5.3744,"is_reserved":false,"is_disabled":false,"rental_uris":{"android":"levelo://app?vid=34320fce-24bb-4291-be42-2c361aed67f0","ios":"levelo://app?vid=34320fce-24bb-4291-be42-2c361aed67f0"},"vehicle_type_id":"4","last_reported":1683371075,"current_range_meters":24400,"station_id":"","pricing_plan_id":"free"},{"bike_id":"d1338cde-b3d1-46b1-8800-7a50c92c327c","system_id":"levelo_inurba_marseille","lat":43.3375,"lon":5.3743,"is_reserved":false,"is_disabled":false,"rental_uris":{"android":"levelo://app?vid=d1338cde-b3d1-46b1-8800-7a50c92c327c","ios":"levelo://app?vid=d1338cde-b3d1-46b1-8800-7a50c92c327c"},"vehicle_type_id":"4","last_reported":1683371075,"current_range_meters":27600,"station_id":"","pricing_plan_id":"free"},{"bike_id":"e83b3207-bffe-4c28-a2b7-e6e7bd914b15","system_id":"levelo_inurba_marseille","lat":43.33758,"lon":5.37429,"is_reserved":false,"is_disabled":false,"rental_uris":{"android":"levelo://app?vid=e83b3207-bffe-4c28-a2b7-e6e7bd914b15","ios":"levelo://app?vid=e83b3207-bffe-4c28-a2b7-e6e7bd914b15"},"vehicle_type_id":"4","last_reported":1683371075,"current_range_meters":28400,"station_id":"ce4rr2p2rcd13i802rgg","pricing_plan_id":"free"},{"bike_id":"2803101f-ee4c-4dcf-bdd7-6442d6c2191c","system_id":"levelo_inurba_marseille","lat":43.30642,"lon":5.401031,"is_reserved":false,"is_disabled":false,"rental_uris":{"android":"levelo://app?vid=2803101f-ee4c-4dcf-bdd7-6442d6c2191c","ios":"levelo://app?vid=2803101f-ee4c-4dcf-bdd7-6442d6c2191c"},"vehicle_type_id":"4","last_reported":1683371075,"current_range_meters":27600,"station_id":"ce4bh112rcd13ifvqda0","pricing_plan_id":"free"},{"bike_id":"cc5900b6-b927-49fc-82db-4d13a3d02316","system_id":"levelo_inurba_marseille","lat":43.33752,"lon":5.37486,"is_reserved":false,"is_disabled":false,"rental_uris":{"android":"levelo://app?vid=cc5900b6-b927-49fc-82db-4d13a3d02316","ios":"levelo://app?vid=cc5900b6-b927-49fc-82db-4d13a3d02316"},"vehicle_type_id":"4","last_reported":1683371075,"current_range_meters":26800,"station_id":"","pricing_plan_id":"free"},{"bike_id":"20083ae5-f09f-4d10-9758-3cdd331d6a45","system_id":"levelo_inurba_marseille","lat":43.33756,"lon":5.37465,"is_reserved":false,"is_disabled":false,"rental_uris":{"android":"levelo://app?vid=20083ae5-f09f-4d10-9758-3cdd331d6a45","ios":"levelo://app?vid=20083ae5-f09f-4d10-9758-3cdd331d6a45"},"vehicle_type_id":"4","last_reported":1683371075,"current_range_meters":16400,"station_id":"","pricing_plan_id":"free"},{"bike_id":"ab7b8dc5-9722-47e7-8a78-100d1a674f6d","system_id":"levelo_inurba_marseille","lat":43.33755,"lon":5.37476,"is_reserved":false,"is_disabled":false,"rental_uris":{"android":"levelo://app?vid=ab7b8dc5-9722-47e7-8a78-100d1a674f6d","ios":"levelo://app?vid=ab7b8dc5-9722-47e7-8a78-100d1a674f6d"},"vehicle_type_id":"4","last_reported":1683371075,"current_range_meters":5600,"station_id":"","pricing_plan_id":"free"},{"bike_id":"a0ee7713-690a-45d1-94cb-0123b56158fb","system_id":"levelo_inurba_marseille","lat":43.30642,"lon":5.401031,"is_reserved":false,"is_disabled":false,"rental_uris":{"android":"levelo://app?vid=a0ee7713-690a-45d1-94cb-0123b56158fb","ios":"levelo://app?vid=a0ee7713-690a-45d1-94cb-0123b56158fb"},"vehicle_type_id":"4","last_reported":1683371075,"current_range_meters":13600,"station_id":"ce4bh112rcd13ifvqda0","pricing_plan_id":"free"},{"bike_id":"79ab3cb2-7fd4-4e7a-bae3-3edb55a107f0","system_id":"levelo_inurba_marseille","lat":43.30643,"lon":5.40085,"is_reserved":false,"is_disabled":false,"rental_uris":{"android":"levelo://app?vid=79ab3cb2-7fd4-4e7a-bae3-3edb55a107f0","ios":"levelo://app?vid=79ab3cb2-7fd4-4e7a-bae3-3edb55a107f0"},"vehicle_type_id":"4","last_reported":1683371075,"current_range_meters":23600,"station_id":"","pricing_plan_id":"free"},{"bike_id":"b8fe736e-840c-42af-a45d-89656544177a","system_id":"levelo_inurba_marseille","lat":43.30642,"lon":5.401031,"is_reserved":false,"is_disabled":false,"rental_uris":{"android":"levelo://app?vid=b8fe736e-840c-42af-a45d-89656544177a","ios":"levelo://app?vid=b8fe736e-840c-42af-a45d-89656544177a"},"vehicle_type_id":"4","last_reported":1683371075,"current_range_meters":24000,"station_id":"ce4bh112rcd13ifvqda0","pricing_plan_id":"free"},{"bike_id":"a9f2f4af-12bd-42e2-95b8-7aa40b3a938e","system_id":"levelo_inurba_marseille","lat":43.33768,"lon":5.37426,"is_reserved":false,"is_disabled":false,"rental_uris":{"android":"levelo://app?vid=a9f2f4af-12bd-42e2-95b8-7aa40b3a938e","ios":"levelo://app?vid=a9f2f4af-12bd-42e2-95b8-7aa40b3a938e"},"vehicle_type_id":"4","last_reported":1683371075,"current_range_meters":30800,"station_id":"ce4rr2p2rcd13i802rgg","pricing_plan_id":"free"},{"bike_id":"d299b68e-e11c-4245-a595-5d9f2f62baee","system_id":"levelo_inurba_marseille","lat":43.30642,"lon":5.401031,"is_reserved":false,"is_disabled":false,"rental_uris":{"android":"levelo://app?vid=d299b68e-e11c-4245-a595-5d9f2f62baee","ios":"levelo://app?vid=d299b68e-e11c-4245-a595-5d9f2f62baee"},"vehicle_type_id":"4","last_reported":1683371075,"current_range_meters":800,"station_id":"ce4bh112rcd13ifvqda0","pricing_plan_id":"free"},{"bike_id":"db84b57a-c242-4d31-93f3-e9f12005c4b3","system_id":"levelo_inurba_marseille","lat":43.33762,"lon":5.37494,"is_reserved":false,"is_disabled":false,"rental_uris":{"android":"levelo://app?vid=db84b57a-c242-4d31-93f3-e9f12005c4b3","ios":"levelo://app?vid=db84b57a-c242-4d31-93f3-e9f12005c4b3"},"vehicle_type_id":"4","last_reported":1683371075,"current_range_meters":27600,"station_id":"","pricing_plan_id":"free"},{"bike_id":"f914fdb4-e2ae-473a-956a-7c18b9da1a7c","system_id":"levelo_inurba_marseille","lat":43.301117,"lon":5.398795,"is_reserved":false,"is_disabled":false,"rental_uris":{"android":"levelo://app?vid=f914fdb4-e2ae-473a-956a-7c18b9da1a7c","ios":"levelo://app?vid=f914fdb4-e2ae-473a-956a-7c18b9da1a7c"},"vehicle_type_id":"4","last_reported":1683371075,"current_range_meters":6400,"station_id":"ce4bh0h2rcd13ifvqd40","pricing_plan_id":"free"},{"bike_id":"c452a78d-8a25-4dac-a034-b406e8dd2a51","system_id":"levelo_inurba_marseille","lat":43.28743,"lon":5.358,"is_reserved":false,"is_disabled":false,"rental_uris":{"android":"levelo://app?vid=c452a78d-8a25-4dac-a034-b406e8dd2a51","ios":"levelo://app?vid=c452a78d-8a25-4dac-a034-b406e8dd2a51"},"vehicle_type_id":"4","last_reported":1683371075,"current_range_meters":5600,"station_id":"","pricing_plan_id":"free"},{"bike_id":"0abe318f-bc24-4ac3-9fea-ab588c27cdf5","system_id":"levelo_inurba_marseille","lat":43.298681,"lon":5.397225,"is_reserved":false,"is_disabled":false,"rental_uris":{"android":"levelo://app?vid=0abe318f-bc24-4ac3-9fea-ab588c27cdf5","ios":"levelo://app?vid=0abe318f-bc24-4ac3-9fea-ab588c27cdf5"},"vehicle_type_id":"4","last_reported":1683371075,"current_range_meters":2400,"station_id":"ce4bh0h2rcd13ifvqd50","pricing_plan_id":"free"},{"bike_id":"9f1b6946-48f1-41b2-97a4-ba543925acdf","system_id":"levelo_inurba_marseille","lat":43.298681,"lon":5.397225,"is_reserved":false,"is_disabled":false,"rental_uris":{"android":"levelo://app?vid=9f1b6946-48f1-41b2-97a4-ba543925acdf","ios":"levelo://app?vid=9f1b6946-48f1-41b2-97a4-ba543925acdf"},"vehicle_type_id":"4","last_reported":1683371075,"current_range_meters":7200,"station_id":"ce4bh0h2rcd13ifvqd50","pricing_plan_id":"free"},{"bike_id":"93f0111c-b15c-4863-946e-bd62d9803fa7","system_id":"levelo_inurba_marseille","lat":43.29519,"lon":5.39386,"is_reserved":false,"is_disabled":false,"rental_uris":{"android":"levelo://app?vid=93f0111c-b15c-4863-946e-bd62d9803fa7","ios":"levelo://app?vid=93f0111c-b15c-4863-946e-bd62d9803fa7"},"vehicle_type_id":"4","last_reported":1683371075,"current_range_meters":0,"station_id":"ce4bh292rcd13ifvqdf0","pricing_plan_id":"free"},{"bike_id":"502895c4-f02e-4359-84df-991d5a7295ea","system_id":"levelo_inurba_marseille","lat":43.290345,"lon":5.38646,"is_reserved":false,"is_disabled":false,"rental_uris":{"android":"levelo://app?vid=502895c4-f02e-4359-84df-991d5a7295ea","ios":"levelo://app?vid=502895c4-f02e-4359-84df-991d5a7295ea"},"vehicle_type_id":"4","last_reported":1683371075,"current_range_meters":8800,"station_id":"ce4bh4p2rcd13ifvqe0g","pricing_plan_id":"free"},{"bike_id":"a60db1b8-7aee-4c9b-b146-b5c5cfb02b38","system_id":"levelo_inurba_marseille","lat":43.302759,"lon":5.400793,"is_reserved":false,"is_disabled":false,"rental_uris":{"android":"levelo://app?vid=a60db1b8-7aee-4c9b-b146-b5c5cfb02b38","ios":"levelo://app?vid=a60db1b8-7aee-4c9b-b146-b5c5cfb02b38"},"vehicle_type_id":"4","last_reported":1683371075,"current_range_meters":31200,"station_id":"ce4bgvh2rcd13ifvqcs0","pricing_plan_id":"free"},{"bike_id":"f4464cc1-dd09-4a83-af5f-0618d9215e8d","system_id":"levelo_inurba_marseille","lat":43.290345,"lon":5.38646,"is_reserved":false,"is_disabled":false,"rental_uris":{"android":"levelo://app?vid=f4464cc1-dd09-4a83-af5f-0618d9215e8d","ios":"levelo://app?vid=f4464cc1-dd09-4a83-af5f-0618d9215e8d"},"vehicle_type_id":"4","last_reported":1683371075,"current_range_meters":18400,"station_id":"ce4bh4p2rcd13ifvqe0g","pricing_plan_id":"free"},{"bike_id":"bf4ae226-96ba-419a-ad17-49ceb20e8c15","system_id":"levelo_inurba_marseille","lat":43.290336,"lon":5.386425,"is_reserved":false,"is_disabled":false,"rental_uris":{"android":"levelo://app?vid=bf4ae226-96ba-419a-ad17-49ceb20e8c15","ios":"levelo://app?vid=bf4ae226-96ba-419a-ad17-49ceb20e8c15"},"vehicle_type_id":"4","last_reported":1683371075,"current_range_meters":17200,"station_id":"ce4bh4p2rcd13ifvqe0g","pricing_plan_id":"free"},{"bike_id":"9e05e348-000d-4203-acd6-5ff1bd589468","system_id":"levelo_inurba_marseille","lat":43.290336,"lon":5.386425,"is_reserved":false,"is_disabled":false,"rental_uris":{"android":"levelo://app?vid=9e05e348-000d-4203-acd6-5ff1bd589468","ios":"levelo://app?vid=9e05e348-000d-4203-acd6-5ff1bd589468"},"vehicle_type_id":"4","last_reported":1683371075,"current_range_meters":30800,"station_id":"ce4bh4p2rcd13ifvqe0g","pricing_plan_id":"free"},{"bike_id":"d61edacd-c089-4364-a5ec-f3e2e35bdc33","system_id":"levelo_inurba_marseille","lat":43.302759,"lon":5.400793,"is_reserved":false,"is_disabled":false,"rental_uris":{"android":"levelo://app?vid=d61edacd-c089-4364-a5ec-f3e2e35bdc33","ios":"levelo://app?vid=d61edacd-c089-4364-a5ec-f3e2e35bdc33"},"vehicle_type_id":"4","last_reported":1683371075,"current_range_meters":28000,"station_id":"ce4bgvh2rcd13ifvqcs0","pricing_plan_id":"free"},{"bike_id":"86921c46-4875-4822-9529-cd76615eb7e0","system_id":"levelo_inurba_marseille","lat":43.302759,"lon":5.400793,"is_reserved":false,"is_disabled":false,"rental_uris":{"android":"levelo://app?vid=86921c46-4875-4822-9529-cd76615eb7e0","ios":"levelo://app?vid=86921c46-4875-4822-9529-cd76615eb7e0"},"vehicle_type_id":"4","last_reported":1683371075,"current_range_meters":31200,"station_id":"ce4bgvh2rcd13ifvqcs0","pricing_plan_id":"free"},{"bike_id":"0a1d391f-ff30-4500-8572-f89b4be0a3f1","system_id":"levelo_inurba_marseille","lat":43.302759,"lon":5.400793,"is_reserved":false,"is_disabled":false,"rental_uris":{"android":"levelo://app?vid=0a1d391f-ff30-4500-8572-f89b4be0a3f1","ios":"levelo://app?vid=0a1d391f-ff30-4500-8572-f89b4be0a3f1"},"vehicle_type_id":"4","last_reported":1683371075,"current_range_meters":27200,"station_id":"ce4bgvh2rcd13ifvqcs0","pricing_plan_id":"free"},{"bike_id":"bd4841c0-aae8-4d73-8d07-b7b16e450c14","system_id":"levelo_inurba_marseille","lat":43.302759,"lon":5.400793,"is_reserved":false,"is_disabled":false,"rental_uris":{"android":"levelo://app?vid=bd4841c0-aae8-4d73-8d07-b7b16e450c14","ios":"levelo://app?vid=bd4841c0-aae8-4d73-8d07-b7b16e450c14"},"vehicle_type_id":"4","last_reported":1683371075,"current_range_meters":27600,"station_id":"ce4bgvh2rcd13ifvqcs0","pricing_plan_id":"free"},{"bike_id":"93350c45-b50a-45bc-bda8-a381773e30c1","system_id":"levelo_inurba_marseille","lat":43.30765,"lon":5.40292,"is_reserved":false,"is_disabled":false,"rental_uris":{"android":"levelo://app?vid=93350c45-b50a-45bc-bda8-a381773e30c1","ios":"levelo://app?vid=93350c45-b50a-45bc-bda8-a381773e30c1"},"vehicle_type_id":"4","last_reported":1683371075,"current_range_meters":16400,"station_id":"","pricing_plan_id":"free"},{"bike_id":"962f4349-a01f-4e53-8eb7-691bff46289c","system_id":"levelo_inurba_marseille","lat":43.286039,"lon":5.370681,"is_reserved":false,"is_disabled":false,"rental_uris":{"android":"levelo://app?vid=962f4349-a01f-4e53-8eb7-691bff46289c","ios":"levelo://app?vid=962f4349-a01f-4e53-8eb7-691bff46289c"},"vehicle_type_id":"4","last_reported":1683371075,"current_range_meters":23600,"station_id":"ce4bht12rcd13ifvqi60","pricing_plan_id":"free"},{"bike_id":"cb0d6c13-65f2-49af-aee8-330053c02af8","system_id":"levelo_inurba_marseille","lat":43.286039,"lon":5.370679,"is_reserved":false,"is_disabled":false,"rental_uris":{"android":"levelo://app?vid=cb0d6c13-65f2-49af-aee8-330053c02af8","ios":"levelo://app?vid=cb0d6c13-65f2-49af-aee8-330053c02af8"},"vehicle_type_id":"4","last_reported":1683371075,"current_range_meters":31600,"station_id":"ce4bht12rcd13ifvqi60","pricing_plan_id":"free"},{"bike_id":"dfb88fc1-2b6a-4e69-96ab-516582caff52","system_id":"levelo_inurba_marseille","lat":43.286039,"lon":5.370681,"is_reserved":false,"is_disabled":false,"rental_uris":{"android":"levelo://app?vid=dfb88fc1-2b6a-4e69-96ab-516582caff52","ios":"levelo://app?vid=dfb88fc1-2b6a-4e69-96ab-516582caff52"},"vehicle_type_id":"4","last_reported":1683371075,"current_range_meters":17200,"station_id":"ce4bht12rcd13ifvqi60","pricing_plan_id":"free"},{"bike_id":"6bd5b53b-2370-4c8d-9c9d-2044aa6e046a","system_id":"levelo_inurba_marseille","lat":43.287185,"lon":5.379373,"is_reserved":false,"is_disabled":false,"rental_uris":{"android":"levelo://app?vid=6bd5b53b-2370-4c8d-9c9d-2044aa6e046a","ios":"levelo://app?vid=6bd5b53b-2370-4c8d-9c9d-2044aa6e046a"},"vehicle_type_id":"4","last_reported":1683371075,"current_range_meters":14800,"station_id":"ce4bh9p2rcd13ifvqec0","pricing_plan_id":"free"},{"bike_id":"0423c913-244a-4b41-a69f-ba9ca08ffc37","system_id":"levelo_inurba_marseille","lat":43.287184,"lon":5.37937,"is_reserved":false,"is_disabled":false,"rental_uris":{"android":"levelo://app?vid=0423c913-244a-4b41-a69f-ba9ca08ffc37","ios":"levelo://app?vid=0423c913-244a-4b41-a69f-ba9ca08ffc37"},"vehicle_type_id":"4","last_reported":1683371075,"current_range_meters":25200,"station_id":"ce4bh9p2rcd13ifvqec0","pricing_plan_id":"free"},{"bike_id":"2524d5ba-f743-47d3-a32f-2df356721c29","system_id":"levelo_inurba_marseille","lat":43.287185,"lon":5.379373,"is_reserved":false,"is_disabled":false,"rental_uris":{"android":"levelo://app?vid=2524d5ba-f743-47d3-a32f-2df356721c29","ios":"levelo://app?vid=2524d5ba-f743-47d3-a32f-2df356721c29"},"vehicle_type_id":"4","last_reported":1683371075,"current_range_meters":21600,"station_id":"ce4bh9p2rcd13ifvqec0","pricing_plan_id":"free"},{"bike_id":"176668b3-aa98-4969-85fb-6ef93eaaf149","system_id":"levelo_inurba_marseille","lat":43.316517,"lon":5.404375,"is_reserved":false,"is_disabled":false,"rental_uris":{"android":"levelo://app?vid=176668b3-aa98-4969-85fb-6ef93eaaf149","ios":"levelo://app?vid=176668b3-aa98-4969-85fb-6ef93eaaf149"},"vehicle_type_id":"4","last_reported":1683371075,"current_range_meters":10000,"station_id":"ce4bh012rcd13ifvqd00","pricing_plan_id":"free"},{"bike_id":"3b77148d-1551-40d1-98fe-edb3c57190fd","system_id":"levelo_inurba_marseille","lat":43.316306,"lon":5.404273,"is_reserved":false,"is_disabled":false,"rental_uris":{"android":"levelo://app?vid=3b77148d-1551-40d1-98fe-edb3c57190fd","ios":"levelo://app?vid=3b77148d-1551-40d1-98fe-edb3c57190fd"},"vehicle_type_id":"4","last_reported":1683371075,"current_range_meters":18400,"station_id":"","pricing_plan_id":"free"},{"bike_id":"9a78b2a6-fd44-4c5e-8c58-3c4de70600e1","system_id":"levelo_inurba_marseille","lat":43.316517,"lon":5.404375,"is_reserved":false,"is_disabled":false,"rental_uris":{"android":"levelo://app?vid=9a78b2a6-fd44-4c5e-8c58-3c4de70600e1","ios":"levelo://app?vid=9a78b2a6-fd44-4c5e-8c58-3c4de70600e1"},"vehicle_type_id":"4","last_reported":1683371075,"current_range_meters":24800,"station_id":"ce4bh012rcd13ifvqd00","pricing_plan_id":"free"},{"bike_id":"d25d6dab-6cd4-48cf-9bdc-4275a97b0b75","system_id":"levelo_inurba_marseille","lat":43.31646,"lon":5.40433,"is_reserved":false,"is_disabled":false,"rental_uris":{"android":"levelo://app?vid=d25d6dab-6cd4-48cf-9bdc-4275a97b0b75","ios":"levelo://app?vid=d25d6dab-6cd4-48cf-9bdc-4275a97b0b75"},"vehicle_type_id":"4","last_reported":1683371075,"current_range_meters":28800,"station_id":"ce4bh012rcd13ifvqd00","pricing_plan_id":"free"},{"bike_id":"2044667b-7b76-4e80-a42f-32e16c3c0e43","system_id":"levelo_inurba_marseille","lat":43.316517,"lon":5.404375,"is_reserved":false,"is_disabled":false,"rental_uris":{"android":"levelo://app?vid=2044667b-7b76-4e80-a42f-32e16c3c0e43","ios":"levelo://app?vid=2044667b-7b76-4e80-a42f-32e16c3c0e43"},"vehicle_type_id":"4","last_reported":1683371075,"current_range_meters":30400,"station_id":"ce4bh012rcd13ifvqd00","pricing_plan_id":"free"},{"bike_id":"11fbe0d7-8213-4c1d-b92d-bd1ce7dee837","system_id":"levelo_inurba_marseille","lat":43.3165,"lon":5.40439,"is_reserved":false,"is_disabled":false,"rental_uris":{"android":"levelo://app?vid=11fbe0d7-8213-4c1d-b92d-bd1ce7dee837","ios":"levelo://app?vid=11fbe0d7-8213-4c1d-b92d-bd1ce7dee837"},"vehicle_type_id":"4","last_reported":1683371075,"current_range_meters":30000,"station_id":"ce4bh012rcd13ifvqd00","pricing_plan_id":"free"},{"bike_id":"d44120ab-75ce-4fa7-b03c-b63a3e80189b","system_id":"levelo_inurba_marseille","lat":43.3165,"lon":5.40442,"is_reserved":false,"is_disabled":false,"rental_uris":{"android":"levelo://app?vid=d44120ab-75ce-4fa7-b03c-b63a3e80189b","ios":"levelo://app?vid=d44120ab-75ce-4fa7-b03c-b63a3e80189b"},"vehicle_type_id":"4","last_reported":1683371075,"current_range_meters":12400,"station_id":"","pricing_plan_id":"free"},{"bike_id":"2d1d5dca-f61f-4fe7-b5cc-72cbe5451ca1","system_id":"levelo_inurba_marseille","lat":43.291994,"lon":5.392907,"is_reserved":false,"is_disabled":false,"rental_uris":{"android":"levelo://app?vid=2d1d5dca-f61f-4fe7-b5cc-72cbe5451ca1","ios":"levelo://app?vid=2d1d5dca-f61f-4fe7-b5cc-72cbe5451ca1"},"vehicle_type_id":"4","last_reported":1683371075,"current_range_meters":28800,"station_id":"ce4bh192rcd13ifvqdd0","pricing_plan_id":"free"},{"bike_id":"3106ca77-d36c-4362-96c6-2aa8a37067a7","system_id":"levelo_inurba_marseille","lat":43.284534,"lon":5.358662,"is_reserved":false,"is_disabled":false,"rental_uris":{"android":"levelo://app?vid=3106ca77-d36c-4362-96c6-2aa8a37067a7","ios":"levelo://app?vid=3106ca77-d36c-4362-96c6-2aa8a37067a7"},"vehicle_type_id":"4","last_reported":1683371075,"current_range_meters":8000,"station_id":"ce4bhah2rcd13ifvqei0","pricing_plan_id":"free"},