{"last_updated":1687234080,"ttl":30,"version":"2.2","data":{"bikes":[{"bike_id":"d5dbd603-246f-4708-aa9a-af5d114cc0dd","system_id":"levelo_inurba_marseille","lat":43.312239,"lon":5.368562,"is_reserved":false,"is_disabled":false,"rental_uris":{"android":"levelo://app?vid=d5dbd603-246f-4708-aa9a-af5d114cc0dd","ios":"levelo://app?vid=d5dbd603-246f-4708-aa9a-af5d114cc0dd"},"vehicle_type_id":"4","last_reported":1687234080,"current_range_meters":26000,"station_id":"ce4bgl92rcd13ifvqbq0","pricing_plan_id":"free"},{"bike_id":"546a1204-0b99-4518-8a8d-a99aea97d5f3","system_id":"levelo_inurba_marseille","lat":43.312239,"lon":5.368562,"is_reserved":false,"is_disabled":false,"rental_uris":{"android":"levelo://app?vid=546a1204-0b99-4518-8a8d-a99aea97d5f3","ios":"levelo://app?vid=546a1204-0b99-4518-8a8d-a99aea97d5f3"},"vehicle_type_id":"4","last_reported":1687234080,"current_range_meters":30800,"station_id":"ce4bgl92rcd13ifvqbq0","pricing_plan_id":"free"},{"bike_id":"ce190031-060e-481f-9a46-975224d6c32e","system_id":"levelo_inurba_marseille","lat":43.312239,"lon":5.368562,"is_reserved":false,"is_disabled":false,"rental_uris":{"android":"levelo://app?vid=ce190031-060e-481f-9a46-975224d6c32e","ios":"levelo://app?vid=ce190031-060e-481f-9a46-975224d6c32e"},"vehicle_type_id":"4","last_reported":1687234080,"current_range_meters":20400,"station_id":"ce4bgl92rcd13ifvqbq0","pricing_plan_id":"free"},{"bike_id":"192e9152-c82f-404f-9793-98b10303023b","system_id":"levelo_inurba_marseille","lat":43.309076,"lon":5.368465,"is_reserved":false,"is_disabled":false,"rental_uris":{"android":"levelo://app?vid=192e9152-c82f-404f-9793-98b10303023b","ios":"levelo://app?vid=192e9152-c82f-404f-9793-98b10303023b"},"vehicle_type_id":"4","last_reported":1687234080,"current_range_meters":31200,"station_id":"ce4bgn92rcd13ifvqbvg","pricing_plan_id":"free"},{"bike_id":"05cf473a-4aee-4b36-9fe8-e3e520215a6d","system_id":"levelo_inurba_marseille","lat":43.314811,"lon":5.373103,"is_reserved":false,"is_disabled":false,"rental_uris":{"android":"levelo://app?vid=05cf473a-4aee-4b36-9fe8-e3e520215a6d","ios":"levelo://app?vid=05cf473a-4aee-4b36-9fe8-e3e520215a6d"},"vehicle_type_id":"4","last_reported":1687234080,"current_range_meters":28000,"station_id":"ce4bgt12rcd13ifvqcd0","pricing_plan_id":"free"},{"bike_id":"3682b644-d119-426b-9c7e-a59a69ebbefa","system_id":"levelo_inurba_marseille","lat":43.314811,"lon":5.373103,"is_reserved":false,"is_disabled":false,"rental_uris":{"android":"levelo://app?vid=3682b644-d119-426b-9c7e-a59a69ebbefa","ios":"levelo://app?vid=3682b644-d119-426b-9c7e-a59a69ebbefa"},"vehicle_type_id":"4","last_reported":1687234080,"current_range_meters":30400,"station_id":"ce4bgt12rcd13ifvqcd0","pricing_plan_id":"free"},{"bike_id":"1f7cb87c-1fb0-4458-833b-d7951221c121","system_id":"levelo_inurba_marseille","lat":43.314811,"lon":5.373103,"is_reserved":false,"is_disabled":false,"rental_uris":{"android":"levelo://app?vid=1f7cb87c-1fb0-4458-833b-d7951221c121","ios":"levelo://app?vid=1f7cb87c-1fb0-4458-833b-d7951221c121"},"vehicle_type_id":"4","last_reported":1687234080,"current_range_meters":30400,"station_id":"ce4bgt12rcd13ifvqcd0","pricing_plan_id":"free"},{"bike_id":"137a0309-483f-4eb8-aeb6-68f81643baf7","system_id":"levelo_inurba_marseille","lat":43.314811,"lon":5.373103,"is_reserved":false,"is_disabled":false,"rental_uris":{"android":"levelo://app?vid=137a0309-483f-4eb8-aeb6-68f81643baf7","ios":"levelo://app?vid=137a0309-483f-4eb8-aeb6-68f81643baf7"},"vehicle_type_id":"4","last_reported":1687234080,"current_range_meters":23600,"station_id":"ce4bgt12rcd13ifvqcd0","pricing_plan_id":"free"},{"bike_id":"2e3d5ebf-1a6e-4f0c-8da3-aad7e66ad21d","system_id":"levelo_inurba_marseille","lat":43.314811,"lon":5.373104,"is_reserved":false,"is_disabled":false,"rental_uris":{"android":"levelo://app?vid=2e3d5ebf-1a6e-4f0c-8da3-aad7e66ad21d","ios":"levelo://app?vid=2e3d5ebf-1a6e-4f0c-8da3-aad7e66ad21d"},"vehicle_type_id":"4","last_reported":1687234080,"current_range_meters":22400,"station_id":"ce4bgt12rcd13ifvqcd0","pricing_plan_id":"free"},{"bike_id":"b2076277-6f6e-48a0-8f4c-5fb4ddf9d4c2","system_id":"levelo_inurba_marseille","lat":43.31497,"lon":5.37305,"is_reserved":false,"is_disabled":false,"rental_uris":{"android":"levelo://app?vid=b2076277-6f6e-48a0-8f4c-5fb4ddf9d4c2","ios":"levelo://app?vid=b2076277-6f6e-48a0-8f4c-5fb4ddf9d4c2"},"vehicle_type_id":"4","last_reported":1687234080,"current_range_meters":18000,"station_id":"ce4bgt12rcd13ifvqcd0","pricing_plan_id":"free"},{"bike_id":"7422c8df-2844-438c-b770-fa58bc67aba9","system_id":"levelo_inurba_marseille","lat":43.314811,"lon":5.373104,"is_reserved":false,"is_disabled":false,"rental_uris":{"android":"levelo://app?vid=7422c8df-2844-438c-b770-fa58bc67aba9","ios":"levelo://app?vid=7422c8df-2844-438c-b770-fa58bc67aba9"},"vehicle_type_id":"4","last_reported":1687234080,"current_range_meters":12000,"station_id":"ce4bgt12rcd13ifvqcd0","pricing_plan_id":"free"},{"bike_id":"8eb4f7ae-5c24-4793-902b-5e4a4b7ce449","system_id":"levelo_inurba_marseille","lat":43.314811,"lon":5.373104,"is_reserved":false,"is_disabled":false,"rental_uris":{"android":"levelo://app?vid=8eb4f7ae-5c24-4793-902b-5e4a4b7ce449","ios":"levelo://app?vid=8eb4f7ae-5c24-4793-902b-5e4a4b7ce449"},"vehicle_type_id":"4","last_reported":1687234080,"current_range_meters":31600,"station_id":"ce4bgt12rcd13ifvqcd0","pricing_plan_id":"free"},{"bike_id":"06c27853-0f16-430d-bb22-1c9e20a5e245","system_id":"levelo_inurba_marseille","lat":43.308606,"lon":5.372099,"is_reserved":false,"is_disabled":false,"rental_uris":{"android":"levelo://app?vid=06c27853-0f16-430d-bb22-1c9e20a5e245","ios":"levelo://app?vid=06c27853-0f16-430d-bb22-1c9e20a5e245"},"vehicle_type_id":"4","last_reported":1687234080,"current_range_meters":31200,"station_id":"ce4bguh2rcd13ifvqckg","pricing_plan_id":"free"},{"bike_id":"2963c540-5bdc-41aa-a95b-311ddfa4f71b","system_id":"levelo_inurba_marseille","lat":43.308606,"lon":5.372099,"is_reserved":false,"is_disabled":false,"rental_uris":{"android":"levelo://app?vid=2963c540-5bdc-41aa-a95b-311ddfa4f71b","ios":"levelo://app?vid=2963c540-5bdc-41aa-a95b-311ddfa4f71b"},"vehicle_type_id":"4","last_reported":1687234080,"current_range_meters":26000,"station_id":"ce4bguh2rcd13ifvqckg","pricing_plan_id":"free"},{"bike_id":"d49577d8-3a53-45aa-b030-0021d1b84b3f","system_id":"levelo_inurba_marseille","lat":43.308614,"lon":5.372098,"is_reserved":false,"is_disabled":false,"rental_uris":{"android":"levelo://app?vid=d49577d8-3a53-45aa-b030-0021d1b84b3f","ios":"levelo://app?vid=d49577d8-3a53-45aa-b030-0021d1b84b3f"},"vehicle_type_id":"4","last_reported":1687234080,"current_range_meters":30000,"station_id":"ce4bguh2rcd13ifvqckg","pricing_plan_id":"free"},{"bike_id":"72e97874-5dca-4d46-9fbe-9ed96597e2aa","system_id":"levelo_inurba_marseille","lat":43.305368,"lon":5.367343,"is_reserved":false,"is_disabled":false,"rental_uris":{"android":"levelo://app?vid=72e97874-5dca-4d46-9fbe-9ed96597e2aa","ios":"levelo://app?vid=72e97874-5dca-4d46-9fbe-9ed96597e2aa"},"vehicle_type_id":"4","last_reported":1687234080,"current_range_meters":12800,"station_id":"ce4bgrp2rcd13ifvqc9g","pricing_plan_id":"free"},{"bike_id":"1d675a29-6bc8-4895-aaff-3026fa3a2058","system_id":"levelo_inurba_marseille","lat":43.305368,"lon":5.367343,"is_reserved":false,"is_disabled":false,"rental_uris":{"android":"levelo://app?vid=1d675a29-6bc8-4895-aaff-3026fa3a2058","ios":"levelo://app?vid=1d675a29-6bc8-4895-aaff-3026fa3a2058"},"vehicle_type_id":"4","last_reported":1687234080,"current_range_meters":10400,"station_id":"ce4bgrp2rcd13ifvqc9g","pricing_plan_id":"free"},{"bike_id":"6a461156-e10e-425b-a099-e65a64447019","system_id":"levelo_inurba_marseille","lat":43.305714,"lon":5.365633,"is_reserved":false,"is_disabled":false,"rental_uris":{"android":"levelo://app?vid=6a461156-e10e-425b-a099-e65a64447019","ios":"levelo://app?vid=6a461156-e10e-425b-a099-e65a64447019"},"vehicle_type_id":"4","last_reported":1687234080,"current_range_meters":27600,"station_id":"ce4bgs12rcd13ifvqcag","pricing_plan_id":"free"},{"bike_id":"a5b43037-3036-4847-853a-8c8071f5a1a1","system_id":"levelo_inurba_marseille","lat":43.30612,"lon":5.37226,"is_reserved":false,"is_disabled":false,"rental_uris":{"android":"levelo://app?vid=a5b43037-3036-4847-853a-8c8071f5a1a1","ios":"levelo://app?vid=a5b43037-3036-4847-853a-8c8071f5a1a1"},"vehicle_type_id":"4","last_reported":1687234080,"current_range_meters":29600,"station_id":"ce4bgqh2rcd13ifvqc4g","pricing_plan_id":"free"},{"bike_id":"e30593ef-04e1-4f02-a136-505b738937e8","system_id":"levelo_inurba_marseille","lat":43.303046,"lon":5.368981,"is_reserved":false,"is_disabled":false,"rental_uris":{"android":"levelo://app?vid=e30593ef-04e1-4f02-a136-505b738937e8","ios":"levelo://app?vid=e30593ef-04e1-4f02-a136-505b738937e8"},"vehicle_type_id":"4","last_reported":1687234080,"current_range_meters":30000,"station_id":"ce4bgqh2rcd13ifvqc5g","pricing_plan_id":"free"},{"bike_id":"b3616870-6e9b-470d-9350-de81ad51df5c","system_id":"levelo_inurba_marseille","lat":43.303046,"lon":5.368981,"is_reserved":false,"is_disabled":false,"rental_uris":{"android":"levelo://app?vid=b3616870-6e9b-470d-9350-de81ad51df5c","ios":"levelo://app?vid=b3616870-6e9b-470d-9350-de81ad51df5c"},"vehicle_type_id":"4","last_reported":1687234080,"current_range_meters":22000,"station_id":"ce4bgqh2rcd13ifvqc5g","pricing_plan_id":"free"},{"bike_id":"536aa6d1-2fff-4da9-bfcf-a832b4d4c64b","system_id":"levelo_inurba_marseille","lat":43.303046,"lon":5.368981,"is_reserved":false,"is_disabled":false,"rental_uris":{"android":"levelo://app?vid=536aa6d1-2fff-4da9-bfcf-a832b4d4c64b","ios":"levelo://app?vid=536aa6d1-2fff-4da9-bfcf-a832b4d4c64b"},"vehicle_type_id":"4","last_reported":1687234080,"current_range_meters":19200,"station_id":"ce4bgqh2rcd13ifvqc5g","pricing_plan_id":"free"},{"bike_id":"10fbac96-846a-428f-a965-89e18baa6135","system_id":"levelo_inurba_marseille","lat":43.303046,"lon":5.368981,"is_reserved":false,"is_disabled":false,"rental_uris":{"android":"levelo://app?vid=10fbac96-846a-428f-a965-89e18baa6135","ios":"levelo://app?vid=10fbac96-846a-428f-a965-89e18baa6135"},"vehicle_type_id":"4","last_reported":1687234080,"current_range_meters":14400,"station_id":"ce4bgqh2rcd13ifvqc5g","pricing_plan_id":"free"},{"bike_id":"d50e398f-526f-480a-8e93-55c9d1998908","system_id":"levelo_inurba_marseille","lat":43.303046,"lon":5.368981,"is_reserved":false,"is_disabled":false,"rental_uris":{"android":"levelo://app?vid=d50e398f-526f-480a-8e93-55c9d1998908","ios":"levelo://app?vid=d50e398f-526f-480a-8e93-55c9d1998908"},"vehicle_type_id":"4","last_reported":1687234080,"current_range_meters":21600,"station_id":"ce4bgqh2rcd13ifvqc5g","pricing_plan_id":"free"},{"bike_id":"041bc147-ef2f-419b-bb81-deca3bdf89e2","system_id":"levelo_inurba_marseille","lat":43.30292,"lon":5.36644,"is_reserved":false,"is_disabled":false,"rental_uris":{"android":"levelo://app?vid=041bc147-ef2f-419b-bb81-deca3bdf89e2","ios":"levelo://app?vid=041bc147-ef2f-419b-bb81-deca3bdf89e2"},"vehicle_type_id":"4","last_reported":1687234080,"current_range_meters":24800,"station_id":"","pricing_plan_id":"free"},{"bike_id":"831f0c2b-0a92-4cf5-b45a-df0c6626cd74","system_id":"levelo_inurba_marseille","lat":43.315289,"lon":5.380349,"is_reserved":false,"is_disabled":false,"rental_uris":{"android":"levelo://app?vid=831f0c2b-0a92-4cf5-b45a-df0c6626cd74","ios":"levelo://app?vid=831f0c2b-0a92-4cf5-b45a-df0c6626cd74"},"vehicle_type_id":"4","last_reported":1687234080,"current_range_meters":31200,"station_id":"ce4bhsp2rcd13ifvqi50","pricing_plan_id":"free"},{"bike_id":"9ad1cddf-b44e-42a0-9280-d2dc4c422719","system_id":"levelo_inurba_marseille","lat":43.315293,"lon":5.380349,"is_reserved":false,"is_disabled":false,"rental_uris":{"android":"levelo://app?vid=9ad1cddf-b44e-42a0-9280-d2dc4c422719","ios":"levelo://app?vid=9ad1cddf-b44e-42a0-9280-d2dc4c422719"},"vehicle_type_id":"4","last_reported":1687234080,"current_range_meters":30000,"station_id":"ce4bhsp2rcd13ifvqi50","pricing_plan_id":"free"},{"bike_id":"350e111f-76ac-4529-886d-a50ba4e4e989","system_id":"levelo_inurba_marseille","lat":43.315289,"lon":5.380349,"is_reserved":false,"is_disabled":false,"rental_uris":{"android":"levelo://app?vid=350e111f-76ac-4529-886d-a50ba4e4e989","ios":"levelo://app?vid=350e111f-76ac-4529-886d-a50ba4e4e989"},"vehicle_type_id":"4","last_reported":1687234080,"current_range_meters":12800,"station_id":"ce4bhsp2rcd13ifvqi50","pricing_plan_id":"free"},{"bike_id":"9f3152ac-3d04-45a6-aeba-d2071928c719","system_id":"levelo_inurba_marseille","lat":43.301939,"lon":5.366286,"is_reserved":false,"is_disabled":false,"rental_uris":{"android":"levelo://app?vid=9f3152ac-3d04-45a6-aeba-d2071928c719","ios":"levelo://app?vid=9f3152ac-3d04-45a6-aeba-d2071928c719"},"vehicle_type_id":"4","last_reported":1687234080,"current_range_meters":28400,"station_id":"ce4bgrh2rcd13ifvqc8g","pricing_plan_id":"free"},{"bike_id":"50756628-07ce-426f-906f-7f2385f021fe","system_id":"levelo_inurba_marseille","lat":43.301939,"lon":5.366286,"is_reserved":false,"is_disabled":false,"rental_uris":{"android":"levelo://app?vid=50756628-07ce-426f-906f-7f2385f021fe","ios":"levelo://app?vid=50756628-07ce-426f-906f-7f2385f021fe"},"vehicle_type_id":"4","last_reported":1687234080,"current_range_meters":19200,"station_id":"ce4bgrh2rcd13ifvqc8g","pricing_plan_id":"free"},{"bike_id":"60471ea9-21af-4b03-907b-114248b92ffd","system_id":"levelo_inurba_marseille","lat":43.30803,"lon":5.38142,"is_reserved":false,"is_disabled":false,"rental_uris":{"android":"levelo://app?vid=60471ea9-21af-4b03-907b-114248b92ffd","ios":"levelo://app?vid=60471ea9-21af-4b03-907b-114248b92ffd"},"vehicle_type_id":"4","last_reported":1687234080,"current_range_meters":31200,"station_id":"ce4bgt12rcd13ifvqce0","pricing_plan_id":"free"},{"bike_id":"9e68629c-2c65-4b88-b5f5-26792fdca2ff","system_id":"levelo_inurba_marseille","lat":43.308012,"lon":5.381511,"is_reserved":false,"is_disabled":false,"rental_uris":{"android":"levelo://app?vid=9e68629c-2c65-4b88-b5f5-26792fdca2ff","ios":"levelo://app?vid=9e68629c-2c65-4b88-b5f5-26792fdca2ff"},"vehicle_type_id":"4","last_reported":1687234080,"current_range_meters":25200,"station_id":"ce4bgt12rcd13ifvqce0","pricing_plan_id":"free"},{"bike_id":"67074e4b-15e9-48b0-b98b-f46ef814f9cf","system_id":"levelo_inurba_marseille","lat":43.30805,"lon":5.38154,"is_reserved":false,"is_disabled":false,"rental_uris":{"android":"levelo://app?vid=67074e4b-15e9-48b0-b98b-f46ef814f9cf","ios":"levelo://app?vid=67074e4b-15e9-48b0-b98b-f46ef814f9cf"},"vehicle_type_id":"4","last_reported":1687234080,"current_range_meters":27600,"station_id":"ce4bgt12rcd13ifvqce0","pricing_plan_id":"free"},{"bike_id":"16f80b40-6646-4ed2-aa70-bfa338f35c1d","system_id":"levelo_inurba_marseille","lat":43.30807,"lon":5.38156,"is_reserved":false,"is_disabled":false,"rental_uris":{"android":"levelo://app?vid=16f80b40-6646-4ed2-aa70-bfa338f35c1d","ios":"levelo://app?vid=16f80b40-6646-4ed2-aa70-bfa338f35c1d"},"vehicle_type_id":"4","last_reported":1687234080,"current_range_meters":22000,"station_id":"ce4bgt12rcd13ifvqce0","pricing_plan_id":"free"},{"bike_id":"ae33307b-fcd5-479b-9ae1-9002ed226c6e","system_id":"levelo_inurba_marseille","lat":43.308012,"lon":5.381511,"is_reserved":false,"is_disabled":false,"rental_uris":{"android":"levelo://app?vid=ae33307b-fcd5-479b-9ae1-9002ed226c6e","ios":"levelo://app?vid=ae33307b-fcd5-479b-9ae1-9002ed226c6e"},"vehicle_type_id":"4","last_reported":1687234080,"current_range_meters":22000,"station_id":"ce4bgt12rcd13ifvqce0","pricing_plan_id":"free"},{"bike_id":"8e83e4d5-c41b-4447-9d39-31bfd2458968","system_id":"levelo_inurba_marseille","lat":43.308012,"lon":5.381511,"is_reserved":false,"is_disabled":false,"rental_uris":{"android":"levelo://app?vid=8e83e4d5-c41b-4447-9d39-31bfd2458968","ios":"levelo://app?vid=8e83e4d5-c41b-4447-9d39-31bfd2458968"},"vehicle_type_id":"4","last_reported":1687234080,"current_range_meters":5200,"station_id":"ce4bgt12rcd13ifvqce0","pricing_plan_id":"free"},{"bike_id":"b4c6cca2-da58-4233-bdff-be743c51e6ae","system_id":"levelo_inurba_marseille","lat":43.30809,"lon":5.38163,"is_reserved":false,"is_disabled":false,"rental_uris":{"android":"levelo://app?vid=b4c6cca2-da58-4233-bdff-be743c51e6ae","ios":"levelo://app?vid=b4c6cca2-da58-4233-bdff-be743c51e6ae"},"vehicle_type_id":"4","last_reported":1687234080,"current_range_meters":30800,"station_id":"ce4bgt12rcd13ifvqce0","pricing_plan_id":"free"},{"bike_id":"94777804-2ffc-4f5d-baef-16a2f57ee7c9","system_id":"levelo_inurba_marseille","lat":43.308012,"lon":5.381511,"is_reserved":false,"is_disabled":false,"rental_uris":{"android":"levelo://app?vid=94777804-2ffc-4f5d-baef-16a2f57ee7c9","ios":"levelo://app?vid=94777804-2ffc-4f5d-baef-16a2f57ee7c9"},"vehicle_type_id":"4","last_reported":1687234080,"current_range_meters":28800,"station_id":"ce4bgt12rcd13ifvqce0","pricing_plan_id":"free"},{"bike_id":"38980e3b-9006-46a5-8ac7-fa90f97d80a3","system_id":"levelo_inurba_marseille","lat":43.30473,"lon":5.379,"is_reserved":false,"is_disabled":false,"rental_uris":{"android":"levelo://app?vid=38980e3b-9006-46a5-8ac7-fa90f97d80a3","ios":"levelo://app?vid=38980e3b-9006-46a5-8ac7-fa90f97d80a3"},"vehicle_type_id":"4","last_reported":1687234080,"current_range_meters":10400,"station_id":"ce4bgup2rcd13ifvqcn0","pricing_plan_id":"free"},{"bike_id":"0d24da2f-26f5-4fac-ab16-84ea53cede7b","system_id":"levelo_inurba_marseille","lat":43.304606,"lon":5.379026,"is_reserved":false,"is_disabled":false,"rental_uris":{"android":"levelo://app?vid=0d24da2f-26f5-4fac-ab16-84ea53cede7b","ios":"levelo://app?vid=0d24da2f-26f5-4fac-ab16-84ea53cede7b"},"vehicle_type_id":"4","last_reported":1687234080,"current_range_meters":29600,"station_id":"ce4bgup2rcd13ifvqcn0","pricing_plan_id":"free"},{"bike_id":"22ead2ed-cad1-4650-a6bf-718b36fe0fc5","system_id":"levelo_inurba_marseille","lat":43.304606,"lon":5.379026,"is_reserved":false,"is_disabled":false,"rental_uris":{"android":"levelo://app?vid=22ead2ed-cad1-4650-a6bf-718b36fe0fc5","ios":"levelo://app?vid=22ead2ed-cad1-4650-a6bf-718b36fe0fc5"},"vehicle_type_id":"4","last_reported":1687234080,"current_range_meters":25600,"station_id":"ce4bgup2rcd13ifvqcn0","pricing_plan_id":"free"},{"bike_id":"abf93cc9-0a58-4be8-a718-62037941dd08","system_id":"levelo_inurba_marseille","lat":43.304606,"lon":5.379026,"is_reserved":false,"is_disabled":false,"rental_uris":{"android":"levelo://app?vid=abf93cc9-0a58-4be8-a718-62037941dd08","ios":"levelo://app?vid=abf93cc9-0a58-4be8-a718-62037941dd08"},"vehicle_type_id":"4","last_reported":1687234080,"current_range_meters":31200,"station_id":"ce4bgup2rcd13ifvqcn0","pricing_plan_id":"free"},{"bike_id":"25dd3268-3357-4e36-9087-4a878cf58028","system_id":"levelo_inurba_marseille","lat":43.304606,"lon":5.379026,"is_reserved":false,"is_disabled":false,"rental_uris":{"android":"levelo://app?vid=25dd3268-3357-4e36-9087-4a878cf58028","ios":"levelo://app?vid=25dd3268-3357-4e36-9087-4a878cf58028"},"vehicle_type_id":"4","last_reported":1687234080,"current_range_meters":30000,"station_id":"ce4bgup2rcd13ifvqcn0","pricing_plan_id":"free"},{"bike_id":"0e43a0b1-1187-4fdf-a005-468d2cfd6c3c","system_id":"levelo_inurba_marseille","lat":43.304606,"lon":5.379026,"is_reserved":false,"is_disabled":false,"rental_uris":{"android":"levelo://app?vid=0e43a0b1-1187-4fdf-a005-468d2cfd6c3c","ios":"levelo://app?vid=0e43a0b1-1187-4fdf-a005-468d2cfd6c3c"},"vehicle_type_id":"4","last_reported":1687234080,"current_range_meters":29600,"station_id":"ce4bgup2rcd13ifvqcn0","pricing_plan_id":"free"},{"bike_id":"43fc693e-f2a9-4aec-8fd9-d094bb02cb70","system_id":"levelo_inurba_marseille","lat":43.304606,"lon":5.379026,"is_reserved":false,"is_disabled":false,"rental_uris":{"android":"levelo://app?vid=43fc693e-f2a9-4aec-8fd9-d094bb02cb70","ios":"levelo://app?vid=43fc693e-f2a9-4aec-8fd9-d094bb02cb70"},"vehicle_type_id":"4","last_reported":1687234080,"current_range_meters":11200,"station_id":"ce4bgup2rcd13ifvqcn0","pricing_plan_id":"free"},{"bike_id":"5b89dee5-55d8-44cd-a62b-38d5781772a9","system_id":"levelo_inurba_marseille","lat":43.304606,"lon":5.379026,"is_reserved":false,"is_disabled":false,"rental_uris":{"android":"levelo://app?vid=5b89dee5-55d8-44cd-a62b-38d5781772a9","ios":"levelo://app?vid=5b89dee5-55d8-44cd-a62b-38d5781772a9"},"vehicle_type_id":"4","last_reported":1687234080,"current_range_meters":32000,"station_id":"ce4bgup2rcd13ifvqcn0","pricing_plan_id":"free"},{"bike_id":"ae0cf722-361b-47b0-bba5-99c90f7706a0","system_id":"levelo_inurba_marseille","lat":43.304606,"lon":5.379026,"is_reserved":false,"is_disabled":false,"rental_uris":{"android":"levelo://app?vid=ae0cf722-361b-47b0-bba5-99c90f7706a0","ios":"levelo://app?vid=ae0cf722-361b-47b0-bba5-99c90f7706a0"},"vehicle_type_id":"4","last_reported":1687234080,"current_range_meters":31200,"station_id":"ce4bgup2rcd13ifvqcn0","pricing_plan_id":"free"},{"bike_id":"ad78f6b0-fc16-4e7f-91e3-95e50806ceb0","system_id":"levelo_inurba_marseille","lat":43.304606,"lon":5.379026,"is_reserved":false,"is_disabled":false,"rental_uris":{"android":"levelo://app?vid=ad78f6b0-fc16-4e7f-91e3-95e50806ceb0","ios":"levelo://app?vid=ad78f6b0-fc16-4e7f-91e3-95e50806ceb0"},"vehicle_type_id":"4","last_reported":1687234080,"current_range_meters":26000,"station_id":"ce4bgup2rcd13ifvqcn0","pricing_plan_id":"free"},{"bike_id":"15cd2ec9-f0a4-428a-aa43-ee3a45d8c3e5","system_id":"levelo_inurba_marseille","lat":43.304606,"lon":5.379026,"is_reserved":false,"is_disabled":false,"rental_uris":{"android":"levelo://app?vid=15cd2ec9-f0a4-428a-aa43-ee3a45d8c3e5","ios":"levelo://app?vid=15cd2ec9-f0a4-428a-aa43-ee3a45d8c3e5"},"vehicle_type_id":"4","last_reported":1687234080,"current_range_meters":18800,"station_id":"ce4bgup2rcd13ifvqcn0","pricing_plan_id":"free"},{"bike_id":"abda6abd-e2e1-4feb-a9a7-aff0add6f9d9","system_id":"levelo_inurba_marseille","lat":43.302784,"lon":5.377158,"is_reserved":false,"is_disabled":false,"rental_uris":{"android":"levelo://app?vid=abda6abd-e2e1-4feb-a9a7-aff0add6f9d9","ios":"levelo://app?vid=abda6abd-e2e1-4feb-a9a7-aff0add6f9d9"},"vehicle_type_id":"4","last_reported":1687234080,"current_range_meters":0,"station_id":"ce4bguh2rcd13ifvqcj0","pricing_plan_id":"free"},{"bike_id":"8846a4b4-eb37-461c-9af6-3503a780d1c9","system_id":"levelo_inurba_marseille","lat":43.30757,"lon":5.38272,"is_reserved":false,"is_disabled":false,"rental_uris":{"android":"levelo://app?vid=8846a4b4-eb37-461c-9af6-3503a780d1c9","ios":"levelo://app?vid=8846a4b4-eb37-461c-9af6-3503a780d1c9"},"vehicle_type_id":"4","last_reported":1687234080,"current_range_meters":14400,"station_id":"","pricing_plan_id":"free"},{"bike_id":"ea9f4970-3490-42d1-a626-36ba0a329376","system_id":"levelo_inurba_marseille","lat":43.319935,"lon":5.381699,"is_reserved":false,"is_disabled":false,"rental_uris":{"android":"levelo://app?vid=ea9f4970-3490-42d1-a626-36ba0a329376","ios":"levelo://app?vid=ea9f4970-3490-42d1-a626-36ba0a329376"},"vehicle_type_id":"4","last_reported":1687234080,"current_range_meters":21600,"station_id":"ce4bhr12rcd13ifvqhpg","pricing_plan_id":"free"},{"bike_id":"eac4fdb1-d9fc-4586-99a2-e76dee7094c8","system_id":"levelo_inurba_marseille","lat":43.319935,"lon":5.381699,"is_reserved":false,"is_disabled":false,"rental_uris":{"android":"levelo://app?vid=eac4fdb1-d9fc-4586-99a2-e76dee7094c8","ios":"levelo://app?vid=eac4fdb1-d9fc-4586-99a2-e76dee7094c8"},"vehicle_type_id":"4","last_reported":1687234080,"current_range_meters":0,"station_id":"ce4bhr12rcd13ifvqhpg","pricing_plan_id":"free"},{"bike_id":"f6f06f4d-9e61-429d-8e0c-6d80111fde07","system_id":"levelo_inurba_marseille","lat":43.313571,"lon":5.384829,"is_reserved":false,"is_disabled":false,"rental_uris":{"android":"levelo://app?vid=f6f06f4d-9e61-429d-8e0c-6d80111fde07","ios":"levelo://app?vid=f6f06f4d-9e61-429d-8e0c-6d80111fde07"},"vehicle_type_id":"4","last_reported":1687234080,"current_range_meters":30800,"station_id":"ce4bgt92rcd13ifvqcf0","pricing_plan_id":"free"},{"bike_id":"3c02d99c-9557-4d58-bd82-5b1002bea1b5","system_id":"levelo_inurba_marseille","lat":43.313571,"lon":5.384829,"is_reserved":false,"is_disabled":false,"rental_uris":{"android":"levelo://app?vid=3c02d99c-9557-4d58-bd82-5b1002bea1b5","ios":"levelo://app?vid=3c02d99c-9557-4d58-bd82-5b1002bea1b5"},"vehicle_type_id":"4","last_reported":1687234080,"current_range_meters":28800,"station_id":"ce4bgt92rcd13ifvqcf0","pricing_plan_id":"free"},{"bike_id":"63a7e1fc-bb42-4f24-869f-824797fbb170","system_id":"levelo_inurba_marseille","lat":43.313571,"lon":5.384829,"is_reserved":false,"is_disabled":false,"rental_uris":{"android":"levelo://app?vid=63a7e1fc-bb42-4f24-869f-824797fbb170","ios":"levelo://app?vid=63a7e1fc-bb42-4f24-869f-824797fbb170"},"vehicle_type_id":"4","last_reported":1687234080,"current_range_meters":31200,"station_id":"ce4bgt92rcd13ifvqcf0","pricing_plan_id":"free"},{"bike_id":"b68c77c6-9c35-445c-89a4-68b99316ff1d","system_id":"levelo_inurba_marseille","lat":43.313571,"lon":5.384829,"is_reserved":false,"is_disabled":false,"rental_uris":{"android":"levelo://app?vid=b68c77c6-9c35-445c-89a4-68b99316ff1d","ios":"levelo://app?vid=b68c77c6-9c35-445c-89a4-68b99316ff1d"},"vehicle_type_id":"4","last_reported":1687234080,"current_range_meters":31200,"station_id":"ce4bgt92rcd13ifvqcf0","pricing_plan_id":"free"},{"bike_id":"3c2bf9d3-8062-4b0d-998d-837d7e8af2fe","system_id":"levelo_inurba_marseille","lat":43.299222,"lon":5.365554,"is_reserved":false,"is_disabled":false,"rental_uris":{"android":"levelo://app?vid=3c2bf9d3-8062-4b0d-998d-837d7e8af2fe","ios":"levelo://app?vid=3c2bf9d3-8062-4b0d-998d-837d7e8af2fe"},"vehicle_type_id":"4","last_reported":1687234080,"current_range_meters":5200,"station_id":"ce4bgm92rcd13ifvqbr0","pricing_plan_id":"free"},{"bike_id":"afe272d3-9029-4f24-a4dc-0295963aa8ae","system_id":"levelo_inurba_marseille","lat":43.31073,"lon":5.38666,"is_reserved":false,"is_disabled":false,"rental_uris":{"android":"levelo://app?vid=afe272d3-9029-4f24-a4dc-0295963aa8ae","ios":"levelo://app?vid=afe272d3-9029-4f24-a4dc-0295963aa8ae"},"vehicle_type_id":"4","last_reported":1687234080,"current_range_meters":4800,"station_id":"","pricing_plan_id":"free"},{"bike_id":"d3b2b730-7f79-4c0a-9ac5-440c2dacca70","system_id":"levelo_inurba_marseille","lat":43.29852,"lon":5.36281,"is_reserved":false,"is_disabled":false,"rental_uris":{"android":"levelo://app?vid=d3b2b730-7f79-4c0a-9ac5-440c2dacca70","ios":"levelo://app?vid=d3b2b730-7f79-4c0a-9ac5-440c2dacca70"},"vehicle_type_id":"4","last_reported":1687234080,"current_range_meters":29600,"station_id":"ce4bgpp2rcd13ifvqc3g","pricing_plan_id":"free"},{"bike_id":"583d4fa3-9e4e-4248-8872-1718c110a22d","system_id":"levelo_inurba_marseille","lat":43.298433,"lon":5.362774,"is_reserved":false,"is_disabled":false,"rental_uris":{"android":"levelo://app?vid=583d4fa3-9e4e-4248-8872-1718c110a22d","ios":"levelo://app?vid=583d4fa3-9e4e-4248-8872-1718c110a22d"},"vehicle_type_id":"4","last_reported":1687234080,"current_range_meters":22400,"station_id":"ce4bgpp2rcd13ifvqc3g","pricing_plan_id":"free"},{"bike_id":"64ef030d-33f5-47af-98d4-2a0698b00449","system_id":"levelo_inurba_marseille","lat":43.305364,"lon":5.384119,"is_reserved":false,"is_disabled":false,"rental_uris":{"android":"levelo://app?vid=64ef030d-33f5-47af-98d4-2a0698b00449","ios":"levelo://app?vid=64ef030d-33f5-47af-98d4-2a0698b00449"},"vehicle_type_id":"4","last_reported":1687234080,"current_range_meters":31200,"station_id":"ce4bgg92rcd13ifvqb30","pricing_plan_id":"free"},{"bike_id":"aab4c27b-a5e5-401c-9248-2b503cdeca40","system_id":"levelo_inurba_marseille","lat":43.305364,"lon":5.384119,"is_reserved":false,"is_disabled":false,"rental_uris":{"android":"levelo://app?vid=aab4c27b-a5e5-401c-9248-2b503cdeca40","ios":"levelo://app?vid=aab4c27b-a5e5-401c-9248-2b503cdeca40"},"vehicle_type_id":"4","last_reported":1687234080,"current_range_meters":31200,"station_id":"ce4bgg92rcd13ifvqb30","pricing_plan_id":"free"},{"bike_id":"433677f5-7d72-40a1-ad4f-4104d6aa2198","system_id":"levelo_inurba_marseille","lat":43.305364,"lon":5.384119,"is_reserved":false,"is_disabled":false,"rental_uris":{"android":"levelo://app?vid=433677f5-7d72-40a1-ad4f-4104d6aa2198","ios":"levelo://app?vid=433677f5-7d72-40a1-ad4f-4104d6aa2198"},"vehicle_type_id":"4","last_reported":1687234080,"current_range_meters":4800,"station_id":"ce4bgg92rcd13ifvqb30","pricing_plan_id":"free"},{"bike_id":"acb547cb-7456-4573-ba83-c9be8a5e6999","system_id":"levelo_inurba_marseille","lat":43.311722,"lon":5.387247,"is_reserved":false,"is_disabled":false,"rental_uris":{"android":"levelo://app?vid=acb547cb-7456-4573-ba83-c9be8a5e6999","ios":"levelo://app?vid=acb547cb-7456-4573-ba83-c9be8a5e6999"},"vehicle_type_id":"4","last_reported":1687234080,"current_range_meters":31200,"station_id":"ce4bgv12rcd13ifvqcp0","pricing_plan_id":"free"},{"bike_id":"ed551a1d-28ad-435c-a319-316c408c0167","system_id":"levelo_inurba_marseille","lat":43.311722,"lon":5.387247,"is_reserved":false,"is_disabled":false,"rental_uris":{"android":"levelo://app?vid=ed551a1d-28ad-435c-a319-316c408c0167","ios":"levelo://app?vid=ed551a1d-28ad-435c-a319-316c408c0167"},"vehicle_type_id":"4","last_reported":1687234080,"current_range_meters":31200,"station_id":"ce4bgv12rcd13ifvqcp0","pricing_plan_id":"free"},{"bike_id":"e25eb3e7-6bc0-4f75-876d-fc1279f8397a","system_id":"levelo_inurba_marseille","lat":43.311722,"lon":5.387247,"is_reserved":false,"is_disabled":false,"rental_uris":{"android":"levelo://app?vid=e25eb3e7-6bc0-4f75-876d-fc1279f8397a","ios":"levelo://app?vid=e25eb3e7-6bc0-4f75-876d-fc1279f8397a"},"vehicle_type_id":"4","last_reported":1687234080,"current_range_meters":24400,"station_id":"ce4bgv12rcd13ifvqcp0","pricing_plan_id":"free"},{"bike_id":"1d5dbef4-a4a9-4763-b725-db3ae4bab209","system_id":"levelo_inurba_marseille","lat":43.311722,"lon":5.387247,"is_reserved":false,"is_disabled":false,"rental_uris":{"android":"levelo://app?vid=1d5dbef4-a4a9-4763-b725-db3ae4bab209","ios":"levelo://app?vid=1d5dbef4-a4a9-4763-b725-db3ae4bab209"},"vehicle_type_id":"4","last_reported":1687234080,"current_range_meters":29600,"station_id":"ce4bgv12rcd13ifvqcp0","pricing_plan_id":"free"},{"bike_id":"1d9994fd-02a0-45b7-ba0f-3d7f05be1570","system_id":"levelo_inurba_marseille","lat":43.311722,"lon":5.387247,"is_reserved":false,"is_disabled":false,"rental_uris":{"android":"levelo://app?vid=1d9994fd-02a0-45b7-ba0f-3d7f05be1570","ios":"levelo://app?vid=1d9994fd-02a0-45b7-ba0f-3d7f05be1570"},"vehicle_type_id":"4","last_reported":1687234080,"current_range_meters":28400,"station_id":"ce4bgv12rcd13ifvqcp0","pricing_plan_id":"free"},{"bike_id":"8b956eeb-a197-4f11-83b0-4421febc2180","system_id":"levelo_inurba_marseille","lat":43.311722,"lon":5.387247,"is_reserved":false,"is_disabled":false,"rental_uris":{"android":"levelo://app?vid=8b956eeb-a197-4f11-83b0-4421febc2180","ios":"levelo://app?vid=8b956eeb-a197-4f11-83b0-4421febc2180"},"vehicle_type_id":"4","last_reported":1687234080,"current_range_meters":31200,"station_id":"ce4bgv12rcd13ifvqcp0","pricing_plan_id":"free"},{"bike_id":"1a11a5b9-c05c-4471-9273-813e0ff26412","system_id":"levelo_inurba_marseille","lat":43.328371,"lon":5.366912,"is_reserved":false,"is_disabled":false,"rental_uris":{"android":"levelo://app?vid=1a11a5b9-c05c-4471-9273-813e0ff26412","ios":"levelo://app?vid=1a11a5b9-c05c-4471-9273-813e0ff26412"},"vehicle_type_id":"4","last_reported":1687234080,"current_range_meters":20800,"station_id":"ce4bhs92rcd13ifvqi0g","pricing_plan_id":"free"},{"bike_id":"b7074c3e-4ff6-4221-97e7-199682884fdf","system_id":"levelo_inurba_marseille","lat":43.32827,"lon":5.36688,"is_reserved":false,"is_disabled":false,"rental_uris":{"android":"levelo://app?vid=b7074c3e-4ff6-4221-97e7-199682884fdf","ios":"levelo://app?vid=b7074c3e-4ff6-4221-97e7-199682884fdf"},"vehicle_type_id":"4","last_reported":1687234080,"current_range_meters":15600,"station_id":"ce4bhs92rcd13ifvqi0g","pricing_plan_id":"free"},{"bike_id":"591fabbd-2131-4974-9bcf-990172c5e2c7","system_id":"levelo_inurba_marseille","lat":43.328371,"lon":5.366912,"is_reserved":false,"is_disabled":false,"rental_uris":{"android":"levelo://app?vid=591fabbd-2131-4974-9bcf-990172c5e2c7","ios":"levelo://app?vid=591fabbd-2131-4974-9bcf-990172c5e2c7"},"vehicle_type_id":"4","last_reported":1687234080,"current_range_meters":19600,"station_id":"ce4bhs92rcd13ifvqi0g","pricing_plan_id":"free"},{"bike_id":"46110d7c-5005-47be-93ca-493da82e7e10","system_id":"levelo_inurba_marseille","lat":43.328371,"lon":5.366912,"is_reserved":false,"is_disabled":false,"rental_uris":{"android":"levelo://app?vid=46110d7c-5005-47be-93ca-493da82e7e10","ios":"levelo://app?vid=46110d7c-5005-47be-93ca-493da82e7e10"},"vehicle_type_id":"4","last_reported":1687234080,"current_range_meters":14800,"station_id":"ce4bhs92rcd13ifvqi0g","pricing_plan_id":"free"},{"bike_id":"832e1273-fa14-42aa-b411-4f520f45589b","system_id":"levelo_inurba_marseille","lat":43.32834,"lon":5.36679,"is_reserved":false,"is_disabled":false,"rental_uris":{"android":"levelo://app?vid=832e1273-fa14-42aa-b411-4f520f45589b","ios":"levelo://app?vid=832e1273-fa14-42aa-b411-4f520f45589b"},"vehicle_type_id":"4","last_reported":1687234080,"current_range_meters":9200,"station_id":"ce4bhs92rcd13ifvqi0g","pricing_plan_id":"free"},{"bike_id":"176f4894-d7fc-460e-aa5d-7c8c1e206dc3","system_id":"levelo_inurba_marseille","lat":43.29703,"lon":5.36607,"is_reserved":false,"is_disabled":false,"rental_uris":{"android":"levelo://app?vid=176f4894-d7fc-460e-aa5d-7c8c1e206dc3","ios":"levelo://app?vid=176f4894-d7fc-460e-aa5d-7c8c1e206dc3"},"vehicle_type_id":"4","last_reported":1687234080,"current_range_meters":26400,"station_id":"ce4bgn12rcd13ifvqbt0","pricing_plan_id":"free"},{"bike_id":"cd19f817-f5ae-4d3f-92e2-19e4a5deaeb2","system_id":"levelo_inurba_marseille","lat":43.296131,"lon":5.370791,"is_reserved":false,"is_disabled":false,"rental_uris":{"android":"levelo://app?vid=cd19f817-f5ae-4d3f-92e2-19e4a5deaeb2","ios":"levelo://app?vid=cd19f817-f5ae-4d3f-92e2-19e4a5deaeb2"},"vehicle_type_id":"4","last_reported":1687234080,"current_range_meters":26800,"station_id":"ce4bgnh2rcd13ifvqc0g","pricing_plan_id":"free"},{"bike_id":"24f41ca5-b432-4feb-a0c8-a15026b97306","system_id":"levelo_inurba_marseille","lat":43.296131,"lon":5.370773,"is_reserved":false,"is_disabled":false,"rental_uris":{"android":"levelo://app?vid=24f41ca5-b432-4feb-a0c8-a15026b97306","ios":"levelo://app?vid=24f41ca5-b432-4feb-a0c8-a15026b97306"},"vehicle_type_id":"4","last_reported":1687234080,"current_range_meters":6000,"station_id":"ce4bgnh2rcd13ifvqc0g","pricing_plan_id":"free"},{"bike_id":"e394e8a3-8395-4593-825c-5dec0d725b94","system_id":"levelo_inurba_marseille","lat":43.296921,"lon":5.376579,"is_reserved":false,"is_disabled":false,"rental_uris":{"android":"levelo://app?vid=e394e8a3-8395-4593-825c-5dec0d725b94","ios":"levelo://app?vid=e394e8a3-8395-4593-825c-5dec0d725b94"},"vehicle_type_id":"4","last_reported":1687234080,"current_range_meters":24400,"station_id":"ce4bgkh2rcd13ifvqbl0","pricing_plan_id":"free"},{"bike_id":"9a5fbab1-5c74-411a-a2b0-72cfe1766a71","system_id":"levelo_inurba_marseille","lat":43.299028,"lon":5.381509,"is_reserved":false,"is_disabled":false,"rental_uris":{"android":"levelo://app?vid=9a5fbab1-5c74-411a-a2b0-72cfe1766a71","ios":"levelo://app?vid=9a5fbab1-5c74-411a-a2b0-72cfe1766a71"},"vehicle_type_id":"4","last_reported":1687234080,"current_range_meters":19200,"station_id":"ce4bgj12rcd13ifvqbc0","pricing_plan_id":"free"},{"bike_id":"6df9f1ca-04a7-4f5e-abf2-1bfd224073ee","system_id":"levelo_inurba_marseille","lat":43.299028,"lon":5.381509,"is_reserved":false,"is_disabled":false,"rental_uris":{"android":"levelo://app?vid=6df9f1ca-04a7-4f5e-abf2-1bfd224073ee","ios":"levelo://app?vid=6df9f1ca-04a7-4f5e-abf2-1bfd224073ee"},"vehicle_type_id":"4","last_reported":1687234080,"current_range_meters":31200,"station_id":"ce4bgj12rcd13ifvqbc0","pricing_plan_id":"free"},{"bike_id":"6255e25d-084f-4f38-a54d-c5c17bb632e2","system_id":"levelo_inurba_marseille","lat":43.299028,"lon":5.381509,"is_reserved":false,"is_disabled":false,"rental_uris":{"android":"levelo://app?vid=6255e25d-084f-4f38-a54d-c5c17bb632e2","ios":"levelo://app?vid=6255e25d-084f-4f38-a54d-c5c17bb632e2"},"vehicle_type_id":"4","last_reported":1687234080,"current_range_meters":31200,"station_id":"ce4bgj12rcd13ifvqbc0","pricing_plan_id":"free"},{"bike_id":"e66443af-087d-440a-9839-18f9d04b979c","system_id":"levelo_inurba_marseille","lat":43.299028,"lon":5.381509,"is_reserved":false,"is_disabled":false,"rental_uris":{"android":"levelo://app?vid=e66443af-087d-440a-9839-18f9d04b979c","ios":"levelo://app?vid=e66443af-087d-440a-9839-18f9d04b979c"},"vehicle_type_id":"4","last_reported":1687234080,"current_range_meters":30400,"station_id":"ce4bgj12rcd13ifvqbc0","pricing_plan_id":"free"},{"bike_id":"357152ca-d452-4a19-a891-02f3b84ad248","system_id":"levelo_inurba_marseille","lat":43.309589,"lon":5.390258,"is_reserved":false,"is_disabled":false,"rental_uris":{"android":"levelo://app?vid=357152ca-d452-4a19-a891-02f3b84ad248","ios":"levelo://app?vid=357152ca-d452-4a19-a891-02f3b84ad248"},"vehicle_type_id":"4","last_reported":1687234080,"current_range_meters":30000,"station_id":"ce4bgup2rcd13ifvqco0","pricing_plan_id":"free"},{"bike_id":"81a8a4d3-1664-4b59-9ab3-ca582b4ff89d","system_id":"levelo_inurba_marseille","lat":43.309589,"lon":5.390258,"is_reserved":false,"is_disabled":false,"rental_uris":{"android":"levelo://app?vid=81a8a4d3-1664-4b59-9ab3-ca582b4ff89d","ios":"levelo://app?vid=81a8a4d3-1664-4b59-9ab3-ca582b4ff89d"},"vehicle_type_id":"4","last_reported":1687234080,"current_range_meters":30000,"station_id":"ce4bgup2rcd13ifvqco0","pricing_plan_id":"free"},{"bike_id":"7c5e2e4e-b55d-4a25-81f7-3fee8f440ba9","system_id":"levelo_inurba_marseille","lat":43.309589,"lon":5.390258,"is_reserved":false,"is_disabled":false,"rental_uris":{"android":"levelo://app?vid=7c5e2e4e-b55d-4a25-81f7-3fee8f440ba9","ios":"levelo://app?vid=7c5e2e4e-b55d-4a25-81f7-3fee8f440ba9"},"vehicle_type_id":"4","last_reported":1687234080,"current_range_meters":28800,"station_id":"ce4bgup2rcd13ifvqco0","pricing_plan_id":"free"},{"bike_id":"ab137c87-7b5d-4a6d-b139-0e4813e4842d","system_id":"levelo_inurba_marseille","lat":43.317557,"lon":5.390173,"is_reserved":false,"is_disabled":false,"rental_uris":{"android":"levelo://app?vid=ab137c87-7b5d-4a6d-b139-0e4813e4842d","ios":"levelo://app?vid=ab137c87-7b5d-4a6d-b139-0e4813e4842d"},"vehicle_type_id":"4","last_reported":1687234080,"current_range_meters":28400,"station_id":"ce4bhqp2rcd13ifvqhng","pricing_plan_id":"free"},{"bike_id":"34e2d3aa-169c-4af3-8480-807be04aae36","system_id":"levelo_inurba_marseille","lat":43.3176,"lon":5.39017,"is_reserved":false,"is_disabled":false,"rental_uris":{"android":"levelo://app?vid=34e2d3aa-169c-4af3-8480-807be04aae36","ios":"levelo://app?vid=34e2d3aa-169c-4af3-8480-807be04aae36"},"vehicle_type_id":"4","last_reported":1687234080,"current_range_meters":30000,"station_id":"ce4bhqp2rcd13ifvqhng","pricing_plan_id":"free"},{"bike_id":"734ce217-e6fb-41df-bb44-4b53bd35a53a","system_id":"levelo_inurba_marseille","lat":43.317557,"lon":5.390173,"is_reserved":false,"is_disabled":false,"rental_uris":{"android":"levelo://app?vid=734ce217-e6fb-41df-bb44-4b53bd35a53a","ios":"levelo://app?vid=734ce217-e6fb-41df-bb44-4b53bd35a53a"},"vehicle_type_id":"4","last_reported":1687234080,"current_range_meters":30400,"station_id":"ce4bhqp2rcd13ifvqhng","pricing_plan_id":"free"},{"bike_id":"cc372352-cc0b-4935-a919-6dd001b39894","system_id":"levelo_inurba_marseille","lat":43.317557,"lon":5.390173,"is_reserved":false,"is_disabled":false,"rental_uris":{"android":"levelo://app?vid=cc372352-cc0b-4935-a919-6dd001b39894","ios":"levelo://app?vid=cc372352-cc0b-4935-a919-6dd001b39894"},"vehicle_type_id":"4","last_reported":1687234080,"current_range_meters":30400,"station_id":"ce4bhqp2rcd13ifvqhng","pricing_plan_id":"free"},{"bike_id":"2972d94b-e79f-44d2-ac59-c019c0924ae0","system_id":"levelo_inurba_marseille","lat":43.298037,"lon":5.381066,"is_reserved":false,"is_disabled":false,"rental_uris":{"android":"levelo://app?vid=2972d94b-e79f-44d2-ac59-c019c0924ae0","ios":"levelo://app?vid=2972d94b-e79f-44d2-ac59-c019c0924ae0"},"vehicle_type_id":"4","last_reported":1687234080,"current_range_meters":28400,"station_id":"ce4bgip2rcd13ifvqbb0","pricing_plan_id":"free"},{"bike_id":"6a780fbc-e77d-4037-8ef5-736147c9667f","system_id":"levelo_inurba_marseille","lat":43.304278,"lon":5.388868,"is_reserved":false,"is_disabled":false,"rental_uris":{"android":"levelo://app?vid=6a780fbc-e77d-4037-8ef5-736147c9667f","ios":"levelo://app?vid=6a780fbc-e77d-4037-8ef5-736147c9667f"},"vehicle_type_id":"4","last_reported":1687234080,"current_range_meters":19600,"station_id":"ce4bgk12rcd13ifvqbi0","pricing_plan_id":"free"},{"bike_id":"250c8a96-8498-4211-b8f3-1b00a8d1fbaf","system_id":"levelo_inurba_marseille","lat":43.296477,"lon":5.37768,"is_reserved":false,"is_disabled":false,"rental_uris":{"android":"levelo://app?vid=250c8a96-8498-4211-b8f3-1b00a8d1fbaf","ios":"levelo://app?vid=250c8a96-8498-4211-b8f3-1b00a8d1fbaf"},"vehicle_type_id":"4","last_reported":1687234080,"current_range_meters":6400,"station_id":"","pricing_plan_id":"free"},{"bike_id":"b7b1d109-f109-46f0-bcde-562f2f46f0be","system_id":"levelo_inurba_marseille","lat":43.304274,"lon":5.388873,"is_reserved":false,"is_disabled":false,"rental_uris":{"android":"levelo://app?vid=b7b1d109-f109-46f0-bcde-562f2f46f0be","ios":"levelo://app?vid=b7b1d109-f109-46f0-bcde-562f2f46f0be"},"vehicle_type_id":"4","last_reported":1687234080,"current_range_meters":20400,"station_id":"ce4bgk12rcd13ifvqbi0","pricing_plan_id":"free"},{"bike_id":"0834cc4b-31f2-402e-b000-a0a945d6fd62","system_id":"levelo_inurba_marseille","lat":43.304278,"lon":5.388868,"is_reserved":false,"is_disabled":false,"rental_uris":{"android":"levelo://app?vid=0834cc4b-31f2-402e-b000-a0a945d6fd62","ios":"levelo://app?vid=0834cc4b-31f2-402e-b000-a0a945d6fd62"},"vehicle_type_id":"4","last_reported":1687234080,"current_range_meters":10400,"station_id":"ce4bgk12rcd13ifvqbi0","pricing_plan_id":"free"},{"bike_id":"f4fbe03e-eac6-463b-b960-be5be0495ba9","system_id":"levelo_inurba_marseille","lat":43.304278,"lon":5.388868,"is_reserved":false,"is_disabled":false,"rental_uris":{"android":"levelo://app?vid=f4fbe03e-eac6-463b-b960-be5be0495ba9","ios":"levelo://app?vid=f4fbe03e-eac6-463b-b960-be5be0495ba9"},"vehicle_type_id":"4","last_reported":1687234080,"current_range_meters":25600,"station_id":"ce4bgk12rcd13ifvqbi0","pricing_plan_id":"free"},{"bike_id":"168b0622-b91e-49e1-8869-59b61f72fb2a","system_id":"levelo_inurba_marseille","lat":43.304278,"lon":5.388868,"is_reserved":false,"is_disabled":false,"rental_uris":{"android":"levelo://app?vid=168b0622-b91e-49e1-8869-59b61f72fb2a","ios":"levelo://app?vid=168b0622-b91e-49e1-8869-59b61f72fb2a"},"vehicle_type_id":"4","last_reported":1687234080,"current_range_meters":31600,"station_id":"ce4bgk12rcd13ifvqbi0","pricing_plan_id":"free"},{"bike_id":"f3123879-7c95-4992-ac1d-4ee130f7f27b","system_id":"levelo_inurba_marseille","lat":43.304278,"lon":5.388868,"is_reserved":false,"is_disabled":false,"rental_uris":{"android":"levelo://app?vid=f3123879-7c95-4992-ac1d-4ee130f7f27b","ios":"levelo://app?vid=f3123879-7c95-4992-ac1d-4ee130f7f27b"},"vehicle_type_id":"4","last_reported":1687234080,"current_range_meters":6000,"station_id":"ce4bgk12rcd13ifvqbi0","pricing_plan_id":"free"},{"bike_id":"afb61759-8b03-4a6a-a393-439478444541","system_id":"levelo_inurba_marseille","lat":43.304239,"lon":5.388917,"is_reserved":false,"is_disabled":false,"rental_uris":{"android":"levelo://app?vid=afb61759-8b03-4a6a-a393-439478444541","ios":"levelo://app?vid=afb61759-8b03-4a6a-a393-439478444541"},"vehicle_type_id":"4","last_reported":1687234080,"current_range_meters":10400,"station_id":"ce4bh512rcd13ifvqe3g","pricing_plan_id":"free"},{"bike_id":"e6bfbbcf-06d7-48dd-9027-6cf2b2d59171","system_id":"levelo_inurba_marseille","lat":43.304278,"lon":5.388868,"is_reserved":false,"is_disabled":false,"rental_uris":{"android":"levelo://app?vid=e6bfbbcf-06d7-48dd-9027-6cf2b2d59171","ios":"levelo://app?vid=e6bfbbcf-06d7-48dd-9027-6cf2b2d59171"},"vehicle_type_id":"4","last_reported":1687234080,"current_range_meters":13600,"station_id":"ce4bgk12rcd13ifvqbi0","pricing_plan_id":"free"},{"bike_id":"eb56f040-d7e3-440c-9d05-82afe187dd21","system_id":"levelo_inurba_marseille","lat":43.299707,"lon":5.384859,"is_reserved":false,"is_disabled":false,"rental_uris":{"android":"levelo://app?vid=eb56f040-d7e3-440c-9d05-82afe187dd21","ios":"levelo://app?vid=eb56f040-d7e3-440c-9d05-82afe187dd21"},"vehicle_type_id":"4","last_reported":1687234080,"current_range_meters":29200,"station_id":"ce4bgj92rcd13ifvqbd0","pricing_plan_id":"free"},{"bike_id":"16209961-1473-44af-8408-8c2a8bb30c04","system_id":"levelo_inurba_marseille","lat":43.299717,"lon":5.384845,"is_reserved":false,"is_disabled":false,"rental_uris":{"android":"levelo://app?vid=16209961-1473-44af-8408-8c2a8bb30c04","ios":"levelo://app?vid=16209961-1473-44af-8408-8c2a8bb30c04"},"vehicle_type_id":"4","last_reported":1687234080,"current_range_meters":31200,"station_id":"ce4bgj92rcd13ifvqbd0","pricing_plan_id":"free"},{"bike_id":"59dc6b76-1837-4aee-b075-e81fc59c1c0d","system_id":"levelo_inurba_marseille","lat":43.304274,"lon":5.388873,"is_reserved":false,"is_disabled":false,"rental_uris":{"android":"levelo://app?vid=59dc6b76-1837-4aee-b075-e81fc59c1c0d","ios":"levelo://app?vid=59dc6b76-1837-4aee-b075-e81fc59c1c0d"},"vehicle_type_id":"4","last_reported":1687234080,"current_range_meters":16800,"station_id":"ce4bgk12rcd13ifvqbi0","pricing_plan_id":"free"},{"bike_id":"38245239-42c5-4246-a3d5-16426fb9ea5b","system_id":"levelo_inurba_marseille","lat":43.31006,"lon":5.39296,"is_reserved":false,"is_disabled":false,"rental_uris":{"android":"levelo://app?vid=38245239-42c5-4246-a3d5-16426fb9ea5b","ios":"levelo://app?vid=38245239-42c5-4246-a3d5-16426fb9ea5b"},"vehicle_type_id":"4","last_reported":1687234080,"current_range_meters":6800,"station_id":"","pricing_plan_id":"free"},{"bike_id":"242f7dc0-7208-40be-936a-13e7c5a1ade9","system_id":"levelo_inurba_marseille","lat":43.32367,"lon":5.388836,"is_reserved":false,"is_disabled":false,"rental_uris":{"android":"levelo://app?vid=242f7dc0-7208-40be-936a-13e7c5a1ade9","ios":"levelo://app?vid=242f7dc0-7208-40be-936a-13e7c5a1ade9"},"vehicle_type_id":"4","last_reported":1687234080,"current_range_meters":26400,"station_id":"ce4bhqp2rcd13ifvqhog","pricing_plan_id":"free"},{"bike_id":"554d461b-faf0-4249-b043-1ce5292e3cda","system_id":"levelo_inurba_marseille","lat":43.32367,"lon":5.388836,"is_reserved":false,"is_disabled":false,"rental_uris":{"android":"levelo://app?vid=554d461b-faf0-4249-b043-1ce5292e3cda","ios":"levelo://app?vid=554d461b-faf0-4249-b043-1ce5292e3cda"},"vehicle_type_id":"4","last_reported":1687234080,"current_range_meters":1600,"station_id":"ce4bhqp2rcd13ifvqhog","pricing_plan_id":"free"},{"bike_id":"30a91f8e-3923-4d3c-8115-7a1bd6f6db68","system_id":"levelo_inurba_marseille","lat":43.32367,"lon":5.388836,"is_reserved":false,"is_disabled":false,"rental_uris":{"android":"levelo://app?vid=30a91f8e-3923-4d3c-8115-7a1bd6f6db68","ios":"levelo://app?vid=30a91f8e-3923-4d3c-8115-7a1bd6f6db68"},"vehicle_type_id":"4","last_reported":1687234080,"current_range_meters":11200,"station_id":"ce4bhqp2rcd13ifvqhog","pricing_plan_id":"free"},{"bike_id":"2cca4f0a-b610-4e92-b2dc-25b7159f1dc6","system_id":"levelo_inurba_marseille","lat":43.32367,"lon":5.388836,"is_reserved":false,"is_disabled":false,"rental_uris":{"android":"levelo://app?vid=2cca4f0a-b610-4e92-b2dc-25b7159f1dc6","ios":"levelo://app?vid=2cca4f0a-b610-4e92-b2dc-25b7159f1dc6"},"vehicle_type_id":"4","last_reported":1687234080,"current_range_meters":7200,"station_id":"ce4bhqp2rcd13ifvqhog","pricing_plan_id":"free"},{"bike_id":"0106cff5-f8d2-44de-9c05-92c22f08b366","system_id":"levelo_inurba_marseille","lat":43.32367,"lon":5.388836,"is_reserved":false,"is_disabled":false,"rental_uris":{"android":"levelo://app?vid=0106cff5-f8d2-44de-9c05-92c22f08b366","ios":"levelo://app?vid=0106cff5-f8d2-44de-9c05-92c22f08b366"},"vehicle_type_id":"4","last_reported":1687234080,"current_range_meters":10800,"station_id":"ce4bhqp2rcd13ifvqhog","pricing_plan_id":"free"},{"bike_id":"fed0fa05-6563-4a2c-a686-a1bf0f63a977","system_id":"levelo_inurba_marseille","lat":43.32367,"lon":5.388836,"is_reserved":false,"is_disabled":false,"rental_uris":{"android":"levelo://app?vid=fed0fa05-6563-4a2c-a686-a1bf0f63a977","ios":"levelo://app?vid=fed0fa05-6563-4a2c-a686-a1bf0f63a977"},"vehicle_type_id":"4","last_reported":1687234080,"current_range_meters":30800,"station_id":"ce4bhqp2rcd13ifvqhog","pricing_plan_id":"free"},{"bike_id":"45121b16-aa60-4e03-96c8-7045ec622ae8","system_id":"levelo_inurba_marseille","lat":43.32367,"lon":5.388836,"is_reserved":false,"is_disabled":false,"rental_uris":{"android":"levelo://app?vid=45121b16-aa60-4e03-96c8-7045ec622ae8","ios":"levelo://app?vid=45121b16-aa60-4e03-96c8-7045ec622ae8"},"vehicle_type_id":"4","last_reported":1687234080,"current_range_meters":31200,"station_id":"ce4bhqp2rcd13ifvqhog","pricing_plan_id":"free"},{"bike_id":"b3af4213-6f75-4eeb-a9c5-95698eb70200","system_id":"levelo_inurba_marseille","lat":43.32367,"lon":5.388836,"is_reserved":false,"is_disabled":false,"rental_uris":{"android":"levelo://app?vid=b3af4213-6f75-4eeb-a9c5-95698eb70200","ios":"levelo://app?vid=b3af4213-6f75-4eeb-a9c5-95698eb70200"},"vehicle_type_id":"4","last_reported":1687234080,"current_range_meters":28800,"station_id":"ce4bhqp2rcd13ifvqhog","pricing_plan_id":"free"},{"bike_id":"924f5e2c-3798-48c5-a26b-4aa840da3bf3","system_id":"levelo_inurba_marseille","lat":43.32367,"lon":5.388836,"is_reserved":false,"is_disabled":false,"rental_uris":{"android":"levelo://app?vid=924f5e2c-3798-48c5-a26b-4aa840da3bf3","ios":"levelo://app?vid=924f5e2c-3798-48c5-a26b-4aa840da3bf3"},"vehicle_type_id":"4","last_reported":1687234080,"current_range_meters":23600,"station_id":"ce4bhqp2rcd13ifvqhog","pricing_plan_id":"free"},{"bike_id":"bca8b0cf-b064-4faa-a95c-40c903aac205","system_id":"levelo_inurba_marseille","lat":43.29307,"lon":5.37452,"is_reserved":false,"is_disabled":false,"rental_uris":{"android":"levelo://app?vid=bca8b0cf-b064-4faa-a95c-40c903aac205","ios":"levelo://app?vid=bca8b0cf-b064-4faa-a95c-40c903aac205"},"vehicle_type_id":"4","last_reported":1687234080,"current_range_meters":28400,"station_id":"ce4bgi12rcd13ifvqb70","pricing_plan_id":"free"},{"bike_id":"dbc2cadf-155d-41b5-8117-021a4980ad01","system_id":"levelo_inurba_marseille","lat":43.305994,"lon":5.393687,"is_reserved":false,"is_disabled":false,"rental_uris":{"android":"levelo://app?vid=dbc2cadf-155d-41b5-8117-021a4980ad01","ios":"levelo://app?vid=dbc2cadf-155d-41b5-8117-021a4980ad01"},"vehicle_type_id":"4","last_reported":1687234080,"current_range_meters":31200,"station_id":"ce4bh0p2rcd13ifvqd80","pricing_plan_id":"free"},{"bike_id":"f96bc5ef-773a-4c29-b818-b40707fecfaa","system_id":"levelo_inurba_marseille","lat":43.305994,"lon":5.393687,"is_reserved":false,"is_disabled":false,"rental_uris":{"android":"levelo://app?vid=f96bc5ef-773a-4c29-b818-b40707fecfaa","ios":"levelo://app?vid=f96bc5ef-773a-4c29-b818-b40707fecfaa"},"vehicle_type_id":"4","last_reported":1687234080,"current_range_meters":31200,"station_id":"ce4bh0p2rcd13ifvqd80","pricing_plan_id":"free"},{"bike_id":"31e9b52b-637e-4fe6-8843-73d931b1f83c","system_id":"levelo_inurba_marseille","lat":43.305994,"lon":5.393687,"is_reserved":false,"is_disabled":false,"rental_uris":{"android":"levelo://app?vid=31e9b52b-637e-4fe6-8843-73d931b1f83c","ios":"levelo://app?vid=31e9b52b-637e-4fe6-8843-73d931b1f83c"},"vehicle_type_id":"4","last_reported":1687234080,"current_range_meters":26400,"station_id":"ce4bh0p2rcd13ifvqd80","pricing_plan_id":"free"},{"bike_id":"a7bbc0f2-c46e-46d0-9906-5ebbcb7a7d84","system_id":"levelo_inurba_marseille","lat":43.305994,"lon":5.393687,"is_reserved":false,"is_disabled":false,"rental_uris":{"android":"levelo://app?vid=a7bbc0f2-c46e-46d0-9906-5ebbcb7a7d84","ios":"levelo://app?vid=a7bbc0f2-c46e-46d0-9906-5ebbcb7a7d84"},"vehicle_type_id":"4","last_reported":1687234080,"current_range_meters":20800,"station_id":"ce4bh0p2rcd13ifvqd80","pricing_plan_id":"free"},{"bike_id":"1860480f-dfbb-42e5-b4ee-caf7801dee17","system_id":"levelo_inurba_marseille","lat":43.305994,"lon":5.393687,"is_reserved":false,"is_disabled":false,"rental_uris":{"android":"levelo://app?vid=1860480f-dfbb-42e5-b4ee-caf7801dee17","ios":"levelo://app?vid=1860480f-dfbb-42e5-b4ee-caf7801dee17"},"vehicle_type_id":"4","last_reported":1687234080,"current_range_meters":12400,"station_id":"ce4bh0p2rcd13ifvqd80","pricing_plan_id":"free"},{"bike_id":"66b480a6-9947-4496-98e2-93e61a3244b4","system_id":"levelo_inurba_marseille","lat":43.305994,"lon":5.393687,"is_reserved":false,"is_disabled":false,"rental_uris":{"android":"levelo://app?vid=66b480a6-9947-4496-98e2-93e61a3244b4","ios":"levelo://app?vid=66b480a6-9947-4496-98e2-93e61a3244b4"},"vehicle_type_id":"4","last_reported":1687234080,"current_range_meters":30000,"station_id":"ce4bh0p2rcd13ifvqd80","pricing_plan_id":"free"},{"bike_id":"45dc7cd9-15da-4e12-aceb-443eb6bd37b9","system_id":"levelo_inurba_marseille","lat":43.305994,"lon":5.393687,"is_reserved":false,"is_disabled":false,"rental_uris":{"android":"levelo://app?vid=45dc7cd9-15da-4e12-aceb-443eb6bd37b9","ios":"levelo://app?vid=45dc7cd9-15da-4e12-aceb-443eb6bd37b9"},"vehicle_type_id":"4","last_reported":1687234080,"current_range_meters":29600,"station_id":"ce4bh0p2rcd13ifvqd80","pricing_plan_id":"free"},{"bike_id":"f56dd423-174a-459c-a9b5-a7f304653c65","system_id":"levelo_inurba_marseille","lat":43.305994,"lon":5.393687,"is_reserved":false,"is_disabled":false,"rental_uris":{"android":"levelo://app?vid=f56dd423-174a-459c-a9b5-a7f304653c65","ios":"levelo://app?vid=f56dd423-174a-459c-a9b5-a7f304653c65"},"vehicle_type_id":"4","last_reported":1687234080,"current_range_meters":5200,"station_id":"ce4bh0p2rcd13ifvqd80","pricing_plan_id":"free"},{"bike_id":"4aa88a26-d86b-4498-b62c-1957746e61c5","system_id":"levelo_inurba_marseille","lat":43.30304,"lon":5.39211,"is_reserved":false,"is_disabled":false,"rental_uris":{"android":"levelo://app?vid=4aa88a26-d86b-4498-b62c-1957746e61c5","ios":"levelo://app?vid=4aa88a26-d86b-4498-b62c-1957746e61c5"},"vehicle_type_id":"4","last_reported":1687234080,"current_range_meters":31200,"station_id":"ce4bgkh2rcd13ifvqbk0","pricing_plan_id":"free"},{"bike_id":"7ee8e857-e58f-4d0f-9ec8-cf55d6494b29","system_id":"levelo_inurba_marseille","lat":43.29265,"lon":5.35972,"is_reserved":false,"is_disabled":false,"rental_uris":{"android":"levelo://app?vid=7ee8e857-e58f-4d0f-9ec8-cf55d6494b29","ios":"levelo://app?vid=7ee8e857-e58f-4d0f-9ec8-cf55d6494b29"},"vehicle_type_id":"4","last_reported":1687234080,"current_range_meters":4800,"station_id":"","pricing_plan_id":"free"},{"bike_id":"80d20383-dc3e-4e21-9432-cbb862c560af","system_id":"levelo_inurba_marseille","lat":43.2936,"lon":5.37835,"is_reserved":false,"is_disabled":false,"rental_uris":{"android":"levelo://app?vid=80d20383-dc3e-4e21-9432-cbb862c560af","ios":"levelo://app?vid=80d20383-dc3e-4e21-9432-cbb862c560af"},"vehicle_type_id":"4","last_reported":1687234080,"current_range_meters":0,"station_id":"ce4bgjh2rcd13ifvqbf0","pricing_plan_id":"free"},{"bike_id":"2b743e15-9da0-4ae6-8622-d83d6ceb97d4","system_id":"levelo_inurba_marseille","lat":43.300852,"lon":5.390859,"is_reserved":false,"is_disabled":false,"rental_uris":{"android":"levelo://app?vid=2b743e15-9da0-4ae6-8622-d83d6ceb97d4","ios":"levelo://app?vid=2b743e15-9da0-4ae6-8622-d83d6ceb97d4"},"vehicle_type_id":"4","last_reported":1687234080,"current_range_meters":27600,"station_id":"ce4bh192rcd13ifvqdb0","pricing_plan_id":"free"},{"bike_id":"d871ee73-e2ea-493e-bafc-d0452f405f9d","system_id":"levelo_inurba_marseille","lat":43.292311,"lon":5.360731,"is_reserved":false,"is_disabled":false,"rental_uris":{"android":"levelo://app?vid=d871ee73-e2ea-493e-bafc-d0452f405f9d","ios":"levelo://app?vid=d871ee73-e2ea-493e-bafc-d0452f405f9d"},"vehicle_type_id":"4","last_reported":1687234080,"current_range_meters":15200,"station_id":"ce4bhbh2rcd13ifvqeqg","pricing_plan_id":"free"},{"bike_id":"296b5968-1a4e-484d-b3fd-ef98b521784d","system_id":"levelo_inurba_marseille","lat":43.300852,"lon":5.390859,"is_reserved":false,"is_disabled":false,"rental_uris":{"android":"levelo://app?vid=296b5968-1a4e-484d-b3fd-ef98b521784d","ios":"levelo://app?vid=296b5968-1a4e-484d-b3fd-ef98b521784d"},"vehicle_type_id":"4","last_reported":1687234080,"current_range_meters":31200,"station_id":"ce4bh192rcd13ifvqdb0","pricing_plan_id":"free"},{"bike_id":"b14ea612-4553-4144-aec5-9af5cdc302d3","system_id":"levelo_inurba_marseille","lat":43.300852,"lon":5.390859,"is_reserved":false,"is_disabled":false,"rental_uris":{"android":"levelo://app?vid=b14ea612-4553-4144-aec5-9af5cdc302d3","ios":"levelo://app?vid=b14ea612-4553-4144-aec5-9af5cdc302d3"},"vehicle_type_id":"4","last_reported":1687234080,"current_range_meters":30000,"station_id":"ce4bh192rcd13ifvqdb0","pricing_plan_id":"free"},{"bike_id":"97eb0006-7b79-487a-b208-c850ed65daa7","system_id":"levelo_inurba_marseille","lat":43.29872,"lon":5.38908,"is_reserved":false,"is_disabled":false,"rental_uris":{"android":"levelo://app?vid=97eb0006-7b79-487a-b208-c850ed65daa7","ios":"levelo://app?vid=97eb0006-7b79-487a-b208-c850ed65daa7"},"vehicle_type_id":"4","last_reported":1687234080,"current_range_meters":31200,"station_id":"ce4bh392rcd13ifvqdl0","pricing_plan_id":"free"},{"bike_id":"d38c5de4-1b75-44fb-88b5-eb30bcdcd7d0","system_id":"levelo_inurba_marseille","lat":43.313243,"lon":5.396843,"is_reserved":false,"is_disabled":false,"rental_uris":{"android":"levelo://app?vid=d38c5de4-1b75-44fb-88b5-eb30bcdcd7d0","ios":"levelo://app?vid=d38c5de4-1b75-44fb-88b5-eb30bcdcd7d0"},"vehicle_type_id":"4","last_reported":1687234080,"current_range_meters":23600,"station_id":"","pricing_plan_id":"free"},{"bike_id":"66858f7a-f534-41df-b787-12b95743dc45","system_id":"levelo_inurba_marseille","lat":43.30891,"lon":5.39642,"is_reserved":false,"is_disabled":false,"rental_uris":{"android":"levelo://app?vid=66858f7a-f534-41df-b787-12b95743dc45","ios":"levelo://app?vid=66858f7a-f534-41df-b787-12b95743dc45"},"vehicle_type_id":"4","last_reported":1687234080,"current_range_meters":31200,"station_id":"","pricing_plan_id":"free"},{"bike_id":"3f83e679-263b-458e-957e-d63719441c76","system_id":"levelo_inurba_marseille","lat":43.313291,"lon":5.396838,"is_reserved":false,"is_disabled":false,"rental_uris":{"android":"levelo://app?vid=3f83e679-263b-458e-957e-d63719441c76","ios":"levelo://app?vid=3f83e679-263b-458e-957e-d63719441c76"},"vehicle_type_id":"4","last_reported":1687234080,"current_range_meters":31200,"station_id":"ce4bgvp2rcd13ifvqcu0","pricing_plan_id":"free"},{"bike_id":"a81faee3-4c0a-43e2-9d66-555c28ab69e9","system_id":"levelo_inurba_marseille","lat":43.313291,"lon":5.396838,"is_reserved":false,"is_disabled":false,"rental_uris":{"android":"levelo://app?vid=a81faee3-4c0a-43e2-9d66-555c28ab69e9","ios":"levelo://app?vid=a81faee3-4c0a-43e2-9d66-555c28ab69e9"},"vehicle_type_id":"4","last_reported":1687234080,"current_range_meters":21600,"station_id":"ce4bgvp2rcd13ifvqcu0","pricing_plan_id":"free"},{"bike_id":"da837983-dad8-4798-a98a-cd4e35a3fd17","system_id":"levelo_inurba_marseille","lat":43.309038,"lon":5.396546,"is_reserved":false,"is_disabled":false,"rental_uris":{"android":"levelo://app?vid=da837983-dad8-4798-a98a-cd4e35a3fd17","ios":"levelo://app?vid=da837983-dad8-4798-a98a-cd4e35a3fd17"},"vehicle_type_id":"4","last_reported":1687234080,"current_range_meters":30400,"station_id":"ce4bh012rcd13ifvqcv0","pricing_plan_id":"free"},{"bike_id":"9c044758-9a0f-4c18-a046-77248135096f","system_id":"levelo_inurba_marseille","lat":43.309038,"lon":5.396546,"is_reserved":false,"is_disabled":false,"rental_uris":{"android":"levelo://app?vid=9c044758-9a0f-4c18-a046-77248135096f","ios":"levelo://app?vid=9c044758-9a0f-4c18-a046-77248135096f"},"vehicle_type_id":"4","last_reported":1687234080,"current_range_meters":16400,"station_id":"ce4bh012rcd13ifvqcv0","pricing_plan_id":"free"},{"bike_id":"e648c8a9-2c69-4d5a-a28e-8b5d9fc152d3","system_id":"levelo_inurba_marseille","lat":43.30882,"lon":5.39649,"is_reserved":false,"is_disabled":false,"rental_uris":{"android":"levelo://app?vid=e648c8a9-2c69-4d5a-a28e-8b5d9fc152d3","ios":"levelo://app?vid=e648c8a9-2c69-4d5a-a28e-8b5d9fc152d3"},"vehicle_type_id":"4","last_reported":1687234080,"current_range_meters":31200,"station_id":"ce4bh012rcd13ifvqcv0","pricing_plan_id":"free"},{"bike_id":"16825454-3f9b-4efa-ac4f-134480ead278","system_id":"levelo_inurba_marseille","lat":43.309038,"lon":5.396546,"is_reserved":false,"is_disabled":false,"rental_uris":{"android":"levelo://app?vid=16825454-3f9b-4efa-ac4f-134480ead278","ios":"levelo://app?vid=16825454-3f9b-4efa-ac4f-134480ead278"},"vehicle_type_id":"4","last_reported":1687234080,"current_range_meters":24000,"station_id":"ce4bh012rcd13ifvqcv0","pricing_plan_id":"free"},{"bike_id":"b9cf4c5e-b7bd-479b-a9d1-f3437f3216db","system_id":"levelo_inurba_marseille","lat":43.309038,"lon":5.396546,"is_reserved":false,"is_disabled":false,"rental_uris":{"android":"levelo://app?vid=b9cf4c5e-b7bd-479b-a9d1-f3437f3216db","ios":"levelo://app?vid=b9cf4c5e-b7bd-479b-a9d1-f3437f3216db"},"vehicle_type_id":"4","last_reported":1687234080,"current_range_meters":31200,"station_id":"ce4bh012rcd13ifvqcv0","pricing_plan_id":"free"},{"bike_id":"46b50c70-7124-4ac8-b85a-076d1d159446","system_id":"levelo_inurba_marseille","lat":43.30889,"lon":5.39653,"is_reserved":false,"is_disabled":false,"rental_uris":{"android":"levelo://app?vid=46b50c70-7124-4ac8-b85a-076d1d159446","ios":"levelo://app?vid=46b50c70-7124-4ac8-b85a-076d1d159446"},"vehicle_type_id":"4","last_reported":1687234080,"current_range_meters":25600,"station_id":"","pricing_plan_id":"free"},{"bike_id":"9c539148-0342-4ae4-bfcb-fafdbff067e2","system_id":"levelo_inurba_marseille","lat":43.309038,"lon":5.396546,"is_reserved":false,"is_disabled":false,"rental_uris":{"android":"levelo://app?vid=9c539148-0342-4ae4-bfcb-fafdbff067e2","ios":"levelo://app?vid=9c539148-0342-4ae4-bfcb-fafdbff067e2"},"vehicle_type_id":"4","last_reported":1687234080,"current_range_meters":24000,"station_id":"ce4bh012rcd13ifvqcv0","pricing_plan_id":"free"},{"bike_id":"a16adc19-1a18-48f8-8a12-b00d11d9e196","system_id":"levelo_inurba_marseille","lat":43.309038,"lon":5.396546,"is_reserved":false,"is_disabled":false,"rental_uris":{"android":"levelo://app?vid=a16adc19-1a18-48f8-8a12-b00d11d9e196","ios":"levelo://app?vid=a16adc19-1a18-48f8-8a12-b00d11d9e196"},"vehicle_type_id":"4","last_reported":1687234080,"current_range_meters":23200,"station_id":"ce4bh012rcd13ifvqcv0","pricing_plan_id":"free"},{"bike_id":"bc176c9f-0272-49a5-9cfa-debe67a3910d","system_id":"levelo_inurba_marseille","lat":43.309038,"lon":5.396546,"is_reserved":false,"is_disabled":false,"rental_uris":{"android":"levelo://app?vid=bc176c9f-0272-49a5-9cfa-debe67a3910d","ios":"levelo://app?vid=bc176c9f-0272-49a5-9cfa-debe67a3910d"},"vehicle_type_id":"4","last_reported":1687234080,"current_range_meters":0,"station_id":"ce4bh012rcd13ifvqcv0","pricing_plan_id":"free"},{"bike_id":"3f3cef94-9c2e-4039-825c-5421299dcaf4","system_id":"levelo_inurba_marseille","lat":43.309038,"lon":5.396546,"is_reserved":false,"is_disabled":false,"rental_uris":{"android":"levelo://app?vid=3f3cef94-9c2e-4039-825c-5421299dcaf4","ios":"levelo://app?vid=3f3cef94-9c2e-4039-825c-5421299dcaf4"},"vehicle_type_id":"4","last_reported":1687234080,"current_range_meters":21600,"station_id":"ce4bh012rcd13ifvqcv0","pricing_plan_id":"free"},{"bike_id":"ca93611f-b3bf-4330-952a-b45aaf9b706a","system_id":"levelo_inurba_marseille","lat":43.309038,"lon":5.396546,"is_reserved":false,"is_disabled":false,"rental_uris":{"android":"levelo://app?vid=ca93611f-b3bf-4330-952a-b45aaf9b706a","ios":"levelo://app?vid=ca93611f-b3bf-4330-952a-b45aaf9b706a"},"vehicle_type_id":"4","last_reported":1687234080,"current_range_meters":9600,"station_id":"ce4bh012rcd13ifvqcv0","pricing_plan_id":"free"},{"bike_id":"df93815c-c95c-42a3-b094-fe661b107f3f","system_id":"levelo_inurba_marseille","lat":43.30895,"lon":5.39659,"is_reserved":false,"is_disabled":false,"rental_uris":{"android":"levelo://app?vid=df93815c-c95c-42a3-b094-fe661b107f3f","ios":"levelo://app?vid=df93815c-c95c-42a3-b094-fe661b107f3f"},"vehicle_type_id":"4","last_reported":1687234080,"current_range_meters":26800,"station_id":"","pricing_plan_id":"free"},{"bike_id":"06529458-7eb9-4188-a41f-b06a114f4aec","system_id":"levelo_inurba_marseille","lat":43.309038,"lon":5.396546,"is_reserved":false,"is_disabled":false,"rental_uris":{"android":"levelo://app?vid=06529458-7eb9-4188-a41f-b06a114f4aec","ios":"levelo://app?vid=06529458-7eb9-4188-a41f-b06a114f4aec"},"vehicle_type_id":"4","last_reported":1687234080,"current_range_meters":3200,"station_id":"ce4bh012rcd13ifvqcv0","pricing_plan_id":"free"},{"bike_id":"f90f43ce-9af4-4c63-ae70-710f0f683093","system_id":"levelo_inurba_marseille","lat":43.309038,"lon":5.396546,"is_reserved":false,"is_disabled":false,"rental_uris":{"android":"levelo://app?vid=f90f43ce-9af4-4c63-ae70-710f0f683093","ios":"levelo://app?vid=f90f43ce-9af4-4c63-ae70-710f0f683093"},"vehicle_type_id":"4","last_reported":1687234080,"current_range_meters":31200,"station_id":"ce4bh012rcd13ifvqcv0","pricing_plan_id":"free"},{"bike_id":"780e8151-2f7a-4307-9e7c-6bfa7ddf6d8e","system_id":"levelo_inurba_marseille","lat":43.309038,"lon":5.396546,"is_reserved":false,"is_disabled":false,"rental_uris":{"android":"levelo://app?vid=780e8151-2f7a-4307-9e7c-6bfa7ddf6d8e","ios":"levelo://app?vid=780e8151-2f7a-4307-9e7c-6bfa7ddf6d8e"},"vehicle_type_id":"4","last_reported":1687234080,"current_range_meters":18400,"station_id":"ce4bh012rcd13ifvqcv0","pricing_plan_id":"free"},{"bike_id":"1f2ec5cd-5c1c-4444-9819-edc38a9e1c88","system_id":"levelo_inurba_marseille","lat":43.309038,"lon":5.396546,"is_reserved":false,"is_disabled":false,"rental_uris":{"android":"levelo://app?vid=1f2ec5cd-5c1c-4444-9819-edc38a9e1c88","ios":"levelo://app?vid=1f2ec5cd-5c1c-4444-9819-edc38a9e1c88"},"vehicle_type_id":"4","last_reported":1687234080,"current_range_meters":31200,"station_id":"ce4bh012rcd13ifvqcv0","pricing_plan_id":"free"},{"bike_id":"72636d7a-88f3-4a5d-9c89-4a02d33902f2","system_id":"levelo_inurba_marseille","lat":43.309038,"lon":5.396546,"is_reserved":false,"is_disabled":false,"rental_uris":{"android":"levelo://app?vid=72636d7a-88f3-4a5d-9c89-4a02d33902f2","ios":"levelo://app?vid=72636d7a-88f3-4a5d-9c89-4a02d33902f2"},"vehicle_type_id":"4","last_reported":1687234080,"current_range_meters":22400,"station_id":"ce4bh012rcd13ifvqcv0","pricing_plan_id":"free"},{"bike_id":"5b969d43-ba38-40e5-a672-826ce2f64c36","system_id":"levelo_inurba_marseille","lat":43.30886,"lon":5.39662,"is_reserved":false,"is_disabled":false,"rental_uris":{"android":"levelo://app?vid=5b969d43-ba38-40e5-a672-826ce2f64c36","ios":"levelo://app?vid=5b969d43-ba38-40e5-a672-826ce2f64c36"},"vehicle_type_id":"4","last_reported":1687234080,"current_range_meters":9200,"station_id":"","pricing_plan_id":"free"},{"bike_id":"21642b08-ffd6-4ccb-b3c4-d2720c7ee46f","system_id":"levelo_inurba_marseille","lat":43.29529,"lon":5.385581,"is_reserved":false,"is_disabled":false,"rental_uris":{"android":"levelo://app?vid=21642b08-ffd6-4ccb-b3c4-d2720c7ee46f","ios":"levelo://app?vid=21642b08-ffd6-4ccb-b3c4-d2720c7ee46f"},"vehicle_type_id":"4","last_reported":1687234080,"current_range_meters":30400,"station_id":"ce4bgih2rcd13ifvqba0","pricing_plan_id":"free"},{"bike_id":"d7ec17da-c062-436f-a937-7b9ff940324d","system_id":"levelo_inurba_marseille","lat":43.29519,"lon":5.38523,"is_reserved":false,"is_disabled":false,"rental_uris":{"android":"levelo://app?vid=d7ec17da-c062-436f-a937-7b9ff940324d","ios":"levelo://app?vid=d7ec17da-c062-436f-a937-7b9ff940324d"},"vehicle_type_id":"4","last_reported":1687234080,"current_range_meters":21600,"station_id":"","pricing_plan_id":"free"},{"bike_id":"437f9e47-b581-4a81-9c4b-d77cb8468154","system_id":"levelo_inurba_marseille","lat":43.29528,"lon":5.38549,"is_reserved":false,"is_disabled":false,"rental_uris":{"android":"levelo://app?vid=437f9e47-b581-4a81-9c4b-d77cb8468154","ios":"levelo://app?vid=437f9e47-b581-4a81-9c4b-d77cb8468154"},"vehicle_type_id":"4","last_reported":1687234080,"current_range_meters":25200,"station_id":"ce4bgih2rcd13ifvqba0","pricing_plan_id":"free"},{"bike_id":"387e6368-986b-4fac-aa76-37df4aec19b1","system_id":"levelo_inurba_marseille","lat":43.29527,"lon":5.38551,"is_reserved":false,"is_disabled":false,"rental_uris":{"android":"levelo://app?vid=387e6368-986b-4fac-aa76-37df4aec19b1","ios":"levelo://app?vid=387e6368-986b-4fac-aa76-37df4aec19b1"},"vehicle_type_id":"4","last_reported":1687234080,"current_range_meters":31200,"station_id":"ce4bgih2rcd13ifvqba0","pricing_plan_id":"free"},{"bike_id":"666a9d08-14e1-4483-bfc0-39ea00aa4f40","system_id":"levelo_inurba_marseille","lat":43.29523,"lon":5.38546,"is_reserved":false,"is_disabled":false,"rental_uris":{"android":"levelo://app?vid=666a9d08-14e1-4483-bfc0-39ea00aa4f40","ios":"levelo://app?vid=666a9d08-14e1-4483-bfc0-39ea00aa4f40"},"vehicle_type_id":"4","last_reported":1687234080,"current_range_meters":31200,"station_id":"ce4bgih2rcd13ifvqba0","pricing_plan_id":"free"},{"bike_id":"a8c7509b-d6cc-46bd-908c-c52d17ec8f76","system_id":"levelo_inurba_marseille","lat":43.29529,"lon":5.385581,"is_reserved":false,"is_disabled":false,"rental_uris":{"android":"levelo://app?vid=a8c7509b-d6cc-46bd-908c-c52d17ec8f76","ios":"levelo://app?vid=a8c7509b-d6cc-46bd-908c-c52d17ec8f76"},"vehicle_type_id":"4","last_reported":1687234080,"current_range_meters":30000,"station_id":"ce4bgih2rcd13ifvqba0","pricing_plan_id":"free"},{"bike_id":"8b57b0a8-dce4-4b8f-a23f-01117c2688da","system_id":"levelo_inurba_marseille","lat":43.290779,"lon":5.371482,"is_reserved":false,"is_disabled":false,"rental_uris":{"android":"levelo://app?vid=8b57b0a8-dce4-4b8f-a23f-01117c2688da","ios":"levelo://app?vid=8b57b0a8-dce4-4b8f-a23f-01117c2688da"},"vehicle_type_id":"4","last_reported":1687234080,"current_range_meters":29200,"station_id":"ce4bh5p2rcd13ifvqe4g","pricing_plan_id":"free"},{"bike_id":"9252f1f9-2017-4894-a3bb-07e89a912cb5","system_id":"levelo_inurba_marseille","lat":43.29142,"lon":5.37747,"is_reserved":false,"is_disabled":false,"rental_uris":{"android":"levelo://app?vid=9252f1f9-2017-4894-a3bb-07e89a912cb5","ios":"levelo://app?vid=9252f1f9-2017-4894-a3bb-07e89a912cb5"},"vehicle_type_id":"4","last_reported":1687234080,"current_range_meters":7200,"station_id":"","pricing_plan_id":"free"},{"bike_id":"bc241a22-62ce-41a1-83e4-c0693b26dbba","system_id":"levelo_inurba_marseille","lat":43.302008,"lon":5.394694,"is_reserved":false,"is_disabled":false,"rental_uris":{"android":"levelo://app?vid=bc241a22-62ce-41a1-83e4-c0693b26dbba","ios":"levelo://app?vid=bc241a22-62ce-41a1-83e4-c0693b26dbba"},"vehicle_type_id":"4","last_reported":1687234080,"current_range_meters":30400,"station_id":"ce4bh0p2rcd13ifvqd70","pricing_plan_id":"free"},{"bike_id":"fa3bd753-7519-40c8-a097-4d26769e1752","system_id":"levelo_inurba_marseille","lat":43.302008,"lon":5.394694,"is_reserved":false,"is_disabled":false,"rental_uris":{"android":"levelo://app?vid=fa3bd753-7519-40c8-a097-4d26769e1752","ios":"levelo://app?vid=fa3bd753-7519-40c8-a097-4d26769e1752"},"vehicle_type_id":"4","last_reported":1687234080,"current_range_meters":30000,"station_id":"ce4bh0p2rcd13ifvqd70","pricing_plan_id":"free"},{"bike_id":"0609f09b-61e5-40d1-a057-3a5b9409ddd1","system_id":"levelo_inurba_marseille","lat":43.2942,"lon":5.38632,"is_reserved":false,"is_disabled":false,"rental_uris":{"android":"levelo://app?vid=0609f09b-61e5-40d1-a057-3a5b9409ddd1","ios":"levelo://app?vid=0609f09b-61e5-40d1-a057-3a5b9409ddd1"},"vehicle_type_id":"4","last_reported":1687234080,"current_range_meters":26800,"station_id":"ce4bh2h2rcd13ifvqdh0","pricing_plan_id":"free"},{"bike_id":"bee16c1e-f84c-46d2-b97f-ae246b01b0e5","system_id":"levelo_inurba_marseille","lat":43.289184,"lon":5.366408,"is_reserved":false,"is_disabled":false,"rental_uris":{"android":"levelo://app?vid=bee16c1e-f84c-46d2-b97f-ae246b01b0e5","ios":"levelo://app?vid=bee16c1e-f84c-46d2-b97f-ae246b01b0e5"},"vehicle_type_id":"4","last_reported":1687234080,"current_range_meters":30000,"station_id":"ce4bhap2rcd13ifvqek0","pricing_plan_id":"free"},{"bike_id":"6e7ae230-63f7-456c-ab26-af3d07ad0636","system_id":"levelo_inurba_marseille","lat":43.294153,"lon":5.386305,"is_reserved":false,"is_disabled":false,"rental_uris":{"android":"levelo://app?vid=6e7ae230-63f7-456c-ab26-af3d07ad0636","ios":"levelo://app?vid=6e7ae230-63f7-456c-ab26-af3d07ad0636"},"vehicle_type_id":"4","last_reported":1687234080,"current_range_meters":28800,"station_id":"ce4bh2h2rcd13ifvqdh0","pricing_plan_id":"free"},{"bike_id":"ac10ac9d-f700-4424-9cd1-7ffdf04a4251","system_id":"levelo_inurba_marseille","lat":43.28942,"lon":5.36638,"is_reserved":false,"is_disabled":false,"rental_uris":{"android":"levelo://app?vid=ac10ac9d-f700-4424-9cd1-7ffdf04a4251","ios":"levelo://app?vid=ac10ac9d-f700-4424-9cd1-7ffdf04a4251"},"vehicle_type_id":"4","last_reported":1687234080,"current_range_meters":31200,"station_id":"ce4bhap2rcd13ifvqek0","pricing_plan_id":"free"},{"bike_id":"08297025-671f-40f9-90f9-0d6ccbad1dd6","system_id":"levelo_inurba_marseille","lat":43.289184,"lon":5.366408,"is_reserved":false,"is_disabled":false,"rental_uris":{"android":"levelo://app?vid=08297025-671f-40f9-90f9-0d6ccbad1dd6","ios":"levelo://app?vid=08297025-671f-40f9-90f9-0d6ccbad1dd6"},"vehicle_type_id":"4","last_reported":1687234080,"current_range_meters":26800,"station_id":"ce4bhap2rcd13ifvqek0","pricing_plan_id":"free"},{"bike_id":"9a6ce892-7ea5-4ed5-b685-2637e00d5081","system_id":"levelo_inurba_marseille","lat":43.290327,"lon":5.375711,"is_reserved":false,"is_disabled":false,"rental_uris":{"android":"levelo://app?vid=9a6ce892-7ea5-4ed5-b685-2637e00d5081","ios":"levelo://app?vid=9a6ce892-7ea5-4ed5-b685-2637e00d5081"},"vehicle_type_id":"4","last_reported":1687234080,"current_range_meters":25200,"station_id":"ce4bh692rcd13ifvqe90","pricing_plan_id":"free"},{"bike_id":"465e8d84-a7db-4842-9ce4-0215fd03ea7b","system_id":"levelo_inurba_marseille","lat":43.29029,"lon":5.37568,"is_reserved":false,"is_disabled":false,"rental_uris":{"android":"levelo://app?vid=465e8d84-a7db-4842-9ce4-0215fd03ea7b","ios":"levelo://app?vid=465e8d84-a7db-4842-9ce4-0215fd03ea7b"},"vehicle_type_id":"4","last_reported":1687234080,"current_range_meters":29600,"station_id":"ce4bh692rcd13ifvqe90","pricing_plan_id":"free"},{"bike_id":"6f7daecf-47d9-43ca-b607-ed4c8003beca","system_id":"levelo_inurba_marseille","lat":43.289184,"lon":5.366408,"is_reserved":false,"is_disabled":false,"rental_uris":{"android":"levelo://app?vid=6f7daecf-47d9-43ca-b607-ed4c8003beca","ios":"levelo://app?vid=6f7daecf-47d9-43ca-b607-ed4c8003beca"},"vehicle_type_id":"4","last_reported":1687234080,"current_range_meters":13200,"station_id":"ce4bhap2rcd13ifvqek0","pricing_plan_id":"free"},{"bike_id":"949d8b6a-f0d0-44df-8156-0a3e011c39be","system_id":"levelo_inurba_marseille","lat":43.29024,"lon":5.37567,"is_reserved":false,"is_disabled":false,"rental_uris":{"android":"levelo://app?vid=949d8b6a-f0d0-44df-8156-0a3e011c39be","ios":"levelo://app?vid=949d8b6a-f0d0-44df-8156-0a3e011c39be"},"vehicle_type_id":"4","last_reported":1687234080,"current_range_meters":11600,"station_id":"ce4bh692rcd13ifvqe90","pricing_plan_id":"free"},{"bike_id":"28ae88e9-9e83-44cf-a4fb-1cab6c36d779","system_id":"levelo_inurba_marseille","lat":43.289184,"lon":5.366408,"is_reserved":false,"is_disabled":false,"rental_uris":{"android":"levelo://app?vid=28ae88e9-9e83-44cf-a4fb-1cab6c36d779","ios":"levelo://app?vid=28ae88e9-9e83-44cf-a4fb-1cab6c36d779"},"vehicle_type_id":"4","last_reported":1687234080,"current_range_meters":18800,"station_id":"ce4bhap2rcd13ifvqek0","pricing_plan_id":"free"},{"bike_id":"86204a71-32f7-48a3-b865-0fd0dea3e79b","system_id":"levelo_inurba_marseille","lat":43.28935,"lon":5.36638,"is_reserved":false,"is_disabled":false,"rental_uris":{"android":"levelo://app?vid=86204a71-32f7-48a3-b865-0fd0dea3e79b","ios":"levelo://app?vid=86204a71-32f7-48a3-b865-0fd0dea3e79b"},"vehicle_type_id":"4","last_reported":1687234080,"current_range_meters":30000,"station_id":"ce4bhap2rcd13ifvqek0","pricing_plan_id":"free"},{"bike_id":"13996ae2-4dac-4749-b815-c9135c2ef0e4","system_id":"levelo_inurba_marseille","lat":43.28934,"lon":5.36636,"is_reserved":false,"is_disabled":false,"rental_uris":{"android":"levelo://app?vid=13996ae2-4dac-4749-b815-c9135c2ef0e4","ios":"levelo://app?vid=13996ae2-4dac-4749-b815-c9135c2ef0e4"},"vehicle_type_id":"4","last_reported":1687234080,"current_range_meters":31200,"station_id":"ce4bhap2rcd13ifvqek0","pricing_plan_id":"free"},{"bike_id":"2615121f-e7f0-418c-9324-29c36dfe1279","system_id":"levelo_inurba_marseille","lat":43.28933,"lon":5.36636,"is_reserved":false,"is_disabled":false,"rental_uris":{"android":"levelo://app?vid=2615121f-e7f0-418c-9324-29c36dfe1279","ios":"levelo://app?vid=2615121f-e7f0-418c-9324-29c36dfe1279"},"vehicle_type_id":"4","last_reported":1687234080,"current_range_meters":31200,"station_id":"ce4bhap2rcd13ifvqek0","pricing_plan_id":"free"},{"bike_id":"1a3da649-b471-45dc-9340-9c150d531ae7","system_id":"levelo_inurba_marseille","lat":43.28933,"lon":5.36633,"is_reserved":false,"is_disabled":false,"rental_uris":{"android":"levelo://app?vid=1a3da649-b471-45dc-9340-9c150d531ae7","ios":"levelo://app?vid=1a3da649-b471-45dc-9340-9c150d531ae7"},"vehicle_type_id":"4","last_reported":1687234080,"current_range_meters":31200,"station_id":"ce4bhap2rcd13ifvqek0","pricing_plan_id":"free"},{"bike_id":"467d126e-afbd-4d9d-bdbe-c28111fec5ad","system_id":"levelo_inurba_marseille","lat":43.28932,"lon":5.36637,"is_reserved":false,"is_disabled":false,"rental_uris":{"android":"levelo://app?vid=467d126e-afbd-4d9d-bdbe-c28111fec5ad","ios":"levelo://app?vid=467d126e-afbd-4d9d-bdbe-c28111fec5ad"},"vehicle_type_id":"4","last_reported":1687234080,"current_range_meters":31200,"station_id":"ce4bhap2rcd13ifvqek0","pricing_plan_id":"free"},{"bike_id":"253795c1-45b2-4c07-89a5-34d2564de43f","system_id":"levelo_inurba_marseille","lat":43.289184,"lon":5.366408,"is_reserved":false,"is_disabled":false,"rental_uris":{"android":"levelo://app?vid=253795c1-45b2-4c07-89a5-34d2564de43f","ios":"levelo://app?vid=253795c1-45b2-4c07-89a5-34d2564de43f"},"vehicle_type_id":"4","last_reported":1687234080,"current_range_meters":30800,"station_id":"ce4bhap2rcd13ifvqek0","pricing_plan_id":"free"},{"bike_id":"737d5716-ef6d-4bfb-bdc7-d634eb75ef0b","system_id":"levelo_inurba_marseille","lat":43.28931,"lon":5.36638,"is_reserved":false,"is_disabled":false,"rental_uris":{"android":"levelo://app?vid=737d5716-ef6d-4bfb-bdc7-d634eb75ef0b","ios":"levelo://app?vid=737d5716-ef6d-4bfb-bdc7-d634eb75ef0b"},"vehicle_type_id":"4","last_reported":1687234080,"current_range_meters":30400,"station_id":"ce4bhap2rcd13ifvqek0","pricing_plan_id":"free"},{"bike_id":"65e6b151-39f6-4c22-8bf6-b8b2f4ebffc7","system_id":"levelo_inurba_marseille","lat":43.289184,"lon":5.366408,"is_reserved":false,"is_disabled":false,"rental_uris":{"android":"levelo://app?vid=65e6b151-39f6-4c22-8bf6-b8b2f4ebffc7","ios":"levelo://app?vid=65e6b151-39f6-4c22-8bf6-b8b2f4ebffc7"},"vehicle_type_id":"4","last_reported":1687234080,"current_range_meters":26400,"station_id":"ce4bhap2rcd13ifvqek0","pricing_plan_id":"free"},{"bike_id":"130f1b1d-a7f8-4684-b640-85b60b02f8d7","system_id":"levelo_inurba_marseille","lat":43.289468,"lon":5.363719,"is_reserved":false,"is_disabled":false,"rental_uris":{"android":"levelo://app?vid=130f1b1d-a7f8-4684-b640-85b60b02f8d7","ios":"levelo://app?vid=130f1b1d-a7f8-4684-b640-85b60b02f8d7"},"vehicle_type_id":"4","last_reported":1687234080,"current_range_meters":28000,"station_id":"ce4bhc92rcd13ifvqetg","pricing_plan_id":"free"},{"bike_id":"f319f974-475a-4992-a1ef-1e8a98fc515e","system_id":"levelo_inurba_marseille","lat":43.292642,"lon":5.384254,"is_reserved":false,"is_disabled":false,"rental_uris":{"android":"levelo://app?vid=f319f974-475a-4992-a1ef-1e8a98fc515e","ios":"levelo://app?vid=f319f974-475a-4992-a1ef-1e8a98fc515e"},"vehicle_type_id":"4","last_reported":1687234080,"current_range_meters":30000,"station_id":"ce4bh692rcd13ifvqea0","pricing_plan_id":"free"},{"bike_id":"38eb09af-7166-42b9-865e-84246929498f","system_id":"levelo_inurba_marseille","lat":43.292644,"lon":5.384257,"is_reserved":false,"is_disabled":false,"rental_uris":{"android":"levelo://app?vid=38eb09af-7166-42b9-865e-84246929498f","ios":"levelo://app?vid=38eb09af-7166-42b9-865e-84246929498f"},"vehicle_type_id":"4","last_reported":1687234080,"current_range_meters":31200,"station_id":"ce4bh692rcd13ifvqea0","pricing_plan_id":"free"},{"bike_id":"474c64f1-54c8-47eb-a881-1854d735eee9","system_id":"levelo_inurba_marseille","lat":43.304296,"lon":5.397513,"is_reserved":false,"is_disabled":false,"rental_uris":{"android":"levelo://app?vid=474c64f1-54c8-47eb-a881-1854d735eee9","ios":"levelo://app?vid=474c64f1-54c8-47eb-a881-1854d735eee9"},"vehicle_type_id":"4","last_reported":1687234080,"current_range_meters":31200,"station_id":"ce4bh092rcd13ifvqd20","pricing_plan_id":"free"},{"bike_id":"ec3c8939-a1ee-4f5d-a00c-6fa1b447e878","system_id":"levelo_inurba_marseille","lat":43.33042,"lon":5.38919,"is_reserved":false,"is_disabled":false,"rental_uris":{"android":"levelo://app?vid=ec3c8939-a1ee-4f5d-a00c-6fa1b447e878","ios":"levelo://app?vid=ec3c8939-a1ee-4f5d-a00c-6fa1b447e878"},"vehicle_type_id":"4","last_reported":1687234080,"current_range_meters":13200,"station_id":"ce4bhr92rcd13ifvqhrg","pricing_plan_id":"free"},{"bike_id":"ecc4fbfe-54d6-4b1e-b301-e4552d8086e5","system_id":"levelo_inurba_marseille","lat":43.33052,"lon":5.38921,"is_reserved":false,"is_disabled":false,"rental_uris":{"android":"levelo://app?vid=ecc4fbfe-54d6-4b1e-b301-e4552d8086e5","ios":"levelo://app?vid=ecc4fbfe-54d6-4b1e-b301-e4552d8086e5"},"vehicle_type_id":"4","last_reported":1687234080,"current_range_meters":17200,"station_id":"ce4bhr92rcd13ifvqhrg","pricing_plan_id":"free"},{"bike_id":"aa1817e6-a669-4065-9318-740260c08cc5","system_id":"levelo_inurba_marseille","lat":43.297815,"lon":5.393548,"is_reserved":false,"is_disabled":false,"rental_uris":{"android":"levelo://app?vid=aa1817e6-a669-4065-9318-740260c08cc5","ios":"levelo://app?vid=aa1817e6-a669-4065-9318-740260c08cc5"},"vehicle_type_id":"4","last_reported":1687234080,"current_range_meters":19200,"station_id":"chh1huq6cuj3fo74tm60","pricing_plan_id":"free"},{"bike_id":"31a93dc3-b7bb-4b83-a2a6-7fea700b4fb6","system_id":"levelo_inurba_marseille","lat":43.295169,"lon":5.390426,"is_reserved":false,"is_disabled":false,"rental_uris":{"android":"levelo://app?vid=31a93dc3-b7bb-4b83-a2a6-7fea700b4fb6","ios":"levelo://app?vid=31a93dc3-b7bb-4b83-a2a6-7fea700b4fb6"},"vehicle_type_id":"4","last_reported":1687234080,"current_range_meters":28800,"station_id":"ce4bh3p2rcd13ifvqdp0","pricing_plan_id":"free"},{"bike_id":"9b179c0a-cc15-4236-b7b9-41d4bee1763a","system_id":"levelo_inurba_marseille","lat":43.297815,"lon":5.393548,"is_reserved":false,"is_disabled":false,"rental_uris":{"android":"levelo://app?vid=9b179c0a-cc15-4236-b7b9-41d4bee1763a","ios":"levelo://app?vid=9b179c0a-cc15-4236-b7b9-41d4bee1763a"},"vehicle_type_id":"4","last_reported":1687234080,"current_range_meters":29600,"station_id":"chh1huq6cuj3fo74tm60","pricing_plan_id":"free"},{"bike_id":"c7822edc-2de2-431a-aadd-f9386545bd86","system_id":"levelo_inurba_marseille","lat":43.297815,"lon":5.393548,"is_reserved":false,"is_disabled":false,"rental_uris":{"android":"levelo://app?vid=c7822edc-2de2-431a-aadd-f9386545bd86","ios":"levelo://app?vid=c7822edc-2de2-431a-aadd-f9386545bd86"},"vehicle_type_id":"4","last_reported":1687234080,"current_range_meters":31200,"station_id":"chh1huq6cuj3fo74tm60","pricing_plan_id":"free"},{"bike_id":"54590e75-dc5a-4a8a-b9c5-a0a5343a8aa3","system_id":"levelo_inurba_marseille","lat":43.289741,"lon":5.378306,"is_reserved":false,"is_disabled":false,"rental_uris":{"android":"levelo://app?vid=54590e75-dc5a-4a8a-b9c5-a0a5343a8aa3","ios":"levelo://app?vid=54590e75-dc5a-4a8a-b9c5-a0a5343a8aa3"},"vehicle_type_id":"4","last_reported":1687234080,"current_range_meters":30000,"station_id":"ce4bh9p2rcd13ifvqed0","pricing_plan_id":"free"},{"bike_id":"2c823435-0bbd-4e98-bd7f-853235a479e2","system_id":"levelo_inurba_marseille","lat":43.289741,"lon":5.378306,"is_reserved":false,"is_disabled":false,"rental_uris":{"android":"levelo://app?vid=2c823435-0bbd-4e98-bd7f-853235a479e2","ios":"levelo://app?vid=2c823435-0bbd-4e98-bd7f-853235a479e2"},"vehicle_type_id":"4","last_reported":1687234080,"current_range_meters":27600,"station_id":"ce4bh9p2rcd13ifvqed0","pricing_plan_id":"free"},{"bike_id":"f46e70b2-23fb-4169-b0d2-4bc0f8f84981","system_id":"levelo_inurba_marseille","lat":43.295169,"lon":5.390426,"is_reserved":false,"is_disabled":false,"rental_uris":{"android":"levelo://app?vid=f46e70b2-23fb-4169-b0d2-4bc0f8f84981","ios":"levelo://app?vid=f46e70b2-23fb-4169-b0d2-4bc0f8f84981"},"vehicle_type_id":"4","last_reported":1687234080,"current_range_meters":31200,"station_id":"ce4bh3p2rcd13ifvqdp0","pricing_plan_id":"free"},{"bike_id":"0e52dbbc-bfe4-4491-84b3-0742f895fef5","system_id":"levelo_inurba_marseille","lat":43.295169,"lon":5.390426,"is_reserved":false,"is_disabled":false,"rental_uris":{"android":"levelo://app?vid=0e52dbbc-bfe4-4491-84b3-0742f895fef5","ios":"levelo://app?vid=0e52dbbc-bfe4-4491-84b3-0742f895fef5"},"vehicle_type_id":"4","last_reported":1687234080,"current_range_meters":31200,"station_id":"ce4bh3p2rcd13ifvqdp0","pricing_plan_id":"free"},{"bike_id":"1d2ed991-34c9-4dc1-a38a-aa5d7cc26c87","system_id":"levelo_inurba_marseille","lat":43.295169,"lon":5.390426,"is_reserved":false,"is_disabled":false,"rental_uris":{"android":"levelo://app?vid=1d2ed991-34c9-4dc1-a38a-aa5d7cc26c87","ios":"levelo://app?vid=1d2ed991-34c9-4dc1-a38a-aa5d7cc26c87"},"vehicle_type_id":"4","last_reported":1687234080,"current_range_meters":31200,"station_id":"ce4bh3p2rcd13ifvqdp0","pricing_plan_id":"free"},{"bike_id":"ffb50a68-6223-439c-9184-38e5fdfb49a2","system_id":"levelo_inurba_marseille","lat":43.30815,"lon":5.40097,"is_reserved":false,"is_disabled":false,"rental_uris":{"android":"levelo://app?vid=ffb50a68-6223-439c-9184-38e5fdfb49a2","ios":"levelo://app?vid=ffb50a68-6223-439c-9184-38e5fdfb49a2"},"vehicle_type_id":"4","last_reported":1687234080,"current_range_meters":15200,"station_id":"","pricing_plan_id":"free"},{"bike_id":"54dd9ff6-8947-40a4-9851-f6ab53f196c7","system_id":"levelo_inurba_marseille","lat":43.30945,"lon":5.40144,"is_reserved":false,"is_disabled":false,"rental_uris":{"android":"levelo://app?vid=54dd9ff6-8947-40a4-9851-f6ab53f196c7","ios":"levelo://app?vid=54dd9ff6-8947-40a4-9851-f6ab53f196c7"},"vehicle_type_id":"4","last_reported":1687234080,"current_range_meters":10800,"station_id":"ce4bgvp2rcd13ifvqct0","pricing_plan_id":"free"},{"bike_id":"c9ef4663-4da3-427f-8e40-f9f5df031a67","system_id":"levelo_inurba_marseille","lat":43.30935,"lon":5.40151,"is_reserved":false,"is_disabled":false,"rental_uris":{"android":"levelo://app?vid=c9ef4663-4da3-427f-8e40-f9f5df031a67","ios":"levelo://app?vid=c9ef4663-4da3-427f-8e40-f9f5df031a67"},"vehicle_type_id":"4","last_reported":1687234080,"current_range_meters":22000,"station_id":"ce4bgvp2rcd13ifvqct0","pricing_plan_id":"free"},{"bike_id":"c00a9517-b434-4929-ae6d-ac0761f89590","system_id":"levelo_inurba_marseille","lat":43.30642,"lon":5.401031,"is_reserved":false,"is_disabled":false,"rental_uris":{"android":"levelo://app?vid=c00a9517-b434-4929-ae6d-ac0761f89590","ios":"levelo://app?vid=c00a9517-b434-4929-ae6d-ac0761f89590"},"vehicle_type_id":"4","last_reported":1687234080,"current_range_meters":31200,"station_id":"ce4bh112rcd13ifvqda0","pricing_plan_id":"free"},{"bike_id":"597f3c43-c39f-4923-a2b3-d905b18f3e9a","system_id":"levelo_inurba_marseille","lat":43.30642,"lon":5.401031,"is_reserved":false,"is_disabled":false,"rental_uris":{"android":"levelo://app?vid=597f3c43-c39f-4923-a2b3-d905b18f3e9a","ios":"levelo://app?vid=597f3c43-c39f-4923-a2b3-d905b18f3e9a"},"vehicle_type_id":"4","last_reported":1687234080,"current_range_meters":31200,"station_id":"ce4bh112rcd13ifvqda0","pricing_plan_id":"free"},{"bike_id":"4e42d55c-2cef-4129-88a6-703c7d1391a5","system_id":"levelo_inurba_marseille","lat":43.30642,"lon":5.401031,"is_reserved":false,"is_disabled":false,"rental_uris":{"android":"levelo://app?vid=4e42d55c-2cef-4129-88a6-703c7d1391a5","ios":"levelo://app?vid=4e42d55c-2cef-4129-88a6-703c7d1391a5"},"vehicle_type_id":"4","last_reported":1687234080,"current_range_meters":13600,"station_id":"ce4bh112rcd13ifvqda0","pricing_plan_id":"free"},{"bike_id":"42a2a75a-9d72-4603-bca9-e6720bab50e0","system_id":"levelo_inurba_marseille","lat":43.30642,"lon":5.401031,"is_reserved":false,"is_disabled":false,"rental_uris":{"android":"levelo://app?vid=42a2a75a-9d72-4603-bca9-e6720bab50e0","ios":"levelo://app?vid=42a2a75a-9d72-4603-bca9-e6720bab50e0"},"vehicle_type_id":"4","last_reported":1687234080,"current_range_meters":21600,"station_id":"ce4bh112rcd13ifvqda0","pricing_plan_id":"free"},{"bike_id":"11dbdfab-c63b-4465-a5f0-6be39a3c28ae","system_id":"levelo_inurba_marseille","lat":43.30642,"lon":5.401031,"is_reserved":false,"is_disabled":false,"rental_uris":{"android":"levelo://app?vid=11dbdfab-c63b-4465-a5f0-6be39a3c28ae","ios":"levelo://app?vid=11dbdfab-c63b-4465-a5f0-6be39a3c28ae"},"vehicle_type_id":"4","last_reported":1687234080,"current_range_meters":31200,"station_id":"ce4bh112rcd13ifvqda0","pricing_plan_id":"free"},{"bike_id":"41a8749b-6d93-4d1b-8e52-c5f60f65ae7c","system_id":"levelo_inurba_marseille","lat":43.33756,"lon":5.3745,"is_reserved":false,"is_disabled":false,"rental_uris":{"android":"levelo://app?vid=41a8749b-6d93-4d1b-8e52-c5f60f65ae7c","ios":"levelo://app?vid=41a8749b-6d93-4d1b-8e52-c5f60f65ae7c"},"vehicle_type_id":"4","last_reported":1687234080,"current_range_meters":29200,"station_id":"","pricing_plan_id":"free"},{"bike_id":"95579c76-76c6-41dd-87a5-295aa5484110","system_id":"levelo_inurba_marseille","lat":43.30649,"lon":5.40082,"is_reserved":false,"is_disabled":false,"rental_uris":{"android":"levelo://app?vid=95579c76-76c6-41dd-87a5-295aa5484110","ios":"levelo://app?vid=95579c76-76c6-41dd-87a5-295aa5484110"},"vehicle_type_id":"4","last_reported":1687234080,"current_range_meters":25600,"station_id":"ce4bh112rcd13ifvqda0","pricing_plan_id":"free"},{"bike_id":"6c4e7c54-24dd-4ff8-b8be-ccd58977bd2b","system_id":"levelo_inurba_marseille","lat":43.30642,"lon":5.401031,"is_reserved":false,"is_disabled":false,"rental_uris":{"android":"levelo://app?vid=6c4e7c54-24dd-4ff8-b8be-ccd58977bd2b","ios":"levelo://app?vid=6c4e7c54-24dd-4ff8-b8be-ccd58977bd2b"},"vehicle_type_id":"4","last_reported":1687234080,"current_range_meters":13600,"station_id":"ce4bh112rcd13ifvqda0","pricing_plan_id":"free"},{"bike_id":"b3f03265-6566-4785-a2bf-57416d75a7ff","system_id":"levelo_inurba_marseille","lat":43.30642,"lon":5.401031,"is_reserved":false,"is_disabled":false,"rental_uris":{"android":"levelo://app?vid=b3f03265-6566-4785-a2bf-57416d75a7ff","ios":"levelo://app?vid=b3f03265-6566-4785-a2bf-57416d75a7ff"},"vehicle_type_id":"4","last_reported":1687234080,"current_range_meters":14400,"station_id":"ce4bh112rcd13ifvqda0","pricing_plan_id":"free"},{"bike_id":"2bd08979-1d7f-4e57-929e-22f08880daa5","system_id":"levelo_inurba_marseille","lat":43.30815,"lon":5.40135,"is_reserved":false,"is_disabled":false,"rental_uris":{"android":"levelo://app?vid=2bd08979-1d7f-4e57-929e-22f08880daa5","ios":"levelo://app?vid=2bd08979-1d7f-4e57-929e-22f08880daa5"},"vehicle_type_id":"4","last_reported":1687234080,"current_range_meters":16400,"station_id":"","pricing_plan_id":"free"},{"bike_id":"4437481f-afc5-4da6-833c-1218d8eb991a","system_id":"levelo_inurba_marseille","lat":43.30644,"lon":5.40085,"is_reserved":false,"is_disabled":false,"rental_uris":{"android":"levelo://app?vid=4437481f-afc5-4da6-833c-1218d8eb991a","ios":"levelo://app?vid=4437481f-afc5-4da6-833c-1218d8eb991a"},"vehicle_type_id":"4","last_reported":1687234080,"current_range_meters":31200,"station_id":"ce4bh112rcd13ifvqda0","pricing_plan_id":"free"},{"bike_id":"f9e5ec82-bb78-4664-8a2c-6daed1656d62","system_id":"levelo_inurba_marseille","lat":43.33774,"lon":5.37422,"is_reserved":false,"is_disabled":false,"rental_uris":{"android":"levelo://app?vid=f9e5ec82-bb78-4664-8a2c-6daed1656d62","ios":"levelo://app?vid=f9e5ec82-bb78-4664-8a2c-6daed1656d62"},"vehicle_type_id":"4","last_reported":1687234080,"current_range_meters":25600,"station_id":"","pricing_plan_id":"free"},{"bike_id":"f2a370ec-6d9e-4a74-a332-c950fa09e1b5","system_id":"levelo_inurba_marseille","lat":43.301117,"lon":5.398795,"is_reserved":false,"is_disabled":false,"rental_uris":{"android":"levelo://app?vid=f2a370ec-6d9e-4a74-a332-c950fa09e1b5","ios":"levelo://app?vid=f2a370ec-6d9e-4a74-a332-c950fa09e1b5"},"vehicle_type_id":"4","last_reported":1687234080,"current_range_meters":26000,"station_id":"ce4bh0h2rcd13ifvqd40","pricing_plan_id":"free"},{"bike_id":"1d760ba4-9bfc-4091-9ede-36f68b9d8078","system_id":"levelo_inurba_marseille","lat":43.301117,"lon":5.398795,"is_reserved":false,"is_disabled":false,"rental_uris":{"android":"levelo://app?vid=1d760ba4-9bfc-4091-9ede-36f68b9d8078","ios":"levelo://app?vid=1d760ba4-9bfc-4091-9ede-36f68b9d8078"},"vehicle_type_id":"4","last_reported":1687234080,"current_range_meters":30400,"station_id":"ce4bh0h2rcd13ifvqd40","pricing_plan_id":"free"},{"bike_id":"a3a9a261-1fff-4342-8a91-0a4a27bf8193","system_id":"levelo_inurba_marseille","lat":43.30137,"lon":5.39875,"is_reserved":false,"is_disabled":false,"rental_uris":{"android":"levelo://app?vid=a3a9a261-1fff-4342-8a91-0a4a27bf8193","ios":"levelo://app?vid=a3a9a261-1fff-4342-8a91-0a4a27bf8193"},"vehicle_type_id":"4","last_reported":1687234080,"current_range_meters":9200,"station_id":"","pricing_plan_id":"free"},{"bike_id":"6c4bd579-d1fa-45f7-bc18-bcf48c446c58","system_id":"levelo_inurba_marseille","lat":43.30138,"lon":5.39876,"is_reserved":false,"is_disabled":false,"rental_uris":{"android":"levelo://app?vid=6c4bd579-d1fa-45f7-bc18-bcf48c446c58","ios":"levelo://app?vid=6c4bd579-d1fa-45f7-bc18-bcf48c446c58"},"vehicle_type_id":"4","last_reported":1687234080,"current_range_meters":18000,"station_id":"","pricing_plan_id":"free"},{"bike_id":"4f3acb95-03ce-46d2-997f-884236c10e82","system_id":"levelo_inurba_marseille","lat":43.30133,"lon":5.39874,"is_reserved":false,"is_disabled":false,"rental_uris":{"android":"levelo://app?vid=4f3acb95-03ce-46d2-997f-884236c10e82","ios":"levelo://app?vid=4f3acb95-03ce-46d2-997f-884236c10e82"},"vehicle_type_id":"4","last_reported":1687234080,"current_range_meters":26400,"station_id":"ce4bh0h2rcd13ifvqd40","pricing_plan_id":"free"},{"bike_id":"ce0ece1f-4a7b-4a6b-ae98-ace0e1d4903b","system_id":"levelo_inurba_marseille","lat":43.30139,"lon":5.39879,"is_reserved":false,"is_disabled":false,"rental_uris":{"android":"levelo://app?vid=ce0ece1f-4a7b-4a6b-ae98-ace0e1d4903b","ios":"levelo://app?vid=ce0ece1f-4a7b-4a6b-ae98-ace0e1d4903b"},"vehicle_type_id":"4","last_reported":1687234080,"current_range_meters":0,"station_id":"","pricing_plan_id":"free"},{"bike_id":"7efe4a73-89fe-44a5-aa42-6d291b9bea8b","system_id":"levelo_inurba_marseille","lat":43.30134,"lon":5.39881,"is_reserved":false,"is_disabled":false,"rental_uris":{"android":"levelo://app?vid=7efe4a73-89fe-44a5-aa42-6d291b9bea8b","ios":"levelo://app?vid=7efe4a73-89fe-44a5-aa42-6d291b9bea8b"},"vehicle_type_id":"4","last_reported":1687234080,"current_range_meters":22000,"station_id":"","pricing_plan_id":"free"},{"bike_id":"59a8dd6e-0c6a-4f29-baa9-849daffd0f17","system_id":"levelo_inurba_marseille","lat":43.286591,"lon":5.363346,"is_reserved":false,"is_disabled":false,"rental_uris":{"android":"levelo://app?vid=59a8dd6e-0c6a-4f29-baa9-849daffd0f17","ios":"levelo://app?vid=59a8dd6e-0c6a-4f29-baa9-849daffd0f17"},"vehicle_type_id":"4","last_reported":1687234080,"current_range_meters":31200,"station_id":"ce4bhah2rcd13ifvqej0","pricing_plan_id":"free"},{"bike_id":"c476a54f-8d83-4e77-a2f2-049d903ad886","system_id":"levelo_inurba_marseille","lat":43.28706,"lon":5.37393,"is_reserved":false,"is_disabled":false,"rental_uris":{"android":"levelo://app?vid=c476a54f-8d83-4e77-a2f2-049d903ad886","ios":"levelo://app?vid=c476a54f-8d83-4e77-a2f2-049d903ad886"},"vehicle_type_id":"4","last_reported":1687234080,"current_range_meters":23200,"station_id":"ce4bh3p2rcd13ifvqdq0","pricing_plan_id":"free"},{"bike_id":"74bd893a-d183-4975-a74c-9e7eb43bc9f4","system_id":"levelo_inurba_marseille","lat":43.286591,"lon":5.363346,"is_reserved":false,"is_disabled":false,"rental_uris":{"android":"levelo://app?vid=74bd893a-d183-4975-a74c-9e7eb43bc9f4","ios":"levelo://app?vid=74bd893a-d183-4975-a74c-9e7eb43bc9f4"},"vehicle_type_id":"4","last_reported":1687234080,"current_range_meters":31200,"station_id":"ce4bhah2rcd13ifvqej0","pricing_plan_id":"free"},{"bike_id":"7d9876a4-6d60-4a00-913f-f07acb5c951d","system_id":"levelo_inurba_marseille","lat":43.28704,"lon":5.37385,"is_reserved":false,"is_disabled":false,"rental_uris":{"android":"levelo://app?vid=7d9876a4-6d60-4a00-913f-f07acb5c951d","ios":"levelo://app?vid=7d9876a4-6d60-4a00-913f-f07acb5c951d"},"vehicle_type_id":"4","last_reported":1687234080,"current_range_meters":31200,"station_id":"ce4bh3p2rcd13ifvqdq0","pricing_plan_id":"free"},{"bike_id":"697d0064-8226-4301-9c1d-cbecbbcf4f30","system_id":"levelo_inurba_marseille","lat":43.298681,"lon":5.397225,"is_reserved":false,"is_disabled":false,"rental_uris":{"android":"levelo://app?vid=697d0064-8226-4301-9c1d-cbecbbcf4f30","ios":"levelo://app?vid=697d0064-8226-4301-9c1d-cbecbbcf4f30"},"vehicle_type_id":"4","last_reported":1687234080,"current_range_meters":22800,"station_id":"ce4bh0h2rcd13ifvqd50","pricing_plan_id":"free"},{"bike_id":"d3cc82bc-6e21-4d51-b2ba-207d7cb74e28","system_id":"levelo_inurba_marseille","lat":43.298681,"lon":5.397225,"is_reserved":false,"is_disabled":false,"rental_uris":{"android":"levelo://app?vid=d3cc82bc-6e21-4d51-b2ba-207d7cb74e28","ios":"levelo://app?vid=d3cc82bc-6e21-4d51-b2ba-207d7cb74e28"},"vehicle_type_id":"4","last_reported":1687234080,"current_range_meters":26400,"station_id":"ce4bh0h2rcd13ifvqd50","pricing_plan_id":"free"},{"bike_id":"819b5144-aca3-4c99-9e90-5071072414aa","system_id":"levelo_inurba_marseille","lat":43.286591,"lon":5.363346,"is_reserved":false,"is_disabled":false,"rental_uris":{"android":"levelo://app?vid=819b5144-aca3-4c99-9e90-5071072414aa","ios":"levelo://app?vid=819b5144-aca3-4c99-9e90-5071072414aa"},"vehicle_type_id":"4","last_reported":1687234080,"current_range_meters":31200,"station_id":"ce4bhah2rcd13ifvqej0","pricing_plan_id":"free"},{"bike_id":"4f710410-2884-470a-b1c3-cfd29d09ecce","system_id":"levelo_inurba_marseille","lat":43.28705,"lon":5.37399,"is_reserved":false,"is_disabled":false,"rental_uris":{"android":"levelo://app?vid=4f710410-2884-470a-b1c3-cfd29d09ecce","ios":"levelo://app?vid=4f710410-2884-470a-b1c3-cfd29d09ecce"},"vehicle_type_id":"4","last_reported":1687234080,"current_range_meters":14800,"station_id":"ce4bh3p2rcd13ifvqdq0","pricing_plan_id":"free"},{"bike_id":"0896dc81-9870-4d05-9d15-ec1bb925afc2","system_id":"levelo_inurba_marseille","lat":43.286593,"lon":5.363346,"is_reserved":false,"is_disabled":false,"rental_uris":{"android":"levelo://app?vid=0896dc81-9870-4d05-9d15-ec1bb925afc2","ios":"levelo://app?vid=0896dc81-9870-4d05-9d15-ec1bb925afc2"},"vehicle_type_id":"4","last_reported":1687234080,"current_range_meters":13600,"station_id":"ce4bhah2rcd13ifvqej0","pricing_plan_id":"free"},{"bike_id":"9c4783ec-70c3-4644-8cc1-31ec8046ceee","system_id":"levelo_inurba_marseille","lat":43.298681,"lon":5.397225,"is_reserved":false,"is_disabled":false,"rental_uris":{"android":"levelo://app?vid=9c4783ec-70c3-4644-8cc1-31ec8046ceee","ios":"levelo://app?vid=9c4783ec-70c3-4644-8cc1-31ec8046ceee"},