{"last_updated":1741021718,"ttl":60,"version":"2.2","data":{"bikes":[{"bike_id":"79dc2886-9457-4956-a315-0a4ca48ce21a","system_id":"levelo_inurba_marseille","lat":43.31247,"lon":5.37997,"is_reserved":false,"is_disabled":true,"rental_uris":{"android":"levelo://app?vid=79dc2886-9457-4956-a315-0a4ca48ce21a","ios":"levelo://app?vid=79dc2886-9457-4956-a315-0a4ca48ce21a"},"vehicle_type_id":"4","last_reported":1741021718,"current_range_meters":0,"station_id":"","pricing_plan_id":"cebpf4jnsgd1na2vs0mg"},{"bike_id":"9eb3cb5d-d9f5-4491-98ca-3b6f02b67afa","system_id":"levelo_inurba_marseille","lat":43.21764,"lon":5.34638,"is_reserved":false,"is_disabled":true,"rental_uris":{"android":"levelo://app?vid=9eb3cb5d-d9f5-4491-98ca-3b6f02b67afa","ios":"levelo://app?vid=9eb3cb5d-d9f5-4491-98ca-3b6f02b67afa"},"vehicle_type_id":"4","last_reported":1741021718,"current_range_meters":0,"station_id":"","pricing_plan_id":"cebpf4jnsgd1na2vs0mg"},{"bike_id":"6ca1fb82-9a0c-4ccb-a804-ed94272179fd","system_id":"levelo_inurba_marseille","lat":43.27608,"lon":5.41504,"is_reserved":false,"is_disabled":true,"rental_uris":{"android":"levelo://app?vid=6ca1fb82-9a0c-4ccb-a804-ed94272179fd","ios":"levelo://app?vid=6ca1fb82-9a0c-4ccb-a804-ed94272179fd"},"vehicle_type_id":"4","last_reported":1741021718,"current_range_meters":0,"station_id":"","pricing_plan_id":"cebpf4jnsgd1na2vs0mg"},{"bike_id":"d8853f37-2b2c-4fe9-9e03-d3b58d84b7c1","system_id":"levelo_inurba_marseille","lat":43.32534,"lon":5.38615,"is_reserved":false,"is_disabled":true,"rental_uris":{"android":"levelo://app?vid=d8853f37-2b2c-4fe9-9e03-d3b58d84b7c1","ios":"levelo://app?vid=d8853f37-2b2c-4fe9-9e03-d3b58d84b7c1"},"vehicle_type_id":"4","last_reported":1741021718,"current_range_meters":0,"station_id":"","pricing_plan_id":"cebpf4jnsgd1na2vs0mg"},{"bike_id":"000df070-cad4-4b66-a2dd-3720c4f363bf","system_id":"levelo_inurba_marseille","lat":43.33277,"lon":5.39884,"is_reserved":false,"is_disabled":true,"rental_uris":{"android":"levelo://app?vid=000df070-cad4-4b66-a2dd-3720c4f363bf","ios":"levelo://app?vid=000df070-cad4-4b66-a2dd-3720c4f363bf"},"vehicle_type_id":"4","last_reported":1741021718,"current_range_meters":0,"station_id":"","pricing_plan_id":"cebpf4jnsgd1na2vs0mg"},{"bike_id":"50d0da4d-e802-4113-9ad6-e12af0a98103","system_id":"levelo_inurba_marseille","lat":43.33536,"lon":5.39972,"is_reserved":false,"is_disabled":true,"rental_uris":{"android":"levelo://app?vid=50d0da4d-e802-4113-9ad6-e12af0a98103","ios":"levelo://app?vid=50d0da4d-e802-4113-9ad6-e12af0a98103"},"vehicle_type_id":"4","last_reported":1741021718,"current_range_meters":0,"station_id":"","pricing_plan_id":"cebpf4jnsgd1na2vs0mg"},{"bike_id":"67dfd303-f413-4513-a7b5-9483fad0f577","system_id":"levelo_inurba_marseille","lat":43.30074,"lon":5.39075,"is_reserved":false,"is_disabled":true,"rental_uris":{"android":"levelo://app?vid=67dfd303-f413-4513-a7b5-9483fad0f577","ios":"levelo://app?vid=67dfd303-f413-4513-a7b5-9483fad0f577"},"vehicle_type_id":"4","last_reported":1741021718,"current_range_meters":0,"station_id":"ce4bh192rcd13ifvqdb0","pricing_plan_id":"cebpf4jnsgd1na2vs0mg"},{"bike_id":"d5d94c05-55bf-4576-aad8-da01a27ea721","system_id":"levelo_inurba_marseille","lat":43.301075,"lon":5.390834,"is_reserved":false,"is_disabled":true,"rental_uris":{"android":"levelo://app?vid=d5d94c05-55bf-4576-aad8-da01a27ea721","ios":"levelo://app?vid=d5d94c05-55bf-4576-aad8-da01a27ea721"},"vehicle_type_id":"4","last_reported":1741021718,"current_range_meters":0,"station_id":"ce4bh192rcd13ifvqdb0","pricing_plan_id":"cebpf4jnsgd1na2vs0mg"},{"bike_id":"d2de44e7-0384-4e29-8af3-e16ef1051031","system_id":"levelo_inurba_marseille","lat":43.299866,"lon":5.371847,"is_reserved":false,"is_disabled":true,"rental_uris":{"android":"levelo://app?vid=d2de44e7-0384-4e29-8af3-e16ef1051031","ios":"levelo://app?vid=d2de44e7-0384-4e29-8af3-e16ef1051031"},"vehicle_type_id":"4","last_reported":1741021718,"current_range_meters":0,"station_id":"ce4bh512rcd13ifvqe3g","pricing_plan_id":"cebpf4jnsgd1na2vs0mg"},{"bike_id":"7a019b21-181d-4711-b53d-7fb662b6095c","system_id":"levelo_inurba_marseille","lat":43.2917,"lon":5.37136,"is_reserved":false,"is_disabled":true,"rental_uris":{"android":"levelo://app?vid=7a019b21-181d-4711-b53d-7fb662b6095c","ios":"levelo://app?vid=7a019b21-181d-4711-b53d-7fb662b6095c"},"vehicle_type_id":"4","last_reported":1741021718,"current_range_meters":0,"station_id":"ce4bha92rcd13ifvqeh0","pricing_plan_id":"cebpf4jnsgd1na2vs0mg"},{"bike_id":"ee091e19-520e-43aa-b8c9-1a86cacac1c0","system_id":"levelo_inurba_marseille","lat":43.29024,"lon":5.35616,"is_reserved":false,"is_disabled":true,"rental_uris":{"android":"levelo://app?vid=ee091e19-520e-43aa-b8c9-1a86cacac1c0","ios":"levelo://app?vid=ee091e19-520e-43aa-b8c9-1a86cacac1c0"},"vehicle_type_id":"4","last_reported":1741021718,"current_range_meters":0,"station_id":"ce4bhb92rcd13ifvqen0","pricing_plan_id":"cebpf4jnsgd1na2vs0mg"},{"bike_id":"e7442261-e8c8-4ccf-8f88-8342a3cb2c7d","system_id":"levelo_inurba_marseille","lat":43.2481,"lon":5.37458,"is_reserved":false,"is_disabled":true,"rental_uris":{"android":"levelo://app?vid=e7442261-e8c8-4ccf-8f88-8342a3cb2c7d","ios":"levelo://app?vid=e7442261-e8c8-4ccf-8f88-8342a3cb2c7d"},"vehicle_type_id":"4","last_reported":1741021718,"current_range_meters":0,"station_id":"ce4bhgh2rcd13ifvqfb0","pricing_plan_id":"cebpf4jnsgd1na2vs0mg"},{"bike_id":"5efcdb7f-552d-43b2-aaa3-56e269911d66","system_id":"levelo_inurba_marseille","lat":43.27094,"lon":5.38863,"is_reserved":false,"is_disabled":true,"rental_uris":{"android":"levelo://app?vid=5efcdb7f-552d-43b2-aaa3-56e269911d66","ios":"levelo://app?vid=5efcdb7f-552d-43b2-aaa3-56e269911d66"},"vehicle_type_id":"4","last_reported":1741021718,"current_range_meters":0,"station_id":"ce4bhh92rcd13ifvqfh0","pricing_plan_id":"cebpf4jnsgd1na2vs0mg"},{"bike_id":"8972aebf-c6c3-4926-b72e-2fc2f73bbfad","system_id":"levelo_inurba_marseille","lat":43.2756,"lon":5.38432,"is_reserved":false,"is_disabled":true,"rental_uris":{"android":"levelo://app?vid=8972aebf-c6c3-4926-b72e-2fc2f73bbfad","ios":"levelo://app?vid=8972aebf-c6c3-4926-b72e-2fc2f73bbfad"},"vehicle_type_id":"4","last_reported":1741021718,"current_range_meters":0,"station_id":"ce4bhh92rcd13ifvqfi0","pricing_plan_id":"cebpf4jnsgd1na2vs0mg"},{"bike_id":"1841ad4e-093a-4006-919a-608ebfb6d347","system_id":"levelo_inurba_marseille","lat":43.25118,"lon":5.40315,"is_reserved":false,"is_disabled":true,"rental_uris":{"android":"levelo://app?vid=1841ad4e-093a-4006-919a-608ebfb6d347","ios":"levelo://app?vid=1841ad4e-093a-4006-919a-608ebfb6d347"},"vehicle_type_id":"4","last_reported":1741021718,"current_range_meters":0,"station_id":"ce4bhlh2rcd13ifvqgig","pricing_plan_id":"cebpf4jnsgd1na2vs0mg"},{"bike_id":"7a4a6e54-4ddf-40d7-ba32-7188cea2aa6b","system_id":"levelo_inurba_marseille","lat":43.28701,"lon":5.40001,"is_reserved":false,"is_disabled":true,"rental_uris":{"android":"levelo://app?vid=7a4a6e54-4ddf-40d7-ba32-7188cea2aa6b","ios":"levelo://app?vid=7a4a6e54-4ddf-40d7-ba32-7188cea2aa6b"},"vehicle_type_id":"4","last_reported":1741021718,"current_range_meters":0,"station_id":"ce4bho92rcd13ifvqh3g","pricing_plan_id":"cebpf4jnsgd1na2vs0mg"},{"bike_id":"0050bd2d-ff01-4e9a-b1c8-db1b9342dfb1","system_id":"levelo_inurba_marseille","lat":43.32127,"lon":5.36792,"is_reserved":false,"is_disabled":true,"rental_uris":{"android":"levelo://app?vid=0050bd2d-ff01-4e9a-b1c8-db1b9342dfb1","ios":"levelo://app?vid=0050bd2d-ff01-4e9a-b1c8-db1b9342dfb1"},"vehicle_type_id":"4","last_reported":1741021718,"current_range_meters":0,"station_id":"ce4bhrh2rcd13ifvqhug","pricing_plan_id":"cebpf4jnsgd1na2vs0mg"},{"bike_id":"ba7a3b6b-ffb1-4b7c-85b4-3fc3b13f51e9","system_id":"levelo_inurba_marseille","lat":43.3342,"lon":5.38241,"is_reserved":false,"is_disabled":true,"rental_uris":{"android":"levelo://app?vid=ba7a3b6b-ffb1-4b7c-85b4-3fc3b13f51e9","ios":"levelo://app?vid=ba7a3b6b-ffb1-4b7c-85b4-3fc3b13f51e9"},"vehicle_type_id":"4","last_reported":1741021718,"current_range_meters":400,"station_id":"","pricing_plan_id":"cebpf4jnsgd1na2vs0mg"},{"bike_id":"66eb69fc-2363-43c0-946a-258ce5d518e3","system_id":"levelo_inurba_marseille","lat":43.29644,"lon":5.40597,"is_reserved":false,"is_disabled":true,"rental_uris":{"android":"levelo://app?vid=66eb69fc-2363-43c0-946a-258ce5d518e3","ios":"levelo://app?vid=66eb69fc-2363-43c0-946a-258ce5d518e3"},"vehicle_type_id":"4","last_reported":1741021718,"current_range_meters":400,"station_id":"ce4bh0h2rcd13ifvqd60","pricing_plan_id":"cebpf4jnsgd1na2vs0mg"},{"bike_id":"9413e7dc-1777-4865-ad28-d7aa3312228d","system_id":"levelo_inurba_marseille","lat":43.28421,"lon":5.34981,"is_reserved":false,"is_disabled":true,"rental_uris":{"android":"levelo://app?vid=9413e7dc-1777-4865-ad28-d7aa3312228d","ios":"levelo://app?vid=9413e7dc-1777-4865-ad28-d7aa3312228d"},"vehicle_type_id":"4","last_reported":1741021718,"current_range_meters":400,"station_id":"ce4bhbh2rcd13ifvqepg","pricing_plan_id":"cebpf4jnsgd1na2vs0mg"},{"bike_id":"52c97727-d50a-4abc-8155-4163f2f9bb27","system_id":"levelo_inurba_marseille","lat":43.30955,"lon":5.39046,"is_reserved":false,"is_disabled":true,"rental_uris":{"android":"levelo://app?vid=52c97727-d50a-4abc-8155-4163f2f9bb27","ios":"levelo://app?vid=52c97727-d50a-4abc-8155-4163f2f9bb27"},"vehicle_type_id":"4","last_reported":1741021718,"current_range_meters":800,"station_id":"ce4bgup2rcd13ifvqco0","pricing_plan_id":"cebpf4jnsgd1na2vs0mg"},{"bike_id":"c9aa6312-afcf-48c3-8920-61cf27b38419","system_id":"levelo_inurba_marseille","lat":43.24394,"lon":5.37046,"is_reserved":false,"is_disabled":true,"rental_uris":{"android":"levelo://app?vid=c9aa6312-afcf-48c3-8920-61cf27b38419","ios":"levelo://app?vid=c9aa6312-afcf-48c3-8920-61cf27b38419"},"vehicle_type_id":"4","last_reported":1741021718,"current_range_meters":800,"station_id":"ce4bhhh2rcd13ifvqfk0","pricing_plan_id":"cebpf4jnsgd1na2vs0mg"},{"bike_id":"7582039b-8c62-4f60-b82e-2cd531dd6636","system_id":"levelo_inurba_marseille","lat":43.27067,"lon":5.42273,"is_reserved":false,"is_disabled":true,"rental_uris":{"android":"levelo://app?vid=7582039b-8c62-4f60-b82e-2cd531dd6636","ios":"levelo://app?vid=7582039b-8c62-4f60-b82e-2cd531dd6636"},"vehicle_type_id":"4","last_reported":1741021718,"current_range_meters":800,"station_id":"ce4bhk92rcd13ifvqgb0","pricing_plan_id":"cebpf4jnsgd1na2vs0mg"},{"bike_id":"434a663c-496b-4792-b7ae-7cea61d7991e","system_id":"levelo_inurba_marseille","lat":43.27613,"lon":5.36114,"is_reserved":false,"is_disabled":true,"rental_uris":{"android":"levelo://app?vid=434a663c-496b-4792-b7ae-7cea61d7991e","ios":"levelo://app?vid=434a663c-496b-4792-b7ae-7cea61d7991e"},"vehicle_type_id":"4","last_reported":1741021718,"current_range_meters":1200,"station_id":"ce4bgj92rcd13ifvqbe0","pricing_plan_id":"cebpf4jnsgd1na2vs0mg"},{"bike_id":"71e7e831-7788-449a-bf40-47f97d1d588c","system_id":"levelo_inurba_marseille","lat":43.29209,"lon":5.39327,"is_reserved":false,"is_disabled":true,"rental_uris":{"android":"levelo://app?vid=71e7e831-7788-449a-bf40-47f97d1d588c","ios":"levelo://app?vid=71e7e831-7788-449a-bf40-47f97d1d588c"},"vehicle_type_id":"4","last_reported":1741021718,"current_range_meters":1200,"station_id":"ce4bh192rcd13ifvqdd0","pricing_plan_id":"cebpf4jnsgd1na2vs0mg"},{"bike_id":"dbc9e989-054b-4898-bb04-255156707f04","system_id":"levelo_inurba_marseille","lat":43.29101,"lon":5.38163,"is_reserved":false,"is_disabled":true,"rental_uris":{"android":"levelo://app?vid=dbc9e989-054b-4898-bb04-255156707f04","ios":"levelo://app?vid=dbc9e989-054b-4898-bb04-255156707f04"},"vehicle_type_id":"4","last_reported":1741021718,"current_range_meters":1200,"station_id":"ce4bh512rcd13ifvqe2g","pricing_plan_id":"cebpf4jnsgd1na2vs0mg"},{"bike_id":"469c1ad0-b1d4-4914-9db9-8bbd73ed7417","system_id":"levelo_inurba_marseille","lat":43.28927,"lon":5.36395,"is_reserved":false,"is_disabled":true,"rental_uris":{"android":"levelo://app?vid=469c1ad0-b1d4-4914-9db9-8bbd73ed7417","ios":"levelo://app?vid=469c1ad0-b1d4-4914-9db9-8bbd73ed7417"},"vehicle_type_id":"4","last_reported":1741021718,"current_range_meters":1200,"station_id":"ce4bhc92rcd13ifvqetg","pricing_plan_id":"cebpf4jnsgd1na2vs0mg"},{"bike_id":"cc8f7a72-e14a-4549-89c1-f869eb8af096","system_id":"levelo_inurba_marseille","lat":43.26213,"lon":5.37442,"is_reserved":false,"is_disabled":true,"rental_uris":{"android":"levelo://app?vid=cc8f7a72-e14a-4549-89c1-f869eb8af096","ios":"levelo://app?vid=cc8f7a72-e14a-4549-89c1-f869eb8af096"},"vehicle_type_id":"4","last_reported":1741021718,"current_range_meters":1200,"station_id":"ce4bhgp2rcd13ifvqfc0","pricing_plan_id":"cebpf4jnsgd1na2vs0mg"},{"bike_id":"b6a3a54a-cfc3-42b7-b908-8a929eaa76f2","system_id":"levelo_inurba_marseille","lat":43.27817,"lon":5.40714,"is_reserved":false,"is_disabled":true,"rental_uris":{"android":"levelo://app?vid=b6a3a54a-cfc3-42b7-b908-8a929eaa76f2","ios":"levelo://app?vid=b6a3a54a-cfc3-42b7-b908-8a929eaa76f2"},"vehicle_type_id":"4","last_reported":1741021718,"current_range_meters":1200,"station_id":"ce4bhnh2rcd13ifvqgtg","pricing_plan_id":"cebpf4jnsgd1na2vs0mg"},{"bike_id":"6d6561ce-edea-43b4-b0c4-ad075ad61e69","system_id":"levelo_inurba_marseille","lat":43.32463,"lon":5.36532,"is_reserved":false,"is_disabled":true,"rental_uris":{"android":"levelo://app?vid=6d6561ce-edea-43b4-b0c4-ad075ad61e69","ios":"levelo://app?vid=6d6561ce-edea-43b4-b0c4-ad075ad61e69"},"vehicle_type_id":"4","last_reported":1741021718,"current_range_meters":1200,"station_id":"ce4bhs12rcd13ifvqhvg","pricing_plan_id":"cebpf4jnsgd1na2vs0mg"},{"bike_id":"ed66d6d0-2199-4330-a81f-5b8beacb5347","system_id":"levelo_inurba_marseille","lat":43.28393,"lon":5.37522,"is_reserved":false,"is_disabled":true,"rental_uris":{"android":"levelo://app?vid=ed66d6d0-2199-4330-a81f-5b8beacb5347","ios":"levelo://app?vid=ed66d6d0-2199-4330-a81f-5b8beacb5347"},"vehicle_type_id":"4","last_reported":1741021718,"current_range_meters":1600,"station_id":"ce4bh412rcd13ifvqds0","pricing_plan_id":"cebpf4jnsgd1na2vs0mg"},{"bike_id":"8085e1f1-3396-4fee-b710-08f584652dab","system_id":"levelo_inurba_marseille","lat":43.24804,"lon":5.37451,"is_reserved":false,"is_disabled":true,"rental_uris":{"android":"levelo://app?vid=8085e1f1-3396-4fee-b710-08f584652dab","ios":"levelo://app?vid=8085e1f1-3396-4fee-b710-08f584652dab"},"vehicle_type_id":"4","last_reported":1741021718,"current_range_meters":1600,"station_id":"ce4bhgh2rcd13ifvqfb0","pricing_plan_id":"cebpf4jnsgd1na2vs0mg"},{"bike_id":"ab8d605d-b91c-4f8d-92a8-34edc565eadc","system_id":"levelo_inurba_marseille","lat":43.27811,"lon":5.40723,"is_reserved":false,"is_disabled":true,"rental_uris":{"android":"levelo://app?vid=ab8d605d-b91c-4f8d-92a8-34edc565eadc","ios":"levelo://app?vid=ab8d605d-b91c-4f8d-92a8-34edc565eadc"},"vehicle_type_id":"4","last_reported":1741021718,"current_range_meters":2000,"station_id":"ce4bhnh2rcd13ifvqgtg","pricing_plan_id":"cebpf4jnsgd1na2vs0mg"},{"bike_id":"171c3c19-0f02-46cc-ac12-f7122298499f","system_id":"levelo_inurba_marseille","lat":43.30542,"lon":5.36719,"is_reserved":false,"is_disabled":false,"rental_uris":{"android":"levelo://app?vid=171c3c19-0f02-46cc-ac12-f7122298499f","ios":"levelo://app?vid=171c3c19-0f02-46cc-ac12-f7122298499f"},"vehicle_type_id":"4","last_reported":1741021718,"current_range_meters":2800,"station_id":"ce4bgrp2rcd13ifvqc9g","pricing_plan_id":"cebpf4jnsgd1na2vs0mg"},{"bike_id":"d74de171-57be-4ba3-8edc-b71bd43b6db4","system_id":"levelo_inurba_marseille","lat":43.24663,"lon":5.38167,"is_reserved":false,"is_disabled":false,"rental_uris":{"android":"levelo://app?vid=d74de171-57be-4ba3-8edc-b71bd43b6db4","ios":"levelo://app?vid=d74de171-57be-4ba3-8edc-b71bd43b6db4"},"vehicle_type_id":"4","last_reported":1741021718,"current_range_meters":2800,"station_id":"ce4bhih2rcd13ifvqfr0","pricing_plan_id":"cebpf4jnsgd1na2vs0mg"},{"bike_id":"22fae547-e446-46ff-a02d-c56f6b239dd6","system_id":"levelo_inurba_marseille","lat":43.31322,"lon":5.39692,"is_reserved":false,"is_disabled":false,"rental_uris":{"android":"levelo://app?vid=22fae547-e446-46ff-a02d-c56f6b239dd6","ios":"levelo://app?vid=22fae547-e446-46ff-a02d-c56f6b239dd6"},"vehicle_type_id":"4","last_reported":1741021718,"current_range_meters":3200,"station_id":"ce4bgvp2rcd13ifvqcu0","pricing_plan_id":"cebpf4jnsgd1na2vs0mg"},{"bike_id":"2378b1e6-2747-4314-b796-7dfd5c53c7ec","system_id":"levelo_inurba_marseille","lat":43.29171,"lon":5.35793,"is_reserved":false,"is_disabled":false,"rental_uris":{"android":"levelo://app?vid=2378b1e6-2747-4314-b796-7dfd5c53c7ec","ios":"levelo://app?vid=2378b1e6-2747-4314-b796-7dfd5c53c7ec"},"vehicle_type_id":"4","last_reported":1741021718,"current_range_meters":3200,"station_id":"ce4bhb12rcd13ifvqel0","pricing_plan_id":"cebpf4jnsgd1na2vs0mg"},{"bike_id":"b21fc5a0-d2a4-4f0d-8a69-a1dc4d1a083a","system_id":"levelo_inurba_marseille","lat":43.26208,"lon":5.37442,"is_reserved":false,"is_disabled":false,"rental_uris":{"android":"levelo://app?vid=b21fc5a0-d2a4-4f0d-8a69-a1dc4d1a083a","ios":"levelo://app?vid=b21fc5a0-d2a4-4f0d-8a69-a1dc4d1a083a"},"vehicle_type_id":"4","last_reported":1741021718,"current_range_meters":3200,"station_id":"ce4bhgp2rcd13ifvqfc0","pricing_plan_id":"cebpf4jnsgd1na2vs0mg"},{"bike_id":"c98ace63-f039-49c0-9cf5-ae6e73f28f6e","system_id":"levelo_inurba_marseille","lat":43.28153,"lon":5.42639,"is_reserved":false,"is_disabled":false,"rental_uris":{"android":"levelo://app?vid=c98ace63-f039-49c0-9cf5-ae6e73f28f6e","ios":"levelo://app?vid=c98ace63-f039-49c0-9cf5-ae6e73f28f6e"},"vehicle_type_id":"4","last_reported":1741021718,"current_range_meters":3200,"station_id":"ce4bhnh2rcd13ifvqgug","pricing_plan_id":"cebpf4jnsgd1na2vs0mg"},{"bike_id":"ae7562b2-924c-47b2-a91e-6cda256bd939","system_id":"levelo_inurba_marseille","lat":43.28152,"lon":5.42648,"is_reserved":false,"is_disabled":false,"rental_uris":{"android":"levelo://app?vid=ae7562b2-924c-47b2-a91e-6cda256bd939","ios":"levelo://app?vid=ae7562b2-924c-47b2-a91e-6cda256bd939"},"vehicle_type_id":"4","last_reported":1741021718,"current_range_meters":3200,"station_id":"ce4bhnh2rcd13ifvqgug","pricing_plan_id":"cebpf4jnsgd1na2vs0mg"},{"bike_id":"d22795f5-9bc3-44cf-ac13-ccad3fd7f08a","system_id":"levelo_inurba_marseille","lat":43.29014,"lon":5.35607,"is_reserved":false,"is_disabled":false,"rental_uris":{"android":"levelo://app?vid=d22795f5-9bc3-44cf-ac13-ccad3fd7f08a","ios":"levelo://app?vid=d22795f5-9bc3-44cf-ac13-ccad3fd7f08a"},"vehicle_type_id":"4","last_reported":1741021718,"current_range_meters":3600,"station_id":"ce4bhb92rcd13ifvqen0","pricing_plan_id":"cebpf4jnsgd1na2vs0mg"},{"bike_id":"db917d75-2e56-416a-a174-c009ce6c14ea","system_id":"levelo_inurba_marseille","lat":43.28935,"lon":5.36402,"is_reserved":false,"is_disabled":false,"rental_uris":{"android":"levelo://app?vid=db917d75-2e56-416a-a174-c009ce6c14ea","ios":"levelo://app?vid=db917d75-2e56-416a-a174-c009ce6c14ea"},"vehicle_type_id":"4","last_reported":1741021718,"current_range_meters":3600,"station_id":"ce4bhc92rcd13ifvqetg","pricing_plan_id":"cebpf4jnsgd1na2vs0mg"},{"bike_id":"c441ad9f-2f94-4c94-bb96-12e04c4f0134","system_id":"levelo_inurba_marseille","lat":43.23191,"lon":5.39981,"is_reserved":false,"is_disabled":false,"rental_uris":{"android":"levelo://app?vid=c441ad9f-2f94-4c94-bb96-12e04c4f0134","ios":"levelo://app?vid=c441ad9f-2f94-4c94-bb96-12e04c4f0134"},"vehicle_type_id":"4","last_reported":1741021718,"current_range_meters":3600,"station_id":"ce4bhn12rcd13ifvqgqg","pricing_plan_id":"cebpf4jnsgd1na2vs0mg"},{"bike_id":"d7ce44cc-3af2-4647-93ca-8a6f7b44c256","system_id":"levelo_inurba_marseille","lat":43.32808,"lon":5.3915,"is_reserved":false,"is_disabled":false,"rental_uris":{"android":"levelo://app?vid=d7ce44cc-3af2-4647-93ca-8a6f7b44c256","ios":"levelo://app?vid=d7ce44cc-3af2-4647-93ca-8a6f7b44c256"},"vehicle_type_id":"4","last_reported":1741021718,"current_range_meters":4000,"station_id":"","pricing_plan_id":"cebpf4jnsgd1na2vs0mg"},{"bike_id":"dafaa848-8e2a-4dc6-a493-5ade59bd5a9a","system_id":"levelo_inurba_marseille","lat":43.27611,"lon":5.36105,"is_reserved":false,"is_disabled":false,"rental_uris":{"android":"levelo://app?vid=dafaa848-8e2a-4dc6-a493-5ade59bd5a9a","ios":"levelo://app?vid=dafaa848-8e2a-4dc6-a493-5ade59bd5a9a"},"vehicle_type_id":"4","last_reported":1741021718,"current_range_meters":4000,"station_id":"ce4bgj92rcd13ifvqbe0","pricing_plan_id":"cebpf4jnsgd1na2vs0mg"},{"bike_id":"19b51710-5482-44cc-ac10-dee5d3a7565f","system_id":"levelo_inurba_marseille","lat":43.31482,"lon":5.37308,"is_reserved":false,"is_disabled":false,"rental_uris":{"android":"levelo://app?vid=19b51710-5482-44cc-ac10-dee5d3a7565f","ios":"levelo://app?vid=19b51710-5482-44cc-ac10-dee5d3a7565f"},"vehicle_type_id":"4","last_reported":1741021718,"current_range_meters":4000,"station_id":"ce4bgt12rcd13ifvqcd0","pricing_plan_id":"cebpf4jnsgd1na2vs0mg"},{"bike_id":"3dc7f799-bc46-44e7-bbb5-ad1a0666e85d","system_id":"levelo_inurba_marseille","lat":43.29193,"lon":5.40888,"is_reserved":false,"is_disabled":false,"rental_uris":{"android":"levelo://app?vid=3dc7f799-bc46-44e7-bbb5-ad1a0666e85d","ios":"levelo://app?vid=3dc7f799-bc46-44e7-bbb5-ad1a0666e85d"},"vehicle_type_id":"4","last_reported":1741021718,"current_range_meters":4400,"station_id":"","pricing_plan_id":"cebpf4jnsgd1na2vs0mg"},{"bike_id":"7294fa1b-6789-4d34-92da-72d6801cf1aa","system_id":"levelo_inurba_marseille","lat":43.32734,"lon":5.36272,"is_reserved":false,"is_disabled":false,"rental_uris":{"android":"levelo://app?vid=7294fa1b-6789-4d34-92da-72d6801cf1aa","ios":"levelo://app?vid=7294fa1b-6789-4d34-92da-72d6801cf1aa"},"vehicle_type_id":"4","last_reported":1741021718,"current_range_meters":4400,"station_id":"","pricing_plan_id":"cebpf4jnsgd1na2vs0mg"},{"bike_id":"ae75994e-7ed6-4ea1-a250-ed34ec3acf75","system_id":"levelo_inurba_marseille","lat":43.29565,"lon":5.37509,"is_reserved":false,"is_disabled":false,"rental_uris":{"android":"levelo://app?vid=ae75994e-7ed6-4ea1-a250-ed34ec3acf75","ios":"levelo://app?vid=ae75994e-7ed6-4ea1-a250-ed34ec3acf75"},"vehicle_type_id":"4","last_reported":1741021718,"current_range_meters":4400,"station_id":"ce4bgh92rcd13ifvqb50","pricing_plan_id":"cebpf4jnsgd1na2vs0mg"},{"bike_id":"c15f779f-0c37-4ba1-9952-dfc4c3c9c832","system_id":"levelo_inurba_marseille","lat":43.2996,"lon":5.3851,"is_reserved":false,"is_disabled":false,"rental_uris":{"android":"levelo://app?vid=c15f779f-0c37-4ba1-9952-dfc4c3c9c832","ios":"levelo://app?vid=c15f779f-0c37-4ba1-9952-dfc4c3c9c832"},"vehicle_type_id":"4","last_reported":1741021718,"current_range_meters":4400,"station_id":"ce4bgj92rcd13ifvqbd0","pricing_plan_id":"cebpf4jnsgd1na2vs0mg"},{"bike_id":"825e15db-64cf-4b10-a17d-3d24e483a7a4","system_id":"levelo_inurba_marseille","lat":43.29037,"lon":5.38642,"is_reserved":false,"is_disabled":false,"rental_uris":{"android":"levelo://app?vid=825e15db-64cf-4b10-a17d-3d24e483a7a4","ios":"levelo://app?vid=825e15db-64cf-4b10-a17d-3d24e483a7a4"},"vehicle_type_id":"4","last_reported":1741021718,"current_range_meters":4400,"station_id":"ce4bh4p2rcd13ifvqe0g","pricing_plan_id":"cebpf4jnsgd1na2vs0mg"},{"bike_id":"f6f858de-5126-4efb-a6db-8a6449f9017d","system_id":"levelo_inurba_marseille","lat":43.292959,"lon":5.374652,"is_reserved":false,"is_disabled":false,"rental_uris":{"android":"levelo://app?vid=f6f858de-5126-4efb-a6db-8a6449f9017d","ios":"levelo://app?vid=f6f858de-5126-4efb-a6db-8a6449f9017d"},"vehicle_type_id":"4","last_reported":1741021718,"current_range_meters":4400,"station_id":"ce4bhc92rcd13ifvqetg","pricing_plan_id":"cebpf4jnsgd1na2vs0mg"},{"bike_id":"8b458597-9639-492e-aa6b-d0a23ffeb280","system_id":"levelo_inurba_marseille","lat":43.25585,"lon":5.38228,"is_reserved":false,"is_disabled":false,"rental_uris":{"android":"levelo://app?vid=8b458597-9639-492e-aa6b-d0a23ffeb280","ios":"levelo://app?vid=8b458597-9639-492e-aa6b-d0a23ffeb280"},"vehicle_type_id":"4","last_reported":1741021718,"current_range_meters":4400,"station_id":"ce4bhih2rcd13ifvqfs0","pricing_plan_id":"cebpf4jnsgd1na2vs0mg"},{"bike_id":"17da020e-a4cd-4313-b0ef-326e5fa07f09","system_id":"levelo_inurba_marseille","lat":43.2991,"lon":5.38155,"is_reserved":false,"is_disabled":false,"rental_uris":{"android":"levelo://app?vid=17da020e-a4cd-4313-b0ef-326e5fa07f09","ios":"levelo://app?vid=17da020e-a4cd-4313-b0ef-326e5fa07f09"},"vehicle_type_id":"4","last_reported":1741021718,"current_range_meters":4800,"station_id":"ce4bgj12rcd13ifvqbc0","pricing_plan_id":"cebpf4jnsgd1na2vs0mg"},{"bike_id":"1a243dff-821e-472f-a43b-80832fce26af","system_id":"levelo_inurba_marseille","lat":43.29723,"lon":5.36295,"is_reserved":false,"is_disabled":false,"rental_uris":{"android":"levelo://app?vid=1a243dff-821e-472f-a43b-80832fce26af","ios":"levelo://app?vid=1a243dff-821e-472f-a43b-80832fce26af"},"vehicle_type_id":"4","last_reported":1741021718,"current_range_meters":4800,"station_id":"ce4bgs12rcd13ifvqcag","pricing_plan_id":"cebpf4jnsgd1na2vs0mg"},{"bike_id":"13160af1-152d-4aed-8621-e8cde2b91253","system_id":"levelo_inurba_marseille","lat":43.28924,"lon":5.36652,"is_reserved":false,"is_disabled":false,"rental_uris":{"android":"levelo://app?vid=13160af1-152d-4aed-8621-e8cde2b91253","ios":"levelo://app?vid=13160af1-152d-4aed-8621-e8cde2b91253"},"vehicle_type_id":"4","last_reported":1741021718,"current_range_meters":4800,"station_id":"ce4bhap2rcd13ifvqek0","pricing_plan_id":"cebpf4jnsgd1na2vs0mg"},{"bike_id":"564aeacb-d977-4d54-8dbe-c660af8cd2e8","system_id":"levelo_inurba_marseille","lat":43.27943,"lon":5.41048,"is_reserved":false,"is_disabled":false,"rental_uris":{"android":"levelo://app?vid=564aeacb-d977-4d54-8dbe-c660af8cd2e8","ios":"levelo://app?vid=564aeacb-d977-4d54-8dbe-c660af8cd2e8"},"vehicle_type_id":"4","last_reported":1741021718,"current_range_meters":4800,"station_id":"ce4bhnp2rcd13ifvqh0g","pricing_plan_id":"cebpf4jnsgd1na2vs0mg"},{"bike_id":"2d9f70a7-1859-48f2-947b-93ae3167a3fe","system_id":"levelo_inurba_marseille","lat":43.28109,"lon":5.37844,"is_reserved":false,"is_disabled":false,"rental_uris":{"android":"levelo://app?vid=2d9f70a7-1859-48f2-947b-93ae3167a3fe","ios":"levelo://app?vid=2d9f70a7-1859-48f2-947b-93ae3167a3fe"},"vehicle_type_id":"4","last_reported":1741021718,"current_range_meters":5600,"station_id":"ce4bha12rcd13ifvqee0","pricing_plan_id":"cebpf4jnsgd1na2vs0mg"},{"bike_id":"b3cffb3d-8fdd-489f-a46e-e1071f8a759f","system_id":"levelo_inurba_marseille","lat":43.2719,"lon":5.40979,"is_reserved":false,"is_disabled":false,"rental_uris":{"android":"levelo://app?vid=b3cffb3d-8fdd-489f-a46e-e1071f8a759f","ios":"levelo://app?vid=b3cffb3d-8fdd-489f-a46e-e1071f8a759f"},"vehicle_type_id":"4","last_reported":1741021718,"current_range_meters":5600,"station_id":"ce4bhl12rcd13ifvqgf0","pricing_plan_id":"cebpf4jnsgd1na2vs0mg"},{"bike_id":"c6f4b00a-59e2-4354-8c49-249054fd71e5","system_id":"levelo_inurba_marseille","lat":43.30797,"lon":5.37656,"is_reserved":false,"is_disabled":false,"rental_uris":{"android":"levelo://app?vid=c6f4b00a-59e2-4354-8c49-249054fd71e5","ios":"levelo://app?vid=c6f4b00a-59e2-4354-8c49-249054fd71e5"},"vehicle_type_id":"4","last_reported":1741021718,"current_range_meters":6000,"station_id":"ce4bgv92rcd13ifvqcq0","pricing_plan_id":"cebpf4jnsgd1na2vs0mg"},{"bike_id":"252b2bfa-4455-4741-9631-e65d3f23ad24","system_id":"levelo_inurba_marseille","lat":43.313293,"lon":5.39696,"is_reserved":false,"is_disabled":false,"rental_uris":{"android":"levelo://app?vid=252b2bfa-4455-4741-9631-e65d3f23ad24","ios":"levelo://app?vid=252b2bfa-4455-4741-9631-e65d3f23ad24"},"vehicle_type_id":"4","last_reported":1741021718,"current_range_meters":6000,"station_id":"ce4bhb12rcd13ifvqel0","pricing_plan_id":"cebpf4jnsgd1na2vs0mg"},{"bike_id":"0b5ab9ed-5549-4439-8ff6-c1eccd69c256","system_id":"levelo_inurba_marseille","lat":43.28932,"lon":5.36391,"is_reserved":false,"is_disabled":false,"rental_uris":{"android":"levelo://app?vid=0b5ab9ed-5549-4439-8ff6-c1eccd69c256","ios":"levelo://app?vid=0b5ab9ed-5549-4439-8ff6-c1eccd69c256"},"vehicle_type_id":"4","last_reported":1741021718,"current_range_meters":6000,"station_id":"ce4bhc92rcd13ifvqetg","pricing_plan_id":"cebpf4jnsgd1na2vs0mg"},{"bike_id":"b79e9a12-491e-4c25-a97c-2e5befd48ff8","system_id":"levelo_inurba_marseille","lat":43.27918,"lon":5.3958,"is_reserved":false,"is_disabled":false,"rental_uris":{"android":"levelo://app?vid=b79e9a12-491e-4c25-a97c-2e5befd48ff8","ios":"levelo://app?vid=b79e9a12-491e-4c25-a97c-2e5befd48ff8"},"vehicle_type_id":"4","last_reported":1741021718,"current_range_meters":6000,"station_id":"ce4bhf92rcd13ifvqf40","pricing_plan_id":"cebpf4jnsgd1na2vs0mg"},{"bike_id":"bb0b57a7-4b0f-4325-ae22-f6c5a049da26","system_id":"levelo_inurba_marseille","lat":43.2467,"lon":5.38151,"is_reserved":false,"is_disabled":false,"rental_uris":{"android":"levelo://app?vid=bb0b57a7-4b0f-4325-ae22-f6c5a049da26","ios":"levelo://app?vid=bb0b57a7-4b0f-4325-ae22-f6c5a049da26"},"vehicle_type_id":"4","last_reported":1741021718,"current_range_meters":6000,"station_id":"ce4bhih2rcd13ifvqfr0","pricing_plan_id":"cebpf4jnsgd1na2vs0mg"},{"bike_id":"3ec2fd7d-87b1-4a48-a3ba-b814a640607d","system_id":"levelo_inurba_marseille","lat":43.3088,"lon":5.39657,"is_reserved":false,"is_disabled":false,"rental_uris":{"android":"levelo://app?vid=3ec2fd7d-87b1-4a48-a3ba-b814a640607d","ios":"levelo://app?vid=3ec2fd7d-87b1-4a48-a3ba-b814a640607d"},"vehicle_type_id":"4","last_reported":1741021718,"current_range_meters":6400,"station_id":"ce4bh012rcd13ifvqcv0","pricing_plan_id":"cebpf4jnsgd1na2vs0mg"},{"bike_id":"1d5bb22c-64f6-4d78-85ba-878dbbd5880c","system_id":"levelo_inurba_marseille","lat":43.29419,"lon":5.38627,"is_reserved":false,"is_disabled":false,"rental_uris":{"android":"levelo://app?vid=1d5bb22c-64f6-4d78-85ba-878dbbd5880c","ios":"levelo://app?vid=1d5bb22c-64f6-4d78-85ba-878dbbd5880c"},"vehicle_type_id":"4","last_reported":1741021718,"current_range_meters":6400,"station_id":"ce4bh2h2rcd13ifvqdh0","pricing_plan_id":"cebpf4jnsgd1na2vs0mg"},{"bike_id":"9db49163-1bcf-4cb4-975b-b1e9ddf4e6d9","system_id":"levelo_inurba_marseille","lat":43.2717,"lon":5.40989,"is_reserved":false,"is_disabled":false,"rental_uris":{"android":"levelo://app?vid=9db49163-1bcf-4cb4-975b-b1e9ddf4e6d9","ios":"levelo://app?vid=9db49163-1bcf-4cb4-975b-b1e9ddf4e6d9"},"vehicle_type_id":"4","last_reported":1741021718,"current_range_meters":6400,"station_id":"ce4bhl12rcd13ifvqgf0","pricing_plan_id":"cebpf4jnsgd1na2vs0mg"},{"bike_id":"c8fdc079-d48e-4721-b3b1-5e7a4aedabf5","system_id":"levelo_inurba_marseille","lat":43.27805,"lon":5.40716,"is_reserved":false,"is_disabled":false,"rental_uris":{"android":"levelo://app?vid=c8fdc079-d48e-4721-b3b1-5e7a4aedabf5","ios":"levelo://app?vid=c8fdc079-d48e-4721-b3b1-5e7a4aedabf5"},"vehicle_type_id":"4","last_reported":1741021718,"current_range_meters":6400,"station_id":"ce4bhnh2rcd13ifvqgtg","pricing_plan_id":"cebpf4jnsgd1na2vs0mg"},{"bike_id":"27e0ce7a-e642-4f43-8eed-7ee64de18f18","system_id":"levelo_inurba_marseille","lat":43.28721,"lon":5.3609,"is_reserved":false,"is_disabled":false,"rental_uris":{"android":"levelo://app?vid=27e0ce7a-e642-4f43-8eed-7ee64de18f18","ios":"levelo://app?vid=27e0ce7a-e642-4f43-8eed-7ee64de18f18"},"vehicle_type_id":"4","last_reported":1741021718,"current_range_meters":6400,"station_id":"cki0cbj6b192h4jlfktg","pricing_plan_id":"cebpf4jnsgd1na2vs0mg"},{"bike_id":"302ddacc-3601-425f-a481-42cfbc20e2e6","system_id":"levelo_inurba_marseille","lat":43.28869,"lon":5.35843,"is_reserved":false,"is_disabled":false,"rental_uris":{"android":"levelo://app?vid=302ddacc-3601-425f-a481-42cfbc20e2e6","ios":"levelo://app?vid=302ddacc-3601-425f-a481-42cfbc20e2e6"},"vehicle_type_id":"4","last_reported":1741021718,"current_range_meters":6800,"station_id":"ce4bhb12rcd13ifvqem0","pricing_plan_id":"cebpf4jnsgd1na2vs0mg"},{"bike_id":"25eb343a-fbd9-441a-8834-980069854a8b","system_id":"levelo_inurba_marseille","lat":43.24391,"lon":5.37066,"is_reserved":false,"is_disabled":false,"rental_uris":{"android":"levelo://app?vid=25eb343a-fbd9-441a-8834-980069854a8b","ios":"levelo://app?vid=25eb343a-fbd9-441a-8834-980069854a8b"},"vehicle_type_id":"4","last_reported":1741021718,"current_range_meters":6800,"station_id":"ce4bhhh2rcd13ifvqfk0","pricing_plan_id":"cebpf4jnsgd1na2vs0mg"},{"bike_id":"bf216286-fc10-4d65-8516-fc2a1a05bbbd","system_id":"levelo_inurba_marseille","lat":43.2719,"lon":5.40981,"is_reserved":false,"is_disabled":false,"rental_uris":{"android":"levelo://app?vid=bf216286-fc10-4d65-8516-fc2a1a05bbbd","ios":"levelo://app?vid=bf216286-fc10-4d65-8516-fc2a1a05bbbd"},"vehicle_type_id":"4","last_reported":1741021718,"current_range_meters":6800,"station_id":"ce4bhl12rcd13ifvqgf0","pricing_plan_id":"cebpf4jnsgd1na2vs0mg"},{"bike_id":"6882fdeb-c50f-4170-a23d-e93b62843123","system_id":"levelo_inurba_marseille","lat":43.31369,"lon":5.38497,"is_reserved":false,"is_disabled":false,"rental_uris":{"android":"levelo://app?vid=6882fdeb-c50f-4170-a23d-e93b62843123","ios":"levelo://app?vid=6882fdeb-c50f-4170-a23d-e93b62843123"},"vehicle_type_id":"4","last_reported":1741021718,"current_range_meters":7200,"station_id":"ce4bgt92rcd13ifvqcf0","pricing_plan_id":"cebpf4jnsgd1na2vs0mg"},{"bike_id":"5cd0c11b-f9d6-428f-9f34-0abc9c264bfe","system_id":"levelo_inurba_marseille","lat":43.2799,"lon":5.41671,"is_reserved":false,"is_disabled":false,"rental_uris":{"android":"levelo://app?vid=5cd0c11b-f9d6-428f-9f34-0abc9c264bfe","ios":"levelo://app?vid=5cd0c11b-f9d6-428f-9f34-0abc9c264bfe"},"vehicle_type_id":"4","last_reported":1741021718,"current_range_meters":7200,"station_id":"ce4bho12rcd13ifvqh1g","pricing_plan_id":"cebpf4jnsgd1na2vs0mg"},{"bike_id":"76381c6e-d874-49e9-84f4-3e97c34b2bef","system_id":"levelo_inurba_marseille","lat":43.26794,"lon":5.40257,"is_reserved":false,"is_disabled":false,"rental_uris":{"android":"levelo://app?vid=76381c6e-d874-49e9-84f4-3e97c34b2bef","ios":"levelo://app?vid=76381c6e-d874-49e9-84f4-3e97c34b2bef"},"vehicle_type_id":"4","last_reported":1741021718,"current_range_meters":7200,"station_id":"ce501612rcd8frsf0b60","pricing_plan_id":"cebpf4jnsgd1na2vs0mg"},{"bike_id":"fbf28f9b-a67c-4172-8539-73534f87395b","system_id":"levelo_inurba_marseille","lat":43.27606,"lon":5.36119,"is_reserved":false,"is_disabled":false,"rental_uris":{"android":"levelo://app?vid=fbf28f9b-a67c-4172-8539-73534f87395b","ios":"levelo://app?vid=fbf28f9b-a67c-4172-8539-73534f87395b"},"vehicle_type_id":"4","last_reported":1741021718,"current_range_meters":8000,"station_id":"ce4bgj92rcd13ifvqbe0","pricing_plan_id":"cebpf4jnsgd1na2vs0mg"},{"bike_id":"d63064f3-7bbe-4885-9ca8-52de9150258c","system_id":"levelo_inurba_marseille","lat":43.31076,"lon":5.3836,"is_reserved":false,"is_disabled":false,"rental_uris":{"android":"levelo://app?vid=d63064f3-7bbe-4885-9ca8-52de9150258c","ios":"levelo://app?vid=d63064f3-7bbe-4885-9ca8-52de9150258c"},"vehicle_type_id":"4","last_reported":1741021718,"current_range_meters":8000,"station_id":"ce4bgv92rcd13ifvqcr0","pricing_plan_id":"cebpf4jnsgd1na2vs0mg"},{"bike_id":"6bb904fa-d16e-493c-a216-bbf95b8e4b0b","system_id":"levelo_inurba_marseille","lat":43.27901,"lon":5.38023,"is_reserved":false,"is_disabled":false,"rental_uris":{"android":"levelo://app?vid=6bb904fa-d16e-493c-a216-bbf95b8e4b0b","ios":"levelo://app?vid=6bb904fa-d16e-493c-a216-bbf95b8e4b0b"},"vehicle_type_id":"4","last_reported":1741021718,"current_range_meters":8000,"station_id":"ce4bhf92rcd13ifvqf50","pricing_plan_id":"cebpf4jnsgd1na2vs0mg"},{"bike_id":"1d600e81-3d6e-4e72-9e5d-16ae791b8ecb","system_id":"levelo_inurba_marseille","lat":43.26214,"lon":5.37447,"is_reserved":false,"is_disabled":false,"rental_uris":{"android":"levelo://app?vid=1d600e81-3d6e-4e72-9e5d-16ae791b8ecb","ios":"levelo://app?vid=1d600e81-3d6e-4e72-9e5d-16ae791b8ecb"},"vehicle_type_id":"4","last_reported":1741021718,"current_range_meters":8000,"station_id":"ce4bhgp2rcd13ifvqfc0","pricing_plan_id":"cebpf4jnsgd1na2vs0mg"},{"bike_id":"0a42b506-aec3-4369-808c-c91f0f7eb197","system_id":"levelo_inurba_marseille","lat":43.25583,"lon":5.38257,"is_reserved":false,"is_disabled":false,"rental_uris":{"android":"levelo://app?vid=0a42b506-aec3-4369-808c-c91f0f7eb197","ios":"levelo://app?vid=0a42b506-aec3-4369-808c-c91f0f7eb197"},"vehicle_type_id":"4","last_reported":1741021718,"current_range_meters":8000,"station_id":"ce4bhih2rcd13ifvqfs0","pricing_plan_id":"cebpf4jnsgd1na2vs0mg"},{"bike_id":"9070cde1-4d68-4729-9fb1-edccf1eb53b2","system_id":"levelo_inurba_marseille","lat":43.24632,"lon":5.42504,"is_reserved":false,"is_disabled":false,"rental_uris":{"android":"levelo://app?vid=9070cde1-4d68-4729-9fb1-edccf1eb53b2","ios":"levelo://app?vid=9070cde1-4d68-4729-9fb1-edccf1eb53b2"},"vehicle_type_id":"4","last_reported":1741021718,"current_range_meters":8000,"station_id":"ce4bhnh2rcd13ifvqgtg","pricing_plan_id":"cebpf4jnsgd1na2vs0mg"},{"bike_id":"57b67249-d2f2-4c2e-8490-51f6739546de","system_id":"levelo_inurba_marseille","lat":43.28,"lon":5.40015,"is_reserved":false,"is_disabled":false,"rental_uris":{"android":"levelo://app?vid=57b67249-d2f2-4c2e-8490-51f6739546de","ios":"levelo://app?vid=57b67249-d2f2-4c2e-8490-51f6739546de"},"vehicle_type_id":"4","last_reported":1741021718,"current_range_meters":8000,"station_id":"ce4bho92rcd13ifvqh4g","pricing_plan_id":"cebpf4jnsgd1na2vs0mg"},{"bike_id":"d115f65f-099c-4097-b1ef-2d453455c2ca","system_id":"levelo_inurba_marseille","lat":43.2962,"lon":5.37158,"is_reserved":false,"is_disabled":false,"rental_uris":{"android":"levelo://app?vid=d115f65f-099c-4097-b1ef-2d453455c2ca","ios":"levelo://app?vid=d115f65f-099c-4097-b1ef-2d453455c2ca"},"vehicle_type_id":"4","last_reported":1741021718,"current_range_meters":8400,"station_id":"ce4bgnh2rcd13ifvqc0g","pricing_plan_id":"cebpf4jnsgd1na2vs0mg"},{"bike_id":"21695fff-f155-4839-904c-88b17112f7ea","system_id":"levelo_inurba_marseille","lat":43.284,"lon":5.37511,"is_reserved":false,"is_disabled":false,"rental_uris":{"android":"levelo://app?vid=21695fff-f155-4839-904c-88b17112f7ea","ios":"levelo://app?vid=21695fff-f155-4839-904c-88b17112f7ea"},"vehicle_type_id":"4","last_reported":1741021718,"current_range_meters":8400,"station_id":"ce4bh412rcd13ifvqds0","pricing_plan_id":"cebpf4jnsgd1na2vs0mg"},{"bike_id":"6b24e546-4d16-4cc1-b120-47da96c5e908","system_id":"levelo_inurba_marseille","lat":43.26219,"lon":5.3745,"is_reserved":false,"is_disabled":false,"rental_uris":{"android":"levelo://app?vid=6b24e546-4d16-4cc1-b120-47da96c5e908","ios":"levelo://app?vid=6b24e546-4d16-4cc1-b120-47da96c5e908"},"vehicle_type_id":"4","last_reported":1741021718,"current_range_meters":8400,"station_id":"ce4bhgp2rcd13ifvqfc0","pricing_plan_id":"cebpf4jnsgd1na2vs0mg"},{"bike_id":"2ab11bbe-a968-4ea2-8a15-b47f3045ae38","system_id":"levelo_inurba_marseille","lat":43.23186,"lon":5.3999,"is_reserved":false,"is_disabled":false,"rental_uris":{"android":"levelo://app?vid=2ab11bbe-a968-4ea2-8a15-b47f3045ae38","ios":"levelo://app?vid=2ab11bbe-a968-4ea2-8a15-b47f3045ae38"},"vehicle_type_id":"4","last_reported":1741021718,"current_range_meters":8400,"station_id":"ce4bhn12rcd13ifvqgqg","pricing_plan_id":"cebpf4jnsgd1na2vs0mg"},{"bike_id":"e5cc295a-bb37-400d-b07c-79830e0f9d2e","system_id":"levelo_inurba_marseille","lat":43.27812,"lon":5.40724,"is_reserved":false,"is_disabled":false,"rental_uris":{"android":"levelo://app?vid=e5cc295a-bb37-400d-b07c-79830e0f9d2e","ios":"levelo://app?vid=e5cc295a-bb37-400d-b07c-79830e0f9d2e"},"vehicle_type_id":"4","last_reported":1741021718,"current_range_meters":8400,"station_id":"ce4bhnh2rcd13ifvqgtg","pricing_plan_id":"cebpf4jnsgd1na2vs0mg"},{"bike_id":"5da70b26-5045-4fcf-85cf-7f68a925e135","system_id":"levelo_inurba_marseille","lat":43.28017,"lon":5.41645,"is_reserved":false,"is_disabled":false,"rental_uris":{"android":"levelo://app?vid=5da70b26-5045-4fcf-85cf-7f68a925e135","ios":"levelo://app?vid=5da70b26-5045-4fcf-85cf-7f68a925e135"},"vehicle_type_id":"4","last_reported":1741021718,"current_range_meters":8400,"station_id":"ce4bho12rcd13ifvqh1g","pricing_plan_id":"cebpf4jnsgd1na2vs0mg"},{"bike_id":"f381c9bd-14fa-41ab-b589-3ecebd6dfe48","system_id":"levelo_inurba_marseille","lat":43.32364,"lon":5.36746,"is_reserved":false,"is_disabled":false,"rental_uris":{"android":"levelo://app?vid=f381c9bd-14fa-41ab-b589-3ecebd6dfe48","ios":"levelo://app?vid=f381c9bd-14fa-41ab-b589-3ecebd6dfe48"},"vehicle_type_id":"4","last_reported":1741021718,"current_range_meters":8400,"station_id":"ce4bhsh2rcd13ifvqi2g","pricing_plan_id":"cebpf4jnsgd1na2vs0mg"},{"bike_id":"1d34f648-5239-430b-90b9-0227061e3556","system_id":"levelo_inurba_marseille","lat":43.28609,"lon":5.37067,"is_reserved":false,"is_disabled":false,"rental_uris":{"android":"levelo://app?vid=1d34f648-5239-430b-90b9-0227061e3556","ios":"levelo://app?vid=1d34f648-5239-430b-90b9-0227061e3556"},"vehicle_type_id":"4","last_reported":1741021718,"current_range_meters":8400,"station_id":"ce4bht12rcd13ifvqi60","pricing_plan_id":"cebpf4jnsgd1na2vs0mg"},{"bike_id":"a6f71a9d-4586-404b-a296-28eea5d34f55","system_id":"levelo_inurba_marseille","lat":43.30891,"lon":5.39622,"is_reserved":false,"is_disabled":false,"rental_uris":{"android":"levelo://app?vid=a6f71a9d-4586-404b-a296-28eea5d34f55","ios":"levelo://app?vid=a6f71a9d-4586-404b-a296-28eea5d34f55"},"vehicle_type_id":"4","last_reported":1741021718,"current_range_meters":8800,"station_id":"ce4bh012rcd13ifvqcv0","pricing_plan_id":"cebpf4jnsgd1na2vs0mg"},{"bike_id":"fdfdc658-d872-43b5-ab1c-09e44682c246","system_id":"levelo_inurba_marseille","lat":43.2465,"lon":5.38889,"is_reserved":false,"is_disabled":false,"rental_uris":{"android":"levelo://app?vid=fdfdc658-d872-43b5-ab1c-09e44682c246","ios":"levelo://app?vid=fdfdc658-d872-43b5-ab1c-09e44682c246"},"vehicle_type_id":"4","last_reported":1741021718,"current_range_meters":8800,"station_id":"ce4bhg12rcd13ifvqf60","pricing_plan_id":"cebpf4jnsgd1na2vs0mg"},{"bike_id":"c7272122-9a1e-467d-83b5-c72298005b8c","system_id":"levelo_inurba_marseille","lat":43.24658,"lon":5.38901,"is_reserved":false,"is_disabled":false,"rental_uris":{"android":"levelo://app?vid=c7272122-9a1e-467d-83b5-c72298005b8c","ios":"levelo://app?vid=c7272122-9a1e-467d-83b5-c72298005b8c"},"vehicle_type_id":"4","last_reported":1741021718,"current_range_meters":8800,"station_id":"ce4bhg12rcd13ifvqf60","pricing_plan_id":"cebpf4jnsgd1na2vs0mg"},{"bike_id":"1808ccc6-d295-4f5e-beb6-1400f13c98a2","system_id":"levelo_inurba_marseille","lat":43.28165,"lon":5.42637,"is_reserved":false,"is_disabled":false,"rental_uris":{"android":"levelo://app?vid=1808ccc6-d295-4f5e-beb6-1400f13c98a2","ios":"levelo://app?vid=1808ccc6-d295-4f5e-beb6-1400f13c98a2"},"vehicle_type_id":"4","last_reported":1741021718,"current_range_meters":8800,"station_id":"ce4bhnh2rcd13ifvqgug","pricing_plan_id":"cebpf4jnsgd1na2vs0mg"},{"bike_id":"b21e25bd-5fe3-4b4c-9515-724946c2cde8","system_id":"levelo_inurba_marseille","lat":43.28467,"lon":5.35884,"is_reserved":false,"is_disabled":false,"rental_uris":{"android":"levelo://app?vid=b21e25bd-5fe3-4b4c-9515-724946c2cde8","ios":"levelo://app?vid=b21e25bd-5fe3-4b4c-9515-724946c2cde8"},"vehicle_type_id":"4","last_reported":1741021718,"current_range_meters":9200,"station_id":"ce4bhah2rcd13ifvqei0","pricing_plan_id":"cebpf4jnsgd1na2vs0mg"},{"bike_id":"6957ceac-537f-4f49-966b-290797b02ef3","system_id":"levelo_inurba_marseille","lat":43.28858,"lon":5.3585,"is_reserved":false,"is_disabled":false,"rental_uris":{"android":"levelo://app?vid=6957ceac-537f-4f49-966b-290797b02ef3","ios":"levelo://app?vid=6957ceac-537f-4f49-966b-290797b02ef3"},"vehicle_type_id":"4","last_reported":1741021718,"current_range_meters":9200,"station_id":"ce4bhb12rcd13ifvqem0","pricing_plan_id":"cebpf4jnsgd1na2vs0mg"},{"bike_id":"10dfc228-63b4-443f-ab00-dffe4d79fa0c","system_id":"levelo_inurba_marseille","lat":43.27699,"lon":5.38874,"is_reserved":false,"is_disabled":false,"rental_uris":{"android":"levelo://app?vid=10dfc228-63b4-443f-ab00-dffe4d79fa0c","ios":"levelo://app?vid=10dfc228-63b4-443f-ab00-dffe4d79fa0c"},"vehicle_type_id":"4","last_reported":1741021718,"current_range_meters":9200,"station_id":"ce4bhi12rcd13ifvqfo0","pricing_plan_id":"cebpf4jnsgd1na2vs0mg"},{"bike_id":"e41e0bb8-6c1c-4ce2-b18d-069e130ca183","system_id":"levelo_inurba_marseille","lat":43.23063,"lon":5.35492,"is_reserved":false,"is_disabled":false,"rental_uris":{"android":"levelo://app?vid=e41e0bb8-6c1c-4ce2-b18d-069e130ca183","ios":"levelo://app?vid=e41e0bb8-6c1c-4ce2-b18d-069e130ca183"},"vehicle_type_id":"4","last_reported":1741021718,"current_range_meters":9200,"station_id":"cpo3342slgdg3j2ifvpg","pricing_plan_id":"cebpf4jnsgd1na2vs0mg"},{"bike_id":"fa97178a-c212-4138-aba1-4b5afb87e532","system_id":"levelo_inurba_marseille","lat":43.24169,"lon":5.36399,"is_reserved":false,"is_disabled":false,"rental_uris":{"android":"levelo://app?vid=fa97178a-c212-4138-aba1-4b5afb87e532","ios":"levelo://app?vid=fa97178a-c212-4138-aba1-4b5afb87e532"},"vehicle_type_id":"4","last_reported":1741021718,"current_range_meters":9200,"station_id":"cpo36qri1sfpv3e86is0","pricing_plan_id":"cebpf4jnsgd1na2vs0mg"},{"bike_id":"8ade5181-cd88-4ece-8534-46a6372826ef","system_id":"levelo_inurba_marseille","lat":43.27694,"lon":5.41545,"is_reserved":false,"is_disabled":false,"rental_uris":{"android":"levelo://app?vid=8ade5181-cd88-4ece-8534-46a6372826ef","ios":"levelo://app?vid=8ade5181-cd88-4ece-8534-46a6372826ef"},"vehicle_type_id":"4","last_reported":1741021718,"current_range_meters":9600,"station_id":"","pricing_plan_id":"cebpf4jnsgd1na2vs0mg"},{"bike_id":"e648f701-351a-403e-a015-cfb4f3abd15f","system_id":"levelo_inurba_marseille","lat":43.31071,"lon":5.38355,"is_reserved":false,"is_disabled":false,"rental_uris":{"android":"levelo://app?vid=e648f701-351a-403e-a015-cfb4f3abd15f","ios":"levelo://app?vid=e648f701-351a-403e-a015-cfb4f3abd15f"},"vehicle_type_id":"4","last_reported":1741021718,"current_range_meters":9600,"station_id":"ce4bgv92rcd13ifvqcr0","pricing_plan_id":"cebpf4jnsgd1na2vs0mg"},{"bike_id":"9c0adc31-3c1d-442c-8c5f-0b54bb2042d8","system_id":"levelo_inurba_marseille","lat":43.29418,"lon":5.38626,"is_reserved":false,"is_disabled":false,"rental_uris":{"android":"levelo://app?vid=9c0adc31-3c1d-442c-8c5f-0b54bb2042d8","ios":"levelo://app?vid=9c0adc31-3c1d-442c-8c5f-0b54bb2042d8"},"vehicle_type_id":"4","last_reported":1741021718,"current_range_meters":9600,"station_id":"ce4bh2h2rcd13ifvqdh0","pricing_plan_id":"cebpf4jnsgd1na2vs0mg"},{"bike_id":"4e7161dd-1242-446e-96e5-e8bc6548206c","system_id":"levelo_inurba_marseille","lat":43.26556,"lon":5.372852,"is_reserved":false,"is_disabled":false,"rental_uris":{"android":"levelo://app?vid=4e7161dd-1242-446e-96e5-e8bc6548206c","ios":"levelo://app?vid=4e7161dd-1242-446e-96e5-e8bc6548206c"},"vehicle_type_id":"4","last_reported":1741021718,"current_range_meters":9600,"station_id":"ce4bhb12rcd13ifvqem0","pricing_plan_id":"cebpf4jnsgd1na2vs0mg"},{"bike_id":"6b09308f-1097-4ca9-90e4-570782cfe191","system_id":"levelo_inurba_marseille","lat":43.24411,"lon":5.37048,"is_reserved":false,"is_disabled":false,"rental_uris":{"android":"levelo://app?vid=6b09308f-1097-4ca9-90e4-570782cfe191","ios":"levelo://app?vid=6b09308f-1097-4ca9-90e4-570782cfe191"},"vehicle_type_id":"4","last_reported":1741021718,"current_range_meters":9600,"station_id":"ce4bhhh2rcd13ifvqfk0","pricing_plan_id":"cebpf4jnsgd1na2vs0mg"},{"bike_id":"c11fdd45-99e0-4676-8c8e-e8f9d1bb40b5","system_id":"levelo_inurba_marseille","lat":43.27952,"lon":5.41037,"is_reserved":false,"is_disabled":false,"rental_uris":{"android":"levelo://app?vid=c11fdd45-99e0-4676-8c8e-e8f9d1bb40b5","ios":"levelo://app?vid=c11fdd45-99e0-4676-8c8e-e8f9d1bb40b5"},"vehicle_type_id":"4","last_reported":1741021718,"current_range_meters":9600,"station_id":"ce4bhnp2rcd13ifvqh0g","pricing_plan_id":"cebpf4jnsgd1na2vs0mg"},{"bike_id":"e5af46d8-756e-4b29-887f-202b12c3baa0","system_id":"levelo_inurba_marseille","lat":43.30419,"lon":5.41282,"is_reserved":false,"is_disabled":false,"rental_uris":{"android":"levelo://app?vid=e5af46d8-756e-4b29-887f-202b12c3baa0","ios":"levelo://app?vid=e5af46d8-756e-4b29-887f-202b12c3baa0"},"vehicle_type_id":"4","last_reported":1741021718,"current_range_meters":9600,"station_id":"ce4bhop2rcd13ifvqh8g","pricing_plan_id":"cebpf4jnsgd1na2vs0mg"},{"bike_id":"69c64ec9-e24d-4807-ad49-cbbbaf87179a","system_id":"levelo_inurba_marseille","lat":43.26932,"lon":5.40298,"is_reserved":false,"is_disabled":false,"rental_uris":{"android":"levelo://app?vid=69c64ec9-e24d-4807-ad49-cbbbaf87179a","ios":"levelo://app?vid=69c64ec9-e24d-4807-ad49-cbbbaf87179a"},"vehicle_type_id":"4","last_reported":1741021718,"current_range_meters":9600,"station_id":"cjm6bp8fraef2m0cb0m0","pricing_plan_id":"cebpf4jnsgd1na2vs0mg"},{"bike_id":"ce8ef3d2-07e3-4512-8813-bcde53a01429","system_id":"levelo_inurba_marseille","lat":43.24164,"lon":5.36394,"is_reserved":false,"is_disabled":false,"rental_uris":{"android":"levelo://app?vid=ce8ef3d2-07e3-4512-8813-bcde53a01429","ios":"levelo://app?vid=ce8ef3d2-07e3-4512-8813-bcde53a01429"},"vehicle_type_id":"4","last_reported":1741021718,"current_range_meters":9600,"station_id":"cpo36qri1sfpv3e86is0","pricing_plan_id":"cebpf4jnsgd1na2vs0mg"},{"bike_id":"c8c30254-af6a-4a88-b0b6-9a3a52022bea","system_id":"levelo_inurba_marseille","lat":43.32445,"lon":5.42662,"is_reserved":false,"is_disabled":false,"rental_uris":{"android":"levelo://app?vid=c8c30254-af6a-4a88-b0b6-9a3a52022bea","ios":"levelo://app?vid=c8c30254-af6a-4a88-b0b6-9a3a52022bea"},"vehicle_type_id":"4","last_reported":1741021718,"current_range_meters":10000,"station_id":"","pricing_plan_id":"cebpf4jnsgd1na2vs0mg"},{"bike_id":"100fcaf6-edb5-4701-9431-b8defb642405","system_id":"levelo_inurba_marseille","lat":43.24394,"lon":5.37057,"is_reserved":false,"is_disabled":false,"rental_uris":{"android":"levelo://app?vid=100fcaf6-edb5-4701-9431-b8defb642405","ios":"levelo://app?vid=100fcaf6-edb5-4701-9431-b8defb642405"},"vehicle_type_id":"4","last_reported":1741021718,"current_range_meters":10000,"station_id":"ce4bhhh2rcd13ifvqfk0","pricing_plan_id":"cebpf4jnsgd1na2vs0mg"},{"bike_id":"38c28c87-2db6-43ea-a2db-429724f2ded0","system_id":"levelo_inurba_marseille","lat":43.29318,"lon":5.41147,"is_reserved":false,"is_disabled":false,"rental_uris":{"android":"levelo://app?vid=38c28c87-2db6-43ea-a2db-429724f2ded0","ios":"levelo://app?vid=38c28c87-2db6-43ea-a2db-429724f2ded0"},"vehicle_type_id":"4","last_reported":1741021718,"current_range_meters":10800,"station_id":"","pricing_plan_id":"cebpf4jnsgd1na2vs0mg"},{"bike_id":"71cd5d9d-c4a9-4d7f-b25c-bd7ceef0b27e","system_id":"levelo_inurba_marseille","lat":43.3128,"lon":5.37739,"is_reserved":false,"is_disabled":false,"rental_uris":{"android":"levelo://app?vid=71cd5d9d-c4a9-4d7f-b25c-bd7ceef0b27e","ios":"levelo://app?vid=71cd5d9d-c4a9-4d7f-b25c-bd7ceef0b27e"},"vehicle_type_id":"4","last_reported":1741021718,"current_range_meters":10800,"station_id":"","pricing_plan_id":"cebpf4jnsgd1na2vs0mg"},{"bike_id":"06c2331f-4635-452b-a492-f06b9206f436","system_id":"levelo_inurba_marseille","lat":43.30594,"lon":5.37228,"is_reserved":false,"is_disabled":false,"rental_uris":{"android":"levelo://app?vid=06c2331f-4635-452b-a492-f06b9206f436","ios":"levelo://app?vid=06c2331f-4635-452b-a492-f06b9206f436"},"vehicle_type_id":"4","last_reported":1741021718,"current_range_meters":10800,"station_id":"ce4bgqh2rcd13ifvqc4g","pricing_plan_id":"cebpf4jnsgd1na2vs0mg"},{"bike_id":"5b69c928-069c-4522-8a93-8676e4f351de","system_id":"levelo_inurba_marseille","lat":43.2847,"lon":5.35901,"is_reserved":false,"is_disabled":false,"rental_uris":{"android":"levelo://app?vid=5b69c928-069c-4522-8a93-8676e4f351de","ios":"levelo://app?vid=5b69c928-069c-4522-8a93-8676e4f351de"},"vehicle_type_id":"4","last_reported":1741021718,"current_range_meters":10800,"station_id":"ce4bhah2rcd13ifvqei0","pricing_plan_id":"cebpf4jnsgd1na2vs0mg"},{"bike_id":"ec74e8fa-7d1b-4c01-aa5f-1dbe1e343246","system_id":"levelo_inurba_marseille","lat":43.27887,"lon":5.37995,"is_reserved":false,"is_disabled":false,"rental_uris":{"android":"levelo://app?vid=ec74e8fa-7d1b-4c01-aa5f-1dbe1e343246","ios":"levelo://app?vid=ec74e8fa-7d1b-4c01-aa5f-1dbe1e343246"},"vehicle_type_id":"4","last_reported":1741021718,"current_range_meters":10800,"station_id":"ce4bhf92rcd13ifvqf50","pricing_plan_id":"cebpf4jnsgd1na2vs0mg"},{"bike_id":"caedf473-9313-4874-87c8-230b4a1efdb8","system_id":"levelo_inurba_marseille","lat":43.32471,"lon":5.3656,"is_reserved":false,"is_disabled":false,"rental_uris":{"android":"levelo://app?vid=caedf473-9313-4874-87c8-230b4a1efdb8","ios":"levelo://app?vid=caedf473-9313-4874-87c8-230b4a1efdb8"},"vehicle_type_id":"4","last_reported":1741021718,"current_range_meters":10800,"station_id":"ce4bhs12rcd13ifvqhvg","pricing_plan_id":"cebpf4jnsgd1na2vs0mg"},{"bike_id":"20f28f92-adf9-48e3-a33b-83ded65127c5","system_id":"levelo_inurba_marseille","lat":43.23056,"lon":5.35506,"is_reserved":false,"is_disabled":false,"rental_uris":{"android":"levelo://app?vid=20f28f92-adf9-48e3-a33b-83ded65127c5","ios":"levelo://app?vid=20f28f92-adf9-48e3-a33b-83ded65127c5"},"vehicle_type_id":"4","last_reported":1741021718,"current_range_meters":10800,"station_id":"cpo3342slgdg3j2ifvpg","pricing_plan_id":"cebpf4jnsgd1na2vs0mg"},{"bike_id":"2f1b65e7-32e3-48fb-99b9-1fc0fa24e926","system_id":"levelo_inurba_marseille","lat":43.30551,"lon":5.38438,"is_reserved":false,"is_disabled":false,"rental_uris":{"android":"levelo://app?vid=2f1b65e7-32e3-48fb-99b9-1fc0fa24e926","ios":"levelo://app?vid=2f1b65e7-32e3-48fb-99b9-1fc0fa24e926"},"vehicle_type_id":"4","last_reported":1741021718,"current_range_meters":11200,"station_id":"ce4bgg92rcd13ifvqb30","pricing_plan_id":"cebpf4jnsgd1na2vs0mg"},{"bike_id":"821ce309-6c25-45d1-93c9-9dae1e937a8b","system_id":"levelo_inurba_marseille","lat":43.29158,"lon":5.37164,"is_reserved":false,"is_disabled":false,"rental_uris":{"android":"levelo://app?vid=821ce309-6c25-45d1-93c9-9dae1e937a8b","ios":"levelo://app?vid=821ce309-6c25-45d1-93c9-9dae1e937a8b"},"vehicle_type_id":"4","last_reported":1741021718,"current_range_meters":11200,"station_id":"ce4bha92rcd13ifvqeh0","pricing_plan_id":"cebpf4jnsgd1na2vs0mg"},{"bike_id":"fc081680-72dc-4327-951f-795953839eaa","system_id":"levelo_inurba_marseille","lat":43.25869,"lon":5.39894,"is_reserved":false,"is_disabled":false,"rental_uris":{"android":"levelo://app?vid=fc081680-72dc-4327-951f-795953839eaa","ios":"levelo://app?vid=fc081680-72dc-4327-951f-795953839eaa"},"vehicle_type_id":"4","last_reported":1741021718,"current_range_meters":11200,"station_id":"ce4bhl92rcd13ifvqghg","pricing_plan_id":"cebpf4jnsgd1na2vs0mg"},{"bike_id":"ddd412b5-b1fc-44b1-80b8-c02075e7a5c5","system_id":"levelo_inurba_marseille","lat":43.31084,"lon":5.42433,"is_reserved":false,"is_disabled":false,"rental_uris":{"android":"levelo://app?vid=ddd412b5-b1fc-44b1-80b8-c02075e7a5c5","ios":"levelo://app?vid=ddd412b5-b1fc-44b1-80b8-c02075e7a5c5"},"vehicle_type_id":"4","last_reported":1741021718,"current_range_meters":11200,"station_id":"ce4bhp92rcd13ifvqhag","pricing_plan_id":"cebpf4jnsgd1na2vs0mg"},{"bike_id":"729a2690-93b9-4f72-bb57-feca07b25813","system_id":"levelo_inurba_marseille","lat":43.33024,"lon":5.39042,"is_reserved":false,"is_disabled":false,"rental_uris":{"android":"levelo://app?vid=729a2690-93b9-4f72-bb57-feca07b25813","ios":"levelo://app?vid=729a2690-93b9-4f72-bb57-feca07b25813"},"vehicle_type_id":"4","last_reported":1741021718,"current_range_meters":11200,"station_id":"ce4bhr92rcd13ifvqhrg","pricing_plan_id":"cebpf4jnsgd1na2vs0mg"},{"bike_id":"f71f9016-cd7a-4d2f-a244-6b67297b159e","system_id":"levelo_inurba_marseille","lat":43.2791,"lon":5.4167,"is_reserved":false,"is_disabled":false,"rental_uris":{"android":"levelo://app?vid=f71f9016-cd7a-4d2f-a244-6b67297b159e","ios":"levelo://app?vid=f71f9016-cd7a-4d2f-a244-6b67297b159e"},"vehicle_type_id":"4","last_reported":1741021718,"current_range_meters":11600,"station_id":"","pricing_plan_id":"cebpf4jnsgd1na2vs0mg"},{"bike_id":"41ed89d3-77cd-4311-8513-748a0ca63c4f","system_id":"levelo_inurba_marseille","lat":43.212591,"lon":5.353273,"is_reserved":false,"is_disabled":false,"rental_uris":{"android":"levelo://app?vid=41ed89d3-77cd-4311-8513-748a0ca63c4f","ios":"levelo://app?vid=41ed89d3-77cd-4311-8513-748a0ca63c4f"},"vehicle_type_id":"4","last_reported":1741021718,"current_range_meters":11600,"station_id":"","pricing_plan_id":"cebpf4jnsgd1na2vs0mg"},{"bike_id":"64953142-7637-42b4-b0d1-c449e63f1db7","system_id":"levelo_inurba_marseille","lat":43.29639,"lon":5.36028,"is_reserved":false,"is_disabled":false,"rental_uris":{"android":"levelo://app?vid=64953142-7637-42b4-b0d1-c449e63f1db7","ios":"levelo://app?vid=64953142-7637-42b4-b0d1-c449e63f1db7"},"vehicle_type_id":"4","last_reported":1741021718,"current_range_meters":11600,"station_id":"","pricing_plan_id":"cebpf4jnsgd1na2vs0mg"},{"bike_id":"77b65e12-4090-4e07-ad0d-a800a0048d08","system_id":"levelo_inurba_marseille","lat":43.29604,"lon":5.38115,"is_reserved":false,"is_disabled":false,"rental_uris":{"android":"levelo://app?vid=77b65e12-4090-4e07-ad0d-a800a0048d08","ios":"levelo://app?vid=77b65e12-4090-4e07-ad0d-a800a0048d08"},"vehicle_type_id":"4","last_reported":1741021718,"current_range_meters":11600,"station_id":"ce4bgl12rcd13ifvqbo0","pricing_plan_id":"cebpf4jnsgd1na2vs0mg"},{"bike_id":"ebac9b1f-fc48-4c64-b6cb-a30402db8201","system_id":"levelo_inurba_marseille","lat":43.31365,"lon":5.38487,"is_reserved":false,"is_disabled":false,"rental_uris":{"android":"levelo://app?vid=ebac9b1f-fc48-4c64-b6cb-a30402db8201","ios":"levelo://app?vid=ebac9b1f-fc48-4c64-b6cb-a30402db8201"},"vehicle_type_id":"4","last_reported":1741021718,"current_range_meters":11600,"station_id":"ce4bgt92rcd13ifvqcf0","pricing_plan_id":"cebpf4jnsgd1na2vs0mg"},{"bike_id":"442e17cf-9700-477c-a555-09fc8cf0081c","system_id":"levelo_inurba_marseille","lat":43.2846,"lon":5.35879,"is_reserved":false,"is_disabled":false,"rental_uris":{"android":"levelo://app?vid=442e17cf-9700-477c-a555-09fc8cf0081c","ios":"levelo://app?vid=442e17cf-9700-477c-a555-09fc8cf0081c"},"vehicle_type_id":"4","last_reported":1741021718,"current_range_meters":11600,"station_id":"ce4bhah2rcd13ifvqei0","pricing_plan_id":"cebpf4jnsgd1na2vs0mg"},{"bike_id":"362b2e41-0f7d-42ca-85b4-447baad17196","system_id":"levelo_inurba_marseille","lat":43.27203,"lon":5.41895,"is_reserved":false,"is_disabled":false,"rental_uris":{"android":"levelo://app?vid=362b2e41-0f7d-42ca-85b4-447baad17196","ios":"levelo://app?vid=362b2e41-0f7d-42ca-85b4-447baad17196"},"vehicle_type_id":"4","last_reported":1741021718,"current_range_meters":12000,"station_id":"","pricing_plan_id":"cebpf4jnsgd1na2vs0mg"},{"bike_id":"a7c0b9c6-10d7-47b6-bd14-41afe302cd11","system_id":"levelo_inurba_marseille","lat":43.30793,"lon":5.38171,"is_reserved":false,"is_disabled":false,"rental_uris":{"android":"levelo://app?vid=a7c0b9c6-10d7-47b6-bd14-41afe302cd11","ios":"levelo://app?vid=a7c0b9c6-10d7-47b6-bd14-41afe302cd11"},"vehicle_type_id":"4","last_reported":1741021718,"current_range_meters":12000,"station_id":"ce4bgt12rcd13ifvqce0","pricing_plan_id":"cebpf4jnsgd1na2vs0mg"},{"bike_id":"1f6cd502-b233-4584-93e0-d6b3fc568187","system_id":"levelo_inurba_marseille","lat":43.29033,"lon":5.3866,"is_reserved":false,"is_disabled":false,"rental_uris":{"android":"levelo://app?vid=1f6cd502-b233-4584-93e0-d6b3fc568187","ios":"levelo://app?vid=1f6cd502-b233-4584-93e0-d6b3fc568187"},"vehicle_type_id":"4","last_reported":1741021718,"current_range_meters":12000,"station_id":"ce4bh4p2rcd13ifvqe0g","pricing_plan_id":"cebpf4jnsgd1na2vs0mg"},{"bike_id":"9a386038-9cc6-4b52-b406-e6a33e3dcf23","system_id":"levelo_inurba_marseille","lat":43.28466,"lon":5.35863,"is_reserved":false,"is_disabled":false,"rental_uris":{"android":"levelo://app?vid=9a386038-9cc6-4b52-b406-e6a33e3dcf23","ios":"levelo://app?vid=9a386038-9cc6-4b52-b406-e6a33e3dcf23"},"vehicle_type_id":"4","last_reported":1741021718,"current_range_meters":12000,"station_id":"ce4bhah2rcd13ifvqei0","pricing_plan_id":"cebpf4jnsgd1na2vs0mg"},{"bike_id":"e2ef97e8-a7d5-47ff-a857-9587d9d94448","system_id":"levelo_inurba_marseille","lat":43.2842,"lon":5.34991,"is_reserved":false,"is_disabled":false,"rental_uris":{"android":"levelo://app?vid=e2ef97e8-a7d5-47ff-a857-9587d9d94448","ios":"levelo://app?vid=e2ef97e8-a7d5-47ff-a857-9587d9d94448"},"vehicle_type_id":"4","last_reported":1741021718,"current_range_meters":12000,"station_id":"ce4bhbh2rcd13ifvqepg","pricing_plan_id":"cebpf4jnsgd1na2vs0mg"},{"bike_id":"b289d687-92c1-4109-a454-4f72bf351a91","system_id":"levelo_inurba_marseille","lat":43.27971,"lon":5.38736,"is_reserved":false,"is_disabled":false,"rental_uris":{"android":"levelo://app?vid=b289d687-92c1-4109-a454-4f72bf351a91","ios":"levelo://app?vid=b289d687-92c1-4109-a454-4f72bf351a91"},"vehicle_type_id":"4","last_reported":1741021718,"current_range_meters":12000,"station_id":"ce4bhg12rcd13ifvqf80","pricing_plan_id":"cebpf4jnsgd1na2vs0mg"},{"bike_id":"b3e79015-6c84-45e0-a14b-78a4bc7220ee","system_id":"levelo_inurba_marseille","lat":43.28158,"lon":5.42639,"is_reserved":false,"is_disabled":false,"rental_uris":{"android":"levelo://app?vid=b3e79015-6c84-45e0-a14b-78a4bc7220ee","ios":"levelo://app?vid=b3e79015-6c84-45e0-a14b-78a4bc7220ee"},"vehicle_type_id":"4","last_reported":1741021718,"current_range_meters":12000,"station_id":"ce4bhnh2rcd13ifvqgug","pricing_plan_id":"cebpf4jnsgd1na2vs0mg"},{"bike_id":"4b53b728-c307-4374-88db-47f38f2770fd","system_id":"levelo_inurba_marseille","lat":43.31077,"lon":5.38341,"is_reserved":false,"is_disabled":false,"rental_uris":{"android":"levelo://app?vid=4b53b728-c307-4374-88db-47f38f2770fd","ios":"levelo://app?vid=4b53b728-c307-4374-88db-47f38f2770fd"},"vehicle_type_id":"4","last_reported":1741021718,"current_range_meters":12400,"station_id":"ce4bgv92rcd13ifvqcr0","pricing_plan_id":"cebpf4jnsgd1na2vs0mg"},{"bike_id":"38a9a037-c4de-4fad-80f0-8fed4bab5b26","system_id":"levelo_inurba_marseille","lat":43.31693,"lon":5.40469,"is_reserved":false,"is_disabled":false,"rental_uris":{"android":"levelo://app?vid=38a9a037-c4de-4fad-80f0-8fed4bab5b26","ios":"levelo://app?vid=38a9a037-c4de-4fad-80f0-8fed4bab5b26"},"vehicle_type_id":"4","last_reported":1741021718,"current_range_meters":12400,"station_id":"ce4bh012rcd13ifvqd00","pricing_plan_id":"cebpf4jnsgd1na2vs0mg"},{"bike_id":"464d01ca-9d72-43da-a302-394b60e3552e","system_id":"levelo_inurba_marseille","lat":43.29009,"lon":5.356201,"is_reserved":false,"is_disabled":false,"rental_uris":{"android":"levelo://app?vid=464d01ca-9d72-43da-a302-394b60e3552e","ios":"levelo://app?vid=464d01ca-9d72-43da-a302-394b60e3552e"},"vehicle_type_id":"4","last_reported":1741021718,"current_range_meters":12400,"station_id":"ce4bh192rcd13ifvqdb0","pricing_plan_id":"cebpf4jnsgd1na2vs0mg"},{"bike_id":"c3f30b95-1548-4dd9-a38e-3a359ff616ce","system_id":"levelo_inurba_marseille","lat":43.29436,"lon":5.39753,"is_reserved":false,"is_disabled":false,"rental_uris":{"android":"levelo://app?vid=c3f30b95-1548-4dd9-a38e-3a359ff616ce","ios":"levelo://app?vid=c3f30b95-1548-4dd9-a38e-3a359ff616ce"},"vehicle_type_id":"4","last_reported":1741021718,"current_range_meters":12400,"station_id":"ce4bh3h2rcd13ifvqdo0","pricing_plan_id":"cebpf4jnsgd1na2vs0mg"},{"bike_id":"b388f542-63b9-443e-a414-897e0ce91452","system_id":"levelo_inurba_marseille","lat":43.31758,"lon":5.38903,"is_reserved":false,"is_disabled":false,"rental_uris":{"android":"levelo://app?vid=b388f542-63b9-443e-a414-897e0ce91452","ios":"levelo://app?vid=b388f542-63b9-443e-a414-897e0ce91452"},"vehicle_type_id":"4","last_reported":1741021718,"current_range_meters":12800,"station_id":"","pricing_plan_id":"cebpf4jnsgd1na2vs0mg"},{"bike_id":"102de46f-1f3d-42c6-b125-cb45380886c0","system_id":"levelo_inurba_marseille","lat":43.28497,"lon":5.35834,"is_reserved":false,"is_disabled":false,"rental_uris":{"android":"levelo://app?vid=102de46f-1f3d-42c6-b125-cb45380886c0","ios":"levelo://app?vid=102de46f-1f3d-42c6-b125-cb45380886c0"},"vehicle_type_id":"4","last_reported":1741021718,"current_range_meters":12800,"station_id":"ce4bhah2rcd13ifvqei0","pricing_plan_id":"cebpf4jnsgd1na2vs0mg"},{"bike_id":"bb3b834a-28e1-4b99-8720-658598bc4983","system_id":"levelo_inurba_marseille","lat":43.27172,"lon":5.40994,"is_reserved":false,"is_disabled":false,"rental_uris":{"android":"levelo://app?vid=bb3b834a-28e1-4b99-8720-658598bc4983","ios":"levelo://app?vid=bb3b834a-28e1-4b99-8720-658598bc4983"},"vehicle_type_id":"4","last_reported":1741021718,"current_range_meters":12800,"station_id":"ce4bhl12rcd13ifvqgf0","pricing_plan_id":"cebpf4jnsgd1na2vs0mg"},{"bike_id":"a9eb9414-2a65-4d88-b570-c89f28729dd2","system_id":"levelo_inurba_marseille","lat":43.23067,"lon":5.35486,"is_reserved":false,"is_disabled":false,"rental_uris":{"android":"levelo://app?vid=a9eb9414-2a65-4d88-b570-c89f28729dd2","ios":"levelo://app?vid=a9eb9414-2a65-4d88-b570-c89f28729dd2"},"vehicle_type_id":"4","last_reported":1741021718,"current_range_meters":12800,"station_id":"cpo3342slgdg3j2ifvpg","pricing_plan_id":"cebpf4jnsgd1na2vs0mg"},{"bike_id":"928d9d98-f6de-42c7-a5f2-0ddd05f92931","system_id":"levelo_inurba_marseille","lat":43.255025,"lon":5.376611,"is_reserved":false,"is_disabled":false,"rental_uris":{"android":"levelo://app?vid=928d9d98-f6de-42c7-a5f2-0ddd05f92931","ios":"levelo://app?vid=928d9d98-f6de-42c7-a5f2-0ddd05f92931"},"vehicle_type_id":"4","last_reported":1741021718,"current_range_meters":13600,"station_id":"ce4bgpp2rcd13ifvqc3g","pricing_plan_id":"cebpf4jnsgd1na2vs0mg"},{"bike_id":"207291c5-6ffe-44a0-b3a3-42b2da9861db","system_id":"levelo_inurba_marseille","lat":43.27373,"lon":5.36252,"is_reserved":false,"is_disabled":false,"rental_uris":{"android":"levelo://app?vid=207291c5-6ffe-44a0-b3a3-42b2da9861db","ios":"levelo://app?vid=207291c5-6ffe-44a0-b3a3-42b2da9861db"},"vehicle_type_id":"4","last_reported":1741021718,"current_range_meters":13600,"station_id":"ce4bhbh2rcd13ifvqeo0","pricing_plan_id":"cebpf4jnsgd1na2vs0mg"},{"bike_id":"7ec71891-18f7-49c4-bb3f-f18bb7528e5a","system_id":"levelo_inurba_marseille","lat":43.28424,"lon":5.34978,"is_reserved":false,"is_disabled":false,"rental_uris":{"android":"levelo://app?vid=7ec71891-18f7-49c4-bb3f-f18bb7528e5a","ios":"levelo://app?vid=7ec71891-18f7-49c4-bb3f-f18bb7528e5a"},"vehicle_type_id":"4","last_reported":1741021718,"current_range_meters":13600,"station_id":"ce4bhbh2rcd13ifvqepg","pricing_plan_id":"cebpf4jnsgd1na2vs0mg"},{"bike_id":"bce611a7-5044-470a-9dc2-ccdbc1151c5c","system_id":"levelo_inurba_marseille","lat":43.32504,"lon":5.36562,"is_reserved":false,"is_disabled":false,"rental_uris":{"android":"levelo://app?vid=bce611a7-5044-470a-9dc2-ccdbc1151c5c","ios":"levelo://app?vid=bce611a7-5044-470a-9dc2-ccdbc1151c5c"},"vehicle_type_id":"4","last_reported":1741021718,"current_range_meters":13600,"station_id":"ce4bhs12rcd13ifvqhvg","pricing_plan_id":"cebpf4jnsgd1na2vs0mg"},{"bike_id":"92b5d7fd-f61f-44b8-a637-1e9b8f26015a","system_id":"levelo_inurba_marseille","lat":43.23195,"lon":5.35558,"is_reserved":false,"is_disabled":false,"rental_uris":{"android":"levelo://app?vid=92b5d7fd-f61f-44b8-a637-1e9b8f26015a","ios":"levelo://app?vid=92b5d7fd-f61f-44b8-a637-1e9b8f26015a"},"vehicle_type_id":"4","last_reported":1741021718,"current_range_meters":13600,"station_id":"ce4bhu92rcd13ifvqi70","pricing_plan_id":"cebpf4jnsgd1na2vs0mg"},{"bike_id":"4b8bcc6a-b1ee-4044-9ae8-7c00efea0717","system_id":"levelo_inurba_marseille","lat":43.28426,"lon":5.37497,"is_reserved":false,"is_disabled":false,"rental_uris":{"android":"levelo://app?vid=4b8bcc6a-b1ee-4044-9ae8-7c00efea0717","ios":"levelo://app?vid=4b8bcc6a-b1ee-4044-9ae8-7c00efea0717"},"vehicle_type_id":"4","last_reported":1741021718,"current_range_meters":14000,"station_id":"ce4bh412rcd13ifvqds0","pricing_plan_id":"cebpf4jnsgd1na2vs0mg"},{"bike_id":"fc538172-abdb-42d0-9e73-20cebfb49ebf","system_id":"levelo_inurba_marseille","lat":43.28414,"lon":5.37522,"is_reserved":false,"is_disabled":false,"rental_uris":{"android":"levelo://app?vid=fc538172-abdb-42d0-9e73-20cebfb49ebf","ios":"levelo://app?vid=fc538172-abdb-42d0-9e73-20cebfb49ebf"},"vehicle_type_id":"4","last_reported":1741021718,"current_range_meters":14000,"station_id":"ce4bh412rcd13ifvqds0","pricing_plan_id":"cebpf4jnsgd1na2vs0mg"},{"bike_id":"6d875c04-a88c-44cd-952e-ebf8fafad61d","system_id":"levelo_inurba_marseille","lat":43.26209,"lon":5.37443,"is_reserved":false,"is_disabled":false,"rental_uris":{"android":"levelo://app?vid=6d875c04-a88c-44cd-952e-ebf8fafad61d","ios":"levelo://app?vid=6d875c04-a88c-44cd-952e-ebf8fafad61d"},"vehicle_type_id":"4","last_reported":1741021718,"current_range_meters":14000,"station_id":"ce4bhgp2rcd13ifvqfc0","pricing_plan_id":"cebpf4jnsgd1na2vs0mg"},{"bike_id":"cdb4a3c2-7676-4a78-9407-12e0cfe28911","system_id":"levelo_inurba_marseille","lat":43.23157,"lon":5.43709,"is_reserved":false,"is_disabled":false,"rental_uris":{"android":"levelo://app?vid=cdb4a3c2-7676-4a78-9407-12e0cfe28911","ios":"levelo://app?vid=cdb4a3c2-7676-4a78-9407-12e0cfe28911"},"vehicle_type_id":"4","last_reported":1741021718,"current_range_meters":14000,"station_id":"ce4bhmp2rcd13ifvqgog","pricing_plan_id":"cebpf4jnsgd1na2vs0mg"},{"bike_id":"cb813df4-3836-4634-974a-d02d99a32d8a","system_id":"levelo_inurba_marseille","lat":43.32705,"lon":5.39232,"is_reserved":false,"is_disabled":false,"rental_uris":{"android":"levelo://app?vid=cb813df4-3836-4634-974a-d02d99a32d8a","ios":"levelo://app?vid=cb813df4-3836-4634-974a-d02d99a32d8a"},"vehicle_type_id":"4","last_reported":1741021718,"current_range_meters":14400,"station_id":"","pricing_plan_id":"cebpf4jnsgd1na2vs0mg"},{"bike_id":"83917fca-1ee0-439b-9640-444a9b630339","system_id":"levelo_inurba_marseille","lat":43.27614,"lon":5.36101,"is_reserved":false,"is_disabled":false,"rental_uris":{"android":"levelo://app?vid=83917fca-1ee0-439b-9640-444a9b630339","ios":"levelo://app?vid=83917fca-1ee0-439b-9640-444a9b630339"},"vehicle_type_id":"4","last_reported":1741021718,"current_range_meters":14400,"station_id":"ce4bgj92rcd13ifvqbe0","pricing_plan_id":"cebpf4jnsgd1na2vs0mg"},{"bike_id":"67492e44-8dbc-4273-9ba6-77c8a3fb5eec","system_id":"levelo_inurba_marseille","lat":43.29363,"lon":5.37839,"is_reserved":false,"is_disabled":false,"rental_uris":{"android":"levelo://app?vid=67492e44-8dbc-4273-9ba6-77c8a3fb5eec","ios":"levelo://app?vid=67492e44-8dbc-4273-9ba6-77c8a3fb5eec"},"vehicle_type_id":"4","last_reported":1741021718,"current_range_meters":14400,"station_id":"ce4bgjh2rcd13ifvqbf0","pricing_plan_id":"cebpf4jnsgd1na2vs0mg"},{"bike_id":"a6f5680a-f92d-4b91-aea4-6a1120681da7","system_id":"levelo_inurba_marseille","lat":43.30533,"lon":5.3656,"is_reserved":false,"is_disabled":false,"rental_uris":{"android":"levelo://app?vid=a6f5680a-f92d-4b91-aea4-6a1120681da7","ios":"levelo://app?vid=a6f5680a-f92d-4b91-aea4-6a1120681da7"},"vehicle_type_id":"4","last_reported":1741021718,"current_range_meters":14400,"station_id":"ce4bgs12rcd13ifvqcag","pricing_plan_id":"cebpf4jnsgd1na2vs0mg"},{"bike_id":"33d78023-4d5b-48ce-9665-2809bebb67ae","system_id":"levelo_inurba_marseille","lat":43.2846,"lon":5.35876,"is_reserved":false,"is_disabled":false,"rental_uris":{"android":"levelo://app?vid=33d78023-4d5b-48ce-9665-2809bebb67ae","ios":"levelo://app?vid=33d78023-4d5b-48ce-9665-2809bebb67ae"},"vehicle_type_id":"4","last_reported":1741021718,"current_range_meters":14400,"station_id":"ce4bhah2rcd13ifvqei0","pricing_plan_id":"cebpf4jnsgd1na2vs0mg"},{"bike_id":"b4bd6386-be27-468e-9ef5-b7a6a01fd6a0","system_id":"levelo_inurba_marseille","lat":43.28614,"lon":5.35106,"is_reserved":false,"is_disabled":false,"rental_uris":{"android":"levelo://app?vid=b4bd6386-be27-468e-9ef5-b7a6a01fd6a0","ios":"levelo://app?vid=b4bd6386-be27-468e-9ef5-b7a6a01fd6a0"},"vehicle_type_id":"4","last_reported":1741021718,"current_range_meters":14400,"station_id":"ce4bhch2rcd13ifvqeug","pricing_plan_id":"cebpf4jnsgd1na2vs0mg"},{"bike_id":"e7ec1ac1-2323-47bd-a2b5-7cd3afb282cf","system_id":"levelo_inurba_marseille","lat":43.26554,"lon":5.37285,"is_reserved":false,"is_disabled":false,"rental_uris":{"android":"levelo://app?vid=e7ec1ac1-2323-47bd-a2b5-7cd3afb282cf","ios":"levelo://app?vid=e7ec1ac1-2323-47bd-a2b5-7cd3afb282cf"},"vehicle_type_id":"4","last_reported":1741021718,"current_range_meters":14400,"station_id":"ce4bhg12rcd13ifvqf70","pricing_plan_id":"cebpf4jnsgd1na2vs0mg"},{"bike_id":"cb014a6b-6553-43cb-90ee-c6d22cf5883f","system_id":"levelo_inurba_marseille","lat":43.26068,"lon":5.39388,"is_reserved":false,"is_disabled":false,"rental_uris":{"android":"levelo://app?vid=cb014a6b-6553-43cb-90ee-c6d22cf5883f","ios":"levelo://app?vid=cb014a6b-6553-43cb-90ee-c6d22cf5883f"},"vehicle_type_id":"4","last_reported":1741021718,"current_range_meters":14400,"station_id":"ce4bhh92rcd13ifvqfj0","pricing_plan_id":"cebpf4jnsgd1na2vs0mg"},{"bike_id":"9de42f25-f760-4086-9a08-2934eee1b520","system_id":"levelo_inurba_marseille","lat":43.21265,"lon":5.35328,"is_reserved":false,"is_disabled":false,"rental_uris":{"android":"levelo://app?vid=9de42f25-f760-4086-9a08-2934eee1b520","ios":"levelo://app?vid=9de42f25-f760-4086-9a08-2934eee1b520"},"vehicle_type_id":"4","last_reported":1741021718,"current_range_meters":14800,"station_id":"","pricing_plan_id":"cebpf4jnsgd1na2vs0mg"},{"bike_id":"44a7153b-0fd7-4509-836b-676bbf84fb06","system_id":"levelo_inurba_marseille","lat":43.23186,"lon":5.35577,"is_reserved":false,"is_disabled":false,"rental_uris":{"android":"levelo://app?vid=44a7153b-0fd7-4509-836b-676bbf84fb06","ios":"levelo://app?vid=44a7153b-0fd7-4509-836b-676bbf84fb06"},"vehicle_type_id":"4","last_reported":1741021718,"current_range_meters":14800,"station_id":"ce4bhu92rcd13ifvqi70","pricing_plan_id":"cebpf4jnsgd1na2vs0mg"},{"bike_id":"172b283a-f30f-46db-b1bb-42f003cdd762","system_id":"levelo_inurba_marseille","lat":43.31206,"lon":5.36738,"is_reserved":false,"is_disabled":false,"rental_uris":{"android":"levelo://app?vid=172b283a-f30f-46db-b1bb-42f003cdd762","ios":"levelo://app?vid=172b283a-f30f-46db-b1bb-42f003cdd762"},"vehicle_type_id":"4","last_reported":1741021718,"current_range_meters":15200,"station_id":"","pricing_plan_id":"cebpf4jnsgd1na2vs0mg"},{"bike_id":"7896a761-68c2-4be7-b6b7-6d4082ec399c","system_id":"levelo_inurba_marseille","lat":43.30584,"lon":5.37229,"is_reserved":false,"is_disabled":false,"rental_uris":{"android":"levelo://app?vid=7896a761-68c2-4be7-b6b7-6d4082ec399c","ios":"levelo://app?vid=7896a761-68c2-4be7-b6b7-6d4082ec399c"},"vehicle_type_id":"4","last_reported":1741021718,"current_range_meters":15200,"station_id":"ce4bgqh2rcd13ifvqc4g","pricing_plan_id":"cebpf4jnsgd1na2vs0mg"},{"bike_id":"8359902b-40b5-4869-817e-243fa5db3127","system_id":"levelo_inurba_marseille","lat":43.27809,"lon":5.40709,"is_reserved":false,"is_disabled":false,"rental_uris":{"android":"levelo://app?vid=8359902b-40b5-4869-817e-243fa5db3127","ios":"levelo://app?vid=8359902b-40b5-4869-817e-243fa5db3127"},"vehicle_type_id":"4","last_reported":1741021718,"current_range_meters":15200,"station_id":"ce4bhnh2rcd13ifvqgtg","pricing_plan_id":"cebpf4jnsgd1na2vs0mg"},{"bike_id":"ee1d2ad1-36ca-49dd-a328-f2a9a9994ecb","system_id":"levelo_inurba_marseille","lat":43.31093,"lon":5.38208,"is_reserved":false,"is_disabled":false,"rental_uris":{"android":"levelo://app?vid=ee1d2ad1-36ca-49dd-a328-f2a9a9994ecb","ios":"levelo://app?vid=ee1d2ad1-36ca-49dd-a328-f2a9a9994ecb"},"vehicle_type_id":"4","last_reported":1741021718,"current_range_meters":16000,"station_id":"","pricing_plan_id":"cebpf4jnsgd1na2vs0mg"},{"bike_id":"1eedaa26-21c1-4245-865d-833ea6bf4e75","system_id":"levelo_inurba_marseille","lat":43.283472,"lon":5.381089,"is_reserved":false,"is_disabled":false,"rental_uris":{"android":"levelo://app?vid=1eedaa26-21c1-4245-865d-833ea6bf4e75","ios":"levelo://app?vid=1eedaa26-21c1-4245-865d-833ea6bf4e75"},"vehicle_type_id":"4","last_reported":1741021718,"current_range_meters":16000,"station_id":"ce4bh9p2rcd13ifvqec0","pricing_plan_id":"cebpf4jnsgd1na2vs0mg"},{"bike_id":"1c1e8097-5026-4ae8-b4fa-9adf704e6d9a","system_id":"levelo_inurba_marseille","lat":43.2861,"lon":5.3511,"is_reserved":false,"is_disabled":false,"rental_uris":{"android":"levelo://app?vid=1c1e8097-5026-4ae8-b4fa-9adf704e6d9a","ios":"levelo://app?vid=1c1e8097-5026-4ae8-b4fa-9adf704e6d9a"},"vehicle_type_id":"4","last_reported":1741021718,"current_range_meters":16000,"station_id":"ce4bhch2rcd13ifvqeug","pricing_plan_id":"cebpf4jnsgd1na2vs0mg"},{"bike_id":"41d73f17-db7a-4159-bcbe-d12069c27910","system_id":"levelo_inurba_marseille","lat":43.26492,"lon":5.39556,"is_reserved":false,"is_disabled":false,"rental_uris":{"android":"levelo://app?vid=41d73f17-db7a-4159-bcbe-d12069c27910","ios":"levelo://app?vid=41d73f17-db7a-4159-bcbe-d12069c27910"},"vehicle_type_id":"4","last_reported":1741021718,"current_range_meters":16000,"station_id":"ce4bhi12rcd13ifvqfq0","pricing_plan_id":"cebpf4jnsgd1na2vs0mg"},{"bike_id":"86d22bff-a114-4024-9d5b-75b4292b6b49","system_id":"levelo_inurba_marseille","lat":43.28007,"lon":5.40018,"is_reserved":false,"is_disabled":false,"rental_uris":{"android":"levelo://app?vid=86d22bff-a114-4024-9d5b-75b4292b6b49","ios":"levelo://app?vid=86d22bff-a114-4024-9d5b-75b4292b6b49"},"vehicle_type_id":"4","last_reported":1741021718,"current_range_meters":16000,"station_id":"ce4bho92rcd13ifvqh4g","pricing_plan_id":"cebpf4jnsgd1na2vs0mg"},{"bike_id":"edbfb097-01ca-45ae-a5b5-834d6ee845e9","system_id":"levelo_inurba_marseille","lat":43.30361,"lon":5.41884,"is_reserved":false,"is_disabled":false,"rental_uris":{"android":"levelo://app?vid=edbfb097-01ca-45ae-a5b5-834d6ee845e9","ios":"levelo://app?vid=edbfb097-01ca-45ae-a5b5-834d6ee845e9"},"vehicle_type_id":"4","last_reported":1741021718,"current_range_meters":16000,"station_id":"ce4bhop2rcd13ifvqh7g","pricing_plan_id":"cebpf4jnsgd1na2vs0mg"},{"bike_id":"3d4bbf93-39c0-48e0-a5b0-d2fc0f3ea67c","system_id":"levelo_inurba_marseille","lat":43.28723,"lon":5.3609,"is_reserved":false,"is_disabled":false,"rental_uris":{"android":"levelo://app?vid=3d4bbf93-39c0-48e0-a5b0-d2fc0f3ea67c","ios":"levelo://app?vid=3d4bbf93-39c0-48e0-a5b0-d2fc0f3ea67c"},"vehicle_type_id":"4","last_reported":1741021718,"current_range_meters":16000,"station_id":"cki0cbj6b192h4jlfktg","pricing_plan_id":"cebpf4jnsgd1na2vs0mg"},{"bike_id":"7fca297d-0b70-4dd4-970b-4f0b0a593593","system_id":"levelo_inurba_marseille","lat":43.30141,"lon":5.38776,"is_reserved":false,"is_disabled":false,"rental_uris":{"android":"levelo://app?vid=7fca297d-0b70-4dd4-970b-4f0b0a593593","ios":"levelo://app?vid=7fca297d-0b70-4dd4-970b-4f0b0a593593"},"vehicle_type_id":"4","last_reported":1741021718,"current_range_meters":16400,"station_id":"ce4bghh2rcd13ifvqb60","pricing_plan_id":"cebpf4jnsgd1na2vs0mg"},{"bike_id":"06578afe-b54d-41f9-b87b-971a8733e8a9","system_id":"levelo_inurba_marseille","lat":43.31483,"lon":5.37317,"is_reserved":false,"is_disabled":false,"rental_uris":{"android":"levelo://app?vid=06578afe-b54d-41f9-b87b-971a8733e8a9","ios":"levelo://app?vid=06578afe-b54d-41f9-b87b-971a8733e8a9"},"vehicle_type_id":"4","last_reported":1741021718,"current_range_meters":16400,"station_id":"ce4bgt12rcd13ifvqcd0","pricing_plan_id":"cebpf4jnsgd1na2vs0mg"},{"bike_id":"ae03724c-d25f-489b-bb8d-1290528474d7","system_id":"levelo_inurba_marseille","lat":43.29511,"lon":5.39405,"is_reserved":false,"is_disabled":false,"rental_uris":{"android":"levelo://app?vid=ae03724c-d25f-489b-bb8d-1290528474d7","ios":"levelo://app?vid=ae03724c-d25f-489b-bb8d-1290528474d7"},"vehicle_type_id":"4","last_reported":1741021718,"current_range_meters":16400,"station_id":"ce4bh292rcd13ifvqdf0","pricing_plan_id":"cebpf4jnsgd1na2vs0mg"},{"bike_id":"1443e1bf-7896-4545-8592-c24f3da31af8","system_id":"levelo_inurba_marseille","lat":43.28571,"lon":5.39502,"is_reserved":false,"is_disabled":false,"rental_uris":{"android":"levelo://app?vid=1443e1bf-7896-4545-8592-c24f3da31af8","ios":"levelo://app?vid=1443e1bf-7896-4545-8592-c24f3da31af8"},"vehicle_type_id":"4","last_reported":1741021718,"current_range_meters":16400,"station_id":"ce4bh292rcd13ifvqdg0","pricing_plan_id":"cebpf4jnsgd1na2vs0mg"},{"bike_id":"443a506e-3487-4634-8f70-3912280dd197","system_id":"levelo_inurba_marseille","lat":43.28407,"lon":5.37527,"is_reserved":false,"is_disabled":false,"rental_uris":{"android":"levelo://app?vid=443a506e-3487-4634-8f70-3912280dd197","ios":"levelo://app?vid=443a506e-3487-4634-8f70-3912280dd197"},"vehicle_type_id":"4","last_reported":1741021718,"current_range_meters":16400,"station_id":"ce4bh412rcd13ifvqds0","pricing_plan_id":"cebpf4jnsgd1na2vs0mg"},{"bike_id":"e2fcacd2-645b-46e0-91fa-82e5f766ade4","system_id":"levelo_inurba_marseille","lat":43.28036,"lon":5.36953,"is_reserved":false,"is_disabled":false,"rental_uris":{"android":"levelo://app?vid=e2fcacd2-645b-46e0-91fa-82e5f766ade4","ios":"levelo://app?vid=e2fcacd2-645b-46e0-91fa-82e5f766ade4"},"vehicle_type_id":"4","last_reported":1741021718,"current_range_meters":16400,"station_id":"ce4bha12rcd13ifvqef0","pricing_plan_id":"cebpf4jnsgd1na2vs0mg"},{"bike_id":"b83cb641-758e-4048-adaf-fe7a109f881e","system_id":"levelo_inurba_marseille","lat":43.30419,"lon":5.41283,"is_reserved":false,"is_disabled":false,"rental_uris":{"android":"levelo://app?vid=b83cb641-758e-4048-adaf-fe7a109f881e","ios":"levelo://app?vid=b83cb641-758e-4048-adaf-fe7a109f881e"},"vehicle_type_id":"4","last_reported":1741021718,"current_range_meters":16400,"station_id":"ce4bhop2rcd13ifvqh8g","pricing_plan_id":"cebpf4jnsgd1na2vs0mg"},{"bike_id":"be7b7d32-3d1f-4756-a0f2-91fd2fa9521a","system_id":"levelo_inurba_marseille","lat":43.29785,"lon":5.39339,"is_reserved":false,"is_disabled":false,"rental_uris":{"android":"levelo://app?vid=be7b7d32-3d1f-4756-a0f2-91fd2fa9521a","ios":"levelo://app?vid=be7b7d32-3d1f-4756-a0f2-91fd2fa9521a"},"vehicle_type_id":"4","last_reported":1741021718,"current_range_meters":16400,"station_id":"chh1huq6cuj3fo74tm60","pricing_plan_id":"cebpf4jnsgd1na2vs0mg"},{"bike_id":"0a06ae63-3ebc-4ef1-bf6e-9c9864cc4695","system_id":"levelo_inurba_marseille","lat":43.31473,"lon":5.37307,"is_reserved":false,"is_disabled":false,"rental_uris":{"android":"levelo://app?vid=0a06ae63-3ebc-4ef1-bf6e-9c9864cc4695","ios":"levelo://app?vid=0a06ae63-3ebc-4ef1-bf6e-9c9864cc4695"},"vehicle_type_id":"4","last_reported":1741021718,"current_range_meters":16800,"station_id":"ce4bgt12rcd13ifvqcd0","pricing_plan_id":"cebpf4jnsgd1na2vs0mg"},{"bike_id":"3376ed60-2a8d-4eea-8548-edd99221c360","system_id":"levelo_inurba_marseille","lat":43.31362,"lon":5.38483,"is_reserved":false,"is_disabled":false,"rental_uris":{"android":"levelo://app?vid=3376ed60-2a8d-4eea-8548-edd99221c360","ios":"levelo://app?vid=3376ed60-2a8d-4eea-8548-edd99221c360"},"vehicle_type_id":"4","last_reported":1741021718,"current_range_meters":16800,"station_id":"ce4bgt92rcd13ifvqcf0","pricing_plan_id":"cebpf4jnsgd1na2vs0mg"},{"bike_id":"b7e03f4e-b364-48e9-a47e-92ded0bfc276","system_id":"levelo_inurba_marseille","lat":43.2926,"lon":5.37845,"is_reserved":false,"is_disabled":false,"rental_uris":{"android":"levelo://app?vid=b7e03f4e-b364-48e9-a47e-92ded0bfc276","ios":"levelo://app?vid=b7e03f4e-b364-48e9-a47e-92ded0bfc276"},"vehicle_type_id":"4","last_reported":1741021718,"current_range_meters":16800,"station_id":"ce4bh692rcd13ifvqea0","pricing_plan_id":"cebpf4jnsgd1na2vs0mg"},{"bike_id":"d0b2a7d9-2ac3-4be1-a8da-4bf4503e5466","system_id":"levelo_inurba_marseille","lat":43.28601,"lon":5.35142,"is_reserved":false,"is_disabled":false,"rental_uris":{"android":"levelo://app?vid=d0b2a7d9-2ac3-4be1-a8da-4bf4503e5466","ios":"levelo://app?vid=d0b2a7d9-2ac3-4be1-a8da-4bf4503e5466"},"vehicle_type_id":"4","last_reported":1741021718,"current_range_meters":16800,"station_id":"ce4bhch2rcd13ifvqeug","pricing_plan_id":"cebpf4jnsgd1na2vs0mg"},{"bike_id":"79e831d4-fd8b-4ef2-9f87-a1f91a750e32","system_id":"levelo_inurba_marseille","lat":43.26056,"lon":5.39403,"is_reserved":false,"is_disabled":false,"rental_uris":{"android":"levelo://app?vid=79e831d4-fd8b-4ef2-9f87-a1f91a750e32","ios":"levelo://app?vid=79e831d4-fd8b-4ef2-9f87-a1f91a750e32"},"vehicle_type_id":"4","last_reported":1741021718,"current_range_meters":16800,"station_id":"ce4bhh92rcd13ifvqfj0","pricing_plan_id":"cebpf4jnsgd1na2vs0mg"},{"bike_id":"584e3d21-7b38-4f34-ae3f-1a1d6fb985be","system_id":"levelo_inurba_marseille","lat":43.2572,"lon":5.41114,"is_reserved":false,"is_disabled":false,"rental_uris":{"android":"levelo://app?vid=584e3d21-7b38-4f34-ae3f-1a1d6fb985be","ios":"levelo://app?vid=584e3d21-7b38-4f34-ae3f-1a1d6fb985be"},"vehicle_type_id":"4","last_reported":1741021718,"current_range_meters":16800,"station_id":"ce4bhkp2rcd13ifvqgd0","pricing_plan_id":"cebpf4jnsgd1na2vs0mg"},{"bike_id":"14d37650-33f9-4291-8774-3b8fa36ba717","system_id":"levelo_inurba_marseille","lat":43.32367,"lon":5.38885,"is_reserved":false,"is_disabled":false,"rental_uris":{"android":"levelo://app?vid=14d37650-33f9-4291-8774-3b8fa36ba717","ios":"levelo://app?vid=14d37650-33f9-4291-8774-3b8fa36ba717"},"vehicle_type_id":"4","last_reported":1741021718,"current_range_meters":16800,"station_id":"ce4bhqp2rcd13ifvqhog","pricing_plan_id":"cebpf4jnsgd1na2vs0mg"},{"bike_id":"964f17aa-a778-4e17-b11f-b5f7fae7ab28","system_id":"levelo_inurba_marseille","lat":43.232015,"lon":5.355528,"is_reserved":false,"is_disabled":false,"rental_uris":{"android":"levelo://app?vid=964f17aa-a778-4e17-b11f-b5f7fae7ab28","ios":"levelo://app?vid=964f17aa-a778-4e17-b11f-b5f7fae7ab28"},"vehicle_type_id":"4","last_reported":1741021718,"current_range_meters":16800,"station_id":"ce4bhu92rcd13ifvqi70","pricing_plan_id":"cebpf4jnsgd1na2vs0mg"},{"bike_id":"e0bbd19f-dbed-424f-998c-e43cb85c9ec3","system_id":"levelo_inurba_marseille","lat":43.24182,"lon":5.36405,"is_reserved":false,"is_disabled":false,"rental_uris":{"android":"levelo://app?vid=e0bbd19f-dbed-424f-998c-e43cb85c9ec3","ios":"levelo://app?vid=e0bbd19f-dbed-424f-998c-e43cb85c9ec3"},"vehicle_type_id":"4","last_reported":1741021718,"current_range_meters":16800,"station_id":"cpo36qri1sfpv3e86is0","pricing_plan_id":"cebpf4jnsgd1na2vs0mg"},{"bike_id":"21d576ee-ad99-4344-99a6-48a7647dc728","system_id":"levelo_inurba_marseille","lat":43.32936,"lon":5.42987,"is_reserved":false,"is_disabled":false,"rental_uris":{"android":"levelo://app?vid=21d576ee-ad99-4344-99a6-48a7647dc728","ios":"levelo://app?vid=21d576ee-ad99-4344-99a6-48a7647dc728"},"vehicle_type_id":"4","last_reported":1741021718,"current_range_meters":17600,"station_id":"","pricing_plan_id":"cebpf4jnsgd1na2vs0mg"},{"bike_id":"d7ef5145-0bca-4f45-a0cf-6b1d49f6690d","system_id":"levelo_inurba_marseille","lat":43.31403,"lon":5.39173,"is_reserved":false,"is_disabled":false,"rental_uris":{"android":"levelo://app?vid=d7ef5145-0bca-4f45-a0cf-6b1d49f6690d","ios":"levelo://app?vid=d7ef5145-0bca-4f45-a0cf-6b1d49f6690d"},"vehicle_type_id":"4","last_reported":1741021718,"current_range_meters":17600,"station_id":"","pricing_plan_id":"cebpf4jnsgd1na2vs0mg"},{"bike_id":"f83a09a1-05e9-4f34-b3b0-a301d7d23141","system_id":"levelo_inurba_marseille","lat":43.29302,"lon":5.42707,"is_reserved":false,"is_disabled":false,"rental_uris":{"android":"levelo://app?vid=f83a09a1-05e9-4f34-b3b0-a301d7d23141","ios":"levelo://app?vid=f83a09a1-05e9-4f34-b3b0-a301d7d23141"},"vehicle_type_id":"4","last_reported":1741021718,"current_range_meters":17600,"station_id":"","pricing_plan_id":"cebpf4jnsgd1na2vs0mg"},{"bike_id":"31b1445f-c7ad-40ed-bd63-5cfde2d4e07b","system_id":"levelo_inurba_marseille","lat":43.32781,"lon":5.39144,"is_reserved":false,"is_disabled":false,"rental_uris":{"android":"levelo://app?vid=31b1445f-c7ad-40ed-bd63-5cfde2d4e07b","ios":"levelo://app?vid=31b1445f-c7ad-40ed-bd63-5cfde2d4e07b"},"vehicle_type_id":"4","last_reported":1741021718,"current_range_meters":17600,"station_id":"","pricing_plan_id":"cebpf4jnsgd1na2vs0mg"},{"bike_id":"811bf25c-9b41-4fd0-9c9f-36e1e5f39574","system_id":"levelo_inurba_marseille","lat":43.28465,"lon":5.35875,"is_reserved":false,"is_disabled":false,"rental_uris":{"android":"levelo://app?vid=811bf25c-9b41-4fd0-9c9f-36e1e5f39574","ios":"levelo://app?vid=811bf25c-9b41-4fd0-9c9f-36e1e5f39574"},"vehicle_type_id":"4","last_reported":1741021718,"current_range_meters":17600,"station_id":"ce4bhah2rcd13ifvqei0","pricing_plan_id":"cebpf4jnsgd1na2vs0mg"},{"bike_id":"6bc66cf1-83ee-4094-911c-7424f96f9be6","system_id":"levelo_inurba_marseille","lat":43.29196,"lon":5.35798,"is_reserved":false,"is_disabled":false,"rental_uris":{"android":"levelo://app?vid=6bc66cf1-83ee-4094-911c-7424f96f9be6","ios":"levelo://app?vid=6bc66cf1-83ee-4094-911c-7424f96f9be6"},"vehicle_type_id":"4","last_reported":1741021718,"current_range_meters":17600,"station_id":"ce4bhb12rcd13ifvqel0","pricing_plan_id":"cebpf4jnsgd1na2vs0mg"},{"bike_id":"642c7792-3e94-4263-87b3-9666d4f3535e","system_id":"levelo_inurba_marseille","lat":43.25501,"lon":5.3763,"is_reserved":false,"is_disabled":false,"rental_uris":{"android":"levelo://app?vid=642c7792-3e94-4263-87b3-9666d4f3535e","ios":"levelo://app?vid=642c7792-3e94-4263-87b3-9666d4f3535e"},"vehicle_type_id":"4","last_reported":1741021718,"current_range_meters":17600,"station_id":"ce4bhh12rcd13ifvqff0","pricing_plan_id":"cebpf4jnsgd1na2vs0mg"},{"bike_id":"5515b2ed-d24a-4958-9699-245f169e22b6","system_id":"levelo_inurba_marseille","lat":43.29553,"lon":5.42288,"is_reserved":false,"is_disabled":false,"rental_uris":{"android":"levelo://app?vid=5515b2ed-d24a-4958-9699-245f169e22b6","ios":"levelo://app?vid=5515b2ed-d24a-4958-9699-245f169e22b6"},"vehicle_type_id":"4","last_reported":1741021718,"current_range_meters":17600,"station_id":"ce4bhph2rcd13ifvqhdg","pricing_plan_id":"cebpf4jnsgd1na2vs0mg"},{"bike_id":"bc27ce7c-8b0b-4c70-94af-6a34d5d979f6","system_id":"levelo_inurba_marseille","lat":43.3234,"lon":5.40618,"is_reserved":false,"is_disabled":false,"rental_uris":{"android":"levelo://app?vid=bc27ce7c-8b0b-4c70-94af-6a34d5d979f6","ios":"levelo://app?vid=bc27ce7c-8b0b-4c70-94af-6a34d5d979f6"},"vehicle_type_id":"4","last_reported":1741021718,"current_range_meters":17600,"station_id":"ce4bhq92rcd13ifvqhjg","pricing_plan_id":"cebpf4jnsgd1na2vs0mg"},{"bike_id":"0875a4c3-dafb-40b2-9808-6ed1b9852471","system_id":"levelo_inurba_marseille","lat":43.296214,"lon":5.371635,"is_reserved":false,"is_disabled":false,"rental_uris":{"android":"levelo://app?vid=0875a4c3-dafb-40b2-9808-6ed1b9852471","ios":"levelo://app?vid=0875a4c3-dafb-40b2-9808-6ed1b9852471"},"vehicle_type_id":"4","last_reported":1741021718,"current_range_meters":18000,"station_id":"ce4bgnh2rcd13ifvqc0g","pricing_plan_id":"cebpf4jnsgd1na2vs0mg"},{"bike_id":"4d33af91-5c5b-46e3-8ed5-ca7240939b95","system_id":"levelo_inurba_marseille","lat":43.28036,"lon":5.36943,"is_reserved":false,"is_disabled":false,"rental_uris":{"android":"levelo://app?vid=4d33af91-5c5b-46e3-8ed5-ca7240939b95","ios":"levelo://app?vid=4d33af91-5c5b-46e3-8ed5-ca7240939b95"},"vehicle_type_id":"4","last_reported":1741021718,"current_range_meters":18000,"station_id":"ce4bha12rcd13ifvqef0","pricing_plan_id":"cebpf4jnsgd1na2vs0mg"},{"bike_id":"1baecf42-5a9f-4a68-9f0e-d3dd53f6d892","system_id":"levelo_inurba_marseille","lat":43.25501,"lon":5.37664,"is_reserved":false,"is_disabled":false,"rental_uris":{"android":"levelo://app?vid=1baecf42-5a9f-4a68-9f0e-d3dd53f6d892","ios":"levelo://app?vid=1baecf42-5a9f-4a68-9f0e-d3dd53f6d892"},"vehicle_type_id":"4","last_reported":1741021718,"current_range_meters":18000,"station_id":"ce4bhh12rcd13ifvqff0","pricing_plan_id":"cebpf4jnsgd1na2vs0mg"},{"bike_id":"954be03c-bedc-4d79-b23c-ddf297b60e57","system_id":"levelo_inurba_marseille","lat":43.25094,"lon":5.39503,"is_reserved":false,"is_disabled":false,"rental_uris":{"android":"levelo://app?vid=954be03c-bedc-4d79-b23c-ddf297b60e57","ios":"levelo://app?vid=954be03c-bedc-4d79-b23c-ddf297b60e57"},"vehicle_type_id":"4","last_reported":1741021718,"current_range_meters":18000,"station_id":"ce4bhm12rcd13ifvqgkg","pricing_plan_id":"cebpf4jnsgd1na2vs0mg"},{"bike_id":"47ca7176-dcba-4b9e-8dbb-e2bb239319ab","system_id":"levelo_inurba_marseille","lat":43.31423,"lon":5.38565,"is_reserved":false,"is_disabled":false,"rental_uris":{"android":"levelo://app?vid=47ca7176-dcba-4b9e-8dbb-e2bb239319ab","ios":"levelo://app?vid=47ca7176-dcba-4b9e-8dbb-e2bb239319ab"},"vehicle_type_id":"4","last_reported":1741021718,"current_range_meters":18800,"station_id":"","pricing_plan_id":"cebpf4jnsgd1na2vs0mg"},{"bike_id":"c53b0d82-c9c6-421d-bb16-490253ff116a","system_id":"levelo_inurba_marseille","lat":43.299046,"lon":5.381766,"is_reserved":false,"is_disabled":false,"rental_uris":{"android":"levelo://app?vid=c53b0d82-c9c6-421d-bb16-490253ff116a","ios":"levelo://app?vid=c53b0d82-c9c6-421d-bb16-490253ff116a"},"vehicle_type_id":"4","last_reported":1741021718,"current_range_meters":18800,"station_id":"ce4bgj12rcd13ifvqbc0","pricing_plan_id":"cebpf4jnsgd1na2vs0mg"},{"bike_id":"f6f0d9ff-ecdc-4506-9a8b-0308cf1ffcc8","system_id":"levelo_inurba_marseille","lat":43.29534,"lon":5.37508,"is_reserved":false,"is_disabled":false,"rental_uris":{"android":"levelo://app?vid=f6f0d9ff-ecdc-4506-9a8b-0308cf1ffcc8","ios":"levelo://app?vid=f6f0d9ff-ecdc-4506-9a8b-0308cf1ffcc8"},"vehicle_type_id":"4","last_reported":1741021718,"current_range_meters":18800,"station_id":"ce4bgkp2rcd13ifvqbmg","pricing_plan_id":"cebpf4jnsgd1na2vs0mg"},{"bike_id":"5a7a56bb-9be1-4ab6-a717-001c3d7eeed3","system_id":"levelo_inurba_marseille","lat":43.30873,"lon":5.39655,"is_reserved":false,"is_disabled":false,"rental_uris":{"android":"levelo://app?vid=5a7a56bb-9be1-4ab6-a717-001c3d7eeed3","ios":"levelo://app?vid=5a7a56bb-9be1-4ab6-a717-001c3d7eeed3"},"vehicle_type_id":"4","last_reported":1741021718,"current_range_meters":18800,"station_id":"ce4bh012rcd13ifvqcv0","pricing_plan_id":"cebpf4jnsgd1na2vs0mg"},{"bike_id":"b6a22f20-c577-4765-8ee5-0eb97d6476e1","system_id":"levelo_inurba_marseille","lat":43.26687,"lon":5.38275,"is_reserved":false,"is_disabled":false,"rental_uris":{"android":"levelo://app?vid=b6a22f20-c577-4765-8ee5-0eb97d6476e1","ios":"levelo://app?vid=b6a22f20-c577-4765-8ee5-0eb97d6476e1"},"vehicle_type_id":"4","last_reported":1741021718,"current_range_meters":18800,"station_id":"ce4bhg92rcd13ifvqf90","pricing_plan_id":"cebpf4jnsgd1na2vs0mg"},{"bike_id":"512ed30f-e1d3-4704-951c-1f9b0d64b9d1","system_id":"levelo_inurba_marseille","lat":43.27839,"lon":5.39221,"is_reserved":false,"is_disabled":false,"rental_uris":{"android":"levelo://app?vid=512ed30f-e1d3-4704-951c-1f9b0d64b9d1","ios":"levelo://app?vid=512ed30f-e1d3-4704-951c-1f9b0d64b9d1"},"vehicle_type_id":"4","last_reported":1741021718,"current_range_meters":18800,"station_id":"ce4bhjp2rcd13ifvqga0","pricing_plan_id":"cebpf4jnsgd1na2vs0mg"},{"bike_id":"6768ace9-2559-408a-8c54-3722fd33c310","system_id":"levelo_inurba_marseille","lat":43.27944,"lon":5.41047,"is_reserved":false,"is_disabled":false,"rental_uris":{"android":"levelo://app?vid=6768ace9-2559-408a-8c54-3722fd33c310","ios":"levelo://app?vid=6768ace9-2559-408a-8c54-3722fd33c310"},"vehicle_type_id":"4","last_reported":1741021718,"current_range_meters":18800,"station_id":"ce4bhnp2rcd13ifvqh0g","pricing_plan_id":"cebpf4jnsgd1na2vs0mg"},{"bike_id":"75b766df-f791-4f08-8759-7d387fddf640","system_id":"levelo_inurba_marseille","lat":43.31995,"lon":5.38129,"is_reserved":false,"is_disabled":false,"rental_uris":{"android":"levelo://app?vid=75b766df-f791-4f08-8759-7d387fddf640","ios":"levelo://app?vid=75b766df-f791-4f08-8759-7d387fddf640"},"vehicle_type_id":"4","last_reported":1741021718,"current_range_meters":18800,"station_id":"ce4bhr12rcd13ifvqhpg","pricing_plan_id":"cebpf4jnsgd1na2vs0mg"},{"bike_id":"f9556fbd-53f8-4d42-82ab-5e5f47121791","system_id":"levelo_inurba_marseille","lat":43.28607,"lon":5.37045,"is_reserved":false,"is_disabled":false,"rental_uris":{"android":"levelo://app?vid=f9556fbd-53f8-4d42-82ab-5e5f47121791","ios":"levelo://app?vid=f9556fbd-53f8-4d42-82ab-5e5f47121791"},"vehicle_type_id":"4","last_reported":1741021718,"current_range_meters":18800,"station_id":"ce4bht12rcd13ifvqi60","pricing_plan_id":"cebpf4jnsgd1na2vs0mg"},{"bike_id":"322a7cae-7b39-49ec-8cc2-6a8899fbfc4f","system_id":"levelo_inurba_marseille","lat":43.24167,"lon":5.36395,"is_reserved":false,"is_disabled":false,"rental_uris":{"android":"levelo://app?vid=322a7cae-7b39-49ec-8cc2-6a8899fbfc4f","ios":"levelo://app?vid=322a7cae-7b39-49ec-8cc2-6a8899fbfc4f"},"vehicle_type_id":"4","last_reported":1741021718,"current_range_meters":18800,"station_id":"cpo36qri1sfpv3e86is0","pricing_plan_id":"cebpf4jnsgd1na2vs0mg"},{"bike_id":"4f22ed03-3f01-49f0-87ec-77cf8c324e7e","system_id":"levelo_inurba_marseille","lat":43.30987,"lon":5.38459,"is_reserved":false,"is_disabled":false,"rental_uris":{"android":"levelo://app?vid=4f22ed03-3f01-49f0-87ec-77cf8c324e7e","ios":"levelo://app?vid=4f22ed03-3f01-49f0-87ec-77cf8c324e7e"},"vehicle_type_id":"4","last_reported":1741021718,"current_range_meters":19200,"station_id":"","pricing_plan_id":"cebpf4jnsgd1na2vs0mg"},{"bike_id":"b75f8b81-1e5d-4563-a94f-1911bd48ce1c","system_id":"levelo_inurba_marseille","lat":43.29655,"lon":5.36278,"is_reserved":false,"is_disabled":false,"rental_uris":{"android":"levelo://app?vid=b75f8b81-1e5d-4563-a94f-1911bd48ce1c","ios":"levelo://app?vid=b75f8b81-1e5d-4563-a94f-1911bd48ce1c"},"vehicle_type_id":"4","last_reported":1741021718,"current_range_meters":19200,"station_id":"ce4bgpp2rcd13ifvqc3g","pricing_plan_id":"cebpf4jnsgd1na2vs0mg"},{"bike_id":"65d20a91-b442-479f-b964-bd5571960ec1","system_id":"levelo_inurba_marseille","lat":43.28421,"lon":5.34996,"is_reserved":false,"is_disabled":false,"rental_uris":{"android":"levelo://app?vid=65d20a91-b442-479f-b964-bd5571960ec1","ios":"levelo://app?vid=65d20a91-b442-479f-b964-bd5571960ec1"},"vehicle_type_id":"4","last_reported":1741021718,"current_range_meters":19200,"station_id":"ce4bhbh2rcd13ifvqepg","pricing_plan_id":"cebpf4jnsgd1na2vs0mg"},{"bike_id":"a2b9d686-216a-4f50-ae4b-e7710a444cd6","system_id":"levelo_inurba_marseille","lat":43.25009,"lon":5.38916,"is_reserved":false,"is_disabled":false,"rental_uris":{"android":"levelo://app?vid=a2b9d686-216a-4f50-ae4b-e7710a444cd6","ios":"levelo://app?vid=a2b9d686-216a-4f50-ae4b-e7710a444cd6"},"vehicle_type_id":"4","last_reported":1741021718,"current_range_meters":19200,"station_id":"ce4bhgp2rcd13ifvqfd0","pricing_plan_id":"cebpf4jnsgd1na2vs0mg"},{"bike_id":"05c44603-0228-4874-a55c-40bff2a857e0","system_id":"levelo_inurba_marseille","lat":43.25501,"lon":5.3765,"is_reserved":false,"is_disabled":false,"rental_uris":{"android":"levelo://app?vid=05c44603-0228-4874-a55c-40bff2a857e0","ios":"levelo://app?vid=05c44603-0228-4874-a55c-40bff2a857e0"},"vehicle_type_id":"4","last_reported":1741021718,"current_range_meters":19200,"station_id":"ce4bhh12rcd13ifvqff0","pricing_plan_id":"cebpf4jnsgd1na2vs0mg"},{"bike_id":"29b9226f-45a7-47ff-856e-eb7a55c2cf75","system_id":"levelo_inurba_marseille","lat":43.23962,"lon":5.36609,"is_reserved":false,"is_disabled":false,"rental_uris":{"android":"levelo://app?vid=29b9226f-45a7-47ff-856e-eb7a55c2cf75","ios":"levelo://app?vid=29b9226f-45a7-47ff-856e-eb7a55c2cf75"},"vehicle_type_id":"4","last_reported":1741021718,"current_range_meters":19200,"station_id":"ce4bhi12rcd13ifvqfp0","pricing_plan_id":"cebpf4jnsgd1na2vs0mg"},{"bike_id":"e83fe1b4-c043-431b-bbbb-a67a412ce328","system_id":"levelo_inurba_marseille","lat":43.32004,"lon":5.38149,"is_reserved":false,"is_disabled":false,"rental_uris":{"android":"levelo://app?vid=e83fe1b4-c043-431b-bbbb-a67a412ce328","ios":"levelo://app?vid=e83fe1b4-c043-431b-bbbb-a67a412ce328"},"vehicle_type_id":"4","last_reported":1741021718,"current_range_meters":19200,"station_id":"ce4bhr12rcd13ifvqhpg","pricing_plan_id":"cebpf4jnsgd1na2vs0mg"},{"bike_id":"36ba5f64-b709-4e2d-b82b-2b805fc30667","system_id":"levelo_inurba_marseille","lat":43.33022,"lon":5.39038,"is_reserved":false,"is_disabled":false,"rental_uris":{"android":"levelo://app?vid=36ba5f64-b709-4e2d-b82b-2b805fc30667","ios":"levelo://app?vid=36ba5f64-b709-4e2d-b82b-2b805fc30667"},"vehicle_type_id":"4","last_reported":1741021718,"current_range_meters":19200,"station_id":"ce4bhr92rcd13ifvqhrg","pricing_plan_id":"cebpf4jnsgd1na2vs0mg"},