{"last_updated":1741244974,"ttl":60,"version":"2.2","data":{"bikes":[{"bike_id":"a90066f4-f29c-4a18-a138-aedadbb0c268","system_id":"levelo_inurba_marseille","lat":43.28151,"lon":5.42644,"is_reserved":false,"is_disabled":false,"rental_uris":{"android":"levelo://app?vid=a90066f4-f29c-4a18-a138-aedadbb0c268","ios":"levelo://app?vid=a90066f4-f29c-4a18-a138-aedadbb0c268"},"vehicle_type_id":"4","last_reported":1741244975,"current_range_meters":2800,"station_id":"ce4bhnh2rcd13ifvqgug","pricing_plan_id":"cebpf4jnsgd1na2vs0mg"},{"bike_id":"ee1d2ad1-36ca-49dd-a328-f2a9a9994ecb","system_id":"levelo_inurba_marseille","lat":43.31072,"lon":5.38157,"is_reserved":false,"is_disabled":false,"rental_uris":{"android":"levelo://app?vid=ee1d2ad1-36ca-49dd-a328-f2a9a9994ecb","ios":"levelo://app?vid=ee1d2ad1-36ca-49dd-a328-f2a9a9994ecb"},"vehicle_type_id":"4","last_reported":1741244975,"current_range_meters":3200,"station_id":"","pricing_plan_id":"cebpf4jnsgd1na2vs0mg"},{"bike_id":"8fe93df6-2fe6-41ee-aeb3-48d22ff05290","system_id":"levelo_inurba_marseille","lat":43.29159,"lon":5.3861,"is_reserved":false,"is_disabled":false,"rental_uris":{"android":"levelo://app?vid=8fe93df6-2fe6-41ee-aeb3-48d22ff05290","ios":"levelo://app?vid=8fe93df6-2fe6-41ee-aeb3-48d22ff05290"},"vehicle_type_id":"4","last_reported":1741244975,"current_range_meters":3200,"station_id":"","pricing_plan_id":"cebpf4jnsgd1na2vs0mg"},{"bike_id":"1dfd9dc3-4ac7-4246-bb53-a5c1cb36f26a","system_id":"levelo_inurba_marseille","lat":43.28562,"lon":5.3951,"is_reserved":false,"is_disabled":false,"rental_uris":{"android":"levelo://app?vid=1dfd9dc3-4ac7-4246-bb53-a5c1cb36f26a","ios":"levelo://app?vid=1dfd9dc3-4ac7-4246-bb53-a5c1cb36f26a"},"vehicle_type_id":"4","last_reported":1741244975,"current_range_meters":3200,"station_id":"ce4bh292rcd13ifvqdg0","pricing_plan_id":"cebpf4jnsgd1na2vs0mg"},{"bike_id":"b0fcd529-da2a-487b-b33c-e970100ab35b","system_id":"levelo_inurba_marseille","lat":43.29021,"lon":5.38646,"is_reserved":false,"is_disabled":false,"rental_uris":{"android":"levelo://app?vid=b0fcd529-da2a-487b-b33c-e970100ab35b","ios":"levelo://app?vid=b0fcd529-da2a-487b-b33c-e970100ab35b"},"vehicle_type_id":"4","last_reported":1741244975,"current_range_meters":2800,"station_id":"ce4bh4p2rcd13ifvqe0g","pricing_plan_id":"cebpf4jnsgd1na2vs0mg"},{"bike_id":"8adfe904-8e0c-4db7-8cfb-6f7c30d8e1cf","system_id":"levelo_inurba_marseille","lat":43.30646,"lon":5.40105,"is_reserved":false,"is_disabled":false,"rental_uris":{"android":"levelo://app?vid=8adfe904-8e0c-4db7-8cfb-6f7c30d8e1cf","ios":"levelo://app?vid=8adfe904-8e0c-4db7-8cfb-6f7c30d8e1cf"},"vehicle_type_id":"4","last_reported":1741244975,"current_range_meters":3200,"station_id":"ce4bh112rcd13ifvqda0","pricing_plan_id":"cebpf4jnsgd1na2vs0mg"},{"bike_id":"54991513-f878-4116-a08f-541b88281cf9","system_id":"levelo_inurba_marseille","lat":43.2799,"lon":5.40007,"is_reserved":false,"is_disabled":true,"rental_uris":{"android":"levelo://app?vid=54991513-f878-4116-a08f-541b88281cf9","ios":"levelo://app?vid=54991513-f878-4116-a08f-541b88281cf9"},"vehicle_type_id":"4","last_reported":1741244975,"current_range_meters":3200,"station_id":"ce4bho92rcd13ifvqh4g","pricing_plan_id":"cebpf4jnsgd1na2vs0mg"},{"bike_id":"6920cc25-12b6-43e4-86fe-9bf628407024","system_id":"levelo_inurba_marseille","lat":43.30151,"lon":5.38081,"is_reserved":false,"is_disabled":false,"rental_uris":{"android":"levelo://app?vid=6920cc25-12b6-43e4-86fe-9bf628407024","ios":"levelo://app?vid=6920cc25-12b6-43e4-86fe-9bf628407024"},"vehicle_type_id":"4","last_reported":1741244975,"current_range_meters":3600,"station_id":"ce4bgjp2rcd13ifvqbh0","pricing_plan_id":"cebpf4jnsgd1na2vs0mg"},{"bike_id":"5dfb47d8-87fa-41b1-8978-d74e2e86468f","system_id":"levelo_inurba_marseille","lat":43.29795,"lon":5.38093,"is_reserved":false,"is_disabled":false,"rental_uris":{"android":"levelo://app?vid=5dfb47d8-87fa-41b1-8978-d74e2e86468f","ios":"levelo://app?vid=5dfb47d8-87fa-41b1-8978-d74e2e86468f"},"vehicle_type_id":"4","last_reported":1741244975,"current_range_meters":3600,"station_id":"","pricing_plan_id":"cebpf4jnsgd1na2vs0mg"},{"bike_id":"986f916e-af8f-4e70-8776-8c837c7720e7","system_id":"levelo_inurba_marseille","lat":43.27207,"lon":5.39187,"is_reserved":false,"is_disabled":false,"rental_uris":{"android":"levelo://app?vid=986f916e-af8f-4e70-8776-8c837c7720e7","ios":"levelo://app?vid=986f916e-af8f-4e70-8776-8c837c7720e7"},"vehicle_type_id":"4","last_reported":1741244975,"current_range_meters":3600,"station_id":"ce4bhhp2rcd13ifvqfm0","pricing_plan_id":"cebpf4jnsgd1na2vs0mg"},{"bike_id":"1ae679cc-613d-44de-9c49-10aa5cef907c","system_id":"levelo_inurba_marseille","lat":43.2749,"lon":5.42474,"is_reserved":false,"is_disabled":false,"rental_uris":{"android":"levelo://app?vid=1ae679cc-613d-44de-9c49-10aa5cef907c","ios":"levelo://app?vid=1ae679cc-613d-44de-9c49-10aa5cef907c"},"vehicle_type_id":"4","last_reported":1741244975,"current_range_meters":3600,"station_id":"ce4bhn92rcd13ifvqgrg","pricing_plan_id":"cebpf4jnsgd1na2vs0mg"},{"bike_id":"0eecafca-a56c-4e34-9007-4c70fec3e848","system_id":"levelo_inurba_marseille","lat":43.290924,"lon":5.381153,"is_reserved":false,"is_disabled":false,"rental_uris":{"android":"levelo://app?vid=0eecafca-a56c-4e34-9007-4c70fec3e848","ios":"levelo://app?vid=0eecafca-a56c-4e34-9007-4c70fec3e848"},"vehicle_type_id":"4","last_reported":1741244975,"current_range_meters":3600,"station_id":"ce4bh512rcd13ifvqe2g","pricing_plan_id":"cebpf4jnsgd1na2vs0mg"},{"bike_id":"083c601b-78a3-454f-8742-da54334bd8b5","system_id":"levelo_inurba_marseille","lat":43.28338,"lon":5.38112,"is_reserved":false,"is_disabled":false,"rental_uris":{"android":"levelo://app?vid=083c601b-78a3-454f-8742-da54334bd8b5","ios":"levelo://app?vid=083c601b-78a3-454f-8742-da54334bd8b5"},"vehicle_type_id":"4","last_reported":1741244975,"current_range_meters":4000,"station_id":"ce4bh412rcd13ifvqdr0","pricing_plan_id":"cebpf4jnsgd1na2vs0mg"},{"bike_id":"c3e12cd0-5b55-4fa8-9b46-bb2eb8bd5487","system_id":"levelo_inurba_marseille","lat":43.30914,"lon":5.40188,"is_reserved":false,"is_disabled":true,"rental_uris":{"android":"levelo://app?vid=c3e12cd0-5b55-4fa8-9b46-bb2eb8bd5487","ios":"levelo://app?vid=c3e12cd0-5b55-4fa8-9b46-bb2eb8bd5487"},"vehicle_type_id":"4","last_reported":1741244975,"current_range_meters":4000,"station_id":"ce4bgvp2rcd13ifvqct0","pricing_plan_id":"cebpf4jnsgd1na2vs0mg"},{"bike_id":"b706629a-89ec-4ff2-9c30-1762bd78c122","system_id":"levelo_inurba_marseille","lat":43.28935,"lon":5.36645,"is_reserved":false,"is_disabled":false,"rental_uris":{"android":"levelo://app?vid=b706629a-89ec-4ff2-9c30-1762bd78c122","ios":"levelo://app?vid=b706629a-89ec-4ff2-9c30-1762bd78c122"},"vehicle_type_id":"4","last_reported":1741244975,"current_range_meters":4400,"station_id":"ce4bhap2rcd13ifvqek0","pricing_plan_id":"cebpf4jnsgd1na2vs0mg"},{"bike_id":"0ac652e7-bd36-4498-800f-379df6fb8757","system_id":"levelo_inurba_marseille","lat":43.28345,"lon":5.38101,"is_reserved":false,"is_disabled":false,"rental_uris":{"android":"levelo://app?vid=0ac652e7-bd36-4498-800f-379df6fb8757","ios":"levelo://app?vid=0ac652e7-bd36-4498-800f-379df6fb8757"},"vehicle_type_id":"4","last_reported":1741244975,"current_range_meters":4400,"station_id":"ce4bh412rcd13ifvqdr0","pricing_plan_id":"cebpf4jnsgd1na2vs0mg"},{"bike_id":"37245f92-27b0-4d71-94ad-9f00978bde25","system_id":"levelo_inurba_marseille","lat":43.279951,"lon":5.400115,"is_reserved":false,"is_disabled":true,"rental_uris":{"android":"levelo://app?vid=37245f92-27b0-4d71-94ad-9f00978bde25","ios":"levelo://app?vid=37245f92-27b0-4d71-94ad-9f00978bde25"},"vehicle_type_id":"4","last_reported":1741244975,"current_range_meters":4400,"station_id":"ce4bho92rcd13ifvqh4g","pricing_plan_id":"cebpf4jnsgd1na2vs0mg"},{"bike_id":"f6662bde-1632-4b0f-a966-f86b33b7c3b9","system_id":"levelo_inurba_marseille","lat":43.33763,"lon":5.37493,"is_reserved":false,"is_disabled":false,"rental_uris":{"android":"levelo://app?vid=f6662bde-1632-4b0f-a966-f86b33b7c3b9","ios":"levelo://app?vid=f6662bde-1632-4b0f-a966-f86b33b7c3b9"},"vehicle_type_id":"4","last_reported":1741244975,"current_range_meters":4800,"station_id":"","pricing_plan_id":"cebpf4jnsgd1na2vs0mg"},{"bike_id":"d042490b-89be-4965-8498-025836790f65","system_id":"levelo_inurba_marseille","lat":43.25941,"lon":5.40904,"is_reserved":false,"is_disabled":false,"rental_uris":{"android":"levelo://app?vid=d042490b-89be-4965-8498-025836790f65","ios":"levelo://app?vid=d042490b-89be-4965-8498-025836790f65"},"vehicle_type_id":"4","last_reported":1741244975,"current_range_meters":4800,"station_id":"ce4bhm92rcd13ifvqglg","pricing_plan_id":"cebpf4jnsgd1na2vs0mg"},{"bike_id":"9d42807a-44c6-4ed1-90a6-c24f2e4a37a1","system_id":"levelo_inurba_marseille","lat":43.31116,"lon":5.37774,"is_reserved":false,"is_disabled":false,"rental_uris":{"android":"levelo://app?vid=9d42807a-44c6-4ed1-90a6-c24f2e4a37a1","ios":"levelo://app?vid=9d42807a-44c6-4ed1-90a6-c24f2e4a37a1"},"vehicle_type_id":"4","last_reported":1741244975,"current_range_meters":4800,"station_id":"ce4bgt92rcd13ifvqcg0","pricing_plan_id":"cebpf4jnsgd1na2vs0mg"},{"bike_id":"de44d09a-d4db-4ce3-a2dd-62f4dc2e96ab","system_id":"levelo_inurba_marseille","lat":43.28147,"lon":5.42826,"is_reserved":false,"is_disabled":false,"rental_uris":{"android":"levelo://app?vid=de44d09a-d4db-4ce3-a2dd-62f4dc2e96ab","ios":"levelo://app?vid=de44d09a-d4db-4ce3-a2dd-62f4dc2e96ab"},"vehicle_type_id":"4","last_reported":1741244975,"current_range_meters":4800,"station_id":"","pricing_plan_id":"cebpf4jnsgd1na2vs0mg"},{"bike_id":"5d327b88-d8a2-4c59-9a43-4a7a4b07402a","system_id":"levelo_inurba_marseille","lat":43.29495,"lon":5.39078,"is_reserved":false,"is_disabled":true,"rental_uris":{"android":"levelo://app?vid=5d327b88-d8a2-4c59-9a43-4a7a4b07402a","ios":"levelo://app?vid=5d327b88-d8a2-4c59-9a43-4a7a4b07402a"},"vehicle_type_id":"4","last_reported":1741244975,"current_range_meters":4800,"station_id":"ce4bh3p2rcd13ifvqdp0","pricing_plan_id":"cebpf4jnsgd1na2vs0mg"},{"bike_id":"44a7153b-0fd7-4509-836b-676bbf84fb06","system_id":"levelo_inurba_marseille","lat":43.23189,"lon":5.35591,"is_reserved":false,"is_disabled":false,"rental_uris":{"android":"levelo://app?vid=44a7153b-0fd7-4509-836b-676bbf84fb06","ios":"levelo://app?vid=44a7153b-0fd7-4509-836b-676bbf84fb06"},"vehicle_type_id":"4","last_reported":1741244975,"current_range_meters":4800,"station_id":"ce4bhu92rcd13ifvqi70","pricing_plan_id":"cebpf4jnsgd1na2vs0mg"},{"bike_id":"541b7efd-860a-4d8b-831a-30746bc829c1","system_id":"levelo_inurba_marseille","lat":43.3235,"lon":5.38874,"is_reserved":false,"is_disabled":false,"rental_uris":{"android":"levelo://app?vid=541b7efd-860a-4d8b-831a-30746bc829c1","ios":"levelo://app?vid=541b7efd-860a-4d8b-831a-30746bc829c1"},"vehicle_type_id":"4","last_reported":1741244975,"current_range_meters":5600,"station_id":"ce4bhqp2rcd13ifvqhog","pricing_plan_id":"cebpf4jnsgd1na2vs0mg"},{"bike_id":"095e33ce-d0f0-4942-bb05-acba8f7cb858","system_id":"levelo_inurba_marseille","lat":43.2833,"lon":5.38507,"is_reserved":false,"is_disabled":false,"rental_uris":{"android":"levelo://app?vid=095e33ce-d0f0-4942-bb05-acba8f7cb858","ios":"levelo://app?vid=095e33ce-d0f0-4942-bb05-acba8f7cb858"},"vehicle_type_id":"4","last_reported":1741244975,"current_range_meters":5600,"station_id":"ce4bhgp2rcd13ifvqfe0","pricing_plan_id":"cebpf4jnsgd1na2vs0mg"},{"bike_id":"45357bfc-a276-44d1-b2cc-8bb3470db270","system_id":"levelo_inurba_marseille","lat":43.29415,"lon":5.38037,"is_reserved":false,"is_disabled":false,"rental_uris":{"android":"levelo://app?vid=45357bfc-a276-44d1-b2cc-8bb3470db270","ios":"levelo://app?vid=45357bfc-a276-44d1-b2cc-8bb3470db270"},"vehicle_type_id":"4","last_reported":1741244975,"current_range_meters":5600,"station_id":"ce4bh012rcd13ifvqcv0","pricing_plan_id":"cebpf4jnsgd1na2vs0mg"},{"bike_id":"2f617cd9-3efc-47a3-a843-17ede9fd2cdf","system_id":"levelo_inurba_marseille","lat":43.30648,"lon":5.39526,"is_reserved":false,"is_disabled":false,"rental_uris":{"android":"levelo://app?vid=2f617cd9-3efc-47a3-a843-17ede9fd2cdf","ios":"levelo://app?vid=2f617cd9-3efc-47a3-a843-17ede9fd2cdf"},"vehicle_type_id":"4","last_reported":1741244975,"current_range_meters":5600,"station_id":"","pricing_plan_id":"cebpf4jnsgd1na2vs0mg"},{"bike_id":"9993451f-799b-406b-a3da-253f53ed57ce","system_id":"levelo_inurba_marseille","lat":43.24647,"lon":5.38878,"is_reserved":false,"is_disabled":false,"rental_uris":{"android":"levelo://app?vid=9993451f-799b-406b-a3da-253f53ed57ce","ios":"levelo://app?vid=9993451f-799b-406b-a3da-253f53ed57ce"},"vehicle_type_id":"4","last_reported":1741244975,"current_range_meters":6000,"station_id":"ce4bhg12rcd13ifvqf60","pricing_plan_id":"cebpf4jnsgd1na2vs0mg"},{"bike_id":"21bc0f69-103c-4890-8f89-c802d95848d7","system_id":"levelo_inurba_marseille","lat":43.24384,"lon":5.37065,"is_reserved":false,"is_disabled":false,"rental_uris":{"android":"levelo://app?vid=21bc0f69-103c-4890-8f89-c802d95848d7","ios":"levelo://app?vid=21bc0f69-103c-4890-8f89-c802d95848d7"},"vehicle_type_id":"4","last_reported":1741244975,"current_range_meters":6000,"station_id":"ce4bhhh2rcd13ifvqfk0","pricing_plan_id":"cebpf4jnsgd1na2vs0mg"},{"bike_id":"b0603f8c-190f-4853-a7e5-0d0ca367341f","system_id":"levelo_inurba_marseille","lat":43.28135,"lon":5.42666,"is_reserved":false,"is_disabled":false,"rental_uris":{"android":"levelo://app?vid=b0603f8c-190f-4853-a7e5-0d0ca367341f","ios":"levelo://app?vid=b0603f8c-190f-4853-a7e5-0d0ca367341f"},"vehicle_type_id":"4","last_reported":1741244975,"current_range_meters":6000,"station_id":"ce4bhnh2rcd13ifvqgug","pricing_plan_id":"cebpf4jnsgd1na2vs0mg"},{"bike_id":"d7c8c627-3916-4d50-bea5-7e9ce42fca2f","system_id":"levelo_inurba_marseille","lat":43.30148,"lon":5.38088,"is_reserved":false,"is_disabled":false,"rental_uris":{"android":"levelo://app?vid=d7c8c627-3916-4d50-bea5-7e9ce42fca2f","ios":"levelo://app?vid=d7c8c627-3916-4d50-bea5-7e9ce42fca2f"},"vehicle_type_id":"4","last_reported":1741244975,"current_range_meters":6400,"station_id":"ce4bgjp2rcd13ifvqbh0","pricing_plan_id":"cebpf4jnsgd1na2vs0mg"},{"bike_id":"e801bcbc-d049-4630-a72d-4b023e7f1e32","system_id":"levelo_inurba_marseille","lat":43.30926,"lon":5.40152,"is_reserved":false,"is_disabled":false,"rental_uris":{"android":"levelo://app?vid=e801bcbc-d049-4630-a72d-4b023e7f1e32","ios":"levelo://app?vid=e801bcbc-d049-4630-a72d-4b023e7f1e32"},"vehicle_type_id":"4","last_reported":1741244975,"current_range_meters":6400,"station_id":"ce4bgvp2rcd13ifvqct0","pricing_plan_id":"cebpf4jnsgd1na2vs0mg"},{"bike_id":"16e39cd1-d8a5-4e5e-ad97-9159681ed4da","system_id":"levelo_inurba_marseille","lat":43.26563,"lon":5.39033,"is_reserved":false,"is_disabled":false,"rental_uris":{"android":"levelo://app?vid=16e39cd1-d8a5-4e5e-ad97-9159681ed4da","ios":"levelo://app?vid=16e39cd1-d8a5-4e5e-ad97-9159681ed4da"},"vehicle_type_id":"4","last_reported":1741244975,"current_range_meters":6400,"station_id":"ce4bhe12rcd13ifvqf30","pricing_plan_id":"cebpf4jnsgd1na2vs0mg"},{"bike_id":"6f9f418f-eed5-442f-9d63-d94181e20d2b","system_id":"levelo_inurba_marseille","lat":43.30868,"lon":5.39652,"is_reserved":false,"is_disabled":false,"rental_uris":{"android":"levelo://app?vid=6f9f418f-eed5-442f-9d63-d94181e20d2b","ios":"levelo://app?vid=6f9f418f-eed5-442f-9d63-d94181e20d2b"},"vehicle_type_id":"4","last_reported":1741244975,"current_range_meters":6800,"station_id":"ce4bh012rcd13ifvqcv0","pricing_plan_id":"cebpf4jnsgd1na2vs0mg"},{"bike_id":"55f3137e-de59-4df3-bc43-34575a42bfd9","system_id":"levelo_inurba_marseille","lat":43.24104,"lon":5.37688,"is_reserved":false,"is_disabled":false,"rental_uris":{"android":"levelo://app?vid=55f3137e-de59-4df3-bc43-34575a42bfd9","ios":"levelo://app?vid=55f3137e-de59-4df3-bc43-34575a42bfd9"},"vehicle_type_id":"4","last_reported":1741244975,"current_range_meters":6800,"station_id":"","pricing_plan_id":"cebpf4jnsgd1na2vs0mg"},{"bike_id":"8d9ccc4a-1011-4c35-8110-21069259a7d9","system_id":"levelo_inurba_marseille","lat":43.29083,"lon":5.38172,"is_reserved":false,"is_disabled":true,"rental_uris":{"android":"levelo://app?vid=8d9ccc4a-1011-4c35-8110-21069259a7d9","ios":"levelo://app?vid=8d9ccc4a-1011-4c35-8110-21069259a7d9"},"vehicle_type_id":"4","last_reported":1741244975,"current_range_meters":6800,"station_id":"ce4bh512rcd13ifvqe2g","pricing_plan_id":"cebpf4jnsgd1na2vs0mg"},{"bike_id":"97399946-e3e6-4c82-9064-b3472fe1a6d0","system_id":"levelo_inurba_marseille","lat":43.262099,"lon":5.404561,"is_reserved":false,"is_disabled":true,"rental_uris":{"android":"levelo://app?vid=97399946-e3e6-4c82-9064-b3472fe1a6d0","ios":"levelo://app?vid=97399946-e3e6-4c82-9064-b3472fe1a6d0"},"vehicle_type_id":"4","last_reported":1741244975,"current_range_meters":6800,"station_id":"","pricing_plan_id":"cebpf4jnsgd1na2vs0mg"},{"bike_id":"e5db92b7-fb1b-4296-b2fb-221116a0d070","system_id":"levelo_inurba_marseille","lat":43.29018,"lon":5.39971,"is_reserved":false,"is_disabled":false,"rental_uris":{"android":"levelo://app?vid=e5db92b7-fb1b-4296-b2fb-221116a0d070","ios":"levelo://app?vid=e5db92b7-fb1b-4296-b2fb-221116a0d070"},"vehicle_type_id":"4","last_reported":1741244975,"current_range_meters":6800,"station_id":"ce4bh392rcd13ifvqdm0","pricing_plan_id":"cebpf4jnsgd1na2vs0mg"},{"bike_id":"9506e6a0-a2d5-4881-a618-ef7e215e5225","system_id":"levelo_inurba_marseille","lat":43.308786,"lon":5.396412,"is_reserved":false,"is_disabled":false,"rental_uris":{"android":"levelo://app?vid=9506e6a0-a2d5-4881-a618-ef7e215e5225","ios":"levelo://app?vid=9506e6a0-a2d5-4881-a618-ef7e215e5225"},"vehicle_type_id":"4","last_reported":1741244975,"current_range_meters":6800,"station_id":"ce4bh012rcd13ifvqcv0","pricing_plan_id":"cebpf4jnsgd1na2vs0mg"},{"bike_id":"77d96a8f-c664-473f-9064-6dd53f755b1e","system_id":"levelo_inurba_marseille","lat":43.30461,"lon":5.3791,"is_reserved":false,"is_disabled":false,"rental_uris":{"android":"levelo://app?vid=77d96a8f-c664-473f-9064-6dd53f755b1e","ios":"levelo://app?vid=77d96a8f-c664-473f-9064-6dd53f755b1e"},"vehicle_type_id":"4","last_reported":1741244975,"current_range_meters":6800,"station_id":"ce4bgup2rcd13ifvqcn0","pricing_plan_id":"cebpf4jnsgd1na2vs0mg"},{"bike_id":"10a286a9-1b82-445e-8668-bfd57395e6b6","system_id":"levelo_inurba_marseille","lat":43.29735,"lon":5.36287,"is_reserved":false,"is_disabled":false,"rental_uris":{"android":"levelo://app?vid=10a286a9-1b82-445e-8668-bfd57395e6b6","ios":"levelo://app?vid=10a286a9-1b82-445e-8668-bfd57395e6b6"},"vehicle_type_id":"4","last_reported":1741244975,"current_range_meters":6800,"station_id":"ce4bgi12rcd13ifvqb70","pricing_plan_id":"cebpf4jnsgd1na2vs0mg"},{"bike_id":"3439a580-4b13-4596-bc3a-9d40342307f1","system_id":"levelo_inurba_marseille","lat":43.321052,"lon":5.367742,"is_reserved":false,"is_disabled":false,"rental_uris":{"android":"levelo://app?vid=3439a580-4b13-4596-bc3a-9d40342307f1","ios":"levelo://app?vid=3439a580-4b13-4596-bc3a-9d40342307f1"},"vehicle_type_id":"4","last_reported":1741244975,"current_range_meters":6800,"station_id":"ce4bhrh2rcd13ifvqhug","pricing_plan_id":"cebpf4jnsgd1na2vs0mg"},{"bike_id":"04602ea3-ac36-4387-91cd-683c524f904f","system_id":"levelo_inurba_marseille","lat":43.279845,"lon":5.400096,"is_reserved":false,"is_disabled":true,"rental_uris":{"android":"levelo://app?vid=04602ea3-ac36-4387-91cd-683c524f904f","ios":"levelo://app?vid=04602ea3-ac36-4387-91cd-683c524f904f"},"vehicle_type_id":"4","last_reported":1741244975,"current_range_meters":7200,"station_id":"ce4bho92rcd13ifvqh4g","pricing_plan_id":"cebpf4jnsgd1na2vs0mg"},{"bike_id":"ff22ac5f-4107-4c43-91dd-83932ff30650","system_id":"levelo_inurba_marseille","lat":43.26686,"lon":5.38291,"is_reserved":false,"is_disabled":true,"rental_uris":{"android":"levelo://app?vid=ff22ac5f-4107-4c43-91dd-83932ff30650","ios":"levelo://app?vid=ff22ac5f-4107-4c43-91dd-83932ff30650"},"vehicle_type_id":"4","last_reported":1741244975,"current_range_meters":7200,"station_id":"ce4bhg92rcd13ifvqf90","pricing_plan_id":"cebpf4jnsgd1na2vs0mg"},{"bike_id":"fdfd9970-9b62-49a9-95cb-d82c5ed603c9","system_id":"levelo_inurba_marseille","lat":43.24059,"lon":5.37704,"is_reserved":false,"is_disabled":false,"rental_uris":{"android":"levelo://app?vid=fdfd9970-9b62-49a9-95cb-d82c5ed603c9","ios":"levelo://app?vid=fdfd9970-9b62-49a9-95cb-d82c5ed603c9"},"vehicle_type_id":"4","last_reported":1741244975,"current_range_meters":7200,"station_id":"ce4bhnp2rcd13ifvqgvg","pricing_plan_id":"cebpf4jnsgd1na2vs0mg"},{"bike_id":"04dcbda5-c022-4dce-b5e0-ba151f7560b6","system_id":"levelo_inurba_marseille","lat":43.29289,"lon":5.37199,"is_reserved":false,"is_disabled":false,"rental_uris":{"android":"levelo://app?vid=04dcbda5-c022-4dce-b5e0-ba151f7560b6","ios":"levelo://app?vid=04dcbda5-c022-4dce-b5e0-ba151f7560b6"},"vehicle_type_id":"4","last_reported":1741244975,"current_range_meters":7200,"station_id":"ce4bgh92rcd13ifvqb40","pricing_plan_id":"cebpf4jnsgd1na2vs0mg"},{"bike_id":"695828ba-2cea-49da-8d0e-3782d691adc5","system_id":"levelo_inurba_marseille","lat":43.27191,"lon":5.40998,"is_reserved":false,"is_disabled":false,"rental_uris":{"android":"levelo://app?vid=695828ba-2cea-49da-8d0e-3782d691adc5","ios":"levelo://app?vid=695828ba-2cea-49da-8d0e-3782d691adc5"},"vehicle_type_id":"4","last_reported":1741244975,"current_range_meters":7200,"station_id":"ce4bhl12rcd13ifvqgf0","pricing_plan_id":"cebpf4jnsgd1na2vs0mg"},{"bike_id":"67bea12d-33fd-4eac-b275-4a5b5dd193e3","system_id":"levelo_inurba_marseille","lat":43.271828,"lon":5.409849,"is_reserved":false,"is_disabled":false,"rental_uris":{"android":"levelo://app?vid=67bea12d-33fd-4eac-b275-4a5b5dd193e3","ios":"levelo://app?vid=67bea12d-33fd-4eac-b275-4a5b5dd193e3"},"vehicle_type_id":"4","last_reported":1741244975,"current_range_meters":8000,"station_id":"ce4bhl12rcd13ifvqgf0","pricing_plan_id":"cebpf4jnsgd1na2vs0mg"},{"bike_id":"c55557ad-1ed5-4997-aee7-ac92107f14b6","system_id":"levelo_inurba_marseille","lat":43.26437,"lon":5.37505,"is_reserved":false,"is_disabled":false,"rental_uris":{"android":"levelo://app?vid=c55557ad-1ed5-4997-aee7-ac92107f14b6","ios":"levelo://app?vid=c55557ad-1ed5-4997-aee7-ac92107f14b6"},"vehicle_type_id":"4","last_reported":1741244975,"current_range_meters":8000,"station_id":"","pricing_plan_id":"cebpf4jnsgd1na2vs0mg"},{"bike_id":"c3c9ecad-94db-4438-9fd2-f695a5cc6950","system_id":"levelo_inurba_marseille","lat":43.26222,"lon":5.40463,"is_reserved":false,"is_disabled":false,"rental_uris":{"android":"levelo://app?vid=c3c9ecad-94db-4438-9fd2-f695a5cc6950","ios":"levelo://app?vid=c3c9ecad-94db-4438-9fd2-f695a5cc6950"},"vehicle_type_id":"4","last_reported":1741244975,"current_range_meters":8000,"station_id":"ce4bhmh2rcd13ifvqgmg","pricing_plan_id":"cebpf4jnsgd1na2vs0mg"},{"bike_id":"7669a9fb-537b-4457-9162-0962fdbaa099","system_id":"levelo_inurba_marseille","lat":43.29566,"lon":5.39971,"is_reserved":false,"is_disabled":false,"rental_uris":{"android":"levelo://app?vid=7669a9fb-537b-4457-9162-0962fdbaa099","ios":"levelo://app?vid=7669a9fb-537b-4457-9162-0962fdbaa099"},"vehicle_type_id":"4","last_reported":1741244975,"current_range_meters":8000,"station_id":"ce4bh312rcd13ifvqdj0","pricing_plan_id":"cebpf4jnsgd1na2vs0mg"},{"bike_id":"d6ba82be-90e6-4543-b298-a7d041946b68","system_id":"levelo_inurba_marseille","lat":43.31164,"lon":5.38724,"is_reserved":false,"is_disabled":false,"rental_uris":{"android":"levelo://app?vid=d6ba82be-90e6-4543-b298-a7d041946b68","ios":"levelo://app?vid=d6ba82be-90e6-4543-b298-a7d041946b68"},"vehicle_type_id":"4","last_reported":1741244975,"current_range_meters":8000,"station_id":"ce4bgv12rcd13ifvqcp0","pricing_plan_id":"cebpf4jnsgd1na2vs0mg"},{"bike_id":"df59f2c1-9295-4ec6-b8d4-d5753db99b5a","system_id":"levelo_inurba_marseille","lat":43.29264,"lon":5.40152,"is_reserved":false,"is_disabled":false,"rental_uris":{"android":"levelo://app?vid=df59f2c1-9295-4ec6-b8d4-d5753db99b5a","ios":"levelo://app?vid=df59f2c1-9295-4ec6-b8d4-d5753db99b5a"},"vehicle_type_id":"4","last_reported":1741244975,"current_range_meters":8000,"station_id":"ce4bh312rcd13ifvqdk0","pricing_plan_id":"cebpf4jnsgd1na2vs0mg"},{"bike_id":"ed1bc257-e331-454a-9629-1aff9b87459a","system_id":"levelo_inurba_marseille","lat":43.24077,"lon":5.37758,"is_reserved":false,"is_disabled":false,"rental_uris":{"android":"levelo://app?vid=ed1bc257-e331-454a-9629-1aff9b87459a","ios":"levelo://app?vid=ed1bc257-e331-454a-9629-1aff9b87459a"},"vehicle_type_id":"4","last_reported":1741244975,"current_range_meters":8000,"station_id":"ce4bhnp2rcd13ifvqgvg","pricing_plan_id":"cebpf4jnsgd1na2vs0mg"},{"bike_id":"be74d6e7-9922-4500-b00d-d407c7efd950","system_id":"levelo_inurba_marseille","lat":43.2919,"lon":5.39336,"is_reserved":false,"is_disabled":false,"rental_uris":{"android":"levelo://app?vid=be74d6e7-9922-4500-b00d-d407c7efd950","ios":"levelo://app?vid=be74d6e7-9922-4500-b00d-d407c7efd950"},"vehicle_type_id":"4","last_reported":1741244975,"current_range_meters":8000,"station_id":"ce4bh192rcd13ifvqdd0","pricing_plan_id":"cebpf4jnsgd1na2vs0mg"},{"bike_id":"f2d48511-f02f-49e0-b093-4d88df8d3186","system_id":"levelo_inurba_marseille","lat":43.32475,"lon":5.3657,"is_reserved":false,"is_disabled":false,"rental_uris":{"android":"levelo://app?vid=f2d48511-f02f-49e0-b093-4d88df8d3186","ios":"levelo://app?vid=f2d48511-f02f-49e0-b093-4d88df8d3186"},"vehicle_type_id":"4","last_reported":1741244975,"current_range_meters":8000,"station_id":"ce4bhs12rcd13ifvqhvg","pricing_plan_id":"cebpf4jnsgd1na2vs0mg"},{"bike_id":"35a63d3f-3cf5-4e65-898f-16f1f00b237d","system_id":"levelo_inurba_marseille","lat":43.31175,"lon":5.38712,"is_reserved":false,"is_disabled":false,"rental_uris":{"android":"levelo://app?vid=35a63d3f-3cf5-4e65-898f-16f1f00b237d","ios":"levelo://app?vid=35a63d3f-3cf5-4e65-898f-16f1f00b237d"},"vehicle_type_id":"4","last_reported":1741244975,"current_range_meters":8000,"station_id":"ce4bgv12rcd13ifvqcp0","pricing_plan_id":"cebpf4jnsgd1na2vs0mg"},{"bike_id":"e5690978-15f3-416a-a04b-87acd2312014","system_id":"levelo_inurba_marseille","lat":43.24068,"lon":5.37773,"is_reserved":false,"is_disabled":false,"rental_uris":{"android":"levelo://app?vid=e5690978-15f3-416a-a04b-87acd2312014","ios":"levelo://app?vid=e5690978-15f3-416a-a04b-87acd2312014"},"vehicle_type_id":"4","last_reported":1741244975,"current_range_meters":8000,"station_id":"ce4bhnp2rcd13ifvqgvg","pricing_plan_id":"cebpf4jnsgd1na2vs0mg"},{"bike_id":"f839f5d9-27d0-4868-b10d-546e9162dfad","system_id":"levelo_inurba_marseille","lat":43.30593,"lon":5.39362,"is_reserved":false,"is_disabled":false,"rental_uris":{"android":"levelo://app?vid=f839f5d9-27d0-4868-b10d-546e9162dfad","ios":"levelo://app?vid=f839f5d9-27d0-4868-b10d-546e9162dfad"},"vehicle_type_id":"4","last_reported":1741244975,"current_range_meters":8400,"station_id":"ce4bh0p2rcd13ifvqd80","pricing_plan_id":"cebpf4jnsgd1na2vs0mg"},{"bike_id":"000d8401-1fec-46ba-836e-4f1b3cb13a54","system_id":"levelo_inurba_marseille","lat":43.24547,"lon":5.39526,"is_reserved":false,"is_disabled":false,"rental_uris":{"android":"levelo://app?vid=000d8401-1fec-46ba-836e-4f1b3cb13a54","ios":"levelo://app?vid=000d8401-1fec-46ba-836e-4f1b3cb13a54"},"vehicle_type_id":"4","last_reported":1741244975,"current_range_meters":8400,"station_id":"ce4bhlp2rcd13ifvqgjg","pricing_plan_id":"cebpf4jnsgd1na2vs0mg"},{"bike_id":"78afa90b-8a05-40ae-b971-0fcaf9cbe938","system_id":"levelo_inurba_marseille","lat":43.28353,"lon":5.38105,"is_reserved":false,"is_disabled":false,"rental_uris":{"android":"levelo://app?vid=78afa90b-8a05-40ae-b971-0fcaf9cbe938","ios":"levelo://app?vid=78afa90b-8a05-40ae-b971-0fcaf9cbe938"},"vehicle_type_id":"4","last_reported":1741244975,"current_range_meters":8400,"station_id":"ce4bh412rcd13ifvqdr0","pricing_plan_id":"cebpf4jnsgd1na2vs0mg"},{"bike_id":"bae8d88b-63b0-4e81-937c-e28f71335e20","system_id":"levelo_inurba_marseille","lat":43.2827,"lon":5.35074,"is_reserved":false,"is_disabled":false,"rental_uris":{"android":"levelo://app?vid=bae8d88b-63b0-4e81-937c-e28f71335e20","ios":"levelo://app?vid=bae8d88b-63b0-4e81-937c-e28f71335e20"},"vehicle_type_id":"4","last_reported":1741244975,"current_range_meters":8400,"station_id":"ce4bhbp2rcd13ifvqerg","pricing_plan_id":"cebpf4jnsgd1na2vs0mg"},{"bike_id":"f8a818ec-b7e9-4d1f-9bec-510cc5e6b980","system_id":"levelo_inurba_marseille","lat":43.27278,"lon":5.3922,"is_reserved":false,"is_disabled":true,"rental_uris":{"android":"levelo://app?vid=f8a818ec-b7e9-4d1f-9bec-510cc5e6b980","ios":"levelo://app?vid=f8a818ec-b7e9-4d1f-9bec-510cc5e6b980"},"vehicle_type_id":"4","last_reported":1741244975,"current_range_meters":8400,"station_id":"","pricing_plan_id":"cebpf4jnsgd1na2vs0mg"},{"bike_id":"ecb30204-856e-4551-b122-313eabd56e36","system_id":"levelo_inurba_marseille","lat":43.26937,"lon":5.38685,"is_reserved":false,"is_disabled":false,"rental_uris":{"android":"levelo://app?vid=ecb30204-856e-4551-b122-313eabd56e36","ios":"levelo://app?vid=ecb30204-856e-4551-b122-313eabd56e36"},"vehicle_type_id":"4","last_reported":1741244975,"current_range_meters":8400,"station_id":"ce4bhh92rcd13ifvqfh0","pricing_plan_id":"cebpf4jnsgd1na2vs0mg"},{"bike_id":"a3e68f67-a016-4853-b449-983ecd5c8454","system_id":"levelo_inurba_marseille","lat":43.25014,"lon":5.38938,"is_reserved":false,"is_disabled":false,"rental_uris":{"android":"levelo://app?vid=a3e68f67-a016-4853-b449-983ecd5c8454","ios":"levelo://app?vid=a3e68f67-a016-4853-b449-983ecd5c8454"},"vehicle_type_id":"4","last_reported":1741244975,"current_range_meters":8400,"station_id":"ce4bhgp2rcd13ifvqfd0","pricing_plan_id":"cebpf4jnsgd1na2vs0mg"},{"bike_id":"67a86198-a3ee-4779-8045-74ddf30f3228","system_id":"levelo_inurba_marseille","lat":43.31108,"lon":5.37779,"is_reserved":false,"is_disabled":false,"rental_uris":{"android":"levelo://app?vid=67a86198-a3ee-4779-8045-74ddf30f3228","ios":"levelo://app?vid=67a86198-a3ee-4779-8045-74ddf30f3228"},"vehicle_type_id":"4","last_reported":1741244975,"current_range_meters":8800,"station_id":"ce4bgt92rcd13ifvqcg0","pricing_plan_id":"cebpf4jnsgd1na2vs0mg"},{"bike_id":"4337ee0e-7422-481e-82aa-dc2ec7476552","system_id":"levelo_inurba_marseille","lat":43.30256,"lon":5.40081,"is_reserved":false,"is_disabled":false,"rental_uris":{"android":"levelo://app?vid=4337ee0e-7422-481e-82aa-dc2ec7476552","ios":"levelo://app?vid=4337ee0e-7422-481e-82aa-dc2ec7476552"},"vehicle_type_id":"4","last_reported":1741244975,"current_range_meters":8800,"station_id":"ce4bgvh2rcd13ifvqcs0","pricing_plan_id":"cebpf4jnsgd1na2vs0mg"},{"bike_id":"8e67c6c2-1f86-420e-855b-676e159ed831","system_id":"levelo_inurba_marseille","lat":43.230628,"lon":5.354923,"is_reserved":false,"is_disabled":false,"rental_uris":{"android":"levelo://app?vid=8e67c6c2-1f86-420e-855b-676e159ed831","ios":"levelo://app?vid=8e67c6c2-1f86-420e-855b-676e159ed831"},"vehicle_type_id":"4","last_reported":1741244975,"current_range_meters":9200,"station_id":"cpo3342slgdg3j2ifvpg","pricing_plan_id":"cebpf4jnsgd1na2vs0mg"},{"bike_id":"41fc5ccf-7cae-4a19-ab3c-a6c8d7cf741a","system_id":"levelo_inurba_marseille","lat":43.24062,"lon":5.37775,"is_reserved":false,"is_disabled":false,"rental_uris":{"android":"levelo://app?vid=41fc5ccf-7cae-4a19-ab3c-a6c8d7cf741a","ios":"levelo://app?vid=41fc5ccf-7cae-4a19-ab3c-a6c8d7cf741a"},"vehicle_type_id":"4","last_reported":1741244975,"current_range_meters":9200,"station_id":"ce4bhnp2rcd13ifvqgvg","pricing_plan_id":"cebpf4jnsgd1na2vs0mg"},{"bike_id":"7be10eac-e616-4904-8cdc-c543b04d589f","system_id":"levelo_inurba_marseille","lat":43.2416,"lon":5.36413,"is_reserved":false,"is_disabled":false,"rental_uris":{"android":"levelo://app?vid=7be10eac-e616-4904-8cdc-c543b04d589f","ios":"levelo://app?vid=7be10eac-e616-4904-8cdc-c543b04d589f"},"vehicle_type_id":"4","last_reported":1741244975,"current_range_meters":9200,"station_id":"cpo36qri1sfpv3e86is0","pricing_plan_id":"cebpf4jnsgd1na2vs0mg"},{"bike_id":"20a6bdbd-65c6-4950-9704-b68c9f02327b","system_id":"levelo_inurba_marseille","lat":43.3064,"lon":5.40084,"is_reserved":false,"is_disabled":false,"rental_uris":{"android":"levelo://app?vid=20a6bdbd-65c6-4950-9704-b68c9f02327b","ios":"levelo://app?vid=20a6bdbd-65c6-4950-9704-b68c9f02327b"},"vehicle_type_id":"4","last_reported":1741244975,"current_range_meters":9200,"station_id":"ce4bh112rcd13ifvqda0","pricing_plan_id":"cebpf4jnsgd1na2vs0mg"},{"bike_id":"2bf0c8c4-b35a-4e10-a974-18b4d9b5c98f","system_id":"levelo_inurba_marseille","lat":43.32533,"lon":5.41434,"is_reserved":false,"is_disabled":false,"rental_uris":{"android":"levelo://app?vid=2bf0c8c4-b35a-4e10-a974-18b4d9b5c98f","ios":"levelo://app?vid=2bf0c8c4-b35a-4e10-a974-18b4d9b5c98f"},"vehicle_type_id":"4","last_reported":1741244975,"current_range_meters":9200,"station_id":"ce4bhq12rcd13ifvqhhg","pricing_plan_id":"cebpf4jnsgd1na2vs0mg"},{"bike_id":"45d42749-bb1f-4519-afb3-ca4cc8cb8a67","system_id":"levelo_inurba_marseille","lat":43.30691,"lon":5.40097,"is_reserved":false,"is_disabled":false,"rental_uris":{"android":"levelo://app?vid=45d42749-bb1f-4519-afb3-ca4cc8cb8a67","ios":"levelo://app?vid=45d42749-bb1f-4519-afb3-ca4cc8cb8a67"},"vehicle_type_id":"4","last_reported":1741244975,"current_range_meters":9200,"station_id":"ce4bh112rcd13ifvqda0","pricing_plan_id":"cebpf4jnsgd1na2vs0mg"},{"bike_id":"0c435379-2d96-40d9-86a6-885a9070a563","system_id":"levelo_inurba_marseille","lat":43.306593,"lon":5.400864,"is_reserved":false,"is_disabled":false,"rental_uris":{"android":"levelo://app?vid=0c435379-2d96-40d9-86a6-885a9070a563","ios":"levelo://app?vid=0c435379-2d96-40d9-86a6-885a9070a563"},"vehicle_type_id":"4","last_reported":1741244975,"current_range_meters":9200,"station_id":"ce4bh112rcd13ifvqda0","pricing_plan_id":"cebpf4jnsgd1na2vs0mg"},{"bike_id":"8c48da4b-9328-4edb-ad72-2503b82997d8","system_id":"levelo_inurba_marseille","lat":43.319899,"lon":5.38145,"is_reserved":false,"is_disabled":false,"rental_uris":{"android":"levelo://app?vid=8c48da4b-9328-4edb-ad72-2503b82997d8","ios":"levelo://app?vid=8c48da4b-9328-4edb-ad72-2503b82997d8"},"vehicle_type_id":"4","last_reported":1741244975,"current_range_meters":9200,"station_id":"ce4bhr12rcd13ifvqhpg","pricing_plan_id":"cebpf4jnsgd1na2vs0mg"},{"bike_id":"84373be2-50f1-4f13-bab6-9d7899283835","system_id":"levelo_inurba_marseille","lat":43.28844,"lon":5.3931,"is_reserved":false,"is_disabled":false,"rental_uris":{"android":"levelo://app?vid=84373be2-50f1-4f13-bab6-9d7899283835","ios":"levelo://app?vid=84373be2-50f1-4f13-bab6-9d7899283835"},"vehicle_type_id":"4","last_reported":1741244975,"current_range_meters":9200,"station_id":"ce4bh2p2rcd13ifvqdi0","pricing_plan_id":"cebpf4jnsgd1na2vs0mg"},{"bike_id":"1221e1ee-329d-48fa-943d-d40756099844","system_id":"levelo_inurba_marseille","lat":43.31479,"lon":5.37329,"is_reserved":false,"is_disabled":false,"rental_uris":{"android":"levelo://app?vid=1221e1ee-329d-48fa-943d-d40756099844","ios":"levelo://app?vid=1221e1ee-329d-48fa-943d-d40756099844"},"vehicle_type_id":"4","last_reported":1741244975,"current_range_meters":9600,"station_id":"ce4bgt12rcd13ifvqcd0","pricing_plan_id":"cebpf4jnsgd1na2vs0mg"},{"bike_id":"4b37d7b2-e4f0-4881-ae4a-14e74b2ab8e7","system_id":"levelo_inurba_marseille","lat":43.29431,"lon":5.39744,"is_reserved":false,"is_disabled":true,"rental_uris":{"android":"levelo://app?vid=4b37d7b2-e4f0-4881-ae4a-14e74b2ab8e7","ios":"levelo://app?vid=4b37d7b2-e4f0-4881-ae4a-14e74b2ab8e7"},"vehicle_type_id":"4","last_reported":1741244975,"current_range_meters":9600,"station_id":"ce4bh3h2rcd13ifvqdo0","pricing_plan_id":"cebpf4jnsgd1na2vs0mg"},{"bike_id":"4589d892-1f98-4311-a7b9-7f9e45a85f9a","system_id":"levelo_inurba_marseille","lat":43.28705,"lon":5.37961,"is_reserved":false,"is_disabled":false,"rental_uris":{"android":"levelo://app?vid=4589d892-1f98-4311-a7b9-7f9e45a85f9a","ios":"levelo://app?vid=4589d892-1f98-4311-a7b9-7f9e45a85f9a"},"vehicle_type_id":"4","last_reported":1741244975,"current_range_meters":9600,"station_id":"ce4bh9p2rcd13ifvqec0","pricing_plan_id":"cebpf4jnsgd1na2vs0mg"},{"bike_id":"ca740021-1c50-4219-b798-a598f9dba5f9","system_id":"levelo_inurba_marseille","lat":43.30588,"lon":5.39358,"is_reserved":false,"is_disabled":false,"rental_uris":{"android":"levelo://app?vid=ca740021-1c50-4219-b798-a598f9dba5f9","ios":"levelo://app?vid=ca740021-1c50-4219-b798-a598f9dba5f9"},"vehicle_type_id":"4","last_reported":1741244975,"current_range_meters":9600,"station_id":"ce4bh0p2rcd13ifvqd80","pricing_plan_id":"cebpf4jnsgd1na2vs0mg"},{"bike_id":"589e81f0-8201-4c76-b4f7-3055851660f4","system_id":"levelo_inurba_marseille","lat":43.28938,"lon":5.36641,"is_reserved":false,"is_disabled":false,"rental_uris":{"android":"levelo://app?vid=589e81f0-8201-4c76-b4f7-3055851660f4","ios":"levelo://app?vid=589e81f0-8201-4c76-b4f7-3055851660f4"},"vehicle_type_id":"4","last_reported":1741244975,"current_range_meters":9600,"station_id":"ce4bhap2rcd13ifvqek0","pricing_plan_id":"cebpf4jnsgd1na2vs0mg"},{"bike_id":"7d0f3d62-54b4-45d9-af8d-d8c15105eab5","system_id":"levelo_inurba_marseille","lat":43.297708,"lon":5.391191,"is_reserved":false,"is_disabled":false,"rental_uris":{"android":"levelo://app?vid=7d0f3d62-54b4-45d9-af8d-d8c15105eab5","ios":"levelo://app?vid=7d0f3d62-54b4-45d9-af8d-d8c15105eab5"},"vehicle_type_id":"4","last_reported":1741244975,"current_range_meters":9600,"station_id":"ce4bh4p2rcd13ifvqe0g","pricing_plan_id":"cebpf4jnsgd1na2vs0mg"},{"bike_id":"bdd57c0d-f00e-4d91-abea-63a6d44bf748","system_id":"levelo_inurba_marseille","lat":43.28527,"lon":5.3839,"is_reserved":false,"is_disabled":false,"rental_uris":{"android":"levelo://app?vid=bdd57c0d-f00e-4d91-abea-63a6d44bf748","ios":"levelo://app?vid=bdd57c0d-f00e-4d91-abea-63a6d44bf748"},"vehicle_type_id":"4","last_reported":1741244975,"current_range_meters":9600,"station_id":"ce4bh512rcd13ifvqe3g","pricing_plan_id":"cebpf4jnsgd1na2vs0mg"},{"bike_id":"a91949e8-ceed-4f64-874e-98e204602e93","system_id":"levelo_inurba_marseille","lat":43.28005,"lon":5.41663,"is_reserved":false,"is_disabled":false,"rental_uris":{"android":"levelo://app?vid=a91949e8-ceed-4f64-874e-98e204602e93","ios":"levelo://app?vid=a91949e8-ceed-4f64-874e-98e204602e93"},"vehicle_type_id":"4","last_reported":1741244975,"current_range_meters":10000,"station_id":"ce4bho12rcd13ifvqh1g","pricing_plan_id":"cebpf4jnsgd1na2vs0mg"},{"bike_id":"0ccbe65e-5a9b-44d7-bfb3-3707e18855b1","system_id":"levelo_inurba_marseille","lat":43.28936,"lon":5.39637,"is_reserved":false,"is_disabled":false,"rental_uris":{"android":"levelo://app?vid=0ccbe65e-5a9b-44d7-bfb3-3707e18855b1","ios":"levelo://app?vid=0ccbe65e-5a9b-44d7-bfb3-3707e18855b1"},"vehicle_type_id":"4","last_reported":1741244975,"current_range_meters":10000,"station_id":"ce4bh3h2rcd13ifvqdn0","pricing_plan_id":"cebpf4jnsgd1na2vs0mg"},{"bike_id":"bbe58264-4058-4d85-bc53-412f697f7416","system_id":"levelo_inurba_marseille","lat":43.30137,"lon":5.38069,"is_reserved":false,"is_disabled":false,"rental_uris":{"android":"levelo://app?vid=bbe58264-4058-4d85-bc53-412f697f7416","ios":"levelo://app?vid=bbe58264-4058-4d85-bc53-412f697f7416"},"vehicle_type_id":"4","last_reported":1741244975,"current_range_meters":10000,"station_id":"ce4bgjp2rcd13ifvqbh0","pricing_plan_id":"cebpf4jnsgd1na2vs0mg"},{"bike_id":"f1969ae6-398f-4ca1-9c4a-74f3b1e55c0e","system_id":"levelo_inurba_marseille","lat":43.30878,"lon":5.39632,"is_reserved":false,"is_disabled":true,"rental_uris":{"android":"levelo://app?vid=f1969ae6-398f-4ca1-9c4a-74f3b1e55c0e","ios":"levelo://app?vid=f1969ae6-398f-4ca1-9c4a-74f3b1e55c0e"},"vehicle_type_id":"4","last_reported":1741244975,"current_range_meters":10000,"station_id":"ce4bh012rcd13ifvqcv0","pricing_plan_id":"cebpf4jnsgd1na2vs0mg"},{"bike_id":"c041c542-4170-48ed-a619-ed7952b8409c","system_id":"levelo_inurba_marseille","lat":43.33022,"lon":5.39039,"is_reserved":false,"is_disabled":false,"rental_uris":{"android":"levelo://app?vid=c041c542-4170-48ed-a619-ed7952b8409c","ios":"levelo://app?vid=c041c542-4170-48ed-a619-ed7952b8409c"},"vehicle_type_id":"4","last_reported":1741244975,"current_range_meters":10000,"station_id":"ce4bhr92rcd13ifvqhrg","pricing_plan_id":"cebpf4jnsgd1na2vs0mg"},{"bike_id":"46649c80-db00-4e42-90cb-26a365e3ce85","system_id":"levelo_inurba_marseille","lat":43.2481,"lon":5.37461,"is_reserved":false,"is_disabled":false,"rental_uris":{"android":"levelo://app?vid=46649c80-db00-4e42-90cb-26a365e3ce85","ios":"levelo://app?vid=46649c80-db00-4e42-90cb-26a365e3ce85"},"vehicle_type_id":"4","last_reported":1741244975,"current_range_meters":10000,"station_id":"ce4bhgh2rcd13ifvqfb0","pricing_plan_id":"cebpf4jnsgd1na2vs0mg"},{"bike_id":"700b2955-d031-4ce5-81ee-c686335ff530","system_id":"levelo_inurba_marseille","lat":43.30156,"lon":5.38098,"is_reserved":false,"is_disabled":false,"rental_uris":{"android":"levelo://app?vid=700b2955-d031-4ce5-81ee-c686335ff530","ios":"levelo://app?vid=700b2955-d031-4ce5-81ee-c686335ff530"},"vehicle_type_id":"4","last_reported":1741244975,"current_range_meters":10000,"station_id":"ce4bgjp2rcd13ifvqbh0","pricing_plan_id":"cebpf4jnsgd1na2vs0mg"},{"bike_id":"54f1730f-8217-492c-9fff-91b949c67a5b","system_id":"levelo_inurba_marseille","lat":43.2898,"lon":5.35597,"is_reserved":false,"is_disabled":false,"rental_uris":{"android":"levelo://app?vid=54f1730f-8217-492c-9fff-91b949c67a5b","ios":"levelo://app?vid=54f1730f-8217-492c-9fff-91b949c67a5b"},"vehicle_type_id":"4","last_reported":1741244975,"current_range_meters":10000,"station_id":"ce4bhb92rcd13ifvqen0","pricing_plan_id":"cebpf4jnsgd1na2vs0mg"},{"bike_id":"321ea678-7140-4fe7-a0c8-7dbf31a652be","system_id":"levelo_inurba_marseille","lat":43.32539,"lon":5.41435,"is_reserved":false,"is_disabled":false,"rental_uris":{"android":"levelo://app?vid=321ea678-7140-4fe7-a0c8-7dbf31a652be","ios":"levelo://app?vid=321ea678-7140-4fe7-a0c8-7dbf31a652be"},"vehicle_type_id":"4","last_reported":1741244975,"current_range_meters":10000,"station_id":"ce4bhq12rcd13ifvqhhg","pricing_plan_id":"cebpf4jnsgd1na2vs0mg"},{"bike_id":"03ecd1c6-76fe-4de2-8510-439603adae47","system_id":"levelo_inurba_marseille","lat":43.27498,"lon":5.42457,"is_reserved":false,"is_disabled":false,"rental_uris":{"android":"levelo://app?vid=03ecd1c6-76fe-4de2-8510-439603adae47","ios":"levelo://app?vid=03ecd1c6-76fe-4de2-8510-439603adae47"},"vehicle_type_id":"4","last_reported":1741244975,"current_range_meters":10000,"station_id":"ce4bhn92rcd13ifvqgrg","pricing_plan_id":"cebpf4jnsgd1na2vs0mg"},{"bike_id":"1a8dd9c6-471b-45b4-8521-664ae5f96f06","system_id":"levelo_inurba_marseille","lat":43.28038,"lon":5.38717,"is_reserved":false,"is_disabled":false,"rental_uris":{"android":"levelo://app?vid=1a8dd9c6-471b-45b4-8521-664ae5f96f06","ios":"levelo://app?vid=1a8dd9c6-471b-45b4-8521-664ae5f96f06"},"vehicle_type_id":"4","last_reported":1741244975,"current_range_meters":10000,"station_id":"","pricing_plan_id":"cebpf4jnsgd1na2vs0mg"},{"bike_id":"3acabc1e-11c2-491e-bc5d-b11d8884d3d4","system_id":"levelo_inurba_marseille","lat":43.28684,"lon":5.38664,"is_reserved":false,"is_disabled":false,"rental_uris":{"android":"levelo://app?vid=3acabc1e-11c2-491e-bc5d-b11d8884d3d4","ios":"levelo://app?vid=3acabc1e-11c2-491e-bc5d-b11d8884d3d4"},"vehicle_type_id":"4","last_reported":1741244975,"current_range_meters":10800,"station_id":"ce4bh492rcd13ifvqdug","pricing_plan_id":"cebpf4jnsgd1na2vs0mg"},{"bike_id":"42f3fd83-d5cd-45ba-afcf-0a822294d812","system_id":"levelo_inurba_marseille","lat":43.285799,"lon":5.42984,"is_reserved":false,"is_disabled":true,"rental_uris":{"android":"levelo://app?vid=42f3fd83-d5cd-45ba-afcf-0a822294d812","ios":"levelo://app?vid=42f3fd83-d5cd-45ba-afcf-0a822294d812"},"vehicle_type_id":"4","last_reported":1741244975,"current_range_meters":10800,"station_id":"","pricing_plan_id":"cebpf4jnsgd1na2vs0mg"},{"bike_id":"ca049bc3-e305-426e-8be7-03ecfb236cf0","system_id":"levelo_inurba_marseille","lat":43.300484,"lon":5.386185,"is_reserved":false,"is_disabled":false,"rental_uris":{"android":"levelo://app?vid=ca049bc3-e305-426e-8be7-03ecfb236cf0","ios":"levelo://app?vid=ca049bc3-e305-426e-8be7-03ecfb236cf0"},"vehicle_type_id":"4","last_reported":1741244975,"current_range_meters":10800,"station_id":"ce4bgt12rcd13ifvqce0","pricing_plan_id":"cebpf4jnsgd1na2vs0mg"},{"bike_id":"7f1905bf-da4d-4f13-af14-c5d46804e585","system_id":"levelo_inurba_marseille","lat":43.23183,"lon":5.35564,"is_reserved":false,"is_disabled":false,"rental_uris":{"android":"levelo://app?vid=7f1905bf-da4d-4f13-af14-c5d46804e585","ios":"levelo://app?vid=7f1905bf-da4d-4f13-af14-c5d46804e585"},"vehicle_type_id":"4","last_reported":1741244975,"current_range_meters":10800,"station_id":"ce4bhu92rcd13ifvqi70","pricing_plan_id":"cebpf4jnsgd1na2vs0mg"},{"bike_id":"deccb326-0579-4f88-8ded-8a796f163b88","system_id":"levelo_inurba_marseille","lat":43.314343,"lon":5.376069,"is_reserved":false,"is_disabled":false,"rental_uris":{"android":"levelo://app?vid=deccb326-0579-4f88-8ded-8a796f163b88","ios":"levelo://app?vid=deccb326-0579-4f88-8ded-8a796f163b88"},"vehicle_type_id":"4","last_reported":1741244975,"current_range_meters":10800,"station_id":"","pricing_plan_id":"cebpf4jnsgd1na2vs0mg"},{"bike_id":"b9a593a7-3872-427b-a74c-50cb13cd36da","system_id":"levelo_inurba_marseille","lat":43.2861,"lon":5.37058,"is_reserved":false,"is_disabled":false,"rental_uris":{"android":"levelo://app?vid=b9a593a7-3872-427b-a74c-50cb13cd36da","ios":"levelo://app?vid=b9a593a7-3872-427b-a74c-50cb13cd36da"},"vehicle_type_id":"4","last_reported":1741244975,"current_range_meters":10800,"station_id":"ce4bht12rcd13ifvqi60","pricing_plan_id":"cebpf4jnsgd1na2vs0mg"},{"bike_id":"c4efee74-07df-4505-b19f-cf9d8b8a4649","system_id":"levelo_inurba_marseille","lat":43.26568,"lon":5.39014,"is_reserved":false,"is_disabled":false,"rental_uris":{"android":"levelo://app?vid=c4efee74-07df-4505-b19f-cf9d8b8a4649","ios":"levelo://app?vid=c4efee74-07df-4505-b19f-cf9d8b8a4649"},"vehicle_type_id":"4","last_reported":1741244975,"current_range_meters":10800,"station_id":"ce4bhe12rcd13ifvqf30","pricing_plan_id":"cebpf4jnsgd1na2vs0mg"},{"bike_id":"bc1ff28f-0226-4fe1-bb42-0a1e2869659e","system_id":"levelo_inurba_marseille","lat":43.32368,"lon":5.38903,"is_reserved":false,"is_disabled":false,"rental_uris":{"android":"levelo://app?vid=bc1ff28f-0226-4fe1-bb42-0a1e2869659e","ios":"levelo://app?vid=bc1ff28f-0226-4fe1-bb42-0a1e2869659e"},"vehicle_type_id":"4","last_reported":1741244975,"current_range_meters":10800,"station_id":"ce4bhqp2rcd13ifvqhog","pricing_plan_id":"cebpf4jnsgd1na2vs0mg"},{"bike_id":"e0c0bec3-454a-410d-a60f-3aed516ec149","system_id":"levelo_inurba_marseille","lat":43.23182,"lon":5.35577,"is_reserved":false,"is_disabled":false,"rental_uris":{"android":"levelo://app?vid=e0c0bec3-454a-410d-a60f-3aed516ec149","ios":"levelo://app?vid=e0c0bec3-454a-410d-a60f-3aed516ec149"},"vehicle_type_id":"4","last_reported":1741244975,"current_range_meters":11200,"station_id":"ce4bhu92rcd13ifvqi70","pricing_plan_id":"cebpf4jnsgd1na2vs0mg"},{"bike_id":"478c7561-14a7-4b9d-bd73-431246676f26","system_id":"levelo_inurba_marseille","lat":43.33604,"lon":5.41034,"is_reserved":false,"is_disabled":false,"rental_uris":{"android":"levelo://app?vid=478c7561-14a7-4b9d-bd73-431246676f26","ios":"levelo://app?vid=478c7561-14a7-4b9d-bd73-431246676f26"},"vehicle_type_id":"4","last_reported":1741244975,"current_range_meters":11200,"station_id":"ce4bhqh2rcd13ifvqhmg","pricing_plan_id":"cebpf4jnsgd1na2vs0mg"},{"bike_id":"c73f0761-02a2-4297-9e89-092909cdf69b","system_id":"levelo_inurba_marseille","lat":43.30966,"lon":5.39049,"is_reserved":false,"is_disabled":false,"rental_uris":{"android":"levelo://app?vid=c73f0761-02a2-4297-9e89-092909cdf69b","ios":"levelo://app?vid=c73f0761-02a2-4297-9e89-092909cdf69b"},"vehicle_type_id":"4","last_reported":1741244975,"current_range_meters":11200,"station_id":"ce4bgup2rcd13ifvqco0","pricing_plan_id":"cebpf4jnsgd1na2vs0mg"},{"bike_id":"81abd46f-88a5-433e-b996-c4028ce46154","system_id":"levelo_inurba_marseille","lat":43.30454,"lon":5.37924,"is_reserved":false,"is_disabled":false,"rental_uris":{"android":"levelo://app?vid=81abd46f-88a5-433e-b996-c4028ce46154","ios":"levelo://app?vid=81abd46f-88a5-433e-b996-c4028ce46154"},"vehicle_type_id":"4","last_reported":1741244975,"current_range_meters":11200,"station_id":"ce4bgup2rcd13ifvqcn0","pricing_plan_id":"cebpf4jnsgd1na2vs0mg"},{"bike_id":"b4d85135-949f-4565-951e-6e0d4aed3154","system_id":"levelo_inurba_marseille","lat":43.23154,"lon":5.43712,"is_reserved":false,"is_disabled":false,"rental_uris":{"android":"levelo://app?vid=b4d85135-949f-4565-951e-6e0d4aed3154","ios":"levelo://app?vid=b4d85135-949f-4565-951e-6e0d4aed3154"},"vehicle_type_id":"4","last_reported":1741244975,"current_range_meters":11200,"station_id":"ce4bhmp2rcd13ifvqgog","pricing_plan_id":"cebpf4jnsgd1na2vs0mg"},{"bike_id":"0b3cb245-c1ab-4265-9e03-36f6b9bfa685","system_id":"levelo_inurba_marseille","lat":43.23058,"lon":5.35511,"is_reserved":false,"is_disabled":false,"rental_uris":{"android":"levelo://app?vid=0b3cb245-c1ab-4265-9e03-36f6b9bfa685","ios":"levelo://app?vid=0b3cb245-c1ab-4265-9e03-36f6b9bfa685"},"vehicle_type_id":"4","last_reported":1741244975,"current_range_meters":11200,"station_id":"cpo3342slgdg3j2ifvpg","pricing_plan_id":"cebpf4jnsgd1na2vs0mg"},{"bike_id":"f8f0a978-2c3f-429c-9738-de645fddfe00","system_id":"levelo_inurba_marseille","lat":43.28038,"lon":5.36942,"is_reserved":false,"is_disabled":false,"rental_uris":{"android":"levelo://app?vid=f8f0a978-2c3f-429c-9738-de645fddfe00","ios":"levelo://app?vid=f8f0a978-2c3f-429c-9738-de645fddfe00"},"vehicle_type_id":"4","last_reported":1741244975,"current_range_meters":11200,"station_id":"ce4bha12rcd13ifvqef0","pricing_plan_id":"cebpf4jnsgd1na2vs0mg"},{"bike_id":"8f3ff36f-f9fd-41a2-b766-88c2848f65a1","system_id":"levelo_inurba_marseille","lat":43.305186,"lon":5.400195,"is_reserved":false,"is_disabled":false,"rental_uris":{"android":"levelo://app?vid=8f3ff36f-f9fd-41a2-b766-88c2848f65a1","ios":"levelo://app?vid=8f3ff36f-f9fd-41a2-b766-88c2848f65a1"},"vehicle_type_id":"4","last_reported":1741244975,"current_range_meters":10800,"station_id":"ce4bgg92rcd13ifvqb30","pricing_plan_id":"cebpf4jnsgd1na2vs0mg"},{"bike_id":"9109bf38-4e22-4f79-95b6-2d4197ce8722","system_id":"levelo_inurba_marseille","lat":43.240716,"lon":5.377688,"is_reserved":false,"is_disabled":false,"rental_uris":{"android":"levelo://app?vid=9109bf38-4e22-4f79-95b6-2d4197ce8722","ios":"levelo://app?vid=9109bf38-4e22-4f79-95b6-2d4197ce8722"},"vehicle_type_id":"4","last_reported":1741244975,"current_range_meters":11200,"station_id":"ce4bhnp2rcd13ifvqgvg","pricing_plan_id":"cebpf4jnsgd1na2vs0mg"},{"bike_id":"35b1ce93-fde2-4578-9425-2f31d7c3dfc4","system_id":"levelo_inurba_marseille","lat":43.31362,"lon":5.36711,"is_reserved":false,"is_disabled":false,"rental_uris":{"android":"levelo://app?vid=35b1ce93-fde2-4578-9425-2f31d7c3dfc4","ios":"levelo://app?vid=35b1ce93-fde2-4578-9425-2f31d7c3dfc4"},"vehicle_type_id":"4","last_reported":1741244975,"current_range_meters":11600,"station_id":"ce4bgr92rcd13ifvqc6g","pricing_plan_id":"cebpf4jnsgd1na2vs0mg"},{"bike_id":"88f1cdf8-d5f9-4bd1-9807-7495f7918208","system_id":"levelo_inurba_marseille","lat":43.31192,"lon":5.36863,"is_reserved":false,"is_disabled":false,"rental_uris":{"android":"levelo://app?vid=88f1cdf8-d5f9-4bd1-9807-7495f7918208","ios":"levelo://app?vid=88f1cdf8-d5f9-4bd1-9807-7495f7918208"},"vehicle_type_id":"4","last_reported":1741244975,"current_range_meters":11600,"station_id":"ce4bgl92rcd13ifvqbq0","pricing_plan_id":"cebpf4jnsgd1na2vs0mg"},{"bike_id":"36fee84b-dfeb-439f-9016-c9ab07c6b7b8","system_id":"levelo_inurba_marseille","lat":43.24998,"lon":5.3893,"is_reserved":false,"is_disabled":false,"rental_uris":{"android":"levelo://app?vid=36fee84b-dfeb-439f-9016-c9ab07c6b7b8","ios":"levelo://app?vid=36fee84b-dfeb-439f-9016-c9ab07c6b7b8"},"vehicle_type_id":"4","last_reported":1741244975,"current_range_meters":11600,"station_id":"ce4bhgp2rcd13ifvqfd0","pricing_plan_id":"cebpf4jnsgd1na2vs0mg"},{"bike_id":"4a0bd736-57eb-4c56-a8a7-96515f09f9d3","system_id":"levelo_inurba_marseille","lat":43.243889,"lon":5.370629,"is_reserved":false,"is_disabled":false,"rental_uris":{"android":"levelo://app?vid=4a0bd736-57eb-4c56-a8a7-96515f09f9d3","ios":"levelo://app?vid=4a0bd736-57eb-4c56-a8a7-96515f09f9d3"},"vehicle_type_id":"4","last_reported":1741244975,"current_range_meters":11600,"station_id":"ce4bhhh2rcd13ifvqfk0","pricing_plan_id":"cebpf4jnsgd1na2vs0mg"},{"bike_id":"6a10ab3a-3ca6-4b1f-815c-473ed184eb58","system_id":"levelo_inurba_marseille","lat":43.297078,"lon":5.377034,"is_reserved":false,"is_disabled":true,"rental_uris":{"android":"levelo://app?vid=6a10ab3a-3ca6-4b1f-815c-473ed184eb58","ios":"levelo://app?vid=6a10ab3a-3ca6-4b1f-815c-473ed184eb58"},"vehicle_type_id":"4","last_reported":1741244975,"current_range_meters":12000,"station_id":"ce4bgkh2rcd13ifvqbl0","pricing_plan_id":"cebpf4jnsgd1na2vs0mg"},{"bike_id":"c7c70fc0-0a9a-4406-b973-9db63b1de3d6","system_id":"levelo_inurba_marseille","lat":43.30532,"lon":5.40115,"is_reserved":false,"is_disabled":true,"rental_uris":{"android":"levelo://app?vid=c7c70fc0-0a9a-4406-b973-9db63b1de3d6","ios":"levelo://app?vid=c7c70fc0-0a9a-4406-b973-9db63b1de3d6"},"vehicle_type_id":"4","last_reported":1741244975,"current_range_meters":12000,"station_id":"ce4bgvh2rcd13ifvqcs0","pricing_plan_id":"cebpf4jnsgd1na2vs0mg"},{"bike_id":"a96d7960-9bdf-423e-844a-233c572ec0a9","system_id":"levelo_inurba_marseille","lat":43.30215,"lon":5.39486,"is_reserved":false,"is_disabled":false,"rental_uris":{"android":"levelo://app?vid=a96d7960-9bdf-423e-844a-233c572ec0a9","ios":"levelo://app?vid=a96d7960-9bdf-423e-844a-233c572ec0a9"},"vehicle_type_id":"4","last_reported":1741244975,"current_range_meters":12000,"station_id":"ce4bh0p2rcd13ifvqd70","pricing_plan_id":"cebpf4jnsgd1na2vs0mg"},{"bike_id":"8c948fbb-1cf1-4af7-b9ee-222092a2f7f9","system_id":"levelo_inurba_marseille","lat":43.29629,"lon":5.40585,"is_reserved":false,"is_disabled":false,"rental_uris":{"android":"levelo://app?vid=8c948fbb-1cf1-4af7-b9ee-222092a2f7f9","ios":"levelo://app?vid=8c948fbb-1cf1-4af7-b9ee-222092a2f7f9"},"vehicle_type_id":"4","last_reported":1741244975,"current_range_meters":12000,"station_id":"ce4bh0h2rcd13ifvqd60","pricing_plan_id":"cebpf4jnsgd1na2vs0mg"},{"bike_id":"80af55fa-34d7-4164-a471-70c17fa994c2","system_id":"levelo_inurba_marseille","lat":43.27498,"lon":5.4246,"is_reserved":false,"is_disabled":false,"rental_uris":{"android":"levelo://app?vid=80af55fa-34d7-4164-a471-70c17fa994c2","ios":"levelo://app?vid=80af55fa-34d7-4164-a471-70c17fa994c2"},"vehicle_type_id":"4","last_reported":1741244975,"current_range_meters":12400,"station_id":"ce4bhn92rcd13ifvqgrg","pricing_plan_id":"cebpf4jnsgd1na2vs0mg"},{"bike_id":"2ab90ad6-86aa-40d4-bcac-31b2ec01a793","system_id":"levelo_inurba_marseille","lat":43.3042,"lon":5.41281,"is_reserved":false,"is_disabled":false,"rental_uris":{"android":"levelo://app?vid=2ab90ad6-86aa-40d4-bcac-31b2ec01a793","ios":"levelo://app?vid=2ab90ad6-86aa-40d4-bcac-31b2ec01a793"},"vehicle_type_id":"4","last_reported":1741244975,"current_range_meters":12400,"station_id":"ce4bhop2rcd13ifvqh8g","pricing_plan_id":"cebpf4jnsgd1na2vs0mg"},{"bike_id":"742e49a2-0f9a-4fce-973e-fd6c568cf9f9","system_id":"levelo_inurba_marseille","lat":43.29898,"lon":5.38017,"is_reserved":false,"is_disabled":false,"rental_uris":{"android":"levelo://app?vid=742e49a2-0f9a-4fce-973e-fd6c568cf9f9","ios":"levelo://app?vid=742e49a2-0f9a-4fce-973e-fd6c568cf9f9"},"vehicle_type_id":"4","last_reported":1741244975,"current_range_meters":12400,"station_id":"","pricing_plan_id":"cebpf4jnsgd1na2vs0mg"},{"bike_id":"4e1cdc49-af7b-47c8-9d94-cfe80a7f541e","system_id":"levelo_inurba_marseille","lat":43.28914,"lon":5.36403,"is_reserved":false,"is_disabled":false,"rental_uris":{"android":"levelo://app?vid=4e1cdc49-af7b-47c8-9d94-cfe80a7f541e","ios":"levelo://app?vid=4e1cdc49-af7b-47c8-9d94-cfe80a7f541e"},"vehicle_type_id":"4","last_reported":1741244975,"current_range_meters":12400,"station_id":"ce4bhc92rcd13ifvqetg","pricing_plan_id":"cebpf4jnsgd1na2vs0mg"},{"bike_id":"256ec39e-52a0-462f-859c-5a80cf63590f","system_id":"levelo_inurba_marseille","lat":43.281566,"lon":5.426438,"is_reserved":false,"is_disabled":false,"rental_uris":{"android":"levelo://app?vid=256ec39e-52a0-462f-859c-5a80cf63590f","ios":"levelo://app?vid=256ec39e-52a0-462f-859c-5a80cf63590f"},"vehicle_type_id":"4","last_reported":1741244975,"current_range_meters":12400,"station_id":"ce4bhnh2rcd13ifvqgug","pricing_plan_id":"cebpf4jnsgd1na2vs0mg"},{"bike_id":"7cb5d2b6-f1df-489c-aae3-6fd46b81c378","system_id":"levelo_inurba_marseille","lat":43.30789,"lon":5.43548,"is_reserved":false,"is_disabled":false,"rental_uris":{"android":"levelo://app?vid=7cb5d2b6-f1df-489c-aae3-6fd46b81c378","ios":"levelo://app?vid=7cb5d2b6-f1df-489c-aae3-6fd46b81c378"},"vehicle_type_id":"4","last_reported":1741244975,"current_range_meters":12400,"station_id":"ce4bhph2rcd13ifvqheg","pricing_plan_id":"cebpf4jnsgd1na2vs0mg"},{"bike_id":"f1c4bc4f-fd8f-4994-9249-5230702cb371","system_id":"levelo_inurba_marseille","lat":43.26954,"lon":5.38647,"is_reserved":false,"is_disabled":false,"rental_uris":{"android":"levelo://app?vid=f1c4bc4f-fd8f-4994-9249-5230702cb371","ios":"levelo://app?vid=f1c4bc4f-fd8f-4994-9249-5230702cb371"},"vehicle_type_id":"4","last_reported":1741244975,"current_range_meters":12400,"station_id":"ce4bhh92rcd13ifvqfh0","pricing_plan_id":"cebpf4jnsgd1na2vs0mg"},{"bike_id":"5767adce-4b87-4fa6-ab5a-cd6bc1f79831","system_id":"levelo_inurba_marseille","lat":43.29555,"lon":5.40231,"is_reserved":false,"is_disabled":false,"rental_uris":{"android":"levelo://app?vid=5767adce-4b87-4fa6-ab5a-cd6bc1f79831","ios":"levelo://app?vid=5767adce-4b87-4fa6-ab5a-cd6bc1f79831"},"vehicle_type_id":"4","last_reported":1741244975,"current_range_meters":12400,"station_id":"","pricing_plan_id":"cebpf4jnsgd1na2vs0mg"},{"bike_id":"e968ab12-e24e-4ebd-b6f9-fd2efbd300aa","system_id":"levelo_inurba_marseille","lat":43.28417,"lon":5.37536,"is_reserved":false,"is_disabled":false,"rental_uris":{"android":"levelo://app?vid=e968ab12-e24e-4ebd-b6f9-fd2efbd300aa","ios":"levelo://app?vid=e968ab12-e24e-4ebd-b6f9-fd2efbd300aa"},"vehicle_type_id":"4","last_reported":1741244975,"current_range_meters":12800,"station_id":"ce4bh412rcd13ifvqds0","pricing_plan_id":"cebpf4jnsgd1na2vs0mg"},{"bike_id":"b1f45ced-aba9-4a0f-932d-5928802df5b4","system_id":"levelo_inurba_marseille","lat":43.30478,"lon":5.37906,"is_reserved":false,"is_disabled":false,"rental_uris":{"android":"levelo://app?vid=b1f45ced-aba9-4a0f-932d-5928802df5b4","ios":"levelo://app?vid=b1f45ced-aba9-4a0f-932d-5928802df5b4"},"vehicle_type_id":"4","last_reported":1741244975,"current_range_meters":12800,"station_id":"ce4bgup2rcd13ifvqcn0","pricing_plan_id":"cebpf4jnsgd1na2vs0mg"},{"bike_id":"3b60e847-e5ef-4770-9b51-2baf6a0a592b","system_id":"levelo_inurba_marseille","lat":43.29792,"lon":5.38113,"is_reserved":false,"is_disabled":false,"rental_uris":{"android":"levelo://app?vid=3b60e847-e5ef-4770-9b51-2baf6a0a592b","ios":"levelo://app?vid=3b60e847-e5ef-4770-9b51-2baf6a0a592b"},"vehicle_type_id":"4","last_reported":1741244975,"current_range_meters":12800,"station_id":"ce4bgip2rcd13ifvqbb0","pricing_plan_id":"cebpf4jnsgd1na2vs0mg"},{"bike_id":"c70eb9b9-6298-4221-9ef7-c3cac70a59e9","system_id":"levelo_inurba_marseille","lat":43.31119,"lon":5.3778,"is_reserved":false,"is_disabled":false,"rental_uris":{"android":"levelo://app?vid=c70eb9b9-6298-4221-9ef7-c3cac70a59e9","ios":"levelo://app?vid=c70eb9b9-6298-4221-9ef7-c3cac70a59e9"},"vehicle_type_id":"4","last_reported":1741244975,"current_range_meters":12800,"station_id":"ce4bgt92rcd13ifvqcg0","pricing_plan_id":"cebpf4jnsgd1na2vs0mg"},{"bike_id":"acf20595-7755-43d3-8c8f-296b234b0f1b","system_id":"levelo_inurba_marseille","lat":43.25086,"lon":5.41074,"is_reserved":false,"is_disabled":false,"rental_uris":{"android":"levelo://app?vid=acf20595-7755-43d3-8c8f-296b234b0f1b","ios":"levelo://app?vid=acf20595-7755-43d3-8c8f-296b234b0f1b"},"vehicle_type_id":"4","last_reported":1741244975,"current_range_meters":12800,"station_id":"","pricing_plan_id":"cebpf4jnsgd1na2vs0mg"},{"bike_id":"0bbc6dc8-cd93-4296-aeec-1cb2e6e6a859","system_id":"levelo_inurba_marseille","lat":43.27496,"lon":5.42464,"is_reserved":false,"is_disabled":false,"rental_uris":{"android":"levelo://app?vid=0bbc6dc8-cd93-4296-aeec-1cb2e6e6a859","ios":"levelo://app?vid=0bbc6dc8-cd93-4296-aeec-1cb2e6e6a859"},"vehicle_type_id":"4","last_reported":1741244975,"current_range_meters":12800,"station_id":"ce4bhn92rcd13ifvqgrg","pricing_plan_id":"cebpf4jnsgd1na2vs0mg"},{"bike_id":"34eb7e1a-e697-4832-8325-771d27e75dc2","system_id":"levelo_inurba_marseille","lat":43.30143,"lon":5.38106,"is_reserved":false,"is_disabled":false,"rental_uris":{"android":"levelo://app?vid=34eb7e1a-e697-4832-8325-771d27e75dc2","ios":"levelo://app?vid=34eb7e1a-e697-4832-8325-771d27e75dc2"},"vehicle_type_id":"4","last_reported":1741244975,"current_range_meters":13600,"station_id":"ce4bgjp2rcd13ifvqbh0","pricing_plan_id":"cebpf4jnsgd1na2vs0mg"},{"bike_id":"6e6e9d36-6b36-48f3-93a4-a02f0c299668","system_id":"levelo_inurba_marseille","lat":43.30875,"lon":5.39657,"is_reserved":false,"is_disabled":false,"rental_uris":{"android":"levelo://app?vid=6e6e9d36-6b36-48f3-93a4-a02f0c299668","ios":"levelo://app?vid=6e6e9d36-6b36-48f3-93a4-a02f0c299668"},"vehicle_type_id":"4","last_reported":1741244975,"current_range_meters":13600,"station_id":"ce4bh012rcd13ifvqcv0","pricing_plan_id":"cebpf4jnsgd1na2vs0mg"},{"bike_id":"0128255d-f2f8-4ebc-916d-72b2e0b360dd","system_id":"levelo_inurba_marseille","lat":43.28151,"lon":5.42647,"is_reserved":false,"is_disabled":false,"rental_uris":{"android":"levelo://app?vid=0128255d-f2f8-4ebc-916d-72b2e0b360dd","ios":"levelo://app?vid=0128255d-f2f8-4ebc-916d-72b2e0b360dd"},"vehicle_type_id":"4","last_reported":1741244975,"current_range_meters":13600,"station_id":"ce4bhnh2rcd13ifvqgug","pricing_plan_id":"cebpf4jnsgd1na2vs0mg"},{"bike_id":"45373fcc-c9af-4539-b03d-e72a798d2e13","system_id":"levelo_inurba_marseille","lat":43.29796,"lon":5.38111,"is_reserved":false,"is_disabled":false,"rental_uris":{"android":"levelo://app?vid=45373fcc-c9af-4539-b03d-e72a798d2e13","ios":"levelo://app?vid=45373fcc-c9af-4539-b03d-e72a798d2e13"},"vehicle_type_id":"4","last_reported":1741244975,"current_range_meters":13600,"station_id":"ce4bgip2rcd13ifvqbb0","pricing_plan_id":"cebpf4jnsgd1na2vs0mg"},{"bike_id":"4b5fafcb-9fd3-4c6e-8bad-ac7af0000d0e","system_id":"levelo_inurba_marseille","lat":43.29333,"lon":5.37437,"is_reserved":false,"is_disabled":false,"rental_uris":{"android":"levelo://app?vid=4b5fafcb-9fd3-4c6e-8bad-ac7af0000d0e","ios":"levelo://app?vid=4b5fafcb-9fd3-4c6e-8bad-ac7af0000d0e"},"vehicle_type_id":"4","last_reported":1741244975,"current_range_meters":14000,"station_id":"ce4bgi12rcd13ifvqb70","pricing_plan_id":"cebpf4jnsgd1na2vs0mg"},{"bike_id":"360a49de-e7a2-42b3-95d3-521c5b8fee34","system_id":"levelo_inurba_marseille","lat":43.29191,"lon":5.35805,"is_reserved":false,"is_disabled":false,"rental_uris":{"android":"levelo://app?vid=360a49de-e7a2-42b3-95d3-521c5b8fee34","ios":"levelo://app?vid=360a49de-e7a2-42b3-95d3-521c5b8fee34"},"vehicle_type_id":"4","last_reported":1741244975,"current_range_meters":14000,"station_id":"ce4bhb12rcd13ifvqel0","pricing_plan_id":"cebpf4jnsgd1na2vs0mg"},{"bike_id":"6bfcd01e-c010-4896-9f9b-900a737e375f","system_id":"levelo_inurba_marseille","lat":43.26567,"lon":5.39009,"is_reserved":false,"is_disabled":false,"rental_uris":{"android":"levelo://app?vid=6bfcd01e-c010-4896-9f9b-900a737e375f","ios":"levelo://app?vid=6bfcd01e-c010-4896-9f9b-900a737e375f"},"vehicle_type_id":"4","last_reported":1741244975,"current_range_meters":14000,"station_id":"ce4bhe12rcd13ifvqf30","pricing_plan_id":"cebpf4jnsgd1na2vs0mg"},{"bike_id":"ff886547-a1ae-400e-9ee1-259fb7cd39ae","system_id":"levelo_inurba_marseille","lat":43.28977,"lon":5.37839,"is_reserved":false,"is_disabled":false,"rental_uris":{"android":"levelo://app?vid=ff886547-a1ae-400e-9ee1-259fb7cd39ae","ios":"levelo://app?vid=ff886547-a1ae-400e-9ee1-259fb7cd39ae"},"vehicle_type_id":"4","last_reported":1741244975,"current_range_meters":14000,"station_id":"ce4bh9p2rcd13ifvqed0","pricing_plan_id":"cebpf4jnsgd1na2vs0mg"},{"bike_id":"f927a9c8-5d84-472f-b8fd-88f2fc3bc3e6","system_id":"levelo_inurba_marseille","lat":43.29903,"lon":5.43661,"is_reserved":false,"is_disabled":false,"rental_uris":{"android":"levelo://app?vid=f927a9c8-5d84-472f-b8fd-88f2fc3bc3e6","ios":"levelo://app?vid=f927a9c8-5d84-472f-b8fd-88f2fc3bc3e6"},"vehicle_type_id":"4","last_reported":1741244975,"current_range_meters":14000,"station_id":"ce4bhpp2rcd13ifvqhfg","pricing_plan_id":"cebpf4jnsgd1na2vs0mg"},{"bike_id":"cedaa730-ed74-4e87-9371-31ebb28057d9","system_id":"levelo_inurba_marseille","lat":43.25235,"lon":5.40111,"is_reserved":false,"is_disabled":false,"rental_uris":{"android":"levelo://app?vid=cedaa730-ed74-4e87-9371-31ebb28057d9","ios":"levelo://app?vid=cedaa730-ed74-4e87-9371-31ebb28057d9"},"vehicle_type_id":"4","last_reported":1741244975,"current_range_meters":14000,"station_id":"ce4bhlp2rcd13ifvqgjg","pricing_plan_id":"cebpf4jnsgd1na2vs0mg"},{"bike_id":"8e253005-1e67-480d-9b43-caaa2b70656b","system_id":"levelo_inurba_marseille","lat":43.27499,"lon":5.42455,"is_reserved":false,"is_disabled":false,"rental_uris":{"android":"levelo://app?vid=8e253005-1e67-480d-9b43-caaa2b70656b","ios":"levelo://app?vid=8e253005-1e67-480d-9b43-caaa2b70656b"},"vehicle_type_id":"4","last_reported":1741244975,"current_range_meters":14400,"station_id":"ce4bhn92rcd13ifvqgrg","pricing_plan_id":"cebpf4jnsgd1na2vs0mg"},{"bike_id":"8bc1220c-5a97-469b-85a6-0f56e2ffaa1e","system_id":"levelo_inurba_marseille","lat":43.33611,"lon":5.41,"is_reserved":false,"is_disabled":false,"rental_uris":{"android":"levelo://app?vid=8bc1220c-5a97-469b-85a6-0f56e2ffaa1e","ios":"levelo://app?vid=8bc1220c-5a97-469b-85a6-0f56e2ffaa1e"},"vehicle_type_id":"4","last_reported":1741244975,"current_range_meters":14800,"station_id":"ce4bhqh2rcd13ifvqhmg","pricing_plan_id":"cebpf4jnsgd1na2vs0mg"},{"bike_id":"733dcacf-f6a4-4639-be54-735e7c4f39a1","system_id":"levelo_inurba_marseille","lat":43.29024,"lon":5.38642,"is_reserved":false,"is_disabled":false,"rental_uris":{"android":"levelo://app?vid=733dcacf-f6a4-4639-be54-735e7c4f39a1","ios":"levelo://app?vid=733dcacf-f6a4-4639-be54-735e7c4f39a1"},"vehicle_type_id":"4","last_reported":1741244975,"current_range_meters":15200,"station_id":"ce4bh4p2rcd13ifvqe0g","pricing_plan_id":"cebpf4jnsgd1na2vs0mg"},{"bike_id":"264d376b-d941-4080-9a1e-c59d217626c1","system_id":"levelo_inurba_marseille","lat":43.28156,"lon":5.42649,"is_reserved":false,"is_disabled":false,"rental_uris":{"android":"levelo://app?vid=264d376b-d941-4080-9a1e-c59d217626c1","ios":"levelo://app?vid=264d376b-d941-4080-9a1e-c59d217626c1"},"vehicle_type_id":"4","last_reported":1741244975,"current_range_meters":15200,"station_id":"ce4bhnh2rcd13ifvqgug","pricing_plan_id":"cebpf4jnsgd1na2vs0mg"},{"bike_id":"6059782c-bad3-40bf-82ae-1b649ba64a59","system_id":"levelo_inurba_marseille","lat":43.23149,"lon":5.43727,"is_reserved":false,"is_disabled":false,"rental_uris":{"android":"levelo://app?vid=6059782c-bad3-40bf-82ae-1b649ba64a59","ios":"levelo://app?vid=6059782c-bad3-40bf-82ae-1b649ba64a59"},"vehicle_type_id":"4","last_reported":1741244975,"current_range_meters":15200,"station_id":"ce4bhmp2rcd13ifvqgog","pricing_plan_id":"cebpf4jnsgd1na2vs0mg"},{"bike_id":"9543a54f-158b-4872-b806-db9b123694a3","system_id":"levelo_inurba_marseille","lat":43.28933,"lon":5.39647,"is_reserved":false,"is_disabled":false,"rental_uris":{"android":"levelo://app?vid=9543a54f-158b-4872-b806-db9b123694a3","ios":"levelo://app?vid=9543a54f-158b-4872-b806-db9b123694a3"},"vehicle_type_id":"4","last_reported":1741244975,"current_range_meters":15200,"station_id":"ce4bh3h2rcd13ifvqdn0","pricing_plan_id":"cebpf4jnsgd1na2vs0mg"},{"bike_id":"636b4431-a973-43c5-b447-2803200bad87","system_id":"levelo_inurba_marseille","lat":43.2705,"lon":5.40264,"is_reserved":false,"is_disabled":false,"rental_uris":{"android":"levelo://app?vid=636b4431-a973-43c5-b447-2803200bad87","ios":"levelo://app?vid=636b4431-a973-43c5-b447-2803200bad87"},"vehicle_type_id":"4","last_reported":1741244975,"current_range_meters":16000,"station_id":"ce4bhk92rcd13ifvqgc0","pricing_plan_id":"cebpf4jnsgd1na2vs0mg"},{"bike_id":"f2896ecd-b24b-46c4-8d75-7e3bebc05adf","system_id":"levelo_inurba_marseille","lat":43.295366,"lon":5.385446,"is_reserved":false,"is_disabled":true,"rental_uris":{"android":"levelo://app?vid=f2896ecd-b24b-46c4-8d75-7e3bebc05adf","ios":"levelo://app?vid=f2896ecd-b24b-46c4-8d75-7e3bebc05adf"},"vehicle_type_id":"4","last_reported":1741244975,"current_range_meters":16000,"station_id":"ce4bgih2rcd13ifvqba0","pricing_plan_id":"cebpf4jnsgd1na2vs0mg"},{"bike_id":"7233be05-6f76-45bb-a8fd-8e7cb22511bd","system_id":"levelo_inurba_marseille","lat":43.31528,"lon":5.37234,"is_reserved":false,"is_disabled":false,"rental_uris":{"android":"levelo://app?vid=7233be05-6f76-45bb-a8fd-8e7cb22511bd","ios":"levelo://app?vid=7233be05-6f76-45bb-a8fd-8e7cb22511bd"},"vehicle_type_id":"4","last_reported":1741244975,"current_range_meters":16000,"station_id":"","pricing_plan_id":"cebpf4jnsgd1na2vs0mg"},{"bike_id":"7940066d-cd24-41b6-836e-1355fc2b9e03","system_id":"levelo_inurba_marseille","lat":43.23192,"lon":5.35557,"is_reserved":false,"is_disabled":false,"rental_uris":{"android":"levelo://app?vid=7940066d-cd24-41b6-836e-1355fc2b9e03","ios":"levelo://app?vid=7940066d-cd24-41b6-836e-1355fc2b9e03"},"vehicle_type_id":"4","last_reported":1741244975,"current_range_meters":16000,"station_id":"ce4bhu92rcd13ifvqi70","pricing_plan_id":"cebpf4jnsgd1na2vs0mg"},{"bike_id":"1cd69c1e-f2a2-4a5c-bf79-adc85fbf8cc4","system_id":"levelo_inurba_marseille","lat":43.3117,"lon":5.38719,"is_reserved":false,"is_disabled":false,"rental_uris":{"android":"levelo://app?vid=1cd69c1e-f2a2-4a5c-bf79-adc85fbf8cc4","ios":"levelo://app?vid=1cd69c1e-f2a2-4a5c-bf79-adc85fbf8cc4"},"vehicle_type_id":"4","last_reported":1741244975,"current_range_meters":16000,"station_id":"ce4bgv12rcd13ifvqcp0","pricing_plan_id":"cebpf4jnsgd1na2vs0mg"},{"bike_id":"0881235a-065f-4c74-9752-beabaa0e1114","system_id":"levelo_inurba_marseille","lat":43.3092,"lon":5.40165,"is_reserved":false,"is_disabled":false,"rental_uris":{"android":"levelo://app?vid=0881235a-065f-4c74-9752-beabaa0e1114","ios":"levelo://app?vid=0881235a-065f-4c74-9752-beabaa0e1114"},"vehicle_type_id":"4","last_reported":1741244975,"current_range_meters":16000,"station_id":"ce4bgvp2rcd13ifvqct0","pricing_plan_id":"cebpf4jnsgd1na2vs0mg"},{"bike_id":"b4eca92e-f557-43df-a620-caa0a4c6d751","system_id":"levelo_inurba_marseille","lat":43.28329,"lon":5.38146,"is_reserved":false,"is_disabled":false,"rental_uris":{"android":"levelo://app?vid=b4eca92e-f557-43df-a620-caa0a4c6d751","ios":"levelo://app?vid=b4eca92e-f557-43df-a620-caa0a4c6d751"},"vehicle_type_id":"4","last_reported":1741244975,"current_range_meters":16000,"station_id":"ce4bh412rcd13ifvqdr0","pricing_plan_id":"cebpf4jnsgd1na2vs0mg"},{"bike_id":"cc89d958-e362-40c9-85a3-dde62946f868","system_id":"levelo_inurba_marseille","lat":43.30529,"lon":5.36716,"is_reserved":false,"is_disabled":false,"rental_uris":{"android":"levelo://app?vid=cc89d958-e362-40c9-85a3-dde62946f868","ios":"levelo://app?vid=cc89d958-e362-40c9-85a3-dde62946f868"},"vehicle_type_id":"4","last_reported":1741244975,"current_range_meters":16000,"station_id":"ce4bgrp2rcd13ifvqc9g","pricing_plan_id":"cebpf4jnsgd1na2vs0mg"},{"bike_id":"8ee5f723-8d35-4bd4-90aa-e1609b359182","system_id":"levelo_inurba_marseille","lat":43.27489,"lon":5.42465,"is_reserved":false,"is_disabled":false,"rental_uris":{"android":"levelo://app?vid=8ee5f723-8d35-4bd4-90aa-e1609b359182","ios":"levelo://app?vid=8ee5f723-8d35-4bd4-90aa-e1609b359182"},"vehicle_type_id":"4","last_reported":1741244975,"current_range_meters":16000,"station_id":"ce4bhn92rcd13ifvqgrg","pricing_plan_id":"cebpf4jnsgd1na2vs0mg"},{"bike_id":"00c9bea9-7d78-4435-8261-fa49c68fd27f","system_id":"levelo_inurba_marseille","lat":43.26031,"lon":5.41781,"is_reserved":false,"is_disabled":false,"rental_uris":{"android":"levelo://app?vid=00c9bea9-7d78-4435-8261-fa49c68fd27f","ios":"levelo://app?vid=00c9bea9-7d78-4435-8261-fa49c68fd27f"},"vehicle_type_id":"4","last_reported":1741244975,"current_range_meters":16000,"station_id":"","pricing_plan_id":"cebpf4jnsgd1na2vs0mg"},{"bike_id":"e712c4bf-ba3f-4bb8-a760-f12715497fa1","system_id":"levelo_inurba_marseille","lat":43.28934,"lon":5.39628,"is_reserved":false,"is_disabled":false,"rental_uris":{"android":"levelo://app?vid=e712c4bf-ba3f-4bb8-a760-f12715497fa1","ios":"levelo://app?vid=e712c4bf-ba3f-4bb8-a760-f12715497fa1"},"vehicle_type_id":"4","last_reported":1741244975,"current_range_meters":16400,"station_id":"ce4bh3h2rcd13ifvqdn0","pricing_plan_id":"cebpf4jnsgd1na2vs0mg"},{"bike_id":"52b19b0a-896e-4508-971e-9b8862ef11d0","system_id":"levelo_inurba_marseille","lat":43.23049,"lon":5.35506,"is_reserved":false,"is_disabled":false,"rental_uris":{"android":"levelo://app?vid=52b19b0a-896e-4508-971e-9b8862ef11d0","ios":"levelo://app?vid=52b19b0a-896e-4508-971e-9b8862ef11d0"},"vehicle_type_id":"4","last_reported":1741244975,"current_range_meters":16400,"station_id":"cpo3342slgdg3j2ifvpg","pricing_plan_id":"cebpf4jnsgd1na2vs0mg"},{"bike_id":"594cc1b1-cc9e-4a36-b127-5c66c54f3649","system_id":"levelo_inurba_marseille","lat":43.28093,"lon":5.37851,"is_reserved":false,"is_disabled":false,"rental_uris":{"android":"levelo://app?vid=594cc1b1-cc9e-4a36-b127-5c66c54f3649","ios":"levelo://app?vid=594cc1b1-cc9e-4a36-b127-5c66c54f3649"},"vehicle_type_id":"4","last_reported":1741244975,"current_range_meters":16400,"station_id":"ce4bha12rcd13ifvqee0","pricing_plan_id":"cebpf4jnsgd1na2vs0mg"},{"bike_id":"4d28614c-6378-4f8d-bcf4-67f4a6edbd89","system_id":"levelo_inurba_marseille","lat":43.25717,"lon":5.41115,"is_reserved":false,"is_disabled":false,"rental_uris":{"android":"levelo://app?vid=4d28614c-6378-4f8d-bcf4-67f4a6edbd89","ios":"levelo://app?vid=4d28614c-6378-4f8d-bcf4-67f4a6edbd89"},"vehicle_type_id":"4","last_reported":1741244975,"current_range_meters":16400,"station_id":"ce4bhkp2rcd13ifvqgd0","pricing_plan_id":"cebpf4jnsgd1na2vs0mg"},{"bike_id":"f35d39b3-3976-4a3e-98a8-71ed78aeac27","system_id":"levelo_inurba_marseille","lat":43.2849,"lon":5.38569,"is_reserved":false,"is_disabled":false,"rental_uris":{"android":"levelo://app?vid=f35d39b3-3976-4a3e-98a8-71ed78aeac27","ios":"levelo://app?vid=f35d39b3-3976-4a3e-98a8-71ed78aeac27"},"vehicle_type_id":"4","last_reported":1741244975,"current_range_meters":16400,"station_id":"ce4bh8p2rcd13ifvqeb0","pricing_plan_id":"cebpf4jnsgd1na2vs0mg"},{"bike_id":"f3ebaab3-470b-494d-91aa-9a14d4c7b5fa","system_id":"levelo_inurba_marseille","lat":43.2823,"lon":5.35089,"is_reserved":false,"is_disabled":false,"rental_uris":{"android":"levelo://app?vid=f3ebaab3-470b-494d-91aa-9a14d4c7b5fa","ios":"levelo://app?vid=f3ebaab3-470b-494d-91aa-9a14d4c7b5fa"},"vehicle_type_id":"4","last_reported":1741244975,"current_range_meters":16400,"station_id":"","pricing_plan_id":"cebpf4jnsgd1na2vs0mg"},{"bike_id":"d0975067-6820-4c9b-8967-2dcd7378fd4f","system_id":"levelo_inurba_marseille","lat":43.30459,"lon":5.37913,"is_reserved":false,"is_disabled":false,"rental_uris":{"android":"levelo://app?vid=d0975067-6820-4c9b-8967-2dcd7378fd4f","ios":"levelo://app?vid=d0975067-6820-4c9b-8967-2dcd7378fd4f"},"vehicle_type_id":"4","last_reported":1741244975,"current_range_meters":16400,"station_id":"ce4bgup2rcd13ifvqcn0","pricing_plan_id":"cebpf4jnsgd1na2vs0mg"},{"bike_id":"a4a7daef-19f6-46c6-91bd-730f6565687b","system_id":"levelo_inurba_marseille","lat":43.29928,"lon":5.36546,"is_reserved":false,"is_disabled":false,"rental_uris":{"android":"levelo://app?vid=a4a7daef-19f6-46c6-91bd-730f6565687b","ios":"levelo://app?vid=a4a7daef-19f6-46c6-91bd-730f6565687b"},"vehicle_type_id":"4","last_reported":1741244975,"current_range_meters":16400,"station_id":"ce4bgm92rcd13ifvqbr0","pricing_plan_id":"cebpf4jnsgd1na2vs0mg"},{"bike_id":"90c2adda-6118-4749-adca-74fa3ded3232","system_id":"levelo_inurba_marseille","lat":43.24075,"lon":5.37757,"is_reserved":false,"is_disabled":false,"rental_uris":{"android":"levelo://app?vid=90c2adda-6118-4749-adca-74fa3ded3232","ios":"levelo://app?vid=90c2adda-6118-4749-adca-74fa3ded3232"},"vehicle_type_id":"4","last_reported":1741244975,"current_range_meters":16800,"station_id":"ce4bhnp2rcd13ifvqgvg","pricing_plan_id":"cebpf4jnsgd1na2vs0mg"},{"bike_id":"8bc13b73-9bc5-49ad-b0df-a021c20743d0","system_id":"levelo_inurba_marseille","lat":43.3026,"lon":5.40079,"is_reserved":false,"is_disabled":false,"rental_uris":{"android":"levelo://app?vid=8bc13b73-9bc5-49ad-b0df-a021c20743d0","ios":"levelo://app?vid=8bc13b73-9bc5-49ad-b0df-a021c20743d0"},"vehicle_type_id":"4","last_reported":1741244975,"current_range_meters":16800,"station_id":"ce4bgvh2rcd13ifvqcs0","pricing_plan_id":"cebpf4jnsgd1na2vs0mg"},{"bike_id":"6b509aed-b387-4110-a1fb-ac182346d166","system_id":"levelo_inurba_marseille","lat":43.27495,"lon":5.42474,"is_reserved":false,"is_disabled":false,"rental_uris":{"android":"levelo://app?vid=6b509aed-b387-4110-a1fb-ac182346d166","ios":"levelo://app?vid=6b509aed-b387-4110-a1fb-ac182346d166"},"vehicle_type_id":"4","last_reported":1741244975,"current_range_meters":16800,"station_id":"ce4bhn92rcd13ifvqgrg","pricing_plan_id":"cebpf4jnsgd1na2vs0mg"},{"bike_id":"98c1dba0-a5ae-4c3d-9368-039209b928be","system_id":"levelo_inurba_marseille","lat":43.24073,"lon":5.37773,"is_reserved":false,"is_disabled":false,"rental_uris":{"android":"levelo://app?vid=98c1dba0-a5ae-4c3d-9368-039209b928be","ios":"levelo://app?vid=98c1dba0-a5ae-4c3d-9368-039209b928be"},"vehicle_type_id":"4","last_reported":1741244975,"current_range_meters":16800,"station_id":"ce4bhnp2rcd13ifvqgvg","pricing_plan_id":"cebpf4jnsgd1na2vs0mg"},{"bike_id":"218732f9-7aab-45b6-927d-b736f1586618","system_id":"levelo_inurba_marseille","lat":43.3184,"lon":5.38798,"is_reserved":false,"is_disabled":false,"rental_uris":{"android":"levelo://app?vid=218732f9-7aab-45b6-927d-b736f1586618","ios":"levelo://app?vid=218732f9-7aab-45b6-927d-b736f1586618"},"vehicle_type_id":"4","last_reported":1741244975,"current_range_meters":16800,"station_id":"","pricing_plan_id":"cebpf4jnsgd1na2vs0mg"},{"bike_id":"c7b54c7b-0e0f-49e2-a9e1-63c95c9661ab","system_id":"levelo_inurba_marseille","lat":43.28863,"lon":5.35836,"is_reserved":false,"is_disabled":false,"rental_uris":{"android":"levelo://app?vid=c7b54c7b-0e0f-49e2-a9e1-63c95c9661ab","ios":"levelo://app?vid=c7b54c7b-0e0f-49e2-a9e1-63c95c9661ab"},"vehicle_type_id":"4","last_reported":1741244975,"current_range_meters":16800,"station_id":"ce4bhb12rcd13ifvqem0","pricing_plan_id":"cebpf4jnsgd1na2vs0mg"},{"bike_id":"193032e0-b668-4499-9ca7-5b3d4a792e7a","system_id":"levelo_inurba_marseille","lat":43.27832,"lon":5.39206,"is_reserved":false,"is_disabled":false,"rental_uris":{"android":"levelo://app?vid=193032e0-b668-4499-9ca7-5b3d4a792e7a","ios":"levelo://app?vid=193032e0-b668-4499-9ca7-5b3d4a792e7a"},"vehicle_type_id":"4","last_reported":1741244975,"current_range_meters":16800,"station_id":"ce4bhjp2rcd13ifvqga0","pricing_plan_id":"cebpf4jnsgd1na2vs0mg"},{"bike_id":"3dd68013-1d2d-4640-876a-274cf4ba68b0","system_id":"levelo_inurba_marseille","lat":43.28412,"lon":5.37522,"is_reserved":false,"is_disabled":false,"rental_uris":{"android":"levelo://app?vid=3dd68013-1d2d-4640-876a-274cf4ba68b0","ios":"levelo://app?vid=3dd68013-1d2d-4640-876a-274cf4ba68b0"},"vehicle_type_id":"4","last_reported":1741244975,"current_range_meters":16800,"station_id":"ce4bh412rcd13ifvqds0","pricing_plan_id":"cebpf4jnsgd1na2vs0mg"},{"bike_id":"94512417-7e3b-48f9-b4db-2d349dac6212","system_id":"levelo_inurba_marseille","lat":43.31522,"lon":5.380391,"is_reserved":false,"is_disabled":false,"rental_uris":{"android":"levelo://app?vid=94512417-7e3b-48f9-b4db-2d349dac6212","ios":"levelo://app?vid=94512417-7e3b-48f9-b4db-2d349dac6212"},"vehicle_type_id":"4","last_reported":1741244975,"current_range_meters":16800,"station_id":"ce4bhsp2rcd13ifvqi50","pricing_plan_id":"cebpf4jnsgd1na2vs0mg"},{"bike_id":"b085439e-cb6b-496a-a8f4-7c0b0e3f5ec0","system_id":"levelo_inurba_marseille","lat":43.33738,"lon":5.35585,"is_reserved":false,"is_disabled":false,"rental_uris":{"android":"levelo://app?vid=b085439e-cb6b-496a-a8f4-7c0b0e3f5ec0","ios":"levelo://app?vid=b085439e-cb6b-496a-a8f4-7c0b0e3f5ec0"},"vehicle_type_id":"4","last_reported":1741244975,"current_range_meters":16800,"station_id":"","pricing_plan_id":"cebpf4jnsgd1na2vs0mg"},{"bike_id":"72b63ce9-1508-40a0-a023-206d4629536e","system_id":"levelo_inurba_marseille","lat":43.292673,"lon":5.38427,"is_reserved":false,"is_disabled":false,"rental_uris":{"android":"levelo://app?vid=72b63ce9-1508-40a0-a023-206d4629536e","ios":"levelo://app?vid=72b63ce9-1508-40a0-a023-206d4629536e"},"vehicle_type_id":"4","last_reported":1741244975,"current_range_meters":16800,"station_id":"ce4bh692rcd13ifvqea0","pricing_plan_id":"cebpf4jnsgd1na2vs0mg"},{"bike_id":"0897192a-786a-47a3-a26a-331f0f70deb2","system_id":"levelo_inurba_marseille","lat":43.23196,"lon":5.39985,"is_reserved":false,"is_disabled":false,"rental_uris":{"android":"levelo://app?vid=0897192a-786a-47a3-a26a-331f0f70deb2","ios":"levelo://app?vid=0897192a-786a-47a3-a26a-331f0f70deb2"},"vehicle_type_id":"4","last_reported":1741244975,"current_range_meters":17200,"station_id":"ce4bhn12rcd13ifvqgqg","pricing_plan_id":"cebpf4jnsgd1na2vs0mg"},{"bike_id":"c937f8f3-50c1-4f71-bcb4-ab720f7477f6","system_id":"levelo_inurba_marseille","lat":43.29579,"lon":5.3751,"is_reserved":false,"is_disabled":false,"rental_uris":{"android":"levelo://app?vid=c937f8f3-50c1-4f71-bcb4-ab720f7477f6","ios":"levelo://app?vid=c937f8f3-50c1-4f71-bcb4-ab720f7477f6"},"vehicle_type_id":"4","last_reported":1741244975,"current_range_meters":17200,"station_id":"ce4bgh92rcd13ifvqb50","pricing_plan_id":"cebpf4jnsgd1na2vs0mg"},{"bike_id":"54833c0a-a9a7-4c42-873b-474bce89055b","system_id":"levelo_inurba_marseille","lat":43.2305,"lon":5.35508,"is_reserved":false,"is_disabled":false,"rental_uris":{"android":"levelo://app?vid=54833c0a-a9a7-4c42-873b-474bce89055b","ios":"levelo://app?vid=54833c0a-a9a7-4c42-873b-474bce89055b"},"vehicle_type_id":"4","last_reported":1741244975,"current_range_meters":17200,"station_id":"cpo3342slgdg3j2ifvpg","pricing_plan_id":"cebpf4jnsgd1na2vs0mg"},{"bike_id":"d4296a29-eadc-4962-92c3-1d125ae6d95c","system_id":"levelo_inurba_marseille","lat":43.24998,"lon":5.3893,"is_reserved":false,"is_disabled":false,"rental_uris":{"android":"levelo://app?vid=d4296a29-eadc-4962-92c3-1d125ae6d95c","ios":"levelo://app?vid=d4296a29-eadc-4962-92c3-1d125ae6d95c"},"vehicle_type_id":"4","last_reported":1741244975,"current_range_meters":17200,"station_id":"ce4bhgp2rcd13ifvqfd0","pricing_plan_id":"cebpf4jnsgd1na2vs0mg"},{"bike_id":"7b2dce15-8e96-4cdb-a380-feb20408cd7a","system_id":"levelo_inurba_marseille","lat":43.29052,"lon":5.37781,"is_reserved":false,"is_disabled":false,"rental_uris":{"android":"levelo://app?vid=7b2dce15-8e96-4cdb-a380-feb20408cd7a","ios":"levelo://app?vid=7b2dce15-8e96-4cdb-a380-feb20408cd7a"},"vehicle_type_id":"4","last_reported":1741244975,"current_range_meters":17200,"station_id":"ce4bhah2rcd13ifvqej0","pricing_plan_id":"cebpf4jnsgd1na2vs0mg"},{"bike_id":"359eeabe-4281-4cff-b6d7-34dcaccfb2f9","system_id":"levelo_inurba_marseille","lat":43.27863,"lon":5.41942,"is_reserved":false,"is_disabled":false,"rental_uris":{"android":"levelo://app?vid=359eeabe-4281-4cff-b6d7-34dcaccfb2f9","ios":"levelo://app?vid=359eeabe-4281-4cff-b6d7-34dcaccfb2f9"},"vehicle_type_id":"4","last_reported":1741244975,"current_range_meters":17200,"station_id":"","pricing_plan_id":"cebpf4jnsgd1na2vs0mg"},{"bike_id":"88280eb1-2381-49b5-bed9-69bdc58ff91c","system_id":"levelo_inurba_marseille","lat":43.26955,"lon":5.38642,"is_reserved":false,"is_disabled":false,"rental_uris":{"android":"levelo://app?vid=88280eb1-2381-49b5-bed9-69bdc58ff91c","ios":"levelo://app?vid=88280eb1-2381-49b5-bed9-69bdc58ff91c"},"vehicle_type_id":"4","last_reported":1741244975,"current_range_meters":17200,"station_id":"ce4bhh92rcd13ifvqfh0","pricing_plan_id":"cebpf4jnsgd1na2vs0mg"},{"bike_id":"706348fe-ee5b-4e7e-9c72-3877ff9f0f30","system_id":"levelo_inurba_marseille","lat":43.308,"lon":5.37681,"is_reserved":false,"is_disabled":false,"rental_uris":{"android":"levelo://app?vid=706348fe-ee5b-4e7e-9c72-3877ff9f0f30","ios":"levelo://app?vid=706348fe-ee5b-4e7e-9c72-3877ff9f0f30"},"vehicle_type_id":"4","last_reported":1741244975,"current_range_meters":17200,"station_id":"ce4bgv92rcd13ifvqcq0","pricing_plan_id":"cebpf4jnsgd1na2vs0mg"},{"bike_id":"5a166f93-fdfc-45bf-b826-70b5673c1a36","system_id":"levelo_inurba_marseille","lat":43.27681,"lon":5.38875,"is_reserved":false,"is_disabled":false,"rental_uris":{"android":"levelo://app?vid=5a166f93-fdfc-45bf-b826-70b5673c1a36","ios":"levelo://app?vid=5a166f93-fdfc-45bf-b826-70b5673c1a36"},"vehicle_type_id":"4","last_reported":1741244975,"current_range_meters":17200,"station_id":"ce4bhi12rcd13ifvqfo0","pricing_plan_id":"cebpf4jnsgd1na2vs0mg"},{"bike_id":"43bf0e86-1072-4836-816e-dbe642614423","system_id":"levelo_inurba_marseille","lat":43.30444,"lon":5.3792,"is_reserved":false,"is_disabled":false,"rental_uris":{"android":"levelo://app?vid=43bf0e86-1072-4836-816e-dbe642614423","ios":"levelo://app?vid=43bf0e86-1072-4836-816e-dbe642614423"},"vehicle_type_id":"4","last_reported":1741244975,"current_range_meters":17600,"station_id":"ce4bgup2rcd13ifvqcn0","pricing_plan_id":"cebpf4jnsgd1na2vs0mg"},{"bike_id":"459ed71f-fb70-4100-aa95-83a472c1824f","system_id":"levelo_inurba_marseille","lat":43.301437,"lon":5.37411,"is_reserved":false,"is_disabled":false,"rental_uris":{"android":"levelo://app?vid=459ed71f-fb70-4100-aa95-83a472c1824f","ios":"levelo://app?vid=459ed71f-fb70-4100-aa95-83a472c1824f"},"vehicle_type_id":"4","last_reported":1741244975,"current_range_meters":17600,"station_id":"ce4bgs92rcd13ifvqcc0","pricing_plan_id":"cebpf4jnsgd1na2vs0mg"},{"bike_id":"67d91b02-f2b7-4862-9a17-5bcc567241ce","system_id":"levelo_inurba_marseille","lat":43.28152,"lon":5.42634,"is_reserved":false,"is_disabled":false,"rental_uris":{"android":"levelo://app?vid=67d91b02-f2b7-4862-9a17-5bcc567241ce","ios":"levelo://app?vid=67d91b02-f2b7-4862-9a17-5bcc567241ce"},"vehicle_type_id":"4","last_reported":1741244975,"current_range_meters":17600,"station_id":"ce4bhnh2rcd13ifvqgug","pricing_plan_id":"cebpf4jnsgd1na2vs0mg"},{"bike_id":"c558c509-213c-4e35-a3b0-b543706fd4e0","system_id":"levelo_inurba_marseille","lat":43.30954,"lon":5.39053,"is_reserved":false,"is_disabled":false,"rental_uris":{"android":"levelo://app?vid=c558c509-213c-4e35-a3b0-b543706fd4e0","ios":"levelo://app?vid=c558c509-213c-4e35-a3b0-b543706fd4e0"},"vehicle_type_id":"4","last_reported":1741244975,"current_range_meters":17600,"station_id":"ce4bgup2rcd13ifvqco0","pricing_plan_id":"cebpf4jnsgd1na2vs0mg"},{"bike_id":"65bf6ee4-49b5-43c9-9c8a-bc88e0255f25","system_id":"levelo_inurba_marseille","lat":43.27709,"lon":5.40705,"is_reserved":false,"is_disabled":false,"rental_uris":{"android":"levelo://app?vid=65bf6ee4-49b5-43c9-9c8a-bc88e0255f25","ios":"levelo://app?vid=65bf6ee4-49b5-43c9-9c8a-bc88e0255f25"},"vehicle_type_id":"4","last_reported":1741244975,"current_range_meters":17600,"station_id":"","pricing_plan_id":"cebpf4jnsgd1na2vs0mg"},{"bike_id":"cebb6504-396c-41fc-9943-57e158751507","system_id":"levelo_inurba_marseille","lat":43.29031,"lon":5.39972,"is_reserved":false,"is_disabled":false,"rental_uris":{"android":"levelo://app?vid=cebb6504-396c-41fc-9943-57e158751507","ios":"levelo://app?vid=cebb6504-396c-41fc-9943-57e158751507"},"vehicle_type_id":"4","last_reported":1741244975,"current_range_meters":17600,"station_id":"ce4bh392rcd13ifvqdm0","pricing_plan_id":"cebpf4jnsgd1na2vs0mg"},{"bike_id":"34126ffa-ab4d-4956-977d-c93b5e68c645","system_id":"levelo_inurba_marseille","lat":43.30472,"lon":5.37918,"is_reserved":false,"is_disabled":false,"rental_uris":{"android":"levelo://app?vid=34126ffa-ab4d-4956-977d-c93b5e68c645","ios":"levelo://app?vid=34126ffa-ab4d-4956-977d-c93b5e68c645"},"vehicle_type_id":"4","last_reported":1741244975,"current_range_meters":17600,"station_id":"ce4bgup2rcd13ifvqcn0","pricing_plan_id":"cebpf4jnsgd1na2vs0mg"},{"bike_id":"903ce000-471c-4d05-b575-0c8d90e89d04","system_id":"levelo_inurba_marseille","lat":43.284058,"lon":5.375155,"is_reserved":false,"is_disabled":true,"rental_uris":{"android":"levelo://app?vid=903ce000-471c-4d05-b575-0c8d90e89d04","ios":"levelo://app?vid=903ce000-471c-4d05-b575-0c8d90e89d04"},"vehicle_type_id":"4","last_reported":1741244975,"current_range_meters":17600,"station_id":"ce4bghh2rcd13ifvqb60","pricing_plan_id":"cebpf4jnsgd1na2vs0mg"},{"bike_id":"d0a9e0b6-7460-48af-b167-fa241d6b44c3","system_id":"levelo_inurba_marseille","lat":43.3208,"lon":5.36814,"is_reserved":false,"is_disabled":false,"rental_uris":{"android":"levelo://app?vid=d0a9e0b6-7460-48af-b167-fa241d6b44c3","ios":"levelo://app?vid=d0a9e0b6-7460-48af-b167-fa241d6b44c3"},"vehicle_type_id":"4","last_reported":1741244975,"current_range_meters":17600,"station_id":"ce4bhrh2rcd13ifvqhug","pricing_plan_id":"cebpf4jnsgd1na2vs0mg"},{"bike_id":"319d1c71-d439-40f9-9c3f-da1a01d1d6d9","system_id":"levelo_inurba_marseille","lat":43.30926,"lon":5.40164,"is_reserved":false,"is_disabled":false,"rental_uris":{"android":"levelo://app?vid=319d1c71-d439-40f9-9c3f-da1a01d1d6d9","ios":"levelo://app?vid=319d1c71-d439-40f9-9c3f-da1a01d1d6d9"},"vehicle_type_id":"4","last_reported":1741244975,"current_range_meters":18000,"station_id":"ce4bgvp2rcd13ifvqct0","pricing_plan_id":"cebpf4jnsgd1na2vs0mg"},{"bike_id":"89a239ee-7c47-4377-a55d-c10cfde61abd","system_id":"levelo_inurba_marseille","lat":43.30528,"lon":5.36719,"is_reserved":false,"is_disabled":false,"rental_uris":{"android":"levelo://app?vid=89a239ee-7c47-4377-a55d-c10cfde61abd","ios":"levelo://app?vid=89a239ee-7c47-4377-a55d-c10cfde61abd"},"vehicle_type_id":"4","last_reported":1741244975,"current_range_meters":18000,"station_id":"ce4bgrp2rcd13ifvqc9g","pricing_plan_id":"cebpf4jnsgd1na2vs0mg"},{"bike_id":"8f8ffd82-d094-4076-99ce-302d87adc130","system_id":"levelo_inurba_marseille","lat":43.309482,"lon":5.390366,"is_reserved":false,"is_disabled":true,"rental_uris":{"android":"levelo://app?vid=8f8ffd82-d094-4076-99ce-302d87adc130","ios":"levelo://app?vid=8f8ffd82-d094-4076-99ce-302d87adc130"},"vehicle_type_id":"4","last_reported":1741244975,"current_range_meters":18000,"station_id":"ce4bgup2rcd13ifvqco0","pricing_plan_id":"cebpf4jnsgd1na2vs0mg"},{"bike_id":"10b74c6d-04bc-43c8-b892-4a1d3e03c2bd","system_id":"levelo_inurba_marseille","lat":43.230647,"lon":5.354861,"is_reserved":false,"is_disabled":false,"rental_uris":{"android":"levelo://app?vid=10b74c6d-04bc-43c8-b892-4a1d3e03c2bd","ios":"levelo://app?vid=10b74c6d-04bc-43c8-b892-4a1d3e03c2bd"},"vehicle_type_id":"4","last_reported":1741244975,"current_range_meters":18000,"station_id":"cpo3342slgdg3j2ifvpg","pricing_plan_id":"cebpf4jnsgd1na2vs0mg"},{"bike_id":"1baecbd8-cbe4-442a-b057-d93857883888","system_id":"levelo_inurba_marseille","lat":43.24638,"lon":5.40846,"is_reserved":false,"is_disabled":false,"rental_uris":{"android":"levelo://app?vid=1baecbd8-cbe4-442a-b057-d93857883888","ios":"levelo://app?vid=1baecbd8-cbe4-442a-b057-d93857883888"},"vehicle_type_id":"4","last_reported":1741244975,"current_range_meters":18000,"station_id":"","pricing_plan_id":"cebpf4jnsgd1na2vs0mg"},{"bike_id":"6a452d88-2004-453e-ba9e-afaba91cc966","system_id":"levelo_inurba_marseille","lat":43.30874,"lon":5.39649,"is_reserved":false,"is_disabled":false,"rental_uris":{"android":"levelo://app?vid=6a452d88-2004-453e-ba9e-afaba91cc966","ios":"levelo://app?vid=6a452d88-2004-453e-ba9e-afaba91cc966"},"vehicle_type_id":"4","last_reported":1741244975,"current_range_meters":18000,"station_id":"ce4bh012rcd13ifvqcv0","pricing_plan_id":"cebpf4jnsgd1na2vs0mg"},{"bike_id":"ccdb2e48-e02d-4661-9c36-70a5e8aa1385","system_id":"levelo_inurba_marseille","lat":43.30537,"lon":5.36553,"is_reserved":false,"is_disabled":false,"rental_uris":{"android":"levelo://app?vid=ccdb2e48-e02d-4661-9c36-70a5e8aa1385","ios":"levelo://app?vid=ccdb2e48-e02d-4661-9c36-70a5e8aa1385"},"vehicle_type_id":"4","last_reported":1741244975,"current_range_meters":18000,"station_id":"ce4bgs12rcd13ifvqcag","pricing_plan_id":"cebpf4jnsgd1na2vs0mg"},{"bike_id":"b86577c6-11b6-4155-a792-5148b1c421e6","system_id":"levelo_inurba_marseille","lat":43.29037,"lon":5.39966,"is_reserved":false,"is_disabled":false,"rental_uris":{"android":"levelo://app?vid=b86577c6-11b6-4155-a792-5148b1c421e6","ios":"levelo://app?vid=b86577c6-11b6-4155-a792-5148b1c421e6"},"vehicle_type_id":"4","last_reported":1741244975,"current_range_meters":18000,"station_id":"ce4bh392rcd13ifvqdm0","pricing_plan_id":"cebpf4jnsgd1na2vs0mg"},{"bike_id":"39536716-8903-49fd-80c2-c649c01de277","system_id":"levelo_inurba_marseille","lat":43.30821,"lon":5.43547,"is_reserved":false,"is_disabled":false,"rental_uris":{"android":"levelo://app?vid=39536716-8903-49fd-80c2-c649c01de277","ios":"levelo://app?vid=39536716-8903-49fd-80c2-c649c01de277"},"vehicle_type_id":"4","last_reported":1741244975,"current_range_meters":18000,"station_id":"ce4bhph2rcd13ifvqheg","pricing_plan_id":"cebpf4jnsgd1na2vs0mg"},{"bike_id":"96effe73-85e8-4e89-8bfb-70b0e1c469f7","system_id":"levelo_inurba_marseille","lat":43.31262,"lon":5.40184,"is_reserved":false,"is_disabled":false,"rental_uris":{"android":"levelo://app?vid=96effe73-85e8-4e89-8bfb-70b0e1c469f7","ios":"levelo://app?vid=96effe73-85e8-4e89-8bfb-70b0e1c469f7"},"vehicle_type_id":"4","last_reported":1741244975,"current_range_meters":18000,"station_id":"ce4bh092rcd13ifvqd30","pricing_plan_id":"cebpf4jnsgd1na2vs0mg"},{"bike_id":"46b99ea8-eb7f-4b09-bc50-928b2b2ff5f7","system_id":"levelo_inurba_marseille","lat":43.29272,"lon":5.40146,"is_reserved":false,"is_disabled":false,"rental_uris":{"android":"levelo://app?vid=46b99ea8-eb7f-4b09-bc50-928b2b2ff5f7","ios":"levelo://app?vid=46b99ea8-eb7f-4b09-bc50-928b2b2ff5f7"},"vehicle_type_id":"4","last_reported":1741244975,"current_range_meters":18000,"station_id":"ce4bh312rcd13ifvqdk0","pricing_plan_id":"cebpf4jnsgd1na2vs0mg"},{"bike_id":"9a5c35d2-0f16-46c9-a174-b6cf2dac6862","system_id":"levelo_inurba_marseille","lat":43.27204,"lon":5.39179,"is_reserved":false,"is_disabled":false,"rental_uris":{"android":"levelo://app?vid=9a5c35d2-0f16-46c9-a174-b6cf2dac6862","ios":"levelo://app?vid=9a5c35d2-0f16-46c9-a174-b6cf2dac6862"},"vehicle_type_id":"4","last_reported":1741244975,"current_range_meters":18800,"station_id":"ce4bhhp2rcd13ifvqfm0","pricing_plan_id":"cebpf4jnsgd1na2vs0mg"},{"bike_id":"0a02b82d-d736-4407-af93-b0cbff52fdba","system_id":"levelo_inurba_marseille","lat":43.27492,"lon":5.42456,"is_reserved":false,"is_disabled":false,"rental_uris":{"android":"levelo://app?vid=0a02b82d-d736-4407-af93-b0cbff52fdba","ios":"levelo://app?vid=0a02b82d-d736-4407-af93-b0cbff52fdba"},"vehicle_type_id":"4","last_reported":1741244975,"current_range_meters":18800,"station_id":"ce4bhn92rcd13ifvqgrg","pricing_plan_id":"cebpf4jnsgd1na2vs0mg"},{"bike_id":"bd6d3966-b512-4c57-b57b-67d6991fd4a5","system_id":"levelo_inurba_marseille","lat":43.29278,"lon":5.40153,"is_reserved":false,"is_disabled":false,"rental_uris":{"android":"levelo://app?vid=bd6d3966-b512-4c57-b57b-67d6991fd4a5","ios":"levelo://app?vid=bd6d3966-b512-4c57-b57b-67d6991fd4a5"},"vehicle_type_id":"4","last_reported":1741244975,"current_range_meters":18800,"station_id":"ce4bh312rcd13ifvqdk0","pricing_plan_id":"cebpf4jnsgd1na2vs0mg"},{"bike_id":"8606274a-9640-43c4-8cef-9c97f5dd6ff3","system_id":"levelo_inurba_marseille","lat":43.23058,"lon":5.35526,"is_reserved":false,"is_disabled":false,"rental_uris":{"android":"levelo://app?vid=8606274a-9640-43c4-8cef-9c97f5dd6ff3","ios":"levelo://app?vid=8606274a-9640-43c4-8cef-9c97f5dd6ff3"},"vehicle_type_id":"4","last_reported":1741244975,"current_range_meters":18800,"station_id":"cpo3342slgdg3j2ifvpg","pricing_plan_id":"cebpf4jnsgd1na2vs0mg"},{"bike_id":"55a0dca1-7759-400a-91aa-dbf550ac8220","system_id":"levelo_inurba_marseille","lat":43.23149,"lon":5.43727,"is_reserved":false,"is_disabled":false,"rental_uris":{"android":"levelo://app?vid=55a0dca1-7759-400a-91aa-dbf550ac8220","ios":"levelo://app?vid=55a0dca1-7759-400a-91aa-dbf550ac8220"},"vehicle_type_id":"4","last_reported":1741244975,"current_range_meters":18800,"station_id":"ce4bhmp2rcd13ifvqgog","pricing_plan_id":"cebpf4jnsgd1na2vs0mg"},{"bike_id":"96664427-b2b6-470d-9881-f133276fb892","system_id":"levelo_inurba_marseille","lat":43.28482,"lon":5.38375,"is_reserved":false,"is_disabled":false,"rental_uris":{"android":"levelo://app?vid=96664427-b2b6-470d-9881-f133276fb892","ios":"levelo://app?vid=96664427-b2b6-470d-9881-f133276fb892"},"vehicle_type_id":"4","last_reported":1741244975,"current_range_meters":18800,"station_id":"ce4bh512rcd13ifvqe3g","pricing_plan_id":"cebpf4jnsgd1na2vs0mg"},{"bike_id":"2d3bd672-59ac-4dac-9de9-2ca67269e174","system_id":"levelo_inurba_marseille","lat":43.24075,"lon":5.37765,"is_reserved":false,"is_disabled":false,"rental_uris":{"android":"levelo://app?vid=2d3bd672-59ac-4dac-9de9-2ca67269e174","ios":"levelo://app?vid=2d3bd672-59ac-4dac-9de9-2ca67269e174"},"vehicle_type_id":"4","last_reported":1741244975,"current_range_meters":18800,"station_id":"ce4bhnp2rcd13ifvqgvg","pricing_plan_id":"cebpf4jnsgd1na2vs0mg"},{"bike_id":"761f8d61-869a-4031-abac-b74b42447e9b","system_id":"levelo_inurba_marseille","lat":43.31112,"lon":5.37769,"is_reserved":false,"is_disabled":false,"rental_uris":{"android":"levelo://app?vid=761f8d61-869a-4031-abac-b74b42447e9b","ios":"levelo://app?vid=761f8d61-869a-4031-abac-b74b42447e9b"},"vehicle_type_id":"4","last_reported":1741244975,"current_range_meters":18800,"station_id":"ce4bgt92rcd13ifvqcg0","pricing_plan_id":"cebpf4jnsgd1na2vs0mg"},{"bike_id":"6680dd46-fb5e-4fee-a396-e8c25c4330c6","system_id":"levelo_inurba_marseille","lat":43.30145,"lon":5.38097,"is_reserved":false,"is_disabled":false,"rental_uris":{"android":"levelo://app?vid=6680dd46-fb5e-4fee-a396-e8c25c4330c6","ios":"levelo://app?vid=6680dd46-fb5e-4fee-a396-e8c25c4330c6"},"vehicle_type_id":"4","last_reported":1741244975,"current_range_meters":18800,"station_id":"ce4bgjp2rcd13ifvqbh0","pricing_plan_id":"cebpf4jnsgd1na2vs0mg"},{"bike_id":"1a6ca591-bf26-416e-86db-f86cbedf466c","system_id":"levelo_inurba_marseille","lat":43.30782,"lon":5.37665,"is_reserved":false,"is_disabled":false,"rental_uris":{"android":"levelo://app?vid=1a6ca591-bf26-416e-86db-f86cbedf466c","ios":"levelo://app?vid=1a6ca591-bf26-416e-86db-f86cbedf466c"},"vehicle_type_id":"4","last_reported":1741244975,"current_range_meters":18800,"station_id":"ce4bgv92rcd13ifvqcq0","pricing_plan_id":"cebpf4jnsgd1na2vs0mg"},{"bike_id":"ea18a7ad-fc3a-44cc-a9af-c3315435e424","system_id":"levelo_inurba_marseille","lat":43.30528,"lon":5.36551,"is_reserved":false,"is_disabled":false,"rental_uris":{"android":"levelo://app?vid=ea18a7ad-fc3a-44cc-a9af-c3315435e424","ios":"levelo://app?vid=ea18a7ad-fc3a-44cc-a9af-c3315435e424"},"vehicle_type_id":"4","last_reported":1741244975,"current_range_meters":18800,"station_id":"ce4bgs12rcd13ifvqcag","pricing_plan_id":"cebpf4jnsgd1na2vs0mg"},{"bike_id":"09b1db27-2549-414a-a7c5-f09cf0f66512","system_id":"levelo_inurba_marseille","lat":43.27681,"lon":5.38879,"is_reserved":false,"is_disabled":false,"rental_uris":{"android":"levelo://app?vid=09b1db27-2549-414a-a7c5-f09cf0f66512","ios":"levelo://app?vid=09b1db27-2549-414a-a7c5-f09cf0f66512"},"vehicle_type_id":"4","last_reported":1741244975,"current_range_meters":19200,"station_id":"ce4bhi12rcd13ifvqfo0","pricing_plan_id":"cebpf4jnsgd1na2vs0mg"},{"bike_id":"1dc91f4c-f907-4a2f-9e98-1595520eee98","system_id":"levelo_inurba_marseille","lat":43.28398,"lon":5.37534,"is_reserved":false,"is_disabled":false,"rental_uris":{"android":"levelo://app?vid=1dc91f4c-f907-4a2f-9e98-1595520eee98","ios":"levelo://app?vid=1dc91f4c-f907-4a2f-9e98-1595520eee98"},