{"last_updated":1752260878,"ttl":60,"version":"2.2","data":{"bikes":[{"bike_id":"d5968ef1-d1a1-44dd-a546-7a25521bd1eb","system_id":"levelo_inurba_marseille","lat":43.31066,"lon":5.38356,"is_reserved":false,"is_disabled":false,"rental_uris":{"android":"levelo://app?vid=d5968ef1-d1a1-44dd-a546-7a25521bd1eb","ios":"levelo://app?vid=d5968ef1-d1a1-44dd-a546-7a25521bd1eb"},"vehicle_type_id":"4","last_reported":1752260878,"current_range_meters":2800,"station_id":"ce4bgv92rcd13ifvqcr0","pricing_plan_id":"cebpf4jnsgd1na2vs0mg"},{"bike_id":"f068aee7-a20c-42d5-bc2c-a8276a35870d","system_id":"levelo_inurba_marseille","lat":43.29554,"lon":5.42294,"is_reserved":false,"is_disabled":false,"rental_uris":{"android":"levelo://app?vid=f068aee7-a20c-42d5-bc2c-a8276a35870d","ios":"levelo://app?vid=f068aee7-a20c-42d5-bc2c-a8276a35870d"},"vehicle_type_id":"4","last_reported":1752260878,"current_range_meters":2800,"station_id":"ce4bhph2rcd13ifvqhdg","pricing_plan_id":"cebpf4jnsgd1na2vs0mg"},{"bike_id":"5cbba561-48b5-4fb7-8cc9-756f9c110c87","system_id":"levelo_inurba_marseille","lat":43.30326,"lon":5.4044,"is_reserved":false,"is_disabled":false,"rental_uris":{"android":"levelo://app?vid=5cbba561-48b5-4fb7-8cc9-756f9c110c87","ios":"levelo://app?vid=5cbba561-48b5-4fb7-8cc9-756f9c110c87"},"vehicle_type_id":"4","last_reported":1752260878,"current_range_meters":3200,"station_id":"ce4bh012rcd13ifvqd10","pricing_plan_id":"cebpf4jnsgd1na2vs0mg"},{"bike_id":"a4e71c09-d013-4906-bd5c-aaf1012438e0","system_id":"levelo_inurba_marseille","lat":43.30929,"lon":5.40131,"is_reserved":false,"is_disabled":true,"rental_uris":{"android":"levelo://app?vid=a4e71c09-d013-4906-bd5c-aaf1012438e0","ios":"levelo://app?vid=a4e71c09-d013-4906-bd5c-aaf1012438e0"},"vehicle_type_id":"4","last_reported":1752260878,"current_range_meters":3200,"station_id":"ce4bgvp2rcd13ifvqct0","pricing_plan_id":"cebpf4jnsgd1na2vs0mg"},{"bike_id":"38b51762-b816-4947-89a2-bc9351753da9","system_id":"levelo_inurba_marseille","lat":43.23182,"lon":5.39987,"is_reserved":false,"is_disabled":false,"rental_uris":{"android":"levelo://app?vid=38b51762-b816-4947-89a2-bc9351753da9","ios":"levelo://app?vid=38b51762-b816-4947-89a2-bc9351753da9"},"vehicle_type_id":"4","last_reported":1752260878,"current_range_meters":3200,"station_id":"ce4bhn12rcd13ifvqgqg","pricing_plan_id":"cebpf4jnsgd1na2vs0mg"},{"bike_id":"b14d0d78-8635-433f-8305-8e2ed857c830","system_id":"levelo_inurba_marseille","lat":43.307982,"lon":5.381564,"is_reserved":false,"is_disabled":true,"rental_uris":{"android":"levelo://app?vid=b14d0d78-8635-433f-8305-8e2ed857c830","ios":"levelo://app?vid=b14d0d78-8635-433f-8305-8e2ed857c830"},"vehicle_type_id":"4","last_reported":1752260878,"current_range_meters":3600,"station_id":"","pricing_plan_id":"cebpf4jnsgd1na2vs0mg"},{"bike_id":"833789d2-719f-470f-8aa2-b69edbf07c3f","system_id":"levelo_inurba_marseille","lat":43.29651,"lon":5.392607,"is_reserved":false,"is_disabled":false,"rental_uris":{"android":"levelo://app?vid=833789d2-719f-470f-8aa2-b69edbf07c3f","ios":"levelo://app?vid=833789d2-719f-470f-8aa2-b69edbf07c3f"},"vehicle_type_id":"4","last_reported":1752260878,"current_range_meters":3600,"station_id":"","pricing_plan_id":"cebpf4jnsgd1na2vs0mg"},{"bike_id":"47cc6a89-eb90-44c9-b2cd-3079c9d69368","system_id":"levelo_inurba_marseille","lat":43.29198,"lon":5.35806,"is_reserved":false,"is_disabled":false,"rental_uris":{"android":"levelo://app?vid=47cc6a89-eb90-44c9-b2cd-3079c9d69368","ios":"levelo://app?vid=47cc6a89-eb90-44c9-b2cd-3079c9d69368"},"vehicle_type_id":"4","last_reported":1752260878,"current_range_meters":1600,"station_id":"ce4bhb12rcd13ifvqel0","pricing_plan_id":"cebpf4jnsgd1na2vs0mg"},{"bike_id":"d60d8de5-1826-4d69-99a6-c45bf18f1085","system_id":"levelo_inurba_marseille","lat":43.30333,"lon":5.36877,"is_reserved":false,"is_disabled":true,"rental_uris":{"android":"levelo://app?vid=d60d8de5-1826-4d69-99a6-c45bf18f1085","ios":"levelo://app?vid=d60d8de5-1826-4d69-99a6-c45bf18f1085"},"vehicle_type_id":"4","last_reported":1752260878,"current_range_meters":4000,"station_id":"ce4bgqh2rcd13ifvqc5g","pricing_plan_id":"cebpf4jnsgd1na2vs0mg"},{"bike_id":"c746eddf-bacd-401c-a7ec-3bb291e0e28a","system_id":"levelo_inurba_marseille","lat":43.29532,"lon":5.38547,"is_reserved":false,"is_disabled":false,"rental_uris":{"android":"levelo://app?vid=c746eddf-bacd-401c-a7ec-3bb291e0e28a","ios":"levelo://app?vid=c746eddf-bacd-401c-a7ec-3bb291e0e28a"},"vehicle_type_id":"4","last_reported":1752260878,"current_range_meters":4400,"station_id":"ce4bgih2rcd13ifvqba0","pricing_plan_id":"cebpf4jnsgd1na2vs0mg"},{"bike_id":"0fce08f1-3eed-4a3b-9397-63aa20f090b7","system_id":"levelo_inurba_marseille","lat":43.29532,"lon":5.38542,"is_reserved":false,"is_disabled":false,"rental_uris":{"android":"levelo://app?vid=0fce08f1-3eed-4a3b-9397-63aa20f090b7","ios":"levelo://app?vid=0fce08f1-3eed-4a3b-9397-63aa20f090b7"},"vehicle_type_id":"4","last_reported":1752260878,"current_range_meters":4400,"station_id":"ce4bgih2rcd13ifvqba0","pricing_plan_id":"cebpf4jnsgd1na2vs0mg"},{"bike_id":"e2442c7f-d380-40c6-8e1d-476c596d855d","system_id":"levelo_inurba_marseille","lat":43.24181,"lon":5.39728,"is_reserved":false,"is_disabled":false,"rental_uris":{"android":"levelo://app?vid=e2442c7f-d380-40c6-8e1d-476c596d855d","ios":"levelo://app?vid=e2442c7f-d380-40c6-8e1d-476c596d855d"},"vehicle_type_id":"4","last_reported":1752260878,"current_range_meters":4400,"station_id":"ce4bhn12rcd13ifvqgpg","pricing_plan_id":"cebpf4jnsgd1na2vs0mg"},{"bike_id":"a7638d86-ae46-4944-b5c6-f1ab5cfa3e94","system_id":"levelo_inurba_marseille","lat":43.337444,"lon":5.374475,"is_reserved":false,"is_disabled":false,"rental_uris":{"android":"levelo://app?vid=a7638d86-ae46-4944-b5c6-f1ab5cfa3e94","ios":"levelo://app?vid=a7638d86-ae46-4944-b5c6-f1ab5cfa3e94"},"vehicle_type_id":"4","last_reported":1752260878,"current_range_meters":4400,"station_id":"","pricing_plan_id":"cebpf4jnsgd1na2vs0mg"},{"bike_id":"3947f45a-5865-460e-85f8-470722670668","system_id":"levelo_inurba_marseille","lat":43.31879,"lon":5.40731,"is_reserved":false,"is_disabled":false,"rental_uris":{"android":"levelo://app?vid=3947f45a-5865-460e-85f8-470722670668","ios":"levelo://app?vid=3947f45a-5865-460e-85f8-470722670668"},"vehicle_type_id":"4","last_reported":1752260878,"current_range_meters":4800,"station_id":"ce4bhq12rcd13ifvqhig","pricing_plan_id":"cebpf4jnsgd1na2vs0mg"},{"bike_id":"2b2f2206-7c4a-4b19-abac-bb6f0cceb940","system_id":"levelo_inurba_marseille","lat":43.21748,"lon":5.34596,"is_reserved":false,"is_disabled":false,"rental_uris":{"android":"levelo://app?vid=2b2f2206-7c4a-4b19-abac-bb6f0cceb940","ios":"levelo://app?vid=2b2f2206-7c4a-4b19-abac-bb6f0cceb940"},"vehicle_type_id":"4","last_reported":1752260878,"current_range_meters":4800,"station_id":"st_cvj6r9ubvosntc0bgbag","pricing_plan_id":"cebpf4jnsgd1na2vs0mg"},{"bike_id":"e0548435-c639-4285-bcf4-55154cafe21e","system_id":"levelo_inurba_marseille","lat":43.30951,"lon":5.39025,"is_reserved":false,"is_disabled":false,"rental_uris":{"android":"levelo://app?vid=e0548435-c639-4285-bcf4-55154cafe21e","ios":"levelo://app?vid=e0548435-c639-4285-bcf4-55154cafe21e"},"vehicle_type_id":"4","last_reported":1752260878,"current_range_meters":4800,"station_id":"ce4bgup2rcd13ifvqco0","pricing_plan_id":"cebpf4jnsgd1na2vs0mg"},{"bike_id":"b8d6bf6b-ecbb-4c40-8ce7-0169ef070b49","system_id":"levelo_inurba_marseille","lat":43.29655,"lon":5.37224,"is_reserved":false,"is_disabled":false,"rental_uris":{"android":"levelo://app?vid=b8d6bf6b-ecbb-4c40-8ce7-0169ef070b49","ios":"levelo://app?vid=b8d6bf6b-ecbb-4c40-8ce7-0169ef070b49"},"vehicle_type_id":"4","last_reported":1752260878,"current_range_meters":5600,"station_id":"","pricing_plan_id":"cebpf4jnsgd1na2vs0mg"},{"bike_id":"e9270e2a-8761-44c0-8ab2-b594d9228667","system_id":"levelo_inurba_marseille","lat":43.28413,"lon":5.34976,"is_reserved":false,"is_disabled":false,"rental_uris":{"android":"levelo://app?vid=e9270e2a-8761-44c0-8ab2-b594d9228667","ios":"levelo://app?vid=e9270e2a-8761-44c0-8ab2-b594d9228667"},"vehicle_type_id":"4","last_reported":1752260878,"current_range_meters":5600,"station_id":"ce4bhbh2rcd13ifvqepg","pricing_plan_id":"cebpf4jnsgd1na2vs0mg"},{"bike_id":"fa97e937-1b99-4cec-8325-f0cfca0aa3cd","system_id":"levelo_inurba_marseille","lat":43.26025,"lon":5.3756,"is_reserved":false,"is_disabled":false,"rental_uris":{"android":"levelo://app?vid=fa97e937-1b99-4cec-8325-f0cfca0aa3cd","ios":"levelo://app?vid=fa97e937-1b99-4cec-8325-f0cfca0aa3cd"},"vehicle_type_id":"4","last_reported":1752260878,"current_range_meters":5600,"station_id":"ce4bhgh2rcd13ifvqfa0","pricing_plan_id":"cebpf4jnsgd1na2vs0mg"},{"bike_id":"79955c3a-f671-4dd5-b123-1549f716da82","system_id":"levelo_inurba_marseille","lat":43.29608,"lon":5.37714,"is_reserved":false,"is_disabled":false,"rental_uris":{"android":"levelo://app?vid=79955c3a-f671-4dd5-b123-1549f716da82","ios":"levelo://app?vid=79955c3a-f671-4dd5-b123-1549f716da82"},"vehicle_type_id":"4","last_reported":1752260878,"current_range_meters":5600,"station_id":"ce4bgi92rcd13ifvqb90","pricing_plan_id":"cebpf4jnsgd1na2vs0mg"},{"bike_id":"310a2159-ca06-4022-ac88-f8414eda7591","system_id":"levelo_inurba_marseille","lat":43.30324,"lon":5.40429,"is_reserved":false,"is_disabled":false,"rental_uris":{"android":"levelo://app?vid=310a2159-ca06-4022-ac88-f8414eda7591","ios":"levelo://app?vid=310a2159-ca06-4022-ac88-f8414eda7591"},"vehicle_type_id":"4","last_reported":1752260878,"current_range_meters":5600,"station_id":"ce4bh012rcd13ifvqd10","pricing_plan_id":"cebpf4jnsgd1na2vs0mg"},{"bike_id":"5361e0e7-0ee8-4e28-a56a-80054e7f47d8","system_id":"levelo_inurba_marseille","lat":43.29307,"lon":5.37179,"is_reserved":false,"is_disabled":false,"rental_uris":{"android":"levelo://app?vid=5361e0e7-0ee8-4e28-a56a-80054e7f47d8","ios":"levelo://app?vid=5361e0e7-0ee8-4e28-a56a-80054e7f47d8"},"vehicle_type_id":"4","last_reported":1752260878,"current_range_meters":5600,"station_id":"ce4bgh92rcd13ifvqb40","pricing_plan_id":"cebpf4jnsgd1na2vs0mg"},{"bike_id":"051297de-8cbb-4e4c-93e0-e9469410c119","system_id":"levelo_inurba_marseille","lat":43.29254,"lon":5.37606,"is_reserved":false,"is_disabled":false,"rental_uris":{"android":"levelo://app?vid=051297de-8cbb-4e4c-93e0-e9469410c119","ios":"levelo://app?vid=051297de-8cbb-4e4c-93e0-e9469410c119"},"vehicle_type_id":"4","last_reported":1752260878,"current_range_meters":6000,"station_id":"ce4bgi12rcd13ifvqb80","pricing_plan_id":"cebpf4jnsgd1na2vs0mg"},{"bike_id":"0544aa67-af94-42a0-a9ab-9d7226897037","system_id":"levelo_inurba_marseille","lat":43.30948,"lon":5.39031,"is_reserved":false,"is_disabled":false,"rental_uris":{"android":"levelo://app?vid=0544aa67-af94-42a0-a9ab-9d7226897037","ios":"levelo://app?vid=0544aa67-af94-42a0-a9ab-9d7226897037"},"vehicle_type_id":"4","last_reported":1752260878,"current_range_meters":6000,"station_id":"ce4bgup2rcd13ifvqco0","pricing_plan_id":"cebpf4jnsgd1na2vs0mg"},{"bike_id":"ff1d8472-975d-4618-b8f7-4ab4cb752913","system_id":"levelo_inurba_marseille","lat":43.29788,"lon":5.3709,"is_reserved":false,"is_disabled":false,"rental_uris":{"android":"levelo://app?vid=ff1d8472-975d-4618-b8f7-4ab4cb752913","ios":"levelo://app?vid=ff1d8472-975d-4618-b8f7-4ab4cb752913"},"vehicle_type_id":"4","last_reported":1752260878,"current_range_meters":6000,"station_id":"ce4bgop2rcd13ifvqc1g","pricing_plan_id":"cebpf4jnsgd1na2vs0mg"},{"bike_id":"e117ce98-845d-4580-b722-d314a4fed87d","system_id":"levelo_inurba_marseille","lat":43.28853,"lon":5.35829,"is_reserved":false,"is_disabled":false,"rental_uris":{"android":"levelo://app?vid=e117ce98-845d-4580-b722-d314a4fed87d","ios":"levelo://app?vid=e117ce98-845d-4580-b722-d314a4fed87d"},"vehicle_type_id":"4","last_reported":1752260878,"current_range_meters":6000,"station_id":"ce4bhb12rcd13ifvqem0","pricing_plan_id":"cebpf4jnsgd1na2vs0mg"},{"bike_id":"6a5b119e-7cf2-4dc4-b7fa-68080f35defe","system_id":"levelo_inurba_marseille","lat":43.31757,"lon":5.39004,"is_reserved":false,"is_disabled":true,"rental_uris":{"android":"levelo://app?vid=6a5b119e-7cf2-4dc4-b7fa-68080f35defe","ios":"levelo://app?vid=6a5b119e-7cf2-4dc4-b7fa-68080f35defe"},"vehicle_type_id":"4","last_reported":1752260878,"current_range_meters":6000,"station_id":"ce4bhqp2rcd13ifvqhng","pricing_plan_id":"cebpf4jnsgd1na2vs0mg"},{"bike_id":"60854a1c-0e91-47ac-a4db-002302318be8","system_id":"levelo_inurba_marseille","lat":43.29539,"lon":5.38526,"is_reserved":false,"is_disabled":false,"rental_uris":{"android":"levelo://app?vid=60854a1c-0e91-47ac-a4db-002302318be8","ios":"levelo://app?vid=60854a1c-0e91-47ac-a4db-002302318be8"},"vehicle_type_id":"4","last_reported":1752260878,"current_range_meters":6000,"station_id":"ce4bgih2rcd13ifvqba0","pricing_plan_id":"cebpf4jnsgd1na2vs0mg"},{"bike_id":"21ae54b9-7375-4101-b8a7-bff9d6e1fa32","system_id":"levelo_inurba_marseille","lat":43.29984,"lon":5.37563,"is_reserved":false,"is_disabled":false,"rental_uris":{"android":"levelo://app?vid=21ae54b9-7375-4101-b8a7-bff9d6e1fa32","ios":"levelo://app?vid=21ae54b9-7375-4101-b8a7-bff9d6e1fa32"},"vehicle_type_id":"4","last_reported":1752260878,"current_range_meters":6400,"station_id":"","pricing_plan_id":"cebpf4jnsgd1na2vs0mg"},{"bike_id":"b757ffbb-2b71-4330-9f60-5f8a9d46d16e","system_id":"levelo_inurba_marseille","lat":43.29666,"lon":5.37104,"is_reserved":false,"is_disabled":false,"rental_uris":{"android":"levelo://app?vid=b757ffbb-2b71-4330-9f60-5f8a9d46d16e","ios":"levelo://app?vid=b757ffbb-2b71-4330-9f60-5f8a9d46d16e"},"vehicle_type_id":"4","last_reported":1752260878,"current_range_meters":6400,"station_id":"","pricing_plan_id":"cebpf4jnsgd1na2vs0mg"},{"bike_id":"1e0082ba-f799-4f61-87b6-9f29c497afa9","system_id":"levelo_inurba_marseille","lat":43.29533,"lon":5.39028,"is_reserved":false,"is_disabled":false,"rental_uris":{"android":"levelo://app?vid=1e0082ba-f799-4f61-87b6-9f29c497afa9","ios":"levelo://app?vid=1e0082ba-f799-4f61-87b6-9f29c497afa9"},"vehicle_type_id":"4","last_reported":1752260878,"current_range_meters":6400,"station_id":"ce4bh3p2rcd13ifvqdp0","pricing_plan_id":"cebpf4jnsgd1na2vs0mg"},{"bike_id":"48ba3ad0-e09f-4427-a7dc-e4e0812a0d85","system_id":"levelo_inurba_marseille","lat":43.32656,"lon":5.40988,"is_reserved":false,"is_disabled":false,"rental_uris":{"android":"levelo://app?vid=48ba3ad0-e09f-4427-a7dc-e4e0812a0d85","ios":"levelo://app?vid=48ba3ad0-e09f-4427-a7dc-e4e0812a0d85"},"vehicle_type_id":"4","last_reported":1752260878,"current_range_meters":6400,"station_id":"ce4bhpp2rcd13ifvqhgg","pricing_plan_id":"cebpf4jnsgd1na2vs0mg"},{"bike_id":"9d1e5c18-d395-4102-acf2-ac5a9739da79","system_id":"levelo_inurba_marseille","lat":43.26192,"lon":5.37446,"is_reserved":false,"is_disabled":false,"rental_uris":{"android":"levelo://app?vid=9d1e5c18-d395-4102-acf2-ac5a9739da79","ios":"levelo://app?vid=9d1e5c18-d395-4102-acf2-ac5a9739da79"},"vehicle_type_id":"4","last_reported":1752260878,"current_range_meters":4800,"station_id":"ce4bhgp2rcd13ifvqfc0","pricing_plan_id":"cebpf4jnsgd1na2vs0mg"},{"bike_id":"68631776-1ae2-4832-a82f-5ad3371b918b","system_id":"levelo_inurba_marseille","lat":43.26026,"lon":5.37545,"is_reserved":false,"is_disabled":false,"rental_uris":{"android":"levelo://app?vid=68631776-1ae2-4832-a82f-5ad3371b918b","ios":"levelo://app?vid=68631776-1ae2-4832-a82f-5ad3371b918b"},"vehicle_type_id":"4","last_reported":1752260878,"current_range_meters":7200,"station_id":"ce4bhgh2rcd13ifvqfa0","pricing_plan_id":"cebpf4jnsgd1na2vs0mg"},{"bike_id":"e0e5eebe-ccea-48dd-bce6-ee992f1885ff","system_id":"levelo_inurba_marseille","lat":43.29787,"lon":5.37091,"is_reserved":false,"is_disabled":false,"rental_uris":{"android":"levelo://app?vid=e0e5eebe-ccea-48dd-bce6-ee992f1885ff","ios":"levelo://app?vid=e0e5eebe-ccea-48dd-bce6-ee992f1885ff"},"vehicle_type_id":"4","last_reported":1752260878,"current_range_meters":7200,"station_id":"ce4bgop2rcd13ifvqc1g","pricing_plan_id":"cebpf4jnsgd1na2vs0mg"},{"bike_id":"102c21f4-3c66-4020-86c7-3d0c894eefbd","system_id":"levelo_inurba_marseille","lat":43.29549,"lon":5.42292,"is_reserved":false,"is_disabled":false,"rental_uris":{"android":"levelo://app?vid=102c21f4-3c66-4020-86c7-3d0c894eefbd","ios":"levelo://app?vid=102c21f4-3c66-4020-86c7-3d0c894eefbd"},"vehicle_type_id":"4","last_reported":1752260878,"current_range_meters":7200,"station_id":"ce4bhph2rcd13ifvqhdg","pricing_plan_id":"cebpf4jnsgd1na2vs0mg"},{"bike_id":"9120911c-6d71-4ada-bf3a-85c640e76955","system_id":"levelo_inurba_marseille","lat":43.29705,"lon":5.36599,"is_reserved":false,"is_disabled":false,"rental_uris":{"android":"levelo://app?vid=9120911c-6d71-4ada-bf3a-85c640e76955","ios":"levelo://app?vid=9120911c-6d71-4ada-bf3a-85c640e76955"},"vehicle_type_id":"4","last_reported":1752260878,"current_range_meters":7200,"station_id":"ce4bgn12rcd13ifvqbt0","pricing_plan_id":"cebpf4jnsgd1na2vs0mg"},{"bike_id":"83943d8f-2403-46fb-84f4-414556a552fb","system_id":"levelo_inurba_marseille","lat":43.309503,"lon":5.390397,"is_reserved":false,"is_disabled":false,"rental_uris":{"android":"levelo://app?vid=83943d8f-2403-46fb-84f4-414556a552fb","ios":"levelo://app?vid=83943d8f-2403-46fb-84f4-414556a552fb"},"vehicle_type_id":"4","last_reported":1752260878,"current_range_meters":7200,"station_id":"ce4bgup2rcd13ifvqco0","pricing_plan_id":"cebpf4jnsgd1na2vs0mg"},{"bike_id":"194fdfca-e11f-4b10-9cdb-35cb6b03690f","system_id":"levelo_inurba_marseille","lat":43.295143,"lon":5.375159,"is_reserved":false,"is_disabled":false,"rental_uris":{"android":"levelo://app?vid=194fdfca-e11f-4b10-9cdb-35cb6b03690f","ios":"levelo://app?vid=194fdfca-e11f-4b10-9cdb-35cb6b03690f"},"vehicle_type_id":"4","last_reported":1752260878,"current_range_meters":7200,"station_id":"ce4bgkp2rcd13ifvqbmg","pricing_plan_id":"cebpf4jnsgd1na2vs0mg"},{"bike_id":"46d36bdc-0fed-4a80-a836-9c6f0d186bfb","system_id":"levelo_inurba_marseille","lat":43.29046,"lon":5.35885,"is_reserved":false,"is_disabled":false,"rental_uris":{"android":"levelo://app?vid=46d36bdc-0fed-4a80-a836-9c6f0d186bfb","ios":"levelo://app?vid=46d36bdc-0fed-4a80-a836-9c6f0d186bfb"},"vehicle_type_id":"4","last_reported":1752260878,"current_range_meters":7200,"station_id":"ce4bha92rcd13ifvqeg0","pricing_plan_id":"cebpf4jnsgd1na2vs0mg"},{"bike_id":"833f97ec-e704-4051-ab3b-2e9eb58f71d0","system_id":"levelo_inurba_marseille","lat":43.30262,"lon":5.37502,"is_reserved":false,"is_disabled":false,"rental_uris":{"android":"levelo://app?vid=833f97ec-e704-4051-ab3b-2e9eb58f71d0","ios":"levelo://app?vid=833f97ec-e704-4051-ab3b-2e9eb58f71d0"},"vehicle_type_id":"4","last_reported":1752260878,"current_range_meters":7200,"station_id":"","pricing_plan_id":"cebpf4jnsgd1na2vs0mg"},{"bike_id":"85ca0c8a-0572-4a6e-bd85-0a9de639a9fe","system_id":"levelo_inurba_marseille","lat":43.2942,"lon":5.38591,"is_reserved":false,"is_disabled":true,"rental_uris":{"android":"levelo://app?vid=85ca0c8a-0572-4a6e-bd85-0a9de639a9fe","ios":"levelo://app?vid=85ca0c8a-0572-4a6e-bd85-0a9de639a9fe"},"vehicle_type_id":"4","last_reported":1752260878,"current_range_meters":7200,"station_id":"ce4bh2h2rcd13ifvqdh0","pricing_plan_id":"cebpf4jnsgd1na2vs0mg"},{"bike_id":"3c292873-7fd3-4d46-b470-8d73be917903","system_id":"levelo_inurba_marseille","lat":43.315055,"lon":5.372826,"is_reserved":false,"is_disabled":false,"rental_uris":{"android":"levelo://app?vid=3c292873-7fd3-4d46-b470-8d73be917903","ios":"levelo://app?vid=3c292873-7fd3-4d46-b470-8d73be917903"},"vehicle_type_id":"4","last_reported":1752260878,"current_range_meters":7200,"station_id":"ce4bgt12rcd13ifvqcd0","pricing_plan_id":"cebpf4jnsgd1na2vs0mg"},{"bike_id":"5ca02475-ce9f-4f40-86ea-abfc9061fc92","system_id":"levelo_inurba_marseille","lat":43.29095,"lon":5.3813,"is_reserved":false,"is_disabled":false,"rental_uris":{"android":"levelo://app?vid=5ca02475-ce9f-4f40-86ea-abfc9061fc92","ios":"levelo://app?vid=5ca02475-ce9f-4f40-86ea-abfc9061fc92"},"vehicle_type_id":"4","last_reported":1752260878,"current_range_meters":7200,"station_id":"ce4bh512rcd13ifvqe2g","pricing_plan_id":"cebpf4jnsgd1na2vs0mg"},{"bike_id":"9ddcb7ed-8dcb-47fc-a0f2-1cb81b4a42cf","system_id":"levelo_inurba_marseille","lat":43.31361,"lon":5.38484,"is_reserved":false,"is_disabled":false,"rental_uris":{"android":"levelo://app?vid=9ddcb7ed-8dcb-47fc-a0f2-1cb81b4a42cf","ios":"levelo://app?vid=9ddcb7ed-8dcb-47fc-a0f2-1cb81b4a42cf"},"vehicle_type_id":"4","last_reported":1752260878,"current_range_meters":7200,"station_id":"ce4bgt92rcd13ifvqcf0","pricing_plan_id":"cebpf4jnsgd1na2vs0mg"},{"bike_id":"d67b1882-0965-46ac-ba28-6cbac4db62e4","system_id":"levelo_inurba_marseille","lat":43.29297,"lon":5.37456,"is_reserved":false,"is_disabled":false,"rental_uris":{"android":"levelo://app?vid=d67b1882-0965-46ac-ba28-6cbac4db62e4","ios":"levelo://app?vid=d67b1882-0965-46ac-ba28-6cbac4db62e4"},"vehicle_type_id":"4","last_reported":1752260878,"current_range_meters":8000,"station_id":"ce4bgi12rcd13ifvqb70","pricing_plan_id":"cebpf4jnsgd1na2vs0mg"},{"bike_id":"9764aa7f-6f4d-40b9-b44b-05692cbd3dd6","system_id":"levelo_inurba_marseille","lat":43.29538,"lon":5.37497,"is_reserved":false,"is_disabled":false,"rental_uris":{"android":"levelo://app?vid=9764aa7f-6f4d-40b9-b44b-05692cbd3dd6","ios":"levelo://app?vid=9764aa7f-6f4d-40b9-b44b-05692cbd3dd6"},"vehicle_type_id":"4","last_reported":1752260878,"current_range_meters":8000,"station_id":"ce4bgkp2rcd13ifvqbmg","pricing_plan_id":"cebpf4jnsgd1na2vs0mg"},{"bike_id":"7295afe4-5f05-4dcf-a92e-b6f492503e25","system_id":"levelo_inurba_marseille","lat":43.28416,"lon":5.34969,"is_reserved":false,"is_disabled":false,"rental_uris":{"android":"levelo://app?vid=7295afe4-5f05-4dcf-a92e-b6f492503e25","ios":"levelo://app?vid=7295afe4-5f05-4dcf-a92e-b6f492503e25"},"vehicle_type_id":"4","last_reported":1752260878,"current_range_meters":8400,"station_id":"ce4bhbh2rcd13ifvqepg","pricing_plan_id":"cebpf4jnsgd1na2vs0mg"},{"bike_id":"4c204f19-2747-402b-a19c-08af62f7eecb","system_id":"levelo_inurba_marseille","lat":43.225053,"lon":5.347853,"is_reserved":false,"is_disabled":false,"rental_uris":{"android":"levelo://app?vid=4c204f19-2747-402b-a19c-08af62f7eecb","ios":"levelo://app?vid=4c204f19-2747-402b-a19c-08af62f7eecb"},"vehicle_type_id":"4","last_reported":1752260878,"current_range_meters":8400,"station_id":"","pricing_plan_id":"cebpf4jnsgd1na2vs0mg"},{"bike_id":"e748d465-7f8d-444c-abdb-8d444bef703b","system_id":"levelo_inurba_marseille","lat":43.29776,"lon":5.37105,"is_reserved":false,"is_disabled":false,"rental_uris":{"android":"levelo://app?vid=e748d465-7f8d-444c-abdb-8d444bef703b","ios":"levelo://app?vid=e748d465-7f8d-444c-abdb-8d444bef703b"},"vehicle_type_id":"4","last_reported":1752260878,"current_range_meters":8400,"station_id":"ce4bgop2rcd13ifvqc1g","pricing_plan_id":"cebpf4jnsgd1na2vs0mg"},{"bike_id":"131d2e97-7a72-4375-a093-a6cf5a548531","system_id":"levelo_inurba_marseille","lat":43.29293,"lon":5.37169,"is_reserved":false,"is_disabled":false,"rental_uris":{"android":"levelo://app?vid=131d2e97-7a72-4375-a093-a6cf5a548531","ios":"levelo://app?vid=131d2e97-7a72-4375-a093-a6cf5a548531"},"vehicle_type_id":"4","last_reported":1752260878,"current_range_meters":8400,"station_id":"ce4bgh92rcd13ifvqb40","pricing_plan_id":"cebpf4jnsgd1na2vs0mg"},{"bike_id":"98166bb7-571c-47b4-b7ee-adbdd661edba","system_id":"levelo_inurba_marseille","lat":43.31712,"lon":5.43707,"is_reserved":false,"is_disabled":false,"rental_uris":{"android":"levelo://app?vid=98166bb7-571c-47b4-b7ee-adbdd661edba","ios":"levelo://app?vid=98166bb7-571c-47b4-b7ee-adbdd661edba"},"vehicle_type_id":"4","last_reported":1752260878,"current_range_meters":8400,"station_id":"ce4bhp92rcd13ifvqhcg","pricing_plan_id":"cebpf4jnsgd1na2vs0mg"},{"bike_id":"0f1f5b6d-2805-4bae-be19-730b98650010","system_id":"levelo_inurba_marseille","lat":43.29685,"lon":5.37292,"is_reserved":false,"is_disabled":false,"rental_uris":{"android":"levelo://app?vid=0f1f5b6d-2805-4bae-be19-730b98650010","ios":"levelo://app?vid=0f1f5b6d-2805-4bae-be19-730b98650010"},"vehicle_type_id":"4","last_reported":1752260878,"current_range_meters":8400,"station_id":"ce4bgk12rcd13ifvqbj0","pricing_plan_id":"cebpf4jnsgd1na2vs0mg"},{"bike_id":"feb28034-09d6-4fe1-a221-2d8a86d43e5e","system_id":"levelo_inurba_marseille","lat":43.30952,"lon":5.39027,"is_reserved":false,"is_disabled":false,"rental_uris":{"android":"levelo://app?vid=feb28034-09d6-4fe1-a221-2d8a86d43e5e","ios":"levelo://app?vid=feb28034-09d6-4fe1-a221-2d8a86d43e5e"},"vehicle_type_id":"4","last_reported":1752260878,"current_range_meters":8800,"station_id":"","pricing_plan_id":"cebpf4jnsgd1na2vs0mg"},{"bike_id":"23f078c7-d634-43f0-8891-a31e7309a494","system_id":"levelo_inurba_marseille","lat":43.27206,"lon":5.39183,"is_reserved":false,"is_disabled":false,"rental_uris":{"android":"levelo://app?vid=23f078c7-d634-43f0-8891-a31e7309a494","ios":"levelo://app?vid=23f078c7-d634-43f0-8891-a31e7309a494"},"vehicle_type_id":"4","last_reported":1752260878,"current_range_meters":8800,"station_id":"ce4bhhp2rcd13ifvqfm0","pricing_plan_id":"cebpf4jnsgd1na2vs0mg"},{"bike_id":"ea7f713a-f8eb-4f16-8168-36d2161084e8","system_id":"levelo_inurba_marseille","lat":43.27904,"lon":5.39436,"is_reserved":false,"is_disabled":false,"rental_uris":{"android":"levelo://app?vid=ea7f713a-f8eb-4f16-8168-36d2161084e8","ios":"levelo://app?vid=ea7f713a-f8eb-4f16-8168-36d2161084e8"},"vehicle_type_id":"4","last_reported":1752260878,"current_range_meters":8800,"station_id":"","pricing_plan_id":"cebpf4jnsgd1na2vs0mg"},{"bike_id":"f6379f47-d054-43a8-bf41-72c2d3a2fa59","system_id":"levelo_inurba_marseille","lat":43.239625,"lon":5.366408,"is_reserved":false,"is_disabled":true,"rental_uris":{"android":"levelo://app?vid=f6379f47-d054-43a8-bf41-72c2d3a2fa59","ios":"levelo://app?vid=f6379f47-d054-43a8-bf41-72c2d3a2fa59"},"vehicle_type_id":"4","last_reported":1752260878,"current_range_meters":8800,"station_id":"ce4bhi12rcd13ifvqfp0","pricing_plan_id":"cebpf4jnsgd1na2vs0mg"},{"bike_id":"589f0b9a-c6fb-4ec0-93f8-1c8c77954886","system_id":"levelo_inurba_marseille","lat":43.29303,"lon":5.37464,"is_reserved":false,"is_disabled":false,"rental_uris":{"android":"levelo://app?vid=589f0b9a-c6fb-4ec0-93f8-1c8c77954886","ios":"levelo://app?vid=589f0b9a-c6fb-4ec0-93f8-1c8c77954886"},"vehicle_type_id":"4","last_reported":1752260878,"current_range_meters":8800,"station_id":"ce4bgi12rcd13ifvqb70","pricing_plan_id":"cebpf4jnsgd1na2vs0mg"},{"bike_id":"b4544312-64e4-4dd2-bd6d-e1d3f6243b40","system_id":"levelo_inurba_marseille","lat":43.28858,"lon":5.38433,"is_reserved":false,"is_disabled":false,"rental_uris":{"android":"levelo://app?vid=b4544312-64e4-4dd2-bd6d-e1d3f6243b40","ios":"levelo://app?vid=b4544312-64e4-4dd2-bd6d-e1d3f6243b40"},"vehicle_type_id":"4","last_reported":1752260878,"current_range_meters":8800,"station_id":"","pricing_plan_id":"cebpf4jnsgd1na2vs0mg"},{"bike_id":"b84efe8f-b40a-4e55-b7c2-d1e60451fba9","system_id":"levelo_inurba_marseille","lat":43.3078,"lon":5.37675,"is_reserved":false,"is_disabled":false,"rental_uris":{"android":"levelo://app?vid=b84efe8f-b40a-4e55-b7c2-d1e60451fba9","ios":"levelo://app?vid=b84efe8f-b40a-4e55-b7c2-d1e60451fba9"},"vehicle_type_id":"4","last_reported":1752260878,"current_range_meters":9200,"station_id":"ce4bgv92rcd13ifvqcq0","pricing_plan_id":"cebpf4jnsgd1na2vs0mg"},{"bike_id":"b550ec04-8747-4daa-8706-51206bced600","system_id":"levelo_inurba_marseille","lat":43.29537,"lon":5.38516,"is_reserved":false,"is_disabled":false,"rental_uris":{"android":"levelo://app?vid=b550ec04-8747-4daa-8706-51206bced600","ios":"levelo://app?vid=b550ec04-8747-4daa-8706-51206bced600"},"vehicle_type_id":"4","last_reported":1752260878,"current_range_meters":9200,"station_id":"ce4bgih2rcd13ifvqba0","pricing_plan_id":"cebpf4jnsgd1na2vs0mg"},{"bike_id":"947bf15c-aa96-4435-a3fe-e8b42efa834b","system_id":"levelo_inurba_marseille","lat":43.31493,"lon":5.37307,"is_reserved":false,"is_disabled":false,"rental_uris":{"android":"levelo://app?vid=947bf15c-aa96-4435-a3fe-e8b42efa834b","ios":"levelo://app?vid=947bf15c-aa96-4435-a3fe-e8b42efa834b"},"vehicle_type_id":"4","last_reported":1752260878,"current_range_meters":9200,"station_id":"ce4bgt12rcd13ifvqcd0","pricing_plan_id":"cebpf4jnsgd1na2vs0mg"},{"bike_id":"2711e2df-4467-499e-8fe3-b15ecca6968c","system_id":"levelo_inurba_marseille","lat":43.30658,"lon":5.40041,"is_reserved":false,"is_disabled":true,"rental_uris":{"android":"levelo://app?vid=2711e2df-4467-499e-8fe3-b15ecca6968c","ios":"levelo://app?vid=2711e2df-4467-499e-8fe3-b15ecca6968c"},"vehicle_type_id":"4","last_reported":1752260878,"current_range_meters":9200,"station_id":"","pricing_plan_id":"cebpf4jnsgd1na2vs0mg"},{"bike_id":"96ff1b60-3c76-4a5e-a910-a107b17ca3bc","system_id":"levelo_inurba_marseille","lat":43.29566,"lon":5.375,"is_reserved":false,"is_disabled":false,"rental_uris":{"android":"levelo://app?vid=96ff1b60-3c76-4a5e-a910-a107b17ca3bc","ios":"levelo://app?vid=96ff1b60-3c76-4a5e-a910-a107b17ca3bc"},"vehicle_type_id":"4","last_reported":1752260878,"current_range_meters":9200,"station_id":"ce4bgh92rcd13ifvqb50","pricing_plan_id":"cebpf4jnsgd1na2vs0mg"},{"bike_id":"3ec7c0bd-e015-4ad1-822a-3dfe260bc2ea","system_id":"levelo_inurba_marseille","lat":43.295258,"lon":5.38565,"is_reserved":false,"is_disabled":false,"rental_uris":{"android":"levelo://app?vid=3ec7c0bd-e015-4ad1-822a-3dfe260bc2ea","ios":"levelo://app?vid=3ec7c0bd-e015-4ad1-822a-3dfe260bc2ea"},"vehicle_type_id":"4","last_reported":1752260878,"current_range_meters":9600,"station_id":"ce4bgih2rcd13ifvqba0","pricing_plan_id":"cebpf4jnsgd1na2vs0mg"},{"bike_id":"b4e2f39c-1a0b-4216-9832-fbb3831b612f","system_id":"levelo_inurba_marseille","lat":43.31165,"lon":5.3871,"is_reserved":false,"is_disabled":false,"rental_uris":{"android":"levelo://app?vid=b4e2f39c-1a0b-4216-9832-fbb3831b612f","ios":"levelo://app?vid=b4e2f39c-1a0b-4216-9832-fbb3831b612f"},"vehicle_type_id":"4","last_reported":1752260878,"current_range_meters":9600,"station_id":"ce4bgv12rcd13ifvqcp0","pricing_plan_id":"cebpf4jnsgd1na2vs0mg"},{"bike_id":"b9797683-29ef-443a-a6e1-33d3703ffb94","system_id":"levelo_inurba_marseille","lat":43.29252,"lon":5.36839,"is_reserved":false,"is_disabled":false,"rental_uris":{"android":"levelo://app?vid=b9797683-29ef-443a-a6e1-33d3703ffb94","ios":"levelo://app?vid=b9797683-29ef-443a-a6e1-33d3703ffb94"},"vehicle_type_id":"4","last_reported":1752260878,"current_range_meters":9600,"station_id":"ce4bhbp2rcd13ifvqesg","pricing_plan_id":"cebpf4jnsgd1na2vs0mg"},{"bike_id":"21e3c009-4b78-443a-84a0-048116bfef21","system_id":"levelo_inurba_marseille","lat":43.28429,"lon":5.34982,"is_reserved":false,"is_disabled":false,"rental_uris":{"android":"levelo://app?vid=21e3c009-4b78-443a-84a0-048116bfef21","ios":"levelo://app?vid=21e3c009-4b78-443a-84a0-048116bfef21"},"vehicle_type_id":"4","last_reported":1752260878,"current_range_meters":9600,"station_id":"ce4bhbh2rcd13ifvqepg","pricing_plan_id":"cebpf4jnsgd1na2vs0mg"},{"bike_id":"4e209b0c-855f-4b51-8120-2faef8673853","system_id":"levelo_inurba_marseille","lat":43.30606,"lon":5.36865,"is_reserved":false,"is_disabled":false,"rental_uris":{"android":"levelo://app?vid=4e209b0c-855f-4b51-8120-2faef8673853","ios":"levelo://app?vid=4e209b0c-855f-4b51-8120-2faef8673853"},"vehicle_type_id":"4","last_reported":1752260878,"current_range_meters":9600,"station_id":"","pricing_plan_id":"cebpf4jnsgd1na2vs0mg"},{"bike_id":"81346845-e563-4a54-9cf3-0e2793adb323","system_id":"levelo_inurba_marseille","lat":43.33732,"lon":5.3746,"is_reserved":false,"is_disabled":false,"rental_uris":{"android":"levelo://app?vid=81346845-e563-4a54-9cf3-0e2793adb323","ios":"levelo://app?vid=81346845-e563-4a54-9cf3-0e2793adb323"},"vehicle_type_id":"4","last_reported":1752260878,"current_range_meters":10000,"station_id":"","pricing_plan_id":"cebpf4jnsgd1na2vs0mg"},{"bike_id":"c4ce93cf-4268-4ad2-add7-0e166b75f60a","system_id":"levelo_inurba_marseille","lat":43.30327,"lon":5.40423,"is_reserved":false,"is_disabled":false,"rental_uris":{"android":"levelo://app?vid=c4ce93cf-4268-4ad2-add7-0e166b75f60a","ios":"levelo://app?vid=c4ce93cf-4268-4ad2-add7-0e166b75f60a"},"vehicle_type_id":"4","last_reported":1752260878,"current_range_meters":10000,"station_id":"ce4bh012rcd13ifvqd10","pricing_plan_id":"cebpf4jnsgd1na2vs0mg"},{"bike_id":"4df71f07-6f7f-469b-84b3-045715b546ad","system_id":"levelo_inurba_marseille","lat":43.32476,"lon":5.36552,"is_reserved":false,"is_disabled":false,"rental_uris":{"android":"levelo://app?vid=4df71f07-6f7f-469b-84b3-045715b546ad","ios":"levelo://app?vid=4df71f07-6f7f-469b-84b3-045715b546ad"},"vehicle_type_id":"4","last_reported":1752260878,"current_range_meters":10000,"station_id":"ce4bhs12rcd13ifvqhvg","pricing_plan_id":"cebpf4jnsgd1na2vs0mg"},{"bike_id":"bca7ab81-2b1a-454b-9ff9-16c3b83c7506","system_id":"levelo_inurba_marseille","lat":43.29569,"lon":5.37519,"is_reserved":false,"is_disabled":false,"rental_uris":{"android":"levelo://app?vid=bca7ab81-2b1a-454b-9ff9-16c3b83c7506","ios":"levelo://app?vid=bca7ab81-2b1a-454b-9ff9-16c3b83c7506"},"vehicle_type_id":"4","last_reported":1752260878,"current_range_meters":10000,"station_id":"","pricing_plan_id":"cebpf4jnsgd1na2vs0mg"},{"bike_id":"19499ad1-b65b-470b-8fe5-974010ab7063","system_id":"levelo_inurba_marseille","lat":43.29795,"lon":5.37099,"is_reserved":false,"is_disabled":false,"rental_uris":{"android":"levelo://app?vid=19499ad1-b65b-470b-8fe5-974010ab7063","ios":"levelo://app?vid=19499ad1-b65b-470b-8fe5-974010ab7063"},"vehicle_type_id":"4","last_reported":1752260878,"current_range_meters":10000,"station_id":"ce4bgop2rcd13ifvqc1g","pricing_plan_id":"cebpf4jnsgd1na2vs0mg"},{"bike_id":"5a7b57ef-a00d-4d19-853c-d49c119db95f","system_id":"levelo_inurba_marseille","lat":43.24566,"lon":5.3734,"is_reserved":false,"is_disabled":true,"rental_uris":{"android":"levelo://app?vid=5a7b57ef-a00d-4d19-853c-d49c119db95f","ios":"levelo://app?vid=5a7b57ef-a00d-4d19-853c-d49c119db95f"},"vehicle_type_id":"4","last_reported":1752260878,"current_range_meters":10800,"station_id":"","pricing_plan_id":"cebpf4jnsgd1na2vs0mg"},{"bike_id":"8330a68f-2f6e-4337-9657-35d7d87c04ca","system_id":"levelo_inurba_marseille","lat":43.25451,"lon":5.37946,"is_reserved":false,"is_disabled":false,"rental_uris":{"android":"levelo://app?vid=8330a68f-2f6e-4337-9657-35d7d87c04ca","ios":"levelo://app?vid=8330a68f-2f6e-4337-9657-35d7d87c04ca"},"vehicle_type_id":"4","last_reported":1752260878,"current_range_meters":10800,"station_id":"","pricing_plan_id":"cebpf4jnsgd1na2vs0mg"},{"bike_id":"191a7548-002d-4e0e-ae7f-97752aba1428","system_id":"levelo_inurba_marseille","lat":43.310771,"lon":5.383537,"is_reserved":false,"is_disabled":false,"rental_uris":{"android":"levelo://app?vid=191a7548-002d-4e0e-ae7f-97752aba1428","ios":"levelo://app?vid=191a7548-002d-4e0e-ae7f-97752aba1428"},"vehicle_type_id":"4","last_reported":1752260878,"current_range_meters":10800,"station_id":"ce4bgv92rcd13ifvqcr0","pricing_plan_id":"cebpf4jnsgd1na2vs0mg"},{"bike_id":"0b5a4973-c2df-4a49-9b91-3c1cc686b0fb","system_id":"levelo_inurba_marseille","lat":43.3105,"lon":5.3859,"is_reserved":false,"is_disabled":false,"rental_uris":{"android":"levelo://app?vid=0b5a4973-c2df-4a49-9b91-3c1cc686b0fb","ios":"levelo://app?vid=0b5a4973-c2df-4a49-9b91-3c1cc686b0fb"},"vehicle_type_id":"4","last_reported":1752260878,"current_range_meters":10800,"station_id":"","pricing_plan_id":"cebpf4jnsgd1na2vs0mg"},{"bike_id":"f29e9fe2-5202-42a5-bd53-1b4e0f906972","system_id":"levelo_inurba_marseille","lat":43.29374,"lon":5.37861,"is_reserved":false,"is_disabled":false,"rental_uris":{"android":"levelo://app?vid=f29e9fe2-5202-42a5-bd53-1b4e0f906972","ios":"levelo://app?vid=f29e9fe2-5202-42a5-bd53-1b4e0f906972"},"vehicle_type_id":"4","last_reported":1752260878,"current_range_meters":10800,"station_id":"ce4bgjh2rcd13ifvqbf0","pricing_plan_id":"cebpf4jnsgd1na2vs0mg"},{"bike_id":"534ed68d-5ceb-43a8-968b-be30f01dfa74","system_id":"levelo_inurba_marseille","lat":43.28195,"lon":5.39052,"is_reserved":false,"is_disabled":true,"rental_uris":{"android":"levelo://app?vid=534ed68d-5ceb-43a8-968b-be30f01dfa74","ios":"levelo://app?vid=534ed68d-5ceb-43a8-968b-be30f01dfa74"},"vehicle_type_id":"4","last_reported":1752260878,"current_range_meters":11200,"station_id":"","pricing_plan_id":"cebpf4jnsgd1na2vs0mg"},{"bike_id":"69a38965-d4fc-4113-8da9-c18c25832d16","system_id":"levelo_inurba_marseille","lat":43.295219,"lon":5.375064,"is_reserved":false,"is_disabled":false,"rental_uris":{"android":"levelo://app?vid=69a38965-d4fc-4113-8da9-c18c25832d16","ios":"levelo://app?vid=69a38965-d4fc-4113-8da9-c18c25832d16"},"vehicle_type_id":"4","last_reported":1752260878,"current_range_meters":11200,"station_id":"ce4bgkp2rcd13ifvqbmg","pricing_plan_id":"cebpf4jnsgd1na2vs0mg"},{"bike_id":"23ac74cb-ccce-4d45-bcdf-dcd430c2d92b","system_id":"levelo_inurba_marseille","lat":43.25004,"lon":5.38934,"is_reserved":false,"is_disabled":false,"rental_uris":{"android":"levelo://app?vid=23ac74cb-ccce-4d45-bcdf-dcd430c2d92b","ios":"levelo://app?vid=23ac74cb-ccce-4d45-bcdf-dcd430c2d92b"},"vehicle_type_id":"4","last_reported":1752260878,"current_range_meters":11200,"station_id":"ce4bhgp2rcd13ifvqfd0","pricing_plan_id":"cebpf4jnsgd1na2vs0mg"},{"bike_id":"f92f98a1-c780-4571-81fb-310454f7feab","system_id":"levelo_inurba_marseille","lat":43.28266,"lon":5.35062,"is_reserved":false,"is_disabled":false,"rental_uris":{"android":"levelo://app?vid=f92f98a1-c780-4571-81fb-310454f7feab","ios":"levelo://app?vid=f92f98a1-c780-4571-81fb-310454f7feab"},"vehicle_type_id":"4","last_reported":1752260878,"current_range_meters":10000,"station_id":"ce4bhbp2rcd13ifvqerg","pricing_plan_id":"cebpf4jnsgd1na2vs0mg"},{"bike_id":"1797e06b-d9e5-4fb7-be0f-8230d778970b","system_id":"levelo_inurba_marseille","lat":43.29223,"lon":5.36893,"is_reserved":false,"is_disabled":true,"rental_uris":{"android":"levelo://app?vid=1797e06b-d9e5-4fb7-be0f-8230d778970b","ios":"levelo://app?vid=1797e06b-d9e5-4fb7-be0f-8230d778970b"},"vehicle_type_id":"4","last_reported":1752260878,"current_range_meters":11200,"station_id":"","pricing_plan_id":"cebpf4jnsgd1na2vs0mg"},{"bike_id":"efd2206e-a1ee-42fb-98bf-07155893af7f","system_id":"levelo_inurba_marseille","lat":43.28403,"lon":5.34962,"is_reserved":false,"is_disabled":false,"rental_uris":{"android":"levelo://app?vid=efd2206e-a1ee-42fb-98bf-07155893af7f","ios":"levelo://app?vid=efd2206e-a1ee-42fb-98bf-07155893af7f"},"vehicle_type_id":"4","last_reported":1752260878,"current_range_meters":11200,"station_id":"ce4bhbh2rcd13ifvqepg","pricing_plan_id":"cebpf4jnsgd1na2vs0mg"},{"bike_id":"a2f087e4-2174-4792-b543-bc2fc14fed30","system_id":"levelo_inurba_marseille","lat":43.28423,"lon":5.34962,"is_reserved":false,"is_disabled":false,"rental_uris":{"android":"levelo://app?vid=a2f087e4-2174-4792-b543-bc2fc14fed30","ios":"levelo://app?vid=a2f087e4-2174-4792-b543-bc2fc14fed30"},"vehicle_type_id":"4","last_reported":1752260878,"current_range_meters":11200,"station_id":"ce4bhbh2rcd13ifvqepg","pricing_plan_id":"cebpf4jnsgd1na2vs0mg"},{"bike_id":"21cc4a87-2424-44a2-8db3-1f99d6545494","system_id":"levelo_inurba_marseille","lat":43.21757,"lon":5.34604,"is_reserved":false,"is_disabled":false,"rental_uris":{"android":"levelo://app?vid=21cc4a87-2424-44a2-8db3-1f99d6545494","ios":"levelo://app?vid=21cc4a87-2424-44a2-8db3-1f99d6545494"},"vehicle_type_id":"4","last_reported":1752260878,"current_range_meters":11200,"station_id":"st_cvj6r9ubvosntc0bgbag","pricing_plan_id":"cebpf4jnsgd1na2vs0mg"},{"bike_id":"0f1efd82-ce8e-4f13-b84c-98b7817bd907","system_id":"levelo_inurba_marseille","lat":43.30953,"lon":5.39035,"is_reserved":false,"is_disabled":false,"rental_uris":{"android":"levelo://app?vid=0f1efd82-ce8e-4f13-b84c-98b7817bd907","ios":"levelo://app?vid=0f1efd82-ce8e-4f13-b84c-98b7817bd907"},"vehicle_type_id":"4","last_reported":1752260878,"current_range_meters":11200,"station_id":"ce4bgup2rcd13ifvqco0","pricing_plan_id":"cebpf4jnsgd1na2vs0mg"},{"bike_id":"012d6f06-ed85-4a82-a3da-315c15052225","system_id":"levelo_inurba_marseille","lat":43.29099,"lon":5.38126,"is_reserved":false,"is_disabled":false,"rental_uris":{"android":"levelo://app?vid=012d6f06-ed85-4a82-a3da-315c15052225","ios":"levelo://app?vid=012d6f06-ed85-4a82-a3da-315c15052225"},"vehicle_type_id":"4","last_reported":1752260878,"current_range_meters":11600,"station_id":"ce4bh512rcd13ifvqe2g","pricing_plan_id":"cebpf4jnsgd1na2vs0mg"},{"bike_id":"682c05c7-64f7-4845-9211-f5880654197b","system_id":"levelo_inurba_marseille","lat":43.3127,"lon":5.4017,"is_reserved":false,"is_disabled":false,"rental_uris":{"android":"levelo://app?vid=682c05c7-64f7-4845-9211-f5880654197b","ios":"levelo://app?vid=682c05c7-64f7-4845-9211-f5880654197b"},"vehicle_type_id":"4","last_reported":1752260878,"current_range_meters":11600,"station_id":"ce4bh092rcd13ifvqd30","pricing_plan_id":"cebpf4jnsgd1na2vs0mg"},{"bike_id":"6cfc468d-aa94-4096-bdab-f9fb6b3eace0","system_id":"levelo_inurba_marseille","lat":43.28421,"lon":5.34979,"is_reserved":false,"is_disabled":false,"rental_uris":{"android":"levelo://app?vid=6cfc468d-aa94-4096-bdab-f9fb6b3eace0","ios":"levelo://app?vid=6cfc468d-aa94-4096-bdab-f9fb6b3eace0"},"vehicle_type_id":"4","last_reported":1752260878,"current_range_meters":11600,"station_id":"ce4bhbh2rcd13ifvqepg","pricing_plan_id":"cebpf4jnsgd1na2vs0mg"},{"bike_id":"a82ee610-3a1b-4b05-8484-4f07ebaf9c8b","system_id":"levelo_inurba_marseille","lat":43.2847,"lon":5.38539,"is_reserved":false,"is_disabled":false,"rental_uris":{"android":"levelo://app?vid=a82ee610-3a1b-4b05-8484-4f07ebaf9c8b","ios":"levelo://app?vid=a82ee610-3a1b-4b05-8484-4f07ebaf9c8b"},"vehicle_type_id":"4","last_reported":1752260878,"current_range_meters":11600,"station_id":"ce4bh8p2rcd13ifvqeb0","pricing_plan_id":"cebpf4jnsgd1na2vs0mg"},{"bike_id":"ebf685f6-f080-485f-bbc1-47e95f79a3c9","system_id":"levelo_inurba_marseille","lat":43.29277,"lon":5.38446,"is_reserved":false,"is_disabled":false,"rental_uris":{"android":"levelo://app?vid=ebf685f6-f080-485f-bbc1-47e95f79a3c9","ios":"levelo://app?vid=ebf685f6-f080-485f-bbc1-47e95f79a3c9"},"vehicle_type_id":"4","last_reported":1752260878,"current_range_meters":11600,"station_id":"ce4bh692rcd13ifvqea0","pricing_plan_id":"cebpf4jnsgd1na2vs0mg"},{"bike_id":"80587b76-2aa0-4414-baf4-b54960346745","system_id":"levelo_inurba_marseille","lat":43.29722,"lon":5.36592,"is_reserved":false,"is_disabled":false,"rental_uris":{"android":"levelo://app?vid=80587b76-2aa0-4414-baf4-b54960346745","ios":"levelo://app?vid=80587b76-2aa0-4414-baf4-b54960346745"},"vehicle_type_id":"4","last_reported":1752260878,"current_range_meters":11600,"station_id":"ce4bgn12rcd13ifvqbt0","pricing_plan_id":"cebpf4jnsgd1na2vs0mg"},{"bike_id":"c74b27ee-3cfc-4e11-b4c4-f418cd2e9569","system_id":"levelo_inurba_marseille","lat":43.24175,"lon":5.36384,"is_reserved":false,"is_disabled":false,"rental_uris":{"android":"levelo://app?vid=c74b27ee-3cfc-4e11-b4c4-f418cd2e9569","ios":"levelo://app?vid=c74b27ee-3cfc-4e11-b4c4-f418cd2e9569"},"vehicle_type_id":"4","last_reported":1752260878,"current_range_meters":11600,"station_id":"cpo36qri1sfpv3e86is0","pricing_plan_id":"cebpf4jnsgd1na2vs0mg"},{"bike_id":"4f2bffd5-43cc-47cd-acbd-330dd5efe017","system_id":"levelo_inurba_marseille","lat":43.32655,"lon":5.40991,"is_reserved":false,"is_disabled":false,"rental_uris":{"android":"levelo://app?vid=4f2bffd5-43cc-47cd-acbd-330dd5efe017","ios":"levelo://app?vid=4f2bffd5-43cc-47cd-acbd-330dd5efe017"},"vehicle_type_id":"4","last_reported":1752260878,"current_range_meters":12000,"station_id":"ce4bhpp2rcd13ifvqhgg","pricing_plan_id":"cebpf4jnsgd1na2vs0mg"},{"bike_id":"74a6f54b-5fb4-416f-a35e-3325e71704f2","system_id":"levelo_inurba_marseille","lat":43.31757,"lon":5.39009,"is_reserved":false,"is_disabled":false,"rental_uris":{"android":"levelo://app?vid=74a6f54b-5fb4-416f-a35e-3325e71704f2","ios":"levelo://app?vid=74a6f54b-5fb4-416f-a35e-3325e71704f2"},"vehicle_type_id":"4","last_reported":1752260878,"current_range_meters":12000,"station_id":"ce4bhqp2rcd13ifvqhng","pricing_plan_id":"cebpf4jnsgd1na2vs0mg"},{"bike_id":"395e275d-50d4-4f25-99f8-df8597765e24","system_id":"levelo_inurba_marseille","lat":43.305394,"lon":5.367322,"is_reserved":false,"is_disabled":false,"rental_uris":{"android":"levelo://app?vid=395e275d-50d4-4f25-99f8-df8597765e24","ios":"levelo://app?vid=395e275d-50d4-4f25-99f8-df8597765e24"},"vehicle_type_id":"4","last_reported":1752260878,"current_range_meters":12000,"station_id":"ce4bgrp2rcd13ifvqc9g","pricing_plan_id":"cebpf4jnsgd1na2vs0mg"},{"bike_id":"39a9b5e6-3b40-48af-8092-556a533b8434","system_id":"levelo_inurba_marseille","lat":43.26552,"lon":5.37278,"is_reserved":false,"is_disabled":false,"rental_uris":{"android":"levelo://app?vid=39a9b5e6-3b40-48af-8092-556a533b8434","ios":"levelo://app?vid=39a9b5e6-3b40-48af-8092-556a533b8434"},"vehicle_type_id":"4","last_reported":1752260878,"current_range_meters":12000,"station_id":"ce4bhg12rcd13ifvqf70","pricing_plan_id":"cebpf4jnsgd1na2vs0mg"},{"bike_id":"f166470a-6c77-467a-a537-4628500c78ad","system_id":"levelo_inurba_marseille","lat":43.29787,"lon":5.3709,"is_reserved":false,"is_disabled":false,"rental_uris":{"android":"levelo://app?vid=f166470a-6c77-467a-a537-4628500c78ad","ios":"levelo://app?vid=f166470a-6c77-467a-a537-4628500c78ad"},"vehicle_type_id":"4","last_reported":1752260878,"current_range_meters":12000,"station_id":"ce4bgop2rcd13ifvqc1g","pricing_plan_id":"cebpf4jnsgd1na2vs0mg"},{"bike_id":"94d00333-fcf6-488c-964c-21a906f1d6c3","system_id":"levelo_inurba_marseille","lat":43.33604,"lon":5.41032,"is_reserved":false,"is_disabled":false,"rental_uris":{"android":"levelo://app?vid=94d00333-fcf6-488c-964c-21a906f1d6c3","ios":"levelo://app?vid=94d00333-fcf6-488c-964c-21a906f1d6c3"},"vehicle_type_id":"4","last_reported":1752260878,"current_range_meters":12000,"station_id":"ce4bhqh2rcd13ifvqhmg","pricing_plan_id":"cebpf4jnsgd1na2vs0mg"},{"bike_id":"2c702aa4-2ac5-4550-b697-5b3cdcd314b3","system_id":"levelo_inurba_marseille","lat":43.32057,"lon":5.41517,"is_reserved":false,"is_disabled":false,"rental_uris":{"android":"levelo://app?vid=2c702aa4-2ac5-4550-b697-5b3cdcd314b3","ios":"levelo://app?vid=2c702aa4-2ac5-4550-b697-5b3cdcd314b3"},"vehicle_type_id":"4","last_reported":1752260878,"current_range_meters":12000,"station_id":"ce4bhq92rcd13ifvqhkg","pricing_plan_id":"cebpf4jnsgd1na2vs0mg"},{"bike_id":"d849a247-c2c0-4619-bac8-f5a6994e0014","system_id":"levelo_inurba_marseille","lat":43.320313,"lon":5.415608,"is_reserved":false,"is_disabled":true,"rental_uris":{"android":"levelo://app?vid=d849a247-c2c0-4619-bac8-f5a6994e0014","ios":"levelo://app?vid=d849a247-c2c0-4619-bac8-f5a6994e0014"},"vehicle_type_id":"4","last_reported":1752260878,"current_range_meters":12000,"station_id":"ce4bhq92rcd13ifvqhkg","pricing_plan_id":"cebpf4jnsgd1na2vs0mg"},{"bike_id":"46eb3779-d50e-4fbb-a2ae-d89939988e58","system_id":"levelo_inurba_marseille","lat":43.26025,"lon":5.37547,"is_reserved":false,"is_disabled":false,"rental_uris":{"android":"levelo://app?vid=46eb3779-d50e-4fbb-a2ae-d89939988e58","ios":"levelo://app?vid=46eb3779-d50e-4fbb-a2ae-d89939988e58"},"vehicle_type_id":"4","last_reported":1752260878,"current_range_meters":12000,"station_id":"ce4bhgh2rcd13ifvqfa0","pricing_plan_id":"cebpf4jnsgd1na2vs0mg"},{"bike_id":"4464c91a-b8cf-48b1-82b6-b9f3398a5c02","system_id":"levelo_inurba_marseille","lat":43.28414,"lon":5.34984,"is_reserved":false,"is_disabled":false,"rental_uris":{"android":"levelo://app?vid=4464c91a-b8cf-48b1-82b6-b9f3398a5c02","ios":"levelo://app?vid=4464c91a-b8cf-48b1-82b6-b9f3398a5c02"},"vehicle_type_id":"4","last_reported":1752260878,"current_range_meters":12000,"station_id":"ce4bhbh2rcd13ifvqepg","pricing_plan_id":"cebpf4jnsgd1na2vs0mg"},{"bike_id":"5ad0c61f-7332-4e20-a32c-baac60340b7f","system_id":"levelo_inurba_marseille","lat":43.29522,"lon":5.39401,"is_reserved":false,"is_disabled":false,"rental_uris":{"android":"levelo://app?vid=5ad0c61f-7332-4e20-a32c-baac60340b7f","ios":"levelo://app?vid=5ad0c61f-7332-4e20-a32c-baac60340b7f"},"vehicle_type_id":"4","last_reported":1752260878,"current_range_meters":12400,"station_id":"ce4bh292rcd13ifvqdf0","pricing_plan_id":"cebpf4jnsgd1na2vs0mg"},{"bike_id":"3f50b904-8311-4781-93ab-8107c415adad","system_id":"levelo_inurba_marseille","lat":43.27629,"lon":5.3607,"is_reserved":false,"is_disabled":false,"rental_uris":{"android":"levelo://app?vid=3f50b904-8311-4781-93ab-8107c415adad","ios":"levelo://app?vid=3f50b904-8311-4781-93ab-8107c415adad"},"vehicle_type_id":"4","last_reported":1752260878,"current_range_meters":12400,"station_id":"ce4bgj92rcd13ifvqbe0","pricing_plan_id":"cebpf4jnsgd1na2vs0mg"},{"bike_id":"6e44525d-ed45-445a-a877-081b94eb5813","system_id":"levelo_inurba_marseille","lat":43.30349,"lon":5.41877,"is_reserved":false,"is_disabled":true,"rental_uris":{"android":"levelo://app?vid=6e44525d-ed45-445a-a877-081b94eb5813","ios":"levelo://app?vid=6e44525d-ed45-445a-a877-081b94eb5813"},"vehicle_type_id":"4","last_reported":1752260878,"current_range_meters":12400,"station_id":"ce4bhop2rcd13ifvqh7g","pricing_plan_id":"cebpf4jnsgd1na2vs0mg"},{"bike_id":"2252f907-8bc0-40fc-a69d-6fad1f84b3b6","system_id":"levelo_inurba_marseille","lat":43.30949,"lon":5.39038,"is_reserved":false,"is_disabled":false,"rental_uris":{"android":"levelo://app?vid=2252f907-8bc0-40fc-a69d-6fad1f84b3b6","ios":"levelo://app?vid=2252f907-8bc0-40fc-a69d-6fad1f84b3b6"},"vehicle_type_id":"4","last_reported":1752260878,"current_range_meters":12400,"station_id":"ce4bgup2rcd13ifvqco0","pricing_plan_id":"cebpf4jnsgd1na2vs0mg"},{"bike_id":"b847c1bf-6e19-4622-9b4e-858d571896cf","system_id":"levelo_inurba_marseille","lat":43.28418,"lon":5.34982,"is_reserved":false,"is_disabled":false,"rental_uris":{"android":"levelo://app?vid=b847c1bf-6e19-4622-9b4e-858d571896cf","ios":"levelo://app?vid=b847c1bf-6e19-4622-9b4e-858d571896cf"},"vehicle_type_id":"4","last_reported":1752260878,"current_range_meters":12400,"station_id":"ce4bhbh2rcd13ifvqepg","pricing_plan_id":"cebpf4jnsgd1na2vs0mg"},{"bike_id":"e3a35ae1-d30f-4bf5-b24e-a9674fd02dfc","system_id":"levelo_inurba_marseille","lat":43.29686,"lon":5.37296,"is_reserved":false,"is_disabled":false,"rental_uris":{"android":"levelo://app?vid=e3a35ae1-d30f-4bf5-b24e-a9674fd02dfc","ios":"levelo://app?vid=e3a35ae1-d30f-4bf5-b24e-a9674fd02dfc"},"vehicle_type_id":"4","last_reported":1752260878,"current_range_meters":12400,"station_id":"ce4bgk12rcd13ifvqbj0","pricing_plan_id":"cebpf4jnsgd1na2vs0mg"},{"bike_id":"1c44757f-6290-4685-a1c7-0477b636f869","system_id":"levelo_inurba_marseille","lat":43.29573,"lon":5.37494,"is_reserved":false,"is_disabled":false,"rental_uris":{"android":"levelo://app?vid=1c44757f-6290-4685-a1c7-0477b636f869","ios":"levelo://app?vid=1c44757f-6290-4685-a1c7-0477b636f869"},"vehicle_type_id":"4","last_reported":1752260878,"current_range_meters":12800,"station_id":"ce4bgh92rcd13ifvqb50","pricing_plan_id":"cebpf4jnsgd1na2vs0mg"},{"bike_id":"4d4b9e28-a4f6-4d45-ac6b-64a63a768bd8","system_id":"levelo_inurba_marseille","lat":43.315077,"lon":5.37401,"is_reserved":false,"is_disabled":false,"rental_uris":{"android":"levelo://app?vid=4d4b9e28-a4f6-4d45-ac6b-64a63a768bd8","ios":"levelo://app?vid=4d4b9e28-a4f6-4d45-ac6b-64a63a768bd8"},"vehicle_type_id":"4","last_reported":1752260878,"current_range_meters":12800,"station_id":"","pricing_plan_id":"cebpf4jnsgd1na2vs0mg"},{"bike_id":"5076ad93-b7e2-4902-b566-655c2183f3e6","system_id":"levelo_inurba_marseille","lat":43.27961,"lon":5.38677,"is_reserved":false,"is_disabled":true,"rental_uris":{"android":"levelo://app?vid=5076ad93-b7e2-4902-b566-655c2183f3e6","ios":"levelo://app?vid=5076ad93-b7e2-4902-b566-655c2183f3e6"},"vehicle_type_id":"4","last_reported":1752260878,"current_range_meters":12800,"station_id":"","pricing_plan_id":"cebpf4jnsgd1na2vs0mg"},{"bike_id":"7fae61e7-2e0d-4cff-9185-52cdd53ef41e","system_id":"levelo_inurba_marseille","lat":43.29528,"lon":5.38526,"is_reserved":false,"is_disabled":false,"rental_uris":{"android":"levelo://app?vid=7fae61e7-2e0d-4cff-9185-52cdd53ef41e","ios":"levelo://app?vid=7fae61e7-2e0d-4cff-9185-52cdd53ef41e"},"vehicle_type_id":"4","last_reported":1752260878,"current_range_meters":12800,"station_id":"ce4bgih2rcd13ifvqba0","pricing_plan_id":"cebpf4jnsgd1na2vs0mg"},{"bike_id":"30779e2e-ca85-4674-b3f6-e57ef1c3fef6","system_id":"levelo_inurba_marseille","lat":43.28274,"lon":5.35076,"is_reserved":false,"is_disabled":false,"rental_uris":{"android":"levelo://app?vid=30779e2e-ca85-4674-b3f6-e57ef1c3fef6","ios":"levelo://app?vid=30779e2e-ca85-4674-b3f6-e57ef1c3fef6"},"vehicle_type_id":"4","last_reported":1752260878,"current_range_meters":12800,"station_id":"ce4bhbp2rcd13ifvqerg","pricing_plan_id":"cebpf4jnsgd1na2vs0mg"},{"bike_id":"6378ed3d-6cc7-4bb7-9d99-20e6e32f1f02","system_id":"levelo_inurba_marseille","lat":43.27494,"lon":5.42443,"is_reserved":false,"is_disabled":false,"rental_uris":{"android":"levelo://app?vid=6378ed3d-6cc7-4bb7-9d99-20e6e32f1f02","ios":"levelo://app?vid=6378ed3d-6cc7-4bb7-9d99-20e6e32f1f02"},"vehicle_type_id":"4","last_reported":1752260878,"current_range_meters":12800,"station_id":"ce4bhn92rcd13ifvqgrg","pricing_plan_id":"cebpf4jnsgd1na2vs0mg"},{"bike_id":"dc745791-e4b0-4e9a-bf26-a83de36e49d9","system_id":"levelo_inurba_marseille","lat":43.286224,"lon":5.350949,"is_reserved":false,"is_disabled":false,"rental_uris":{"android":"levelo://app?vid=dc745791-e4b0-4e9a-bf26-a83de36e49d9","ios":"levelo://app?vid=dc745791-e4b0-4e9a-bf26-a83de36e49d9"},"vehicle_type_id":"4","last_reported":1752260878,"current_range_meters":12800,"station_id":"ce4bhch2rcd13ifvqeug","pricing_plan_id":"cebpf4jnsgd1na2vs0mg"},{"bike_id":"7392143f-a48d-4d17-918a-2d49b0cf2786","system_id":"levelo_inurba_marseille","lat":43.31688,"lon":5.40482,"is_reserved":false,"is_disabled":true,"rental_uris":{"android":"levelo://app?vid=7392143f-a48d-4d17-918a-2d49b0cf2786","ios":"levelo://app?vid=7392143f-a48d-4d17-918a-2d49b0cf2786"},"vehicle_type_id":"4","last_reported":1752260878,"current_range_meters":12800,"station_id":"ce4bh012rcd13ifvqd00","pricing_plan_id":"cebpf4jnsgd1na2vs0mg"},{"bike_id":"fd9f5c27-5d58-42e5-badc-a12a0344229e","system_id":"levelo_inurba_marseille","lat":43.289187,"lon":5.360655,"is_reserved":false,"is_disabled":false,"rental_uris":{"android":"levelo://app?vid=fd9f5c27-5d58-42e5-badc-a12a0344229e","ios":"levelo://app?vid=fd9f5c27-5d58-42e5-badc-a12a0344229e"},"vehicle_type_id":"4","last_reported":1752260878,"current_range_meters":13600,"station_id":"","pricing_plan_id":"cebpf4jnsgd1na2vs0mg"},{"bike_id":"595e9351-a7ce-45de-8995-771f7d9fe86e","system_id":"levelo_inurba_marseille","lat":43.309243,"lon":5.378088,"is_reserved":false,"is_disabled":false,"rental_uris":{"android":"levelo://app?vid=595e9351-a7ce-45de-8995-771f7d9fe86e","ios":"levelo://app?vid=595e9351-a7ce-45de-8995-771f7d9fe86e"},"vehicle_type_id":"4","last_reported":1752260878,"current_range_meters":13600,"station_id":"","pricing_plan_id":"cebpf4jnsgd1na2vs0mg"},{"bike_id":"c048cfbf-236e-40f8-83e0-5aff5e257960","system_id":"levelo_inurba_marseille","lat":43.246822,"lon":5.381786,"is_reserved":false,"is_disabled":false,"rental_uris":{"android":"levelo://app?vid=c048cfbf-236e-40f8-83e0-5aff5e257960","ios":"levelo://app?vid=c048cfbf-236e-40f8-83e0-5aff5e257960"},"vehicle_type_id":"4","last_reported":1752260878,"current_range_meters":13600,"station_id":"ce4bhih2rcd13ifvqfr0","pricing_plan_id":"cebpf4jnsgd1na2vs0mg"},{"bike_id":"e3a75ee9-c614-467b-8cc2-f813bcef2ab1","system_id":"levelo_inurba_marseille","lat":43.33743,"lon":5.3919,"is_reserved":false,"is_disabled":false,"rental_uris":{"android":"levelo://app?vid=e3a75ee9-c614-467b-8cc2-f813bcef2ab1","ios":"levelo://app?vid=e3a75ee9-c614-467b-8cc2-f813bcef2ab1"},"vehicle_type_id":"4","last_reported":1752260878,"current_range_meters":13600,"station_id":"ce4bhr92rcd13ifvqhsg","pricing_plan_id":"cebpf4jnsgd1na2vs0mg"},{"bike_id":"ea95f645-4b6d-4c75-9143-177ff63ae8ba","system_id":"levelo_inurba_marseille","lat":43.302918,"lon":5.402743,"is_reserved":false,"is_disabled":false,"rental_uris":{"android":"levelo://app?vid=ea95f645-4b6d-4c75-9143-177ff63ae8ba","ios":"levelo://app?vid=ea95f645-4b6d-4c75-9143-177ff63ae8ba"},"vehicle_type_id":"4","last_reported":1752260878,"current_range_meters":13600,"station_id":"ce4bh0h2rcd13ifvqd40","pricing_plan_id":"cebpf4jnsgd1na2vs0mg"},{"bike_id":"77d58ef1-c0e4-42b6-8540-3f0b81bb4117","system_id":"levelo_inurba_marseille","lat":43.29003,"lon":5.35603,"is_reserved":false,"is_disabled":false,"rental_uris":{"android":"levelo://app?vid=77d58ef1-c0e4-42b6-8540-3f0b81bb4117","ios":"levelo://app?vid=77d58ef1-c0e4-42b6-8540-3f0b81bb4117"},"vehicle_type_id":"4","last_reported":1752260878,"current_range_meters":13600,"station_id":"ce4bhb92rcd13ifvqen0","pricing_plan_id":"cebpf4jnsgd1na2vs0mg"},{"bike_id":"23f34c0f-7157-4601-99ed-03c8d05b14e5","system_id":"levelo_inurba_marseille","lat":43.292574,"lon":5.384167,"is_reserved":false,"is_disabled":false,"rental_uris":{"android":"levelo://app?vid=23f34c0f-7157-4601-99ed-03c8d05b14e5","ios":"levelo://app?vid=23f34c0f-7157-4601-99ed-03c8d05b14e5"},"vehicle_type_id":"4","last_reported":1752260878,"current_range_meters":13600,"station_id":"ce4bh692rcd13ifvqea0","pricing_plan_id":"cebpf4jnsgd1na2vs0mg"},{"bike_id":"5f27cee9-4808-4986-92e5-73f9f0fefbc8","system_id":"levelo_inurba_marseille","lat":43.248243,"lon":5.374479,"is_reserved":false,"is_disabled":false,"rental_uris":{"android":"levelo://app?vid=5f27cee9-4808-4986-92e5-73f9f0fefbc8","ios":"levelo://app?vid=5f27cee9-4808-4986-92e5-73f9f0fefbc8"},"vehicle_type_id":"4","last_reported":1752260878,"current_range_meters":14000,"station_id":"ce4bhgh2rcd13ifvqfb0","pricing_plan_id":"cebpf4jnsgd1na2vs0mg"},{"bike_id":"647a1903-1834-4730-b34e-6397917620f0","system_id":"levelo_inurba_marseille","lat":43.31659,"lon":5.37021,"is_reserved":false,"is_disabled":false,"rental_uris":{"android":"levelo://app?vid=647a1903-1834-4730-b34e-6397917620f0","ios":"levelo://app?vid=647a1903-1834-4730-b34e-6397917620f0"},"vehicle_type_id":"4","last_reported":1752260878,"current_range_meters":14000,"station_id":"","pricing_plan_id":"cebpf4jnsgd1na2vs0mg"},{"bike_id":"d39e8fce-b1da-4f76-bd04-fee9d943c87e","system_id":"levelo_inurba_marseille","lat":43.29568,"lon":5.37509,"is_reserved":false,"is_disabled":false,"rental_uris":{"android":"levelo://app?vid=d39e8fce-b1da-4f76-bd04-fee9d943c87e","ios":"levelo://app?vid=d39e8fce-b1da-4f76-bd04-fee9d943c87e"},"vehicle_type_id":"4","last_reported":1752260878,"current_range_meters":14000,"station_id":"ce4bgh92rcd13ifvqb50","pricing_plan_id":"cebpf4jnsgd1na2vs0mg"},{"bike_id":"eda0ea69-6404-43e6-9ede-2655d170d444","system_id":"levelo_inurba_marseille","lat":43.28846,"lon":5.35837,"is_reserved":false,"is_disabled":false,"rental_uris":{"android":"levelo://app?vid=eda0ea69-6404-43e6-9ede-2655d170d444","ios":"levelo://app?vid=eda0ea69-6404-43e6-9ede-2655d170d444"},"vehicle_type_id":"4","last_reported":1752260878,"current_range_meters":14000,"station_id":"ce4bhb12rcd13ifvqem0","pricing_plan_id":"cebpf4jnsgd1na2vs0mg"},{"bike_id":"650f810a-ea48-4652-b488-5274535ec11b","system_id":"levelo_inurba_marseille","lat":43.24174,"lon":5.36389,"is_reserved":false,"is_disabled":false,"rental_uris":{"android":"levelo://app?vid=650f810a-ea48-4652-b488-5274535ec11b","ios":"levelo://app?vid=650f810a-ea48-4652-b488-5274535ec11b"},"vehicle_type_id":"4","last_reported":1752260878,"current_range_meters":14000,"station_id":"cpo36qri1sfpv3e86is0","pricing_plan_id":"cebpf4jnsgd1na2vs0mg"},{"bike_id":"3c6d58a7-dff6-4bee-9fd8-b631ce77a6c6","system_id":"levelo_inurba_marseille","lat":43.29172,"lon":5.37154,"is_reserved":false,"is_disabled":false,"rental_uris":{"android":"levelo://app?vid=3c6d58a7-dff6-4bee-9fd8-b631ce77a6c6","ios":"levelo://app?vid=3c6d58a7-dff6-4bee-9fd8-b631ce77a6c6"},"vehicle_type_id":"4","last_reported":1752260878,"current_range_meters":14000,"station_id":"ce4bha92rcd13ifvqeh0","pricing_plan_id":"cebpf4jnsgd1na2vs0mg"},{"bike_id":"530fdaa0-3dcf-48bd-ae6d-18f67ca1c283","system_id":"levelo_inurba_marseille","lat":43.297111,"lon":5.366155,"is_reserved":false,"is_disabled":false,"rental_uris":{"android":"levelo://app?vid=530fdaa0-3dcf-48bd-ae6d-18f67ca1c283","ios":"levelo://app?vid=530fdaa0-3dcf-48bd-ae6d-18f67ca1c283"},"vehicle_type_id":"4","last_reported":1752260878,"current_range_meters":14400,"station_id":"","pricing_plan_id":"cebpf4jnsgd1na2vs0mg"},{"bike_id":"85758837-e8e8-429b-9b62-411361adebf1","system_id":"levelo_inurba_marseille","lat":43.31759,"lon":5.39012,"is_reserved":false,"is_disabled":true,"rental_uris":{"android":"levelo://app?vid=85758837-e8e8-429b-9b62-411361adebf1","ios":"levelo://app?vid=85758837-e8e8-429b-9b62-411361adebf1"},"vehicle_type_id":"4","last_reported":1752260878,"current_range_meters":14400,"station_id":"ce4bhqp2rcd13ifvqhng","pricing_plan_id":"cebpf4jnsgd1na2vs0mg"},{"bike_id":"63cc7d51-12cf-445c-9bdb-fae871aeef22","system_id":"levelo_inurba_marseille","lat":43.28931,"lon":5.36632,"is_reserved":false,"is_disabled":false,"rental_uris":{"android":"levelo://app?vid=63cc7d51-12cf-445c-9bdb-fae871aeef22","ios":"levelo://app?vid=63cc7d51-12cf-445c-9bdb-fae871aeef22"},"vehicle_type_id":"4","last_reported":1752260878,"current_range_meters":14400,"station_id":"ce4bhap2rcd13ifvqek0","pricing_plan_id":"cebpf4jnsgd1na2vs0mg"},{"bike_id":"960a83b9-1020-4c3a-aca0-64150ec1ca91","system_id":"levelo_inurba_marseille","lat":43.28292,"lon":5.39071,"is_reserved":false,"is_disabled":false,"rental_uris":{"android":"levelo://app?vid=960a83b9-1020-4c3a-aca0-64150ec1ca91","ios":"levelo://app?vid=960a83b9-1020-4c3a-aca0-64150ec1ca91"},"vehicle_type_id":"4","last_reported":1752260878,"current_range_meters":14800,"station_id":"","pricing_plan_id":"cebpf4jnsgd1na2vs0mg"},{"bike_id":"e8e03632-b9d1-480f-a4da-da482a543464","system_id":"levelo_inurba_marseille","lat":43.29046,"lon":5.37556,"is_reserved":false,"is_disabled":true,"rental_uris":{"android":"levelo://app?vid=e8e03632-b9d1-480f-a4da-da482a543464","ios":"levelo://app?vid=e8e03632-b9d1-480f-a4da-da482a543464"},"vehicle_type_id":"4","last_reported":1752260878,"current_range_meters":14800,"station_id":"ce4bh692rcd13ifvqe90","pricing_plan_id":"cebpf4jnsgd1na2vs0mg"},{"bike_id":"a9001741-1745-49c0-afeb-e7f128011c9f","system_id":"levelo_inurba_marseille","lat":43.28442,"lon":5.34972,"is_reserved":false,"is_disabled":false,"rental_uris":{"android":"levelo://app?vid=a9001741-1745-49c0-afeb-e7f128011c9f","ios":"levelo://app?vid=a9001741-1745-49c0-afeb-e7f128011c9f"},"vehicle_type_id":"4","last_reported":1752260878,"current_range_meters":14800,"station_id":"ce4bhbh2rcd13ifvqepg","pricing_plan_id":"cebpf4jnsgd1na2vs0mg"},{"bike_id":"dafa5a87-b26d-4379-9a6b-1f02133b78a6","system_id":"levelo_inurba_marseille","lat":43.21232,"lon":5.35049,"is_reserved":false,"is_disabled":false,"rental_uris":{"android":"levelo://app?vid=dafa5a87-b26d-4379-9a6b-1f02133b78a6","ios":"levelo://app?vid=dafa5a87-b26d-4379-9a6b-1f02133b78a6"},"vehicle_type_id":"4","last_reported":1752260878,"current_range_meters":14800,"station_id":"st_cvj6sg6p6f1abm77japg","pricing_plan_id":"cebpf4jnsgd1na2vs0mg"},{"bike_id":"0a1dab11-52ea-4852-9c65-bd39f5e8f05f","system_id":"levelo_inurba_marseille","lat":43.27842,"lon":5.39202,"is_reserved":false,"is_disabled":false,"rental_uris":{"android":"levelo://app?vid=0a1dab11-52ea-4852-9c65-bd39f5e8f05f","ios":"levelo://app?vid=0a1dab11-52ea-4852-9c65-bd39f5e8f05f"},"vehicle_type_id":"4","last_reported":1752260878,"current_range_meters":14800,"station_id":"ce4bhjp2rcd13ifvqga0","pricing_plan_id":"cebpf4jnsgd1na2vs0mg"},{"bike_id":"7b5cd6ce-df57-4328-854d-cb2d1407ab18","system_id":"levelo_inurba_marseille","lat":43.33032,"lon":5.39045,"is_reserved":false,"is_disabled":false,"rental_uris":{"android":"levelo://app?vid=7b5cd6ce-df57-4328-854d-cb2d1407ab18","ios":"levelo://app?vid=7b5cd6ce-df57-4328-854d-cb2d1407ab18"},"vehicle_type_id":"4","last_reported":1752260878,"current_range_meters":14800,"station_id":"ce4bhr92rcd13ifvqhrg","pricing_plan_id":"cebpf4jnsgd1na2vs0mg"},{"bike_id":"ceb8bcf8-9e11-4102-bd78-9a687c0c96d2","system_id":"levelo_inurba_marseille","lat":43.28925,"lon":5.38397,"is_reserved":false,"is_disabled":true,"rental_uris":{"android":"levelo://app?vid=ceb8bcf8-9e11-4102-bd78-9a687c0c96d2","ios":"levelo://app?vid=ceb8bcf8-9e11-4102-bd78-9a687c0c96d2"},"vehicle_type_id":"4","last_reported":1752260878,"current_range_meters":15200,"station_id":"ce4bh612rcd13ifvqe6g","pricing_plan_id":"cebpf4jnsgd1na2vs0mg"},{"bike_id":"8b2e304f-bdfc-4c65-9cae-9c8089cc9da6","system_id":"levelo_inurba_marseille","lat":43.2842,"lon":5.34985,"is_reserved":false,"is_disabled":false,"rental_uris":{"android":"levelo://app?vid=8b2e304f-bdfc-4c65-9cae-9c8089cc9da6","ios":"levelo://app?vid=8b2e304f-bdfc-4c65-9cae-9c8089cc9da6"},"vehicle_type_id":"4","last_reported":1752260878,"current_range_meters":15200,"station_id":"ce4bhbh2rcd13ifvqepg","pricing_plan_id":"cebpf4jnsgd1na2vs0mg"},{"bike_id":"8929c1bf-fd4d-44e4-aa66-b3eb6538c998","system_id":"levelo_inurba_marseille","lat":43.28562,"lon":5.42975,"is_reserved":false,"is_disabled":false,"rental_uris":{"android":"levelo://app?vid=8929c1bf-fd4d-44e4-aa66-b3eb6538c998","ios":"levelo://app?vid=8929c1bf-fd4d-44e4-aa66-b3eb6538c998"},"vehicle_type_id":"4","last_reported":1752260878,"current_range_meters":15200,"station_id":"","pricing_plan_id":"cebpf4jnsgd1na2vs0mg"},{"bike_id":"d1aeb9c3-388b-4935-9e40-526bdf901096","system_id":"levelo_inurba_marseille","lat":43.29684,"lon":5.37281,"is_reserved":false,"is_disabled":false,"rental_uris":{"android":"levelo://app?vid=d1aeb9c3-388b-4935-9e40-526bdf901096","ios":"levelo://app?vid=d1aeb9c3-388b-4935-9e40-526bdf901096"},"vehicle_type_id":"4","last_reported":1752260878,"current_range_meters":15200,"station_id":"ce4bgk12rcd13ifvqbj0","pricing_plan_id":"cebpf4jnsgd1na2vs0mg"},{"bike_id":"19a02a0f-5dfd-49cd-885f-c8d4907e9cdb","system_id":"levelo_inurba_marseille","lat":43.29367,"lon":5.37848,"is_reserved":false,"is_disabled":false,"rental_uris":{"android":"levelo://app?vid=19a02a0f-5dfd-49cd-885f-c8d4907e9cdb","ios":"levelo://app?vid=19a02a0f-5dfd-49cd-885f-c8d4907e9cdb"},"vehicle_type_id":"4","last_reported":1752260878,"current_range_meters":15200,"station_id":"ce4bgjh2rcd13ifvqbf0","pricing_plan_id":"cebpf4jnsgd1na2vs0mg"},{"bike_id":"e51da3c1-8ab5-47c5-abee-45829a7c0aac","system_id":"levelo_inurba_marseille","lat":43.27321,"lon":5.3908,"is_reserved":false,"is_disabled":true,"rental_uris":{"android":"levelo://app?vid=e51da3c1-8ab5-47c5-abee-45829a7c0aac","ios":"levelo://app?vid=e51da3c1-8ab5-47c5-abee-45829a7c0aac"},"vehicle_type_id":"4","last_reported":1752260878,"current_range_meters":15200,"station_id":"ce4bhgp2rcd13ifvqfe0","pricing_plan_id":"cebpf4jnsgd1na2vs0mg"},{"bike_id":"30c25f9f-0614-4758-a0b5-b205184c9a1e","system_id":"levelo_inurba_marseille","lat":43.29789,"lon":5.37105,"is_reserved":false,"is_disabled":false,"rental_uris":{"android":"levelo://app?vid=30c25f9f-0614-4758-a0b5-b205184c9a1e","ios":"levelo://app?vid=30c25f9f-0614-4758-a0b5-b205184c9a1e"},"vehicle_type_id":"4","last_reported":1752260878,"current_range_meters":15200,"station_id":"ce4bgop2rcd13ifvqc1g","pricing_plan_id":"cebpf4jnsgd1na2vs0mg"},{"bike_id":"45bf7bb2-07d1-4864-86fe-8e74a893ff6b","system_id":"levelo_inurba_marseille","lat":43.2841,"lon":5.34981,"is_reserved":false,"is_disabled":false,"rental_uris":{"android":"levelo://app?vid=45bf7bb2-07d1-4864-86fe-8e74a893ff6b","ios":"levelo://app?vid=45bf7bb2-07d1-4864-86fe-8e74a893ff6b"},"vehicle_type_id":"4","last_reported":1752260878,"current_range_meters":15200,"station_id":"ce4bhbh2rcd13ifvqepg","pricing_plan_id":"cebpf4jnsgd1na2vs0mg"},{"bike_id":"d05e987d-6766-4c70-b7d6-4c4ecf5a7258","system_id":"levelo_inurba_marseille","lat":43.28408,"lon":5.35,"is_reserved":false,"is_disabled":false,"rental_uris":{"android":"levelo://app?vid=d05e987d-6766-4c70-b7d6-4c4ecf5a7258","ios":"levelo://app?vid=d05e987d-6766-4c70-b7d6-4c4ecf5a7258"},"vehicle_type_id":"4","last_reported":1752260878,"current_range_meters":15200,"station_id":"ce4bhbh2rcd13ifvqepg","pricing_plan_id":"cebpf4jnsgd1na2vs0mg"},{"bike_id":"35be440e-a060-4d9b-aa90-a9385e9e9f4c","system_id":"levelo_inurba_marseille","lat":43.28408,"lon":5.34981,"is_reserved":false,"is_disabled":false,"rental_uris":{"android":"levelo://app?vid=35be440e-a060-4d9b-aa90-a9385e9e9f4c","ios":"levelo://app?vid=35be440e-a060-4d9b-aa90-a9385e9e9f4c"},"vehicle_type_id":"4","last_reported":1752260878,"current_range_meters":15200,"station_id":"ce4bhbh2rcd13ifvqepg","pricing_plan_id":"cebpf4jnsgd1na2vs0mg"},{"bike_id":"e8b81af6-10a0-4713-a1a1-c8adf859f7f3","system_id":"levelo_inurba_marseille","lat":43.29588,"lon":5.37497,"is_reserved":false,"is_disabled":false,"rental_uris":{"android":"levelo://app?vid=e8b81af6-10a0-4713-a1a1-c8adf859f7f3","ios":"levelo://app?vid=e8b81af6-10a0-4713-a1a1-c8adf859f7f3"},"vehicle_type_id":"4","last_reported":1752260878,"current_range_meters":15200,"station_id":"ce4bgh92rcd13ifvqb50","pricing_plan_id":"cebpf4jnsgd1na2vs0mg"},{"bike_id":"3101cd84-baaf-4622-bf6a-d5ec7f87f71a","system_id":"levelo_inurba_marseille","lat":43.27372,"lon":5.36255,"is_reserved":false,"is_disabled":false,"rental_uris":{"android":"levelo://app?vid=3101cd84-baaf-4622-bf6a-d5ec7f87f71a","ios":"levelo://app?vid=3101cd84-baaf-4622-bf6a-d5ec7f87f71a"},"vehicle_type_id":"4","last_reported":1752260878,"current_range_meters":16000,"station_id":"ce4bhbh2rcd13ifvqeo0","pricing_plan_id":"cebpf4jnsgd1na2vs0mg"},{"bike_id":"cb311608-0c78-49bf-8b9b-4a50cc5c90e8","system_id":"levelo_inurba_marseille","lat":43.24651,"lon":5.38907,"is_reserved":false,"is_disabled":false,"rental_uris":{"android":"levelo://app?vid=cb311608-0c78-49bf-8b9b-4a50cc5c90e8","ios":"levelo://app?vid=cb311608-0c78-49bf-8b9b-4a50cc5c90e8"},"vehicle_type_id":"4","last_reported":1752260878,"current_range_meters":16000,"station_id":"ce4bhg12rcd13ifvqf60","pricing_plan_id":"cebpf4jnsgd1na2vs0mg"},{"bike_id":"e9fd0cf8-573b-4177-88a6-f1faf33e8aca","system_id":"levelo_inurba_marseille","lat":43.28984,"lon":5.35603,"is_reserved":false,"is_disabled":true,"rental_uris":{"android":"levelo://app?vid=e9fd0cf8-573b-4177-88a6-f1faf33e8aca","ios":"levelo://app?vid=e9fd0cf8-573b-4177-88a6-f1faf33e8aca"},"vehicle_type_id":"4","last_reported":1752260878,"current_range_meters":16000,"station_id":"ce4bhb92rcd13ifvqen0","pricing_plan_id":"cebpf4jnsgd1na2vs0mg"},{"bike_id":"bfa0389a-0b2b-445f-a6e9-e203440a094a","system_id":"levelo_inurba_marseille","lat":43.21747,"lon":5.34603,"is_reserved":false,"is_disabled":false,"rental_uris":{"android":"levelo://app?vid=bfa0389a-0b2b-445f-a6e9-e203440a094a","ios":"levelo://app?vid=bfa0389a-0b2b-445f-a6e9-e203440a094a"},"vehicle_type_id":"4","last_reported":1752260878,"current_range_meters":16000,"station_id":"st_cvj6r9ubvosntc0bgbag","pricing_plan_id":"cebpf4jnsgd1na2vs0mg"},{"bike_id":"43b90c82-97e0-4fa7-8b67-2448f07d529e","system_id":"levelo_inurba_marseille","lat":43.2119,"lon":5.35066,"is_reserved":false,"is_disabled":false,"rental_uris":{"android":"levelo://app?vid=43b90c82-97e0-4fa7-8b67-2448f07d529e","ios":"levelo://app?vid=43b90c82-97e0-4fa7-8b67-2448f07d529e"},"vehicle_type_id":"4","last_reported":1752260878,"current_range_meters":16000,"station_id":"","pricing_plan_id":"cebpf4jnsgd1na2vs0mg"},{"bike_id":"3d9d8cf5-ffe3-4309-8b33-36ddb73432d5","system_id":"levelo_inurba_marseille","lat":43.26023,"lon":5.37545,"is_reserved":false,"is_disabled":false,"rental_uris":{"android":"levelo://app?vid=3d9d8cf5-ffe3-4309-8b33-36ddb73432d5","ios":"levelo://app?vid=3d9d8cf5-ffe3-4309-8b33-36ddb73432d5"},"vehicle_type_id":"4","last_reported":1752260878,"current_range_meters":17200,"station_id":"ce4bhgh2rcd13ifvqfa0","pricing_plan_id":"cebpf4jnsgd1na2vs0mg"},{"bike_id":"6e668d6d-7714-4b0f-b45e-ed505ef5b4c7","system_id":"levelo_inurba_marseille","lat":43.28407,"lon":5.34975,"is_reserved":false,"is_disabled":false,"rental_uris":{"android":"levelo://app?vid=6e668d6d-7714-4b0f-b45e-ed505ef5b4c7","ios":"levelo://app?vid=6e668d6d-7714-4b0f-b45e-ed505ef5b4c7"},"vehicle_type_id":"4","last_reported":1752260878,"current_range_meters":16000,"station_id":"ce4bhbh2rcd13ifvqepg","pricing_plan_id":"cebpf4jnsgd1na2vs0mg"},{"bike_id":"b5d9c4b0-7874-48f9-a2b6-109f176a3691","system_id":"levelo_inurba_marseille","lat":43.28618,"lon":5.35107,"is_reserved":false,"is_disabled":false,"rental_uris":{"android":"levelo://app?vid=b5d9c4b0-7874-48f9-a2b6-109f176a3691","ios":"levelo://app?vid=b5d9c4b0-7874-48f9-a2b6-109f176a3691"},"vehicle_type_id":"4","last_reported":1752260878,"current_range_meters":16000,"station_id":"ce4bhch2rcd13ifvqeug","pricing_plan_id":"cebpf4jnsgd1na2vs0mg"},{"bike_id":"37b84a38-055a-4a6e-a56a-8ff3d0c1b2ec","system_id":"levelo_inurba_marseille","lat":43.2119,"lon":5.35075,"is_reserved":false,"is_disabled":false,"rental_uris":{"android":"levelo://app?vid=37b84a38-055a-4a6e-a56a-8ff3d0c1b2ec","ios":"levelo://app?vid=37b84a38-055a-4a6e-a56a-8ff3d0c1b2ec"},"vehicle_type_id":"4","last_reported":1752260878,"current_range_meters":16000,"station_id":"st_cvj6sg6p6f1abm77japg","pricing_plan_id":"cebpf4jnsgd1na2vs0mg"},{"bike_id":"9b97cb41-347a-4273-b104-59f6ed2c3947","system_id":"levelo_inurba_marseille","lat":43.246656,"lon":5.381678,"is_reserved":false,"is_disabled":false,"rental_uris":{"android":"levelo://app?vid=9b97cb41-347a-4273-b104-59f6ed2c3947","ios":"levelo://app?vid=9b97cb41-347a-4273-b104-59f6ed2c3947"},"vehicle_type_id":"4","last_reported":1752260878,"current_range_meters":16000,"station_id":"ce4bhih2rcd13ifvqfr0","pricing_plan_id":"cebpf4jnsgd1na2vs0mg"},{"bike_id":"dbba3321-20c7-4989-a7b5-ea9ab2c4b3e8","system_id":"levelo_inurba_marseille","lat":43.261935,"lon":5.374477,"is_reserved":false,"is_disabled":false,"rental_uris":{"android":"levelo://app?vid=dbba3321-20c7-4989-a7b5-ea9ab2c4b3e8","ios":"levelo://app?vid=dbba3321-20c7-4989-a7b5-ea9ab2c4b3e8"},"vehicle_type_id":"4","last_reported":1752260878,"current_range_meters":16000,"station_id":"ce4bhgp2rcd13ifvqfc0","pricing_plan_id":"cebpf4jnsgd1na2vs0mg"},{"bike_id":"8fccf46e-4269-459a-bd9a-cdd93f6b32bc","system_id":"levelo_inurba_marseille","lat":43.3035,"lon":5.41866,"is_reserved":false,"is_disabled":true,"rental_uris":{"android":"levelo://app?vid=8fccf46e-4269-459a-bd9a-cdd93f6b32bc","ios":"levelo://app?vid=8fccf46e-4269-459a-bd9a-cdd93f6b32bc"},"vehicle_type_id":"4","last_reported":1752260878,"current_range_meters":16400,"station_id":"ce4bhop2rcd13ifvqh7g","pricing_plan_id":"cebpf4jnsgd1na2vs0mg"},{"bike_id":"c4186b93-a8e0-4fdd-8535-e82439076e88","system_id":"levelo_inurba_marseille","lat":43.29272,"lon":5.36843,"is_reserved":false,"is_disabled":false,"rental_uris":{"android":"levelo://app?vid=c4186b93-a8e0-4fdd-8535-e82439076e88","ios":"levelo://app?vid=c4186b93-a8e0-4fdd-8535-e82439076e88"},"vehicle_type_id":"4","last_reported":1752260878,"current_range_meters":16400,"station_id":"ce4bhbp2rcd13ifvqesg","pricing_plan_id":"cebpf4jnsgd1na2vs0mg"},{"bike_id":"61198919-e72c-4fce-bc96-126627987dc0","system_id":"levelo_inurba_marseille","lat":43.29586,"lon":5.37885,"is_reserved":false,"is_disabled":false,"rental_uris":{"android":"levelo://app?vid=61198919-e72c-4fce-bc96-126627987dc0","ios":"levelo://app?vid=61198919-e72c-4fce-bc96-126627987dc0"},"vehicle_type_id":"4","last_reported":1752260878,"current_range_meters":16400,"station_id":"","pricing_plan_id":"cebpf4jnsgd1na2vs0mg"},{"bike_id":"eb6a2290-40e2-4780-bdeb-a149c699215d","system_id":"levelo_inurba_marseille","lat":43.27959,"lon":5.41036,"is_reserved":false,"is_disabled":false,"rental_uris":{"android":"levelo://app?vid=eb6a2290-40e2-4780-bdeb-a149c699215d","ios":"levelo://app?vid=eb6a2290-40e2-4780-bdeb-a149c699215d"},"vehicle_type_id":"4","last_reported":1752260878,"current_range_meters":16400,"station_id":"ce4bhnp2rcd13ifvqh0g","pricing_plan_id":"cebpf4jnsgd1na2vs0mg"},{"bike_id":"f411c058-357c-4a2c-9d1d-57c91a9614a8","system_id":"levelo_inurba_marseille","lat":43.29256,"lon":5.37603,"is_reserved":false,"is_disabled":false,"rental_uris":{"android":"levelo://app?vid=f411c058-357c-4a2c-9d1d-57c91a9614a8","ios":"levelo://app?vid=f411c058-357c-4a2c-9d1d-57c91a9614a8"},"vehicle_type_id":"4","last_reported":1752260878,"current_range_meters":16400,"station_id":"ce4bgi12rcd13ifvqb80","pricing_plan_id":"cebpf4jnsgd1na2vs0mg"},{"bike_id":"4676b70b-a793-42b3-b222-c7aeffcffb22","system_id":"levelo_inurba_marseille","lat":43.24073,"lon":5.37758,"is_reserved":false,"is_disabled":false,"rental_uris":{"android":"levelo://app?vid=4676b70b-a793-42b3-b222-c7aeffcffb22","ios":"levelo://app?vid=4676b70b-a793-42b3-b222-c7aeffcffb22"},"vehicle_type_id":"4","last_reported":1752260878,"current_range_meters":16400,"station_id":"ce4bhnp2rcd13ifvqgvg","pricing_plan_id":"cebpf4jnsgd1na2vs0mg"},{"bike_id":"a0138538-145e-45b9-aebb-fed41925ecaf","system_id":"levelo_inurba_marseille","lat":43.23535,"lon":5.36005,"is_reserved":false,"is_disabled":false,"rental_uris":{"android":"levelo://app?vid=a0138538-145e-45b9-aebb-fed41925ecaf","ios":"levelo://app?vid=a0138538-145e-45b9-aebb-fed41925ecaf"},"vehicle_type_id":"4","last_reported":1752260878,"current_range_meters":16400,"station_id":"","pricing_plan_id":"cebpf4jnsgd1na2vs0mg"},{"bike_id":"75fdea33-3bed-46d2-8df9-bc1de569a0c7","system_id":"levelo_inurba_marseille","lat":43.24799,"lon":5.3745,"is_reserved":false,"is_disabled":false,"rental_uris":{"android":"levelo://app?vid=75fdea33-3bed-46d2-8df9-bc1de569a0c7","ios":"levelo://app?vid=75fdea33-3bed-46d2-8df9-bc1de569a0c7"},"vehicle_type_id":"4","last_reported":1752260878,"current_range_meters":16400,"station_id":"ce4bhgh2rcd13ifvqfb0","pricing_plan_id":"cebpf4jnsgd1na2vs0mg"},{"bike_id":"dec79083-f64d-4581-83ac-21134da7f570","system_id":"levelo_inurba_marseille","lat":43.29296,"lon":5.37392,"is_reserved":false,"is_disabled":false,"rental_uris":{"android":"levelo://app?vid=dec79083-f64d-4581-83ac-21134da7f570","ios":"levelo://app?vid=dec79083-f64d-4581-83ac-21134da7f570"},"vehicle_type_id":"4","last_reported":1752260878,"current_range_meters":16400,"station_id":"ce4bgi12rcd13ifvqb70","pricing_plan_id":"cebpf4jnsgd1na2vs0mg"},{"bike_id":"86b4ccc2-c9fb-4fa3-8d18-fe343c58bdd6","system_id":"levelo_inurba_marseille","lat":43.30149,"lon":5.37424,"is_reserved":false,"is_disabled":false,"rental_uris":{"android":"levelo://app?vid=86b4ccc2-c9fb-4fa3-8d18-fe343c58bdd6","ios":"levelo://app?vid=86b4ccc2-c9fb-4fa3-8d18-fe343c58bdd6"},"vehicle_type_id":"4","last_reported":1752260878,"current_range_meters":16400,"station_id":"ce4bgs92rcd13ifvqcc0","pricing_plan_id":"cebpf4jnsgd1na2vs0mg"},{"bike_id":"e86ba8c9-208d-482c-a826-4c100938472a","system_id":"levelo_inurba_marseille","lat":43.21188,"lon":5.35062,"is_reserved":false,"is_disabled":false,"rental_uris":{"android":"levelo://app?vid=e86ba8c9-208d-482c-a826-4c100938472a","ios":"levelo://app?vid=e86ba8c9-208d-482c-a826-4c100938472a"},"vehicle_type_id":"4","last_reported":1752260878,"current_range_meters":16400,"station_id":"st_cvj6sg6p6f1abm77japg","pricing_plan_id":"cebpf4jnsgd1na2vs0mg"},{"bike_id":"c453155a-5220-48fc-922b-600ca54f8ab5","system_id":"levelo_inurba_marseille","lat":43.28658,"lon":5.36337,"is_reserved":false,"is_disabled":true,"rental_uris":{"android":"levelo://app?vid=c453155a-5220-48fc-922b-600ca54f8ab5","ios":"levelo://app?vid=c453155a-5220-48fc-922b-600ca54f8ab5"},"vehicle_type_id":"4","last_reported":1752260878,"current_range_meters":16400,"station_id":"ce4bhah2rcd13ifvqej0","pricing_plan_id":"cebpf4jnsgd1na2vs0mg"},{"bike_id":"cb704031-1825-4322-939a-68e7562f57f6","system_id":"levelo_inurba_marseille","lat":43.29556,"lon":5.4227,"is_reserved":false,"is_disabled":false,"rental_uris":{"android":"levelo://app?vid=cb704031-1825-4322-939a-68e7562f57f6","ios":"levelo://app?vid=cb704031-1825-4322-939a-68e7562f57f6"},"vehicle_type_id":"4","last_reported":1752260878,"current_range_meters":16400,"station_id":"ce4bhph2rcd13ifvqhdg","pricing_plan_id":"cebpf4jnsgd1na2vs0mg"},{"bike_id":"7eac452f-936d-4848-949a-4cc39c421116","system_id":"levelo_inurba_marseille","lat":43.29267,"lon":5.3844,"is_reserved":false,"is_disabled":false,"rental_uris":{"android":"levelo://app?vid=7eac452f-936d-4848-949a-4cc39c421116","ios":"levelo://app?vid=7eac452f-936d-4848-949a-4cc39c421116"},"vehicle_type_id":"4","last_reported":1752260878,"current_range_meters":16800,"station_id":"ce4bh692rcd13ifvqea0","pricing_plan_id":"cebpf4jnsgd1na2vs0mg"},{"bike_id":"e583a3dc-dd22-46fc-8cba-1c29227ee81c","system_id":"levelo_inurba_marseille","lat":43.27397,"lon":5.39542,"is_reserved":false,"is_disabled":false,"rental_uris":{"android":"levelo://app?vid=e583a3dc-dd22-46fc-8cba-1c29227ee81c","ios":"levelo://app?vid=e583a3dc-dd22-46fc-8cba-1c29227ee81c"},"vehicle_type_id":"4","last_reported":1752260878,"current_range_meters":16800,"station_id":"","pricing_plan_id":"cebpf4jnsgd1na2vs0mg"},{"bike_id":"9885fa76-988a-4542-9cf6-e8ded7344714","system_id":"levelo_inurba_marseille","lat":43.29579,"lon":5.37515,"is_reserved":false,"is_disabled":false,"rental_uris":{"android":"levelo://app?vid=9885fa76-988a-4542-9cf6-e8ded7344714","ios":"levelo://app?vid=9885fa76-988a-4542-9cf6-e8ded7344714"},"vehicle_type_id":"4","last_reported":1752260878,"current_range_meters":16800,"station_id":"ce4bgh92rcd13ifvqb50","pricing_plan_id":"cebpf4jnsgd1na2vs0mg"},{"bike_id":"22863817-fe84-4718-aac4-ae3c5613cf9e","system_id":"levelo_inurba_marseille","lat":43.29306,"lon":5.37178,"is_reserved":false,"is_disabled":false,"rental_uris":{"android":"levelo://app?vid=22863817-fe84-4718-aac4-ae3c5613cf9e","ios":"levelo://app?vid=22863817-fe84-4718-aac4-ae3c5613cf9e"},"vehicle_type_id":"4","last_reported":1752260878,"current_range_meters":12400,"station_id":"ce4bgh92rcd13ifvqb40","pricing_plan_id":"cebpf4jnsgd1na2vs0mg"},{"bike_id":"e824e29e-81bb-4bc0-82bc-78aadc1bb176","system_id":"levelo_inurba_marseille","lat":43.26567,"lon":5.39008,"is_reserved":false,"is_disabled":false,"rental_uris":{"android":"levelo://app?vid=e824e29e-81bb-4bc0-82bc-78aadc1bb176","ios":"levelo://app?vid=e824e29e-81bb-4bc0-82bc-78aadc1bb176"},"vehicle_type_id":"4","last_reported":1752260878,"current_range_meters":16800,"station_id":"ce4bhe12rcd13ifvqf30","pricing_plan_id":"cebpf4jnsgd1na2vs0mg"},{"bike_id":"57943c27-05a4-4be3-a2cb-ccdfb4d1678c","system_id":"levelo_inurba_marseille","lat":43.27174,"lon":5.40997,"is_reserved":false,"is_disabled":false,"rental_uris":{"android":"levelo://app?vid=57943c27-05a4-4be3-a2cb-ccdfb4d1678c","ios":"levelo://app?vid=57943c27-05a4-4be3-a2cb-ccdfb4d1678c"},"vehicle_type_id":"4","last_reported":1752260878,"current_range_meters":16800,"station_id":"ce4bhl12rcd13ifvqgf0","pricing_plan_id":"cebpf4jnsgd1na2vs0mg"},{"bike_id":"22b95231-7ba9-4581-b09a-0fe42a41f9e5","system_id":"levelo_inurba_marseille","lat":43.2978,"lon":5.37084,"is_reserved":false,"is_disabled":false,"rental_uris":{"android":"levelo://app?vid=22b95231-7ba9-4581-b09a-0fe42a41f9e5","ios":"levelo://app?vid=22b95231-7ba9-4581-b09a-0fe42a41f9e5"},"vehicle_type_id":"4","last_reported":1752260878,"current_range_meters":16800,"station_id":"ce4bgop2rcd13ifvqc1g","pricing_plan_id":"cebpf4jnsgd1na2vs0mg"},{"bike_id":"452e8211-4f44-45d0-814a-3e9e25b8c44e","system_id":"levelo_inurba_marseille","lat":43.21196,"lon":5.35075,"is_reserved":false,"is_disabled":false,"rental_uris":{"android":"levelo://app?vid=452e8211-4f44-45d0-814a-3e9e25b8c44e","ios":"levelo://app?vid=452e8211-4f44-45d0-814a-3e9e25b8c44e"},"vehicle_type_id":"4","last_reported":1752260878,"current_range_meters":16800,"station_id":"st_cvj6sg6p6f1abm77japg","pricing_plan_id":"cebpf4jnsgd1na2vs0mg"},{"bike_id":"c1a50c0b-f936-43bd-8298-134ff7ff52a8","system_id":"levelo_inurba_marseille","lat":43.27914,"lon":5.39573,"is_reserved":false,"is_disabled":false,"rental_uris":{"android":"levelo://app?vid=c1a50c0b-f936-43bd-8298-134ff7ff52a8","ios":"levelo://app?vid=c1a50c0b-f936-43bd-8298-134ff7ff52a8"},"vehicle_type_id":"4","last_reported":1752260878,"current_range_meters":16800,"station_id":"ce4bhf92rcd13ifvqf40","pricing_plan_id":"cebpf4jnsgd1na2vs0mg"},{"bike_id":"3427aacd-bedb-4603-9854-c7d6c2517d0c","system_id":"levelo_inurba_marseille","lat":43.2804,"lon":5.36945,"is_reserved":false,"is_disabled":false,"rental_uris":{"android":"levelo://app?vid=3427aacd-bedb-4603-9854-c7d6c2517d0c","ios":"levelo://app?vid=3427aacd-bedb-4603-9854-c7d6c2517d0c"},"vehicle_type_id":"4","last_reported":1752260878,"current_range_meters":16800,"station_id":"ce4bha12rcd13ifvqef0","pricing_plan_id":"cebpf4jnsgd1na2vs0mg"},{"bike_id":"ed019ecd-f4ca-470f-953e-821f34892065","system_id":"levelo_inurba_marseille","lat":43.3056,"lon":5.36681,"is_reserved":false,"is_disabled":true,"rental_uris":{"android":"levelo://app?vid=ed019ecd-f4ca-470f-953e-821f34892065","ios":"levelo://app?vid=ed019ecd-f4ca-470f-953e-821f34892065"},"vehicle_type_id":"4","last_reported":1752260878,"current_range_meters":17200,"station_id":"","pricing_plan_id":"cebpf4jnsgd1na2vs0mg"},{"bike_id":"5fb1fcab-8ea7-4a75-8b3a-a6567f7168ca","system_id":"levelo_inurba_marseille","lat":43.296844,"lon":5.37297,"is_reserved":false,"is_disabled":false,"rental_uris":{"android":"levelo://app?vid=5fb1fcab-8ea7-4a75-8b3a-a6567f7168ca","ios":"levelo://app?vid=5fb1fcab-8ea7-4a75-8b3a-a6567f7168ca"},"vehicle_type_id":"4","last_reported":1752260878,"current_range_meters":17200,"station_id":"ce4bgg92rcd13ifvqb30","pricing_plan_id":"cebpf4jnsgd1na2vs0mg"},{"bike_id":"283949a9-7f5c-4571-bfd3-230d3c23eba8","system_id":"levelo_inurba_marseille","lat":43.31346,"lon":5.36722,"is_reserved":false,"is_disabled":false,"rental_uris":{"android":"levelo://app?vid=283949a9-7f5c-4571-bfd3-230d3c23eba8","ios":"levelo://app?vid=283949a9-7f5c-4571-bfd3-230d3c23eba8"},"vehicle_type_id":"4","last_reported":1752260878,"current_range_meters":17200,"station_id":"ce4bgr92rcd13ifvqc6g","pricing_plan_id":"cebpf4jnsgd1na2vs0mg"},{"bike_id":"61d703a2-9341-4f16-b181-860a7b17fc56","system_id":"levelo_inurba_marseille","lat":43.32286,"lon":5.3827,"is_reserved":false,"is_disabled":false,"rental_uris":{"android":"levelo://app?vid=61d703a2-9341-4f16-b181-860a7b17fc56","ios":"levelo://app?vid=61d703a2-9341-4f16-b181-860a7b17fc56"},"vehicle_type_id":"4","last_reported":1752260878,"current_range_meters":17200,"station_id":"ce4bhr12rcd13ifvqhqg","pricing_plan_id":"cebpf4jnsgd1na2vs0mg"},{"bike_id":"294b7f5c-3552-4be5-b017-0d6cef38e997","system_id":"levelo_inurba_marseille","lat":43.29521,"lon":5.37491,"is_reserved":false,"is_disabled":false,"rental_uris":{"android":"levelo://app?vid=294b7f5c-3552-4be5-b017-0d6cef38e997","ios":"levelo://app?vid=294b7f5c-3552-4be5-b017-0d6cef38e997"},"vehicle_type_id":"4","last_reported":1752260878,"current_range_meters":19200,"station_id":"ce4bgkp2rcd13ifvqbmg","pricing_plan_id":"cebpf4jnsgd1na2vs0mg"},{"bike_id":"e9df902a-afad-4c12-bc1e-9191f6b436a4","system_id":"levelo_inurba_marseille","lat":43.2841,"lon":5.34973,"is_reserved":false,"is_disabled":false,"rental_uris":{"android":"levelo://app?vid=e9df902a-afad-4c12-bc1e-9191f6b436a4","ios":"levelo://app?vid=e9df902a-afad-4c12-bc1e-9191f6b436a4"},"vehicle_type_id":"4","last_reported":1752260878,"current_range_meters":17200,"station_id":"ce4bhbh2rcd13ifvqepg","pricing_plan_id":"cebpf4jnsgd1na2vs0mg"},{"bike_id":"a581eef9-f0fb-4e5d-8be0-84b96bfd2d41","system_id":"levelo_inurba_marseille","lat":43.29374,"lon":5.37851,"is_reserved":false,"is_disabled":true,"rental_uris":{"android":"levelo://app?vid=a581eef9-f0fb-4e5d-8be0-84b96bfd2d41","ios":"levelo://app?vid=a581eef9-f0fb-4e5d-8be0-84b96bfd2d41"},"vehicle_type_id":"4","last_reported":1752260878,"current_range_meters":17200,"station_id":"ce4bgjh2rcd13ifvqbf0","pricing_plan_id":"cebpf4jnsgd1na2vs0mg"},{"bike_id":"598555b4-3749-44cc-8e11-87c397e89037","system_id":"levelo_inurba_marseille","lat":43.24812,"lon":5.37469,"is_reserved":false,"is_disabled":false,"rental_uris":{"android":"levelo://app?vid=598555b4-3749-44cc-8e11-87c397e89037","ios":"levelo://app?vid=598555b4-3749-44cc-8e11-87c397e89037"},"vehicle_type_id":"4","last_reported":1752260878,"current_range_meters":17200,"station_id":"ce4bhgh2rcd13ifvqfb0","pricing_plan_id":"cebpf4jnsgd1na2vs0mg"},{"bike_id":"1fc1989d-87bb-438a-8bd5-8f1c713e9afc","system_id":"levelo_inurba_marseille","lat":43.29569,"lon":5.37514,"is_reserved":false,"is_disabled":false,"rental_uris":{"android":"levelo://app?vid=1fc1989d-87bb-438a-8bd5-8f1c713e9afc","ios":"levelo://app?vid=1fc1989d-87bb-438a-8bd5-8f1c713e9afc"},"vehicle_type_id":"4","last_reported":1752260878,"current_range_meters":17200,"station_id":"ce4bgh92rcd13ifvqb50","pricing_plan_id":"cebpf4jnsgd1na2vs0mg"},{"bike_id":"0f913a9b-568b-4b06-b42d-72297f8b78fd","system_id":"levelo_inurba_marseille","lat":43.34141,"lon":5.40883,"is_reserved":false,"is_disabled":false,"rental_uris":{"android":"levelo://app?vid=0f913a9b-568b-4b06-b42d-72297f8b78fd","ios":"levelo://app?vid=0f913a9b-568b-4b06-b42d-72297f8b78fd"},"vehicle_type_id":"4","last_reported":1752260878,"current_range_meters":17200,"station_id":"ce4bhqh2rcd13ifvqhlg","pricing_plan_id":"cebpf4jnsgd1na2vs0mg"},{"bike_id":"ac722295-2dc2-4710-8a9b-b3e3f1bfbd33","system_id":"levelo_inurba_marseille","lat":43.30796,"lon":5.38148,"is_reserved":false,"is_disabled":false,"rental_uris":{"android":"levelo://app?vid=ac722295-2dc2-4710-8a9b-b3e3f1bfbd33","ios":"levelo://app?vid=ac722295-2dc2-4710-8a9b-b3e3f1bfbd33"},"vehicle_type_id":"4","last_reported":1752260878,"current_range_meters":17200,"station_id":"ce4bgt12rcd13ifvqce0","pricing_plan_id":"cebpf4jnsgd1na2vs0mg"},{"bike_id":"f935446b-e2da-4d99-b6ce-bedfbe34248b","system_id":"levelo_inurba_marseille","lat":43.26197,"lon":5.37448,"is_reserved":false,"is_disabled":false,"rental_uris":{"android":"levelo://app?vid=f935446b-e2da-4d99-b6ce-bedfbe34248b","ios":"levelo://app?vid=f935446b-e2da-4d99-b6ce-bedfbe34248b"},"vehicle_type_id":"4","last_reported":1752260878,"current_range_meters":17200,"station_id":"ce4bhgp2rcd13ifvqfc0","pricing_plan_id":"cebpf4jnsgd1na2vs0mg"},{"bike_id":"a81ede20-43a9-47cd-942d-8fb15c54f5f7","system_id":"levelo_inurba_marseille","lat":43.3007,"lon":5.45153,"is_reserved":false,"is_disabled":false,"rental_uris":{"android":"levelo://app?vid=a81ede20-43a9-47cd-942d-8fb15c54f5f7","ios":"levelo://app?vid=a81ede20-43a9-47cd-942d-8fb15c54f5f7"},"vehicle_type_id":"4","last_reported":1752260878,"current_range_meters":17600,"station_id":"","pricing_plan_id":"cebpf4jnsgd1na2vs0mg"},{"bike_id":"a4366a5b-8d36-43c3-a370-9b9ad9f3085f","system_id":"levelo_inurba_marseille","lat":43.24662,"lon":5.38158,"is_reserved":false,"is_disabled":false,"rental_uris":{"android":"levelo://app?vid=a4366a5b-8d36-43c3-a370-9b9ad9f3085f","ios":"levelo://app?vid=a4366a5b-8d36-43c3-a370-9b9ad9f3085f"},"vehicle_type_id":"4","last_reported":1752260878,"current_range_meters":17600,"station_id":"ce4bhih2rcd13ifvqfr0","pricing_plan_id":"cebpf4jnsgd1na2vs0mg"},{"bike_id":"709c9beb-13f1-45e2-bbd1-0f71d60cf8b2","system_id":"levelo_inurba_marseille","lat":43.309282,"lon":5.401385,"is_reserved":false,"is_disabled":true,"rental_uris":{"android":"levelo://app?vid=709c9beb-13f1-45e2-bbd1-0f71d60cf8b2","ios":"levelo://app?vid=709c9beb-13f1-45e2-bbd1-0f71d60cf8b2"},"vehicle_type_id":"4","last_reported":1752260878,"current_range_meters":17600,"station_id":"ce4bgvp2rcd13ifvqct0","pricing_plan_id":"cebpf4jnsgd1na2vs0mg"},{"bike_id":"d0a77699-a4a6-4fdf-8616-f201e41a6680","system_id":"levelo_inurba_marseille","lat":43.32368,"lon":5.38883,"is_reserved":false,"is_disabled":false,"rental_uris":{"android":"levelo://app?vid=d0a77699-a4a6-4fdf-8616-f201e41a6680","ios":"levelo://app?vid=d0a77699-a4a6-4fdf-8616-f201e41a6680"},"vehicle_type_id":"4","last_reported":1752260878,"current_range_meters":17600,"station_id":"ce4bhqp2rcd13ifvqhog","pricing_plan_id":"cebpf4jnsgd1na2vs0mg"},{"bike_id":"f51f994c-3d8d-42f0-8137-295062a37402","system_id":"levelo_inurba_marseille","lat":43.24807,"lon":5.37448,"is_reserved":false,"is_disabled":false,"rental_uris":{"android":"levelo://app?vid=f51f994c-3d8d-42f0-8137-295062a37402","ios":"levelo://app?vid=f51f994c-3d8d-42f0-8137-295062a37402"},"vehicle_type_id":"4","last_reported":1752260878,"current_range_meters":17600,"station_id":"ce4bhgh2rcd13ifvqfb0","pricing_plan_id":"cebpf4jnsgd1na2vs0mg"},{"bike_id":"d986ab92-05dd-4f8a-9fa1-a9294bba3783","system_id":"levelo_inurba_marseille","lat":43.28616,"lon":5.35091,"is_reserved":false,"is_disabled":false,"rental_uris":{"android":"levelo://app?vid=d986ab92-05dd-4f8a-9fa1-a9294bba3783","ios":"levelo://app?vid=d986ab92-05dd-4f8a-9fa1-a9294bba3783"},"vehicle_type_id":"4","last_reported":1752260878,"current_range_meters":17600,"station_id":"ce4bhch2rcd13ifvqeug","pricing_plan_id":"cebpf4jnsgd1na2vs0mg"},{"bike_id":"4496d9fd-ca1e-4a13-9fa1-6131a74a74ba","system_id":"levelo_inurba_marseille","lat":43.31173,"lon":5.38721,"is_reserved":false,"is_disabled":false,"rental_uris":{"android":"levelo://app?vid=4496d9fd-ca1e-4a13-9fa1-6131a74a74ba","ios":"levelo://app?vid=4496d9fd-ca1e-4a13-9fa1-6131a74a74ba"},"vehicle_type_id":"4","last_reported":1752260878,"current_range_meters":17600,"station_id":"ce4bgv12rcd13ifvqcp0","pricing_plan_id":"cebpf4jnsgd1na2vs0mg"},{"bike_id":"9488d7b6-5def-489c-a7db-826cba8ca431","system_id":"levelo_inurba_marseille","lat":43.29933,"lon":5.3655,"is_reserved":false,"is_disabled":false,"rental_uris":{"android":"levelo://app?vid=9488d7b6-5def-489c-a7db-826cba8ca431","ios":"levelo://app?vid=9488d7b6-5def-489c-a7db-826cba8ca431"},"vehicle_type_id":"4","last_reported":1752260878,"current_range_meters":17600,"station_id":"ce4bgm92rcd13ifvqbr0","pricing_plan_id":"cebpf4jnsgd1na2vs0mg"},{"bike_id":"17dc2d40-3732-44c3-ac13-1f57ddcc496d","system_id":"levelo_inurba_marseille","lat":43.2909,"lon":5.38133,"is_reserved":false,"is_disabled":false,"rental_uris":{"android":"levelo://app?vid=17dc2d40-3732-44c3-ac13-1f57ddcc496d","ios":"levelo://app?vid=17dc2d40-3732-44c3-ac13-1f57ddcc496d"},"vehicle_type_id":"4","last_reported":1752260878,"current_range_meters":18000,"station_id":"ce4bh512rcd13ifvqe2g","pricing_plan_id":"cebpf4jnsgd1na2vs0mg"},{"bike_id":"ba7e3217-8069-471e-8907-7c5152d45243","system_id":"levelo_inurba_marseille","lat":43.26225,"lon":5.40446,"is_reserved":false,"is_disabled":false,"rental_uris":{"android":"levelo://app?vid=ba7e3217-8069-471e-8907-7c5152d45243","ios":"levelo://app?vid=ba7e3217-8069-471e-8907-7c5152d45243"},"vehicle_type_id":"4","last_reported":1752260878,"current_range_meters":18000,"station_id":"ce4bhmh2rcd13ifvqgmg","pricing_plan_id":"cebpf4jnsgd1na2vs0mg"},{"bike_id":"9c5ee3a1-7098-41ee-8487-2b40c0ee5465","system_id":"levelo_inurba_marseille","lat":43.29783,"lon":5.37101,"is_reserved":false,"is_disabled":false,"rental_uris":{"android":"levelo://app?vid=9c5ee3a1-7098-41ee-8487-2b40c0ee5465","ios":"levelo://app?vid=9c5ee3a1-7098-41ee-8487-2b40c0ee5465"},"vehicle_type_id":"4","last_reported":1752260878,"current_range_meters":18000,"station_id":"ce4bgop2rcd13ifvqc1g","pricing_plan_id":"cebpf4jnsgd1na2vs0mg"},{"bike_id":"80a641f5-7c1a-487e-95d5-ce12a89f2881","system_id":"levelo_inurba_marseille","lat":43.26228,"lon":5.40446,"is_reserved":false,"is_disabled":false,"rental_uris":{"android":"levelo://app?vid=80a641f5-7c1a-487e-95d5-ce12a89f2881","ios":"levelo://app?vid=80a641f5-7c1a-487e-95d5-ce12a89f2881"},"vehicle_type_id":"4","last_reported":1752260878,"current_range_meters":18000,"station_id":"ce4bhmh2rcd13ifvqgmg","pricing_plan_id":"cebpf4jnsgd1na2vs0mg"},{"bike_id":"de6b1ed8-c772-4a3a-a755-58b95d2fb5da","system_id":"levelo_inurba_marseille","lat":43.22928,"lon":5.35372,"is_reserved":false,"is_disabled":false,"rental_uris":{"android":"levelo://app?vid=de6b1ed8-c772-4a3a-a755-58b95d2fb5da","ios":"levelo://app?vid=de6b1ed8-c772-4a3a-a755-58b95d2fb5da"},"vehicle_type_id":"4","last_reported":1752260878,"current_range_meters":18000,"station_id":"cpo3532slgdg3j2ikp40","pricing_plan_id":"cebpf4jnsgd1na2vs0mg"},{"bike_id":"fee66823-be5c-45ea-b0c8-2798e2e76f76","system_id":"levelo_inurba_marseille","lat":43.24663,"lon":5.3816,"is_reserved":false,"is_disabled":false,"rental_uris":{"android":"levelo://app?vid=fee66823-be5c-45ea-b0c8-2798e2e76f76","ios":"levelo://app?vid=fee66823-be5c-45ea-b0c8-2798e2e76f76"},"vehicle_type_id":"4","last_reported":1752260878,"current_range_meters":18000,"station_id":"ce4bhih2rcd13ifvqfr0","pricing_plan_id":"cebpf4jnsgd1na2vs0mg"},{"bike_id":"ad023729-3d33-44a6-99ca-a047715b7f88","system_id":"levelo_inurba_marseille","lat":43.212004,"lon":5.350704,"is_reserved":false,"is_disabled":false,"rental_uris":{"android":"levelo://app?vid=ad023729-3d33-44a6-99ca-a047715b7f88","ios":"levelo://app?vid=ad023729-3d33-44a6-99ca-a047715b7f88"},"vehicle_type_id":"4","last_reported":1752260878,"current_range_meters":18000,"station_id":"st_cvj6sg6p6f1abm77japg","pricing_plan_id":"cebpf4jnsgd1na2vs0mg"},{"bike_id":"1e6b7501-254a-4e39-be9c-0765e7d67b45","system_id":"levelo_inurba_marseille","lat":43.28413,"lon":5.34976,"is_reserved":false,"is_disabled":false,"rental_uris":{"android":"levelo://app?vid=1e6b7501-254a-4e39-be9c-0765e7d67b45","ios":"levelo://app?vid=1e6b7501-254a-4e39-be9c-0765e7d67b45"},"vehicle_type_id":"4","last_reported":1752260878,"current_range_meters":18000,"station_id":"ce4bhbh2rcd13ifvqepg","pricing_plan_id":"cebpf4jnsgd1na2vs0mg"},{"bike_id":"bd780b9f-2638-45b0-81a5-171acb11391a","system_id":"levelo_inurba_marseille","lat":43.24811,"lon":5.37459,"is_reserved":false,"is_disabled":false,"rental_uris":{"android":"levelo://app?vid=bd780b9f-2638-45b0-81a5-171acb11391a","ios":"levelo://app?vid=bd780b9f-2638-45b0-81a5-171acb11391a"},"vehicle_type_id":"4","last_reported":1752260878,"current_range_meters":18000,"station_id":"ce4bhgh2rcd13ifvqfb0","pricing_plan_id":"cebpf4jnsgd1na2vs0mg"},{"bike_id":"80068acc-29b4-4fc6-9b91-5e7fb490ab33","system_id":"levelo_inurba_marseille","lat":43.29324,"lon":5.37469,"is_reserved":false,"is_disabled":false,"rental_uris":{"android":"levelo://app?vid=80068acc-29b4-4fc6-9b91-5e7fb490ab33","ios":"levelo://app?vid=80068acc-29b4-4fc6-9b91-5e7fb490ab33"},"vehicle_type_id":"4","last_reported":1752260878,"current_range_meters":18000,"station_id":"ce4bgi12rcd13ifvqb70","pricing_plan_id":"cebpf4jnsgd1na2vs0mg"},{"bike_id":"db2690f4-eb5c-4bb7-a073-68e2f29c4ad8","system_id":"levelo_inurba_marseille","lat":43.24836,"lon":5.37447,"is_reserved":false,"is_disabled":false,"rental_uris":{"android":"levelo://app?vid=db2690f4-eb5c-4bb7-a073-68e2f29c4ad8","ios":"levelo://app?vid=db2690f4-eb5c-4bb7-a073-68e2f29c4ad8"},"vehicle_type_id":"4","last_reported":1752260878,"current_range_meters":18800,"station_id":"","pricing_plan_id":"cebpf4jnsgd1na2vs0mg"},{"bike_id":"2d98c144-979b-4cdc-9c63-d39d433bf790","system_id":"levelo_inurba_marseille","lat":43.26781,"lon":5.39415,"is_reserved":false,"is_disabled":true,"rental_uris":{"android":"levelo://app?vid=2d98c144-979b-4cdc-9c63-d39d433bf790","ios":"levelo://app?vid=2d98c144-979b-4cdc-9c63-d39d433bf790"},"vehicle_type_id":"4","last_reported":1752260878,"current_range_meters":18800,"station_id":"ce4bhh12rcd13ifvqfg0","pricing_plan_id":"cebpf4jnsgd1na2vs0mg"},{"bike_id":"939e72fe-5f15-4e10-a447-ac24d20fc2ee","system_id":"levelo_inurba_marseille","lat":43.309513,"lon":5.390254,"is_reserved":false,"is_disabled":false,"rental_uris":{"android":"levelo://app?vid=939e72fe-5f15-4e10-a447-ac24d20fc2ee","ios":"levelo://app?vid=939e72fe-5f15-4e10-a447-ac24d20fc2ee"},"vehicle_type_id":"4","last_reported":1752260878,"current_range_meters":18800,"station_id":"ce4bgup2rcd13ifvqco0","pricing_plan_id":"cebpf4jnsgd1na2vs0mg"},{"bike_id":"b61ebea1-adee-45b3-b357-d987af367b70","system_id":"levelo_inurba_marseille","lat":43.28281,"lon":5.35054,"is_reserved":false,"is_disabled":false,"rental_uris":{"android":"levelo://app?vid=b61ebea1-adee-45b3-b357-d987af367b70","ios":"levelo://app?vid=b61ebea1-adee-45b3-b357-d987af367b70"},"vehicle_type_id":"4","last_reported":1752260878,"current_range_meters":18800,"station_id":"ce4bhbp2rcd13ifvqerg","pricing_plan_id":"cebpf4jnsgd1na2vs0mg"},