{"last_updated":1684958800,"ttl":30,"version":"2.2","data":{"bikes":[{"bike_id":"47d88754-c8b0-4c88-b77a-0df4c560e0e1","system_id":"levelo_inurba_marseille","lat":43.308614,"lon":5.372098,"is_reserved":false,"is_disabled":false,"rental_uris":{"android":"levelo://app?vid=47d88754-c8b0-4c88-b77a-0df4c560e0e1","ios":"levelo://app?vid=47d88754-c8b0-4c88-b77a-0df4c560e0e1"},"vehicle_type_id":"4","last_reported":1684958800,"current_range_meters":15200,"station_id":"ce4bguh2rcd13ifvqckg","pricing_plan_id":"free"},{"bike_id":"8a35a285-7e50-4b2e-af8a-5f3f180b7c4d","system_id":"levelo_inurba_marseille","lat":43.305989,"lon":5.37225,"is_reserved":false,"is_disabled":false,"rental_uris":{"android":"levelo://app?vid=8a35a285-7e50-4b2e-af8a-5f3f180b7c4d","ios":"levelo://app?vid=8a35a285-7e50-4b2e-af8a-5f3f180b7c4d"},"vehicle_type_id":"4","last_reported":1684958800,"current_range_meters":6400,"station_id":"ce4bgqh2rcd13ifvqc4g","pricing_plan_id":"free"},{"bike_id":"f7ffb530-cf36-4fca-8ef0-7ca3972056fa","system_id":"levelo_inurba_marseille","lat":43.305989,"lon":5.37225,"is_reserved":false,"is_disabled":false,"rental_uris":{"android":"levelo://app?vid=f7ffb530-cf36-4fca-8ef0-7ca3972056fa","ios":"levelo://app?vid=f7ffb530-cf36-4fca-8ef0-7ca3972056fa"},"vehicle_type_id":"4","last_reported":1684958800,"current_range_meters":5600,"station_id":"ce4bgqh2rcd13ifvqc4g","pricing_plan_id":"free"},{"bike_id":"d7f2fe6a-450a-4564-ace1-933468be7c11","system_id":"levelo_inurba_marseille","lat":43.305989,"lon":5.37225,"is_reserved":false,"is_disabled":false,"rental_uris":{"android":"levelo://app?vid=d7f2fe6a-450a-4564-ace1-933468be7c11","ios":"levelo://app?vid=d7f2fe6a-450a-4564-ace1-933468be7c11"},"vehicle_type_id":"4","last_reported":1684958800,"current_range_meters":16400,"station_id":"ce4bgqh2rcd13ifvqc4g","pricing_plan_id":"free"},{"bike_id":"76e1dd1a-c3a1-43cf-b32b-3ece7808d115","system_id":"levelo_inurba_marseille","lat":43.305989,"lon":5.37225,"is_reserved":false,"is_disabled":false,"rental_uris":{"android":"levelo://app?vid=76e1dd1a-c3a1-43cf-b32b-3ece7808d115","ios":"levelo://app?vid=76e1dd1a-c3a1-43cf-b32b-3ece7808d115"},"vehicle_type_id":"4","last_reported":1684958800,"current_range_meters":10800,"station_id":"ce4bgqh2rcd13ifvqc4g","pricing_plan_id":"free"},{"bike_id":"511886c8-0e3e-413c-a192-d348818e3ead","system_id":"levelo_inurba_marseille","lat":43.305989,"lon":5.37225,"is_reserved":false,"is_disabled":false,"rental_uris":{"android":"levelo://app?vid=511886c8-0e3e-413c-a192-d348818e3ead","ios":"levelo://app?vid=511886c8-0e3e-413c-a192-d348818e3ead"},"vehicle_type_id":"4","last_reported":1684958800,"current_range_meters":6400,"station_id":"ce4bgqh2rcd13ifvqc4g","pricing_plan_id":"free"},{"bike_id":"16e7282a-4eed-47c3-83b3-d7e0dee6c006","system_id":"levelo_inurba_marseille","lat":43.317075,"lon":5.377367,"is_reserved":false,"is_disabled":false,"rental_uris":{"android":"levelo://app?vid=16e7282a-4eed-47c3-83b3-d7e0dee6c006","ios":"levelo://app?vid=16e7282a-4eed-47c3-83b3-d7e0dee6c006"},"vehicle_type_id":"4","last_reported":1684958800,"current_range_meters":25200,"station_id":"ce4bgth2rcd13ifvqch0","pricing_plan_id":"free"},{"bike_id":"68553df9-2b4c-4244-a834-2447f191355a","system_id":"levelo_inurba_marseille","lat":43.317075,"lon":5.377367,"is_reserved":false,"is_disabled":false,"rental_uris":{"android":"levelo://app?vid=68553df9-2b4c-4244-a834-2447f191355a","ios":"levelo://app?vid=68553df9-2b4c-4244-a834-2447f191355a"},"vehicle_type_id":"4","last_reported":1684958800,"current_range_meters":9200,"station_id":"ce4bgth2rcd13ifvqch0","pricing_plan_id":"free"},{"bike_id":"b6faf8b3-2a0c-46a6-b739-d70a593e59ae","system_id":"levelo_inurba_marseille","lat":43.317075,"lon":5.377367,"is_reserved":false,"is_disabled":false,"rental_uris":{"android":"levelo://app?vid=b6faf8b3-2a0c-46a6-b739-d70a593e59ae","ios":"levelo://app?vid=b6faf8b3-2a0c-46a6-b739-d70a593e59ae"},"vehicle_type_id":"4","last_reported":1684958800,"current_range_meters":4400,"station_id":"ce4bgth2rcd13ifvqch0","pricing_plan_id":"free"},{"bike_id":"c1e64ba5-f673-404d-a689-e1fb0c714013","system_id":"levelo_inurba_marseille","lat":43.317075,"lon":5.377367,"is_reserved":false,"is_disabled":false,"rental_uris":{"android":"levelo://app?vid=c1e64ba5-f673-404d-a689-e1fb0c714013","ios":"levelo://app?vid=c1e64ba5-f673-404d-a689-e1fb0c714013"},"vehicle_type_id":"4","last_reported":1684958800,"current_range_meters":31200,"station_id":"ce4bgth2rcd13ifvqch0","pricing_plan_id":"free"},{"bike_id":"e0e51ede-c4ac-4630-bc22-0e3c383745d9","system_id":"levelo_inurba_marseille","lat":43.317075,"lon":5.377367,"is_reserved":false,"is_disabled":false,"rental_uris":{"android":"levelo://app?vid=e0e51ede-c4ac-4630-bc22-0e3c383745d9","ios":"levelo://app?vid=e0e51ede-c4ac-4630-bc22-0e3c383745d9"},"vehicle_type_id":"4","last_reported":1684958800,"current_range_meters":29600,"station_id":"ce4bgth2rcd13ifvqch0","pricing_plan_id":"free"},{"bike_id":"fd38c318-e10c-4ea0-8386-140691495f8d","system_id":"levelo_inurba_marseille","lat":43.31713,"lon":5.37832,"is_reserved":false,"is_disabled":false,"rental_uris":{"android":"levelo://app?vid=fd38c318-e10c-4ea0-8386-140691495f8d","ios":"levelo://app?vid=fd38c318-e10c-4ea0-8386-140691495f8d"},"vehicle_type_id":"4","last_reported":1684958800,"current_range_meters":31200,"station_id":"","pricing_plan_id":"free"},{"bike_id":"1e4b9b64-b529-4266-91fa-d08787358875","system_id":"levelo_inurba_marseille","lat":43.30304,"lon":5.368987,"is_reserved":false,"is_disabled":false,"rental_uris":{"android":"levelo://app?vid=1e4b9b64-b529-4266-91fa-d08787358875","ios":"levelo://app?vid=1e4b9b64-b529-4266-91fa-d08787358875"},"vehicle_type_id":"4","last_reported":1684958800,"current_range_meters":15200,"station_id":"ce4bgqh2rcd13ifvqc5g","pricing_plan_id":"free"},{"bike_id":"e6d095ef-2b84-4614-9036-dcde0d40e77b","system_id":"levelo_inurba_marseille","lat":43.315289,"lon":5.380349,"is_reserved":false,"is_disabled":false,"rental_uris":{"android":"levelo://app?vid=e6d095ef-2b84-4614-9036-dcde0d40e77b","ios":"levelo://app?vid=e6d095ef-2b84-4614-9036-dcde0d40e77b"},"vehicle_type_id":"4","last_reported":1684958800,"current_range_meters":24400,"station_id":"ce4bhsp2rcd13ifvqi50","pricing_plan_id":"free"},{"bike_id":"9f092c7a-0082-405d-9c06-5fabb48acf1f","system_id":"levelo_inurba_marseille","lat":43.315289,"lon":5.380349,"is_reserved":false,"is_disabled":false,"rental_uris":{"android":"levelo://app?vid=9f092c7a-0082-405d-9c06-5fabb48acf1f","ios":"levelo://app?vid=9f092c7a-0082-405d-9c06-5fabb48acf1f"},"vehicle_type_id":"4","last_reported":1684958800,"current_range_meters":4800,"station_id":"ce4bhsp2rcd13ifvqi50","pricing_plan_id":"free"},{"bike_id":"b7409f09-2a8a-4570-aae9-bdb6db678b58","system_id":"levelo_inurba_marseille","lat":43.315289,"lon":5.380349,"is_reserved":false,"is_disabled":false,"rental_uris":{"android":"levelo://app?vid=b7409f09-2a8a-4570-aae9-bdb6db678b58","ios":"levelo://app?vid=b7409f09-2a8a-4570-aae9-bdb6db678b58"},"vehicle_type_id":"4","last_reported":1684958800,"current_range_meters":20000,"station_id":"ce4bhsp2rcd13ifvqi50","pricing_plan_id":"free"},{"bike_id":"6d6f9f90-e329-45d1-97a2-dad532edd73d","system_id":"levelo_inurba_marseille","lat":43.315293,"lon":5.380349,"is_reserved":false,"is_disabled":false,"rental_uris":{"android":"levelo://app?vid=6d6f9f90-e329-45d1-97a2-dad532edd73d","ios":"levelo://app?vid=6d6f9f90-e329-45d1-97a2-dad532edd73d"},"vehicle_type_id":"4","last_reported":1684958800,"current_range_meters":26800,"station_id":"ce4bhsp2rcd13ifvqi50","pricing_plan_id":"free"},{"bike_id":"0485b8a5-c135-4f2d-80c5-946907c8c555","system_id":"levelo_inurba_marseille","lat":43.30174,"lon":5.36624,"is_reserved":false,"is_disabled":false,"rental_uris":{"android":"levelo://app?vid=0485b8a5-c135-4f2d-80c5-946907c8c555","ios":"levelo://app?vid=0485b8a5-c135-4f2d-80c5-946907c8c555"},"vehicle_type_id":"4","last_reported":1684958800,"current_range_meters":31200,"station_id":"ce4bgrh2rcd13ifvqc8g","pricing_plan_id":"free"},{"bike_id":"db01971d-19fa-4d8e-bb14-24bd59665b33","system_id":"levelo_inurba_marseille","lat":43.308012,"lon":5.381511,"is_reserved":false,"is_disabled":false,"rental_uris":{"android":"levelo://app?vid=db01971d-19fa-4d8e-bb14-24bd59665b33","ios":"levelo://app?vid=db01971d-19fa-4d8e-bb14-24bd59665b33"},"vehicle_type_id":"4","last_reported":1684958800,"current_range_meters":4400,"station_id":"ce4bgt12rcd13ifvqce0","pricing_plan_id":"free"},{"bike_id":"61bcc183-b9c2-448f-96c7-48b42f46df8d","system_id":"levelo_inurba_marseille","lat":43.308012,"lon":5.381511,"is_reserved":false,"is_disabled":false,"rental_uris":{"android":"levelo://app?vid=61bcc183-b9c2-448f-96c7-48b42f46df8d","ios":"levelo://app?vid=61bcc183-b9c2-448f-96c7-48b42f46df8d"},"vehicle_type_id":"4","last_reported":1684958800,"current_range_meters":14800,"station_id":"ce4bgt12rcd13ifvqce0","pricing_plan_id":"free"},{"bike_id":"b8994b73-d4df-4a9b-b787-8a37f26bcaf2","system_id":"levelo_inurba_marseille","lat":43.30141,"lon":5.37409,"is_reserved":false,"is_disabled":false,"rental_uris":{"android":"levelo://app?vid=b8994b73-d4df-4a9b-b787-8a37f26bcaf2","ios":"levelo://app?vid=b8994b73-d4df-4a9b-b787-8a37f26bcaf2"},"vehicle_type_id":"4","last_reported":1684958800,"current_range_meters":9600,"station_id":"","pricing_plan_id":"free"},{"bike_id":"d0086ee5-2c76-40c6-ac41-971c5ff57f75","system_id":"levelo_inurba_marseille","lat":43.319935,"lon":5.381699,"is_reserved":false,"is_disabled":false,"rental_uris":{"android":"levelo://app?vid=d0086ee5-2c76-40c6-ac41-971c5ff57f75","ios":"levelo://app?vid=d0086ee5-2c76-40c6-ac41-971c5ff57f75"},"vehicle_type_id":"4","last_reported":1684958800,"current_range_meters":19600,"station_id":"ce4bhr12rcd13ifvqhpg","pricing_plan_id":"free"},{"bike_id":"ca6734a0-a0ee-4445-bc44-dc7854a1d3b0","system_id":"levelo_inurba_marseille","lat":43.319935,"lon":5.381699,"is_reserved":false,"is_disabled":false,"rental_uris":{"android":"levelo://app?vid=ca6734a0-a0ee-4445-bc44-dc7854a1d3b0","ios":"levelo://app?vid=ca6734a0-a0ee-4445-bc44-dc7854a1d3b0"},"vehicle_type_id":"4","last_reported":1684958800,"current_range_meters":13600,"station_id":"ce4bhr12rcd13ifvqhpg","pricing_plan_id":"free"},{"bike_id":"e5571f58-adb6-49b7-8c86-2d757ae8e1a0","system_id":"levelo_inurba_marseille","lat":43.319935,"lon":5.381699,"is_reserved":false,"is_disabled":false,"rental_uris":{"android":"levelo://app?vid=e5571f58-adb6-49b7-8c86-2d757ae8e1a0","ios":"levelo://app?vid=e5571f58-adb6-49b7-8c86-2d757ae8e1a0"},"vehicle_type_id":"4","last_reported":1684958800,"current_range_meters":25600,"station_id":"ce4bhr12rcd13ifvqhpg","pricing_plan_id":"free"},{"bike_id":"b06b8421-bbaa-499d-a461-99fecf739d8f","system_id":"levelo_inurba_marseille","lat":43.319935,"lon":5.381699,"is_reserved":false,"is_disabled":false,"rental_uris":{"android":"levelo://app?vid=b06b8421-bbaa-499d-a461-99fecf739d8f","ios":"levelo://app?vid=b06b8421-bbaa-499d-a461-99fecf739d8f"},"vehicle_type_id":"4","last_reported":1684958800,"current_range_meters":11600,"station_id":"ce4bhr12rcd13ifvqhpg","pricing_plan_id":"free"},{"bike_id":"661cfc4b-ed22-49d2-9523-e0d33b317073","system_id":"levelo_inurba_marseille","lat":43.299222,"lon":5.365554,"is_reserved":false,"is_disabled":false,"rental_uris":{"android":"levelo://app?vid=661cfc4b-ed22-49d2-9523-e0d33b317073","ios":"levelo://app?vid=661cfc4b-ed22-49d2-9523-e0d33b317073"},"vehicle_type_id":"4","last_reported":1684958800,"current_range_meters":20000,"station_id":"ce4bgm92rcd13ifvqbr0","pricing_plan_id":"free"},{"bike_id":"f54c339c-af4d-4a4c-a61f-40c64d0fb5b4","system_id":"levelo_inurba_marseille","lat":43.299222,"lon":5.365554,"is_reserved":false,"is_disabled":false,"rental_uris":{"android":"levelo://app?vid=f54c339c-af4d-4a4c-a61f-40c64d0fb5b4","ios":"levelo://app?vid=f54c339c-af4d-4a4c-a61f-40c64d0fb5b4"},"vehicle_type_id":"4","last_reported":1684958800,"current_range_meters":28400,"station_id":"ce4bgm92rcd13ifvqbr0","pricing_plan_id":"free"},{"bike_id":"74cb0558-574b-4dfe-9711-3f5e18a1ee72","system_id":"levelo_inurba_marseille","lat":43.29916,"lon":5.37474,"is_reserved":false,"is_disabled":false,"rental_uris":{"android":"levelo://app?vid=74cb0558-574b-4dfe-9711-3f5e18a1ee72","ios":"levelo://app?vid=74cb0558-574b-4dfe-9711-3f5e18a1ee72"},"vehicle_type_id":"4","last_reported":1684958800,"current_range_meters":22800,"station_id":"ce4bgjh2rcd13ifvqbg0","pricing_plan_id":"free"},{"bike_id":"60081769-1361-4315-ad01-91ddcbd62efd","system_id":"levelo_inurba_marseille","lat":43.311722,"lon":5.387247,"is_reserved":false,"is_disabled":false,"rental_uris":{"android":"levelo://app?vid=60081769-1361-4315-ad01-91ddcbd62efd","ios":"levelo://app?vid=60081769-1361-4315-ad01-91ddcbd62efd"},"vehicle_type_id":"4","last_reported":1684958800,"current_range_meters":21200,"station_id":"ce4bgv12rcd13ifvqcp0","pricing_plan_id":"free"},{"bike_id":"fd740e61-768a-44e9-be1b-6d87142b5859","system_id":"levelo_inurba_marseille","lat":43.311722,"lon":5.387247,"is_reserved":false,"is_disabled":false,"rental_uris":{"android":"levelo://app?vid=fd740e61-768a-44e9-be1b-6d87142b5859","ios":"levelo://app?vid=fd740e61-768a-44e9-be1b-6d87142b5859"},"vehicle_type_id":"4","last_reported":1684958800,"current_range_meters":18400,"station_id":"ce4bgv12rcd13ifvqcp0","pricing_plan_id":"free"},{"bike_id":"fad50468-bff6-4eb0-bc39-08e7203bec60","system_id":"levelo_inurba_marseille","lat":43.328371,"lon":5.366912,"is_reserved":false,"is_disabled":false,"rental_uris":{"android":"levelo://app?vid=fad50468-bff6-4eb0-bc39-08e7203bec60","ios":"levelo://app?vid=fad50468-bff6-4eb0-bc39-08e7203bec60"},"vehicle_type_id":"4","last_reported":1684958800,"current_range_meters":20400,"station_id":"ce4bhs92rcd13ifvqi0g","pricing_plan_id":"free"},{"bike_id":"fed01e5a-45df-4a61-9d8b-97ca9e857f7e","system_id":"levelo_inurba_marseille","lat":43.328284,"lon":5.367011,"is_reserved":false,"is_disabled":false,"rental_uris":{"android":"levelo://app?vid=fed01e5a-45df-4a61-9d8b-97ca9e857f7e","ios":"levelo://app?vid=fed01e5a-45df-4a61-9d8b-97ca9e857f7e"},"vehicle_type_id":"4","last_reported":1684958800,"current_range_meters":21200,"station_id":"ce4bhs92rcd13ifvqi0g","pricing_plan_id":"free"},{"bike_id":"a72cd3ab-e87f-4964-a87c-25d1d90e9843","system_id":"levelo_inurba_marseille","lat":43.328371,"lon":5.366912,"is_reserved":false,"is_disabled":false,"rental_uris":{"android":"levelo://app?vid=a72cd3ab-e87f-4964-a87c-25d1d90e9843","ios":"levelo://app?vid=a72cd3ab-e87f-4964-a87c-25d1d90e9843"},"vehicle_type_id":"4","last_reported":1684958800,"current_range_meters":22000,"station_id":"ce4bhs92rcd13ifvqi0g","pricing_plan_id":"free"},{"bike_id":"83f3f744-359d-493d-a816-556264b34e9c","system_id":"levelo_inurba_marseille","lat":43.328371,"lon":5.366912,"is_reserved":false,"is_disabled":false,"rental_uris":{"android":"levelo://app?vid=83f3f744-359d-493d-a816-556264b34e9c","ios":"levelo://app?vid=83f3f744-359d-493d-a816-556264b34e9c"},"vehicle_type_id":"4","last_reported":1684958800,"current_range_meters":9600,"station_id":"ce4bhs92rcd13ifvqi0g","pricing_plan_id":"free"},{"bike_id":"07d0f5f8-594a-4c99-bd5f-efd86e16327f","system_id":"levelo_inurba_marseille","lat":43.328371,"lon":5.366912,"is_reserved":false,"is_disabled":false,"rental_uris":{"android":"levelo://app?vid=07d0f5f8-594a-4c99-bd5f-efd86e16327f","ios":"levelo://app?vid=07d0f5f8-594a-4c99-bd5f-efd86e16327f"},"vehicle_type_id":"4","last_reported":1684958800,"current_range_meters":15200,"station_id":"ce4bhs92rcd13ifvqi0g","pricing_plan_id":"free"},{"bike_id":"8ed1d8e4-f7e2-4037-9f56-bf16c3e27cb9","system_id":"levelo_inurba_marseille","lat":43.29711,"lon":5.36606,"is_reserved":false,"is_disabled":false,"rental_uris":{"android":"levelo://app?vid=8ed1d8e4-f7e2-4037-9f56-bf16c3e27cb9","ios":"levelo://app?vid=8ed1d8e4-f7e2-4037-9f56-bf16c3e27cb9"},"vehicle_type_id":"4","last_reported":1684958800,"current_range_meters":15600,"station_id":"","pricing_plan_id":"free"},{"bike_id":"7e2383eb-c201-46ca-a89d-bd8c97ba2def","system_id":"levelo_inurba_marseille","lat":43.29573,"lon":5.367355,"is_reserved":false,"is_disabled":false,"rental_uris":{"android":"levelo://app?vid=7e2383eb-c201-46ca-a89d-bd8c97ba2def","ios":"levelo://app?vid=7e2383eb-c201-46ca-a89d-bd8c97ba2def"},"vehicle_type_id":"4","last_reported":1684958800,"current_range_meters":10800,"station_id":"ce4bgph2rcd13ifvqc2g","pricing_plan_id":"free"},{"bike_id":"3ed33090-eba0-45f8-aee3-3b6214c01ba8","system_id":"levelo_inurba_marseille","lat":43.299397,"lon":5.381264,"is_reserved":false,"is_disabled":false,"rental_uris":{"android":"levelo://app?vid=3ed33090-eba0-45f8-aee3-3b6214c01ba8","ios":"levelo://app?vid=3ed33090-eba0-45f8-aee3-3b6214c01ba8"},"vehicle_type_id":"4","last_reported":1684958800,"current_range_meters":18800,"station_id":"","pricing_plan_id":"free"},{"bike_id":"7187ccfd-8c7a-4cc5-91e7-248a68a678e4","system_id":"levelo_inurba_marseille","lat":43.31681,"lon":5.38955,"is_reserved":false,"is_disabled":false,"rental_uris":{"android":"levelo://app?vid=7187ccfd-8c7a-4cc5-91e7-248a68a678e4","ios":"levelo://app?vid=7187ccfd-8c7a-4cc5-91e7-248a68a678e4"},"vehicle_type_id":"4","last_reported":1684958800,"current_range_meters":4800,"station_id":"","pricing_plan_id":"free"},{"bike_id":"ff4f1ef5-b8b4-4a5d-b4e1-040dcec0b48b","system_id":"levelo_inurba_marseille","lat":43.296921,"lon":5.376579,"is_reserved":false,"is_disabled":false,"rental_uris":{"android":"levelo://app?vid=ff4f1ef5-b8b4-4a5d-b4e1-040dcec0b48b","ios":"levelo://app?vid=ff4f1ef5-b8b4-4a5d-b4e1-040dcec0b48b"},"vehicle_type_id":"4","last_reported":1684958800,"current_range_meters":15200,"station_id":"ce4bgkh2rcd13ifvqbl0","pricing_plan_id":"free"},{"bike_id":"eb43f905-bdfc-42b1-be08-8f9ccc3742ef","system_id":"levelo_inurba_marseille","lat":43.29907,"lon":5.38124,"is_reserved":false,"is_disabled":false,"rental_uris":{"android":"levelo://app?vid=eb43f905-bdfc-42b1-be08-8f9ccc3742ef","ios":"levelo://app?vid=eb43f905-bdfc-42b1-be08-8f9ccc3742ef"},"vehicle_type_id":"4","last_reported":1684958800,"current_range_meters":8400,"station_id":"","pricing_plan_id":"free"},{"bike_id":"fd75a01b-6f32-448f-b3fe-ccd2edb73204","system_id":"levelo_inurba_marseille","lat":43.299028,"lon":5.381509,"is_reserved":false,"is_disabled":false,"rental_uris":{"android":"levelo://app?vid=fd75a01b-6f32-448f-b3fe-ccd2edb73204","ios":"levelo://app?vid=fd75a01b-6f32-448f-b3fe-ccd2edb73204"},"vehicle_type_id":"4","last_reported":1684958800,"current_range_meters":13600,"station_id":"ce4bgj12rcd13ifvqbc0","pricing_plan_id":"free"},{"bike_id":"2e5841bd-593f-4c1f-ab11-e361414ab5e6","system_id":"levelo_inurba_marseille","lat":43.299028,"lon":5.381509,"is_reserved":false,"is_disabled":false,"rental_uris":{"android":"levelo://app?vid=2e5841bd-593f-4c1f-ab11-e361414ab5e6","ios":"levelo://app?vid=2e5841bd-593f-4c1f-ab11-e361414ab5e6"},"vehicle_type_id":"4","last_reported":1684958800,"current_range_meters":2400,"station_id":"ce4bgj12rcd13ifvqbc0","pricing_plan_id":"free"},{"bike_id":"143f42be-5472-4103-9f1b-6cc1f280ec27","system_id":"levelo_inurba_marseille","lat":43.299028,"lon":5.381509,"is_reserved":false,"is_disabled":false,"rental_uris":{"android":"levelo://app?vid=143f42be-5472-4103-9f1b-6cc1f280ec27","ios":"levelo://app?vid=143f42be-5472-4103-9f1b-6cc1f280ec27"},"vehicle_type_id":"4","last_reported":1684958800,"current_range_meters":3200,"station_id":"ce4bgj12rcd13ifvqbc0","pricing_plan_id":"free"},{"bike_id":"daf4b292-8554-4592-803c-94053edd427a","system_id":"levelo_inurba_marseille","lat":43.299028,"lon":5.381509,"is_reserved":false,"is_disabled":false,"rental_uris":{"android":"levelo://app?vid=daf4b292-8554-4592-803c-94053edd427a","ios":"levelo://app?vid=daf4b292-8554-4592-803c-94053edd427a"},"vehicle_type_id":"4","last_reported":1684958800,"current_range_meters":1200,"station_id":"ce4bgj12rcd13ifvqbc0","pricing_plan_id":"free"},{"bike_id":"ba7c7d8e-ba8f-43dc-954c-f805130b4a22","system_id":"levelo_inurba_marseille","lat":43.29908,"lon":5.38143,"is_reserved":false,"is_disabled":false,"rental_uris":{"android":"levelo://app?vid=ba7c7d8e-ba8f-43dc-954c-f805130b4a22","ios":"levelo://app?vid=ba7c7d8e-ba8f-43dc-954c-f805130b4a22"},"vehicle_type_id":"4","last_reported":1684958800,"current_range_meters":23600,"station_id":"ce4bgj12rcd13ifvqbc0","pricing_plan_id":"free"},{"bike_id":"5e747819-0e44-4773-9324-0d292e1896ad","system_id":"levelo_inurba_marseille","lat":43.296921,"lon":5.376579,"is_reserved":false,"is_disabled":false,"rental_uris":{"android":"levelo://app?vid=5e747819-0e44-4773-9324-0d292e1896ad","ios":"levelo://app?vid=5e747819-0e44-4773-9324-0d292e1896ad"},"vehicle_type_id":"4","last_reported":1684958800,"current_range_meters":14400,"station_id":"ce4bgkh2rcd13ifvqbl0","pricing_plan_id":"free"},{"bike_id":"8f2b0502-0c26-4203-a0f4-11904fe7b988","system_id":"levelo_inurba_marseille","lat":43.298037,"lon":5.381066,"is_reserved":false,"is_disabled":false,"rental_uris":{"android":"levelo://app?vid=8f2b0502-0c26-4203-a0f4-11904fe7b988","ios":"levelo://app?vid=8f2b0502-0c26-4203-a0f4-11904fe7b988"},"vehicle_type_id":"4","last_reported":1684958800,"current_range_meters":19200,"station_id":"ce4bgip2rcd13ifvqbb0","pricing_plan_id":"free"},{"bike_id":"c4e32ffa-c3d0-4456-9ea9-8d9739dec2ab","system_id":"levelo_inurba_marseille","lat":43.304278,"lon":5.388868,"is_reserved":false,"is_disabled":false,"rental_uris":{"android":"levelo://app?vid=c4e32ffa-c3d0-4456-9ea9-8d9739dec2ab","ios":"levelo://app?vid=c4e32ffa-c3d0-4456-9ea9-8d9739dec2ab"},"vehicle_type_id":"4","last_reported":1684958800,"current_range_meters":15200,"station_id":"ce4bgk12rcd13ifvqbi0","pricing_plan_id":"free"},{"bike_id":"184da89f-e034-42c8-8f7c-6731bd86c2cc","system_id":"levelo_inurba_marseille","lat":43.304274,"lon":5.388873,"is_reserved":false,"is_disabled":false,"rental_uris":{"android":"levelo://app?vid=184da89f-e034-42c8-8f7c-6731bd86c2cc","ios":"levelo://app?vid=184da89f-e034-42c8-8f7c-6731bd86c2cc"},"vehicle_type_id":"4","last_reported":1684958800,"current_range_meters":14400,"station_id":"ce4bgk12rcd13ifvqbi0","pricing_plan_id":"free"},{"bike_id":"e1d1f05f-4b57-4ef7-bca9-33ac1b1bb140","system_id":"levelo_inurba_marseille","lat":43.304248,"lon":5.388917,"is_reserved":false,"is_disabled":false,"rental_uris":{"android":"levelo://app?vid=e1d1f05f-4b57-4ef7-bca9-33ac1b1bb140","ios":"levelo://app?vid=e1d1f05f-4b57-4ef7-bca9-33ac1b1bb140"},"vehicle_type_id":"4","last_reported":1684958800,"current_range_meters":5600,"station_id":"ce4bgk12rcd13ifvqbi0","pricing_plan_id":"free"},{"bike_id":"f6ad4fe0-f6f6-42eb-beb7-a07a229a1530","system_id":"levelo_inurba_marseille","lat":43.296277,"lon":5.377108,"is_reserved":false,"is_disabled":false,"rental_uris":{"android":"levelo://app?vid=f6ad4fe0-f6f6-42eb-beb7-a07a229a1530","ios":"levelo://app?vid=f6ad4fe0-f6f6-42eb-beb7-a07a229a1530"},"vehicle_type_id":"4","last_reported":1684958800,"current_range_meters":0,"station_id":"ce4bgi92rcd13ifvqb90","pricing_plan_id":"free"},{"bike_id":"e111e2bf-d676-470f-bd42-0532c51a2672","system_id":"levelo_inurba_marseille","lat":43.299707,"lon":5.384859,"is_reserved":false,"is_disabled":false,"rental_uris":{"android":"levelo://app?vid=e111e2bf-d676-470f-bd42-0532c51a2672","ios":"levelo://app?vid=e111e2bf-d676-470f-bd42-0532c51a2672"},"vehicle_type_id":"4","last_reported":1684958800,"current_range_meters":19200,"station_id":"ce4bgj92rcd13ifvqbd0","pricing_plan_id":"free"},{"bike_id":"de6c4bbe-014f-42d8-8fd8-470d8a19d0d8","system_id":"levelo_inurba_marseille","lat":43.299717,"lon":5.384845,"is_reserved":false,"is_disabled":false,"rental_uris":{"android":"levelo://app?vid=de6c4bbe-014f-42d8-8fd8-470d8a19d0d8","ios":"levelo://app?vid=de6c4bbe-014f-42d8-8fd8-470d8a19d0d8"},"vehicle_type_id":"4","last_reported":1684958800,"current_range_meters":13200,"station_id":"ce4bgj92rcd13ifvqbd0","pricing_plan_id":"free"},{"bike_id":"92b5b834-284f-4b13-b210-cb8139582f10","system_id":"levelo_inurba_marseille","lat":43.29968,"lon":5.38495,"is_reserved":false,"is_disabled":false,"rental_uris":{"android":"levelo://app?vid=92b5b834-284f-4b13-b210-cb8139582f10","ios":"levelo://app?vid=92b5b834-284f-4b13-b210-cb8139582f10"},"vehicle_type_id":"4","last_reported":1684958800,"current_range_meters":9600,"station_id":"ce4bgj92rcd13ifvqbd0","pricing_plan_id":"free"},{"bike_id":"f42490fa-f817-4187-aca5-1706b76b81e8","system_id":"levelo_inurba_marseille","lat":43.29968,"lon":5.38497,"is_reserved":false,"is_disabled":false,"rental_uris":{"android":"levelo://app?vid=f42490fa-f817-4187-aca5-1706b76b81e8","ios":"levelo://app?vid=f42490fa-f817-4187-aca5-1706b76b81e8"},"vehicle_type_id":"4","last_reported":1684958800,"current_range_meters":2400,"station_id":"ce4bgj92rcd13ifvqbd0","pricing_plan_id":"free"},{"bike_id":"99887f29-71ac-48b1-a5e5-c31ff72b3487","system_id":"levelo_inurba_marseille","lat":43.299724,"lon":5.384848,"is_reserved":false,"is_disabled":false,"rental_uris":{"android":"levelo://app?vid=99887f29-71ac-48b1-a5e5-c31ff72b3487","ios":"levelo://app?vid=99887f29-71ac-48b1-a5e5-c31ff72b3487"},"vehicle_type_id":"4","last_reported":1684958800,"current_range_meters":800,"station_id":"ce4bgj92rcd13ifvqbd0","pricing_plan_id":"free"},{"bike_id":"5470a485-1cd7-45e7-b4e2-508c0e2aebf7","system_id":"levelo_inurba_marseille","lat":43.294153,"lon":5.386305,"is_reserved":false,"is_disabled":false,"rental_uris":{"android":"levelo://app?vid=5470a485-1cd7-45e7-b4e2-508c0e2aebf7","ios":"levelo://app?vid=5470a485-1cd7-45e7-b4e2-508c0e2aebf7"},"vehicle_type_id":"4","last_reported":1684958800,"current_range_meters":21600,"station_id":"ce4bh2h2rcd13ifvqdh0","pricing_plan_id":"free"},{"bike_id":"56d96041-8876-413e-bb4c-9232e70bd162","system_id":"levelo_inurba_marseille","lat":43.305994,"lon":5.393687,"is_reserved":false,"is_disabled":false,"rental_uris":{"android":"levelo://app?vid=56d96041-8876-413e-bb4c-9232e70bd162","ios":"levelo://app?vid=56d96041-8876-413e-bb4c-9232e70bd162"},"vehicle_type_id":"4","last_reported":1684958800,"current_range_meters":7600,"station_id":"ce4bh0p2rcd13ifvqd80","pricing_plan_id":"free"},{"bike_id":"84e98a4b-3087-4c11-ab62-d710603b0e38","system_id":"levelo_inurba_marseille","lat":43.302992,"lon":5.392136,"is_reserved":false,"is_disabled":false,"rental_uris":{"android":"levelo://app?vid=84e98a4b-3087-4c11-ab62-d710603b0e38","ios":"levelo://app?vid=84e98a4b-3087-4c11-ab62-d710603b0e38"},"vehicle_type_id":"4","last_reported":1684958800,"current_range_meters":24400,"station_id":"ce4bgkh2rcd13ifvqbk0","pricing_plan_id":"free"},{"bike_id":"e9642673-6b94-4ea9-9f72-f51ad2924261","system_id":"levelo_inurba_marseille","lat":43.30307,"lon":5.39215,"is_reserved":false,"is_disabled":false,"rental_uris":{"android":"levelo://app?vid=e9642673-6b94-4ea9-9f72-f51ad2924261","ios":"levelo://app?vid=e9642673-6b94-4ea9-9f72-f51ad2924261"},"vehicle_type_id":"4","last_reported":1684958800,"current_range_meters":21200,"station_id":"ce4bgkh2rcd13ifvqbk0","pricing_plan_id":"free"},{"bike_id":"1e319c1e-3803-454d-9e55-6445020e0efa","system_id":"levelo_inurba_marseille","lat":43.302992,"lon":5.392136,"is_reserved":false,"is_disabled":false,"rental_uris":{"android":"levelo://app?vid=1e319c1e-3803-454d-9e55-6445020e0efa","ios":"levelo://app?vid=1e319c1e-3803-454d-9e55-6445020e0efa"},"vehicle_type_id":"4","last_reported":1684958800,"current_range_meters":25600,"station_id":"ce4bgkh2rcd13ifvqbk0","pricing_plan_id":"free"},{"bike_id":"3f70d801-bc4c-483b-9f32-b9ca5f4514cc","system_id":"levelo_inurba_marseille","lat":43.30085,"lon":5.390856,"is_reserved":false,"is_disabled":false,"rental_uris":{"android":"levelo://app?vid=3f70d801-bc4c-483b-9f32-b9ca5f4514cc","ios":"levelo://app?vid=3f70d801-bc4c-483b-9f32-b9ca5f4514cc"},"vehicle_type_id":"4","last_reported":1684958800,"current_range_meters":26400,"station_id":"ce4bh192rcd13ifvqdb0","pricing_plan_id":"free"},{"bike_id":"73fab936-370b-4f1e-abe9-1cdb54432a7e","system_id":"levelo_inurba_marseille","lat":43.300852,"lon":5.390859,"is_reserved":false,"is_disabled":false,"rental_uris":{"android":"levelo://app?vid=73fab936-370b-4f1e-abe9-1cdb54432a7e","ios":"levelo://app?vid=73fab936-370b-4f1e-abe9-1cdb54432a7e"},"vehicle_type_id":"4","last_reported":1684958800,"current_range_meters":20000,"station_id":"ce4bh192rcd13ifvqdb0","pricing_plan_id":"free"},{"bike_id":"e52d38d4-8683-4e85-a470-adc4078fc6ed","system_id":"levelo_inurba_marseille","lat":43.30085,"lon":5.390856,"is_reserved":false,"is_disabled":false,"rental_uris":{"android":"levelo://app?vid=e52d38d4-8683-4e85-a470-adc4078fc6ed","ios":"levelo://app?vid=e52d38d4-8683-4e85-a470-adc4078fc6ed"},"vehicle_type_id":"4","last_reported":1684958800,"current_range_meters":7600,"station_id":"ce4bh192rcd13ifvqdb0","pricing_plan_id":"free"},{"bike_id":"252cb770-39fc-4400-a3ad-c7755c775382","system_id":"levelo_inurba_marseille","lat":43.30085,"lon":5.390856,"is_reserved":false,"is_disabled":false,"rental_uris":{"android":"levelo://app?vid=252cb770-39fc-4400-a3ad-c7755c775382","ios":"levelo://app?vid=252cb770-39fc-4400-a3ad-c7755c775382"},"vehicle_type_id":"4","last_reported":1684958800,"current_range_meters":4000,"station_id":"ce4bh192rcd13ifvqdb0","pricing_plan_id":"free"},{"bike_id":"fc69c410-98ba-47e2-9b85-0a19b6f3ebf3","system_id":"levelo_inurba_marseille","lat":43.300852,"lon":5.390859,"is_reserved":false,"is_disabled":false,"rental_uris":{"android":"levelo://app?vid=fc69c410-98ba-47e2-9b85-0a19b6f3ebf3","ios":"levelo://app?vid=fc69c410-98ba-47e2-9b85-0a19b6f3ebf3"},"vehicle_type_id":"4","last_reported":1684958800,"current_range_meters":8800,"station_id":"ce4bh192rcd13ifvqdb0","pricing_plan_id":"free"},{"bike_id":"24049559-b20f-4437-b5d2-8fcf6ff3347c","system_id":"levelo_inurba_marseille","lat":43.298764,"lon":5.388973,"is_reserved":false,"is_disabled":false,"rental_uris":{"android":"levelo://app?vid=24049559-b20f-4437-b5d2-8fcf6ff3347c","ios":"levelo://app?vid=24049559-b20f-4437-b5d2-8fcf6ff3347c"},"vehicle_type_id":"4","last_reported":1684958800,"current_range_meters":24400,"station_id":"ce4bh392rcd13ifvqdl0","pricing_plan_id":"free"},{"bike_id":"0f065bf3-b556-413c-b3c4-5f51a5a46338","system_id":"levelo_inurba_marseille","lat":43.29529,"lon":5.385581,"is_reserved":false,"is_disabled":false,"rental_uris":{"android":"levelo://app?vid=0f065bf3-b556-413c-b3c4-5f51a5a46338","ios":"levelo://app?vid=0f065bf3-b556-413c-b3c4-5f51a5a46338"},"vehicle_type_id":"4","last_reported":1684958800,"current_range_meters":400,"station_id":"ce4bgih2rcd13ifvqba0","pricing_plan_id":"free"},{"bike_id":"4bcdb631-8328-4c5c-9cb1-6dac28be4b06","system_id":"levelo_inurba_marseille","lat":43.29876,"lon":5.38906,"is_reserved":false,"is_disabled":false,"rental_uris":{"android":"levelo://app?vid=4bcdb631-8328-4c5c-9cb1-6dac28be4b06","ios":"levelo://app?vid=4bcdb631-8328-4c5c-9cb1-6dac28be4b06"},"vehicle_type_id":"4","last_reported":1684958800,"current_range_meters":14400,"station_id":"ce4bh392rcd13ifvqdl0","pricing_plan_id":"free"},{"bike_id":"db35c68e-f62a-4aa9-8703-30d01fee0440","system_id":"levelo_inurba_marseille","lat":43.291671,"lon":5.371575,"is_reserved":false,"is_disabled":false,"rental_uris":{"android":"levelo://app?vid=db35c68e-f62a-4aa9-8703-30d01fee0440","ios":"levelo://app?vid=db35c68e-f62a-4aa9-8703-30d01fee0440"},"vehicle_type_id":"4","last_reported":1684958800,"current_range_meters":29200,"station_id":"ce4bha92rcd13ifvqeh0","pricing_plan_id":"free"},{"bike_id":"b842a883-baab-4aaa-9c22-726d37235f77","system_id":"levelo_inurba_marseille","lat":43.32765,"lon":5.38813,"is_reserved":false,"is_disabled":false,"rental_uris":{"android":"levelo://app?vid=b842a883-baab-4aaa-9c22-726d37235f77","ios":"levelo://app?vid=b842a883-baab-4aaa-9c22-726d37235f77"},"vehicle_type_id":"4","last_reported":1684958800,"current_range_meters":8800,"station_id":"","pricing_plan_id":"free"},{"bike_id":"92ba4792-5ed6-488d-8068-098854203063","system_id":"levelo_inurba_marseille","lat":43.30892,"lon":5.39633,"is_reserved":false,"is_disabled":false,"rental_uris":{"android":"levelo://app?vid=92ba4792-5ed6-488d-8068-098854203063","ios":"levelo://app?vid=92ba4792-5ed6-488d-8068-098854203063"},"vehicle_type_id":"4","last_reported":1684958800,"current_range_meters":0,"station_id":"ce4bh012rcd13ifvqcv0","pricing_plan_id":"free"},{"bike_id":"ce2230b3-5873-4e72-a718-1670e15c2050","system_id":"levelo_inurba_marseille","lat":43.309038,"lon":5.396546,"is_reserved":false,"is_disabled":false,"rental_uris":{"android":"levelo://app?vid=ce2230b3-5873-4e72-a718-1670e15c2050","ios":"levelo://app?vid=ce2230b3-5873-4e72-a718-1670e15c2050"},"vehicle_type_id":"4","last_reported":1684958800,"current_range_meters":6400,"station_id":"ce4bh012rcd13ifvqcv0","pricing_plan_id":"free"},{"bike_id":"22ceb553-4636-4bf7-9e4f-7a93a3348769","system_id":"levelo_inurba_marseille","lat":43.313291,"lon":5.396838,"is_reserved":false,"is_disabled":false,"rental_uris":{"android":"levelo://app?vid=22ceb553-4636-4bf7-9e4f-7a93a3348769","ios":"levelo://app?vid=22ceb553-4636-4bf7-9e4f-7a93a3348769"},"vehicle_type_id":"4","last_reported":1684958800,"current_range_meters":18000,"station_id":"ce4bgvp2rcd13ifvqcu0","pricing_plan_id":"free"},{"bike_id":"09bc6842-f54e-4bb2-bae1-1a1e5351e19d","system_id":"levelo_inurba_marseille","lat":43.313291,"lon":5.396838,"is_reserved":false,"is_disabled":false,"rental_uris":{"android":"levelo://app?vid=09bc6842-f54e-4bb2-bae1-1a1e5351e19d","ios":"levelo://app?vid=09bc6842-f54e-4bb2-bae1-1a1e5351e19d"},"vehicle_type_id":"4","last_reported":1684958800,"current_range_meters":18800,"station_id":"ce4bgvp2rcd13ifvqcu0","pricing_plan_id":"free"},{"bike_id":"bfdbe81b-a54d-45dc-98c9-4267cc5699fd","system_id":"levelo_inurba_marseille","lat":43.313291,"lon":5.396838,"is_reserved":false,"is_disabled":false,"rental_uris":{"android":"levelo://app?vid=bfdbe81b-a54d-45dc-98c9-4267cc5699fd","ios":"levelo://app?vid=bfdbe81b-a54d-45dc-98c9-4267cc5699fd"},"vehicle_type_id":"4","last_reported":1684958800,"current_range_meters":5200,"station_id":"ce4bgvp2rcd13ifvqcu0","pricing_plan_id":"free"},{"bike_id":"11f1ef6a-329e-4508-89a0-ab2f3fa417fc","system_id":"levelo_inurba_marseille","lat":43.313291,"lon":5.396838,"is_reserved":false,"is_disabled":false,"rental_uris":{"android":"levelo://app?vid=11f1ef6a-329e-4508-89a0-ab2f3fa417fc","ios":"levelo://app?vid=11f1ef6a-329e-4508-89a0-ab2f3fa417fc"},"vehicle_type_id":"4","last_reported":1684958800,"current_range_meters":20400,"station_id":"ce4bgvp2rcd13ifvqcu0","pricing_plan_id":"free"},{"bike_id":"40b68277-6f5f-4aac-8216-847d33e7dfd3","system_id":"levelo_inurba_marseille","lat":43.309038,"lon":5.396546,"is_reserved":false,"is_disabled":false,"rental_uris":{"android":"levelo://app?vid=40b68277-6f5f-4aac-8216-847d33e7dfd3","ios":"levelo://app?vid=40b68277-6f5f-4aac-8216-847d33e7dfd3"},"vehicle_type_id":"4","last_reported":1684958800,"current_range_meters":14800,"station_id":"ce4bh012rcd13ifvqcv0","pricing_plan_id":"free"},{"bike_id":"31ad45cc-cd55-4fa4-8819-4f1a25288b6a","system_id":"levelo_inurba_marseille","lat":43.313291,"lon":5.396838,"is_reserved":false,"is_disabled":false,"rental_uris":{"android":"levelo://app?vid=31ad45cc-cd55-4fa4-8819-4f1a25288b6a","ios":"levelo://app?vid=31ad45cc-cd55-4fa4-8819-4f1a25288b6a"},"vehicle_type_id":"4","last_reported":1684958800,"current_range_meters":8800,"station_id":"ce4bgvp2rcd13ifvqcu0","pricing_plan_id":"free"},{"bike_id":"b7dc8e89-3981-4ab7-afd2-3b69403ee522","system_id":"levelo_inurba_marseille","lat":43.313291,"lon":5.396838,"is_reserved":false,"is_disabled":false,"rental_uris":{"android":"levelo://app?vid=b7dc8e89-3981-4ab7-afd2-3b69403ee522","ios":"levelo://app?vid=b7dc8e89-3981-4ab7-afd2-3b69403ee522"},"vehicle_type_id":"4","last_reported":1684958800,"current_range_meters":16800,"station_id":"ce4bgvp2rcd13ifvqcu0","pricing_plan_id":"free"},{"bike_id":"5afb875f-309c-48b4-aac4-19a2f4e8983f","system_id":"levelo_inurba_marseille","lat":43.313291,"lon":5.396838,"is_reserved":false,"is_disabled":false,"rental_uris":{"android":"levelo://app?vid=5afb875f-309c-48b4-aac4-19a2f4e8983f","ios":"levelo://app?vid=5afb875f-309c-48b4-aac4-19a2f4e8983f"},"vehicle_type_id":"4","last_reported":1684958800,"current_range_meters":26400,"station_id":"ce4bgvp2rcd13ifvqcu0","pricing_plan_id":"free"},{"bike_id":"07955834-0802-4708-9847-138d2e792e2e","system_id":"levelo_inurba_marseille","lat":43.308956,"lon":5.396575,"is_reserved":false,"is_disabled":false,"rental_uris":{"android":"levelo://app?vid=07955834-0802-4708-9847-138d2e792e2e","ios":"levelo://app?vid=07955834-0802-4708-9847-138d2e792e2e"},"vehicle_type_id":"4","last_reported":1684958800,"current_range_meters":0,"station_id":"","pricing_plan_id":"free"},{"bike_id":"9f9c62ea-b3ed-497c-a800-17443a0bc221","system_id":"levelo_inurba_marseille","lat":43.29529,"lon":5.385581,"is_reserved":false,"is_disabled":false,"rental_uris":{"android":"levelo://app?vid=9f9c62ea-b3ed-497c-a800-17443a0bc221","ios":"levelo://app?vid=9f9c62ea-b3ed-497c-a800-17443a0bc221"},"vehicle_type_id":"4","last_reported":1684958800,"current_range_meters":6400,"station_id":"ce4bgih2rcd13ifvqba0","pricing_plan_id":"free"},{"bike_id":"602cedb2-64c8-4cfb-9208-0c4f7dadb360","system_id":"levelo_inurba_marseille","lat":43.29529,"lon":5.385581,"is_reserved":false,"is_disabled":false,"rental_uris":{"android":"levelo://app?vid=602cedb2-64c8-4cfb-9208-0c4f7dadb360","ios":"levelo://app?vid=602cedb2-64c8-4cfb-9208-0c4f7dadb360"},"vehicle_type_id":"4","last_reported":1684958800,"current_range_meters":13600,"station_id":"ce4bgih2rcd13ifvqba0","pricing_plan_id":"free"},{"bike_id":"83a2f56f-41f7-486e-98ed-4f6a22fff5a2","system_id":"levelo_inurba_marseille","lat":43.29187,"lon":5.35669,"is_reserved":false,"is_disabled":false,"rental_uris":{"android":"levelo://app?vid=83a2f56f-41f7-486e-98ed-4f6a22fff5a2","ios":"levelo://app?vid=83a2f56f-41f7-486e-98ed-4f6a22fff5a2"},"vehicle_type_id":"4","last_reported":1684958800,"current_range_meters":0,"station_id":"ce4bhoh2rcd13ifvqh5g","pricing_plan_id":"free"},{"bike_id":"12875001-4a78-4d42-b69d-f3bab14491be","system_id":"levelo_inurba_marseille","lat":43.291671,"lon":5.371575,"is_reserved":false,"is_disabled":false,"rental_uris":{"android":"levelo://app?vid=12875001-4a78-4d42-b69d-f3bab14491be","ios":"levelo://app?vid=12875001-4a78-4d42-b69d-f3bab14491be"},"vehicle_type_id":"4","last_reported":1684958800,"current_range_meters":6000,"station_id":"ce4bha92rcd13ifvqeh0","pricing_plan_id":"free"},{"bike_id":"1d5af056-6db4-4614-acda-c6b076f6e52b","system_id":"levelo_inurba_marseille","lat":43.302008,"lon":5.394694,"is_reserved":false,"is_disabled":false,"rental_uris":{"android":"levelo://app?vid=1d5af056-6db4-4614-acda-c6b076f6e52b","ios":"levelo://app?vid=1d5af056-6db4-4614-acda-c6b076f6e52b"},"vehicle_type_id":"4","last_reported":1684958800,"current_range_meters":20800,"station_id":"ce4bh0p2rcd13ifvqd70","pricing_plan_id":"free"},{"bike_id":"7c7df7b4-7acb-4ec8-ba1f-7d4f897cfcd4","system_id":"levelo_inurba_marseille","lat":43.290631,"lon":5.359244,"is_reserved":false,"is_disabled":false,"rental_uris":{"android":"levelo://app?vid=7c7df7b4-7acb-4ec8-ba1f-7d4f897cfcd4","ios":"levelo://app?vid=7c7df7b4-7acb-4ec8-ba1f-7d4f897cfcd4"},"vehicle_type_id":"4","last_reported":1684958800,"current_range_meters":5600,"station_id":"ce4bha92rcd13ifvqeg0","pricing_plan_id":"free"},{"bike_id":"588a1bd6-e0d4-4f5b-8da6-45b67e79dd8d","system_id":"levelo_inurba_marseille","lat":43.294153,"lon":5.386305,"is_reserved":false,"is_disabled":false,"rental_uris":{"android":"levelo://app?vid=588a1bd6-e0d4-4f5b-8da6-45b67e79dd8d","ios":"levelo://app?vid=588a1bd6-e0d4-4f5b-8da6-45b67e79dd8d"},"vehicle_type_id":"4","last_reported":1684958800,"current_range_meters":1200,"station_id":"ce4bh2h2rcd13ifvqdh0","pricing_plan_id":"free"},{"bike_id":"6dc96112-2613-4dbf-9f0e-2cfe15a95390","system_id":"levelo_inurba_marseille","lat":43.29421,"lon":5.38631,"is_reserved":false,"is_disabled":false,"rental_uris":{"android":"levelo://app?vid=6dc96112-2613-4dbf-9f0e-2cfe15a95390","ios":"levelo://app?vid=6dc96112-2613-4dbf-9f0e-2cfe15a95390"},"vehicle_type_id":"4","last_reported":1684958800,"current_range_meters":8000,"station_id":"ce4bh2h2rcd13ifvqdh0","pricing_plan_id":"free"},{"bike_id":"c8733add-ffbd-436e-81db-827bc2bdfd02","system_id":"levelo_inurba_marseille","lat":43.28945,"lon":5.36636,"is_reserved":false,"is_disabled":false,"rental_uris":{"android":"levelo://app?vid=c8733add-ffbd-436e-81db-827bc2bdfd02","ios":"levelo://app?vid=c8733add-ffbd-436e-81db-827bc2bdfd02"},"vehicle_type_id":"4","last_reported":1684958800,"current_range_meters":0,"station_id":"","pricing_plan_id":"free"},{"bike_id":"d4802363-9319-4e7c-8f3f-62d5733378c4","system_id":"levelo_inurba_marseille","lat":43.29417,"lon":5.38625,"is_reserved":false,"is_disabled":false,"rental_uris":{"android":"levelo://app?vid=d4802363-9319-4e7c-8f3f-62d5733378c4","ios":"levelo://app?vid=d4802363-9319-4e7c-8f3f-62d5733378c4"},"vehicle_type_id":"4","last_reported":1684958800,"current_range_meters":5200,"station_id":"ce4bh2h2rcd13ifvqdh0","pricing_plan_id":"free"},{"bike_id":"d5fe6211-dda7-40d9-abc0-acd1a51cd7c1","system_id":"levelo_inurba_marseille","lat":43.29418,"lon":5.38629,"is_reserved":false,"is_disabled":false,"rental_uris":{"android":"levelo://app?vid=d5fe6211-dda7-40d9-abc0-acd1a51cd7c1","ios":"levelo://app?vid=d5fe6211-dda7-40d9-abc0-acd1a51cd7c1"},"vehicle_type_id":"4","last_reported":1684958800,"current_range_meters":16000,"station_id":"ce4bh2h2rcd13ifvqdh0","pricing_plan_id":"free"},{"bike_id":"fa43d385-88c7-49b4-aed7-04a17f094dc4","system_id":"levelo_inurba_marseille","lat":43.28944,"lon":5.36634,"is_reserved":false,"is_disabled":false,"rental_uris":{"android":"levelo://app?vid=fa43d385-88c7-49b4-aed7-04a17f094dc4","ios":"levelo://app?vid=fa43d385-88c7-49b4-aed7-04a17f094dc4"},"vehicle_type_id":"4","last_reported":1684958800,"current_range_meters":6800,"station_id":"","pricing_plan_id":"free"},{"bike_id":"9a60c91e-a770-4b5a-a0f6-3ba2e25936bd","system_id":"levelo_inurba_marseille","lat":43.294162,"lon":5.386292,"is_reserved":false,"is_disabled":false,"rental_uris":{"android":"levelo://app?vid=9a60c91e-a770-4b5a-a0f6-3ba2e25936bd","ios":"levelo://app?vid=9a60c91e-a770-4b5a-a0f6-3ba2e25936bd"},"vehicle_type_id":"4","last_reported":1684958800,"current_range_meters":23600,"station_id":"ce4bh2h2rcd13ifvqdh0","pricing_plan_id":"free"},{"bike_id":"f065db02-244b-4609-9fc5-6783b47a06ad","system_id":"levelo_inurba_marseille","lat":43.28943,"lon":5.36641,"is_reserved":false,"is_disabled":false,"rental_uris":{"android":"levelo://app?vid=f065db02-244b-4609-9fc5-6783b47a06ad","ios":"levelo://app?vid=f065db02-244b-4609-9fc5-6783b47a06ad"},"vehicle_type_id":"4","last_reported":1684958800,"current_range_meters":17600,"station_id":"","pricing_plan_id":"free"},{"bike_id":"de173293-24e5-4a84-9bb5-f48947edd2e4","system_id":"levelo_inurba_marseille","lat":43.29417,"lon":5.3863,"is_reserved":false,"is_disabled":false,"rental_uris":{"android":"levelo://app?vid=de173293-24e5-4a84-9bb5-f48947edd2e4","ios":"levelo://app?vid=de173293-24e5-4a84-9bb5-f48947edd2e4"},"vehicle_type_id":"4","last_reported":1684958800,"current_range_meters":1200,"station_id":"ce4bh2h2rcd13ifvqdh0","pricing_plan_id":"free"},{"bike_id":"8bb34434-c667-49c2-8563-261cb31517b9","system_id":"levelo_inurba_marseille","lat":43.29413,"lon":5.38625,"is_reserved":false,"is_disabled":false,"rental_uris":{"android":"levelo://app?vid=8bb34434-c667-49c2-8563-261cb31517b9","ios":"levelo://app?vid=8bb34434-c667-49c2-8563-261cb31517b9"},"vehicle_type_id":"4","last_reported":1684958800,"current_range_meters":6000,"station_id":"ce4bh2h2rcd13ifvqdh0","pricing_plan_id":"free"},{"bike_id":"3846f0d3-4e83-4f72-87bd-635439a345cc","system_id":"levelo_inurba_marseille","lat":43.29414,"lon":5.38628,"is_reserved":false,"is_disabled":false,"rental_uris":{"android":"levelo://app?vid=3846f0d3-4e83-4f72-87bd-635439a345cc","ios":"levelo://app?vid=3846f0d3-4e83-4f72-87bd-635439a345cc"},"vehicle_type_id":"4","last_reported":1684958800,"current_range_meters":14800,"station_id":"ce4bh2h2rcd13ifvqdh0","pricing_plan_id":"free"},{"bike_id":"50801b8b-e10d-4a4f-819a-57773e991d5e","system_id":"levelo_inurba_marseille","lat":43.28941,"lon":5.36636,"is_reserved":false,"is_disabled":false,"rental_uris":{"android":"levelo://app?vid=50801b8b-e10d-4a4f-819a-57773e991d5e","ios":"levelo://app?vid=50801b8b-e10d-4a4f-819a-57773e991d5e"},"vehicle_type_id":"4","last_reported":1684958800,"current_range_meters":3600,"station_id":"ce4bhap2rcd13ifvqek0","pricing_plan_id":"free"},{"bike_id":"e5cdbde1-29d2-41a0-947c-9ad5887d8ce8","system_id":"levelo_inurba_marseille","lat":43.284534,"lon":5.358662,"is_reserved":false,"is_disabled":false,"rental_uris":{"android":"levelo://app?vid=e5cdbde1-29d2-41a0-947c-9ad5887d8ce8","ios":"levelo://app?vid=e5cdbde1-29d2-41a0-947c-9ad5887d8ce8"},"vehicle_type_id":"4","last_reported":1684958800,"current_range_meters":17600,"station_id":"ce4bhah2rcd13ifvqei0","pricing_plan_id":"free"},{"bike_id":"baffb05e-624e-49cc-b29a-2fd6fdd131b0","system_id":"levelo_inurba_marseille","lat":43.28939,"lon":5.36632,"is_reserved":false,"is_disabled":false,"rental_uris":{"android":"levelo://app?vid=baffb05e-624e-49cc-b29a-2fd6fdd131b0","ios":"levelo://app?vid=baffb05e-624e-49cc-b29a-2fd6fdd131b0"},"vehicle_type_id":"4","last_reported":1684958800,"current_range_meters":26400,"station_id":"ce4bhap2rcd13ifvqek0","pricing_plan_id":"free"},{"bike_id":"c290c9a5-91e5-4a01-b28a-bae38d70be59","system_id":"levelo_inurba_marseille","lat":43.28939,"lon":5.36631,"is_reserved":false,"is_disabled":false,"rental_uris":{"android":"levelo://app?vid=c290c9a5-91e5-4a01-b28a-bae38d70be59","ios":"levelo://app?vid=c290c9a5-91e5-4a01-b28a-bae38d70be59"},"vehicle_type_id":"4","last_reported":1684958800,"current_range_meters":6400,"station_id":"ce4bhap2rcd13ifvqek0","pricing_plan_id":"free"},{"bike_id":"05307c13-1bdd-4db4-9770-4b256476cb57","system_id":"levelo_inurba_marseille","lat":43.28937,"lon":5.36638,"is_reserved":false,"is_disabled":false,"rental_uris":{"android":"levelo://app?vid=05307c13-1bdd-4db4-9770-4b256476cb57","ios":"levelo://app?vid=05307c13-1bdd-4db4-9770-4b256476cb57"},"vehicle_type_id":"4","last_reported":1684958800,"current_range_meters":13200,"station_id":"ce4bhap2rcd13ifvqek0","pricing_plan_id":"free"},{"bike_id":"49581875-9052-4e0d-8a9f-8c761232c4d4","system_id":"levelo_inurba_marseille","lat":43.289468,"lon":5.363719,"is_reserved":false,"is_disabled":false,"rental_uris":{"android":"levelo://app?vid=49581875-9052-4e0d-8a9f-8c761232c4d4","ios":"levelo://app?vid=49581875-9052-4e0d-8a9f-8c761232c4d4"},"vehicle_type_id":"4","last_reported":1684958800,"current_range_meters":6000,"station_id":"ce4bhc92rcd13ifvqetg","pricing_plan_id":"free"},{"bike_id":"e3757006-2ac8-48bb-9724-f9cc05131541","system_id":"levelo_inurba_marseille","lat":43.28931,"lon":5.36629,"is_reserved":false,"is_disabled":false,"rental_uris":{"android":"levelo://app?vid=e3757006-2ac8-48bb-9724-f9cc05131541","ios":"levelo://app?vid=e3757006-2ac8-48bb-9724-f9cc05131541"},"vehicle_type_id":"4","last_reported":1684958800,"current_range_meters":28400,"station_id":"ce4bhap2rcd13ifvqek0","pricing_plan_id":"free"},{"bike_id":"c2efbf6f-40a0-4b03-a8f9-1a17dd5fe35b","system_id":"levelo_inurba_marseille","lat":43.28939,"lon":5.36395,"is_reserved":false,"is_disabled":false,"rental_uris":{"android":"levelo://app?vid=c2efbf6f-40a0-4b03-a8f9-1a17dd5fe35b","ios":"levelo://app?vid=c2efbf6f-40a0-4b03-a8f9-1a17dd5fe35b"},"vehicle_type_id":"4","last_reported":1684958800,"current_range_meters":12400,"station_id":"","pricing_plan_id":"free"},{"bike_id":"83f839a1-a7c7-4c5c-a381-52464fc397e1","system_id":"levelo_inurba_marseille","lat":43.289468,"lon":5.363719,"is_reserved":false,"is_disabled":false,"rental_uris":{"android":"levelo://app?vid=83f839a1-a7c7-4c5c-a381-52464fc397e1","ios":"levelo://app?vid=83f839a1-a7c7-4c5c-a381-52464fc397e1"},"vehicle_type_id":"4","last_reported":1684958800,"current_range_meters":6000,"station_id":"ce4bhc92rcd13ifvqetg","pricing_plan_id":"free"},{"bike_id":"98d84716-85e0-492b-9726-90e435927f73","system_id":"levelo_inurba_marseille","lat":43.289468,"lon":5.363719,"is_reserved":false,"is_disabled":false,"rental_uris":{"android":"levelo://app?vid=98d84716-85e0-492b-9726-90e435927f73","ios":"levelo://app?vid=98d84716-85e0-492b-9726-90e435927f73"},"vehicle_type_id":"4","last_reported":1684958800,"current_range_meters":8000,"station_id":"ce4bhc92rcd13ifvqetg","pricing_plan_id":"free"},{"bike_id":"c43b9415-a2e8-4cc5-9a90-55f37e666461","system_id":"levelo_inurba_marseille","lat":43.29267,"lon":5.38438,"is_reserved":false,"is_disabled":false,"rental_uris":{"android":"levelo://app?vid=c43b9415-a2e8-4cc5-9a90-55f37e666461","ios":"levelo://app?vid=c43b9415-a2e8-4cc5-9a90-55f37e666461"},"vehicle_type_id":"4","last_reported":1684958800,"current_range_meters":13600,"station_id":"ce4bh692rcd13ifvqea0","pricing_plan_id":"free"},{"bike_id":"90721398-4b8a-4e9e-a977-3f32368e12c0","system_id":"levelo_inurba_marseille","lat":43.29267,"lon":5.38441,"is_reserved":false,"is_disabled":false,"rental_uris":{"android":"levelo://app?vid=90721398-4b8a-4e9e-a977-3f32368e12c0","ios":"levelo://app?vid=90721398-4b8a-4e9e-a977-3f32368e12c0"},"vehicle_type_id":"4","last_reported":1684958800,"current_range_meters":12800,"station_id":"ce4bh692rcd13ifvqea0","pricing_plan_id":"free"},{"bike_id":"44c09ba2-632a-4a0a-b1fb-2f09b6af310f","system_id":"levelo_inurba_marseille","lat":43.29262,"lon":5.38437,"is_reserved":false,"is_disabled":false,"rental_uris":{"android":"levelo://app?vid=44c09ba2-632a-4a0a-b1fb-2f09b6af310f","ios":"levelo://app?vid=44c09ba2-632a-4a0a-b1fb-2f09b6af310f"},"vehicle_type_id":"4","last_reported":1684958800,"current_range_meters":8400,"station_id":"ce4bh692rcd13ifvqea0","pricing_plan_id":"free"},{"bike_id":"b0667f3a-99b1-45dd-b1cd-dd43912e58d3","system_id":"levelo_inurba_marseille","lat":43.29262,"lon":5.38444,"is_reserved":false,"is_disabled":false,"rental_uris":{"android":"levelo://app?vid=b0667f3a-99b1-45dd-b1cd-dd43912e58d3","ios":"levelo://app?vid=b0667f3a-99b1-45dd-b1cd-dd43912e58d3"},"vehicle_type_id":"4","last_reported":1684958800,"current_range_meters":21600,"station_id":"ce4bh692rcd13ifvqea0","pricing_plan_id":"free"},{"bike_id":"451b6941-9da6-41c9-9b46-e38c33205415","system_id":"levelo_inurba_marseille","lat":43.29259,"lon":5.38442,"is_reserved":false,"is_disabled":false,"rental_uris":{"android":"levelo://app?vid=451b6941-9da6-41c9-9b46-e38c33205415","ios":"levelo://app?vid=451b6941-9da6-41c9-9b46-e38c33205415"},"vehicle_type_id":"4","last_reported":1684958800,"current_range_meters":25200,"station_id":"ce4bh692rcd13ifvqea0","pricing_plan_id":"free"},{"bike_id":"d6159e40-50bf-4629-a8a7-6cfdda24171b","system_id":"levelo_inurba_marseille","lat":43.29257,"lon":5.38442,"is_reserved":false,"is_disabled":false,"rental_uris":{"android":"levelo://app?vid=d6159e40-50bf-4629-a8a7-6cfdda24171b","ios":"levelo://app?vid=d6159e40-50bf-4629-a8a7-6cfdda24171b"},"vehicle_type_id":"4","last_reported":1684958800,"current_range_meters":0,"station_id":"ce4bh692rcd13ifvqea0","pricing_plan_id":"free"},{"bike_id":"31bf6d94-2310-4e7e-9dda-42210cc28684","system_id":"levelo_inurba_marseille","lat":43.290104,"lon":5.356111,"is_reserved":false,"is_disabled":false,"rental_uris":{"android":"levelo://app?vid=31bf6d94-2310-4e7e-9dda-42210cc28684","ios":"levelo://app?vid=31bf6d94-2310-4e7e-9dda-42210cc28684"},"vehicle_type_id":"4","last_reported":1684958800,"current_range_meters":8800,"station_id":"ce4bhb92rcd13ifvqen0","pricing_plan_id":"free"},{"bike_id":"2fc2c6b3-1be8-4eda-8376-caa8cb2396aa","system_id":"levelo_inurba_marseille","lat":43.3305,"lon":5.38915,"is_reserved":false,"is_disabled":false,"rental_uris":{"android":"levelo://app?vid=2fc2c6b3-1be8-4eda-8376-caa8cb2396aa","ios":"levelo://app?vid=2fc2c6b3-1be8-4eda-8376-caa8cb2396aa"},"vehicle_type_id":"4","last_reported":1684958800,"current_range_meters":17200,"station_id":"ce4bhr92rcd13ifvqhrg","pricing_plan_id":"free"},{"bike_id":"79d410b5-e714-41eb-ad81-80d28990c152","system_id":"levelo_inurba_marseille","lat":43.33046,"lon":5.38922,"is_reserved":false,"is_disabled":false,"rental_uris":{"android":"levelo://app?vid=79d410b5-e714-41eb-ad81-80d28990c152","ios":"levelo://app?vid=79d410b5-e714-41eb-ad81-80d28990c152"},"vehicle_type_id":"4","last_reported":1684958800,"current_range_meters":30400,"station_id":"ce4bhr92rcd13ifvqhrg","pricing_plan_id":"free"},{"bike_id":"2329141a-a2db-4736-8f5d-9ef37d12a245","system_id":"levelo_inurba_marseille","lat":43.290995,"lon":5.381361,"is_reserved":false,"is_disabled":false,"rental_uris":{"android":"levelo://app?vid=2329141a-a2db-4736-8f5d-9ef37d12a245","ios":"levelo://app?vid=2329141a-a2db-4736-8f5d-9ef37d12a245"},"vehicle_type_id":"4","last_reported":1684958800,"current_range_meters":18800,"station_id":"ce4bh512rcd13ifvqe2g","pricing_plan_id":"free"},{"bike_id":"dd636dfc-5652-447f-816c-1191befa3cde","system_id":"levelo_inurba_marseille","lat":43.289184,"lon":5.366408,"is_reserved":false,"is_disabled":false,"rental_uris":{"android":"levelo://app?vid=dd636dfc-5652-447f-816c-1191befa3cde","ios":"levelo://app?vid=dd636dfc-5652-447f-816c-1191befa3cde"},"vehicle_type_id":"4","last_reported":1684958800,"current_range_meters":400,"station_id":"ce4bhap2rcd13ifvqek0","pricing_plan_id":"free"},{"bike_id":"15ce52ef-25aa-4bc8-a637-d14a075ae5fd","system_id":"levelo_inurba_marseille","lat":43.290995,"lon":5.381361,"is_reserved":false,"is_disabled":false,"rental_uris":{"android":"levelo://app?vid=15ce52ef-25aa-4bc8-a637-d14a075ae5fd","ios":"levelo://app?vid=15ce52ef-25aa-4bc8-a637-d14a075ae5fd"},"vehicle_type_id":"4","last_reported":1684958800,"current_range_meters":6800,"station_id":"ce4bh512rcd13ifvqe2g","pricing_plan_id":"free"},{"bike_id":"979545c9-f618-4e17-bae0-be65eebd0471","system_id":"levelo_inurba_marseille","lat":43.290995,"lon":5.381361,"is_reserved":false,"is_disabled":false,"rental_uris":{"android":"levelo://app?vid=979545c9-f618-4e17-bae0-be65eebd0471","ios":"levelo://app?vid=979545c9-f618-4e17-bae0-be65eebd0471"},"vehicle_type_id":"4","last_reported":1684958800,"current_range_meters":14000,"station_id":"ce4bh512rcd13ifvqe2g","pricing_plan_id":"free"},{"bike_id":"b5022d6c-cc5e-4ca2-99cb-3ca5855d7fd7","system_id":"levelo_inurba_marseille","lat":43.29785,"lon":5.39337,"is_reserved":false,"is_disabled":false,"rental_uris":{"android":"levelo://app?vid=b5022d6c-cc5e-4ca2-99cb-3ca5855d7fd7","ios":"levelo://app?vid=b5022d6c-cc5e-4ca2-99cb-3ca5855d7fd7"},"vehicle_type_id":"4","last_reported":1684958800,"current_range_meters":7200,"station_id":"chh1huq6cuj3fo74tm60","pricing_plan_id":"free"},{"bike_id":"1915f91a-949f-4f17-a41e-cfd61afb5d85","system_id":"levelo_inurba_marseille","lat":43.290995,"lon":5.381361,"is_reserved":false,"is_disabled":false,"rental_uris":{"android":"levelo://app?vid=1915f91a-949f-4f17-a41e-cfd61afb5d85","ios":"levelo://app?vid=1915f91a-949f-4f17-a41e-cfd61afb5d85"},"vehicle_type_id":"4","last_reported":1684958800,"current_range_meters":22400,"station_id":"ce4bh512rcd13ifvqe2g","pricing_plan_id":"free"},{"bike_id":"4f3a5ab7-590c-424a-8710-3912bc5728e7","system_id":"levelo_inurba_marseille","lat":43.295169,"lon":5.390426,"is_reserved":false,"is_disabled":false,"rental_uris":{"android":"levelo://app?vid=4f3a5ab7-590c-424a-8710-3912bc5728e7","ios":"levelo://app?vid=4f3a5ab7-590c-424a-8710-3912bc5728e7"},"vehicle_type_id":"4","last_reported":1684958800,"current_range_meters":15200,"station_id":"ce4bh3p2rcd13ifvqdp0","pricing_plan_id":"free"},{"bike_id":"af782d70-d57e-47a0-ae4f-593272e67809","system_id":"levelo_inurba_marseille","lat":43.295169,"lon":5.390426,"is_reserved":false,"is_disabled":false,"rental_uris":{"android":"levelo://app?vid=af782d70-d57e-47a0-ae4f-593272e67809","ios":"levelo://app?vid=af782d70-d57e-47a0-ae4f-593272e67809"},"vehicle_type_id":"4","last_reported":1684958800,"current_range_meters":9600,"station_id":"ce4bh3p2rcd13ifvqdp0","pricing_plan_id":"free"},{"bike_id":"5c5a9afa-3d67-4f98-8d3a-92de508089d6","system_id":"levelo_inurba_marseille","lat":43.295169,"lon":5.390426,"is_reserved":false,"is_disabled":false,"rental_uris":{"android":"levelo://app?vid=5c5a9afa-3d67-4f98-8d3a-92de508089d6","ios":"levelo://app?vid=5c5a9afa-3d67-4f98-8d3a-92de508089d6"},"vehicle_type_id":"4","last_reported":1684958800,"current_range_meters":22400,"station_id":"ce4bh3p2rcd13ifvqdp0","pricing_plan_id":"free"},{"bike_id":"1b8534a7-080b-4606-b956-882ca96ee7d1","system_id":"levelo_inurba_marseille","lat":43.28862,"lon":5.35852,"is_reserved":false,"is_disabled":false,"rental_uris":{"android":"levelo://app?vid=1b8534a7-080b-4606-b956-882ca96ee7d1","ios":"levelo://app?vid=1b8534a7-080b-4606-b956-882ca96ee7d1"},"vehicle_type_id":"4","last_reported":1684958800,"current_range_meters":24800,"station_id":"ce4bhb12rcd13ifvqem0","pricing_plan_id":"free"},{"bike_id":"5429cd74-62e4-40a4-8153-0c7a8467ca84","system_id":"levelo_inurba_marseille","lat":43.28857,"lon":5.35843,"is_reserved":false,"is_disabled":false,"rental_uris":{"android":"levelo://app?vid=5429cd74-62e4-40a4-8153-0c7a8467ca84","ios":"levelo://app?vid=5429cd74-62e4-40a4-8153-0c7a8467ca84"},"vehicle_type_id":"4","last_reported":1684958800,"current_range_meters":7200,"station_id":"ce4bhb12rcd13ifvqem0","pricing_plan_id":"free"},{"bike_id":"deccdead-3a19-4eb1-a04e-30061fe6dc26","system_id":"levelo_inurba_marseille","lat":43.33749,"lon":5.37448,"is_reserved":false,"is_disabled":false,"rental_uris":{"android":"levelo://app?vid=deccdead-3a19-4eb1-a04e-30061fe6dc26","ios":"levelo://app?vid=deccdead-3a19-4eb1-a04e-30061fe6dc26"},"vehicle_type_id":"4","last_reported":1684958800,"current_range_meters":23600,"station_id":"","pricing_plan_id":"free"},{"bike_id":"520fc77a-7d4a-40bb-ad89-fdcc0c148c34","system_id":"levelo_inurba_marseille","lat":43.3375,"lon":5.37456,"is_reserved":false,"is_disabled":false,"rental_uris":{"android":"levelo://app?vid=520fc77a-7d4a-40bb-ad89-fdcc0c148c34","ios":"levelo://app?vid=520fc77a-7d4a-40bb-ad89-fdcc0c148c34"},"vehicle_type_id":"4","last_reported":1684958800,"current_range_meters":30400,"station_id":"","pricing_plan_id":"free"},{"bike_id":"40b58590-091a-4add-9f25-2c62b7c16693","system_id":"levelo_inurba_marseille","lat":43.33758,"lon":5.37435,"is_reserved":false,"is_disabled":false,"rental_uris":{"android":"levelo://app?vid=40b58590-091a-4add-9f25-2c62b7c16693","ios":"levelo://app?vid=40b58590-091a-4add-9f25-2c62b7c16693"},"vehicle_type_id":"4","last_reported":1684958800,"current_range_meters":29600,"station_id":"","pricing_plan_id":"free"},{"bike_id":"b5fd9918-f4b8-4618-bcb3-ec74ff85bc47","system_id":"levelo_inurba_marseille","lat":43.33758,"lon":5.37447,"is_reserved":false,"is_disabled":false,"rental_uris":{"android":"levelo://app?vid=b5fd9918-f4b8-4618-bcb3-ec74ff85bc47","ios":"levelo://app?vid=b5fd9918-f4b8-4618-bcb3-ec74ff85bc47"},"vehicle_type_id":"4","last_reported":1684958800,"current_range_meters":25200,"station_id":"","pricing_plan_id":"free"},{"bike_id":"154cb1eb-e8ef-4344-91cf-935882db7b5f","system_id":"levelo_inurba_marseille","lat":43.33758,"lon":5.37508,"is_reserved":false,"is_disabled":false,"rental_uris":{"android":"levelo://app?vid=154cb1eb-e8ef-4344-91cf-935882db7b5f","ios":"levelo://app?vid=154cb1eb-e8ef-4344-91cf-935882db7b5f"},"vehicle_type_id":"4","last_reported":1684958800,"current_range_meters":30000,"station_id":"","pricing_plan_id":"free"},{"bike_id":"7b615e0a-8264-4db7-9fc4-f31a8605525f","system_id":"levelo_inurba_marseille","lat":43.301117,"lon":5.398795,"is_reserved":false,"is_disabled":false,"rental_uris":{"android":"levelo://app?vid=7b615e0a-8264-4db7-9fc4-f31a8605525f","ios":"levelo://app?vid=7b615e0a-8264-4db7-9fc4-f31a8605525f"},"vehicle_type_id":"4","last_reported":1684958800,"current_range_meters":8800,"station_id":"ce4bh0h2rcd13ifvqd40","pricing_plan_id":"free"},{"bike_id":"6382aa16-df59-441f-9fb0-25ffc834ccdd","system_id":"levelo_inurba_marseille","lat":43.301117,"lon":5.398795,"is_reserved":false,"is_disabled":false,"rental_uris":{"android":"levelo://app?vid=6382aa16-df59-441f-9fb0-25ffc834ccdd","ios":"levelo://app?vid=6382aa16-df59-441f-9fb0-25ffc834ccdd"},"vehicle_type_id":"4","last_reported":1684958800,"current_range_meters":8000,"station_id":"ce4bh0h2rcd13ifvqd40","pricing_plan_id":"free"},{"bike_id":"15e68253-a10e-490b-bb31-54f958fc372c","system_id":"levelo_inurba_marseille","lat":43.286591,"lon":5.363346,"is_reserved":false,"is_disabled":false,"rental_uris":{"android":"levelo://app?vid=15e68253-a10e-490b-bb31-54f958fc372c","ios":"levelo://app?vid=15e68253-a10e-490b-bb31-54f958fc372c"},"vehicle_type_id":"4","last_reported":1684958800,"current_range_meters":12000,"station_id":"ce4bhah2rcd13ifvqej0","pricing_plan_id":"free"},{"bike_id":"3268c138-c25e-4279-987f-412b75b515ca","system_id":"levelo_inurba_marseille","lat":43.286591,"lon":5.363346,"is_reserved":false,"is_disabled":false,"rental_uris":{"android":"levelo://app?vid=3268c138-c25e-4279-987f-412b75b515ca","ios":"levelo://app?vid=3268c138-c25e-4279-987f-412b75b515ca"},"vehicle_type_id":"4","last_reported":1684958800,"current_range_meters":11600,"station_id":"ce4bhah2rcd13ifvqej0","pricing_plan_id":"free"},{"bike_id":"3773c7ea-3f3f-4342-9fc3-4188867e0307","system_id":"levelo_inurba_marseille","lat":43.298681,"lon":5.397225,"is_reserved":false,"is_disabled":false,"rental_uris":{"android":"levelo://app?vid=3773c7ea-3f3f-4342-9fc3-4188867e0307","ios":"levelo://app?vid=3773c7ea-3f3f-4342-9fc3-4188867e0307"},"vehicle_type_id":"4","last_reported":1684958800,"current_range_meters":20400,"station_id":"ce4bh0h2rcd13ifvqd50","pricing_plan_id":"free"},{"bike_id":"cfb8effd-ddad-4daa-9484-c8de98709650","system_id":"levelo_inurba_marseille","lat":43.286591,"lon":5.363346,"is_reserved":false,"is_disabled":false,"rental_uris":{"android":"levelo://app?vid=cfb8effd-ddad-4daa-9484-c8de98709650","ios":"levelo://app?vid=cfb8effd-ddad-4daa-9484-c8de98709650"},"vehicle_type_id":"4","last_reported":1684958800,"current_range_meters":31200,"station_id":"ce4bhah2rcd13ifvqej0","pricing_plan_id":"free"},{"bike_id":"123621fb-6c15-4df2-915d-88cc0203612d","system_id":"levelo_inurba_marseille","lat":43.30444,"lon":5.40106,"is_reserved":false,"is_disabled":false,"rental_uris":{"android":"levelo://app?vid=123621fb-6c15-4df2-915d-88cc0203612d","ios":"levelo://app?vid=123621fb-6c15-4df2-915d-88cc0203612d"},"vehicle_type_id":"4","last_reported":1684958800,"current_range_meters":12800,"station_id":"","pricing_plan_id":"free"},{"bike_id":"6fcc00c1-97d4-413d-829a-e0a293f2cc05","system_id":"levelo_inurba_marseille","lat":43.286591,"lon":5.363346,"is_reserved":false,"is_disabled":false,"rental_uris":{"android":"levelo://app?vid=6fcc00c1-97d4-413d-829a-e0a293f2cc05","ios":"levelo://app?vid=6fcc00c1-97d4-413d-829a-e0a293f2cc05"},"vehicle_type_id":"4","last_reported":1684958800,"current_range_meters":4800,"station_id":"ce4bhah2rcd13ifvqej0","pricing_plan_id":"free"},{"bike_id":"c80f9298-a317-4d0e-a265-03d94ef7d777","system_id":"levelo_inurba_marseille","lat":43.298681,"lon":5.397225,"is_reserved":false,"is_disabled":false,"rental_uris":{"android":"levelo://app?vid=c80f9298-a317-4d0e-a265-03d94ef7d777","ios":"levelo://app?vid=c80f9298-a317-4d0e-a265-03d94ef7d777"},"vehicle_type_id":"4","last_reported":1684958800,"current_range_meters":10800,"station_id":"ce4bh0h2rcd13ifvqd50","pricing_plan_id":"free"},{"bike_id":"86700cbc-69f3-4947-b80e-4fe910e3012d","system_id":"levelo_inurba_marseille","lat":43.286593,"lon":5.363346,"is_reserved":false,"is_disabled":false,"rental_uris":{"android":"levelo://app?vid=86700cbc-69f3-4947-b80e-4fe910e3012d","ios":"levelo://app?vid=86700cbc-69f3-4947-b80e-4fe910e3012d"},"vehicle_type_id":"4","last_reported":1684958800,"current_range_meters":24800,"station_id":"ce4bhah2rcd13ifvqej0","pricing_plan_id":"free"},{"bike_id":"d795b840-e3b1-4209-aa73-56728dc2a508","system_id":"levelo_inurba_marseille","lat":43.286593,"lon":5.363346,"is_reserved":false,"is_disabled":false,"rental_uris":{"android":"levelo://app?vid=d795b840-e3b1-4209-aa73-56728dc2a508","ios":"levelo://app?vid=d795b840-e3b1-4209-aa73-56728dc2a508"},"vehicle_type_id":"4","last_reported":1684958800,"current_range_meters":1600,"station_id":"ce4bhah2rcd13ifvqej0","pricing_plan_id":"free"},{"bike_id":"9b524edd-de19-48b2-803c-3c5383a7df30","system_id":"levelo_inurba_marseille","lat":43.286593,"lon":5.363346,"is_reserved":false,"is_disabled":false,"rental_uris":{"android":"levelo://app?vid=9b524edd-de19-48b2-803c-3c5383a7df30","ios":"levelo://app?vid=9b524edd-de19-48b2-803c-3c5383a7df30"},"vehicle_type_id":"4","last_reported":1684958800,"current_range_meters":16000,"station_id":"ce4bhah2rcd13ifvqej0","pricing_plan_id":"free"},{"bike_id":"5adc80f8-7482-42b7-88af-80ec8da87666","system_id":"levelo_inurba_marseille","lat":43.286593,"lon":5.363346,"is_reserved":false,"is_disabled":false,"rental_uris":{"android":"levelo://app?vid=5adc80f8-7482-42b7-88af-80ec8da87666","ios":"levelo://app?vid=5adc80f8-7482-42b7-88af-80ec8da87666"},"vehicle_type_id":"4","last_reported":1684958800,"current_range_meters":4000,"station_id":"ce4bhah2rcd13ifvqej0","pricing_plan_id":"free"},{"bike_id":"7871bcf4-3fff-402d-b95b-26feb52a8412","system_id":"levelo_inurba_marseille","lat":43.286593,"lon":5.363346,"is_reserved":false,"is_disabled":false,"rental_uris":{"android":"levelo://app?vid=7871bcf4-3fff-402d-b95b-26feb52a8412","ios":"levelo://app?vid=7871bcf4-3fff-402d-b95b-26feb52a8412"},"vehicle_type_id":"4","last_reported":1684958800,"current_range_meters":12800,"station_id":"ce4bhah2rcd13ifvqej0","pricing_plan_id":"free"},{"bike_id":"e2454cc8-fdc7-4e27-8eac-b73b65611692","system_id":"levelo_inurba_marseille","lat":43.286591,"lon":5.363346,"is_reserved":false,"is_disabled":false,"rental_uris":{"android":"levelo://app?vid=e2454cc8-fdc7-4e27-8eac-b73b65611692","ios":"levelo://app?vid=e2454cc8-fdc7-4e27-8eac-b73b65611692"},"vehicle_type_id":"4","last_reported":1684958800,"current_range_meters":17200,"station_id":"ce4bhah2rcd13ifvqej0","pricing_plan_id":"free"},{"bike_id":"6b99e280-91b0-4f02-8fc2-1bc2b67a77a0","system_id":"levelo_inurba_marseille","lat":43.286593,"lon":5.363346,"is_reserved":false,"is_disabled":false,"rental_uris":{"android":"levelo://app?vid=6b99e280-91b0-4f02-8fc2-1bc2b67a77a0","ios":"levelo://app?vid=6b99e280-91b0-4f02-8fc2-1bc2b67a77a0"},"vehicle_type_id":"4","last_reported":1684958800,"current_range_meters":2000,"station_id":"ce4bhah2rcd13ifvqej0","pricing_plan_id":"free"},{"bike_id":"067ae574-8f9d-441d-bcee-4daf0f415a36","system_id":"levelo_inurba_marseille","lat":43.295196,"lon":5.39397,"is_reserved":false,"is_disabled":false,"rental_uris":{"android":"levelo://app?vid=067ae574-8f9d-441d-bcee-4daf0f415a36","ios":"levelo://app?vid=067ae574-8f9d-441d-bcee-4daf0f415a36"},"vehicle_type_id":"4","last_reported":1684958800,"current_range_meters":14400,"station_id":"ce4bh292rcd13ifvqdf0","pricing_plan_id":"free"},{"bike_id":"adcf04be-249b-4bbe-9201-8712334850c2","system_id":"levelo_inurba_marseille","lat":43.295196,"lon":5.39397,"is_reserved":false,"is_disabled":false,"rental_uris":{"android":"levelo://app?vid=adcf04be-249b-4bbe-9201-8712334850c2","ios":"levelo://app?vid=adcf04be-249b-4bbe-9201-8712334850c2"},"vehicle_type_id":"4","last_reported":1684958800,"current_range_meters":3600,"station_id":"ce4bh292rcd13ifvqdf0","pricing_plan_id":"free"},{"bike_id":"f24b9b88-f985-45d7-a4f8-59b7f03f041c","system_id":"levelo_inurba_marseille","lat":43.29511,"lon":5.39398,"is_reserved":false,"is_disabled":false,"rental_uris":{"android":"levelo://app?vid=f24b9b88-f985-45d7-a4f8-59b7f03f041c","ios":"levelo://app?vid=f24b9b88-f985-45d7-a4f8-59b7f03f041c"},"vehicle_type_id":"4","last_reported":1684958800,"current_range_meters":16000,"station_id":"ce4bh292rcd13ifvqdf0","pricing_plan_id":"free"},{"bike_id":"e3541e5f-83b8-4383-8be4-e29eb8afad9f","system_id":"levelo_inurba_marseille","lat":43.29513,"lon":5.39401,"is_reserved":false,"is_disabled":false,"rental_uris":{"android":"levelo://app?vid=e3541e5f-83b8-4383-8be4-e29eb8afad9f","ios":"levelo://app?vid=e3541e5f-83b8-4383-8be4-e29eb8afad9f"},"vehicle_type_id":"4","last_reported":1684958800,"current_range_meters":12800,"station_id":"ce4bh292rcd13ifvqdf0","pricing_plan_id":"free"},{"bike_id":"b4d13f0e-4e9c-4f39-88c2-28c25f383b39","system_id":"levelo_inurba_marseille","lat":43.29516,"lon":5.39405,"is_reserved":false,"is_disabled":false,"rental_uris":{"android":"levelo://app?vid=b4d13f0e-4e9c-4f39-88c2-28c25f383b39","ios":"levelo://app?vid=b4d13f0e-4e9c-4f39-88c2-28c25f383b39"},"vehicle_type_id":"4","last_reported":1684958800,"current_range_meters":22400,"station_id":"ce4bh292rcd13ifvqdf0","pricing_plan_id":"free"},{"bike_id":"6f9ef383-fe25-4d12-9d09-d8ccdf5a824a","system_id":"levelo_inurba_marseille","lat":43.295196,"lon":5.39397,"is_reserved":false,"is_disabled":false,"rental_uris":{"android":"levelo://app?vid=6f9ef383-fe25-4d12-9d09-d8ccdf5a824a","ios":"levelo://app?vid=6f9ef383-fe25-4d12-9d09-d8ccdf5a824a"},"vehicle_type_id":"4","last_reported":1684958800,"current_range_meters":7200,"station_id":"ce4bh292rcd13ifvqdf0","pricing_plan_id":"free"},{"bike_id":"1e412a3f-1ded-4c73-afdb-f29ea086583b","system_id":"levelo_inurba_marseille","lat":43.2951,"lon":5.39403,"is_reserved":false,"is_disabled":false,"rental_uris":{"android":"levelo://app?vid=1e412a3f-1ded-4c73-afdb-f29ea086583b","ios":"levelo://app?vid=1e412a3f-1ded-4c73-afdb-f29ea086583b"},"vehicle_type_id":"4","last_reported":1684958800,"current_range_meters":10400,"station_id":"ce4bh292rcd13ifvqdf0","pricing_plan_id":"free"},{"bike_id":"99dda9d6-af25-435a-9a87-32d86a466a88","system_id":"levelo_inurba_marseille","lat":43.290345,"lon":5.38646,"is_reserved":false,"is_disabled":false,"rental_uris":{"android":"levelo://app?vid=99dda9d6-af25-435a-9a87-32d86a466a88","ios":"levelo://app?vid=99dda9d6-af25-435a-9a87-32d86a466a88"},"vehicle_type_id":"4","last_reported":1684958800,"current_range_meters":6800,"station_id":"ce4bh4p2rcd13ifvqe0g","pricing_plan_id":"free"},{"bike_id":"926649b1-101b-4893-8ba6-2ec9d2df4e3a","system_id":"levelo_inurba_marseille","lat":43.29503,"lon":5.39403,"is_reserved":false,"is_disabled":false,"rental_uris":{"android":"levelo://app?vid=926649b1-101b-4893-8ba6-2ec9d2df4e3a","ios":"levelo://app?vid=926649b1-101b-4893-8ba6-2ec9d2df4e3a"},"vehicle_type_id":"4","last_reported":1684958800,"current_range_meters":26400,"station_id":"ce4bh292rcd13ifvqdf0","pricing_plan_id":"free"},{"bike_id":"5733da62-e872-45a3-b8bc-ba4dd03d5f5d","system_id":"levelo_inurba_marseille","lat":43.290336,"lon":5.386425,"is_reserved":false,"is_disabled":false,"rental_uris":{"android":"levelo://app?vid=5733da62-e872-45a3-b8bc-ba4dd03d5f5d","ios":"levelo://app?vid=5733da62-e872-45a3-b8bc-ba4dd03d5f5d"},"vehicle_type_id":"4","last_reported":1684958800,"current_range_meters":17200,"station_id":"ce4bh4p2rcd13ifvqe0g","pricing_plan_id":"free"},{"bike_id":"f078ccb6-b7e4-44da-b2e0-926d7ed5cdb6","system_id":"levelo_inurba_marseille","lat":43.290336,"lon":5.386425,"is_reserved":false,"is_disabled":false,"rental_uris":{"android":"levelo://app?vid=f078ccb6-b7e4-44da-b2e0-926d7ed5cdb6","ios":"levelo://app?vid=f078ccb6-b7e4-44da-b2e0-926d7ed5cdb6"},"vehicle_type_id":"4","last_reported":1684958800,"current_range_meters":8800,"station_id":"ce4bh4p2rcd13ifvqe0g","pricing_plan_id":"free"},{"bike_id":"24c7feae-b4e5-4ae0-90eb-7190ba4e5450","system_id":"levelo_inurba_marseille","lat":43.28613,"lon":5.37066,"is_reserved":false,"is_disabled":false,"rental_uris":{"android":"levelo://app?vid=24c7feae-b4e5-4ae0-90eb-7190ba4e5450","ios":"levelo://app?vid=24c7feae-b4e5-4ae0-90eb-7190ba4e5450"},"vehicle_type_id":"4","last_reported":1684958800,"current_range_meters":13200,"station_id":"","pricing_plan_id":"free"},{"bike_id":"b85bad72-40d1-4b3d-a7db-6283df1b89c8","system_id":"levelo_inurba_marseille","lat":43.287185,"lon":5.379373,"is_reserved":false,"is_disabled":false,"rental_uris":{"android":"levelo://app?vid=b85bad72-40d1-4b3d-a7db-6283df1b89c8","ios":"levelo://app?vid=b85bad72-40d1-4b3d-a7db-6283df1b89c8"},"vehicle_type_id":"4","last_reported":1684958800,"current_range_meters":11600,"station_id":"ce4bh9p2rcd13ifvqec0","pricing_plan_id":"free"},{"bike_id":"2e9713b1-f9f8-4950-9213-f8345e3ccbc7","system_id":"levelo_inurba_marseille","lat":43.287185,"lon":5.379373,"is_reserved":false,"is_disabled":false,"rental_uris":{"android":"levelo://app?vid=2e9713b1-f9f8-4950-9213-f8345e3ccbc7","ios":"levelo://app?vid=2e9713b1-f9f8-4950-9213-f8345e3ccbc7"},"vehicle_type_id":"4","last_reported":1684958800,"current_range_meters":25200,"station_id":"ce4bh9p2rcd13ifvqec0","pricing_plan_id":"free"},{"bike_id":"6ce58207-26d4-46d5-80e5-5dc640b35fc8","system_id":"levelo_inurba_marseille","lat":43.287184,"lon":5.37937,"is_reserved":false,"is_disabled":false,"rental_uris":{"android":"levelo://app?vid=6ce58207-26d4-46d5-80e5-5dc640b35fc8","ios":"levelo://app?vid=6ce58207-26d4-46d5-80e5-5dc640b35fc8"},"vehicle_type_id":"4","last_reported":1684958800,"current_range_meters":4800,"station_id":"ce4bh9p2rcd13ifvqec0","pricing_plan_id":"free"},{"bike_id":"e6e645ad-2c04-4723-9429-31ceab873b0a","system_id":"levelo_inurba_marseille","lat":43.2872,"lon":5.37943,"is_reserved":false,"is_disabled":false,"rental_uris":{"android":"levelo://app?vid=e6e645ad-2c04-4723-9429-31ceab873b0a","ios":"levelo://app?vid=e6e645ad-2c04-4723-9429-31ceab873b0a"},"vehicle_type_id":"4","last_reported":1684958800,"current_range_meters":10000,"station_id":"","pricing_plan_id":"free"},{"bike_id":"29a0eeee-91f2-4a1a-a8b4-4fe877ad3bd9","system_id":"levelo_inurba_marseille","lat":43.31641,"lon":5.40431,"is_reserved":false,"is_disabled":false,"rental_uris":{"android":"levelo://app?vid=29a0eeee-91f2-4a1a-a8b4-4fe877ad3bd9","ios":"levelo://app?vid=29a0eeee-91f2-4a1a-a8b4-4fe877ad3bd9"},"vehicle_type_id":"4","last_reported":1684958800,"current_range_meters":0,"station_id":"ce4bh012rcd13ifvqd00","pricing_plan_id":"free"},{"bike_id":"66e9855c-dfd5-4865-b205-a51662ba00fa","system_id":"levelo_inurba_marseille","lat":43.316523,"lon":5.404367,"is_reserved":false,"is_disabled":false,"rental_uris":{"android":"levelo://app?vid=66e9855c-dfd5-4865-b205-a51662ba00fa","ios":"levelo://app?vid=66e9855c-dfd5-4865-b205-a51662ba00fa"},"vehicle_type_id":"4","last_reported":1684958800,"current_range_meters":0,"station_id":"ce4bh012rcd13ifvqd00","pricing_plan_id":"free"},{"bike_id":"dd83cfa3-03a3-4ae3-bd83-5270f88d6e98","system_id":"levelo_inurba_marseille","lat":43.291994,"lon":5.392907,"is_reserved":false,"is_disabled":false,"rental_uris":{"android":"levelo://app?vid=dd83cfa3-03a3-4ae3-bd83-5270f88d6e98","ios":"levelo://app?vid=dd83cfa3-03a3-4ae3-bd83-5270f88d6e98"},"vehicle_type_id":"4","last_reported":1684958800,"current_range_meters":4800,"station_id":"ce4bh192rcd13ifvqdd0","pricing_plan_id":"free"},{"bike_id":"07b950b4-e38a-4d8c-b5ec-7ec0ac339035","system_id":"levelo_inurba_marseille","lat":43.291994,"lon":5.392907,"is_reserved":false,"is_disabled":false,"rental_uris":{"android":"levelo://app?vid=07b950b4-e38a-4d8c-b5ec-7ec0ac339035","ios":"levelo://app?vid=07b950b4-e38a-4d8c-b5ec-7ec0ac339035"},"vehicle_type_id":"4","last_reported":1684958800,"current_range_meters":12800,"station_id":"ce4bh192rcd13ifvqdd0","pricing_plan_id":"free"},{"bike_id":"bf62c13e-f415-4bce-be04-40506c5624c4","system_id":"levelo_inurba_marseille","lat":43.291994,"lon":5.392907,"is_reserved":false,"is_disabled":false,"rental_uris":{"android":"levelo://app?vid=bf62c13e-f415-4bce-be04-40506c5624c4","ios":"levelo://app?vid=bf62c13e-f415-4bce-be04-40506c5624c4"},"vehicle_type_id":"4","last_reported":1684958800,"current_range_meters":0,"station_id":"ce4bh192rcd13ifvqdd0","pricing_plan_id":"free"},{"bike_id":"d0201ae9-fbb4-4419-a3ef-dfce996f4abc","system_id":"levelo_inurba_marseille","lat":43.291994,"lon":5.392907,"is_reserved":false,"is_disabled":false,"rental_uris":{"android":"levelo://app?vid=d0201ae9-fbb4-4419-a3ef-dfce996f4abc","ios":"levelo://app?vid=d0201ae9-fbb4-4419-a3ef-dfce996f4abc"},"vehicle_type_id":"4","last_reported":1684958800,"current_range_meters":23600,"station_id":"ce4bh192rcd13ifvqdd0","pricing_plan_id":"free"},{"bike_id":"3d70412f-c029-4cd9-82ff-8eaa61b22eca","system_id":"levelo_inurba_marseille","lat":43.291994,"lon":5.392907,"is_reserved":false,"is_disabled":false,"rental_uris":{"android":"levelo://app?vid=3d70412f-c029-4cd9-82ff-8eaa61b22eca","ios":"levelo://app?vid=3d70412f-c029-4cd9-82ff-8eaa61b22eca"},"vehicle_type_id":"4","last_reported":1684958800,"current_range_meters":1200,"station_id":"ce4bh192rcd13ifvqdd0","pricing_plan_id":"free"},{"bike_id":"83598679-0e70-441f-8285-1d0708841bef","system_id":"levelo_inurba_marseille","lat":43.291994,"lon":5.392907,"is_reserved":false,"is_disabled":false,"rental_uris":{"android":"levelo://app?vid=83598679-0e70-441f-8285-1d0708841bef","ios":"levelo://app?vid=83598679-0e70-441f-8285-1d0708841bef"},"vehicle_type_id":"4","last_reported":1684958800,"current_range_meters":9200,"station_id":"ce4bh192rcd13ifvqdd0","pricing_plan_id":"free"},{"bike_id":"c0b6bffe-d20f-47f2-93fd-289ac9b50b45","system_id":"levelo_inurba_marseille","lat":43.291994,"lon":5.392907,"is_reserved":false,"is_disabled":false,"rental_uris":{"android":"levelo://app?vid=c0b6bffe-d20f-47f2-93fd-289ac9b50b45","ios":"levelo://app?vid=c0b6bffe-d20f-47f2-93fd-289ac9b50b45"},"vehicle_type_id":"4","last_reported":1684958800,"current_range_meters":4800,"station_id":"ce4bh192rcd13ifvqdd0","pricing_plan_id":"free"},{"bike_id":"fb2761fb-e67d-4545-8237-ad26b3bafddf","system_id":"levelo_inurba_marseille","lat":43.284534,"lon":5.358662,"is_reserved":false,"is_disabled":false,"rental_uris":{"android":"levelo://app?vid=fb2761fb-e67d-4545-8237-ad26b3bafddf","ios":"levelo://app?vid=fb2761fb-e67d-4545-8237-ad26b3bafddf"},"vehicle_type_id":"4","last_reported":1684958800,"current_range_meters":30000,"station_id":"ce4bhah2rcd13ifvqei0","pricing_plan_id":"free"},{"bike_id":"8e41d456-b90a-4a44-bc74-12e63f565845","system_id":"levelo_inurba_marseille","lat":43.28466,"lon":5.35881,"is_reserved":false,"is_disabled":false,"rental_uris":{"android":"levelo://app?vid=8e41d456-b90a-4a44-bc74-12e63f565845","ios":"levelo://app?vid=8e41d456-b90a-4a44-bc74-12e63f565845"},"vehicle_type_id":"4","last_reported":1684958800,"current_range_meters":0,"station_id":"ce4bhah2rcd13ifvqei0","pricing_plan_id":"free"},{"bike_id":"3fd58b9a-bbf7-41ad-a0e5-464b173ee42b","system_id":"levelo_inurba_marseille","lat":43.284534,"lon":5.358662,"is_reserved":false,"is_disabled":false,"rental_uris":{"android":"levelo://app?vid=3fd58b9a-bbf7-41ad-a0e5-464b173ee42b","ios":"levelo://app?vid=3fd58b9a-bbf7-41ad-a0e5-464b173ee42b"},"vehicle_type_id":"4","last_reported":1684958800,"current_range_meters":6400,"station_id":"ce4bhah2rcd13ifvqei0","pricing_plan_id":"free"},{"bike_id":"1c75ff16-6539-4b49-b407-044be78db8ab","system_id":"levelo_inurba_marseille","lat":43.28463,"lon":5.35889,"is_reserved":false,"is_disabled":false,"rental_uris":{"android":"levelo://app?vid=1c75ff16-6539-4b49-b407-044be78db8ab","ios":"levelo://app?vid=1c75ff16-6539-4b49-b407-044be78db8ab"},"vehicle_type_id":"4","last_reported":1684958800,"current_range_meters":800,"station_id":"ce4bhah2rcd13ifvqei0","pricing_plan_id":"free"},{"bike_id":"a5fdcb60-401d-4308-a6b9-aeff2f4bddcc","system_id":"levelo_inurba_marseille","lat":43.284534,"lon":5.358662,"is_reserved":false,"is_disabled":false,"rental_uris":{"android":"levelo://app?vid=a5fdcb60-401d-4308-a6b9-aeff2f4bddcc","ios":"levelo://app?vid=a5fdcb60-401d-4308-a6b9-aeff2f4bddcc"},"vehicle_type_id":"4","last_reported":1684958800,"current_range_meters":30800,"station_id":"ce4bhah2rcd13ifvqei0","pricing_plan_id":"free"},{"bike_id":"c02d7b81-00b6-4bde-9e71-5acfc36d5e48","system_id":"levelo_inurba_marseille","lat":43.28463,"lon":5.35882,"is_reserved":false,"is_disabled":false,"rental_uris":{"android":"levelo://app?vid=c02d7b81-00b6-4bde-9e71-5acfc36d5e48","ios":"levelo://app?vid=c02d7b81-00b6-4bde-9e71-5acfc36d5e48"},"vehicle_type_id":"4","last_reported":1684958800,"current_range_meters":31200,"station_id":"ce4bhah2rcd13ifvqei0","pricing_plan_id":"free"},{"bike_id":"61a1f783-03b6-4c96-a256-d44463b639e5","system_id":"levelo_inurba_marseille","lat":43.284534,"lon":5.358662,"is_reserved":false,"is_disabled":false,"rental_uris":{"android":"levelo://app?vid=61a1f783-03b6-4c96-a256-d44463b639e5","ios":"levelo://app?vid=61a1f783-03b6-4c96-a256-d44463b639e5"},"vehicle_type_id":"4","last_reported":1684958800,"current_range_meters":30400,"station_id":"ce4bhah2rcd13ifvqei0","pricing_plan_id":"free"},{"bike_id":"569dbaf0-cf66-4e52-9a52-da609e7051c1","system_id":"levelo_inurba_marseille","lat":43.2846,"lon":5.35883,"is_reserved":false,"is_disabled":false,"rental_uris":{"android":"levelo://app?vid=569dbaf0-cf66-4e52-9a52-da609e7051c1","ios":"levelo://app?vid=569dbaf0-cf66-4e52-9a52-da609e7051c1"},"vehicle_type_id":"4","last_reported":1684958800,"current_range_meters":24800,"station_id":"ce4bhah2rcd13ifvqei0","pricing_plan_id":"free"},{"bike_id":"297aa68e-82f1-443c-8514-0b577d056843","system_id":"levelo_inurba_marseille","lat":43.284534,"lon":5.358662,"is_reserved":false,"is_disabled":false,"rental_uris":{"android":"levelo://app?vid=297aa68e-82f1-443c-8514-0b577d056843","ios":"levelo://app?vid=297aa68e-82f1-443c-8514-0b577d056843"},"vehicle_type_id":"4","last_reported":1684958800,"current_range_meters":14000,"station_id":"ce4bhah2rcd13ifvqei0","pricing_plan_id":"free"},{"bike_id":"39e6eee7-8488-4ce2-ac1e-052bb8b34b67","system_id":"levelo_inurba_marseille","lat":43.28459,"lon":5.35885,"is_reserved":false,"is_disabled":false,"rental_uris":{"android":"levelo://app?vid=39e6eee7-8488-4ce2-ac1e-052bb8b34b67","ios":"levelo://app?vid=39e6eee7-8488-4ce2-ac1e-052bb8b34b67"},"vehicle_type_id":"4","last_reported":1684958800,"current_range_meters":20800,"station_id":"ce4bhah2rcd13ifvqei0","pricing_plan_id":"free"},{"bike_id":"d500490b-4027-42c5-9dc3-be5dea81d5de","system_id":"levelo_inurba_marseille","lat":43.284534,"lon":5.358662,"is_reserved":false,"is_disabled":false,"rental_uris":{"android":"levelo://app?vid=d500490b-4027-42c5-9dc3-be5dea81d5de","ios":"levelo://app?vid=d500490b-4027-42c5-9dc3-be5dea81d5de"},"vehicle_type_id":"4","last_reported":1684958800,"current_range_meters":4000,"station_id":"ce4bhah2rcd13ifvqei0","pricing_plan_id":"free"},{"bike_id":"ac597057-7d4a-47d0-8c38-44b957c7ffeb","system_id":"levelo_inurba_marseille","lat":43.28458,"lon":5.35887,"is_reserved":false,"is_disabled":false,"rental_uris":{"android":"levelo://app?vid=ac597057-7d4a-47d0-8c38-44b957c7ffeb","ios":"levelo://app?vid=ac597057-7d4a-47d0-8c38-44b957c7ffeb"},"vehicle_type_id":"4","last_reported":1684958800,"current_range_meters":20000,"station_id":"ce4bhah2rcd13ifvqei0","pricing_plan_id":"free"},{"bike_id":"efd85604-e865-42ef-a7c1-a5dd2ea73a4d","system_id":"levelo_inurba_marseille","lat":43.284534,"lon":5.358662,"is_reserved":false,"is_disabled":false,"rental_uris":{"android":"levelo://app?vid=efd85604-e865-42ef-a7c1-a5dd2ea73a4d","ios":"levelo://app?vid=efd85604-e865-42ef-a7c1-a5dd2ea73a4d"},"vehicle_type_id":"4","last_reported":1684958800,"current_range_meters":0,"station_id":"ce4bhah2rcd13ifvqei0","pricing_plan_id":"free"},{"bike_id":"5e2bc811-2525-4db7-9dcd-e2b01a2c51b3","system_id":"levelo_inurba_marseille","lat":43.284534,"lon":5.358662,"is_reserved":false,"is_disabled":false,"rental_uris":{"android":"levelo://app?vid=5e2bc811-2525-4db7-9dcd-e2b01a2c51b3","ios":"levelo://app?vid=5e2bc811-2525-4db7-9dcd-e2b01a2c51b3"},"vehicle_type_id":"4","last_reported":1684958800,"current_range_meters":1600,"station_id":"ce4bhah2rcd13ifvqei0","pricing_plan_id":"free"},{"bike_id":"29a3f711-522e-4ead-91b6-5a7af811c2b0","system_id":"levelo_inurba_marseille","lat":43.28456,"lon":5.35886,"is_reserved":false,"is_disabled":false,"rental_uris":{"android":"levelo://app?vid=29a3f711-522e-4ead-91b6-5a7af811c2b0","ios":"levelo://app?vid=29a3f711-522e-4ead-91b6-5a7af811c2b0"},"vehicle_type_id":"4","last_reported":1684958800,"current_range_meters":8000,"station_id":"ce4bhah2rcd13ifvqei0","pricing_plan_id":"free"},{"bike_id":"e824315a-6e7a-4bf6-a292-5a4f78749a17","system_id":"levelo_inurba_marseille","lat":43.284534,"lon":5.358662,"is_reserved":false,"is_disabled":false,"rental_uris":{"android":"levelo://app?vid=e824315a-6e7a-4bf6-a292-5a4f78749a17","ios":"levelo://app?vid=e824315a-6e7a-4bf6-a292-5a4f78749a17"},"vehicle_type_id":"4","last_reported":1684958800,"current_range_meters":4800,"station_id":"ce4bhah2rcd13ifvqei0","pricing_plan_id":"free"},{"bike_id":"ae8c9457-c5c5-4e89-b4c7-78ffd7b78b4b","system_id":"levelo_inurba_marseille","lat":43.284534,"lon":5.358662,"is_reserved":false,"is_disabled":false,"rental_uris":{"android":"levelo://app?vid=ae8c9457-c5c5-4e89-b4c7-78ffd7b78b4b","ios":"levelo://app?vid=ae8c9457-c5c5-4e89-b4c7-78ffd7b78b4b"},"vehicle_type_id":"4","last_reported":1684958800,"current_range_meters":0,"station_id":"ce4bhah2rcd13ifvqei0","pricing_plan_id":"free"},{"bike_id":"84f56545-e6fb-4bcb-85d1-a19c8ec95b07","system_id":"levelo_inurba_marseille","lat":43.284534,"lon":5.358662,"is_reserved":false,"is_disabled":false,"rental_uris":{"android":"levelo://app?vid=84f56545-e6fb-4bcb-85d1-a19c8ec95b07","ios":"levelo://app?vid=84f56545-e6fb-4bcb-85d1-a19c8ec95b07"},"vehicle_type_id":"4","last_reported":1684958800,"current_range_meters":24400,"station_id":"ce4bhah2rcd13ifvqei0","pricing_plan_id":"free"},{"bike_id":"615683ee-257c-4866-bfa5-99ffe5ec7799","system_id":"levelo_inurba_marseille","lat":43.28453,"lon":5.35889,"is_reserved":false,"is_disabled":false,"rental_uris":{"android":"levelo://app?vid=615683ee-257c-4866-bfa5-99ffe5ec7799","ios":"levelo://app?vid=615683ee-257c-4866-bfa5-99ffe5ec7799"},"vehicle_type_id":"4","last_reported":1684958800,"current_range_meters":0,"station_id":"ce4bhah2rcd13ifvqei0","pricing_plan_id":"free"},{"bike_id":"a914ace4-30dd-44ab-b5ab-941a963cdc04","system_id":"levelo_inurba_marseille","lat":43.284534,"lon":5.358662,"is_reserved":false,"is_disabled":false,"rental_uris":{"android":"levelo://app?vid=a914ace4-30dd-44ab-b5ab-941a963cdc04","ios":"levelo://app?vid=a914ace4-30dd-44ab-b5ab-941a963cdc04"},"vehicle_type_id":"4","last_reported":1684958800,"current_range_meters":5200,"station_id":"ce4bhah2rcd13ifvqei0","pricing_plan_id":"free"},{"bike_id":"5be0682c-3f50-4b30-9737-84dd32593fbb","system_id":"levelo_inurba_marseille","lat":43.284534,"lon":5.358662,"is_reserved":false,"is_disabled":false,"rental_uris":{"android":"levelo://app?vid=5be0682c-3f50-4b30-9737-84dd32593fbb","ios":"levelo://app?vid=5be0682c-3f50-4b30-9737-84dd32593fbb"},"vehicle_type_id":"4","last_reported":1684958800,"current_range_meters":30800,"station_id":"ce4bhah2rcd13ifvqei0","pricing_plan_id":"free"},{"bike_id":"93dcd78d-377c-4b2a-bbc4-453a9fa541bd","system_id":"levelo_inurba_marseille","lat":43.28448,"lon":5.35885,"is_reserved":false,"is_disabled":false,"rental_uris":{"android":"levelo://app?vid=93dcd78d-377c-4b2a-bbc4-453a9fa541bd","ios":"levelo://app?vid=93dcd78d-377c-4b2a-bbc4-453a9fa541bd"},"vehicle_type_id":"4","last_reported":1684958800,"current_range_meters":1200,"station_id":"ce4bhah2rcd13ifvqei0","pricing_plan_id":"free"},{"bike_id":"c45f15f8-f3ce-4a12-9f65-9db13e50c097","system_id":"levelo_inurba_marseille","lat":43.295713,"lon":5.399639,"is_reserved":false,"is_disabled":false,"rental_uris":{"android":"levelo://app?vid=c45f15f8-f3ce-4a12-9f65-9db13e50c097","ios":"levelo://app?vid=c45f15f8-f3ce-4a12-9f65-9db13e50c097"},"vehicle_type_id":"4","last_reported":1684958800,"current_range_meters":12000,"station_id":"ce4bh312rcd13ifvqdj0","pricing_plan_id":"free"},{"bike_id":"260981f5-b5f6-4862-8a2c-04e0605bf03f","system_id":"levelo_inurba_marseille","lat":43.286595,"lon":5.386795,"is_reserved":false,"is_disabled":false,"rental_uris":{"android":"levelo://app?vid=260981f5-b5f6-4862-8a2c-04e0605bf03f","ios":"levelo://app?vid=260981f5-b5f6-4862-8a2c-04e0605bf03f"},"vehicle_type_id":"4","last_reported":1684958800,"current_range_meters":8400,"station_id":"ce4bh492rcd13ifvqdug","pricing_plan_id":"free"},{"bike_id":"c3f5bacf-7a20-4cb8-933a-3b84e813a1c2","system_id":"levelo_inurba_marseille","lat":43.286595,"lon":5.386795,"is_reserved":false,"is_disabled":false,"rental_uris":{"android":"levelo://app?vid=c3f5bacf-7a20-4cb8-933a-3b84e813a1c2","ios":"levelo://app?vid=c3f5bacf-7a20-4cb8-933a-3b84e813a1c2"},"vehicle_type_id":"4","last_reported":1684958800,"current_range_meters":20800,"station_id":"ce4bh492rcd13ifvqdug","pricing_plan_id":"free"},{"bike_id":"4fd5370f-f5ce-4914-a569-aaab908d0fa0","system_id":"levelo_inurba_marseille","lat":43.28666,"lon":5.38664,"is_reserved":false,"is_disabled":false,"rental_uris":{"android":"levelo://app?vid=4fd5370f-f5ce-4914-a569-aaab908d0fa0","ios":"levelo://app?vid=4fd5370f-f5ce-4914-a569-aaab908d0fa0"},"vehicle_type_id":"4","last_reported":1684958800,"current_range_meters":26800,"station_id":"ce4bh492rcd13ifvqdug","pricing_plan_id":"free"},{"bike_id":"d0248441-1b9c-410f-918e-bda3250b3bf5","system_id":"levelo_inurba_marseille","lat":43.323464,"lon":5.406297,"is_reserved":false,"is_disabled":false,"rental_uris":{"android":"levelo://app?vid=d0248441-1b9c-410f-918e-bda3250b3bf5","ios":"levelo://app?vid=d0248441-1b9c-410f-918e-bda3250b3bf5"},"vehicle_type_id":"4","last_reported":1684958800,"current_range_meters":5200,"station_id":"ce4bhq92rcd13ifvqhjg","pricing_plan_id":"free"},{"bike_id":"c67721e8-493b-4cb2-a465-583902183b86","system_id":"levelo_inurba_marseille","lat":43.28484,"lon":5.38417,"is_reserved":false,"is_disabled":false,"rental_uris":{"android":"levelo://app?vid=c67721e8-493b-4cb2-a465-583902183b86","ios":"levelo://app?vid=c67721e8-493b-4cb2-a465-583902183b86"},"vehicle_type_id":"4","last_reported":1684958800,"current_range_meters":0,"station_id":"ce4bh512rcd13ifvqe3g","pricing_plan_id":"free"},{"bike_id":"a489a057-d90d-4b1d-8485-921b89448cea","system_id":"levelo_inurba_marseille","lat":43.28482,"lon":5.3842,"is_reserved":false,"is_disabled":false,"rental_uris":{"android":"levelo://app?vid=a489a057-d90d-4b1d-8485-921b89448cea","ios":"levelo://app?vid=a489a057-d90d-4b1d-8485-921b89448cea"},"vehicle_type_id":"4","last_reported":1684958800,"current_range_meters":3200,"station_id":"ce4bh512rcd13ifvqe3g","pricing_plan_id":"free"},{"bike_id":"ce81ade5-d8ca-4327-a0f2-008c0dde244a","system_id":"levelo_inurba_marseille","lat":43.284787,"lon":5.384116,"is_reserved":false,"is_disabled":false,"rental_uris":{"android":"levelo://app?vid=ce81ade5-d8ca-4327-a0f2-008c0dde244a","ios":"levelo://app?vid=ce81ade5-d8ca-4327-a0f2-008c0dde244a"},"vehicle_type_id":"4","last_reported":1684958800,"current_range_meters":21200,"station_id":"ce4bh512rcd13ifvqe3g","pricing_plan_id":"free"},{"bike_id":"edacfbfb-08a1-4873-b142-1e75568979bf","system_id":"levelo_inurba_marseille","lat":43.288497,"lon":5.393089,"is_reserved":false,"is_disabled":false,"rental_uris":{"android":"levelo://app?vid=edacfbfb-08a1-4873-b142-1e75568979bf","ios":"levelo://app?vid=edacfbfb-08a1-4873-b142-1e75568979bf"},"vehicle_type_id":"4","last_reported":1684958800,"current_range_meters":20800,"station_id":"ce4bh2p2rcd13ifvqdi0","pricing_plan_id":"free"},{"bike_id":"eeeaa4a7-f4e4-4212-aa66-67ce60e323cf","system_id":"levelo_inurba_marseille","lat":43.288497,"lon":5.393089,"is_reserved":false,"is_disabled":false,"rental_uris":{"android":"levelo://app?vid=eeeaa4a7-f4e4-4212-aa66-67ce60e323cf","ios":"levelo://app?vid=eeeaa4a7-f4e4-4212-aa66-67ce60e323cf"},"vehicle_type_id":"4","last_reported":1684958800,"current_range_meters":20800,"station_id":"ce4bh2p2rcd13ifvqdi0","pricing_plan_id":"free"},{"bike_id":"7fc184c6-d04c-4808-bdb2-3f14e38f4994","system_id":"levelo_inurba_marseille","lat":43.288497,"lon":5.393089,"is_reserved":false,"is_disabled":false,"rental_uris":{"android":"levelo://app?vid=7fc184c6-d04c-4808-bdb2-3f14e38f4994","ios":"levelo://app?vid=7fc184c6-d04c-4808-bdb2-3f14e38f4994"},"vehicle_type_id":"4","last_reported":1684958800,"current_range_meters":31200,"station_id":"ce4bh2p2rcd13ifvqdi0","pricing_plan_id":"free"},{"bike_id":"9d399300-d196-40eb-90d7-137ce407b4d0","system_id":"levelo_inurba_marseille","lat":43.288497,"lon":5.393089,"is_reserved":false,"is_disabled":false,"rental_uris":{"android":"levelo://app?vid=9d399300-d196-40eb-90d7-137ce407b4d0","ios":"levelo://app?vid=9d399300-d196-40eb-90d7-137ce407b4d0"},"vehicle_type_id":"4","last_reported":1684958800,"current_range_meters":7600,"station_id":"ce4bh2p2rcd13ifvqdi0","pricing_plan_id":"free"},{"bike_id":"4ce28b0d-8cee-4d9f-8ba9-8bdbb056d5e1","system_id":"levelo_inurba_marseille","lat":43.288497,"lon":5.393089,"is_reserved":false,"is_disabled":false,"rental_uris":{"android":"levelo://app?vid=4ce28b0d-8cee-4d9f-8ba9-8bdbb056d5e1","ios":"levelo://app?vid=4ce28b0d-8cee-4d9f-8ba9-8bdbb056d5e1"},"vehicle_type_id":"4","last_reported":1684958800,"current_range_meters":15200,"station_id":"ce4bh2p2rcd13ifvqdi0","pricing_plan_id":"free"},{"bike_id":"039c3624-8773-46f5-9c68-a730bb9a84be","system_id":"levelo_inurba_marseille","lat":43.288501,"lon":5.393087,"is_reserved":false,"is_disabled":false,"rental_uris":{"android":"levelo://app?vid=039c3624-8773-46f5-9c68-a730bb9a84be","ios":"levelo://app?vid=039c3624-8773-46f5-9c68-a730bb9a84be"},"vehicle_type_id":"4","last_reported":1684958800,"current_range_meters":12400,"station_id":"ce4bh2p2rcd13ifvqdi0","pricing_plan_id":"free"},{"bike_id":"c9637742-4112-43cc-96ca-12b0dd5e0600","system_id":"levelo_inurba_marseille","lat":43.288497,"lon":5.393089,"is_reserved":false,"is_disabled":false,"rental_uris":{"android":"levelo://app?vid=c9637742-4112-43cc-96ca-12b0dd5e0600","ios":"levelo://app?vid=c9637742-4112-43cc-96ca-12b0dd5e0600"},"vehicle_type_id":"4","last_reported":1684958800,"current_range_meters":1200,"station_id":"ce4bh2p2rcd13ifvqdi0","pricing_plan_id":"free"},{"bike_id":"26ffde0c-f5f4-4a31-b307-21ffa6bdff64","system_id":"levelo_inurba_marseille","lat":43.288497,"lon":5.393089,"is_reserved":false,"is_disabled":false,"rental_uris":{"android":"levelo://app?vid=26ffde0c-f5f4-4a31-b307-21ffa6bdff64","ios":"levelo://app?vid=26ffde0c-f5f4-4a31-b307-21ffa6bdff64"},"vehicle_type_id":"4","last_reported":1684958800,"current_range_meters":16000,"station_id":"ce4bh2p2rcd13ifvqdi0","pricing_plan_id":"free"},{"bike_id":"875a522a-d03e-4a09-9ae1-f47cd032df6d","system_id":"levelo_inurba_marseille","lat":43.288501,"lon":5.393087,"is_reserved":false,"is_disabled":false,"rental_uris":{"android":"levelo://app?vid=875a522a-d03e-4a09-9ae1-f47cd032df6d","ios":"levelo://app?vid=875a522a-d03e-4a09-9ae1-f47cd032df6d"},"vehicle_type_id":"4","last_reported":1684958800,"current_range_meters":18000,"station_id":"ce4bh2p2rcd13ifvqdi0","pricing_plan_id":"free"},{"bike_id":"e1f081f3-5076-4d7e-83b3-6984bb542194","system_id":"levelo_inurba_marseille","lat":43.288497,"lon":5.393089,"is_reserved":false,"is_disabled":false,"rental_uris":{"android":"levelo://app?vid=e1f081f3-5076-4d7e-83b3-6984bb542194","ios":"levelo://app?vid=e1f081f3-5076-4d7e-83b3-6984bb542194"},"vehicle_type_id":"4","last_reported":1684958800,"current_range_meters":10800,"station_id":"ce4bh2p2rcd13ifvqdi0","pricing_plan_id":"free"},{"bike_id":"192de6d2-6037-4ad5-b76c-fb13ab010788","system_id":"levelo_inurba_marseille","lat":43.288501,"lon":5.393087,"is_reserved":false,"is_disabled":false,"rental_uris":{"android":"levelo://app?vid=192de6d2-6037-4ad5-b76c-fb13ab010788","ios":"levelo://app?vid=192de6d2-6037-4ad5-b76c-fb13ab010788"},"vehicle_type_id":"4","last_reported":1684958800,"current_range_meters":6000,"station_id":"ce4bh2p2rcd13ifvqdi0","pricing_plan_id":"free"},{"bike_id":"b5af13f8-4ef7-4268-81a5-f74e9cfcdf0f","system_id":"levelo_inurba_marseille","lat":43.283494,"lon":5.380945,"is_reserved":false,"is_disabled":false,"rental_uris":{"android":"levelo://app?vid=b5af13f8-4ef7-4268-81a5-f74e9cfcdf0f","ios":"levelo://app?vid=b5af13f8-4ef7-4268-81a5-f74e9cfcdf0f"},"vehicle_type_id":"4","last_reported":1684958800,"current_range_meters":17600,"station_id":"ce4bh412rcd13ifvqdr0","pricing_plan_id":"free"},{"bike_id":"98068d2e-cdd2-49c1-baeb-3696f99c2708","system_id":"levelo_inurba_marseille","lat":43.28521,"lon":5.38849,"is_reserved":false,"is_disabled":false,"rental_uris":{"android":"levelo://app?vid=98068d2e-cdd2-49c1-baeb-3696f99c2708","ios":"levelo://app?vid=98068d2e-cdd2-49c1-baeb-3696f99c2708"},"vehicle_type_id":"4","last_reported":1684958800,"current_range_meters":1600,"station_id":"ce4bhah2rcd13ifvqei0","pricing_plan_id":"free"},{"bike_id":"516aa8e2-2be0-4e5b-aa15-df26bf60599e","system_id":"levelo_inurba_marseille","lat":43.292724,"lon":5.401131,"is_reserved":false,"is_disabled":false,"rental_uris":{"android":"levelo://app?vid=516aa8e2-2be0-4e5b-aa15-df26bf60599e","ios":"levelo://app?vid=516aa8e2-2be0-4e5b-aa15-df26bf60599e"},"vehicle_type_id":"4","last_reported":1684958800,"current_range_meters":25600,"station_id":"ce4bh312rcd13ifvqdk0","pricing_plan_id":"free"},{"bike_id":"0e2788b1-b74a-4bb0-b83e-6c65ef501159","system_id":"levelo_inurba_marseille","lat":43.292724,"lon":5.401131,"is_reserved":false,"is_disabled":false,"rental_uris":{"android":"levelo://app?vid=0e2788b1-b74a-4bb0-b83e-6c65ef501159","ios":"levelo://app?vid=0e2788b1-b74a-4bb0-b83e-6c65ef501159"},"vehicle_type_id":"4","last_reported":1684958800,"current_range_meters":8000,"station_id":"ce4bh312rcd13ifvqdk0","pricing_plan_id":"free"},{"bike_id":"fa229e4d-55f6-4716-988b-d581d2dce0ca","system_id":"levelo_inurba_marseille","lat":43.292724,"lon":5.401131,"is_reserved":false,"is_disabled":false,"rental_uris":{"android":"levelo://app?vid=fa229e4d-55f6-4716-988b-d581d2dce0ca","ios":"levelo://app?vid=fa229e4d-55f6-4716-988b-d581d2dce0ca"},"vehicle_type_id":"4","last_reported":1684958800,"current_range_meters":29200,"station_id":"ce4bh312rcd13ifvqdk0","pricing_plan_id":"free"},{"bike_id":"c285b989-579b-4b3b-ac41-5d616a637d0b","system_id":"levelo_inurba_marseille","lat":43.292724,"lon":5.401131,"is_reserved":false,"is_disabled":false,"rental_uris":{"android":"levelo://app?vid=c285b989-579b-4b3b-ac41-5d616a637d0b","ios":"levelo://app?vid=c285b989-579b-4b3b-ac41-5d616a637d0b"},"vehicle_type_id":"4","last_reported":1684958800,"current_range_meters":6800,"station_id":"ce4bh312rcd13ifvqdk0","pricing_plan_id":"free"},{"bike_id":"94d9a40c-2809-40c5-b7a4-0fa14fb07ae4","system_id":"levelo_inurba_marseille","lat":43.292724,"lon":5.401131,"is_reserved":false,"is_disabled":false,"rental_uris":{"android":"levelo://app?vid=94d9a40c-2809-40c5-b7a4-0fa14fb07ae4","ios":"levelo://app?vid=94d9a40c-2809-40c5-b7a4-0fa14fb07ae4"},"vehicle_type_id":"4","last_reported":1684958800,"current_range_meters":0,"station_id":"ce4bh312rcd13ifvqdk0","pricing_plan_id":"free"},{"bike_id":"25ac3210-057a-4056-a121-d7b5b606620b","system_id":"levelo_inurba_marseille","lat":43.29262,"lon":5.40125,"is_reserved":false,"is_disabled":false,"rental_uris":{"android":"levelo://app?vid=25ac3210-057a-4056-a121-d7b5b606620b","ios":"levelo://app?vid=25ac3210-057a-4056-a121-d7b5b606620b"},"vehicle_type_id":"4","last_reported":1684958800,"current_range_meters":16800,"station_id":"ce4bh312rcd13ifvqdk0","pricing_plan_id":"free"},{"bike_id":"00cb7340-5690-462a-9abd-dbc4c72f8b2d","system_id":"levelo_inurba_marseille","lat":43.292724,"lon":5.401131,"is_reserved":false,"is_disabled":false,"rental_uris":{"android":"levelo://app?vid=00cb7340-5690-462a-9abd-dbc4c72f8b2d","ios":"levelo://app?vid=00cb7340-5690-462a-9abd-dbc4c72f8b2d"},"vehicle_type_id":"4","last_reported":1684958800,"current_range_meters":10800,"station_id":"ce4bh312rcd13ifvqdk0","pricing_plan_id":"free"},{"bike_id":"e8e7aa4a-dec7-46cc-b626-2f2953f37877","system_id":"levelo_inurba_marseille","lat":43.29265,"lon":5.40135,"is_reserved":false,"is_disabled":false,"rental_uris":{"android":"levelo://app?vid=e8e7aa4a-dec7-46cc-b626-2f2953f37877","ios":"levelo://app?vid=e8e7aa4a-dec7-46cc-b626-2f2953f37877"},"vehicle_type_id":"4","last_reported":1684958800,"current_range_meters":0,"station_id":"ce4bh312rcd13ifvqdk0","pricing_plan_id":"free"},