{"last_updated":1775155287,"ttl":60,"version":"2.2","data":{"bikes":[{"bike_id":"1b5e6abf-37a9-40cd-aa39-7cca1fdfc2fc","system_id":"levelo_inurba_marseille","lat":43.337926,"lon":5.374278,"is_reserved":false,"is_disabled":false,"rental_uris":{"android":"levelo://app?vid=1b5e6abf-37a9-40cd-aa39-7cca1fdfc2fc","ios":"levelo://app?vid=1b5e6abf-37a9-40cd-aa39-7cca1fdfc2fc"},"vehicle_type_id":"4","last_reported":1775155288,"current_range_meters":0,"station_id":"","pricing_plan_id":"cebpf4jnsgd1na2vs0mg"},{"bike_id":"0351c064-b05d-45c2-9da9-5f6e70f5aa65","system_id":"levelo_inurba_marseille","lat":43.24174,"lon":5.36111,"is_reserved":false,"is_disabled":false,"rental_uris":{"android":"levelo://app?vid=0351c064-b05d-45c2-9da9-5f6e70f5aa65","ios":"levelo://app?vid=0351c064-b05d-45c2-9da9-5f6e70f5aa65"},"vehicle_type_id":"4","last_reported":1775155288,"current_range_meters":2800,"station_id":"","pricing_plan_id":"cebpf4jnsgd1na2vs0mg"},{"bike_id":"c49bccd8-1278-4ef4-a747-46f2a7c25563","system_id":"levelo_inurba_marseille","lat":43.24446,"lon":5.42482,"is_reserved":false,"is_disabled":false,"rental_uris":{"android":"levelo://app?vid=c49bccd8-1278-4ef4-a747-46f2a7c25563","ios":"levelo://app?vid=c49bccd8-1278-4ef4-a747-46f2a7c25563"},"vehicle_type_id":"4","last_reported":1775155288,"current_range_meters":2800,"station_id":"","pricing_plan_id":"cebpf4jnsgd1na2vs0mg"},{"bike_id":"982951ba-d1eb-42d4-bb65-5d98050aa6ef","system_id":"levelo_inurba_marseille","lat":43.28472,"lon":5.48408,"is_reserved":false,"is_disabled":false,"rental_uris":{"android":"levelo://app?vid=982951ba-d1eb-42d4-bb65-5d98050aa6ef","ios":"levelo://app?vid=982951ba-d1eb-42d4-bb65-5d98050aa6ef"},"vehicle_type_id":"4","last_reported":1775155288,"current_range_meters":2800,"station_id":"","pricing_plan_id":"cebpf4jnsgd1na2vs0mg"},{"bike_id":"98ad6f6b-9358-4faa-aee9-4d5ee6157628","system_id":"levelo_inurba_marseille","lat":43.27807,"lon":5.40718,"is_reserved":false,"is_disabled":false,"rental_uris":{"android":"levelo://app?vid=98ad6f6b-9358-4faa-aee9-4d5ee6157628","ios":"levelo://app?vid=98ad6f6b-9358-4faa-aee9-4d5ee6157628"},"vehicle_type_id":"4","last_reported":1775155288,"current_range_meters":2800,"station_id":"ce4bhnh2rcd13ifvqgtg","pricing_plan_id":"cebpf4jnsgd1na2vs0mg"},{"bike_id":"3b00fc1e-e36b-481b-a2bc-3dac3c178dbc","system_id":"levelo_inurba_marseille","lat":43.27745,"lon":5.40623,"is_reserved":false,"is_disabled":true,"rental_uris":{"android":"levelo://app?vid=3b00fc1e-e36b-481b-a2bc-3dac3c178dbc","ios":"levelo://app?vid=3b00fc1e-e36b-481b-a2bc-3dac3c178dbc"},"vehicle_type_id":"4","last_reported":1775155288,"current_range_meters":2800,"station_id":"","pricing_plan_id":"cebpf4jnsgd1na2vs0mg"},{"bike_id":"7b9afc77-0e17-48ba-b360-a407675726ad","system_id":"levelo_inurba_marseille","lat":43.28851,"lon":5.4252,"is_reserved":false,"is_disabled":false,"rental_uris":{"android":"levelo://app?vid=7b9afc77-0e17-48ba-b360-a407675726ad","ios":"levelo://app?vid=7b9afc77-0e17-48ba-b360-a407675726ad"},"vehicle_type_id":"4","last_reported":1775155288,"current_range_meters":2800,"station_id":"st_d3b462108ojc7389ooeg","pricing_plan_id":"cebpf4jnsgd1na2vs0mg"},{"bike_id":"d41d5ff3-651c-4e70-8a12-e8a105b53c64","system_id":"levelo_inurba_marseille","lat":43.3157,"lon":5.44549,"is_reserved":false,"is_disabled":false,"rental_uris":{"android":"levelo://app?vid=d41d5ff3-651c-4e70-8a12-e8a105b53c64","ios":"levelo://app?vid=d41d5ff3-651c-4e70-8a12-e8a105b53c64"},"vehicle_type_id":"4","last_reported":1775155288,"current_range_meters":2800,"station_id":"","pricing_plan_id":"cebpf4jnsgd1na2vs0mg"},{"bike_id":"54c2b8bb-7259-470c-a906-fdbbea78bb9c","system_id":"levelo_inurba_marseille","lat":43.28534,"lon":5.44106,"is_reserved":false,"is_disabled":false,"rental_uris":{"android":"levelo://app?vid=54c2b8bb-7259-470c-a906-fdbbea78bb9c","ios":"levelo://app?vid=54c2b8bb-7259-470c-a906-fdbbea78bb9c"},"vehicle_type_id":"4","last_reported":1775155288,"current_range_meters":2800,"station_id":"st_d3j3df2ikq2c7380ej80","pricing_plan_id":"cebpf4jnsgd1na2vs0mg"},{"bike_id":"6c3b2188-ad26-44f1-97bc-4de5c5fe5d74","system_id":"levelo_inurba_marseille","lat":43.28476,"lon":5.48397,"is_reserved":false,"is_disabled":false,"rental_uris":{"android":"levelo://app?vid=6c3b2188-ad26-44f1-97bc-4de5c5fe5d74","ios":"levelo://app?vid=6c3b2188-ad26-44f1-97bc-4de5c5fe5d74"},"vehicle_type_id":"4","last_reported":1775155288,"current_range_meters":2800,"station_id":"","pricing_plan_id":"cebpf4jnsgd1na2vs0mg"},{"bike_id":"11f84d03-7f20-44c9-9ace-724c30b6c4d7","system_id":"levelo_inurba_marseille","lat":43.276175,"lon":5.361095,"is_reserved":false,"is_disabled":false,"rental_uris":{"android":"levelo://app?vid=11f84d03-7f20-44c9-9ace-724c30b6c4d7","ios":"levelo://app?vid=11f84d03-7f20-44c9-9ace-724c30b6c4d7"},"vehicle_type_id":"4","last_reported":1775155288,"current_range_meters":2800,"station_id":"ce4bgj92rcd13ifvqbe0","pricing_plan_id":"cebpf4jnsgd1na2vs0mg"},{"bike_id":"bed085cd-e643-4cf8-a83c-4e3f37218df7","system_id":"levelo_inurba_marseille","lat":43.23147,"lon":5.40203,"is_reserved":false,"is_disabled":false,"rental_uris":{"android":"levelo://app?vid=bed085cd-e643-4cf8-a83c-4e3f37218df7","ios":"levelo://app?vid=bed085cd-e643-4cf8-a83c-4e3f37218df7"},"vehicle_type_id":"4","last_reported":1775155288,"current_range_meters":2800,"station_id":"","pricing_plan_id":"cebpf4jnsgd1na2vs0mg"},{"bike_id":"d0a923ac-75da-4205-9bd7-0a004a8fe4f8","system_id":"levelo_inurba_marseille","lat":43.28145,"lon":5.42631,"is_reserved":false,"is_disabled":false,"rental_uris":{"android":"levelo://app?vid=d0a923ac-75da-4205-9bd7-0a004a8fe4f8","ios":"levelo://app?vid=d0a923ac-75da-4205-9bd7-0a004a8fe4f8"},"vehicle_type_id":"4","last_reported":1775155288,"current_range_meters":2800,"station_id":"ce4bhnh2rcd13ifvqgug","pricing_plan_id":"cebpf4jnsgd1na2vs0mg"},{"bike_id":"93f23f6b-5532-42b9-a07c-6f8817ade817","system_id":"levelo_inurba_marseille","lat":43.2811,"lon":5.37826,"is_reserved":false,"is_disabled":false,"rental_uris":{"android":"levelo://app?vid=93f23f6b-5532-42b9-a07c-6f8817ade817","ios":"levelo://app?vid=93f23f6b-5532-42b9-a07c-6f8817ade817"},"vehicle_type_id":"4","last_reported":1775155288,"current_range_meters":2800,"station_id":"ce4bha12rcd13ifvqee0","pricing_plan_id":"cebpf4jnsgd1na2vs0mg"},{"bike_id":"62bf82c9-a7d6-485f-b660-bbbb2d4f54e9","system_id":"levelo_inurba_marseille","lat":43.24393,"lon":5.37051,"is_reserved":false,"is_disabled":false,"rental_uris":{"android":"levelo://app?vid=62bf82c9-a7d6-485f-b660-bbbb2d4f54e9","ios":"levelo://app?vid=62bf82c9-a7d6-485f-b660-bbbb2d4f54e9"},"vehicle_type_id":"4","last_reported":1775155288,"current_range_meters":3200,"station_id":"ce4bhhh2rcd13ifvqfk0","pricing_plan_id":"cebpf4jnsgd1na2vs0mg"},{"bike_id":"687a53ef-7e45-4bea-8612-98b7699d911b","system_id":"levelo_inurba_marseille","lat":43.29301,"lon":5.37173,"is_reserved":false,"is_disabled":false,"rental_uris":{"android":"levelo://app?vid=687a53ef-7e45-4bea-8612-98b7699d911b","ios":"levelo://app?vid=687a53ef-7e45-4bea-8612-98b7699d911b"},"vehicle_type_id":"4","last_reported":1775155288,"current_range_meters":3200,"station_id":"ce4bgh92rcd13ifvqb40","pricing_plan_id":"cebpf4jnsgd1na2vs0mg"},{"bike_id":"b9a2dc0a-a78c-4ec1-b214-1ebc47ea2ab0","system_id":"levelo_inurba_marseille","lat":43.22548,"lon":5.41646,"is_reserved":false,"is_disabled":false,"rental_uris":{"android":"levelo://app?vid=b9a2dc0a-a78c-4ec1-b214-1ebc47ea2ab0","ios":"levelo://app?vid=b9a2dc0a-a78c-4ec1-b214-1ebc47ea2ab0"},"vehicle_type_id":"4","last_reported":1775155288,"current_range_meters":3200,"station_id":"st_d2o4gvlbi1j2169b742g","pricing_plan_id":"cebpf4jnsgd1na2vs0mg"},{"bike_id":"9e9ca659-8226-4e81-96f1-048e09530c8d","system_id":"levelo_inurba_marseille","lat":43.28929,"lon":5.38406,"is_reserved":false,"is_disabled":true,"rental_uris":{"android":"levelo://app?vid=9e9ca659-8226-4e81-96f1-048e09530c8d","ios":"levelo://app?vid=9e9ca659-8226-4e81-96f1-048e09530c8d"},"vehicle_type_id":"4","last_reported":1775155288,"current_range_meters":3200,"station_id":"ce4bh612rcd13ifvqe6g","pricing_plan_id":"cebpf4jnsgd1na2vs0mg"},{"bike_id":"ffde6a95-5dec-426a-943f-3ce4b714e7dc","system_id":"levelo_inurba_marseille","lat":43.21744,"lon":5.34645,"is_reserved":false,"is_disabled":false,"rental_uris":{"android":"levelo://app?vid=ffde6a95-5dec-426a-943f-3ce4b714e7dc","ios":"levelo://app?vid=ffde6a95-5dec-426a-943f-3ce4b714e7dc"},"vehicle_type_id":"4","last_reported":1775155288,"current_range_meters":3200,"station_id":"st_cvj6r9ubvosntc0bgbag","pricing_plan_id":"cebpf4jnsgd1na2vs0mg"},{"bike_id":"da46a4c6-14ff-4547-851e-67aeaa7cd5b0","system_id":"levelo_inurba_marseille","lat":43.24848,"lon":5.37454,"is_reserved":false,"is_disabled":false,"rental_uris":{"android":"levelo://app?vid=da46a4c6-14ff-4547-851e-67aeaa7cd5b0","ios":"levelo://app?vid=da46a4c6-14ff-4547-851e-67aeaa7cd5b0"},"vehicle_type_id":"4","last_reported":1775155288,"current_range_meters":3200,"station_id":"","pricing_plan_id":"cebpf4jnsgd1na2vs0mg"},{"bike_id":"2f8c7162-b176-483a-9546-7d68df742b9a","system_id":"levelo_inurba_marseille","lat":43.29274,"lon":5.40128,"is_reserved":false,"is_disabled":false,"rental_uris":{"android":"levelo://app?vid=2f8c7162-b176-483a-9546-7d68df742b9a","ios":"levelo://app?vid=2f8c7162-b176-483a-9546-7d68df742b9a"},"vehicle_type_id":"4","last_reported":1775155288,"current_range_meters":3200,"station_id":"ce4bh312rcd13ifvqdk0","pricing_plan_id":"cebpf4jnsgd1na2vs0mg"},{"bike_id":"c3dd942b-ed47-4c44-b470-aae5bc4c42ff","system_id":"levelo_inurba_marseille","lat":43.30887,"lon":5.39654,"is_reserved":false,"is_disabled":false,"rental_uris":{"android":"levelo://app?vid=c3dd942b-ed47-4c44-b470-aae5bc4c42ff","ios":"levelo://app?vid=c3dd942b-ed47-4c44-b470-aae5bc4c42ff"},"vehicle_type_id":"4","last_reported":1775155288,"current_range_meters":3200,"station_id":"ce4bh012rcd13ifvqcv0","pricing_plan_id":"cebpf4jnsgd1na2vs0mg"},{"bike_id":"31bd6e83-3baa-4ae1-91b8-6aef019dd637","system_id":"levelo_inurba_marseille","lat":43.30045,"lon":5.40112,"is_reserved":false,"is_disabled":false,"rental_uris":{"android":"levelo://app?vid=31bd6e83-3baa-4ae1-91b8-6aef019dd637","ios":"levelo://app?vid=31bd6e83-3baa-4ae1-91b8-6aef019dd637"},"vehicle_type_id":"4","last_reported":1775155288,"current_range_meters":3200,"station_id":"","pricing_plan_id":"cebpf4jnsgd1na2vs0mg"},{"bike_id":"c267eaf3-200a-4a1c-8074-fa1f1a8154c6","system_id":"levelo_inurba_marseille","lat":43.21755,"lon":5.34595,"is_reserved":false,"is_disabled":false,"rental_uris":{"android":"levelo://app?vid=c267eaf3-200a-4a1c-8074-fa1f1a8154c6","ios":"levelo://app?vid=c267eaf3-200a-4a1c-8074-fa1f1a8154c6"},"vehicle_type_id":"4","last_reported":1775155288,"current_range_meters":3200,"station_id":"st_cvj6r9ubvosntc0bgbag","pricing_plan_id":"cebpf4jnsgd1na2vs0mg"},{"bike_id":"af3b7885-9564-4817-8ba8-d64aa1f65bbe","system_id":"levelo_inurba_marseille","lat":43.29527,"lon":5.38541,"is_reserved":false,"is_disabled":false,"rental_uris":{"android":"levelo://app?vid=af3b7885-9564-4817-8ba8-d64aa1f65bbe","ios":"levelo://app?vid=af3b7885-9564-4817-8ba8-d64aa1f65bbe"},"vehicle_type_id":"4","last_reported":1775155288,"current_range_meters":3200,"station_id":"ce4bgih2rcd13ifvqba0","pricing_plan_id":"cebpf4jnsgd1na2vs0mg"},{"bike_id":"2c78b9d7-6797-4c09-ad87-2e1c14443b34","system_id":"levelo_inurba_marseille","lat":43.28549,"lon":5.42951,"is_reserved":false,"is_disabled":false,"rental_uris":{"android":"levelo://app?vid=2c78b9d7-6797-4c09-ad87-2e1c14443b34","ios":"levelo://app?vid=2c78b9d7-6797-4c09-ad87-2e1c14443b34"},"vehicle_type_id":"4","last_reported":1775155288,"current_range_meters":3200,"station_id":"","pricing_plan_id":"cebpf4jnsgd1na2vs0mg"},{"bike_id":"1bee42d7-78ba-47e3-bd58-92d1cc350b3e","system_id":"levelo_inurba_marseille","lat":43.30092,"lon":5.39055,"is_reserved":false,"is_disabled":false,"rental_uris":{"android":"levelo://app?vid=1bee42d7-78ba-47e3-bd58-92d1cc350b3e","ios":"levelo://app?vid=1bee42d7-78ba-47e3-bd58-92d1cc350b3e"},"vehicle_type_id":"4","last_reported":1775155288,"current_range_meters":3200,"station_id":"ce4bh192rcd13ifvqdb0","pricing_plan_id":"cebpf4jnsgd1na2vs0mg"},{"bike_id":"dbafccf7-0909-44bd-86f0-abe7aa0ed694","system_id":"levelo_inurba_marseille","lat":43.29391,"lon":5.43938,"is_reserved":false,"is_disabled":false,"rental_uris":{"android":"levelo://app?vid=dbafccf7-0909-44bd-86f0-abe7aa0ed694","ios":"levelo://app?vid=dbafccf7-0909-44bd-86f0-abe7aa0ed694"},"vehicle_type_id":"4","last_reported":1775155288,"current_range_meters":3600,"station_id":"","pricing_plan_id":"cebpf4jnsgd1na2vs0mg"},{"bike_id":"0b6c6387-d8b6-4bb8-b04c-d84bf5bfe001","system_id":"levelo_inurba_marseille","lat":43.31359,"lon":5.38506,"is_reserved":false,"is_disabled":false,"rental_uris":{"android":"levelo://app?vid=0b6c6387-d8b6-4bb8-b04c-d84bf5bfe001","ios":"levelo://app?vid=0b6c6387-d8b6-4bb8-b04c-d84bf5bfe001"},"vehicle_type_id":"4","last_reported":1775155288,"current_range_meters":3600,"station_id":"ce4bgt92rcd13ifvqcf0","pricing_plan_id":"cebpf4jnsgd1na2vs0mg"},{"bike_id":"e4956c66-fba0-45d5-a7d2-90ca01f34637","system_id":"levelo_inurba_marseille","lat":43.21753,"lon":5.34608,"is_reserved":false,"is_disabled":false,"rental_uris":{"android":"levelo://app?vid=e4956c66-fba0-45d5-a7d2-90ca01f34637","ios":"levelo://app?vid=e4956c66-fba0-45d5-a7d2-90ca01f34637"},"vehicle_type_id":"4","last_reported":1775155288,"current_range_meters":3600,"station_id":"st_cvj6r9ubvosntc0bgbag","pricing_plan_id":"cebpf4jnsgd1na2vs0mg"},{"bike_id":"d17c948a-67bf-41a5-a679-93280cb2daee","system_id":"levelo_inurba_marseille","lat":43.21207,"lon":5.35071,"is_reserved":false,"is_disabled":false,"rental_uris":{"android":"levelo://app?vid=d17c948a-67bf-41a5-a679-93280cb2daee","ios":"levelo://app?vid=d17c948a-67bf-41a5-a679-93280cb2daee"},"vehicle_type_id":"4","last_reported":1775155288,"current_range_meters":3600,"station_id":"st_cvj6sg6p6f1abm77japg","pricing_plan_id":"cebpf4jnsgd1na2vs0mg"},{"bike_id":"68945dd7-fcc7-4d4c-a459-6c84a8a17358","system_id":"levelo_inurba_marseille","lat":43.23972,"lon":5.36639,"is_reserved":false,"is_disabled":false,"rental_uris":{"android":"levelo://app?vid=68945dd7-fcc7-4d4c-a459-6c84a8a17358","ios":"levelo://app?vid=68945dd7-fcc7-4d4c-a459-6c84a8a17358"},"vehicle_type_id":"4","last_reported":1775155288,"current_range_meters":3600,"station_id":"ce4bhi12rcd13ifvqfp0","pricing_plan_id":"cebpf4jnsgd1na2vs0mg"},{"bike_id":"28902c85-2ce9-4ec9-adfe-51cf4064fa09","system_id":"levelo_inurba_marseille","lat":43.28435,"lon":5.39194,"is_reserved":false,"is_disabled":true,"rental_uris":{"android":"levelo://app?vid=28902c85-2ce9-4ec9-adfe-51cf4064fa09","ios":"levelo://app?vid=28902c85-2ce9-4ec9-adfe-51cf4064fa09"},"vehicle_type_id":"4","last_reported":1775155288,"current_range_meters":3600,"station_id":"ce4bhoh2rcd13ifvqh5g","pricing_plan_id":"cebpf4jnsgd1na2vs0mg"},{"bike_id":"eddf2cd6-1709-4815-9102-9044f236088e","system_id":"levelo_inurba_marseille","lat":43.3302,"lon":5.3904,"is_reserved":false,"is_disabled":false,"rental_uris":{"android":"levelo://app?vid=eddf2cd6-1709-4815-9102-9044f236088e","ios":"levelo://app?vid=eddf2cd6-1709-4815-9102-9044f236088e"},"vehicle_type_id":"4","last_reported":1775155288,"current_range_meters":3600,"station_id":"ce4bhr92rcd13ifvqhrg","pricing_plan_id":"cebpf4jnsgd1na2vs0mg"},{"bike_id":"a17dbbf9-2919-4aa7-a6bc-4d101b9dc30c","system_id":"levelo_inurba_marseille","lat":43.27513,"lon":5.40955,"is_reserved":false,"is_disabled":false,"rental_uris":{"android":"levelo://app?vid=a17dbbf9-2919-4aa7-a6bc-4d101b9dc30c","ios":"levelo://app?vid=a17dbbf9-2919-4aa7-a6bc-4d101b9dc30c"},"vehicle_type_id":"4","last_reported":1775155288,"current_range_meters":3600,"station_id":"","pricing_plan_id":"cebpf4jnsgd1na2vs0mg"},{"bike_id":"de826667-86cb-4e1f-86ad-b452c185d727","system_id":"levelo_inurba_marseille","lat":43.24809,"lon":5.37449,"is_reserved":false,"is_disabled":false,"rental_uris":{"android":"levelo://app?vid=de826667-86cb-4e1f-86ad-b452c185d727","ios":"levelo://app?vid=de826667-86cb-4e1f-86ad-b452c185d727"},"vehicle_type_id":"4","last_reported":1775155288,"current_range_meters":3600,"station_id":"ce4bhgh2rcd13ifvqfb0","pricing_plan_id":"cebpf4jnsgd1na2vs0mg"},{"bike_id":"ef741c02-5ea4-4c62-94ae-0f762c4aedeb","system_id":"levelo_inurba_marseille","lat":43.29563,"lon":5.39979,"is_reserved":false,"is_disabled":false,"rental_uris":{"android":"levelo://app?vid=ef741c02-5ea4-4c62-94ae-0f762c4aedeb","ios":"levelo://app?vid=ef741c02-5ea4-4c62-94ae-0f762c4aedeb"},"vehicle_type_id":"4","last_reported":1775155288,"current_range_meters":3600,"station_id":"ce4bh312rcd13ifvqdj0","pricing_plan_id":"cebpf4jnsgd1na2vs0mg"},{"bike_id":"0333ecc7-5f95-46a4-b32a-e0d49b26b3f9","system_id":"levelo_inurba_marseille","lat":43.29792,"lon":5.38095,"is_reserved":false,"is_disabled":false,"rental_uris":{"android":"levelo://app?vid=0333ecc7-5f95-46a4-b32a-e0d49b26b3f9","ios":"levelo://app?vid=0333ecc7-5f95-46a4-b32a-e0d49b26b3f9"},"vehicle_type_id":"4","last_reported":1775155288,"current_range_meters":3600,"station_id":"ce4bgip2rcd13ifvqbb0","pricing_plan_id":"cebpf4jnsgd1na2vs0mg"},{"bike_id":"4eaf08b9-88e9-49b7-80a4-89f8e7f31680","system_id":"levelo_inurba_marseille","lat":43.30642,"lon":5.40106,"is_reserved":false,"is_disabled":false,"rental_uris":{"android":"levelo://app?vid=4eaf08b9-88e9-49b7-80a4-89f8e7f31680","ios":"levelo://app?vid=4eaf08b9-88e9-49b7-80a4-89f8e7f31680"},"vehicle_type_id":"4","last_reported":1775155288,"current_range_meters":3600,"station_id":"ce4bh112rcd13ifvqda0","pricing_plan_id":"cebpf4jnsgd1na2vs0mg"},{"bike_id":"a97bb5fc-a1de-4358-bea3-8b9d363fa9b3","system_id":"levelo_inurba_marseille","lat":43.23815,"lon":5.36633,"is_reserved":false,"is_disabled":false,"rental_uris":{"android":"levelo://app?vid=a97bb5fc-a1de-4358-bea3-8b9d363fa9b3","ios":"levelo://app?vid=a97bb5fc-a1de-4358-bea3-8b9d363fa9b3"},"vehicle_type_id":"4","last_reported":1775155288,"current_range_meters":3600,"station_id":"st_d3nk18o9ro0c73en2l3g","pricing_plan_id":"cebpf4jnsgd1na2vs0mg"},{"bike_id":"1b89f2e1-0726-4a0a-ba7f-f4397fe41860","system_id":"levelo_inurba_marseille","lat":43.28606,"lon":5.38409,"is_reserved":false,"is_disabled":false,"rental_uris":{"android":"levelo://app?vid=1b89f2e1-0726-4a0a-ba7f-f4397fe41860","ios":"levelo://app?vid=1b89f2e1-0726-4a0a-ba7f-f4397fe41860"},"vehicle_type_id":"4","last_reported":1775155288,"current_range_meters":4000,"station_id":"","pricing_plan_id":"cebpf4jnsgd1na2vs0mg"},{"bike_id":"b72f8ab9-87fc-44d4-b4c8-fb62b5b5c667","system_id":"levelo_inurba_marseille","lat":43.30079,"lon":5.37054,"is_reserved":false,"is_disabled":false,"rental_uris":{"android":"levelo://app?vid=b72f8ab9-87fc-44d4-b4c8-fb62b5b5c667","ios":"levelo://app?vid=b72f8ab9-87fc-44d4-b4c8-fb62b5b5c667"},"vehicle_type_id":"4","last_reported":1775155288,"current_range_meters":4000,"station_id":"","pricing_plan_id":"cebpf4jnsgd1na2vs0mg"},{"bike_id":"e9b3f906-3c96-41d2-bde3-70019147dd95","system_id":"levelo_inurba_marseille","lat":43.2255,"lon":5.41649,"is_reserved":false,"is_disabled":false,"rental_uris":{"android":"levelo://app?vid=e9b3f906-3c96-41d2-bde3-70019147dd95","ios":"levelo://app?vid=e9b3f906-3c96-41d2-bde3-70019147dd95"},"vehicle_type_id":"4","last_reported":1775155288,"current_range_meters":4000,"station_id":"st_d2o4gvlbi1j2169b742g","pricing_plan_id":"cebpf4jnsgd1na2vs0mg"},{"bike_id":"32bbc785-7878-457c-9b63-c753cac045af","system_id":"levelo_inurba_marseille","lat":43.21743,"lon":5.34605,"is_reserved":false,"is_disabled":false,"rental_uris":{"android":"levelo://app?vid=32bbc785-7878-457c-9b63-c753cac045af","ios":"levelo://app?vid=32bbc785-7878-457c-9b63-c753cac045af"},"vehicle_type_id":"4","last_reported":1775155288,"current_range_meters":4000,"station_id":"st_cvj6r9ubvosntc0bgbag","pricing_plan_id":"cebpf4jnsgd1na2vs0mg"},{"bike_id":"1bdbf982-d656-4173-91b1-d3055e78d6cd","system_id":"levelo_inurba_marseille","lat":43.22564,"lon":5.4163,"is_reserved":false,"is_disabled":false,"rental_uris":{"android":"levelo://app?vid=1bdbf982-d656-4173-91b1-d3055e78d6cd","ios":"levelo://app?vid=1bdbf982-d656-4173-91b1-d3055e78d6cd"},"vehicle_type_id":"4","last_reported":1775155288,"current_range_meters":4000,"station_id":"st_d2o4gvlbi1j2169b742g","pricing_plan_id":"cebpf4jnsgd1na2vs0mg"},{"bike_id":"2b176618-2114-4a94-bc43-fa6914887efb","system_id":"levelo_inurba_marseille","lat":43.33569,"lon":5.37479,"is_reserved":false,"is_disabled":false,"rental_uris":{"android":"levelo://app?vid=2b176618-2114-4a94-bc43-fa6914887efb","ios":"levelo://app?vid=2b176618-2114-4a94-bc43-fa6914887efb"},"vehicle_type_id":"4","last_reported":1775155288,"current_range_meters":4000,"station_id":"st_d46tts09ee8s73dlu43g","pricing_plan_id":"cebpf4jnsgd1na2vs0mg"},{"bike_id":"4a9a41a6-553c-42b4-9a76-1207b16dcd78","system_id":"levelo_inurba_marseille","lat":43.33571,"lon":5.37479,"is_reserved":false,"is_disabled":false,"rental_uris":{"android":"levelo://app?vid=4a9a41a6-553c-42b4-9a76-1207b16dcd78","ios":"levelo://app?vid=4a9a41a6-553c-42b4-9a76-1207b16dcd78"},"vehicle_type_id":"4","last_reported":1775155288,"current_range_meters":4000,"station_id":"st_d46tts09ee8s73dlu43g","pricing_plan_id":"cebpf4jnsgd1na2vs0mg"},{"bike_id":"ef8d4fc8-6bc3-4a9f-a476-2d23d9d29968","system_id":"levelo_inurba_marseille","lat":43.2924,"lon":5.40124,"is_reserved":false,"is_disabled":true,"rental_uris":{"android":"levelo://app?vid=ef8d4fc8-6bc3-4a9f-a476-2d23d9d29968","ios":"levelo://app?vid=ef8d4fc8-6bc3-4a9f-a476-2d23d9d29968"},"vehicle_type_id":"4","last_reported":1775155288,"current_range_meters":4000,"station_id":"ce4bh312rcd13ifvqdk0","pricing_plan_id":"cebpf4jnsgd1na2vs0mg"},{"bike_id":"c4dd2b1c-6276-4ce2-924d-d054436fb050","system_id":"levelo_inurba_marseille","lat":43.29163,"lon":5.3715,"is_reserved":false,"is_disabled":false,"rental_uris":{"android":"levelo://app?vid=c4dd2b1c-6276-4ce2-924d-d054436fb050","ios":"levelo://app?vid=c4dd2b1c-6276-4ce2-924d-d054436fb050"},"vehicle_type_id":"4","last_reported":1775155288,"current_range_meters":4000,"station_id":"ce4bha92rcd13ifvqeh0","pricing_plan_id":"cebpf4jnsgd1na2vs0mg"},{"bike_id":"224c7e87-1946-4098-82e0-9816013efbd2","system_id":"levelo_inurba_marseille","lat":43.28457,"lon":5.35878,"is_reserved":false,"is_disabled":false,"rental_uris":{"android":"levelo://app?vid=224c7e87-1946-4098-82e0-9816013efbd2","ios":"levelo://app?vid=224c7e87-1946-4098-82e0-9816013efbd2"},"vehicle_type_id":"4","last_reported":1775155288,"current_range_meters":4000,"station_id":"ce4bhah2rcd13ifvqei0","pricing_plan_id":"cebpf4jnsgd1na2vs0mg"},{"bike_id":"3fbb071f-d65e-4c3f-a717-1aa4991e06c3","system_id":"levelo_inurba_marseille","lat":43.283425,"lon":5.381106,"is_reserved":false,"is_disabled":false,"rental_uris":{"android":"levelo://app?vid=3fbb071f-d65e-4c3f-a717-1aa4991e06c3","ios":"levelo://app?vid=3fbb071f-d65e-4c3f-a717-1aa4991e06c3"},"vehicle_type_id":"4","last_reported":1775155288,"current_range_meters":4400,"station_id":"ce4bh412rcd13ifvqdr0","pricing_plan_id":"cebpf4jnsgd1na2vs0mg"},{"bike_id":"78151f0b-d096-4bc8-9d04-f28fec21246f","system_id":"levelo_inurba_marseille","lat":43.2317,"lon":5.39968,"is_reserved":false,"is_disabled":false,"rental_uris":{"android":"levelo://app?vid=78151f0b-d096-4bc8-9d04-f28fec21246f","ios":"levelo://app?vid=78151f0b-d096-4bc8-9d04-f28fec21246f"},"vehicle_type_id":"4","last_reported":1775155288,"current_range_meters":4400,"station_id":"ce4bhn12rcd13ifvqgqg","pricing_plan_id":"cebpf4jnsgd1na2vs0mg"},{"bike_id":"a877f7d8-cc46-418d-ad17-8c7c7864ae28","system_id":"levelo_inurba_marseille","lat":43.24888,"lon":5.386655,"is_reserved":false,"is_disabled":false,"rental_uris":{"android":"levelo://app?vid=a877f7d8-cc46-418d-ad17-8c7c7864ae28","ios":"levelo://app?vid=a877f7d8-cc46-418d-ad17-8c7c7864ae28"},"vehicle_type_id":"4","last_reported":1775155288,"current_range_meters":4400,"station_id":"ce4bhgp2rcd13ifvqfd0","pricing_plan_id":"cebpf4jnsgd1na2vs0mg"},{"bike_id":"4b3c825a-c5e6-42c6-af30-700063fa913d","system_id":"levelo_inurba_marseille","lat":43.25981,"lon":5.37596,"is_reserved":false,"is_disabled":true,"rental_uris":{"android":"levelo://app?vid=4b3c825a-c5e6-42c6-af30-700063fa913d","ios":"levelo://app?vid=4b3c825a-c5e6-42c6-af30-700063fa913d"},"vehicle_type_id":"4","last_reported":1775155288,"current_range_meters":4400,"station_id":"","pricing_plan_id":"cebpf4jnsgd1na2vs0mg"},{"bike_id":"17b8fc26-3ba8-4cf9-a457-0b2cc0ec871e","system_id":"levelo_inurba_marseille","lat":43.2749,"lon":5.41639,"is_reserved":false,"is_disabled":false,"rental_uris":{"android":"levelo://app?vid=17b8fc26-3ba8-4cf9-a457-0b2cc0ec871e","ios":"levelo://app?vid=17b8fc26-3ba8-4cf9-a457-0b2cc0ec871e"},"vehicle_type_id":"4","last_reported":1775155288,"current_range_meters":4400,"station_id":"","pricing_plan_id":"cebpf4jnsgd1na2vs0mg"},{"bike_id":"cac3c55f-dcf5-4706-9051-185e14264ce9","system_id":"levelo_inurba_marseille","lat":43.26033,"lon":5.37544,"is_reserved":false,"is_disabled":false,"rental_uris":{"android":"levelo://app?vid=cac3c55f-dcf5-4706-9051-185e14264ce9","ios":"levelo://app?vid=cac3c55f-dcf5-4706-9051-185e14264ce9"},"vehicle_type_id":"4","last_reported":1775155288,"current_range_meters":4400,"station_id":"ce4bhgh2rcd13ifvqfa0","pricing_plan_id":"cebpf4jnsgd1na2vs0mg"},{"bike_id":"0a3da441-b397-4403-bce3-bdda888d8baf","system_id":"levelo_inurba_marseille","lat":43.32661,"lon":5.40984,"is_reserved":false,"is_disabled":false,"rental_uris":{"android":"levelo://app?vid=0a3da441-b397-4403-bce3-bdda888d8baf","ios":"levelo://app?vid=0a3da441-b397-4403-bce3-bdda888d8baf"},"vehicle_type_id":"4","last_reported":1775155288,"current_range_meters":4400,"station_id":"ce4bhpp2rcd13ifvqhgg","pricing_plan_id":"cebpf4jnsgd1na2vs0mg"},{"bike_id":"10bf1fbd-6b8b-4de7-a3e1-96d5db3cee91","system_id":"levelo_inurba_marseille","lat":43.27359,"lon":5.36247,"is_reserved":false,"is_disabled":false,"rental_uris":{"android":"levelo://app?vid=10bf1fbd-6b8b-4de7-a3e1-96d5db3cee91","ios":"levelo://app?vid=10bf1fbd-6b8b-4de7-a3e1-96d5db3cee91"},"vehicle_type_id":"4","last_reported":1775155288,"current_range_meters":4400,"station_id":"ce4bhbh2rcd13ifvqeo0","pricing_plan_id":"cebpf4jnsgd1na2vs0mg"},{"bike_id":"4eda720f-73b7-443c-86cf-cc7068097a32","system_id":"levelo_inurba_marseille","lat":43.32274,"lon":5.38257,"is_reserved":false,"is_disabled":false,"rental_uris":{"android":"levelo://app?vid=4eda720f-73b7-443c-86cf-cc7068097a32","ios":"levelo://app?vid=4eda720f-73b7-443c-86cf-cc7068097a32"},"vehicle_type_id":"4","last_reported":1775155288,"current_range_meters":4400,"station_id":"ce4bhr12rcd13ifvqhqg","pricing_plan_id":"cebpf4jnsgd1na2vs0mg"},{"bike_id":"052f68eb-b3d2-4c29-a99d-37f9d3e34be6","system_id":"levelo_inurba_marseille","lat":43.24879,"lon":5.42648,"is_reserved":false,"is_disabled":false,"rental_uris":{"android":"levelo://app?vid=052f68eb-b3d2-4c29-a99d-37f9d3e34be6","ios":"levelo://app?vid=052f68eb-b3d2-4c29-a99d-37f9d3e34be6"},"vehicle_type_id":"4","last_reported":1775155288,"current_range_meters":4400,"station_id":"","pricing_plan_id":"cebpf4jnsgd1na2vs0mg"},{"bike_id":"751823b1-fecf-476f-a14d-b22ea92d3e4c","system_id":"levelo_inurba_marseille","lat":43.29174,"lon":5.42627,"is_reserved":false,"is_disabled":false,"rental_uris":{"android":"levelo://app?vid=751823b1-fecf-476f-a14d-b22ea92d3e4c","ios":"levelo://app?vid=751823b1-fecf-476f-a14d-b22ea92d3e4c"},"vehicle_type_id":"4","last_reported":1775155288,"current_range_meters":4400,"station_id":"","pricing_plan_id":"cebpf4jnsgd1na2vs0mg"},{"bike_id":"b0c7af6e-3d0b-4ab3-b18f-a89f14a0ad41","system_id":"levelo_inurba_marseille","lat":43.2119,"lon":5.35074,"is_reserved":false,"is_disabled":false,"rental_uris":{"android":"levelo://app?vid=b0c7af6e-3d0b-4ab3-b18f-a89f14a0ad41","ios":"levelo://app?vid=b0c7af6e-3d0b-4ab3-b18f-a89f14a0ad41"},"vehicle_type_id":"4","last_reported":1775155288,"current_range_meters":4800,"station_id":"st_cvj6sg6p6f1abm77japg","pricing_plan_id":"cebpf4jnsgd1na2vs0mg"},{"bike_id":"2e263689-cbf3-4035-a709-1cd24747d734","system_id":"levelo_inurba_marseille","lat":43.26561,"lon":5.40323,"is_reserved":false,"is_disabled":false,"rental_uris":{"android":"levelo://app?vid=2e263689-cbf3-4035-a709-1cd24747d734","ios":"levelo://app?vid=2e263689-cbf3-4035-a709-1cd24747d734"},"vehicle_type_id":"4","last_reported":1775155288,"current_range_meters":4800,"station_id":"ce4bhmp2rcd13ifvqgng","pricing_plan_id":"cebpf4jnsgd1na2vs0mg"},{"bike_id":"b97544d4-fc20-4746-a137-2d69f3584b87","system_id":"levelo_inurba_marseille","lat":43.22488,"lon":5.34839,"is_reserved":false,"is_disabled":false,"rental_uris":{"android":"levelo://app?vid=b97544d4-fc20-4746-a137-2d69f3584b87","ios":"levelo://app?vid=b97544d4-fc20-4746-a137-2d69f3584b87"},"vehicle_type_id":"4","last_reported":1775155288,"current_range_meters":4800,"station_id":"","pricing_plan_id":"cebpf4jnsgd1na2vs0mg"},{"bike_id":"8429f855-c4a0-4803-9ce7-0d1fb93dbfe8","system_id":"levelo_inurba_marseille","lat":43.28556,"lon":5.48336,"is_reserved":false,"is_disabled":false,"rental_uris":{"android":"levelo://app?vid=8429f855-c4a0-4803-9ce7-0d1fb93dbfe8","ios":"levelo://app?vid=8429f855-c4a0-4803-9ce7-0d1fb93dbfe8"},"vehicle_type_id":"4","last_reported":1775155288,"current_range_meters":4800,"station_id":"","pricing_plan_id":"cebpf4jnsgd1na2vs0mg"},{"bike_id":"c69f7b18-98a2-454c-bac1-287f873aa573","system_id":"levelo_inurba_marseille","lat":43.262123,"lon":5.374489,"is_reserved":false,"is_disabled":true,"rental_uris":{"android":"levelo://app?vid=c69f7b18-98a2-454c-bac1-287f873aa573","ios":"levelo://app?vid=c69f7b18-98a2-454c-bac1-287f873aa573"},"vehicle_type_id":"4","last_reported":1775155288,"current_range_meters":4800,"station_id":"ce4bhbh2rcd13ifvqepg","pricing_plan_id":"cebpf4jnsgd1na2vs0mg"},{"bike_id":"11d19dab-7798-472d-a3cd-c1ff1cf623a6","system_id":"levelo_inurba_marseille","lat":43.25015,"lon":5.38904,"is_reserved":false,"is_disabled":false,"rental_uris":{"android":"levelo://app?vid=11d19dab-7798-472d-a3cd-c1ff1cf623a6","ios":"levelo://app?vid=11d19dab-7798-472d-a3cd-c1ff1cf623a6"},"vehicle_type_id":"4","last_reported":1775155288,"current_range_meters":4800,"station_id":"ce4bhgp2rcd13ifvqfd0","pricing_plan_id":"cebpf4jnsgd1na2vs0mg"},{"bike_id":"81a505ab-321e-420a-ad05-b3394aa588fa","system_id":"levelo_inurba_marseille","lat":43.29866,"lon":5.38913,"is_reserved":false,"is_disabled":false,"rental_uris":{"android":"levelo://app?vid=81a505ab-321e-420a-ad05-b3394aa588fa","ios":"levelo://app?vid=81a505ab-321e-420a-ad05-b3394aa588fa"},"vehicle_type_id":"4","last_reported":1775155288,"current_range_meters":4800,"station_id":"ce4bh392rcd13ifvqdl0","pricing_plan_id":"cebpf4jnsgd1na2vs0mg"},{"bike_id":"a3aed7b9-855c-4313-9c25-f16f32e55a8a","system_id":"levelo_inurba_marseille","lat":43.27806,"lon":5.40711,"is_reserved":false,"is_disabled":false,"rental_uris":{"android":"levelo://app?vid=a3aed7b9-855c-4313-9c25-f16f32e55a8a","ios":"levelo://app?vid=a3aed7b9-855c-4313-9c25-f16f32e55a8a"},"vehicle_type_id":"4","last_reported":1775155288,"current_range_meters":4800,"station_id":"ce4bhnh2rcd13ifvqgtg","pricing_plan_id":"cebpf4jnsgd1na2vs0mg"},{"bike_id":"2e1bb915-7cc1-480d-b6c9-2c6a093b50b8","system_id":"levelo_inurba_marseille","lat":43.25016,"lon":5.38945,"is_reserved":false,"is_disabled":false,"rental_uris":{"android":"levelo://app?vid=2e1bb915-7cc1-480d-b6c9-2c6a093b50b8","ios":"levelo://app?vid=2e1bb915-7cc1-480d-b6c9-2c6a093b50b8"},"vehicle_type_id":"4","last_reported":1775155288,"current_range_meters":4800,"station_id":"ce4bhgp2rcd13ifvqfd0","pricing_plan_id":"cebpf4jnsgd1na2vs0mg"},{"bike_id":"1c615c50-a111-4896-bdb0-c3d4ebdac721","system_id":"levelo_inurba_marseille","lat":43.2396,"lon":5.36632,"is_reserved":false,"is_disabled":false,"rental_uris":{"android":"levelo://app?vid=1c615c50-a111-4896-bdb0-c3d4ebdac721","ios":"levelo://app?vid=1c615c50-a111-4896-bdb0-c3d4ebdac721"},"vehicle_type_id":"4","last_reported":1775155288,"current_range_meters":4800,"station_id":"ce4bhi12rcd13ifvqfp0","pricing_plan_id":"cebpf4jnsgd1na2vs0mg"},{"bike_id":"1e761a26-7e6f-4faa-97d2-c5b005898690","system_id":"levelo_inurba_marseille","lat":43.24181,"lon":5.39731,"is_reserved":false,"is_disabled":false,"rental_uris":{"android":"levelo://app?vid=1e761a26-7e6f-4faa-97d2-c5b005898690","ios":"levelo://app?vid=1e761a26-7e6f-4faa-97d2-c5b005898690"},"vehicle_type_id":"4","last_reported":1775155288,"current_range_meters":4800,"station_id":"ce4bhn12rcd13ifvqgpg","pricing_plan_id":"cebpf4jnsgd1na2vs0mg"},{"bike_id":"2be64f19-432b-4d07-98a7-6e9bfd23e981","system_id":"levelo_inurba_marseille","lat":43.29766,"lon":5.42813,"is_reserved":false,"is_disabled":false,"rental_uris":{"android":"levelo://app?vid=2be64f19-432b-4d07-98a7-6e9bfd23e981","ios":"levelo://app?vid=2be64f19-432b-4d07-98a7-6e9bfd23e981"},"vehicle_type_id":"4","last_reported":1775155288,"current_range_meters":4800,"station_id":"st_d3md5207bmas73dh9klg","pricing_plan_id":"cebpf4jnsgd1na2vs0mg"},{"bike_id":"3775e783-3ba6-424d-9be0-4487ee9501fa","system_id":"levelo_inurba_marseille","lat":43.29515,"lon":5.38539,"is_reserved":false,"is_disabled":false,"rental_uris":{"android":"levelo://app?vid=3775e783-3ba6-424d-9be0-4487ee9501fa","ios":"levelo://app?vid=3775e783-3ba6-424d-9be0-4487ee9501fa"},"vehicle_type_id":"4","last_reported":1775155288,"current_range_meters":4800,"station_id":"ce4bgih2rcd13ifvqba0","pricing_plan_id":"cebpf4jnsgd1na2vs0mg"},{"bike_id":"0f9416fb-514f-4e32-a17f-8a04f08a2d73","system_id":"levelo_inurba_marseille","lat":43.29216,"lon":5.36072,"is_reserved":false,"is_disabled":false,"rental_uris":{"android":"levelo://app?vid=0f9416fb-514f-4e32-a17f-8a04f08a2d73","ios":"levelo://app?vid=0f9416fb-514f-4e32-a17f-8a04f08a2d73"},"vehicle_type_id":"4","last_reported":1775155288,"current_range_meters":4800,"station_id":"ce4bhbh2rcd13ifvqeqg","pricing_plan_id":"cebpf4jnsgd1na2vs0mg"},{"bike_id":"cce71867-af00-4efb-acca-1ad994ce58c1","system_id":"levelo_inurba_marseille","lat":43.33164,"lon":5.37696,"is_reserved":false,"is_disabled":false,"rental_uris":{"android":"levelo://app?vid=cce71867-af00-4efb-acca-1ad994ce58c1","ios":"levelo://app?vid=cce71867-af00-4efb-acca-1ad994ce58c1"},"vehicle_type_id":"4","last_reported":1775155288,"current_range_meters":4800,"station_id":"st_d46cu089ee8s73dldbu0","pricing_plan_id":"cebpf4jnsgd1na2vs0mg"},{"bike_id":"8da39205-791e-42f4-8615-2f88ec00c282","system_id":"levelo_inurba_marseille","lat":43.25535,"lon":5.37656,"is_reserved":false,"is_disabled":false,"rental_uris":{"android":"levelo://app?vid=8da39205-791e-42f4-8615-2f88ec00c282","ios":"levelo://app?vid=8da39205-791e-42f4-8615-2f88ec00c282"},"vehicle_type_id":"4","last_reported":1775155288,"current_range_meters":4800,"station_id":"ce4bhh12rcd13ifvqff0","pricing_plan_id":"cebpf4jnsgd1na2vs0mg"},{"bike_id":"b3c5d317-006e-4edb-82b5-4864bde26e42","system_id":"levelo_inurba_marseille","lat":43.27852,"lon":5.4253,"is_reserved":false,"is_disabled":false,"rental_uris":{"android":"levelo://app?vid=b3c5d317-006e-4edb-82b5-4864bde26e42","ios":"levelo://app?vid=b3c5d317-006e-4edb-82b5-4864bde26e42"},"vehicle_type_id":"4","last_reported":1775155288,"current_range_meters":5600,"station_id":"","pricing_plan_id":"cebpf4jnsgd1na2vs0mg"},{"bike_id":"bd0ac768-7c9c-45a3-a37e-3f8f101dd4fa","system_id":"levelo_inurba_marseille","lat":43.22535,"lon":5.34808,"is_reserved":false,"is_disabled":false,"rental_uris":{"android":"levelo://app?vid=bd0ac768-7c9c-45a3-a37e-3f8f101dd4fa","ios":"levelo://app?vid=bd0ac768-7c9c-45a3-a37e-3f8f101dd4fa"},"vehicle_type_id":"4","last_reported":1775155288,"current_range_meters":5600,"station_id":"st_cvj5dfep6f1abm77gieg","pricing_plan_id":"cebpf4jnsgd1na2vs0mg"},{"bike_id":"87e1bf50-e432-4940-b9d8-3c0a254d9927","system_id":"levelo_inurba_marseille","lat":43.29276,"lon":5.38453,"is_reserved":false,"is_disabled":false,"rental_uris":{"android":"levelo://app?vid=87e1bf50-e432-4940-b9d8-3c0a254d9927","ios":"levelo://app?vid=87e1bf50-e432-4940-b9d8-3c0a254d9927"},"vehicle_type_id":"4","last_reported":1775155288,"current_range_meters":5600,"station_id":"ce4bh692rcd13ifvqea0","pricing_plan_id":"cebpf4jnsgd1na2vs0mg"},{"bike_id":"b149b05d-17dc-4174-91fd-6a2d9bb13c8f","system_id":"levelo_inurba_marseille","lat":43.31677,"lon":5.3807,"is_reserved":false,"is_disabled":false,"rental_uris":{"android":"levelo://app?vid=b149b05d-17dc-4174-91fd-6a2d9bb13c8f","ios":"levelo://app?vid=b149b05d-17dc-4174-91fd-6a2d9bb13c8f"},"vehicle_type_id":"4","last_reported":1775155288,"current_range_meters":5600,"station_id":"","pricing_plan_id":"cebpf4jnsgd1na2vs0mg"},{"bike_id":"4d5384d3-8484-4fd4-ab3e-42cf8d8ddb2b","system_id":"levelo_inurba_marseille","lat":43.28861,"lon":5.42515,"is_reserved":false,"is_disabled":false,"rental_uris":{"android":"levelo://app?vid=4d5384d3-8484-4fd4-ab3e-42cf8d8ddb2b","ios":"levelo://app?vid=4d5384d3-8484-4fd4-ab3e-42cf8d8ddb2b"},"vehicle_type_id":"4","last_reported":1775155288,"current_range_meters":5600,"station_id":"st_d3b462108ojc7389ooeg","pricing_plan_id":"cebpf4jnsgd1na2vs0mg"},{"bike_id":"62210ce0-a99a-4686-acce-34a5c68d8cfd","system_id":"levelo_inurba_marseille","lat":43.2402,"lon":5.3778,"is_reserved":false,"is_disabled":false,"rental_uris":{"android":"levelo://app?vid=62210ce0-a99a-4686-acce-34a5c68d8cfd","ios":"levelo://app?vid=62210ce0-a99a-4686-acce-34a5c68d8cfd"},"vehicle_type_id":"4","last_reported":1775155288,"current_range_meters":5600,"station_id":"","pricing_plan_id":"cebpf4jnsgd1na2vs0mg"},{"bike_id":"d79043de-c8e5-4bdb-aecd-cc4044485d69","system_id":"levelo_inurba_marseille","lat":43.33158,"lon":5.37714,"is_reserved":false,"is_disabled":false,"rental_uris":{"android":"levelo://app?vid=d79043de-c8e5-4bdb-aecd-cc4044485d69","ios":"levelo://app?vid=d79043de-c8e5-4bdb-aecd-cc4044485d69"},"vehicle_type_id":"4","last_reported":1775155288,"current_range_meters":5600,"station_id":"st_d46cu089ee8s73dldbu0","pricing_plan_id":"cebpf4jnsgd1na2vs0mg"},{"bike_id":"e7ae0976-a40e-45e7-a452-6b8beb8f674e","system_id":"levelo_inurba_marseille","lat":43.2976,"lon":5.37108,"is_reserved":false,"is_disabled":false,"rental_uris":{"android":"levelo://app?vid=e7ae0976-a40e-45e7-a452-6b8beb8f674e","ios":"levelo://app?vid=e7ae0976-a40e-45e7-a452-6b8beb8f674e"},"vehicle_type_id":"4","last_reported":1775155288,"current_range_meters":5600,"station_id":"ce4bgop2rcd13ifvqc1g","pricing_plan_id":"cebpf4jnsgd1na2vs0mg"},{"bike_id":"bddf8fd1-7331-43a1-ac28-cb0a5768857b","system_id":"levelo_inurba_marseille","lat":43.25828,"lon":5.39432,"is_reserved":false,"is_disabled":false,"rental_uris":{"android":"levelo://app?vid=bddf8fd1-7331-43a1-ac28-cb0a5768857b","ios":"levelo://app?vid=bddf8fd1-7331-43a1-ac28-cb0a5768857b"},"vehicle_type_id":"4","last_reported":1775155288,"current_range_meters":5600,"station_id":"ce4bhip2rcd13ifvqft0","pricing_plan_id":"cebpf4jnsgd1na2vs0mg"},{"bike_id":"01aecd18-45d4-4eef-b486-94b6abd0cca9","system_id":"levelo_inurba_marseille","lat":43.25574,"lon":5.38221,"is_reserved":false,"is_disabled":false,"rental_uris":{"android":"levelo://app?vid=01aecd18-45d4-4eef-b486-94b6abd0cca9","ios":"levelo://app?vid=01aecd18-45d4-4eef-b486-94b6abd0cca9"},"vehicle_type_id":"4","last_reported":1775155288,"current_range_meters":5600,"station_id":"ce4bhih2rcd13ifvqfs0","pricing_plan_id":"cebpf4jnsgd1na2vs0mg"},{"bike_id":"93b54f12-6027-40ee-aaaf-52c4a5342eb2","system_id":"levelo_inurba_marseille","lat":43.21187,"lon":5.35066,"is_reserved":false,"is_disabled":false,"rental_uris":{"android":"levelo://app?vid=93b54f12-6027-40ee-aaaf-52c4a5342eb2","ios":"levelo://app?vid=93b54f12-6027-40ee-aaaf-52c4a5342eb2"},"vehicle_type_id":"4","last_reported":1775155288,"current_range_meters":5600,"station_id":"st_cvj6sg6p6f1abm77japg","pricing_plan_id":"cebpf4jnsgd1na2vs0mg"},{"bike_id":"b520c44c-d570-4b15-a101-7d26cad68f15","system_id":"levelo_inurba_marseille","lat":43.29247,"lon":5.38436,"is_reserved":false,"is_disabled":false,"rental_uris":{"android":"levelo://app?vid=b520c44c-d570-4b15-a101-7d26cad68f15","ios":"levelo://app?vid=b520c44c-d570-4b15-a101-7d26cad68f15"},"vehicle_type_id":"4","last_reported":1775155288,"current_range_meters":5600,"station_id":"ce4bh692rcd13ifvqea0","pricing_plan_id":"cebpf4jnsgd1na2vs0mg"},{"bike_id":"1ddada69-e90e-42d5-84c6-ca6acdb9f7a2","system_id":"levelo_inurba_marseille","lat":43.30055,"lon":5.43892,"is_reserved":false,"is_disabled":false,"rental_uris":{"android":"levelo://app?vid=1ddada69-e90e-42d5-84c6-ca6acdb9f7a2","ios":"levelo://app?vid=1ddada69-e90e-42d5-84c6-ca6acdb9f7a2"},"vehicle_type_id":"4","last_reported":1775155288,"current_range_meters":6000,"station_id":"","pricing_plan_id":"cebpf4jnsgd1na2vs0mg"},{"bike_id":"864e4cc8-0cc1-43c8-a100-e4023bb2959e","system_id":"levelo_inurba_marseille","lat":43.29968,"lon":5.38479,"is_reserved":false,"is_disabled":true,"rental_uris":{"android":"levelo://app?vid=864e4cc8-0cc1-43c8-a100-e4023bb2959e","ios":"levelo://app?vid=864e4cc8-0cc1-43c8-a100-e4023bb2959e"},"vehicle_type_id":"4","last_reported":1775155288,"current_range_meters":6000,"station_id":"ce4bgj92rcd13ifvqbd0","pricing_plan_id":"cebpf4jnsgd1na2vs0mg"},{"bike_id":"58d91ae1-8063-4e7d-870c-f6392dad8fd9","system_id":"levelo_inurba_marseille","lat":43.28481,"lon":5.4839,"is_reserved":false,"is_disabled":false,"rental_uris":{"android":"levelo://app?vid=58d91ae1-8063-4e7d-870c-f6392dad8fd9","ios":"levelo://app?vid=58d91ae1-8063-4e7d-870c-f6392dad8fd9"},"vehicle_type_id":"4","last_reported":1775155288,"current_range_meters":6000,"station_id":"","pricing_plan_id":"cebpf4jnsgd1na2vs0mg"},{"bike_id":"7462915c-7740-4d72-86d9-d80697d58e7b","system_id":"levelo_inurba_marseille","lat":43.29881,"lon":5.38904,"is_reserved":false,"is_disabled":false,"rental_uris":{"android":"levelo://app?vid=7462915c-7740-4d72-86d9-d80697d58e7b","ios":"levelo://app?vid=7462915c-7740-4d72-86d9-d80697d58e7b"},"vehicle_type_id":"4","last_reported":1775155288,"current_range_meters":6000,"station_id":"ce4bh392rcd13ifvqdl0","pricing_plan_id":"cebpf4jnsgd1na2vs0mg"},{"bike_id":"11a3575c-a967-4750-a89c-f077d62c5247","system_id":"levelo_inurba_marseille","lat":43.24647,"lon":5.38174,"is_reserved":false,"is_disabled":false,"rental_uris":{"android":"levelo://app?vid=11a3575c-a967-4750-a89c-f077d62c5247","ios":"levelo://app?vid=11a3575c-a967-4750-a89c-f077d62c5247"},"vehicle_type_id":"4","last_reported":1775155288,"current_range_meters":6000,"station_id":"ce4bhih2rcd13ifvqfr0","pricing_plan_id":"cebpf4jnsgd1na2vs0mg"},{"bike_id":"b07c7a9a-56e4-4d8b-9a49-a3a95cb13083","system_id":"levelo_inurba_marseille","lat":43.29534,"lon":5.39024,"is_reserved":false,"is_disabled":false,"rental_uris":{"android":"levelo://app?vid=b07c7a9a-56e4-4d8b-9a49-a3a95cb13083","ios":"levelo://app?vid=b07c7a9a-56e4-4d8b-9a49-a3a95cb13083"},"vehicle_type_id":"4","last_reported":1775155288,"current_range_meters":6000,"station_id":"ce4bh3p2rcd13ifvqdp0","pricing_plan_id":"cebpf4jnsgd1na2vs0mg"},{"bike_id":"7c511cba-63ca-44c2-a025-a150c084e6c7","system_id":"levelo_inurba_marseille","lat":43.29605,"lon":5.38093,"is_reserved":false,"is_disabled":false,"rental_uris":{"android":"levelo://app?vid=7c511cba-63ca-44c2-a025-a150c084e6c7","ios":"levelo://app?vid=7c511cba-63ca-44c2-a025-a150c084e6c7"},"vehicle_type_id":"4","last_reported":1775155288,"current_range_meters":6000,"station_id":"ce4bgl12rcd13ifvqbo0","pricing_plan_id":"cebpf4jnsgd1na2vs0mg"},{"bike_id":"b4de5172-56b7-4bc6-abc3-897325af1c56","system_id":"levelo_inurba_marseille","lat":43.28845,"lon":5.393,"is_reserved":false,"is_disabled":false,"rental_uris":{"android":"levelo://app?vid=b4de5172-56b7-4bc6-abc3-897325af1c56","ios":"levelo://app?vid=b4de5172-56b7-4bc6-abc3-897325af1c56"},"vehicle_type_id":"4","last_reported":1775155288,"current_range_meters":6000,"station_id":"ce4bh2p2rcd13ifvqdi0","pricing_plan_id":"cebpf4jnsgd1na2vs0mg"},{"bike_id":"0bccd438-ccc6-4db5-a746-92db398465e4","system_id":"levelo_inurba_marseille","lat":43.31431,"lon":5.36988,"is_reserved":false,"is_disabled":false,"rental_uris":{"android":"levelo://app?vid=0bccd438-ccc6-4db5-a746-92db398465e4","ios":"levelo://app?vid=0bccd438-ccc6-4db5-a746-92db398465e4"},"vehicle_type_id":"4","last_reported":1775155288,"current_range_meters":6000,"station_id":"","pricing_plan_id":"cebpf4jnsgd1na2vs0mg"},{"bike_id":"da8c104f-af21-4b1d-9047-b79ca483b672","system_id":"levelo_inurba_marseille","lat":43.29795,"lon":5.4202,"is_reserved":false,"is_disabled":false,"rental_uris":{"android":"levelo://app?vid=da8c104f-af21-4b1d-9047-b79ca483b672","ios":"levelo://app?vid=da8c104f-af21-4b1d-9047-b79ca483b672"},"vehicle_type_id":"4","last_reported":1775155288,"current_range_meters":6000,"station_id":"","pricing_plan_id":"cebpf4jnsgd1na2vs0mg"},{"bike_id":"75811b58-5c75-4b23-82a7-1134428b9eb5","system_id":"levelo_inurba_marseille","lat":43.29875,"lon":5.39738,"is_reserved":false,"is_disabled":false,"rental_uris":{"android":"levelo://app?vid=75811b58-5c75-4b23-82a7-1134428b9eb5","ios":"levelo://app?vid=75811b58-5c75-4b23-82a7-1134428b9eb5"},"vehicle_type_id":"4","last_reported":1775155288,"current_range_meters":6000,"station_id":"ce4bh0h2rcd13ifvqd50","pricing_plan_id":"cebpf4jnsgd1na2vs0mg"},{"bike_id":"83067c65-0ba1-4c0d-8769-fcf343621605","system_id":"levelo_inurba_marseille","lat":43.29577,"lon":5.39961,"is_reserved":false,"is_disabled":false,"rental_uris":{"android":"levelo://app?vid=83067c65-0ba1-4c0d-8769-fcf343621605","ios":"levelo://app?vid=83067c65-0ba1-4c0d-8769-fcf343621605"},"vehicle_type_id":"4","last_reported":1775155288,"current_range_meters":6000,"station_id":"ce4bh312rcd13ifvqdj0","pricing_plan_id":"cebpf4jnsgd1na2vs0mg"},{"bike_id":"62134d56-abb3-4673-9060-9fdaa402f111","system_id":"levelo_inurba_marseille","lat":43.26208,"lon":5.37926,"is_reserved":false,"is_disabled":false,"rental_uris":{"android":"levelo://app?vid=62134d56-abb3-4673-9060-9fdaa402f111","ios":"levelo://app?vid=62134d56-abb3-4673-9060-9fdaa402f111"},"vehicle_type_id":"4","last_reported":1775155288,"current_range_meters":6000,"station_id":"ce4bhjp2rcd13ifvqg90","pricing_plan_id":"cebpf4jnsgd1na2vs0mg"},{"bike_id":"d6349826-5510-4834-ae61-5f416883040f","system_id":"levelo_inurba_marseille","lat":43.21751,"lon":5.34605,"is_reserved":false,"is_disabled":false,"rental_uris":{"android":"levelo://app?vid=d6349826-5510-4834-ae61-5f416883040f","ios":"levelo://app?vid=d6349826-5510-4834-ae61-5f416883040f"},"vehicle_type_id":"4","last_reported":1775155288,"current_range_meters":6000,"station_id":"st_cvj6r9ubvosntc0bgbag","pricing_plan_id":"cebpf4jnsgd1na2vs0mg"},{"bike_id":"2063ff31-6478-4b83-92f8-bef66829973e","system_id":"levelo_inurba_marseille","lat":43.28552,"lon":5.44146,"is_reserved":false,"is_disabled":false,"rental_uris":{"android":"levelo://app?vid=2063ff31-6478-4b83-92f8-bef66829973e","ios":"levelo://app?vid=2063ff31-6478-4b83-92f8-bef66829973e"},"vehicle_type_id":"4","last_reported":1775155288,"current_range_meters":6000,"station_id":"st_d3j3df2ikq2c7380ej80","pricing_plan_id":"cebpf4jnsgd1na2vs0mg"},{"bike_id":"d0111825-3017-4e03-aba5-c350420e66fe","system_id":"levelo_inurba_marseille","lat":43.21183,"lon":5.35062,"is_reserved":false,"is_disabled":false,"rental_uris":{"android":"levelo://app?vid=d0111825-3017-4e03-aba5-c350420e66fe","ios":"levelo://app?vid=d0111825-3017-4e03-aba5-c350420e66fe"},"vehicle_type_id":"4","last_reported":1775155288,"current_range_meters":6400,"station_id":"st_cvj6sg6p6f1abm77japg","pricing_plan_id":"cebpf4jnsgd1na2vs0mg"},{"bike_id":"38229089-2eba-460d-8fa7-69cd48d52f91","system_id":"levelo_inurba_marseille","lat":43.2886,"lon":5.42515,"is_reserved":false,"is_disabled":false,"rental_uris":{"android":"levelo://app?vid=38229089-2eba-460d-8fa7-69cd48d52f91","ios":"levelo://app?vid=38229089-2eba-460d-8fa7-69cd48d52f91"},"vehicle_type_id":"4","last_reported":1775155288,"current_range_meters":6400,"station_id":"st_d3b462108ojc7389ooeg","pricing_plan_id":"cebpf4jnsgd1na2vs0mg"},{"bike_id":"4662ce83-961a-43fe-b5d2-6ce767222e0c","system_id":"levelo_inurba_marseille","lat":43.2861,"lon":5.35101,"is_reserved":false,"is_disabled":false,"rental_uris":{"android":"levelo://app?vid=4662ce83-961a-43fe-b5d2-6ce767222e0c","ios":"levelo://app?vid=4662ce83-961a-43fe-b5d2-6ce767222e0c"},"vehicle_type_id":"4","last_reported":1775155288,"current_range_meters":6400,"station_id":"ce4bhch2rcd13ifvqeug","pricing_plan_id":"cebpf4jnsgd1na2vs0mg"},{"bike_id":"33d8fe3b-51df-4371-9ad9-0047c21810bc","system_id":"levelo_inurba_marseille","lat":43.2927,"lon":5.3844,"is_reserved":false,"is_disabled":false,"rental_uris":{"android":"levelo://app?vid=33d8fe3b-51df-4371-9ad9-0047c21810bc","ios":"levelo://app?vid=33d8fe3b-51df-4371-9ad9-0047c21810bc"},"vehicle_type_id":"4","last_reported":1775155288,"current_range_meters":6400,"station_id":"ce4bh692rcd13ifvqea0","pricing_plan_id":"cebpf4jnsgd1na2vs0mg"},{"bike_id":"6535518c-804f-447b-a494-407b4e1dbc8e","system_id":"levelo_inurba_marseille","lat":43.31285,"lon":5.36866,"is_reserved":false,"is_disabled":false,"rental_uris":{"android":"levelo://app?vid=6535518c-804f-447b-a494-407b4e1dbc8e","ios":"levelo://app?vid=6535518c-804f-447b-a494-407b4e1dbc8e"},"vehicle_type_id":"4","last_reported":1775155288,"current_range_meters":6400,"station_id":"ce4bgl92rcd13ifvqbq0","pricing_plan_id":"cebpf4jnsgd1na2vs0mg"},{"bike_id":"7d8f3bc3-46ff-4802-82b9-2bf86ded1c15","system_id":"levelo_inurba_marseille","lat":43.3372,"lon":5.37492,"is_reserved":false,"is_disabled":true,"rental_uris":{"android":"levelo://app?vid=7d8f3bc3-46ff-4802-82b9-2bf86ded1c15","ios":"levelo://app?vid=7d8f3bc3-46ff-4802-82b9-2bf86ded1c15"},"vehicle_type_id":"4","last_reported":1775155288,"current_range_meters":6400,"station_id":"","pricing_plan_id":"cebpf4jnsgd1na2vs0mg"},{"bike_id":"bf89aef2-d648-4271-8dd2-5cd38cc116f7","system_id":"levelo_inurba_marseille","lat":43.29865,"lon":5.39749,"is_reserved":false,"is_disabled":false,"rental_uris":{"android":"levelo://app?vid=bf89aef2-d648-4271-8dd2-5cd38cc116f7","ios":"levelo://app?vid=bf89aef2-d648-4271-8dd2-5cd38cc116f7"},"vehicle_type_id":"4","last_reported":1775155288,"current_range_meters":6400,"station_id":"ce4bh0h2rcd13ifvqd50","pricing_plan_id":"cebpf4jnsgd1na2vs0mg"},{"bike_id":"a3e023e2-d4d4-4709-b2ae-04a06b5ecc63","system_id":"levelo_inurba_marseille","lat":43.22563,"lon":5.41638,"is_reserved":false,"is_disabled":false,"rental_uris":{"android":"levelo://app?vid=a3e023e2-d4d4-4709-b2ae-04a06b5ecc63","ios":"levelo://app?vid=a3e023e2-d4d4-4709-b2ae-04a06b5ecc63"},"vehicle_type_id":"4","last_reported":1775155288,"current_range_meters":6400,"station_id":"st_d2o4gvlbi1j2169b742g","pricing_plan_id":"cebpf4jnsgd1na2vs0mg"},{"bike_id":"fe0a3fa3-1a01-4338-919a-e9d1fe0b671b","system_id":"levelo_inurba_marseille","lat":43.26675,"lon":5.38218,"is_reserved":false,"is_disabled":false,"rental_uris":{"android":"levelo://app?vid=fe0a3fa3-1a01-4338-919a-e9d1fe0b671b","ios":"levelo://app?vid=fe0a3fa3-1a01-4338-919a-e9d1fe0b671b"},"vehicle_type_id":"4","last_reported":1775155288,"current_range_meters":6400,"station_id":"ce4bhg92rcd13ifvqf90","pricing_plan_id":"cebpf4jnsgd1na2vs0mg"},{"bike_id":"b1cb2378-66e2-4e73-a135-28bf0dec66f1","system_id":"levelo_inurba_marseille","lat":43.31291,"lon":5.44079,"is_reserved":false,"is_disabled":false,"rental_uris":{"android":"levelo://app?vid=b1cb2378-66e2-4e73-a135-28bf0dec66f1","ios":"levelo://app?vid=b1cb2378-66e2-4e73-a135-28bf0dec66f1"},"vehicle_type_id":"4","last_reported":1775155288,"current_range_meters":6400,"station_id":"","pricing_plan_id":"cebpf4jnsgd1na2vs0mg"},{"bike_id":"a0a1c86e-5fa0-4e0f-a8f2-d2edfc092585","system_id":"levelo_inurba_marseille","lat":43.28093,"lon":5.37862,"is_reserved":false,"is_disabled":false,"rental_uris":{"android":"levelo://app?vid=a0a1c86e-5fa0-4e0f-a8f2-d2edfc092585","ios":"levelo://app?vid=a0a1c86e-5fa0-4e0f-a8f2-d2edfc092585"},"vehicle_type_id":"4","last_reported":1775155288,"current_range_meters":6400,"station_id":"ce4bha12rcd13ifvqee0","pricing_plan_id":"cebpf4jnsgd1na2vs0mg"},{"bike_id":"6f2373c7-0fa3-4a33-a829-15bf1d007f59","system_id":"levelo_inurba_marseille","lat":43.27206,"lon":5.39174,"is_reserved":false,"is_disabled":false,"rental_uris":{"android":"levelo://app?vid=6f2373c7-0fa3-4a33-a829-15bf1d007f59","ios":"levelo://app?vid=6f2373c7-0fa3-4a33-a829-15bf1d007f59"},"vehicle_type_id":"4","last_reported":1775155288,"current_range_meters":6400,"station_id":"ce4bhhp2rcd13ifvqfm0","pricing_plan_id":"cebpf4jnsgd1na2vs0mg"},{"bike_id":"b3fdb3c6-13b8-4611-957c-1ad249219f8c","system_id":"levelo_inurba_marseille","lat":43.24463,"lon":5.42524,"is_reserved":false,"is_disabled":false,"rental_uris":{"android":"levelo://app?vid=b3fdb3c6-13b8-4611-957c-1ad249219f8c","ios":"levelo://app?vid=b3fdb3c6-13b8-4611-957c-1ad249219f8c"},"vehicle_type_id":"4","last_reported":1775155288,"current_range_meters":6400,"station_id":"st_d4a3vfp97mjs738cd8kg","pricing_plan_id":"cebpf4jnsgd1na2vs0mg"},{"bike_id":"59af559a-c64a-4a65-8006-da8e36a6f86b","system_id":"levelo_inurba_marseille","lat":43.3354,"lon":5.37454,"is_reserved":false,"is_disabled":false,"rental_uris":{"android":"levelo://app?vid=59af559a-c64a-4a65-8006-da8e36a6f86b","ios":"levelo://app?vid=59af559a-c64a-4a65-8006-da8e36a6f86b"},"vehicle_type_id":"4","last_reported":1775155288,"current_range_meters":6400,"station_id":"st_d46tts09ee8s73dlu43g","pricing_plan_id":"cebpf4jnsgd1na2vs0mg"},{"bike_id":"bb435da3-856a-4144-9704-d052e66aeded","system_id":"levelo_inurba_marseille","lat":43.33155,"lon":5.37683,"is_reserved":false,"is_disabled":false,"rental_uris":{"android":"levelo://app?vid=bb435da3-856a-4144-9704-d052e66aeded","ios":"levelo://app?vid=bb435da3-856a-4144-9704-d052e66aeded"},"vehicle_type_id":"4","last_reported":1775155288,"current_range_meters":6400,"station_id":"st_d46cu089ee8s73dldbu0","pricing_plan_id":"cebpf4jnsgd1na2vs0mg"},{"bike_id":"ab06f0c1-dd3c-4093-aae2-11693a90ca5c","system_id":"levelo_inurba_marseille","lat":43.23959,"lon":5.36632,"is_reserved":false,"is_disabled":false,"rental_uris":{"android":"levelo://app?vid=ab06f0c1-dd3c-4093-aae2-11693a90ca5c","ios":"levelo://app?vid=ab06f0c1-dd3c-4093-aae2-11693a90ca5c"},"vehicle_type_id":"4","last_reported":1775155288,"current_range_meters":6400,"station_id":"ce4bhi12rcd13ifvqfp0","pricing_plan_id":"cebpf4jnsgd1na2vs0mg"},{"bike_id":"793b472f-3246-4295-8dc2-cf0dac98a9ac","system_id":"levelo_inurba_marseille","lat":43.29542,"lon":5.39083,"is_reserved":false,"is_disabled":false,"rental_uris":{"android":"levelo://app?vid=793b472f-3246-4295-8dc2-cf0dac98a9ac","ios":"levelo://app?vid=793b472f-3246-4295-8dc2-cf0dac98a9ac"},"vehicle_type_id":"4","last_reported":1775155288,"current_range_meters":6800,"station_id":"ce4bh3p2rcd13ifvqdp0","pricing_plan_id":"cebpf4jnsgd1na2vs0mg"},{"bike_id":"5967d9f0-a052-4ec4-a69f-dcb372f196c0","system_id":"levelo_inurba_marseille","lat":43.26557,"lon":5.37286,"is_reserved":false,"is_disabled":false,"rental_uris":{"android":"levelo://app?vid=5967d9f0-a052-4ec4-a69f-dcb372f196c0","ios":"levelo://app?vid=5967d9f0-a052-4ec4-a69f-dcb372f196c0"},"vehicle_type_id":"4","last_reported":1775155288,"current_range_meters":6800,"station_id":"ce4bhg12rcd13ifvqf70","pricing_plan_id":"cebpf4jnsgd1na2vs0mg"},{"bike_id":"905289e5-7113-4e8f-9100-1778260d107a","system_id":"levelo_inurba_marseille","lat":43.24407,"lon":5.37062,"is_reserved":false,"is_disabled":false,"rental_uris":{"android":"levelo://app?vid=905289e5-7113-4e8f-9100-1778260d107a","ios":"levelo://app?vid=905289e5-7113-4e8f-9100-1778260d107a"},"vehicle_type_id":"4","last_reported":1775155288,"current_range_meters":6800,"station_id":"ce4bhhh2rcd13ifvqfk0","pricing_plan_id":"cebpf4jnsgd1na2vs0mg"},{"bike_id":"fc2e91ed-7416-4ad4-908c-4d6cf0d24d2b","system_id":"levelo_inurba_marseille","lat":43.28128,"lon":5.38312,"is_reserved":false,"is_disabled":false,"rental_uris":{"android":"levelo://app?vid=fc2e91ed-7416-4ad4-908c-4d6cf0d24d2b","ios":"levelo://app?vid=fc2e91ed-7416-4ad4-908c-4d6cf0d24d2b"},"vehicle_type_id":"4","last_reported":1775155288,"current_range_meters":6800,"station_id":"","pricing_plan_id":"cebpf4jnsgd1na2vs0mg"},{"bike_id":"fbd0de48-ff95-4200-8239-d7937266988b","system_id":"levelo_inurba_marseille","lat":43.24474,"lon":5.42535,"is_reserved":false,"is_disabled":false,"rental_uris":{"android":"levelo://app?vid=fbd0de48-ff95-4200-8239-d7937266988b","ios":"levelo://app?vid=fbd0de48-ff95-4200-8239-d7937266988b"},"vehicle_type_id":"4","last_reported":1775155288,"current_range_meters":6800,"station_id":"st_d4a3vfp97mjs738cd8kg","pricing_plan_id":"cebpf4jnsgd1na2vs0mg"},{"bike_id":"baaa819f-f621-4bbc-b8f6-009cbb2eb24c","system_id":"levelo_inurba_marseille","lat":43.23215,"lon":5.35536,"is_reserved":false,"is_disabled":false,"rental_uris":{"android":"levelo://app?vid=baaa819f-f621-4bbc-b8f6-009cbb2eb24c","ios":"levelo://app?vid=baaa819f-f621-4bbc-b8f6-009cbb2eb24c"},"vehicle_type_id":"4","last_reported":1775155288,"current_range_meters":6800,"station_id":"ce4bhu92rcd13ifvqi70","pricing_plan_id":"cebpf4jnsgd1na2vs0mg"},{"bike_id":"e2d4538e-989f-404e-b5fb-58cfe29ddc03","system_id":"levelo_inurba_marseille","lat":43.24453,"lon":5.42545,"is_reserved":false,"is_disabled":false,"rental_uris":{"android":"levelo://app?vid=e2d4538e-989f-404e-b5fb-58cfe29ddc03","ios":"levelo://app?vid=e2d4538e-989f-404e-b5fb-58cfe29ddc03"},"vehicle_type_id":"4","last_reported":1775155288,"current_range_meters":6800,"station_id":"st_d4a3vfp97mjs738cd8kg","pricing_plan_id":"cebpf4jnsgd1na2vs0mg"},{"bike_id":"993554b6-0de0-483c-81a8-74355d0900be","system_id":"levelo_inurba_marseille","lat":43.29623,"lon":5.38097,"is_reserved":false,"is_disabled":false,"rental_uris":{"android":"levelo://app?vid=993554b6-0de0-483c-81a8-74355d0900be","ios":"levelo://app?vid=993554b6-0de0-483c-81a8-74355d0900be"},"vehicle_type_id":"4","last_reported":1775155288,"current_range_meters":6800,"station_id":"ce4bgl12rcd13ifvqbo0","pricing_plan_id":"cebpf4jnsgd1na2vs0mg"},{"bike_id":"de461e8d-e0bb-466c-a196-f15d94a562ee","system_id":"levelo_inurba_marseille","lat":43.284,"lon":5.35006,"is_reserved":false,"is_disabled":false,"rental_uris":{"android":"levelo://app?vid=de461e8d-e0bb-466c-a196-f15d94a562ee","ios":"levelo://app?vid=de461e8d-e0bb-466c-a196-f15d94a562ee"},"vehicle_type_id":"4","last_reported":1775155288,"current_range_meters":6800,"station_id":"ce4bhbh2rcd13ifvqepg","pricing_plan_id":"cebpf4jnsgd1na2vs0mg"},{"bike_id":"9437351f-0f98-41d5-8a9c-17f887c42bca","system_id":"levelo_inurba_marseille","lat":43.24169,"lon":5.36373,"is_reserved":false,"is_disabled":false,"rental_uris":{"android":"levelo://app?vid=9437351f-0f98-41d5-8a9c-17f887c42bca","ios":"levelo://app?vid=9437351f-0f98-41d5-8a9c-17f887c42bca"},"vehicle_type_id":"4","last_reported":1775155288,"current_range_meters":6800,"station_id":"cpo36qri1sfpv3e86is0","pricing_plan_id":"cebpf4jnsgd1na2vs0mg"},{"bike_id":"19fba8ba-0d93-4b29-9007-4236625390df","system_id":"levelo_inurba_marseille","lat":43.22551,"lon":5.34869,"is_reserved":false,"is_disabled":false,"rental_uris":{"android":"levelo://app?vid=19fba8ba-0d93-4b29-9007-4236625390df","ios":"levelo://app?vid=19fba8ba-0d93-4b29-9007-4236625390df"},"vehicle_type_id":"4","last_reported":1775155288,"current_range_meters":6800,"station_id":"st_cvj5dfep6f1abm77gieg","pricing_plan_id":"cebpf4jnsgd1na2vs0mg"},{"bike_id":"ea0e9256-ea94-4ada-ae35-6834a56de5c4","system_id":"levelo_inurba_marseille","lat":43.29538,"lon":5.38551,"is_reserved":false,"is_disabled":false,"rental_uris":{"android":"levelo://app?vid=ea0e9256-ea94-4ada-ae35-6834a56de5c4","ios":"levelo://app?vid=ea0e9256-ea94-4ada-ae35-6834a56de5c4"},"vehicle_type_id":"4","last_reported":1775155288,"current_range_meters":6800,"station_id":"ce4bgih2rcd13ifvqba0","pricing_plan_id":"cebpf4jnsgd1na2vs0mg"},{"bike_id":"f62ff8d5-3d47-4bb4-906e-344e9b5207aa","system_id":"levelo_inurba_marseille","lat":43.21195,"lon":5.35075,"is_reserved":false,"is_disabled":false,"rental_uris":{"android":"levelo://app?vid=f62ff8d5-3d47-4bb4-906e-344e9b5207aa","ios":"levelo://app?vid=f62ff8d5-3d47-4bb4-906e-344e9b5207aa"},"vehicle_type_id":"4","last_reported":1775155288,"current_range_meters":6800,"station_id":"st_cvj6sg6p6f1abm77japg","pricing_plan_id":"cebpf4jnsgd1na2vs0mg"},{"bike_id":"13713002-484d-442d-8d88-c09ee25b68e4","system_id":"levelo_inurba_marseille","lat":43.27797,"lon":5.42393,"is_reserved":false,"is_disabled":false,"rental_uris":{"android":"levelo://app?vid=13713002-484d-442d-8d88-c09ee25b68e4","ios":"levelo://app?vid=13713002-484d-442d-8d88-c09ee25b68e4"},"vehicle_type_id":"4","last_reported":1775155288,"current_range_meters":6800,"station_id":"","pricing_plan_id":"cebpf4jnsgd1na2vs0mg"},{"bike_id":"522fc102-4edd-43cc-a67c-66222ad82f02","system_id":"levelo_inurba_marseille","lat":43.31376,"lon":5.40337,"is_reserved":false,"is_disabled":false,"rental_uris":{"android":"levelo://app?vid=522fc102-4edd-43cc-a67c-66222ad82f02","ios":"levelo://app?vid=522fc102-4edd-43cc-a67c-66222ad82f02"},"vehicle_type_id":"4","last_reported":1775155288,"current_range_meters":6800,"station_id":"","pricing_plan_id":"cebpf4jnsgd1na2vs0mg"},{"bike_id":"1d92dec5-88a1-4f6e-bd5f-0d081647078c","system_id":"levelo_inurba_marseille","lat":43.24684,"lon":5.38198,"is_reserved":false,"is_disabled":false,"rental_uris":{"android":"levelo://app?vid=1d92dec5-88a1-4f6e-bd5f-0d081647078c","ios":"levelo://app?vid=1d92dec5-88a1-4f6e-bd5f-0d081647078c"},"vehicle_type_id":"4","last_reported":1775155288,"current_range_meters":6800,"station_id":"ce4bhih2rcd13ifvqfr0","pricing_plan_id":"cebpf4jnsgd1na2vs0mg"},{"bike_id":"ba33614c-a307-4e62-b0d9-643b797f7d62","system_id":"levelo_inurba_marseille","lat":43.302,"lon":5.38547,"is_reserved":false,"is_disabled":false,"rental_uris":{"android":"levelo://app?vid=ba33614c-a307-4e62-b0d9-643b797f7d62","ios":"levelo://app?vid=ba33614c-a307-4e62-b0d9-643b797f7d62"},"vehicle_type_id":"4","last_reported":1775155288,"current_range_meters":6800,"station_id":"","pricing_plan_id":"cebpf4jnsgd1na2vs0mg"},{"bike_id":"7a5a210d-61fc-4d03-a557-eb846b17279b","system_id":"levelo_inurba_marseille","lat":43.28605,"lon":5.44605,"is_reserved":false,"is_disabled":false,"rental_uris":{"android":"levelo://app?vid=7a5a210d-61fc-4d03-a557-eb846b17279b","ios":"levelo://app?vid=7a5a210d-61fc-4d03-a557-eb846b17279b"},"vehicle_type_id":"4","last_reported":1775155288,"current_range_meters":6800,"station_id":"","pricing_plan_id":"cebpf4jnsgd1na2vs0mg"},{"bike_id":"63e9c27e-df35-4221-a72b-372775ab28af","system_id":"levelo_inurba_marseille","lat":43.24644,"lon":5.38907,"is_reserved":false,"is_disabled":false,"rental_uris":{"android":"levelo://app?vid=63e9c27e-df35-4221-a72b-372775ab28af","ios":"levelo://app?vid=63e9c27e-df35-4221-a72b-372775ab28af"},"vehicle_type_id":"4","last_reported":1775155288,"current_range_meters":6800,"station_id":"ce4bhg12rcd13ifvqf60","pricing_plan_id":"cebpf4jnsgd1na2vs0mg"},{"bike_id":"590e4195-ce2d-458c-a615-c8573ca8a5a9","system_id":"levelo_inurba_marseille","lat":43.24381,"lon":5.37055,"is_reserved":false,"is_disabled":false,"rental_uris":{"android":"levelo://app?vid=590e4195-ce2d-458c-a615-c8573ca8a5a9","ios":"levelo://app?vid=590e4195-ce2d-458c-a615-c8573ca8a5a9"},"vehicle_type_id":"4","last_reported":1775155288,"current_range_meters":6800,"station_id":"ce4bhhh2rcd13ifvqfk0","pricing_plan_id":"cebpf4jnsgd1na2vs0mg"},{"bike_id":"b17c4f99-f264-4929-869c-2e7e7176ce13","system_id":"levelo_inurba_marseille","lat":43.28679,"lon":5.3866,"is_reserved":false,"is_disabled":true,"rental_uris":{"android":"levelo://app?vid=b17c4f99-f264-4929-869c-2e7e7176ce13","ios":"levelo://app?vid=b17c4f99-f264-4929-869c-2e7e7176ce13"},"vehicle_type_id":"4","last_reported":1775155288,"current_range_meters":6800,"station_id":"ce4bh492rcd13ifvqdug","pricing_plan_id":"cebpf4jnsgd1na2vs0mg"},{"bike_id":"53f1d28b-559d-4aa7-a3f8-4e3935f7c03a","system_id":"levelo_inurba_marseille","lat":43.3063,"lon":5.42935,"is_reserved":false,"is_disabled":false,"rental_uris":{"android":"levelo://app?vid=53f1d28b-559d-4aa7-a3f8-4e3935f7c03a","ios":"levelo://app?vid=53f1d28b-559d-4aa7-a3f8-4e3935f7c03a"},"vehicle_type_id":"4","last_reported":1775155288,"current_range_meters":6800,"station_id":"","pricing_plan_id":"cebpf4jnsgd1na2vs0mg"},{"bike_id":"094d9b13-1962-4687-a19b-a28fbe36c836","system_id":"levelo_inurba_marseille","lat":43.30272,"lon":5.36894,"is_reserved":false,"is_disabled":false,"rental_uris":{"android":"levelo://app?vid=094d9b13-1962-4687-a19b-a28fbe36c836","ios":"levelo://app?vid=094d9b13-1962-4687-a19b-a28fbe36c836"},"vehicle_type_id":"4","last_reported":1775155288,"current_range_meters":7200,"station_id":"ce4bgqh2rcd13ifvqc5g","pricing_plan_id":"cebpf4jnsgd1na2vs0mg"},{"bike_id":"a26e0612-5996-4080-8567-451a7c6785da","system_id":"levelo_inurba_marseille","lat":43.28468,"lon":5.48379,"is_reserved":false,"is_disabled":false,"rental_uris":{"android":"levelo://app?vid=a26e0612-5996-4080-8567-451a7c6785da","ios":"levelo://app?vid=a26e0612-5996-4080-8567-451a7c6785da"},"vehicle_type_id":"4","last_reported":1775155288,"current_range_meters":7200,"station_id":"","pricing_plan_id":"cebpf4jnsgd1na2vs0mg"},{"bike_id":"02fb68b9-c93a-47eb-8a33-25b94990a43a","system_id":"levelo_inurba_marseille","lat":43.25908,"lon":5.40922,"is_reserved":false,"is_disabled":false,"rental_uris":{"android":"levelo://app?vid=02fb68b9-c93a-47eb-8a33-25b94990a43a","ios":"levelo://app?vid=02fb68b9-c93a-47eb-8a33-25b94990a43a"},"vehicle_type_id":"4","last_reported":1775155288,"current_range_meters":7200,"station_id":"ce4bhm92rcd13ifvqglg","pricing_plan_id":"cebpf4jnsgd1na2vs0mg"},{"bike_id":"ebf8d41b-af9e-48cd-b4ac-c559138fc501","system_id":"levelo_inurba_marseille","lat":43.24171,"lon":5.36402,"is_reserved":false,"is_disabled":false,"rental_uris":{"android":"levelo://app?vid=ebf8d41b-af9e-48cd-b4ac-c559138fc501","ios":"levelo://app?vid=ebf8d41b-af9e-48cd-b4ac-c559138fc501"},"vehicle_type_id":"4","last_reported":1775155288,"current_range_meters":7200,"station_id":"cpo36qri1sfpv3e86is0","pricing_plan_id":"cebpf4jnsgd1na2vs0mg"},{"bike_id":"7454e20f-aeeb-429e-8370-29d207e4b480","system_id":"levelo_inurba_marseille","lat":43.25494,"lon":5.37651,"is_reserved":false,"is_disabled":false,"rental_uris":{"android":"levelo://app?vid=7454e20f-aeeb-429e-8370-29d207e4b480","ios":"levelo://app?vid=7454e20f-aeeb-429e-8370-29d207e4b480"},"vehicle_type_id":"4","last_reported":1775155288,"current_range_meters":7200,"station_id":"ce4bhh12rcd13ifvqff0","pricing_plan_id":"cebpf4jnsgd1na2vs0mg"},{"bike_id":"acc7b62a-d9bb-4113-95ac-ab78d8fba512","system_id":"levelo_inurba_marseille","lat":43.31694,"lon":5.40458,"is_reserved":false,"is_disabled":false,"rental_uris":{"android":"levelo://app?vid=acc7b62a-d9bb-4113-95ac-ab78d8fba512","ios":"levelo://app?vid=acc7b62a-d9bb-4113-95ac-ab78d8fba512"},"vehicle_type_id":"4","last_reported":1775155288,"current_range_meters":7200,"station_id":"ce4bh012rcd13ifvqd00","pricing_plan_id":"cebpf4jnsgd1na2vs0mg"},{"bike_id":"8ad91a42-b4c8-4044-99d3-7cbe628645b3","system_id":"levelo_inurba_marseille","lat":43.22568,"lon":5.41668,"is_reserved":false,"is_disabled":false,"rental_uris":{"android":"levelo://app?vid=8ad91a42-b4c8-4044-99d3-7cbe628645b3","ios":"levelo://app?vid=8ad91a42-b4c8-4044-99d3-7cbe628645b3"},"vehicle_type_id":"4","last_reported":1775155288,"current_range_meters":7200,"station_id":"st_d2o4gvlbi1j2169b742g","pricing_plan_id":"cebpf4jnsgd1na2vs0mg"},{"bike_id":"2abcb767-9ebe-435e-a819-a1751dc21f03","system_id":"levelo_inurba_marseille","lat":43.31361,"lon":5.39733,"is_reserved":false,"is_disabled":false,"rental_uris":{"android":"levelo://app?vid=2abcb767-9ebe-435e-a819-a1751dc21f03","ios":"levelo://app?vid=2abcb767-9ebe-435e-a819-a1751dc21f03"},"vehicle_type_id":"4","last_reported":1775155288,"current_range_meters":7200,"station_id":"","pricing_plan_id":"cebpf4jnsgd1na2vs0mg"},{"bike_id":"240fdd76-b302-4366-927f-c046ecd6469b","system_id":"levelo_inurba_marseille","lat":43.28701,"lon":5.46685,"is_reserved":false,"is_disabled":false,"rental_uris":{"android":"levelo://app?vid=240fdd76-b302-4366-927f-c046ecd6469b","ios":"levelo://app?vid=240fdd76-b302-4366-927f-c046ecd6469b"},"vehicle_type_id":"4","last_reported":1775155288,"current_range_meters":7200,"station_id":"st_d6tc3vkotcvc738tfjhg","pricing_plan_id":"cebpf4jnsgd1na2vs0mg"},{"bike_id":"229f0e67-0671-4c17-8f2a-9394f3ccb1c5","system_id":"levelo_inurba_marseille","lat":43.24414,"lon":5.37002,"is_reserved":false,"is_disabled":false,"rental_uris":{"android":"levelo://app?vid=229f0e67-0671-4c17-8f2a-9394f3ccb1c5","ios":"levelo://app?vid=229f0e67-0671-4c17-8f2a-9394f3ccb1c5"},"vehicle_type_id":"4","last_reported":1775155288,"current_range_meters":7200,"station_id":"","pricing_plan_id":"cebpf4jnsgd1na2vs0mg"},{"bike_id":"4806d180-f360-4add-becf-82d18feb28c6","system_id":"levelo_inurba_marseille","lat":43.32672,"lon":5.38711,"is_reserved":false,"is_disabled":false,"rental_uris":{"android":"levelo://app?vid=4806d180-f360-4add-becf-82d18feb28c6","ios":"levelo://app?vid=4806d180-f360-4add-becf-82d18feb28c6"},"vehicle_type_id":"4","last_reported":1775155288,"current_range_meters":7200,"station_id":"","pricing_plan_id":"cebpf4jnsgd1na2vs0mg"},{"bike_id":"0cfb8b93-62d3-455d-8ddc-2a098cd03197","system_id":"levelo_inurba_marseille","lat":43.32341,"lon":5.36735,"is_reserved":false,"is_disabled":false,"rental_uris":{"android":"levelo://app?vid=0cfb8b93-62d3-455d-8ddc-2a098cd03197","ios":"levelo://app?vid=0cfb8b93-62d3-455d-8ddc-2a098cd03197"},"vehicle_type_id":"4","last_reported":1775155288,"current_range_meters":7200,"station_id":"ce4bhsh2rcd13ifvqi2g","pricing_plan_id":"cebpf4jnsgd1na2vs0mg"},{"bike_id":"ff259b83-c24b-48cf-bb19-caebf228d015","system_id":"levelo_inurba_marseille","lat":43.24397,"lon":5.37104,"is_reserved":false,"is_disabled":false,"rental_uris":{"android":"levelo://app?vid=ff259b83-c24b-48cf-bb19-caebf228d015","ios":"levelo://app?vid=ff259b83-c24b-48cf-bb19-caebf228d015"},"vehicle_type_id":"4","last_reported":1775155288,"current_range_meters":7200,"station_id":"ce4bhhh2rcd13ifvqfk0","pricing_plan_id":"cebpf4jnsgd1na2vs0mg"},{"bike_id":"5048113e-5dbe-46f9-b11e-5d5b61e20190","system_id":"levelo_inurba_marseille","lat":43.29733,"lon":5.36516,"is_reserved":false,"is_disabled":false,"rental_uris":{"android":"levelo://app?vid=5048113e-5dbe-46f9-b11e-5d5b61e20190","ios":"levelo://app?vid=5048113e-5dbe-46f9-b11e-5d5b61e20190"},"vehicle_type_id":"4","last_reported":1775155288,"current_range_meters":7200,"station_id":"","pricing_plan_id":"cebpf4jnsgd1na2vs0mg"},{"bike_id":"f98e4f88-8b4b-4518-8d83-cba82e19aac5","system_id":"levelo_inurba_marseille","lat":43.2953,"lon":5.3867,"is_reserved":false,"is_disabled":false,"rental_uris":{"android":"levelo://app?vid=f98e4f88-8b4b-4518-8d83-cba82e19aac5","ios":"levelo://app?vid=f98e4f88-8b4b-4518-8d83-cba82e19aac5"},"vehicle_type_id":"4","last_reported":1775155288,"current_range_meters":7200,"station_id":"","pricing_plan_id":"cebpf4jnsgd1na2vs0mg"},{"bike_id":"ab186915-48fd-45cf-91ed-212c916c6cea","system_id":"levelo_inurba_marseille","lat":43.29878,"lon":5.39699,"is_reserved":false,"is_disabled":false,"rental_uris":{"android":"levelo://app?vid=ab186915-48fd-45cf-91ed-212c916c6cea","ios":"levelo://app?vid=ab186915-48fd-45cf-91ed-212c916c6cea"},"vehicle_type_id":"4","last_reported":1775155288,"current_range_meters":7200,"station_id":"ce4bh0h2rcd13ifvqd50","pricing_plan_id":"cebpf4jnsgd1na2vs0mg"},{"bike_id":"e2d1ce23-fac0-4bc3-8cdd-1623ba12336c","system_id":"levelo_inurba_marseille","lat":43.28792,"lon":5.43808,"is_reserved":false,"is_disabled":false,"rental_uris":{"android":"levelo://app?vid=e2d1ce23-fac0-4bc3-8cdd-1623ba12336c","ios":"levelo://app?vid=e2d1ce23-fac0-4bc3-8cdd-1623ba12336c"},"vehicle_type_id":"4","last_reported":1775155288,"current_range_meters":7200,"station_id":"","pricing_plan_id":"cebpf4jnsgd1na2vs0mg"},{"bike_id":"b871d952-66ad-4808-9f40-091399c741cc","system_id":"levelo_inurba_marseille","lat":43.29249,"lon":5.38425,"is_reserved":false,"is_disabled":false,"rental_uris":{"android":"levelo://app?vid=b871d952-66ad-4808-9f40-091399c741cc","ios":"levelo://app?vid=b871d952-66ad-4808-9f40-091399c741cc"},"vehicle_type_id":"4","last_reported":1775155288,"current_range_meters":7200,"station_id":"ce4bh692rcd13ifvqea0","pricing_plan_id":"cebpf4jnsgd1na2vs0mg"},{"bike_id":"f9670aeb-7f64-454b-858a-902f8097bb13","system_id":"levelo_inurba_marseille","lat":43.29266,"lon":5.40118,"is_reserved":false,"is_disabled":false,"rental_uris":{"android":"levelo://app?vid=f9670aeb-7f64-454b-858a-902f8097bb13","ios":"levelo://app?vid=f9670aeb-7f64-454b-858a-902f8097bb13"},"vehicle_type_id":"4","last_reported":1775155288,"current_range_meters":7200,"station_id":"ce4bh312rcd13ifvqdk0","pricing_plan_id":"cebpf4jnsgd1na2vs0mg"},{"bike_id":"6f69b38f-8716-46b5-bfcd-a0466aca1fdb","system_id":"levelo_inurba_marseille","lat":43.26576,"lon":5.39045,"is_reserved":false,"is_disabled":false,"rental_uris":{"android":"levelo://app?vid=6f69b38f-8716-46b5-bfcd-a0466aca1fdb","ios":"levelo://app?vid=6f69b38f-8716-46b5-bfcd-a0466aca1fdb"},"vehicle_type_id":"4","last_reported":1775155288,"current_range_meters":7200,"station_id":"ce4bhe12rcd13ifvqf30","pricing_plan_id":"cebpf4jnsgd1na2vs0mg"},{"bike_id":"922a8619-df87-4e6f-a3d8-5984f3e4353f","system_id":"levelo_inurba_marseille","lat":43.24396,"lon":5.37054,"is_reserved":false,"is_disabled":false,"rental_uris":{"android":"levelo://app?vid=922a8619-df87-4e6f-a3d8-5984f3e4353f","ios":"levelo://app?vid=922a8619-df87-4e6f-a3d8-5984f3e4353f"},"vehicle_type_id":"4","last_reported":1775155288,"current_range_meters":7200,"station_id":"ce4bhhh2rcd13ifvqfk0","pricing_plan_id":"cebpf4jnsgd1na2vs0mg"},{"bike_id":"26538423-cad0-45fb-9a92-330fec3cadfb","system_id":"levelo_inurba_marseille","lat":43.21743,"lon":5.34623,"is_reserved":false,"is_disabled":false,"rental_uris":{"android":"levelo://app?vid=26538423-cad0-45fb-9a92-330fec3cadfb","ios":"levelo://app?vid=26538423-cad0-45fb-9a92-330fec3cadfb"},"vehicle_type_id":"4","last_reported":1775155288,"current_range_meters":7200,"station_id":"st_cvj6r9ubvosntc0bgbag","pricing_plan_id":"cebpf4jnsgd1na2vs0mg"},{"bike_id":"5a04ac0a-e794-433d-845f-7f49f3fdb206","system_id":"levelo_inurba_marseille","lat":43.25324,"lon":5.42151,"is_reserved":false,"is_disabled":false,"rental_uris":{"android":"levelo://app?vid=5a04ac0a-e794-433d-845f-7f49f3fdb206","ios":"levelo://app?vid=5a04ac0a-e794-433d-845f-7f49f3fdb206"},"vehicle_type_id":"4","last_reported":1775155288,"current_range_meters":7200,"station_id":"st_d2m65c5bi1j21697t3ng","pricing_plan_id":"cebpf4jnsgd1na2vs0mg"},{"bike_id":"bb66dfee-9802-4b21-b1f9-4fecb94052c1","system_id":"levelo_inurba_marseille","lat":43.28416,"lon":5.3756,"is_reserved":false,"is_disabled":false,"rental_uris":{"android":"levelo://app?vid=bb66dfee-9802-4b21-b1f9-4fecb94052c1","ios":"levelo://app?vid=bb66dfee-9802-4b21-b1f9-4fecb94052c1"},"vehicle_type_id":"4","last_reported":1775155288,"current_range_meters":7200,"station_id":"ce4bh412rcd13ifvqds0","pricing_plan_id":"cebpf4jnsgd1na2vs0mg"},{"bike_id":"e24b7a9e-5482-469c-bc5f-3944821156de","system_id":"levelo_inurba_marseille","lat":43.31062,"lon":5.44586,"is_reserved":false,"is_disabled":false,"rental_uris":{"android":"levelo://app?vid=e24b7a9e-5482-469c-bc5f-3944821156de","ios":"levelo://app?vid=e24b7a9e-5482-469c-bc5f-3944821156de"},"vehicle_type_id":"4","last_reported":1775155288,"current_range_meters":7200,"station_id":"","pricing_plan_id":"cebpf4jnsgd1na2vs0mg"},{"bike_id":"c0244268-1300-41a7-9a33-8160575e0bc7","system_id":"levelo_inurba_marseille","lat":43.23211,"lon":5.35574,"is_reserved":false,"is_disabled":false,"rental_uris":{"android":"levelo://app?vid=c0244268-1300-41a7-9a33-8160575e0bc7","ios":"levelo://app?vid=c0244268-1300-41a7-9a33-8160575e0bc7"},"vehicle_type_id":"4","last_reported":1775155288,"current_range_meters":7200,"station_id":"ce4bhu92rcd13ifvqi70","pricing_plan_id":"cebpf4jnsgd1na2vs0mg"},{"bike_id":"ec73d10f-d000-4d7d-ab9a-4a1d96a7ccc2","system_id":"levelo_inurba_marseille","lat":43.31203,"lon":5.36961,"is_reserved":false,"is_disabled":false,"rental_uris":{"android":"levelo://app?vid=ec73d10f-d000-4d7d-ab9a-4a1d96a7ccc2","ios":"levelo://app?vid=ec73d10f-d000-4d7d-ab9a-4a1d96a7ccc2"},"vehicle_type_id":"4","last_reported":1775155288,"current_range_meters":7200,"station_id":"ce4bgl92rcd13ifvqbq0","pricing_plan_id":"cebpf4jnsgd1na2vs0mg"},{"bike_id":"560e1a3c-ac36-46d1-933f-c73321a02bb1","system_id":"levelo_inurba_marseille","lat":43.29259,"lon":5.38434,"is_reserved":false,"is_disabled":false,"rental_uris":{"android":"levelo://app?vid=560e1a3c-ac36-46d1-933f-c73321a02bb1","ios":"levelo://app?vid=560e1a3c-ac36-46d1-933f-c73321a02bb1"},"vehicle_type_id":"4","last_reported":1775155288,"current_range_meters":7200,"station_id":"ce4bh692rcd13ifvqea0","pricing_plan_id":"cebpf4jnsgd1na2vs0mg"},{"bike_id":"07e40cab-740c-4afb-acb9-f242765435fe","system_id":"levelo_inurba_marseille","lat":43.29866,"lon":5.39728,"is_reserved":false,"is_disabled":false,"rental_uris":{"android":"levelo://app?vid=07e40cab-740c-4afb-acb9-f242765435fe","ios":"levelo://app?vid=07e40cab-740c-4afb-acb9-f242765435fe"},"vehicle_type_id":"4","last_reported":1775155288,"current_range_meters":7200,"station_id":"ce4bh0h2rcd13ifvqd50","pricing_plan_id":"cebpf4jnsgd1na2vs0mg"},{"bike_id":"87e346fe-57ff-40e1-bc30-332765acdf33","system_id":"levelo_inurba_marseille","lat":43.22925,"lon":5.35398,"is_reserved":false,"is_disabled":false,"rental_uris":{"android":"levelo://app?vid=87e346fe-57ff-40e1-bc30-332765acdf33","ios":"levelo://app?vid=87e346fe-57ff-40e1-bc30-332765acdf33"},"vehicle_type_id":"4","last_reported":1775155288,"current_range_meters":8000,"station_id":"cpo3532slgdg3j2ikp40","pricing_plan_id":"cebpf4jnsgd1na2vs0mg"},{"bike_id":"472dec35-6b21-48da-9812-3170f4030c36","system_id":"levelo_inurba_marseille","lat":43.28398,"lon":5.37509,"is_reserved":false,"is_disabled":false,"rental_uris":{"android":"levelo://app?vid=472dec35-6b21-48da-9812-3170f4030c36","ios":"levelo://app?vid=472dec35-6b21-48da-9812-3170f4030c36"},"vehicle_type_id":"4","last_reported":1775155288,"current_range_meters":8000,"station_id":"ce4bh412rcd13ifvqds0","pricing_plan_id":"cebpf4jnsgd1na2vs0mg"},{"bike_id":"e29e1953-b5e2-42ad-b863-e11d2fd568e7","system_id":"levelo_inurba_marseille","lat":43.33541,"lon":5.37458,"is_reserved":false,"is_disabled":false,"rental_uris":{"android":"levelo://app?vid=e29e1953-b5e2-42ad-b863-e11d2fd568e7","ios":"levelo://app?vid=e29e1953-b5e2-42ad-b863-e11d2fd568e7"},"vehicle_type_id":"4","last_reported":1775155288,"current_range_meters":8000,"station_id":"st_d46tts09ee8s73dlu43g","pricing_plan_id":"cebpf4jnsgd1na2vs0mg"},{"bike_id":"faeda510-7137-4a55-85c9-3b3828efdfc5","system_id":"levelo_inurba_marseille","lat":43.25574,"lon":5.38235,"is_reserved":false,"is_disabled":false,"rental_uris":{"android":"levelo://app?vid=faeda510-7137-4a55-85c9-3b3828efdfc5","ios":"levelo://app?vid=faeda510-7137-4a55-85c9-3b3828efdfc5"},"vehicle_type_id":"4","last_reported":1775155288,"current_range_meters":8000,"station_id":"ce4bhih2rcd13ifvqfs0","pricing_plan_id":"cebpf4jnsgd1na2vs0mg"},{"bike_id":"01710685-1680-4fa0-ba09-db3c959100e0","system_id":"levelo_inurba_marseille","lat":43.30877,"lon":5.39656,"is_reserved":false,"is_disabled":false,"rental_uris":{"android":"levelo://app?vid=01710685-1680-4fa0-ba09-db3c959100e0","ios":"levelo://app?vid=01710685-1680-4fa0-ba09-db3c959100e0"},"vehicle_type_id":"4","last_reported":1775155288,"current_range_meters":8000,"station_id":"ce4bh012rcd13ifvqcv0","pricing_plan_id":"cebpf4jnsgd1na2vs0mg"},{"bike_id":"0f43f217-8aa1-4a00-93bf-e372375befb9","system_id":"levelo_inurba_marseille","lat":43.29307,"lon":5.37188,"is_reserved":false,"is_disabled":false,"rental_uris":{"android":"levelo://app?vid=0f43f217-8aa1-4a00-93bf-e372375befb9","ios":"levelo://app?vid=0f43f217-8aa1-4a00-93bf-e372375befb9"},"vehicle_type_id":"4","last_reported":1775155288,"current_range_meters":8000,"station_id":"ce4bgh92rcd13ifvqb40","pricing_plan_id":"cebpf4jnsgd1na2vs0mg"},{"bike_id":"e13a907f-aa7a-4e1c-87b8-2a67461d84c1","system_id":"levelo_inurba_marseille","lat":43.29984,"lon":5.38498,"is_reserved":false,"is_disabled":false,"rental_uris":{"android":"levelo://app?vid=e13a907f-aa7a-4e1c-87b8-2a67461d84c1","ios":"levelo://app?vid=e13a907f-aa7a-4e1c-87b8-2a67461d84c1"},"vehicle_type_id":"4","last_reported":1775155288,"current_range_meters":8000,"station_id":"ce4bgj92rcd13ifvqbd0","pricing_plan_id":"cebpf4jnsgd1na2vs0mg"},{"bike_id":"53da873f-e6f8-4606-b48f-0cf820bdc3de","system_id":"levelo_inurba_marseille","lat":43.24689,"lon":5.3816,"is_reserved":false,"is_disabled":false,"rental_uris":{"android":"levelo://app?vid=53da873f-e6f8-4606-b48f-0cf820bdc3de","ios":"levelo://app?vid=53da873f-e6f8-4606-b48f-0cf820bdc3de"},"vehicle_type_id":"4","last_reported":1775155288,"current_range_meters":8000,"station_id":"ce4bhih2rcd13ifvqfr0","pricing_plan_id":"cebpf4jnsgd1na2vs0mg"},{"bike_id":"b87b40b8-8abc-43ca-bf74-4a7ac7b6ac91","system_id":"levelo_inurba_marseille","lat":43.24679,"lon":5.38173,"is_reserved":false,"is_disabled":false,"rental_uris":{"android":"levelo://app?vid=b87b40b8-8abc-43ca-bf74-4a7ac7b6ac91","ios":"levelo://app?vid=b87b40b8-8abc-43ca-bf74-4a7ac7b6ac91"},"vehicle_type_id":"4","last_reported":1775155288,"current_range_meters":8000,"station_id":"ce4bhih2rcd13ifvqfr0","pricing_plan_id":"cebpf4jnsgd1na2vs0mg"},{"bike_id":"a0bbc992-87da-4583-a529-59d0980f5448","system_id":"levelo_inurba_marseille","lat":43.29805,"lon":5.44049,"is_reserved":false,"is_disabled":false,"rental_uris":{"android":"levelo://app?vid=a0bbc992-87da-4583-a529-59d0980f5448","ios":"levelo://app?vid=a0bbc992-87da-4583-a529-59d0980f5448"},"vehicle_type_id":"4","last_reported":1775155288,"current_range_meters":8000,"station_id":"st_d3jp68qikq2c7381ktn0","pricing_plan_id":"cebpf4jnsgd1na2vs0mg"},{"bike_id":"b276c3c2-7b5b-4cdf-a8b7-da86be0ddfc7","system_id":"levelo_inurba_marseille","lat":43.23788,"lon":5.36634,"is_reserved":false,"is_disabled":false,"rental_uris":{"android":"levelo://app?vid=b276c3c2-7b5b-4cdf-a8b7-da86be0ddfc7","ios":"levelo://app?vid=b276c3c2-7b5b-4cdf-a8b7-da86be0ddfc7"},"vehicle_type_id":"4","last_reported":1775155288,"current_range_meters":8000,"station_id":"st_d3nk18o9ro0c73en2l3g","pricing_plan_id":"cebpf4jnsgd1na2vs0mg"},{"bike_id":"dbc7cab8-1858-416f-8b78-5bfc3642098f","system_id":"levelo_inurba_marseille","lat":43.31322,"lon":5.39688,"is_reserved":false,"is_disabled":false,"rental_uris":{"android":"levelo://app?vid=dbc7cab8-1858-416f-8b78-5bfc3642098f","ios":"levelo://app?vid=dbc7cab8-1858-416f-8b78-5bfc3642098f"},"vehicle_type_id":"4","last_reported":1775155288,"current_range_meters":8000,"station_id":"ce4bgvp2rcd13ifvqcu0","pricing_plan_id":"cebpf4jnsgd1na2vs0mg"},{"bike_id":"407740e1-4363-463b-8347-c57836582c08","system_id":"levelo_inurba_marseille","lat":43.29531,"lon":5.39404,"is_reserved":false,"is_disabled":false,"rental_uris":{"android":"levelo://app?vid=407740e1-4363-463b-8347-c57836582c08","ios":"levelo://app?vid=407740e1-4363-463b-8347-c57836582c08"},"vehicle_type_id":"4","last_reported":1775155288,"current_range_meters":8000,"station_id":"ce4bh292rcd13ifvqdf0","pricing_plan_id":"cebpf4jnsgd1na2vs0mg"},{"bike_id":"a472adc9-add7-4d12-838a-2acaf7533403","system_id":"levelo_inurba_marseille","lat":43.28099,"lon":5.37842,"is_reserved":false,"is_disabled":false,"rental_uris":{"android":"levelo://app?vid=a472adc9-add7-4d12-838a-2acaf7533403","ios":"levelo://app?vid=a472adc9-add7-4d12-838a-2acaf7533403"},"vehicle_type_id":"4","last_reported":1775155288,"current_range_meters":8000,"station_id":"ce4bha12rcd13ifvqee0","pricing_plan_id":"cebpf4jnsgd1na2vs0mg"},{"bike_id":"4d32f5a2-579f-4332-b073-019b22d24451","system_id":"levelo_inurba_marseille","lat":43.31221,"lon":5.36905,"is_reserved":false,"is_disabled":false,"rental_uris":{"android":"levelo://app?vid=4d32f5a2-579f-4332-b073-019b22d24451","ios":"levelo://app?vid=4d32f5a2-579f-4332-b073-019b22d24451"},"vehicle_type_id":"4","last_reported":1775155288,"current_range_meters":8000,"station_id":"ce4bgl92rcd13ifvqbq0","pricing_plan_id":"cebpf4jnsgd1na2vs0mg"},{"bike_id":"82482c20-e04a-4203-a8dc-9e55d0408daa","system_id":"levelo_inurba_marseille","lat":43.28705,"lon":5.3741,"is_reserved":false,"is_disabled":false,"rental_uris":{"android":"levelo://app?vid=82482c20-e04a-4203-a8dc-9e55d0408daa","ios":"levelo://app?vid=82482c20-e04a-4203-a8dc-9e55d0408daa"},"vehicle_type_id":"4","last_reported":1775155288,"current_range_meters":8000,"station_id":"ce4bh3p2rcd13ifvqdq0","pricing_plan_id":"cebpf4jnsgd1na2vs0mg"},{"bike_id":"85bd7590-dc00-4396-a5c7-552ad5f06944","system_id":"levelo_inurba_marseille","lat":43.24151,"lon":5.36402,"is_reserved":false,"is_disabled":false,"rental_uris":{"android":"levelo://app?vid=85bd7590-dc00-4396-a5c7-552ad5f06944","ios":"levelo://app?vid=85bd7590-dc00-4396-a5c7-552ad5f06944"},"vehicle_type_id":"4","last_reported":1775155288,"current_range_meters":8000,"station_id":"cpo36qri1sfpv3e86is0","pricing_plan_id":"cebpf4jnsgd1na2vs0mg"},{"bike_id":"e190e9ca-b0f7-414e-b6ac-e6b81b957107","system_id":"levelo_inurba_marseille","lat":43.2175,"lon":5.34641,"is_reserved":false,"is_disabled":false,"rental_uris":{"android":"levelo://app?vid=e190e9ca-b0f7-414e-b6ac-e6b81b957107","ios":"levelo://app?vid=e190e9ca-b0f7-414e-b6ac-e6b81b957107"},"vehicle_type_id":"4","last_reported":1775155288,"current_range_meters":8000,"station_id":"st_cvj6r9ubvosntc0bgbag","pricing_plan_id":"cebpf4jnsgd1na2vs0mg"},{"bike_id":"6b01ec2a-e380-4de3-bd00-6b1c50159832","system_id":"levelo_inurba_marseille","lat":43.26367,"lon":5.41066,"is_reserved":false,"is_disabled":false,"rental_uris":{"android":"levelo://app?vid=6b01ec2a-e380-4de3-bd00-6b1c50159832","ios":"levelo://app?vid=6b01ec2a-e380-4de3-bd00-6b1c50159832"},"vehicle_type_id":"4","last_reported":1775155288,"current_range_meters":8000,"station_id":"st_d4e5ca6na9uc73bfl5fg","pricing_plan_id":"cebpf4jnsgd1na2vs0mg"},{"bike_id":"e700e3e5-d5ab-48f7-9278-55f1ea4ba0d8","system_id":"levelo_inurba_marseille","lat":43.2408,"lon":5.37737,"is_reserved":false,"is_disabled":false,"rental_uris":{"android":"levelo://app?vid=e700e3e5-d5ab-48f7-9278-55f1ea4ba0d8","ios":"levelo://app?vid=e700e3e5-d5ab-48f7-9278-55f1ea4ba0d8"},"vehicle_type_id":"4","last_reported":1775155288,"current_range_meters":8000,"station_id":"ce4bhnp2rcd13ifvqgvg","pricing_plan_id":"cebpf4jnsgd1na2vs0mg"},{"bike_id":"47328cdc-9a98-4d14-8c4c-c9f1dba788b5","system_id":"levelo_inurba_marseille","lat":43.24941,"lon":5.40491,"is_reserved":false,"is_disabled":false,"rental_uris":{"android":"levelo://app?vid=47328cdc-9a98-4d14-8c4c-c9f1dba788b5","ios":"levelo://app?vid=47328cdc-9a98-4d14-8c4c-c9f1dba788b5"},"vehicle_type_id":"4","last_reported":1775155288,"current_range_meters":8000,"station_id":"st_d2ngiaodas8pm72gd1h0","pricing_plan_id":"cebpf4jnsgd1na2vs0mg"},{"bike_id":"e39e497c-3dd5-45d2-91ed-0eedd7a5a54a","system_id":"levelo_inurba_marseille","lat":43.23403,"lon":5.41231,"is_reserved":false,"is_disabled":false,"rental_uris":{"android":"levelo://app?vid=e39e497c-3dd5-45d2-91ed-0eedd7a5a54a","ios":"levelo://app?vid=e39e497c-3dd5-45d2-91ed-0eedd7a5a54a"},"vehicle_type_id":"4","last_reported":1775155288,"current_range_meters":8000,"station_id":"st_d75pvndhf9lc73cqq3eg","pricing_plan_id":"cebpf4jnsgd1na2vs0mg"},{"bike_id":"5f8618b1-168c-4ee0-84cd-96c480eeeea0","system_id":"levelo_inurba_marseille","lat":43.24417,"lon":5.37472,"is_reserved":false,"is_disabled":false,"rental_uris":{"android":"levelo://app?vid=5f8618b1-168c-4ee0-84cd-96c480eeeea0","ios":"levelo://app?vid=5f8618b1-168c-4ee0-84cd-96c480eeeea0"},"vehicle_type_id":"4","last_reported":1775155288,"current_range_meters":8000,"station_id":"","pricing_plan_id":"cebpf4jnsgd1na2vs0mg"},{"bike_id":"90eba58c-4385-4587-8bc6-6e749da283f6","system_id":"levelo_inurba_marseille","lat":43.28935,"lon":5.36644,"is_reserved":false,"is_disabled":false,"rental_uris":{"android":"levelo://app?vid=90eba58c-4385-4587-8bc6-6e749da283f6","ios":"levelo://app?vid=90eba58c-4385-4587-8bc6-6e749da283f6"},"vehicle_type_id":"4","last_reported":1775155288,"current_range_meters":8000,"station_id":"ce4bhap2rcd13ifvqek0","pricing_plan_id":"cebpf4jnsgd1na2vs0mg"},{"bike_id":"2e0545ad-d824-454e-b745-a6d9a8bc929b","system_id":"levelo_inurba_marseille","lat":43.32357,"lon":5.36763,"is_reserved":false,"is_disabled":false,"rental_uris":{"android":"levelo://app?vid=2e0545ad-d824-454e-b745-a6d9a8bc929b","ios":"levelo://app?vid=2e0545ad-d824-454e-b745-a6d9a8bc929b"},"vehicle_type_id":"4","last_reported":1775155288,"current_range_meters":8400,"station_id":"ce4bhsh2rcd13ifvqi2g","pricing_plan_id":"cebpf4jnsgd1na2vs0mg"},{"bike_id":"63f54104-1358-46d5-b04e-dbd776a1d3a2","system_id":"levelo_inurba_marseille","lat":43.21768,"lon":5.34628,"is_reserved":false,"is_disabled":false,"rental_uris":{"android":"levelo://app?vid=63f54104-1358-46d5-b04e-dbd776a1d3a2","ios":"levelo://app?vid=63f54104-1358-46d5-b04e-dbd776a1d3a2"},"vehicle_type_id":"4","last_reported":1775155288,"current_range_meters":8400,"station_id":"st_cvj6r9ubvosntc0bgbag","pricing_plan_id":"cebpf4jnsgd1na2vs0mg"},{"bike_id":"3e475a89-1221-49b4-a074-1ac5451345cb","system_id":"levelo_inurba_marseille","lat":43.2558,"lon":5.38296,"is_reserved":false,"is_disabled":false,"rental_uris":{"android":"levelo://app?vid=3e475a89-1221-49b4-a074-1ac5451345cb","ios":"levelo://app?vid=3e475a89-1221-49b4-a074-1ac5451345cb"},"vehicle_type_id":"4","last_reported":1775155288,"current_range_meters":8400,"station_id":"","pricing_plan_id":"cebpf4jnsgd1na2vs0mg"},{"bike_id":"4889bd04-51ca-47ea-acb6-aa443ae65231","system_id":"levelo_inurba_marseille","lat":43.21194,"lon":5.3507,"is_reserved":false,"is_disabled":false,"rental_uris":{"android":"levelo://app?vid=4889bd04-51ca-47ea-acb6-aa443ae65231","ios":"levelo://app?vid=4889bd04-51ca-47ea-acb6-aa443ae65231"},"vehicle_type_id":"4","last_reported":1775155288,"current_range_meters":8400,"station_id":"st_cvj6sg6p6f1abm77japg","pricing_plan_id":"cebpf4jnsgd1na2vs0mg"},{"bike_id":"6c2e718c-9cd4-4781-bcf8-cc3f17ff5abd","system_id":"levelo_inurba_marseille","lat":43.23911,"lon":5.43683,"is_reserved":false,"is_disabled":false,"rental_uris":{"android":"levelo://app?vid=6c2e718c-9cd4-4781-bcf8-cc3f17ff5abd","ios":"levelo://app?vid=6c2e718c-9cd4-4781-bcf8-cc3f17ff5abd"},"vehicle_type_id":"4","last_reported":1775155288,"current_range_meters":8400,"station_id":"","pricing_plan_id":"cebpf4jnsgd1na2vs0mg"},{"bike_id":"acfb6f54-04fd-41b0-b2d5-fb9fa6024a9f","system_id":"levelo_inurba_marseille","lat":43.26577,"lon":5.39174,"is_reserved":false,"is_disabled":false,"rental_uris":{"android":"levelo://app?vid=acfb6f54-04fd-41b0-b2d5-fb9fa6024a9f","ios":"levelo://app?vid=acfb6f54-04fd-41b0-b2d5-fb9fa6024a9f"},"vehicle_type_id":"4","last_reported":1775155288,"current_range_meters":8400,"station_id":"","pricing_plan_id":"cebpf4jnsgd1na2vs0mg"},{"bike_id":"832873a7-0d8c-4b94-98bd-0b0e93271fb8","system_id":"levelo_inurba_marseille","lat":43.29265,"lon":5.38445,"is_reserved":false,"is_disabled":true,"rental_uris":{"android":"levelo://app?vid=832873a7-0d8c-4b94-98bd-0b0e93271fb8","ios":"levelo://app?vid=832873a7-0d8c-4b94-98bd-0b0e93271fb8"},"vehicle_type_id":"4","last_reported":1775155288,"current_range_meters":8400,"station_id":"ce4bh692rcd13ifvqea0","pricing_plan_id":"cebpf4jnsgd1na2vs0mg"},{"bike_id":"429ac067-1adf-448b-83c4-b3c074d84315","system_id":"levelo_inurba_marseille","lat":43.21203,"lon":5.35075,"is_reserved":false,"is_disabled":false,"rental_uris":{"android":"levelo://app?vid=429ac067-1adf-448b-83c4-b3c074d84315","ios":"levelo://app?vid=429ac067-1adf-448b-83c4-b3c074d84315"},"vehicle_type_id":"4","last_reported":1775155288,"current_range_meters":8400,"station_id":"st_cvj6sg6p6f1abm77japg","pricing_plan_id":"cebpf4jnsgd1na2vs0mg"},{"bike_id":"0245e7db-688b-48e6-a6fc-cc29f4d96761","system_id":"levelo_inurba_marseille","lat":43.2417,"lon":5.364,"is_reserved":false,"is_disabled":false,"rental_uris":{"android":"levelo://app?vid=0245e7db-688b-48e6-a6fc-cc29f4d96761","ios":"levelo://app?vid=0245e7db-688b-48e6-a6fc-cc29f4d96761"},"vehicle_type_id":"4","last_reported":1775155288,"current_range_meters":8400,"station_id":"cpo36qri1sfpv3e86is0","pricing_plan_id":"cebpf4jnsgd1na2vs0mg"},{"bike_id":"5b00fba5-d32f-403f-adaa-6496c17d9a5a","system_id":"levelo_inurba_marseille","lat":43.290929,"lon":5.375277,"is_reserved":false,"is_disabled":false,"rental_uris":{"android":"levelo://app?vid=5b00fba5-d32f-403f-adaa-6496c17d9a5a","ios":"levelo://app?vid=5b00fba5-d32f-403f-adaa-6496c17d9a5a"},"vehicle_type_id":"4","last_reported":1775155288,"current_range_meters":8400,"station_id":"","pricing_plan_id":"cebpf4jnsgd1na2vs0mg"},{"bike_id":"e24e74b2-1c84-49cc-9ed6-e4773cee5f7f","system_id":"levelo_inurba_marseille","lat":43.25577,"lon":5.38259,"is_reserved":false,"is_disabled":false,"rental_uris":{"android":"levelo://app?vid=e24e74b2-1c84-49cc-9ed6-e4773cee5f7f","ios":"levelo://app?vid=e24e74b2-1c84-49cc-9ed6-e4773cee5f7f"},"vehicle_type_id":"4","last_reported":1775155288,"current_range_meters":8400,"station_id":"ce4bhih2rcd13ifvqfs0","pricing_plan_id":"cebpf4jnsgd1na2vs0mg"},{"bike_id":"e2d88e31-bacf-472f-ac8d-9080165da0d5","system_id":"levelo_inurba_marseille","lat":43.21176,"lon":5.3508,"is_reserved":false,"is_disabled":false,"rental_uris":{"android":"levelo://app?vid=e2d88e31-bacf-472f-ac8d-9080165da0d5","ios":"levelo://app?vid=e2d88e31-bacf-472f-ac8d-9080165da0d5"},"vehicle_type_id":"4","last_reported":1775155288,"current_range_meters":8400,"station_id":"st_cvj6sg6p6f1abm77japg","pricing_plan_id":"cebpf4jnsgd1na2vs0mg"},{"bike_id":"c0d6180f-2235-4df0-a5d3-f4080e431e44","system_id":"levelo_inurba_marseille","lat":43.2861,"lon":5.35102,"is_reserved":false,"is_disabled":false,"rental_uris":{"android":"levelo://app?vid=c0d6180f-2235-4df0-a5d3-f4080e431e44","ios":"levelo://app?vid=c0d6180f-2235-4df0-a5d3-f4080e431e44"},"vehicle_type_id":"4","last_reported":1775155288,"current_range_meters":8400,"station_id":"ce4bhch2rcd13ifvqeug","pricing_plan_id":"cebpf4jnsgd1na2vs0mg"},{"bike_id":"ccccdd94-4e68-401f-ad9b-2b32fb050cf2","system_id":"levelo_inurba_marseille","lat":43.29621,"lon":5.37155,"is_reserved":false,"is_disabled":false,"rental_uris":{"android":"levelo://app?vid=ccccdd94-4e68-401f-ad9b-2b32fb050cf2","ios":"levelo://app?vid=ccccdd94-4e68-401f-ad9b-2b32fb050cf2"},"vehicle_type_id":"4","last_reported":1775155288,"current_range_meters":8400,"station_id":"ce4bgnh2rcd13ifvqc0g","pricing_plan_id":"cebpf4jnsgd1na2vs0mg"},{"bike_id":"c0376655-340c-4916-9ccc-fa8b92194b47","system_id":"levelo_inurba_marseille","lat":43.28851,"lon":5.42536,"is_reserved":false,"is_disabled":false,"rental_uris":{"android":"levelo://app?vid=c0376655-340c-4916-9ccc-fa8b92194b47","ios":"levelo://app?vid=c0376655-340c-4916-9ccc-fa8b92194b47"},"vehicle_type_id":"4","last_reported":1775155288,"current_range_meters":8400,"station_id":"st_d3b462108ojc7389ooeg","pricing_plan_id":"cebpf4jnsgd1na2vs0mg"},{"bike_id":"636159a9-bba1-4711-8306-ba3eedf671f6","system_id":"levelo_inurba_marseille","lat":43.23786,"lon":5.36597,"is_reserved":false,"is_disabled":false,"rental_uris":{"android":"levelo://app?vid=636159a9-bba1-4711-8306-ba3eedf671f6","ios":"levelo://app?vid=636159a9-bba1-4711-8306-ba3eedf671f6"},"vehicle_type_id":"4","last_reported":1775155288,"current_range_meters":8400,"station_id":"st_d3nk18o9ro0c73en2l3g","pricing_plan_id":"cebpf4jnsgd1na2vs0mg"},{"bike_id":"778df578-6123-4128-bfc7-a9b6e8590d02","system_id":"levelo_inurba_marseille","lat":43.22934,"lon":5.35405,"is_reserved":false,"is_disabled":false,"rental_uris":{"android":"levelo://app?vid=778df578-6123-4128-bfc7-a9b6e8590d02","ios":"levelo://app?vid=778df578-6123-4128-bfc7-a9b6e8590d02"},"vehicle_type_id":"4","last_reported":1775155288,"current_range_meters":8400,"station_id":"cpo3532slgdg3j2ikp40","pricing_plan_id":"cebpf4jnsgd1na2vs0mg"},{"bike_id":"2568d28f-71d3-4df8-a7a0-a23f281b67c5","system_id":"levelo_inurba_marseille","lat":43.2926,"lon":5.38443,"is_reserved":false,"is_disabled":false,"rental_uris":{"android":"levelo://app?vid=2568d28f-71d3-4df8-a7a0-a23f281b67c5","ios":"levelo://app?vid=2568d28f-71d3-4df8-a7a0-a23f281b67c5"},"vehicle_type_id":"4","last_reported":1775155288,"current_range_meters":8400,"station_id":"ce4bh692rcd13ifvqea0","pricing_plan_id":"cebpf4jnsgd1na2vs0mg"},{"bike_id":"de18a66c-2b75-44e1-a5fb-68a29c61cbe6","system_id":"levelo_inurba_marseille","lat":43.29798,"lon":5.38091,"is_reserved":false,"is_disabled":false,"rental_uris":{"android":"levelo://app?vid=de18a66c-2b75-44e1-a5fb-68a29c61cbe6","ios":"levelo://app?vid=de18a66c-2b75-44e1-a5fb-68a29c61cbe6"},"vehicle_type_id":"4","last_reported":1775155288,"current_range_meters":8400,"station_id":"ce4bgip2rcd13ifvqbb0","pricing_plan_id":"cebpf4jnsgd1na2vs0mg"},{"bike_id":"85fe13b2-d685-4768-b034-4028bf82ce4d","system_id":"levelo_inurba_marseille","lat":43.28406,"lon":5.34988,"is_reserved":false,"is_disabled":false,"rental_uris":{"android":"levelo://app?vid=85fe13b2-d685-4768-b034-4028bf82ce4d","ios":"levelo://app?vid=85fe13b2-d685-4768-b034-4028bf82ce4d"},"vehicle_type_id":"4","last_reported":1775155288,"current_range_meters":8400,"station_id":"ce4bhbh2rcd13ifvqepg","pricing_plan_id":"cebpf4jnsgd1na2vs0mg"},{"bike_id":"b071b856-4331-4600-953d-d9b6b87b58b1","system_id":"levelo_inurba_marseille","lat":43.28608,"lon":5.35108,"is_reserved":false,"is_disabled":false,"rental_uris":{"android":"levelo://app?vid=b071b856-4331-4600-953d-d9b6b87b58b1","ios":"levelo://app?vid=b071b856-4331-4600-953d-d9b6b87b58b1"},"vehicle_type_id":"4","last_reported":1775155288,"current_range_meters":8400,"station_id":"ce4bhch2rcd13ifvqeug","pricing_plan_id":"cebpf4jnsgd1na2vs0mg"},{"bike_id":"4f8f5385-39c1-4dec-9d6d-a684cb55e9e7","system_id":"levelo_inurba_marseille","lat":43.32113,"lon":5.36742,"is_reserved":false,"is_disabled":false,"rental_uris":{"android":"levelo://app?vid=4f8f5385-39c1-4dec-9d6d-a684cb55e9e7","ios":"levelo://app?vid=4f8f5385-39c1-4dec-9d6d-a684cb55e9e7"},"vehicle_type_id":"4","last_reported":1775155288,"current_range_meters":8400,"station_id":"ce4bhrh2rcd13ifvqhug","pricing_plan_id":"cebpf4jnsgd1na2vs0mg"},{"bike_id":"b9deea86-0f72-4142-84f7-995fe6fb893d","system_id":"levelo_inurba_marseille","lat":43.25075,"lon":5.39528,"is_reserved":false,"is_disabled":false,"rental_uris":{"android":"levelo://app?vid=b9deea86-0f72-4142-84f7-995fe6fb893d","ios":"levelo://app?vid=b9deea86-0f72-4142-84f7-995fe6fb893d"},"vehicle_type_id":"4","last_reported":1775155288,"current_range_meters":8400,"station_id":"ce4bhm12rcd13ifvqgkg","pricing_plan_id":"cebpf4jnsgd1na2vs0mg"},{"bike_id":"13e510de-1687-4958-9519-cdc78587ab06","system_id":"levelo_inurba_marseille","lat":43.29256,"lon":5.38429,"is_reserved":false,"is_disabled":true,"rental_uris":{"android":"levelo://app?vid=13e510de-1687-4958-9519-cdc78587ab06","ios":"levelo://app?vid=13e510de-1687-4958-9519-cdc78587ab06"},"vehicle_type_id":"4","last_reported":1775155288,"current_range_meters":8400,"station_id":"ce4bh692rcd13ifvqea0","pricing_plan_id":"cebpf4jnsgd1na2vs0mg"},{"bike_id":"4b626325-cc12-4c30-b32c-a9eae71ae167","system_id":"levelo_inurba_marseille","lat":43.29175,"lon":5.42724,"is_reserved":false,"is_disabled":false,"rental_uris":{"android":"levelo://app?vid=4b626325-cc12-4c30-b32c-a9eae71ae167","ios":"levelo://app?vid=4b626325-cc12-4c30-b32c-a9eae71ae167"},"vehicle_type_id":"4","last_reported":1775155288,"current_range_meters":8400,"station_id":"","pricing_plan_id":"cebpf4jnsgd1na2vs0mg"},{"bike_id":"d978787a-3671-4a77-8a5c-59656b149b86","system_id":"levelo_inurba_marseille","lat":43.22933,"lon":5.35394,"is_reserved":false,"is_disabled":false,"rental_uris":{"android":"levelo://app?vid=d978787a-3671-4a77-8a5c-59656b149b86","ios":"levelo://app?vid=d978787a-3671-4a77-8a5c-59656b149b86"},"vehicle_type_id":"4","last_reported":1775155288,"current_range_meters":8400,"station_id":"cpo3532slgdg3j2ikp40","pricing_plan_id":"cebpf4jnsgd1na2vs0mg"},