{"last_updated":1707678277,"ttl":30,"version":"2.2","data":{"bikes":[{"bike_id":"dec7f95c-98ea-43d0-acf8-6c456c45cea8","system_id":"levelo_inurba_marseille","lat":43.31341,"lon":5.367098,"is_reserved":false,"is_disabled":false,"rental_uris":{"android":"levelo://app?vid=dec7f95c-98ea-43d0-acf8-6c456c45cea8","ios":"levelo://app?vid=dec7f95c-98ea-43d0-acf8-6c456c45cea8"},"vehicle_type_id":"4","last_reported":1707678277,"current_range_meters":10000,"station_id":"ce4bgr92rcd13ifvqc6g","pricing_plan_id":"free"},{"bike_id":"a6a82cb7-a131-4d2e-9545-2fc2a77352b1","system_id":"levelo_inurba_marseille","lat":43.313391,"lon":5.36706,"is_reserved":false,"is_disabled":false,"rental_uris":{"android":"levelo://app?vid=a6a82cb7-a131-4d2e-9545-2fc2a77352b1","ios":"levelo://app?vid=a6a82cb7-a131-4d2e-9545-2fc2a77352b1"},"vehicle_type_id":"4","last_reported":1707678277,"current_range_meters":8800,"station_id":"ce4bgr92rcd13ifvqc6g","pricing_plan_id":"free"},{"bike_id":"424989ab-5f90-47c5-9452-6900e12626e7","system_id":"levelo_inurba_marseille","lat":43.313391,"lon":5.36706,"is_reserved":false,"is_disabled":false,"rental_uris":{"android":"levelo://app?vid=424989ab-5f90-47c5-9452-6900e12626e7","ios":"levelo://app?vid=424989ab-5f90-47c5-9452-6900e12626e7"},"vehicle_type_id":"4","last_reported":1707678277,"current_range_meters":30400,"station_id":"ce4bgr92rcd13ifvqc6g","pricing_plan_id":"free"},{"bike_id":"daf661ef-e9c3-4d29-9a87-a3fb550213c9","system_id":"levelo_inurba_marseille","lat":43.312239,"lon":5.368562,"is_reserved":false,"is_disabled":false,"rental_uris":{"android":"levelo://app?vid=daf661ef-e9c3-4d29-9a87-a3fb550213c9","ios":"levelo://app?vid=daf661ef-e9c3-4d29-9a87-a3fb550213c9"},"vehicle_type_id":"4","last_reported":1707678277,"current_range_meters":22400,"station_id":"ce4bgl92rcd13ifvqbq0","pricing_plan_id":"free"},{"bike_id":"871c52f6-fdab-4d9b-9e17-156eb51c0e04","system_id":"levelo_inurba_marseille","lat":43.309076,"lon":5.368465,"is_reserved":false,"is_disabled":false,"rental_uris":{"android":"levelo://app?vid=871c52f6-fdab-4d9b-9e17-156eb51c0e04","ios":"levelo://app?vid=871c52f6-fdab-4d9b-9e17-156eb51c0e04"},"vehicle_type_id":"4","last_reported":1707678277,"current_range_meters":17200,"station_id":"ce4bgn92rcd13ifvqbvg","pricing_plan_id":"free"},{"bike_id":"69d61244-4401-4706-9010-7dcd29b5c215","system_id":"levelo_inurba_marseille","lat":43.31688,"lon":5.36994,"is_reserved":false,"is_disabled":false,"rental_uris":{"android":"levelo://app?vid=69d61244-4401-4706-9010-7dcd29b5c215","ios":"levelo://app?vid=69d61244-4401-4706-9010-7dcd29b5c215"},"vehicle_type_id":"4","last_reported":1707678277,"current_range_meters":4400,"station_id":"","pricing_plan_id":"free"},{"bike_id":"0c075d5b-3660-4795-b72e-5ee470c563cd","system_id":"levelo_inurba_marseille","lat":43.314811,"lon":5.373103,"is_reserved":false,"is_disabled":false,"rental_uris":{"android":"levelo://app?vid=0c075d5b-3660-4795-b72e-5ee470c563cd","ios":"levelo://app?vid=0c075d5b-3660-4795-b72e-5ee470c563cd"},"vehicle_type_id":"4","last_reported":1707678277,"current_range_meters":18800,"station_id":"ce4bgt12rcd13ifvqcd0","pricing_plan_id":"free"},{"bike_id":"b2fa5de4-ca78-47ce-b03c-9bf3d56b4bdb","system_id":"levelo_inurba_marseille","lat":43.314811,"lon":5.373103,"is_reserved":false,"is_disabled":false,"rental_uris":{"android":"levelo://app?vid=b2fa5de4-ca78-47ce-b03c-9bf3d56b4bdb","ios":"levelo://app?vid=b2fa5de4-ca78-47ce-b03c-9bf3d56b4bdb"},"vehicle_type_id":"4","last_reported":1707678277,"current_range_meters":28400,"station_id":"ce4bgt12rcd13ifvqcd0","pricing_plan_id":"free"},{"bike_id":"35cb65e8-5eaf-4966-9234-46586990d8aa","system_id":"levelo_inurba_marseille","lat":43.314811,"lon":5.373103,"is_reserved":false,"is_disabled":false,"rental_uris":{"android":"levelo://app?vid=35cb65e8-5eaf-4966-9234-46586990d8aa","ios":"levelo://app?vid=35cb65e8-5eaf-4966-9234-46586990d8aa"},"vehicle_type_id":"4","last_reported":1707678277,"current_range_meters":6000,"station_id":"ce4bgt12rcd13ifvqcd0","pricing_plan_id":"free"},{"bike_id":"2f19d4f9-ac48-4e61-a50f-834e188f8972","system_id":"levelo_inurba_marseille","lat":43.314811,"lon":5.373103,"is_reserved":false,"is_disabled":false,"rental_uris":{"android":"levelo://app?vid=2f19d4f9-ac48-4e61-a50f-834e188f8972","ios":"levelo://app?vid=2f19d4f9-ac48-4e61-a50f-834e188f8972"},"vehicle_type_id":"4","last_reported":1707678277,"current_range_meters":21200,"station_id":"ce4bgt12rcd13ifvqcd0","pricing_plan_id":"free"},{"bike_id":"ede40f05-1f07-42c5-bda6-e2a296bd41c4","system_id":"levelo_inurba_marseille","lat":43.314811,"lon":5.373103,"is_reserved":false,"is_disabled":false,"rental_uris":{"android":"levelo://app?vid=ede40f05-1f07-42c5-bda6-e2a296bd41c4","ios":"levelo://app?vid=ede40f05-1f07-42c5-bda6-e2a296bd41c4"},"vehicle_type_id":"4","last_reported":1707678277,"current_range_meters":12000,"station_id":"ce4bgt12rcd13ifvqcd0","pricing_plan_id":"free"},{"bike_id":"2c2b61ec-fe2b-4adf-89fd-6c1fa83456c9","system_id":"levelo_inurba_marseille","lat":43.309039,"lon":5.371797,"is_reserved":false,"is_disabled":false,"rental_uris":{"android":"levelo://app?vid=2c2b61ec-fe2b-4adf-89fd-6c1fa83456c9","ios":"levelo://app?vid=2c2b61ec-fe2b-4adf-89fd-6c1fa83456c9"},"vehicle_type_id":"4","last_reported":1707678277,"current_range_meters":4400,"station_id":"ce4bguh2rcd13ifvqckg","pricing_plan_id":"free"},{"bike_id":"b9e48ac8-61b6-48b7-8ad4-35c29435a4da","system_id":"levelo_inurba_marseille","lat":43.316237,"lon":5.373273,"is_reserved":false,"is_disabled":false,"rental_uris":{"android":"levelo://app?vid=b9e48ac8-61b6-48b7-8ad4-35c29435a4da","ios":"levelo://app?vid=b9e48ac8-61b6-48b7-8ad4-35c29435a4da"},"vehicle_type_id":"4","last_reported":1707678277,"current_range_meters":24800,"station_id":"","pricing_plan_id":"free"},{"bike_id":"b2c708eb-87f8-488f-b8f8-387469924d93","system_id":"levelo_inurba_marseille","lat":43.30616,"lon":5.36606,"is_reserved":false,"is_disabled":false,"rental_uris":{"android":"levelo://app?vid=b2c708eb-87f8-488f-b8f8-387469924d93","ios":"levelo://app?vid=b2c708eb-87f8-488f-b8f8-387469924d93"},"vehicle_type_id":"4","last_reported":1707678277,"current_range_meters":12000,"station_id":"","pricing_plan_id":"free"},{"bike_id":"1295088e-0871-4a5f-a2e7-5598168edd75","system_id":"levelo_inurba_marseille","lat":43.305989,"lon":5.37225,"is_reserved":false,"is_disabled":false,"rental_uris":{"android":"levelo://app?vid=1295088e-0871-4a5f-a2e7-5598168edd75","ios":"levelo://app?vid=1295088e-0871-4a5f-a2e7-5598168edd75"},"vehicle_type_id":"4","last_reported":1707678277,"current_range_meters":10400,"station_id":"ce4bgqh2rcd13ifvqc4g","pricing_plan_id":"free"},{"bike_id":"d3615284-20d5-40f4-9ec9-2def573a9567","system_id":"levelo_inurba_marseille","lat":43.305989,"lon":5.37225,"is_reserved":false,"is_disabled":false,"rental_uris":{"android":"levelo://app?vid=d3615284-20d5-40f4-9ec9-2def573a9567","ios":"levelo://app?vid=d3615284-20d5-40f4-9ec9-2def573a9567"},"vehicle_type_id":"4","last_reported":1707678277,"current_range_meters":16000,"station_id":"ce4bgqh2rcd13ifvqc4g","pricing_plan_id":"free"},{"bike_id":"13b1a8c3-6d84-4cbb-815b-68acad6c83aa","system_id":"levelo_inurba_marseille","lat":43.305989,"lon":5.37225,"is_reserved":false,"is_disabled":false,"rental_uris":{"android":"levelo://app?vid=13b1a8c3-6d84-4cbb-815b-68acad6c83aa","ios":"levelo://app?vid=13b1a8c3-6d84-4cbb-815b-68acad6c83aa"},"vehicle_type_id":"4","last_reported":1707678277,"current_range_meters":31200,"station_id":"ce4bgqh2rcd13ifvqc4g","pricing_plan_id":"free"},{"bike_id":"43b75d9a-336a-4d56-bb8f-02e418050959","system_id":"levelo_inurba_marseille","lat":43.305989,"lon":5.37225,"is_reserved":false,"is_disabled":false,"rental_uris":{"android":"levelo://app?vid=43b75d9a-336a-4d56-bb8f-02e418050959","ios":"levelo://app?vid=43b75d9a-336a-4d56-bb8f-02e418050959"},"vehicle_type_id":"4","last_reported":1707678277,"current_range_meters":29600,"station_id":"ce4bgqh2rcd13ifvqc4g","pricing_plan_id":"free"},{"bike_id":"1ee5c94c-f722-4da5-8586-f3b999a798ce","system_id":"levelo_inurba_marseille","lat":43.305989,"lon":5.37225,"is_reserved":false,"is_disabled":false,"rental_uris":{"android":"levelo://app?vid=1ee5c94c-f722-4da5-8586-f3b999a798ce","ios":"levelo://app?vid=1ee5c94c-f722-4da5-8586-f3b999a798ce"},"vehicle_type_id":"4","last_reported":1707678277,"current_range_meters":4400,"station_id":"ce4bgqh2rcd13ifvqc4g","pricing_plan_id":"free"},{"bike_id":"857681bd-570f-4c1d-bc19-1586f0defdb4","system_id":"levelo_inurba_marseille","lat":43.305989,"lon":5.37225,"is_reserved":false,"is_disabled":false,"rental_uris":{"android":"levelo://app?vid=857681bd-570f-4c1d-bc19-1586f0defdb4","ios":"levelo://app?vid=857681bd-570f-4c1d-bc19-1586f0defdb4"},"vehicle_type_id":"4","last_reported":1707678277,"current_range_meters":29200,"station_id":"ce4bgqh2rcd13ifvqc4g","pricing_plan_id":"free"},{"bike_id":"9bf5260e-a9d1-412b-b99d-8d66405e88d3","system_id":"levelo_inurba_marseille","lat":43.305989,"lon":5.37225,"is_reserved":false,"is_disabled":false,"rental_uris":{"android":"levelo://app?vid=9bf5260e-a9d1-412b-b99d-8d66405e88d3","ios":"levelo://app?vid=9bf5260e-a9d1-412b-b99d-8d66405e88d3"},"vehicle_type_id":"4","last_reported":1707678277,"current_range_meters":3200,"station_id":"ce4bgqh2rcd13ifvqc4g","pricing_plan_id":"free"},{"bike_id":"97171f70-14af-41f9-8005-1331de2de35a","system_id":"levelo_inurba_marseille","lat":43.305989,"lon":5.37225,"is_reserved":false,"is_disabled":false,"rental_uris":{"android":"levelo://app?vid=97171f70-14af-41f9-8005-1331de2de35a","ios":"levelo://app?vid=97171f70-14af-41f9-8005-1331de2de35a"},"vehicle_type_id":"4","last_reported":1707678277,"current_range_meters":400,"station_id":"ce4bgqh2rcd13ifvqc4g","pricing_plan_id":"free"},{"bike_id":"f9f239c7-b99d-402d-bda2-b8adb8b6bf19","system_id":"levelo_inurba_marseille","lat":43.305989,"lon":5.37225,"is_reserved":false,"is_disabled":false,"rental_uris":{"android":"levelo://app?vid=f9f239c7-b99d-402d-bda2-b8adb8b6bf19","ios":"levelo://app?vid=f9f239c7-b99d-402d-bda2-b8adb8b6bf19"},"vehicle_type_id":"4","last_reported":1707678277,"current_range_meters":31200,"station_id":"ce4bgqh2rcd13ifvqc4g","pricing_plan_id":"free"},{"bike_id":"35e8d4df-94dd-4897-be3d-58723e9bead6","system_id":"levelo_inurba_marseille","lat":43.317075,"lon":5.377367,"is_reserved":false,"is_disabled":false,"rental_uris":{"android":"levelo://app?vid=35e8d4df-94dd-4897-be3d-58723e9bead6","ios":"levelo://app?vid=35e8d4df-94dd-4897-be3d-58723e9bead6"},"vehicle_type_id":"4","last_reported":1707678277,"current_range_meters":24400,"station_id":"ce4bgth2rcd13ifvqch0","pricing_plan_id":"free"},{"bike_id":"ecc4dddc-11b9-472a-b7f0-4bdec1d45414","system_id":"levelo_inurba_marseille","lat":43.311125,"lon":5.377624,"is_reserved":false,"is_disabled":false,"rental_uris":{"android":"levelo://app?vid=ecc4dddc-11b9-472a-b7f0-4bdec1d45414","ios":"levelo://app?vid=ecc4dddc-11b9-472a-b7f0-4bdec1d45414"},"vehicle_type_id":"4","last_reported":1707678277,"current_range_meters":6800,"station_id":"ce4bgt92rcd13ifvqcg0","pricing_plan_id":"free"},{"bike_id":"54d7e007-b226-4ba3-947a-071bf6d594f7","system_id":"levelo_inurba_marseille","lat":43.307945,"lon":5.376487,"is_reserved":false,"is_disabled":false,"rental_uris":{"android":"levelo://app?vid=54d7e007-b226-4ba3-947a-071bf6d594f7","ios":"levelo://app?vid=54d7e007-b226-4ba3-947a-071bf6d594f7"},"vehicle_type_id":"4","last_reported":1707678277,"current_range_meters":0,"station_id":"ce4bgv92rcd13ifvqcq0","pricing_plan_id":"free"},{"bike_id":"9b2fb06c-b606-49ce-be43-fca9e3245494","system_id":"levelo_inurba_marseille","lat":43.307945,"lon":5.376487,"is_reserved":false,"is_disabled":false,"rental_uris":{"android":"levelo://app?vid=9b2fb06c-b606-49ce-be43-fca9e3245494","ios":"levelo://app?vid=9b2fb06c-b606-49ce-be43-fca9e3245494"},"vehicle_type_id":"4","last_reported":1707678277,"current_range_meters":8800,"station_id":"ce4bgv92rcd13ifvqcq0","pricing_plan_id":"free"},{"bike_id":"b1b3b562-0c66-47da-a875-3f4dfc68b866","system_id":"levelo_inurba_marseille","lat":43.303046,"lon":5.368981,"is_reserved":false,"is_disabled":false,"rental_uris":{"android":"levelo://app?vid=b1b3b562-0c66-47da-a875-3f4dfc68b866","ios":"levelo://app?vid=b1b3b562-0c66-47da-a875-3f4dfc68b866"},"vehicle_type_id":"4","last_reported":1707678277,"current_range_meters":29600,"station_id":"ce4bgqh2rcd13ifvqc5g","pricing_plan_id":"free"},{"bike_id":"b7bbdd77-67ae-41c1-a444-2c52d52d1a88","system_id":"levelo_inurba_marseille","lat":43.303046,"lon":5.368981,"is_reserved":false,"is_disabled":false,"rental_uris":{"android":"levelo://app?vid=b7bbdd77-67ae-41c1-a444-2c52d52d1a88","ios":"levelo://app?vid=b7bbdd77-67ae-41c1-a444-2c52d52d1a88"},"vehicle_type_id":"4","last_reported":1707678277,"current_range_meters":800,"station_id":"ce4bgqh2rcd13ifvqc5g","pricing_plan_id":"free"},{"bike_id":"9dca8571-fa2c-4ed3-b9a5-4481f4f8d99b","system_id":"levelo_inurba_marseille","lat":43.315293,"lon":5.380349,"is_reserved":false,"is_disabled":false,"rental_uris":{"android":"levelo://app?vid=9dca8571-fa2c-4ed3-b9a5-4481f4f8d99b","ios":"levelo://app?vid=9dca8571-fa2c-4ed3-b9a5-4481f4f8d99b"},"vehicle_type_id":"4","last_reported":1707678277,"current_range_meters":28000,"station_id":"ce4bhsp2rcd13ifvqi50","pricing_plan_id":"free"},{"bike_id":"dca02982-a8ca-4f8f-99aa-c4c50c3dc6cf","system_id":"levelo_inurba_marseille","lat":43.32273,"lon":5.36961,"is_reserved":false,"is_disabled":false,"rental_uris":{"android":"levelo://app?vid=dca02982-a8ca-4f8f-99aa-c4c50c3dc6cf","ios":"levelo://app?vid=dca02982-a8ca-4f8f-99aa-c4c50c3dc6cf"},"vehicle_type_id":"4","last_reported":1707678277,"current_range_meters":17600,"station_id":"","pricing_plan_id":"free"},{"bike_id":"c09fbacb-2255-4923-aa96-6e2f0951ee94","system_id":"levelo_inurba_marseille","lat":43.308012,"lon":5.381511,"is_reserved":false,"is_disabled":false,"rental_uris":{"android":"levelo://app?vid=c09fbacb-2255-4923-aa96-6e2f0951ee94","ios":"levelo://app?vid=c09fbacb-2255-4923-aa96-6e2f0951ee94"},"vehicle_type_id":"4","last_reported":1707678277,"current_range_meters":3600,"station_id":"ce4bgt12rcd13ifvqce0","pricing_plan_id":"free"},{"bike_id":"4ee8faf9-1d97-47dd-9597-fe1fe8a03af3","system_id":"levelo_inurba_marseille","lat":43.309039,"lon":5.371797,"is_reserved":false,"is_disabled":false,"rental_uris":{"android":"levelo://app?vid=4ee8faf9-1d97-47dd-9597-fe1fe8a03af3","ios":"levelo://app?vid=4ee8faf9-1d97-47dd-9597-fe1fe8a03af3"},"vehicle_type_id":"4","last_reported":1707678277,"current_range_meters":27600,"station_id":"ce4bguh2rcd13ifvqckg","pricing_plan_id":"free"},{"bike_id":"d8fba0c3-f9a3-49d6-9129-1982405db515","system_id":"levelo_inurba_marseille","lat":43.301939,"lon":5.366286,"is_reserved":false,"is_disabled":false,"rental_uris":{"android":"levelo://app?vid=d8fba0c3-f9a3-49d6-9129-1982405db515","ios":"levelo://app?vid=d8fba0c3-f9a3-49d6-9129-1982405db515"},"vehicle_type_id":"4","last_reported":1707678277,"current_range_meters":28400,"station_id":"ce4bgrh2rcd13ifvqc8g","pricing_plan_id":"free"},{"bike_id":"08af8303-6a03-488d-84e7-d2af34b1d6b8","system_id":"levelo_inurba_marseille","lat":43.301939,"lon":5.366286,"is_reserved":false,"is_disabled":false,"rental_uris":{"android":"levelo://app?vid=08af8303-6a03-488d-84e7-d2af34b1d6b8","ios":"levelo://app?vid=08af8303-6a03-488d-84e7-d2af34b1d6b8"},"vehicle_type_id":"4","last_reported":1707678277,"current_range_meters":19200,"station_id":"ce4bgrh2rcd13ifvqc8g","pricing_plan_id":"free"},{"bike_id":"7ac5dbf1-9ffe-49b9-8088-8791d447664b","system_id":"levelo_inurba_marseille","lat":43.301939,"lon":5.366286,"is_reserved":false,"is_disabled":false,"rental_uris":{"android":"levelo://app?vid=7ac5dbf1-9ffe-49b9-8088-8791d447664b","ios":"levelo://app?vid=7ac5dbf1-9ffe-49b9-8088-8791d447664b"},"vehicle_type_id":"4","last_reported":1707678277,"current_range_meters":31200,"station_id":"ce4bgrh2rcd13ifvqc8g","pricing_plan_id":"free"},{"bike_id":"a60110cb-0755-462f-83e8-8c4fc2ad6265","system_id":"levelo_inurba_marseille","lat":43.308012,"lon":5.381511,"is_reserved":false,"is_disabled":false,"rental_uris":{"android":"levelo://app?vid=a60110cb-0755-462f-83e8-8c4fc2ad6265","ios":"levelo://app?vid=a60110cb-0755-462f-83e8-8c4fc2ad6265"},"vehicle_type_id":"4","last_reported":1707678277,"current_range_meters":6400,"station_id":"ce4bgt12rcd13ifvqce0","pricing_plan_id":"free"},{"bike_id":"d72def9b-4399-436a-b1e0-078a212ecacf","system_id":"levelo_inurba_marseille","lat":43.304606,"lon":5.379026,"is_reserved":false,"is_disabled":false,"rental_uris":{"android":"levelo://app?vid=d72def9b-4399-436a-b1e0-078a212ecacf","ios":"levelo://app?vid=d72def9b-4399-436a-b1e0-078a212ecacf"},"vehicle_type_id":"4","last_reported":1707678277,"current_range_meters":6400,"station_id":"ce4bgup2rcd13ifvqcn0","pricing_plan_id":"free"},{"bike_id":"97f71f75-d414-4d74-9636-20377fab8590","system_id":"levelo_inurba_marseille","lat":43.324771,"lon":5.36557,"is_reserved":false,"is_disabled":false,"rental_uris":{"android":"levelo://app?vid=97f71f75-d414-4d74-9636-20377fab8590","ios":"levelo://app?vid=97f71f75-d414-4d74-9636-20377fab8590"},"vehicle_type_id":"4","last_reported":1707678277,"current_range_meters":6800,"station_id":"ce4bhs12rcd13ifvqhvg","pricing_plan_id":"free"},{"bike_id":"a34a2f83-cbcd-4c60-acc0-2f59774cd82e","system_id":"levelo_inurba_marseille","lat":43.324771,"lon":5.36557,"is_reserved":false,"is_disabled":false,"rental_uris":{"android":"levelo://app?vid=a34a2f83-cbcd-4c60-acc0-2f59774cd82e","ios":"levelo://app?vid=a34a2f83-cbcd-4c60-acc0-2f59774cd82e"},"vehicle_type_id":"4","last_reported":1707678277,"current_range_meters":9600,"station_id":"ce4bhs12rcd13ifvqhvg","pricing_plan_id":"free"},{"bike_id":"11f01369-a7c5-4ba3-8875-c0638819e40c","system_id":"levelo_inurba_marseille","lat":43.324771,"lon":5.36557,"is_reserved":false,"is_disabled":false,"rental_uris":{"android":"levelo://app?vid=11f01369-a7c5-4ba3-8875-c0638819e40c","ios":"levelo://app?vid=11f01369-a7c5-4ba3-8875-c0638819e40c"},"vehicle_type_id":"4","last_reported":1707678277,"current_range_meters":12000,"station_id":"ce4bhs12rcd13ifvqhvg","pricing_plan_id":"free"},{"bike_id":"4b938ca4-1902-4f7a-ae5d-4a15896eebd9","system_id":"levelo_inurba_marseille","lat":43.324771,"lon":5.36557,"is_reserved":false,"is_disabled":false,"rental_uris":{"android":"levelo://app?vid=4b938ca4-1902-4f7a-ae5d-4a15896eebd9","ios":"levelo://app?vid=4b938ca4-1902-4f7a-ae5d-4a15896eebd9"},"vehicle_type_id":"4","last_reported":1707678277,"current_range_meters":27600,"station_id":"ce4bhs12rcd13ifvqhvg","pricing_plan_id":"free"},{"bike_id":"88757b7e-6a70-4dfc-b04c-255bba11b422","system_id":"levelo_inurba_marseille","lat":43.324771,"lon":5.36557,"is_reserved":false,"is_disabled":false,"rental_uris":{"android":"levelo://app?vid=88757b7e-6a70-4dfc-b04c-255bba11b422","ios":"levelo://app?vid=88757b7e-6a70-4dfc-b04c-255bba11b422"},"vehicle_type_id":"4","last_reported":1707678277,"current_range_meters":0,"station_id":"ce4bhs12rcd13ifvqhvg","pricing_plan_id":"free"},{"bike_id":"73dd03cd-847b-46a2-a69f-9cd97061dc72","system_id":"levelo_inurba_marseille","lat":43.324771,"lon":5.36557,"is_reserved":false,"is_disabled":false,"rental_uris":{"android":"levelo://app?vid=73dd03cd-847b-46a2-a69f-9cd97061dc72","ios":"levelo://app?vid=73dd03cd-847b-46a2-a69f-9cd97061dc72"},"vehicle_type_id":"4","last_reported":1707678277,"current_range_meters":17600,"station_id":"ce4bhs12rcd13ifvqhvg","pricing_plan_id":"free"},{"bike_id":"744a319b-a01d-4d96-a7b5-c0e2a04c1298","system_id":"levelo_inurba_marseille","lat":43.324771,"lon":5.36557,"is_reserved":false,"is_disabled":false,"rental_uris":{"android":"levelo://app?vid=744a319b-a01d-4d96-a7b5-c0e2a04c1298","ios":"levelo://app?vid=744a319b-a01d-4d96-a7b5-c0e2a04c1298"},"vehicle_type_id":"4","last_reported":1707678277,"current_range_meters":9200,"station_id":"ce4bhs12rcd13ifvqhvg","pricing_plan_id":"free"},{"bike_id":"a25a4e72-39fb-4e4c-b007-4f94627eaa37","system_id":"levelo_inurba_marseille","lat":43.324771,"lon":5.36557,"is_reserved":false,"is_disabled":false,"rental_uris":{"android":"levelo://app?vid=a25a4e72-39fb-4e4c-b007-4f94627eaa37","ios":"levelo://app?vid=a25a4e72-39fb-4e4c-b007-4f94627eaa37"},"vehicle_type_id":"4","last_reported":1707678277,"current_range_meters":20800,"station_id":"ce4bhs12rcd13ifvqhvg","pricing_plan_id":"free"},{"bike_id":"f05f711b-c32f-4dcf-aab0-5e9245ff1260","system_id":"levelo_inurba_marseille","lat":43.302784,"lon":5.377158,"is_reserved":false,"is_disabled":false,"rental_uris":{"android":"levelo://app?vid=f05f711b-c32f-4dcf-aab0-5e9245ff1260","ios":"levelo://app?vid=f05f711b-c32f-4dcf-aab0-5e9245ff1260"},"vehicle_type_id":"4","last_reported":1707678277,"current_range_meters":31200,"station_id":"ce4bguh2rcd13ifvqcj0","pricing_plan_id":"free"},{"bike_id":"3894877a-4e77-495e-8db0-73e9bb120bc7","system_id":"levelo_inurba_marseille","lat":43.31068,"lon":5.383557,"is_reserved":false,"is_disabled":false,"rental_uris":{"android":"levelo://app?vid=3894877a-4e77-495e-8db0-73e9bb120bc7","ios":"levelo://app?vid=3894877a-4e77-495e-8db0-73e9bb120bc7"},"vehicle_type_id":"4","last_reported":1707678277,"current_range_meters":24000,"station_id":"ce4bgv92rcd13ifvqcr0","pricing_plan_id":"free"},{"bike_id":"e66198d1-5c87-4529-b915-2ad03f5d52cf","system_id":"levelo_inurba_marseille","lat":43.31076,"lon":5.38359,"is_reserved":false,"is_disabled":false,"rental_uris":{"android":"levelo://app?vid=e66198d1-5c87-4529-b915-2ad03f5d52cf","ios":"levelo://app?vid=e66198d1-5c87-4529-b915-2ad03f5d52cf"},"vehicle_type_id":"4","last_reported":1707678277,"current_range_meters":12000,"station_id":"ce4bgv92rcd13ifvqcr0","pricing_plan_id":"free"},{"bike_id":"dce01190-2f1b-41d1-a4a2-95965887e836","system_id":"levelo_inurba_marseille","lat":43.31069,"lon":5.38359,"is_reserved":false,"is_disabled":false,"rental_uris":{"android":"levelo://app?vid=dce01190-2f1b-41d1-a4a2-95965887e836","ios":"levelo://app?vid=dce01190-2f1b-41d1-a4a2-95965887e836"},"vehicle_type_id":"4","last_reported":1707678277,"current_range_meters":0,"station_id":"ce4bgv92rcd13ifvqcr0","pricing_plan_id":"free"},{"bike_id":"42b1da80-defb-495f-9985-0df4388d7d45","system_id":"levelo_inurba_marseille","lat":43.310804,"lon":5.38359,"is_reserved":false,"is_disabled":false,"rental_uris":{"android":"levelo://app?vid=42b1da80-defb-495f-9985-0df4388d7d45","ios":"levelo://app?vid=42b1da80-defb-495f-9985-0df4388d7d45"},"vehicle_type_id":"4","last_reported":1707678277,"current_range_meters":26800,"station_id":"ce4bgv92rcd13ifvqcr0","pricing_plan_id":"free"},{"bike_id":"b5e7b8ad-5b6b-4ef2-9538-e40bd26f3f26","system_id":"levelo_inurba_marseille","lat":43.31061,"lon":5.38369,"is_reserved":false,"is_disabled":false,"rental_uris":{"android":"levelo://app?vid=b5e7b8ad-5b6b-4ef2-9538-e40bd26f3f26","ios":"levelo://app?vid=b5e7b8ad-5b6b-4ef2-9538-e40bd26f3f26"},"vehicle_type_id":"4","last_reported":1707678277,"current_range_meters":800,"station_id":"ce4bgv92rcd13ifvqcr0","pricing_plan_id":"free"},{"bike_id":"b0e9c3f5-6879-498f-a361-803479ec81f3","system_id":"levelo_inurba_marseille","lat":43.301438,"lon":5.374176,"is_reserved":false,"is_disabled":false,"rental_uris":{"android":"levelo://app?vid=b0e9c3f5-6879-498f-a361-803479ec81f3","ios":"levelo://app?vid=b0e9c3f5-6879-498f-a361-803479ec81f3"},"vehicle_type_id":"4","last_reported":1707678277,"current_range_meters":3200,"station_id":"ce4bgs92rcd13ifvqcc0","pricing_plan_id":"free"},{"bike_id":"0eb65560-c12d-42b3-83b5-e3dfa0419189","system_id":"levelo_inurba_marseille","lat":43.301429,"lon":5.37413,"is_reserved":false,"is_disabled":false,"rental_uris":{"android":"levelo://app?vid=0eb65560-c12d-42b3-83b5-e3dfa0419189","ios":"levelo://app?vid=0eb65560-c12d-42b3-83b5-e3dfa0419189"},"vehicle_type_id":"4","last_reported":1707678277,"current_range_meters":32000,"station_id":"ce4bgs92rcd13ifvqcc0","pricing_plan_id":"free"},{"bike_id":"895a9455-4ea2-4e94-ac0e-16ec81c77a43","system_id":"levelo_inurba_marseille","lat":43.301429,"lon":5.37413,"is_reserved":false,"is_disabled":false,"rental_uris":{"android":"levelo://app?vid=895a9455-4ea2-4e94-ac0e-16ec81c77a43","ios":"levelo://app?vid=895a9455-4ea2-4e94-ac0e-16ec81c77a43"},"vehicle_type_id":"4","last_reported":1707678277,"current_range_meters":32000,"station_id":"ce4bgs92rcd13ifvqcc0","pricing_plan_id":"free"},{"bike_id":"f3adfb4d-f0b1-4cf5-b3df-89abfa30c2ac","system_id":"levelo_inurba_marseille","lat":43.301429,"lon":5.37413,"is_reserved":false,"is_disabled":false,"rental_uris":{"android":"levelo://app?vid=f3adfb4d-f0b1-4cf5-b3df-89abfa30c2ac","ios":"levelo://app?vid=f3adfb4d-f0b1-4cf5-b3df-89abfa30c2ac"},"vehicle_type_id":"4","last_reported":1707678277,"current_range_meters":26800,"station_id":"ce4bgs92rcd13ifvqcc0","pricing_plan_id":"free"},{"bike_id":"83e621d3-8454-4a20-a1f9-0d10b3e8bd40","system_id":"levelo_inurba_marseille","lat":43.3014,"lon":5.37421,"is_reserved":false,"is_disabled":false,"rental_uris":{"android":"levelo://app?vid=83e621d3-8454-4a20-a1f9-0d10b3e8bd40","ios":"levelo://app?vid=83e621d3-8454-4a20-a1f9-0d10b3e8bd40"},"vehicle_type_id":"4","last_reported":1707678277,"current_range_meters":30400,"station_id":"ce4bgs92rcd13ifvqcc0","pricing_plan_id":"free"},{"bike_id":"a492622d-1b73-4f05-be17-c275b2336d20","system_id":"levelo_inurba_marseille","lat":43.301429,"lon":5.37413,"is_reserved":false,"is_disabled":false,"rental_uris":{"android":"levelo://app?vid=a492622d-1b73-4f05-be17-c275b2336d20","ios":"levelo://app?vid=a492622d-1b73-4f05-be17-c275b2336d20"},"vehicle_type_id":"4","last_reported":1707678277,"current_range_meters":32000,"station_id":"ce4bgs92rcd13ifvqcc0","pricing_plan_id":"free"},{"bike_id":"a4407cf1-bf9b-4e7e-99af-5cb8a727f781","system_id":"levelo_inurba_marseille","lat":43.302784,"lon":5.377158,"is_reserved":false,"is_disabled":false,"rental_uris":{"android":"levelo://app?vid=a4407cf1-bf9b-4e7e-99af-5cb8a727f781","ios":"levelo://app?vid=a4407cf1-bf9b-4e7e-99af-5cb8a727f781"},"vehicle_type_id":"4","last_reported":1707678277,"current_range_meters":17600,"station_id":"ce4bguh2rcd13ifvqcj0","pricing_plan_id":"free"},{"bike_id":"d6a01b5c-e84d-4b02-8e6b-c8121cfc9693","system_id":"levelo_inurba_marseille","lat":43.301429,"lon":5.37413,"is_reserved":false,"is_disabled":false,"rental_uris":{"android":"levelo://app?vid=d6a01b5c-e84d-4b02-8e6b-c8121cfc9693","ios":"levelo://app?vid=d6a01b5c-e84d-4b02-8e6b-c8121cfc9693"},"vehicle_type_id":"4","last_reported":1707678277,"current_range_meters":16000,"station_id":"ce4bgs92rcd13ifvqcc0","pricing_plan_id":"free"},{"bike_id":"752eb8ef-7106-44a6-af74-1fc5d312ea37","system_id":"levelo_inurba_marseille","lat":43.30138,"lon":5.37424,"is_reserved":false,"is_disabled":false,"rental_uris":{"android":"levelo://app?vid=752eb8ef-7106-44a6-af74-1fc5d312ea37","ios":"levelo://app?vid=752eb8ef-7106-44a6-af74-1fc5d312ea37"},"vehicle_type_id":"4","last_reported":1707678277,"current_range_meters":26000,"station_id":"ce4bgs92rcd13ifvqcc0","pricing_plan_id":"free"},{"bike_id":"52ce10df-218c-4855-ab5a-cd0f3cd6dffb","system_id":"levelo_inurba_marseille","lat":43.319935,"lon":5.381699,"is_reserved":false,"is_disabled":false,"rental_uris":{"android":"levelo://app?vid=52ce10df-218c-4855-ab5a-cd0f3cd6dffb","ios":"levelo://app?vid=52ce10df-218c-4855-ab5a-cd0f3cd6dffb"},"vehicle_type_id":"4","last_reported":1707678277,"current_range_meters":21600,"station_id":"ce4bhr12rcd13ifvqhpg","pricing_plan_id":"free"},{"bike_id":"99712cd2-f2c1-416f-84f6-81ba43b05edd","system_id":"levelo_inurba_marseille","lat":43.319935,"lon":5.381699,"is_reserved":false,"is_disabled":false,"rental_uris":{"android":"levelo://app?vid=99712cd2-f2c1-416f-84f6-81ba43b05edd","ios":"levelo://app?vid=99712cd2-f2c1-416f-84f6-81ba43b05edd"},"vehicle_type_id":"4","last_reported":1707678277,"current_range_meters":3200,"station_id":"ce4bhr12rcd13ifvqhpg","pricing_plan_id":"free"},{"bike_id":"6c7eb289-c43e-402b-a39b-aeff7faf73e6","system_id":"levelo_inurba_marseille","lat":43.304683,"lon":5.38086,"is_reserved":false,"is_disabled":false,"rental_uris":{"android":"levelo://app?vid=6c7eb289-c43e-402b-a39b-aeff7faf73e6","ios":"levelo://app?vid=6c7eb289-c43e-402b-a39b-aeff7faf73e6"},"vehicle_type_id":"4","last_reported":1707678277,"current_range_meters":6000,"station_id":"","pricing_plan_id":"free"},{"bike_id":"197e2d22-1ad5-47b2-8c09-70933158ca5e","system_id":"levelo_inurba_marseille","lat":43.319935,"lon":5.381699,"is_reserved":false,"is_disabled":false,"rental_uris":{"android":"levelo://app?vid=197e2d22-1ad5-47b2-8c09-70933158ca5e","ios":"levelo://app?vid=197e2d22-1ad5-47b2-8c09-70933158ca5e"},"vehicle_type_id":"4","last_reported":1707678277,"current_range_meters":8000,"station_id":"ce4bhr12rcd13ifvqhpg","pricing_plan_id":"free"},{"bike_id":"be1c799f-f2e0-4601-8fad-8037dd77c940","system_id":"levelo_inurba_marseille","lat":43.3008,"lon":5.374285,"is_reserved":false,"is_disabled":false,"rental_uris":{"android":"levelo://app?vid=be1c799f-f2e0-4601-8fad-8037dd77c940","ios":"levelo://app?vid=be1c799f-f2e0-4601-8fad-8037dd77c940"},"vehicle_type_id":"4","last_reported":1707678277,"current_range_meters":2400,"station_id":"ce4bgs92rcd13ifvqcc0","pricing_plan_id":"free"},{"bike_id":"29fa302f-0e29-4792-97e2-6007e6d76038","system_id":"levelo_inurba_marseille","lat":43.31357,"lon":5.384913,"is_reserved":false,"is_disabled":false,"rental_uris":{"android":"levelo://app?vid=29fa302f-0e29-4792-97e2-6007e6d76038","ios":"levelo://app?vid=29fa302f-0e29-4792-97e2-6007e6d76038"},"vehicle_type_id":"4","last_reported":1707678277,"current_range_meters":4400,"station_id":"ce4bgt92rcd13ifvqcf0","pricing_plan_id":"free"},{"bike_id":"27faa43e-a92b-4c0b-9ed4-af8f723af36f","system_id":"levelo_inurba_marseille","lat":43.31355,"lon":5.38495,"is_reserved":false,"is_disabled":false,"rental_uris":{"android":"levelo://app?vid=27faa43e-a92b-4c0b-9ed4-af8f723af36f","ios":"levelo://app?vid=27faa43e-a92b-4c0b-9ed4-af8f723af36f"},"vehicle_type_id":"4","last_reported":1707678277,"current_range_meters":21200,"station_id":"ce4bgt92rcd13ifvqcf0","pricing_plan_id":"free"},{"bike_id":"6c057783-c85b-4dab-b822-99e3a417f811","system_id":"levelo_inurba_marseille","lat":43.31362,"lon":5.38495,"is_reserved":false,"is_disabled":false,"rental_uris":{"android":"levelo://app?vid=6c057783-c85b-4dab-b822-99e3a417f811","ios":"levelo://app?vid=6c057783-c85b-4dab-b822-99e3a417f811"},"vehicle_type_id":"4","last_reported":1707678277,"current_range_meters":3600,"station_id":"ce4bgt92rcd13ifvqcf0","pricing_plan_id":"free"},{"bike_id":"c9866084-ae3a-4556-a3e1-46959bcd694d","system_id":"levelo_inurba_marseille","lat":43.31355,"lon":5.38496,"is_reserved":false,"is_disabled":false,"rental_uris":{"android":"levelo://app?vid=c9866084-ae3a-4556-a3e1-46959bcd694d","ios":"levelo://app?vid=c9866084-ae3a-4556-a3e1-46959bcd694d"},"vehicle_type_id":"4","last_reported":1707678277,"current_range_meters":23200,"station_id":"ce4bgt92rcd13ifvqcf0","pricing_plan_id":"free"},{"bike_id":"e78c935c-6b0a-4ee8-b8e9-4b4ab8005445","system_id":"levelo_inurba_marseille","lat":43.31352,"lon":5.38497,"is_reserved":false,"is_disabled":false,"rental_uris":{"android":"levelo://app?vid=e78c935c-6b0a-4ee8-b8e9-4b4ab8005445","ios":"levelo://app?vid=e78c935c-6b0a-4ee8-b8e9-4b4ab8005445"},"vehicle_type_id":"4","last_reported":1707678277,"current_range_meters":16800,"station_id":"ce4bgt92rcd13ifvqcf0","pricing_plan_id":"free"},{"bike_id":"99562c58-f17d-446f-afb5-48ccc1eb0fbe","system_id":"levelo_inurba_marseille","lat":43.313571,"lon":5.384829,"is_reserved":false,"is_disabled":false,"rental_uris":{"android":"levelo://app?vid=99562c58-f17d-446f-afb5-48ccc1eb0fbe","ios":"levelo://app?vid=99562c58-f17d-446f-afb5-48ccc1eb0fbe"},"vehicle_type_id":"4","last_reported":1707678277,"current_range_meters":16000,"station_id":"ce4bgt92rcd13ifvqcf0","pricing_plan_id":"free"},{"bike_id":"a97e19f4-d5b5-4d13-9f1d-51e548d2fd35","system_id":"levelo_inurba_marseille","lat":43.299222,"lon":5.365554,"is_reserved":false,"is_disabled":false,"rental_uris":{"android":"levelo://app?vid=a97e19f4-d5b5-4d13-9f1d-51e548d2fd35","ios":"levelo://app?vid=a97e19f4-d5b5-4d13-9f1d-51e548d2fd35"},"vehicle_type_id":"4","last_reported":1707678277,"current_range_meters":30400,"station_id":"ce4bgm92rcd13ifvqbr0","pricing_plan_id":"free"},{"bike_id":"6d5fb6ac-b977-4055-bab8-7de00f2476f2","system_id":"levelo_inurba_marseille","lat":43.305364,"lon":5.384119,"is_reserved":false,"is_disabled":false,"rental_uris":{"android":"levelo://app?vid=6d5fb6ac-b977-4055-bab8-7de00f2476f2","ios":"levelo://app?vid=6d5fb6ac-b977-4055-bab8-7de00f2476f2"},"vehicle_type_id":"4","last_reported":1707678277,"current_range_meters":18800,"station_id":"ce4bgg92rcd13ifvqb30","pricing_plan_id":"free"},{"bike_id":"3e7e1748-ed0c-465a-b1f8-17e45577f603","system_id":"levelo_inurba_marseille","lat":43.2986,"lon":5.36282,"is_reserved":false,"is_disabled":false,"rental_uris":{"android":"levelo://app?vid=3e7e1748-ed0c-465a-b1f8-17e45577f603","ios":"levelo://app?vid=3e7e1748-ed0c-465a-b1f8-17e45577f603"},"vehicle_type_id":"4","last_reported":1707678277,"current_range_meters":17200,"station_id":"ce4bgpp2rcd13ifvqc3g","pricing_plan_id":"free"},{"bike_id":"5a8fa001-e3bf-4287-9f59-de66fa4179c0","system_id":"levelo_inurba_marseille","lat":43.311538,"lon":5.386758,"is_reserved":false,"is_disabled":false,"rental_uris":{"android":"levelo://app?vid=5a8fa001-e3bf-4287-9f59-de66fa4179c0","ios":"levelo://app?vid=5a8fa001-e3bf-4287-9f59-de66fa4179c0"},"vehicle_type_id":"4","last_reported":1707678277,"current_range_meters":23200,"station_id":"ce4bgv12rcd13ifvqcp0","pricing_plan_id":"free"},{"bike_id":"d97ad6b6-993b-4065-a40a-c4f51d596cbf","system_id":"levelo_inurba_marseille","lat":43.30536,"lon":5.38408,"is_reserved":false,"is_disabled":false,"rental_uris":{"android":"levelo://app?vid=d97ad6b6-993b-4065-a40a-c4f51d596cbf","ios":"levelo://app?vid=d97ad6b6-993b-4065-a40a-c4f51d596cbf"},"vehicle_type_id":"4","last_reported":1707678277,"current_range_meters":4000,"station_id":"ce4bgg92rcd13ifvqb30","pricing_plan_id":"free"},{"bike_id":"bc9d0828-3280-4632-ba61-6d143638b131","system_id":"levelo_inurba_marseille","lat":43.298527,"lon":5.36288,"is_reserved":false,"is_disabled":false,"rental_uris":{"android":"levelo://app?vid=bc9d0828-3280-4632-ba61-6d143638b131","ios":"levelo://app?vid=bc9d0828-3280-4632-ba61-6d143638b131"},"vehicle_type_id":"4","last_reported":1707678277,"current_range_meters":6800,"station_id":"ce4bgpp2rcd13ifvqc3g","pricing_plan_id":"free"},{"bike_id":"1195e01a-b78d-433f-b86a-b6c35dd72bde","system_id":"levelo_inurba_marseille","lat":43.298433,"lon":5.362774,"is_reserved":false,"is_disabled":false,"rental_uris":{"android":"levelo://app?vid=1195e01a-b78d-433f-b86a-b6c35dd72bde","ios":"levelo://app?vid=1195e01a-b78d-433f-b86a-b6c35dd72bde"},"vehicle_type_id":"4","last_reported":1707678277,"current_range_meters":12000,"station_id":"ce4bgpp2rcd13ifvqc3g","pricing_plan_id":"free"},{"bike_id":"e27a2d58-5ece-40b2-ad99-3da71becd743","system_id":"levelo_inurba_marseille","lat":43.298433,"lon":5.362774,"is_reserved":false,"is_disabled":false,"rental_uris":{"android":"levelo://app?vid=e27a2d58-5ece-40b2-ad99-3da71becd743","ios":"levelo://app?vid=e27a2d58-5ece-40b2-ad99-3da71becd743"},"vehicle_type_id":"4","last_reported":1707678277,"current_range_meters":22400,"station_id":"ce4bgpp2rcd13ifvqc3g","pricing_plan_id":"free"},{"bike_id":"f8ac3af1-4ae1-47ef-9d52-91500b383ae0","system_id":"levelo_inurba_marseille","lat":43.298433,"lon":5.362774,"is_reserved":false,"is_disabled":false,"rental_uris":{"android":"levelo://app?vid=f8ac3af1-4ae1-47ef-9d52-91500b383ae0","ios":"levelo://app?vid=f8ac3af1-4ae1-47ef-9d52-91500b383ae0"},"vehicle_type_id":"4","last_reported":1707678277,"current_range_meters":6000,"station_id":"ce4bgpp2rcd13ifvqc3g","pricing_plan_id":"free"},{"bike_id":"98175b50-be0e-4de5-af25-47bcd195a9d6","system_id":"levelo_inurba_marseille","lat":43.298433,"lon":5.362774,"is_reserved":false,"is_disabled":false,"rental_uris":{"android":"levelo://app?vid=98175b50-be0e-4de5-af25-47bcd195a9d6","ios":"levelo://app?vid=98175b50-be0e-4de5-af25-47bcd195a9d6"},"vehicle_type_id":"4","last_reported":1707678277,"current_range_meters":400,"station_id":"ce4bgpp2rcd13ifvqc3g","pricing_plan_id":"free"},{"bike_id":"c71c9cad-6e8e-4ec1-99de-fbad1a852b26","system_id":"levelo_inurba_marseille","lat":43.30543,"lon":5.38423,"is_reserved":false,"is_disabled":false,"rental_uris":{"android":"levelo://app?vid=c71c9cad-6e8e-4ec1-99de-fbad1a852b26","ios":"levelo://app?vid=c71c9cad-6e8e-4ec1-99de-fbad1a852b26"},"vehicle_type_id":"4","last_reported":1707678277,"current_range_meters":2800,"station_id":"ce4bgg92rcd13ifvqb30","pricing_plan_id":"free"},{"bike_id":"4bdc0a10-c0d9-4a3a-9f6a-30d017562484","system_id":"levelo_inurba_marseille","lat":43.305364,"lon":5.384119,"is_reserved":false,"is_disabled":false,"rental_uris":{"android":"levelo://app?vid=4bdc0a10-c0d9-4a3a-9f6a-30d017562484","ios":"levelo://app?vid=4bdc0a10-c0d9-4a3a-9f6a-30d017562484"},"vehicle_type_id":"4","last_reported":1707678277,"current_range_meters":20000,"station_id":"ce4bgg92rcd13ifvqb30","pricing_plan_id":"free"},{"bike_id":"3687409d-1ec2-4e0e-9465-62d5a29940cf","system_id":"levelo_inurba_marseille","lat":43.305434,"lon":5.384303,"is_reserved":false,"is_disabled":false,"rental_uris":{"android":"levelo://app?vid=3687409d-1ec2-4e0e-9465-62d5a29940cf","ios":"levelo://app?vid=3687409d-1ec2-4e0e-9465-62d5a29940cf"},"vehicle_type_id":"4","last_reported":1707678277,"current_range_meters":400,"station_id":"ce4bgg92rcd13ifvqb30","pricing_plan_id":"free"},{"bike_id":"30f1c71a-5b86-43d8-8c4f-38e452e0a4e0","system_id":"levelo_inurba_marseille","lat":43.30545,"lon":5.38433,"is_reserved":false,"is_disabled":false,"rental_uris":{"android":"levelo://app?vid=30f1c71a-5b86-43d8-8c4f-38e452e0a4e0","ios":"levelo://app?vid=30f1c71a-5b86-43d8-8c4f-38e452e0a4e0"},"vehicle_type_id":"4","last_reported":1707678277,"current_range_meters":20800,"station_id":"ce4bgg92rcd13ifvqb30","pricing_plan_id":"free"},{"bike_id":"71237215-a326-452a-8768-c37488ebb3fe","system_id":"levelo_inurba_marseille","lat":43.29922,"lon":5.37481,"is_reserved":false,"is_disabled":false,"rental_uris":{"android":"levelo://app?vid=71237215-a326-452a-8768-c37488ebb3fe","ios":"levelo://app?vid=71237215-a326-452a-8768-c37488ebb3fe"},"vehicle_type_id":"4","last_reported":1707678277,"current_range_meters":0,"station_id":"ce4bgjh2rcd13ifvqbg0","pricing_plan_id":"free"},{"bike_id":"ec59099c-fc38-41a9-b439-48a237da8f46","system_id":"levelo_inurba_marseille","lat":43.311722,"lon":5.387247,"is_reserved":false,"is_disabled":false,"rental_uris":{"android":"levelo://app?vid=ec59099c-fc38-41a9-b439-48a237da8f46","ios":"levelo://app?vid=ec59099c-fc38-41a9-b439-48a237da8f46"},"vehicle_type_id":"4","last_reported":1707678277,"current_range_meters":13200,"station_id":"ce4bgv12rcd13ifvqcp0","pricing_plan_id":"free"},{"bike_id":"3a7bf326-2d9b-43e7-a2e8-8a2942dba2d5","system_id":"levelo_inurba_marseille","lat":43.311722,"lon":5.387247,"is_reserved":false,"is_disabled":false,"rental_uris":{"android":"levelo://app?vid=3a7bf326-2d9b-43e7-a2e8-8a2942dba2d5","ios":"levelo://app?vid=3a7bf326-2d9b-43e7-a2e8-8a2942dba2d5"},"vehicle_type_id":"4","last_reported":1707678277,"current_range_meters":24800,"station_id":"ce4bgv12rcd13ifvqcp0","pricing_plan_id":"free"},{"bike_id":"7999cd9d-715b-4472-b38b-a97b867fae6f","system_id":"levelo_inurba_marseille","lat":43.297794,"lon":5.370888,"is_reserved":false,"is_disabled":false,"rental_uris":{"android":"levelo://app?vid=7999cd9d-715b-4472-b38b-a97b867fae6f","ios":"levelo://app?vid=7999cd9d-715b-4472-b38b-a97b867fae6f"},"vehicle_type_id":"4","last_reported":1707678277,"current_range_meters":3600,"station_id":"ce4bgop2rcd13ifvqc1g","pricing_plan_id":"free"},{"bike_id":"7f3fb8f5-0f0c-45f1-9b91-184855e5a9cc","system_id":"levelo_inurba_marseille","lat":43.327937,"lon":5.366865,"is_reserved":false,"is_disabled":false,"rental_uris":{"android":"levelo://app?vid=7f3fb8f5-0f0c-45f1-9b91-184855e5a9cc","ios":"levelo://app?vid=7f3fb8f5-0f0c-45f1-9b91-184855e5a9cc"},"vehicle_type_id":"4","last_reported":1707678277,"current_range_meters":25600,"station_id":"","pricing_plan_id":"free"},{"bike_id":"e0ae28cb-e2ff-400b-ae6d-f231ee2bed82","system_id":"levelo_inurba_marseille","lat":43.297794,"lon":5.370888,"is_reserved":false,"is_disabled":false,"rental_uris":{"android":"levelo://app?vid=e0ae28cb-e2ff-400b-ae6d-f231ee2bed82","ios":"levelo://app?vid=e0ae28cb-e2ff-400b-ae6d-f231ee2bed82"},"vehicle_type_id":"4","last_reported":1707678277,"current_range_meters":400,"station_id":"ce4bgop2rcd13ifvqc1g","pricing_plan_id":"free"},{"bike_id":"e5750477-e3f2-40a2-b1f6-91d5216398f6","system_id":"levelo_inurba_marseille","lat":43.322872,"lon":5.382756,"is_reserved":false,"is_disabled":false,"rental_uris":{"android":"levelo://app?vid=e5750477-e3f2-40a2-b1f6-91d5216398f6","ios":"levelo://app?vid=e5750477-e3f2-40a2-b1f6-91d5216398f6"},"vehicle_type_id":"4","last_reported":1707678277,"current_range_meters":28000,"station_id":"ce4bhr12rcd13ifvqhqg","pricing_plan_id":"free"},{"bike_id":"c3332315-777e-4af8-b68a-18a46d9c4f28","system_id":"levelo_inurba_marseille","lat":43.322872,"lon":5.382756,"is_reserved":false,"is_disabled":false,"rental_uris":{"android":"levelo://app?vid=c3332315-777e-4af8-b68a-18a46d9c4f28","ios":"levelo://app?vid=c3332315-777e-4af8-b68a-18a46d9c4f28"},"vehicle_type_id":"4","last_reported":1707678277,"current_range_meters":30800,"station_id":"ce4bhr12rcd13ifvqhqg","pricing_plan_id":"free"},{"bike_id":"7c59bca1-a347-4cb9-b145-64f6481277fc","system_id":"levelo_inurba_marseille","lat":43.322872,"lon":5.382756,"is_reserved":false,"is_disabled":false,"rental_uris":{"android":"levelo://app?vid=7c59bca1-a347-4cb9-b145-64f6481277fc","ios":"levelo://app?vid=7c59bca1-a347-4cb9-b145-64f6481277fc"},"vehicle_type_id":"4","last_reported":1707678277,"current_range_meters":31200,"station_id":"ce4bhr12rcd13ifvqhqg","pricing_plan_id":"free"},{"bike_id":"1a584bd8-d11f-429e-88a7-aaed7dc1afb6","system_id":"levelo_inurba_marseille","lat":43.322872,"lon":5.382756,"is_reserved":false,"is_disabled":false,"rental_uris":{"android":"levelo://app?vid=1a584bd8-d11f-429e-88a7-aaed7dc1afb6","ios":"levelo://app?vid=1a584bd8-d11f-429e-88a7-aaed7dc1afb6"},"vehicle_type_id":"4","last_reported":1707678277,"current_range_meters":1200,"station_id":"ce4bhr12rcd13ifvqhqg","pricing_plan_id":"free"},{"bike_id":"d974a6e6-7f9c-40ba-b257-f1959c183003","system_id":"levelo_inurba_marseille","lat":43.32809,"lon":5.366856,"is_reserved":false,"is_disabled":false,"rental_uris":{"android":"levelo://app?vid=d974a6e6-7f9c-40ba-b257-f1959c183003","ios":"levelo://app?vid=d974a6e6-7f9c-40ba-b257-f1959c183003"},"vehicle_type_id":"4","last_reported":1707678277,"current_range_meters":12400,"station_id":"","pricing_plan_id":"free"},{"bike_id":"c780842c-e95f-47ff-a149-ed36c8a413db","system_id":"levelo_inurba_marseille","lat":43.322872,"lon":5.382756,"is_reserved":false,"is_disabled":false,"rental_uris":{"android":"levelo://app?vid=c780842c-e95f-47ff-a149-ed36c8a413db","ios":"levelo://app?vid=c780842c-e95f-47ff-a149-ed36c8a413db"},"vehicle_type_id":"4","last_reported":1707678277,"current_range_meters":31600,"station_id":"ce4bhr12rcd13ifvqhqg","pricing_plan_id":"free"},{"bike_id":"abd329cb-35b6-432f-a467-7e380a9ce776","system_id":"levelo_inurba_marseille","lat":43.322872,"lon":5.382756,"is_reserved":false,"is_disabled":false,"rental_uris":{"android":"levelo://app?vid=abd329cb-35b6-432f-a467-7e380a9ce776","ios":"levelo://app?vid=abd329cb-35b6-432f-a467-7e380a9ce776"},"vehicle_type_id":"4","last_reported":1707678277,"current_range_meters":6000,"station_id":"ce4bhr12rcd13ifvqhqg","pricing_plan_id":"free"},{"bike_id":"33170a3c-d249-42cf-a23e-db8cbeecfd39","system_id":"levelo_inurba_marseille","lat":43.322872,"lon":5.382756,"is_reserved":false,"is_disabled":false,"rental_uris":{"android":"levelo://app?vid=33170a3c-d249-42cf-a23e-db8cbeecfd39","ios":"levelo://app?vid=33170a3c-d249-42cf-a23e-db8cbeecfd39"},"vehicle_type_id":"4","last_reported":1707678277,"current_range_meters":14400,"station_id":"ce4bhr12rcd13ifvqhqg","pricing_plan_id":"free"},{"bike_id":"1a66b616-9202-459b-a728-2ec0d016a489","system_id":"levelo_inurba_marseille","lat":43.322872,"lon":5.382756,"is_reserved":false,"is_disabled":false,"rental_uris":{"android":"levelo://app?vid=1a66b616-9202-459b-a728-2ec0d016a489","ios":"levelo://app?vid=1a66b616-9202-459b-a728-2ec0d016a489"},"vehicle_type_id":"4","last_reported":1707678277,"current_range_meters":1600,"station_id":"ce4bhr12rcd13ifvqhqg","pricing_plan_id":"free"},{"bike_id":"d16915ab-365b-49c0-8e2e-1059f74f084d","system_id":"levelo_inurba_marseille","lat":43.322872,"lon":5.382756,"is_reserved":false,"is_disabled":false,"rental_uris":{"android":"levelo://app?vid=d16915ab-365b-49c0-8e2e-1059f74f084d","ios":"levelo://app?vid=d16915ab-365b-49c0-8e2e-1059f74f084d"},"vehicle_type_id":"4","last_reported":1707678277,"current_range_meters":27200,"station_id":"ce4bhr12rcd13ifvqhqg","pricing_plan_id":"free"},{"bike_id":"2ac1f315-5daf-4bcd-9ff8-b6cb88127386","system_id":"levelo_inurba_marseille","lat":43.322872,"lon":5.382756,"is_reserved":false,"is_disabled":false,"rental_uris":{"android":"levelo://app?vid=2ac1f315-5daf-4bcd-9ff8-b6cb88127386","ios":"levelo://app?vid=2ac1f315-5daf-4bcd-9ff8-b6cb88127386"},"vehicle_type_id":"4","last_reported":1707678277,"current_range_meters":4400,"station_id":"ce4bhr12rcd13ifvqhqg","pricing_plan_id":"free"},{"bike_id":"64013356-5f58-47c1-bf3d-bed7335409fd","system_id":"levelo_inurba_marseille","lat":43.32819,"lon":5.36673,"is_reserved":false,"is_disabled":false,"rental_uris":{"android":"levelo://app?vid=64013356-5f58-47c1-bf3d-bed7335409fd","ios":"levelo://app?vid=64013356-5f58-47c1-bf3d-bed7335409fd"},"vehicle_type_id":"4","last_reported":1707678277,"current_range_meters":23600,"station_id":"ce4bhs92rcd13ifvqi0g","pricing_plan_id":"free"},{"bike_id":"9dc43126-690c-4033-80cc-d8c45967e0b8","system_id":"levelo_inurba_marseille","lat":43.328214,"lon":5.366829,"is_reserved":false,"is_disabled":false,"rental_uris":{"android":"levelo://app?vid=9dc43126-690c-4033-80cc-d8c45967e0b8","ios":"levelo://app?vid=9dc43126-690c-4033-80cc-d8c45967e0b8"},"vehicle_type_id":"4","last_reported":1707678277,"current_range_meters":24400,"station_id":"ce4bhs92rcd13ifvqi0g","pricing_plan_id":"free"},{"bike_id":"9aa15d81-4547-4dcd-a953-444d2c97f15f","system_id":"levelo_inurba_marseille","lat":43.32822,"lon":5.36679,"is_reserved":false,"is_disabled":false,"rental_uris":{"android":"levelo://app?vid=9aa15d81-4547-4dcd-a953-444d2c97f15f","ios":"levelo://app?vid=9aa15d81-4547-4dcd-a953-444d2c97f15f"},"vehicle_type_id":"4","last_reported":1707678277,"current_range_meters":3600,"station_id":"ce4bhs92rcd13ifvqi0g","pricing_plan_id":"free"},{"bike_id":"a44933ef-03a0-4282-9ff6-bcc91878fda0","system_id":"levelo_inurba_marseille","lat":43.328223,"lon":5.366815,"is_reserved":false,"is_disabled":false,"rental_uris":{"android":"levelo://app?vid=a44933ef-03a0-4282-9ff6-bcc91878fda0","ios":"levelo://app?vid=a44933ef-03a0-4282-9ff6-bcc91878fda0"},"vehicle_type_id":"4","last_reported":1707678277,"current_range_meters":11600,"station_id":"ce4bhs92rcd13ifvqi0g","pricing_plan_id":"free"},{"bike_id":"c7a4a93f-e9ae-4e04-8011-441e8455160b","system_id":"levelo_inurba_marseille","lat":43.328267,"lon":5.366844,"is_reserved":false,"is_disabled":false,"rental_uris":{"android":"levelo://app?vid=c7a4a93f-e9ae-4e04-8011-441e8455160b","ios":"levelo://app?vid=c7a4a93f-e9ae-4e04-8011-441e8455160b"},"vehicle_type_id":"4","last_reported":1707678277,"current_range_meters":23600,"station_id":"ce4bhs92rcd13ifvqi0g","pricing_plan_id":"free"},{"bike_id":"e4aa0c2e-eb2c-4a01-8f5f-8899f6b1b542","system_id":"levelo_inurba_marseille","lat":43.32827,"lon":5.3668,"is_reserved":false,"is_disabled":false,"rental_uris":{"android":"levelo://app?vid=e4aa0c2e-eb2c-4a01-8f5f-8899f6b1b542","ios":"levelo://app?vid=e4aa0c2e-eb2c-4a01-8f5f-8899f6b1b542"},"vehicle_type_id":"4","last_reported":1707678277,"current_range_meters":14000,"station_id":"ce4bhs92rcd13ifvqi0g","pricing_plan_id":"free"},{"bike_id":"da6e96c9-61f4-42f7-98c7-23a5dd698b48","system_id":"levelo_inurba_marseille","lat":43.32828,"lon":5.36684,"is_reserved":false,"is_disabled":false,"rental_uris":{"android":"levelo://app?vid=da6e96c9-61f4-42f7-98c7-23a5dd698b48","ios":"levelo://app?vid=da6e96c9-61f4-42f7-98c7-23a5dd698b48"},"vehicle_type_id":"4","last_reported":1707678277,"current_range_meters":15200,"station_id":"ce4bhs92rcd13ifvqi0g","pricing_plan_id":"free"},{"bike_id":"b920af76-ba6d-4698-b709-7b37d3d70e64","system_id":"levelo_inurba_marseille","lat":43.32828,"lon":5.36677,"is_reserved":false,"is_disabled":false,"rental_uris":{"android":"levelo://app?vid=b920af76-ba6d-4698-b709-7b37d3d70e64","ios":"levelo://app?vid=b920af76-ba6d-4698-b709-7b37d3d70e64"},"vehicle_type_id":"4","last_reported":1707678277,"current_range_meters":6800,"station_id":"ce4bhs92rcd13ifvqi0g","pricing_plan_id":"free"},{"bike_id":"de562f14-ffaa-41a8-9815-6c8ff06728a2","system_id":"levelo_inurba_marseille","lat":43.32829,"lon":5.36674,"is_reserved":false,"is_disabled":false,"rental_uris":{"android":"levelo://app?vid=de562f14-ffaa-41a8-9815-6c8ff06728a2","ios":"levelo://app?vid=de562f14-ffaa-41a8-9815-6c8ff06728a2"},"vehicle_type_id":"4","last_reported":1707678277,"current_range_meters":22400,"station_id":"ce4bhs92rcd13ifvqi0g","pricing_plan_id":"free"},{"bike_id":"03730dd5-0a88-4239-8528-528347df93a2","system_id":"levelo_inurba_marseille","lat":43.328371,"lon":5.366909,"is_reserved":false,"is_disabled":false,"rental_uris":{"android":"levelo://app?vid=03730dd5-0a88-4239-8528-528347df93a2","ios":"levelo://app?vid=03730dd5-0a88-4239-8528-528347df93a2"},"vehicle_type_id":"4","last_reported":1707678277,"current_range_meters":11200,"station_id":"ce4bhs92rcd13ifvqi0g","pricing_plan_id":"free"},{"bike_id":"1f8bcc96-199c-401e-a00d-ac34b60c808b","system_id":"levelo_inurba_marseille","lat":43.328371,"lon":5.366912,"is_reserved":false,"is_disabled":false,"rental_uris":{"android":"levelo://app?vid=1f8bcc96-199c-401e-a00d-ac34b60c808b","ios":"levelo://app?vid=1f8bcc96-199c-401e-a00d-ac34b60c808b"},"vehicle_type_id":"4","last_reported":1707678277,"current_range_meters":7600,"station_id":"ce4bhs92rcd13ifvqi0g","pricing_plan_id":"free"},{"bike_id":"d943f78e-789e-431a-995e-3eed392a937f","system_id":"levelo_inurba_marseille","lat":43.2968,"lon":5.37291,"is_reserved":false,"is_disabled":false,"rental_uris":{"android":"levelo://app?vid=d943f78e-789e-431a-995e-3eed392a937f","ios":"levelo://app?vid=d943f78e-789e-431a-995e-3eed392a937f"},"vehicle_type_id":"4","last_reported":1707678277,"current_range_meters":5600,"station_id":"ce4bgk12rcd13ifvqbj0","pricing_plan_id":"free"},{"bike_id":"4470abb7-3b7b-4b86-a889-a84a6b2e1377","system_id":"levelo_inurba_marseille","lat":43.2968,"lon":5.37291,"is_reserved":false,"is_disabled":false,"rental_uris":{"android":"levelo://app?vid=4470abb7-3b7b-4b86-a889-a84a6b2e1377","ios":"levelo://app?vid=4470abb7-3b7b-4b86-a889-a84a6b2e1377"},"vehicle_type_id":"4","last_reported":1707678277,"current_range_meters":8000,"station_id":"ce4bgk12rcd13ifvqbj0","pricing_plan_id":"free"},{"bike_id":"a17d3e61-970e-4901-8a05-0d7ee4ccb5f2","system_id":"levelo_inurba_marseille","lat":43.29881,"lon":5.38049,"is_reserved":false,"is_disabled":false,"rental_uris":{"android":"levelo://app?vid=a17d3e61-970e-4901-8a05-0d7ee4ccb5f2","ios":"levelo://app?vid=a17d3e61-970e-4901-8a05-0d7ee4ccb5f2"},"vehicle_type_id":"4","last_reported":1707678277,"current_range_meters":30400,"station_id":"ce4bgip2rcd13ifvqbb0","pricing_plan_id":"free"},{"bike_id":"aa06a3c3-6e98-4917-b2d4-7a01111ceb84","system_id":"levelo_inurba_marseille","lat":43.299028,"lon":5.381509,"is_reserved":false,"is_disabled":false,"rental_uris":{"android":"levelo://app?vid=aa06a3c3-6e98-4917-b2d4-7a01111ceb84","ios":"levelo://app?vid=aa06a3c3-6e98-4917-b2d4-7a01111ceb84"},"vehicle_type_id":"4","last_reported":1707678277,"current_range_meters":24000,"station_id":"ce4bgj12rcd13ifvqbc0","pricing_plan_id":"free"},{"bike_id":"8d8c9c1c-2d2c-4404-8762-58173d2726ed","system_id":"levelo_inurba_marseille","lat":43.299086,"lon":5.381471,"is_reserved":false,"is_disabled":false,"rental_uris":{"android":"levelo://app?vid=8d8c9c1c-2d2c-4404-8762-58173d2726ed","ios":"levelo://app?vid=8d8c9c1c-2d2c-4404-8762-58173d2726ed"},"vehicle_type_id":"4","last_reported":1707678277,"current_range_meters":16400,"station_id":"ce4bgj12rcd13ifvqbc0","pricing_plan_id":"free"},{"bike_id":"619d98cc-52f7-4db8-839f-12df414af351","system_id":"levelo_inurba_marseille","lat":43.296921,"lon":5.376579,"is_reserved":false,"is_disabled":false,"rental_uris":{"android":"levelo://app?vid=619d98cc-52f7-4db8-839f-12df414af351","ios":"levelo://app?vid=619d98cc-52f7-4db8-839f-12df414af351"},"vehicle_type_id":"4","last_reported":1707678277,"current_range_meters":3200,"station_id":"ce4bgkh2rcd13ifvqbl0","pricing_plan_id":"free"},{"bike_id":"ee0d887c-1664-47cd-b52f-b1ea76ce7783","system_id":"levelo_inurba_marseille","lat":43.299028,"lon":5.381509,"is_reserved":false,"is_disabled":false,"rental_uris":{"android":"levelo://app?vid=ee0d887c-1664-47cd-b52f-b1ea76ce7783","ios":"levelo://app?vid=ee0d887c-1664-47cd-b52f-b1ea76ce7783"},"vehicle_type_id":"4","last_reported":1707678277,"current_range_meters":28800,"station_id":"ce4bgj12rcd13ifvqbc0","pricing_plan_id":"free"},{"bike_id":"62d9b70d-20e9-461e-9fa1-fe92ddd70343","system_id":"levelo_inurba_marseille","lat":43.317557,"lon":5.390173,"is_reserved":false,"is_disabled":false,"rental_uris":{"android":"levelo://app?vid=62d9b70d-20e9-461e-9fa1-fe92ddd70343","ios":"levelo://app?vid=62d9b70d-20e9-461e-9fa1-fe92ddd70343"},"vehicle_type_id":"4","last_reported":1707678277,"current_range_meters":31200,"station_id":"ce4bhqp2rcd13ifvqhng","pricing_plan_id":"free"},{"bike_id":"7e213e69-5b20-4804-9d06-4ccb7e874be7","system_id":"levelo_inurba_marseille","lat":43.317557,"lon":5.390173,"is_reserved":false,"is_disabled":false,"rental_uris":{"android":"levelo://app?vid=7e213e69-5b20-4804-9d06-4ccb7e874be7","ios":"levelo://app?vid=7e213e69-5b20-4804-9d06-4ccb7e874be7"},"vehicle_type_id":"4","last_reported":1707678277,"current_range_meters":31200,"station_id":"ce4bhqp2rcd13ifvqhng","pricing_plan_id":"free"},{"bike_id":"f8f26627-5dd7-4b3f-b85c-727acf6e9cf7","system_id":"levelo_inurba_marseille","lat":43.305994,"lon":5.393687,"is_reserved":false,"is_disabled":false,"rental_uris":{"android":"levelo://app?vid=f8f26627-5dd7-4b3f-b85c-727acf6e9cf7","ios":"levelo://app?vid=f8f26627-5dd7-4b3f-b85c-727acf6e9cf7"},"vehicle_type_id":"4","last_reported":1707678277,"current_range_meters":800,"station_id":"ce4bh0p2rcd13ifvqd80","pricing_plan_id":"free"},{"bike_id":"094ad5ed-15b5-4b8e-9769-6e4dfda97318","system_id":"levelo_inurba_marseille","lat":43.317557,"lon":5.390173,"is_reserved":false,"is_disabled":false,"rental_uris":{"android":"levelo://app?vid=094ad5ed-15b5-4b8e-9769-6e4dfda97318","ios":"levelo://app?vid=094ad5ed-15b5-4b8e-9769-6e4dfda97318"},"vehicle_type_id":"4","last_reported":1707678277,"current_range_meters":20400,"station_id":"ce4bhqp2rcd13ifvqhng","pricing_plan_id":"free"},{"bike_id":"67efdba0-0bcf-4b33-890e-ad8d5361d77a","system_id":"levelo_inurba_marseille","lat":43.29799,"lon":5.38113,"is_reserved":false,"is_disabled":false,"rental_uris":{"android":"levelo://app?vid=67efdba0-0bcf-4b33-890e-ad8d5361d77a","ios":"levelo://app?vid=67efdba0-0bcf-4b33-890e-ad8d5361d77a"},"vehicle_type_id":"4","last_reported":1707678277,"current_range_meters":6000,"station_id":"ce4bgip2rcd13ifvqbb0","pricing_plan_id":"free"},{"bike_id":"63b1cca5-cf5e-4843-963a-e34bda4dac53","system_id":"levelo_inurba_marseille","lat":43.29798,"lon":5.38113,"is_reserved":false,"is_disabled":false,"rental_uris":{"android":"levelo://app?vid=63b1cca5-cf5e-4843-963a-e34bda4dac53","ios":"levelo://app?vid=63b1cca5-cf5e-4843-963a-e34bda4dac53"},"vehicle_type_id":"4","last_reported":1707678277,"current_range_meters":400,"station_id":"ce4bgip2rcd13ifvqbb0","pricing_plan_id":"free"},{"bike_id":"eb6d73d1-bc6d-4ff6-8696-13f59f36e4b4","system_id":"levelo_inurba_marseille","lat":43.298037,"lon":5.381066,"is_reserved":false,"is_disabled":false,"rental_uris":{"android":"levelo://app?vid=eb6d73d1-bc6d-4ff6-8696-13f59f36e4b4","ios":"levelo://app?vid=eb6d73d1-bc6d-4ff6-8696-13f59f36e4b4"},"vehicle_type_id":"4","last_reported":1707678277,"current_range_meters":5600,"station_id":"ce4bgip2rcd13ifvqbb0","pricing_plan_id":"free"},{"bike_id":"44c9b91d-d9b0-467e-9eea-c5c25b42635c","system_id":"levelo_inurba_marseille","lat":43.29788,"lon":5.38095,"is_reserved":false,"is_disabled":false,"rental_uris":{"android":"levelo://app?vid=44c9b91d-d9b0-467e-9eea-c5c25b42635c","ios":"levelo://app?vid=44c9b91d-d9b0-467e-9eea-c5c25b42635c"},"vehicle_type_id":"4","last_reported":1707678277,"current_range_meters":30400,"station_id":"ce4bgip2rcd13ifvqbb0","pricing_plan_id":"free"},{"bike_id":"ed23972c-a33e-4764-ad86-495a056bee53","system_id":"levelo_inurba_marseille","lat":43.29792,"lon":5.38103,"is_reserved":false,"is_disabled":false,"rental_uris":{"android":"levelo://app?vid=ed23972c-a33e-4764-ad86-495a056bee53","ios":"levelo://app?vid=ed23972c-a33e-4764-ad86-495a056bee53"},"vehicle_type_id":"4","last_reported":1707678277,"current_range_meters":2800,"station_id":"ce4bgip2rcd13ifvqbb0","pricing_plan_id":"free"},{"bike_id":"e341df3d-a4ee-4a35-99c2-8d03af1c8fe8","system_id":"levelo_inurba_marseille","lat":43.30428,"lon":5.38886,"is_reserved":false,"is_disabled":false,"rental_uris":{"android":"levelo://app?vid=e341df3d-a4ee-4a35-99c2-8d03af1c8fe8","ios":"levelo://app?vid=e341df3d-a4ee-4a35-99c2-8d03af1c8fe8"},"vehicle_type_id":"4","last_reported":1707678277,"current_range_meters":10000,"station_id":"ce4bgk12rcd13ifvqbi0","pricing_plan_id":"free"},{"bike_id":"8210a162-8f98-43fb-a7a5-6f187abae732","system_id":"levelo_inurba_marseille","lat":43.295748,"lon":5.37522,"is_reserved":false,"is_disabled":false,"rental_uris":{"android":"levelo://app?vid=8210a162-8f98-43fb-a7a5-6f187abae732","ios":"levelo://app?vid=8210a162-8f98-43fb-a7a5-6f187abae732"},"vehicle_type_id":"4","last_reported":1707678277,"current_range_meters":10800,"station_id":"ce4bgh92rcd13ifvqb50","pricing_plan_id":"free"},{"bike_id":"d3fb5fde-7426-4521-a132-e32bb22688c7","system_id":"levelo_inurba_marseille","lat":43.29791,"lon":5.38115,"is_reserved":false,"is_disabled":false,"rental_uris":{"android":"levelo://app?vid=d3fb5fde-7426-4521-a132-e32bb22688c7","ios":"levelo://app?vid=d3fb5fde-7426-4521-a132-e32bb22688c7"},"vehicle_type_id":"4","last_reported":1707678277,"current_range_meters":8800,"station_id":"ce4bgip2rcd13ifvqbb0","pricing_plan_id":"free"},{"bike_id":"139d53e4-9567-4cdb-9eca-28bd24951f43","system_id":"levelo_inurba_marseille","lat":43.30429,"lon":5.3889,"is_reserved":false,"is_disabled":false,"rental_uris":{"android":"levelo://app?vid=139d53e4-9567-4cdb-9eca-28bd24951f43","ios":"levelo://app?vid=139d53e4-9567-4cdb-9eca-28bd24951f43"},"vehicle_type_id":"4","last_reported":1707678277,"current_range_meters":12800,"station_id":"ce4bgk12rcd13ifvqbi0","pricing_plan_id":"free"},{"bike_id":"444620b2-1674-422d-aba4-03a4e098067f","system_id":"levelo_inurba_marseille","lat":43.304278,"lon":5.388868,"is_reserved":false,"is_disabled":false,"rental_uris":{"android":"levelo://app?vid=444620b2-1674-422d-aba4-03a4e098067f","ios":"levelo://app?vid=444620b2-1674-422d-aba4-03a4e098067f"},"vehicle_type_id":"4","last_reported":1707678277,"current_range_meters":10400,"station_id":"ce4bgk12rcd13ifvqbi0","pricing_plan_id":"free"},{"bike_id":"6ddc2526-3530-4f70-8f02-95c192ffd900","system_id":"levelo_inurba_marseille","lat":43.30418,"lon":5.38885,"is_reserved":false,"is_disabled":false,"rental_uris":{"android":"levelo://app?vid=6ddc2526-3530-4f70-8f02-95c192ffd900","ios":"levelo://app?vid=6ddc2526-3530-4f70-8f02-95c192ffd900"},"vehicle_type_id":"4","last_reported":1707678277,"current_range_meters":10400,"station_id":"ce4bgk12rcd13ifvqbi0","pricing_plan_id":"free"},{"bike_id":"d5413795-9c4b-4140-b9db-61af6d3bb003","system_id":"levelo_inurba_marseille","lat":43.29561,"lon":5.37499,"is_reserved":false,"is_disabled":false,"rental_uris":{"android":"levelo://app?vid=d5413795-9c4b-4140-b9db-61af6d3bb003","ios":"levelo://app?vid=d5413795-9c4b-4140-b9db-61af6d3bb003"},"vehicle_type_id":"4","last_reported":1707678277,"current_range_meters":20000,"station_id":"ce4bgh92rcd13ifvqb50","pricing_plan_id":"free"},{"bike_id":"39bca349-4760-473a-b4a5-2672a208ad3d","system_id":"levelo_inurba_marseille","lat":43.30428,"lon":5.38896,"is_reserved":false,"is_disabled":false,"rental_uris":{"android":"levelo://app?vid=39bca349-4760-473a-b4a5-2672a208ad3d","ios":"levelo://app?vid=39bca349-4760-473a-b4a5-2672a208ad3d"},"vehicle_type_id":"4","last_reported":1707678277,"current_range_meters":9600,"station_id":"ce4bgk12rcd13ifvqbi0","pricing_plan_id":"free"},{"bike_id":"30467003-4a8a-4ac9-933e-1b9cdc65b5c2","system_id":"levelo_inurba_marseille","lat":43.295748,"lon":5.37522,"is_reserved":false,"is_disabled":false,"rental_uris":{"android":"levelo://app?vid=30467003-4a8a-4ac9-933e-1b9cdc65b5c2","ios":"levelo://app?vid=30467003-4a8a-4ac9-933e-1b9cdc65b5c2"},"vehicle_type_id":"4","last_reported":1707678277,"current_range_meters":28000,"station_id":"ce4bgh92rcd13ifvqb50","pricing_plan_id":"free"},{"bike_id":"c7232607-0fd1-4a8b-b35a-4e1861be8992","system_id":"levelo_inurba_marseille","lat":43.30427,"lon":5.389,"is_reserved":false,"is_disabled":false,"rental_uris":{"android":"levelo://app?vid=c7232607-0fd1-4a8b-b35a-4e1861be8992","ios":"levelo://app?vid=c7232607-0fd1-4a8b-b35a-4e1861be8992"},"vehicle_type_id":"4","last_reported":1707678277,"current_range_meters":13600,"station_id":"ce4bgk12rcd13ifvqbi0","pricing_plan_id":"free"},{"bike_id":"4f6dfd45-3ad4-494c-af58-cf177131c744","system_id":"levelo_inurba_marseille","lat":43.296277,"lon":5.377108,"is_reserved":false,"is_disabled":false,"rental_uris":{"android":"levelo://app?vid=4f6dfd45-3ad4-494c-af58-cf177131c744","ios":"levelo://app?vid=4f6dfd45-3ad4-494c-af58-cf177131c744"},"vehicle_type_id":"4","last_reported":1707678277,"current_range_meters":20400,"station_id":"ce4bgi92rcd13ifvqb90","pricing_plan_id":"free"},{"bike_id":"59f4f8ea-735c-4f9e-98a1-6799840f69f8","system_id":"levelo_inurba_marseille","lat":43.304278,"lon":5.388868,"is_reserved":false,"is_disabled":false,"rental_uris":{"android":"levelo://app?vid=59f4f8ea-735c-4f9e-98a1-6799840f69f8","ios":"levelo://app?vid=59f4f8ea-735c-4f9e-98a1-6799840f69f8"},"vehicle_type_id":"4","last_reported":1707678277,"current_range_meters":8000,"station_id":"ce4bgk12rcd13ifvqbi0","pricing_plan_id":"free"},{"bike_id":"c2d0ad3e-75b2-43ee-8896-c426200239c9","system_id":"levelo_inurba_marseille","lat":43.296277,"lon":5.377108,"is_reserved":false,"is_disabled":false,"rental_uris":{"android":"levelo://app?vid=c2d0ad3e-75b2-43ee-8896-c426200239c9","ios":"levelo://app?vid=c2d0ad3e-75b2-43ee-8896-c426200239c9"},"vehicle_type_id":"4","last_reported":1707678277,"current_range_meters":4000,"station_id":"ce4bgi92rcd13ifvqb90","pricing_plan_id":"free"},{"bike_id":"79269189-ac11-493b-a3fe-679448b7d7fd","system_id":"levelo_inurba_marseille","lat":43.296277,"lon":5.377108,"is_reserved":false,"is_disabled":false,"rental_uris":{"android":"levelo://app?vid=79269189-ac11-493b-a3fe-679448b7d7fd","ios":"levelo://app?vid=79269189-ac11-493b-a3fe-679448b7d7fd"},"vehicle_type_id":"4","last_reported":1707678277,"current_range_meters":14000,"station_id":"ce4bgi92rcd13ifvqb90","pricing_plan_id":"free"},{"bike_id":"c61d82b8-6f17-48c5-b98d-855364a7c2a6","system_id":"levelo_inurba_marseille","lat":43.296277,"lon":5.377108,"is_reserved":false,"is_disabled":false,"rental_uris":{"android":"levelo://app?vid=c61d82b8-6f17-48c5-b98d-855364a7c2a6","ios":"levelo://app?vid=c61d82b8-6f17-48c5-b98d-855364a7c2a6"},"vehicle_type_id":"4","last_reported":1707678277,"current_range_meters":10400,"station_id":"ce4bgi92rcd13ifvqb90","pricing_plan_id":"free"},{"bike_id":"264e6c66-2d52-4537-9057-e5c7d44a4c49","system_id":"levelo_inurba_marseille","lat":43.296277,"lon":5.377108,"is_reserved":false,"is_disabled":false,"rental_uris":{"android":"levelo://app?vid=264e6c66-2d52-4537-9057-e5c7d44a4c49","ios":"levelo://app?vid=264e6c66-2d52-4537-9057-e5c7d44a4c49"},"vehicle_type_id":"4","last_reported":1707678277,"current_range_meters":400,"station_id":"ce4bgi92rcd13ifvqb90","pricing_plan_id":"free"},{"bike_id":"a4ef2319-be90-4c33-9172-f7ac58b2b476","system_id":"levelo_inurba_marseille","lat":43.296263,"lon":5.377094,"is_reserved":false,"is_disabled":false,"rental_uris":{"android":"levelo://app?vid=a4ef2319-be90-4c33-9172-f7ac58b2b476","ios":"levelo://app?vid=a4ef2319-be90-4c33-9172-f7ac58b2b476"},"vehicle_type_id":"4","last_reported":1707678277,"current_range_meters":17600,"station_id":"ce4bgi92rcd13ifvqb90","pricing_plan_id":"free"},{"bike_id":"c7393078-91a3-42ca-bbc2-5d584f0ce432","system_id":"levelo_inurba_marseille","lat":43.299717,"lon":5.384845,"is_reserved":false,"is_disabled":false,"rental_uris":{"android":"levelo://app?vid=c7393078-91a3-42ca-bbc2-5d584f0ce432","ios":"levelo://app?vid=c7393078-91a3-42ca-bbc2-5d584f0ce432"},"vehicle_type_id":"4","last_reported":1707678277,"current_range_meters":20400,"station_id":"ce4bgj92rcd13ifvqbd0","pricing_plan_id":"free"},{"bike_id":"354ebe01-d217-429b-9919-e16827664955","system_id":"levelo_inurba_marseille","lat":43.299717,"lon":5.384845,"is_reserved":false,"is_disabled":false,"rental_uris":{"android":"levelo://app?vid=354ebe01-d217-429b-9919-e16827664955","ios":"levelo://app?vid=354ebe01-d217-429b-9919-e16827664955"},"vehicle_type_id":"4","last_reported":1707678277,"current_range_meters":0,"station_id":"ce4bgj92rcd13ifvqbd0","pricing_plan_id":"free"},{"bike_id":"00143bcd-3f92-4226-92d6-52e935b7e4aa","system_id":"levelo_inurba_marseille","lat":43.296358,"lon":5.380944,"is_reserved":false,"is_disabled":false,"rental_uris":{"android":"levelo://app?vid=00143bcd-3f92-4226-92d6-52e935b7e4aa","ios":"levelo://app?vid=00143bcd-3f92-4226-92d6-52e935b7e4aa"},"vehicle_type_id":"4","last_reported":1707678277,"current_range_meters":15200,"station_id":"ce4bgl12rcd13ifvqbo0","pricing_plan_id":"free"},{"bike_id":"7ea15a0a-899e-431e-9587-95dee748af90","system_id":"levelo_inurba_marseille","lat":43.32367,"lon":5.388836,"is_reserved":false,"is_disabled":false,"rental_uris":{"android":"levelo://app?vid=7ea15a0a-899e-431e-9587-95dee748af90","ios":"levelo://app?vid=7ea15a0a-899e-431e-9587-95dee748af90"},"vehicle_type_id":"4","last_reported":1707678277,"current_range_meters":2800,"station_id":"ce4bhqp2rcd13ifvqhog","pricing_plan_id":"free"},{"bike_id":"fab4d6e6-5dad-4b4f-bfaf-2d527ea5f7bf","system_id":"levelo_inurba_marseille","lat":43.3237,"lon":5.38882,"is_reserved":false,"is_disabled":false,"rental_uris":{"android":"levelo://app?vid=fab4d6e6-5dad-4b4f-bfaf-2d527ea5f7bf","ios":"levelo://app?vid=fab4d6e6-5dad-4b4f-bfaf-2d527ea5f7bf"},"vehicle_type_id":"4","last_reported":1707678277,"current_range_meters":10000,"station_id":"ce4bhqp2rcd13ifvqhog","pricing_plan_id":"free"},{"bike_id":"1f55c90d-a296-49c5-bb8b-6e8777578c88","system_id":"levelo_inurba_marseille","lat":43.32367,"lon":5.388836,"is_reserved":false,"is_disabled":false,"rental_uris":{"android":"levelo://app?vid=1f55c90d-a296-49c5-bb8b-6e8777578c88","ios":"levelo://app?vid=1f55c90d-a296-49c5-bb8b-6e8777578c88"},"vehicle_type_id":"4","last_reported":1707678277,"current_range_meters":800,"station_id":"ce4bhqp2rcd13ifvqhog","pricing_plan_id":"free"},{"bike_id":"8c67e61e-e7d9-4bb7-9545-eb36146dd69c","system_id":"levelo_inurba_marseille","lat":43.32366,"lon":5.38893,"is_reserved":false,"is_disabled":false,"rental_uris":{"android":"levelo://app?vid=8c67e61e-e7d9-4bb7-9545-eb36146dd69c","ios":"levelo://app?vid=8c67e61e-e7d9-4bb7-9545-eb36146dd69c"},"vehicle_type_id":"4","last_reported":1707678277,"current_range_meters":14800,"station_id":"ce4bhqp2rcd13ifvqhog","pricing_plan_id":"free"},{"bike_id":"a8761059-a38c-4e63-b2ae-493e54d91c26","system_id":"levelo_inurba_marseille","lat":43.295973,"lon":5.381033,"is_reserved":false,"is_disabled":false,"rental_uris":{"android":"levelo://app?vid=a8761059-a38c-4e63-b2ae-493e54d91c26","ios":"levelo://app?vid=a8761059-a38c-4e63-b2ae-493e54d91c26"},"vehicle_type_id":"4","last_reported":1707678277,"current_range_meters":2400,"station_id":"ce4bgl12rcd13ifvqbo0","pricing_plan_id":"free"},{"bike_id":"0e9466bf-f582-4628-b14b-6adbc699f895","system_id":"levelo_inurba_marseille","lat":43.29601,"lon":5.381084,"is_reserved":false,"is_disabled":false,"rental_uris":{"android":"levelo://app?vid=0e9466bf-f582-4628-b14b-6adbc699f895","ios":"levelo://app?vid=0e9466bf-f582-4628-b14b-6adbc699f895"},"vehicle_type_id":"4","last_reported":1707678277,"current_range_meters":26800,"station_id":"ce4bgl12rcd13ifvqbo0","pricing_plan_id":"free"},{"bike_id":"f8842a45-d7b0-401c-afd5-f1b03ba6e5a3","system_id":"levelo_inurba_marseille","lat":43.29602,"lon":5.381084,"is_reserved":false,"is_disabled":false,"rental_uris":{"android":"levelo://app?vid=f8842a45-d7b0-401c-afd5-f1b03ba6e5a3","ios":"levelo://app?vid=f8842a45-d7b0-401c-afd5-f1b03ba6e5a3"},"vehicle_type_id":"4","last_reported":1707678277,"current_range_meters":12400,"station_id":"ce4bgl12rcd13ifvqbo0","pricing_plan_id":"free"},{"bike_id":"e3938b52-d92b-4a83-a2f5-419928a5e6af","system_id":"levelo_inurba_marseille","lat":43.29602,"lon":5.381084,"is_reserved":false,"is_disabled":false,"rental_uris":{"android":"levelo://app?vid=e3938b52-d92b-4a83-a2f5-419928a5e6af","ios":"levelo://app?vid=e3938b52-d92b-4a83-a2f5-419928a5e6af"},"vehicle_type_id":"4","last_reported":1707678277,"current_range_meters":19200,"station_id":"ce4bgl12rcd13ifvqbo0","pricing_plan_id":"free"},{"bike_id":"46e45ad6-75f0-449f-82ba-30666274d075","system_id":"levelo_inurba_marseille","lat":43.29601,"lon":5.381084,"is_reserved":false,"is_disabled":false,"rental_uris":{"android":"levelo://app?vid=46e45ad6-75f0-449f-82ba-30666274d075","ios":"levelo://app?vid=46e45ad6-75f0-449f-82ba-30666274d075"},"vehicle_type_id":"4","last_reported":1707678277,"current_range_meters":18000,"station_id":"ce4bgl12rcd13ifvqbo0","pricing_plan_id":"free"},{"bike_id":"9ebcdbb7-a509-4d1a-be45-b6895e74347b","system_id":"levelo_inurba_marseille","lat":43.29601,"lon":5.381084,"is_reserved":false,"is_disabled":false,"rental_uris":{"android":"levelo://app?vid=9ebcdbb7-a509-4d1a-be45-b6895e74347b","ios":"levelo://app?vid=9ebcdbb7-a509-4d1a-be45-b6895e74347b"},"vehicle_type_id":"4","last_reported":1707678277,"current_range_meters":5200,"station_id":"ce4bgl12rcd13ifvqbo0","pricing_plan_id":"free"},{"bike_id":"c2f1756a-157c-435e-b2d4-16e28eaaae60","system_id":"levelo_inurba_marseille","lat":43.292749,"lon":5.368402,"is_reserved":false,"is_disabled":false,"rental_uris":{"android":"levelo://app?vid=c2f1756a-157c-435e-b2d4-16e28eaaae60","ios":"levelo://app?vid=c2f1756a-157c-435e-b2d4-16e28eaaae60"},"vehicle_type_id":"4","last_reported":1707678277,"current_range_meters":27600,"station_id":"ce4bhbp2rcd13ifvqesg","pricing_plan_id":"free"},{"bike_id":"f54a275c-c81e-4213-836f-38e241e4ad2c","system_id":"levelo_inurba_marseille","lat":43.292749,"lon":5.368402,"is_reserved":false,"is_disabled":false,"rental_uris":{"android":"levelo://app?vid=f54a275c-c81e-4213-836f-38e241e4ad2c","ios":"levelo://app?vid=f54a275c-c81e-4213-836f-38e241e4ad2c"},"vehicle_type_id":"4","last_reported":1707678277,"current_range_meters":15200,"station_id":"ce4bhbp2rcd13ifvqesg","pricing_plan_id":"free"},{"bike_id":"de8fe52f-ecd3-44f2-bbf4-571b025393e2","system_id":"levelo_inurba_marseille","lat":43.29281,"lon":5.36844,"is_reserved":false,"is_disabled":false,"rental_uris":{"android":"levelo://app?vid=de8fe52f-ecd3-44f2-bbf4-571b025393e2","ios":"levelo://app?vid=de8fe52f-ecd3-44f2-bbf4-571b025393e2"},"vehicle_type_id":"4","last_reported":1707678277,"current_range_meters":28000,"station_id":"ce4bhbp2rcd13ifvqesg","pricing_plan_id":"free"},{"bike_id":"2a513792-0ec2-4c78-929b-82925a5a8ffb","system_id":"levelo_inurba_marseille","lat":43.29306,"lon":5.37189,"is_reserved":false,"is_disabled":false,"rental_uris":{"android":"levelo://app?vid=2a513792-0ec2-4c78-929b-82925a5a8ffb","ios":"levelo://app?vid=2a513792-0ec2-4c78-929b-82925a5a8ffb"},"vehicle_type_id":"4","last_reported":1707678277,"current_range_meters":20800,"station_id":"ce4bgh92rcd13ifvqb40","pricing_plan_id":"free"},{"bike_id":"1d743f77-3ac0-4f23-a974-baba46de78dc","system_id":"levelo_inurba_marseille","lat":43.29269,"lon":5.36841,"is_reserved":false,"is_disabled":false,"rental_uris":{"android":"levelo://app?vid=1d743f77-3ac0-4f23-a974-baba46de78dc","ios":"levelo://app?vid=1d743f77-3ac0-4f23-a974-baba46de78dc"},"vehicle_type_id":"4","last_reported":1707678277,"current_range_meters":18000,"station_id":"ce4bhbp2rcd13ifvqesg","pricing_plan_id":"free"},{"bike_id":"4c7a6e20-9232-4703-8388-ca81ec24906d","system_id":"levelo_inurba_marseille","lat":43.29266,"lon":5.36842,"is_reserved":false,"is_disabled":false,"rental_uris":{"android":"levelo://app?vid=4c7a6e20-9232-4703-8388-ca81ec24906d","ios":"levelo://app?vid=4c7a6e20-9232-4703-8388-ca81ec24906d"},"vehicle_type_id":"4","last_reported":1707678277,"current_range_meters":31200,"station_id":"ce4bhbp2rcd13ifvqesg","pricing_plan_id":"free"},{"bike_id":"2393def2-385b-475b-a3d6-0302010c33e1","system_id":"levelo_inurba_marseille","lat":43.293009,"lon":5.374584,"is_reserved":false,"is_disabled":false,"rental_uris":{"android":"levelo://app?vid=2393def2-385b-475b-a3d6-0302010c33e1","ios":"levelo://app?vid=2393def2-385b-475b-a3d6-0302010c33e1"},"vehicle_type_id":"4","last_reported":1707678277,"current_range_meters":0,"station_id":"ce4bgi12rcd13ifvqb70","pricing_plan_id":"free"},{"bike_id":"9ec1fb2e-479f-44d2-b72d-642bb2a6b279","system_id":"levelo_inurba_marseille","lat":43.305994,"lon":5.393687,"is_reserved":false,"is_disabled":false,"rental_uris":{"android":"levelo://app?vid=9ec1fb2e-479f-44d2-b72d-642bb2a6b279","ios":"levelo://app?vid=9ec1fb2e-479f-44d2-b72d-642bb2a6b279"},"vehicle_type_id":"4","last_reported":1707678277,"current_range_meters":14000,"station_id":"ce4bh0p2rcd13ifvqd80","pricing_plan_id":"free"},{"bike_id":"d690466c-a7f4-4572-9139-ef4bc8918546","system_id":"levelo_inurba_marseille","lat":43.305994,"lon":5.393687,"is_reserved":false,"is_disabled":false,"rental_uris":{"android":"levelo://app?vid=d690466c-a7f4-4572-9139-ef4bc8918546","ios":"levelo://app?vid=d690466c-a7f4-4572-9139-ef4bc8918546"},"vehicle_type_id":"4","last_reported":1707678277,"current_range_meters":31600,"station_id":"ce4bh0p2rcd13ifvqd80","pricing_plan_id":"free"},{"bike_id":"7199bc24-e9e3-41c9-aea9-d697a9bd6328","system_id":"levelo_inurba_marseille","lat":43.305994,"lon":5.393687,"is_reserved":false,"is_disabled":false,"rental_uris":{"android":"levelo://app?vid=7199bc24-e9e3-41c9-aea9-d697a9bd6328","ios":"levelo://app?vid=7199bc24-e9e3-41c9-aea9-d697a9bd6328"},"vehicle_type_id":"4","last_reported":1707678277,"current_range_meters":12000,"station_id":"ce4bh0p2rcd13ifvqd80","pricing_plan_id":"free"},{"bike_id":"d03d7b53-b7a0-4670-a5ac-d80e9a8b306e","system_id":"levelo_inurba_marseille","lat":43.303002,"lon":5.392142,"is_reserved":false,"is_disabled":false,"rental_uris":{"android":"levelo://app?vid=d03d7b53-b7a0-4670-a5ac-d80e9a8b306e","ios":"levelo://app?vid=d03d7b53-b7a0-4670-a5ac-d80e9a8b306e"},"vehicle_type_id":"4","last_reported":1707678277,"current_range_meters":26400,"station_id":"ce4bgkh2rcd13ifvqbk0","pricing_plan_id":"free"},{"bike_id":"77eb16a4-67ed-4cc8-b406-47e334436c2a","system_id":"levelo_inurba_marseille","lat":43.303002,"lon":5.392142,"is_reserved":false,"is_disabled":false,"rental_uris":{"android":"levelo://app?vid=77eb16a4-67ed-4cc8-b406-47e334436c2a","ios":"levelo://app?vid=77eb16a4-67ed-4cc8-b406-47e334436c2a"},"vehicle_type_id":"4","last_reported":1707678277,"current_range_meters":22000,"station_id":"ce4bgkh2rcd13ifvqbk0","pricing_plan_id":"free"},{"bike_id":"6da97904-e196-4470-9562-aa07a6023fa7","system_id":"levelo_inurba_marseille","lat":43.303002,"lon":5.392142,"is_reserved":false,"is_disabled":false,"rental_uris":{"android":"levelo://app?vid=6da97904-e196-4470-9562-aa07a6023fa7","ios":"levelo://app?vid=6da97904-e196-4470-9562-aa07a6023fa7"},"vehicle_type_id":"4","last_reported":1707678277,"current_range_meters":0,"station_id":"ce4bgkh2rcd13ifvqbk0","pricing_plan_id":"free"},{"bike_id":"94eb2115-932e-46fc-b2e7-c63d60760ad9","system_id":"levelo_inurba_marseille","lat":43.303002,"lon":5.392142,"is_reserved":false,"is_disabled":false,"rental_uris":{"android":"levelo://app?vid=94eb2115-932e-46fc-b2e7-c63d60760ad9","ios":"levelo://app?vid=94eb2115-932e-46fc-b2e7-c63d60760ad9"},"vehicle_type_id":"4","last_reported":1707678277,"current_range_meters":31200,"station_id":"ce4bgkh2rcd13ifvqbk0","pricing_plan_id":"free"},{"bike_id":"50831887-d469-4d28-93a0-5a1c4ab85df2","system_id":"levelo_inurba_marseille","lat":43.302992,"lon":5.392136,"is_reserved":false,"is_disabled":false,"rental_uris":{"android":"levelo://app?vid=50831887-d469-4d28-93a0-5a1c4ab85df2","ios":"levelo://app?vid=50831887-d469-4d28-93a0-5a1c4ab85df2"},"vehicle_type_id":"4","last_reported":1707678277,"current_range_meters":0,"station_id":"ce4bgkh2rcd13ifvqbk0","pricing_plan_id":"free"},{"bike_id":"12f62b7d-ae87-47d7-b23b-6a97953c673b","system_id":"levelo_inurba_marseille","lat":43.2936,"lon":5.37835,"is_reserved":false,"is_disabled":false,"rental_uris":{"android":"levelo://app?vid=12f62b7d-ae87-47d7-b23b-6a97953c673b","ios":"levelo://app?vid=12f62b7d-ae87-47d7-b23b-6a97953c673b"},"vehicle_type_id":"4","last_reported":1707678277,"current_range_meters":17200,"station_id":"ce4bgjh2rcd13ifvqbf0","pricing_plan_id":"free"},{"bike_id":"8c131489-d634-4520-8357-413a03e7d549","system_id":"levelo_inurba_marseille","lat":43.300747,"lon":5.390442,"is_reserved":false,"is_disabled":false,"rental_uris":{"android":"levelo://app?vid=8c131489-d634-4520-8357-413a03e7d549","ios":"levelo://app?vid=8c131489-d634-4520-8357-413a03e7d549"},"vehicle_type_id":"4","last_reported":1707678277,"current_range_meters":0,"station_id":"ce4bh192rcd13ifvqdb0","pricing_plan_id":"free"},{"bike_id":"bf3e0c7e-93bd-4dc8-b419-edf20132323c","system_id":"levelo_inurba_marseille","lat":43.2936,"lon":5.37835,"is_reserved":false,"is_disabled":false,"rental_uris":{"android":"levelo://app?vid=bf3e0c7e-93bd-4dc8-b419-edf20132323c","ios":"levelo://app?vid=bf3e0c7e-93bd-4dc8-b419-edf20132323c"},"vehicle_type_id":"4","last_reported":1707678277,"current_range_meters":0,"station_id":"ce4bgjh2rcd13ifvqbf0","pricing_plan_id":"free"},{"bike_id":"88eb7e50-9a96-4812-a2f6-82d0bba588df","system_id":"levelo_inurba_marseille","lat":43.30081,"lon":5.39079,"is_reserved":false,"is_disabled":false,"rental_uris":{"android":"levelo://app?vid=88eb7e50-9a96-4812-a2f6-82d0bba588df","ios":"levelo://app?vid=88eb7e50-9a96-4812-a2f6-82d0bba588df"},"vehicle_type_id":"4","last_reported":1707678277,"current_range_meters":24800,"station_id":"ce4bh192rcd13ifvqdb0","pricing_plan_id":"free"},{"bike_id":"db77a88f-d573-4c6a-b29e-d655535a6d26","system_id":"levelo_inurba_marseille","lat":43.30086,"lon":5.39086,"is_reserved":false,"is_disabled":false,"rental_uris":{"android":"levelo://app?vid=db77a88f-d573-4c6a-b29e-d655535a6d26","ios":"levelo://app?vid=db77a88f-d573-4c6a-b29e-d655535a6d26"},"vehicle_type_id":"4","last_reported":1707678277,"current_range_meters":10800,"station_id":"ce4bh192rcd13ifvqdb0","pricing_plan_id":"free"},{"bike_id":"95a2878c-bccb-43e1-9879-64a066ac649b","system_id":"levelo_inurba_marseille","lat":43.30078,"lon":5.39082,"is_reserved":false,"is_disabled":false,"rental_uris":{"android":"levelo://app?vid=95a2878c-bccb-43e1-9879-64a066ac649b","ios":"levelo://app?vid=95a2878c-bccb-43e1-9879-64a066ac649b"},"vehicle_type_id":"4","last_reported":1707678277,"current_range_meters":4800,"station_id":"ce4bh192rcd13ifvqdb0","pricing_plan_id":"free"},{"bike_id":"eb73ca92-8649-44fe-8e3a-dbcd6c289cd9","system_id":"levelo_inurba_marseille","lat":43.293009,"lon":5.374584,"is_reserved":false,"is_disabled":false,"rental_uris":{"android":"levelo://app?vid=eb73ca92-8649-44fe-8e3a-dbcd6c289cd9","ios":"levelo://app?vid=eb73ca92-8649-44fe-8e3a-dbcd6c289cd9"},"vehicle_type_id":"4","last_reported":1707678277,"current_range_meters":8400,"station_id":"ce4bgi12rcd13ifvqb70","pricing_plan_id":"free"},{"bike_id":"e25fbe08-9812-4939-9c31-d32578ecbca5","system_id":"levelo_inurba_marseille","lat":43.293009,"lon":5.374584,"is_reserved":false,"is_disabled":false,"rental_uris":{"android":"levelo://app?vid=e25fbe08-9812-4939-9c31-d32578ecbca5","ios":"levelo://app?vid=e25fbe08-9812-4939-9c31-d32578ecbca5"},"vehicle_type_id":"4","last_reported":1707678277,"current_range_meters":17200,"station_id":"ce4bgi12rcd13ifvqb70","pricing_plan_id":"free"},{"bike_id":"d2d5c276-53eb-4648-acd3-f1275bc55317","system_id":"levelo_inurba_marseille","lat":43.298764,"lon":5.388973,"is_reserved":false,"is_disabled":false,"rental_uris":{"android":"levelo://app?vid=d2d5c276-53eb-4648-acd3-f1275bc55317","ios":"levelo://app?vid=d2d5c276-53eb-4648-acd3-f1275bc55317"},"vehicle_type_id":"4","last_reported":1707678277,"current_range_meters":7600,"station_id":"ce4bh392rcd13ifvqdl0","pricing_plan_id":"free"},{"bike_id":"03faa3a8-357a-47ef-b1de-33ca73868abd","system_id":"levelo_inurba_marseille","lat":43.29199,"lon":5.35807,"is_reserved":false,"is_disabled":false,"rental_uris":{"android":"levelo://app?vid=03faa3a8-357a-47ef-b1de-33ca73868abd","ios":"levelo://app?vid=03faa3a8-357a-47ef-b1de-33ca73868abd"},"vehicle_type_id":"4","last_reported":1707678277,"current_range_meters":0,"station_id":"ce4bhb12rcd13ifvqel0","pricing_plan_id":"free"},{"bike_id":"ccf7a84b-07a8-4c7c-a892-350bd8340fab","system_id":"levelo_inurba_marseille","lat":43.291994,"lon":5.357886,"is_reserved":false,"is_disabled":false,"rental_uris":{"android":"levelo://app?vid=ccf7a84b-07a8-4c7c-a892-350bd8340fab","ios":"levelo://app?vid=ccf7a84b-07a8-4c7c-a892-350bd8340fab"},"vehicle_type_id":"4","last_reported":1707678277,"current_range_meters":0,"station_id":"ce4bhb12rcd13ifvqel0","pricing_plan_id":"free"},{"bike_id":"e17e60a7-a801-47ab-a75a-1807449fd6a4","system_id":"levelo_inurba_marseille","lat":43.291994,"lon":5.357886,"is_reserved":false,"is_disabled":false,"rental_uris":{"android":"levelo://app?vid=e17e60a7-a801-47ab-a75a-1807449fd6a4","ios":"levelo://app?vid=e17e60a7-a801-47ab-a75a-1807449fd6a4"},"vehicle_type_id":"4","last_reported":1707678277,"current_range_meters":12800,"station_id":"ce4bhb12rcd13ifvqel0","pricing_plan_id":"free"},{"bike_id":"e93070d4-27d5-4c2a-9994-d03420d2b356","system_id":"levelo_inurba_marseille","lat":43.291871,"lon":5.358051,"is_reserved":false,"is_disabled":false,"rental_uris":{"android":"levelo://app?vid=e93070d4-27d5-4c2a-9994-d03420d2b356","ios":"levelo://app?vid=e93070d4-27d5-4c2a-9994-d03420d2b356"},"vehicle_type_id":"4","last_reported":1707678277,"current_range_meters":30400,"station_id":"ce4bhb12rcd13ifvqel0","pricing_plan_id":"free"},{"bike_id":"f7348f13-2124-4af4-b80b-eee7d18b3a7a","system_id":"levelo_inurba_marseille","lat":43.313291,"lon":5.396838,"is_reserved":false,"is_disabled":false,"rental_uris":{"android":"levelo://app?vid=f7348f13-2124-4af4-b80b-eee7d18b3a7a","ios":"levelo://app?vid=f7348f13-2124-4af4-b80b-eee7d18b3a7a"},"vehicle_type_id":"4","last_reported":1707678277,"current_range_meters":18000,"station_id":"ce4bgvp2rcd13ifvqcu0","pricing_plan_id":"free"},{"bike_id":"27c602cb-4a67-4b3a-8612-f1e7f3982256","system_id":"levelo_inurba_marseille","lat":43.313291,"lon":5.396838,"is_reserved":false,"is_disabled":false,"rental_uris":{"android":"levelo://app?vid=27c602cb-4a67-4b3a-8612-f1e7f3982256","ios":"levelo://app?vid=27c602cb-4a67-4b3a-8612-f1e7f3982256"},"vehicle_type_id":"4","last_reported":1707678277,"current_range_meters":23200,"station_id":"ce4bgvp2rcd13ifvqcu0","pricing_plan_id":"free"},{"bike_id":"0e541a3f-62fa-41f2-8e5c-e5d59689b475","system_id":"levelo_inurba_marseille","lat":43.29531,"lon":5.38535,"is_reserved":false,"is_disabled":false,"rental_uris":{"android":"levelo://app?vid=0e541a3f-62fa-41f2-8e5c-e5d59689b475","ios":"levelo://app?vid=0e541a3f-62fa-41f2-8e5c-e5d59689b475"},"vehicle_type_id":"4","last_reported":1707678277,"current_range_meters":19200,"station_id":"ce4bgih2rcd13ifvqba0","pricing_plan_id":"free"},{"bike_id":"0cc24d3d-1952-423a-bcfa-19c7eb3da624","system_id":"levelo_inurba_marseille","lat":43.29529,"lon":5.385581,"is_reserved":false,"is_disabled":false,"rental_uris":{"android":"levelo://app?vid=0cc24d3d-1952-423a-bcfa-19c7eb3da624","ios":"levelo://app?vid=0cc24d3d-1952-423a-bcfa-19c7eb3da624"},"vehicle_type_id":"4","last_reported":1707678277,"current_range_meters":19600,"station_id":"ce4bgih2rcd13ifvqba0","pricing_plan_id":"free"},{"bike_id":"2198f39f-c336-48c9-b9f6-f08837409c29","system_id":"levelo_inurba_marseille","lat":43.29529,"lon":5.385581,"is_reserved":false,"is_disabled":false,"rental_uris":{"android":"levelo://app?vid=2198f39f-c336-48c9-b9f6-f08837409c29","ios":"levelo://app?vid=2198f39f-c336-48c9-b9f6-f08837409c29"},"vehicle_type_id":"4","last_reported":1707678277,"current_range_meters":1600,"station_id":"ce4bgih2rcd13ifvqba0","pricing_plan_id":"free"},{"bike_id":"8486b912-dacf-4c0d-8557-791e9aa69214","system_id":"levelo_inurba_marseille","lat":43.290779,"lon":5.371482,"is_reserved":false,"is_disabled":false,"rental_uris":{"android":"levelo://app?vid=8486b912-dacf-4c0d-8557-791e9aa69214","ios":"levelo://app?vid=8486b912-dacf-4c0d-8557-791e9aa69214"},"vehicle_type_id":"4","last_reported":1707678277,"current_range_meters":19200,"station_id":"ce4bh5p2rcd13ifvqe4g","pricing_plan_id":"free"},{"bike_id":"4b623ce1-ad57-4b89-8850-bc76e8a5fc49","system_id":"levelo_inurba_marseille","lat":43.290779,"lon":5.371482,"is_reserved":false,"is_disabled":false,"rental_uris":{"android":"levelo://app?vid=4b623ce1-ad57-4b89-8850-bc76e8a5fc49","ios":"levelo://app?vid=4b623ce1-ad57-4b89-8850-bc76e8a5fc49"},"vehicle_type_id":"4","last_reported":1707678277,"current_range_meters":16400,"station_id":"ce4bh5p2rcd13ifvqe4g","pricing_plan_id":"free"},{"bike_id":"8efda0e6-0c32-4a56-9a6f-debb30cfb45d","system_id":"levelo_inurba_marseille","lat":43.290779,"lon":5.371482,"is_reserved":false,"is_disabled":false,"rental_uris":{"android":"levelo://app?vid=8efda0e6-0c32-4a56-9a6f-debb30cfb45d","ios":"levelo://app?vid=8efda0e6-0c32-4a56-9a6f-debb30cfb45d"},"vehicle_type_id":"4","last_reported":1707678277,"current_range_meters":27200,"station_id":"ce4bh5p2rcd13ifvqe4g","pricing_plan_id":"free"},{"bike_id":"5f5ec23d-abf7-4ad4-82e7-7c38ca4c07ac","system_id":"levelo_inurba_marseille","lat":43.290779,"lon":5.371482,"is_reserved":false,"is_disabled":false,"rental_uris":{"android":"levelo://app?vid=5f5ec23d-abf7-4ad4-82e7-7c38ca4c07ac","ios":"levelo://app?vid=5f5ec23d-abf7-4ad4-82e7-7c38ca4c07ac"},"vehicle_type_id":"4","last_reported":1707678277,"current_range_meters":12800,"station_id":"ce4bh5p2rcd13ifvqe4g","pricing_plan_id":"free"},{"bike_id":"af1ac64f-a8ff-413c-98ad-e66bfa720210","system_id":"levelo_inurba_marseille","lat":43.290779,"lon":5.371482,"is_reserved":false,"is_disabled":false,"rental_uris":{"android":"levelo://app?vid=af1ac64f-a8ff-413c-98ad-e66bfa720210","ios":"levelo://app?vid=af1ac64f-a8ff-413c-98ad-e66bfa720210"},"vehicle_type_id":"4","last_reported":1707678277,"current_range_meters":7200,"station_id":"ce4bh5p2rcd13ifvqe4g","pricing_plan_id":"free"},{"bike_id":"ea6357c2-a603-4cbf-858f-c5e7718f7dea","system_id":"levelo_inurba_marseille","lat":43.294162,"lon":5.386292,"is_reserved":false,"is_disabled":false,"rental_uris":{"android":"levelo://app?vid=ea6357c2-a603-4cbf-858f-c5e7718f7dea","ios":"levelo://app?vid=ea6357c2-a603-4cbf-858f-c5e7718f7dea"},"vehicle_type_id":"4","last_reported":1707678277,"current_range_meters":24800,"station_id":"ce4bh2h2rcd13ifvqdh0","pricing_plan_id":"free"},{"bike_id":"06178b1a-ab1f-4f42-898f-c58d90dba05a","system_id":"levelo_inurba_marseille","lat":43.2942,"lon":5.38626,"is_reserved":false,"is_disabled":false,"rental_uris":{"android":"levelo://app?vid=06178b1a-ab1f-4f42-898f-c58d90dba05a","ios":"levelo://app?vid=06178b1a-ab1f-4f42-898f-c58d90dba05a"},"vehicle_type_id":"4","last_reported":1707678277,"current_range_meters":0,"station_id":"ce4bh2h2rcd13ifvqdh0","pricing_plan_id":"free"},{"bike_id":"5b7dfca6-c51b-43be-94a2-8c98ff9da479","system_id":"levelo_inurba_marseille","lat":43.29417,"lon":5.38624,"is_reserved":false,"is_disabled":false,"rental_uris":{"android":"levelo://app?vid=5b7dfca6-c51b-43be-94a2-8c98ff9da479","ios":"levelo://app?vid=5b7dfca6-c51b-43be-94a2-8c98ff9da479"},"vehicle_type_id":"4","last_reported":1707678277,"current_range_meters":0,"station_id":"ce4bh2h2rcd13ifvqdh0","pricing_plan_id":"free"},{"bike_id":"f25dbb0c-cac9-451e-b5b2-b5b1f7fc4245","system_id":"levelo_inurba_marseille","lat":43.289449,"lon":5.366437,"is_reserved":false,"is_disabled":false,"rental_uris":{"android":"levelo://app?vid=f25dbb0c-cac9-451e-b5b2-b5b1f7fc4245","ios":"levelo://app?vid=f25dbb0c-cac9-451e-b5b2-b5b1f7fc4245"},"vehicle_type_id":"4","last_reported":1707678277,"current_range_meters":7200,"station_id":"ce4bhap2rcd13ifvqek0","pricing_plan_id":"free"},{"bike_id":"529ad064-816a-42b0-adfe-d85f5a1c3c2b","system_id":"levelo_inurba_marseille","lat":43.294162,"lon":5.386292,"is_reserved":false,"is_disabled":false,"rental_uris":{"android":"levelo://app?vid=529ad064-816a-42b0-adfe-d85f5a1c3c2b","ios":"levelo://app?vid=529ad064-816a-42b0-adfe-d85f5a1c3c2b"},"vehicle_type_id":"4","last_reported":1707678277,"current_range_meters":12400,"station_id":"ce4bh2h2rcd13ifvqdh0","pricing_plan_id":"free"},{"bike_id":"396a8f33-92ed-405c-b413-65d3f151921a","system_id":"levelo_inurba_marseille","lat":43.28943,"lon":5.36642,"is_reserved":false,"is_disabled":false,"rental_uris":{"android":"levelo://app?vid=396a8f33-92ed-405c-b413-65d3f151921a","ios":"levelo://app?vid=396a8f33-92ed-405c-b413-65d3f151921a"},"vehicle_type_id":"4","last_reported":1707678277,"current_range_meters":10400,"station_id":"ce4bhap2rcd13ifvqek0","pricing_plan_id":"free"},{"bike_id":"f0e06be7-9967-469d-8615-8f686569d122","system_id":"levelo_inurba_marseille","lat":43.29416,"lon":5.38628,"is_reserved":false,"is_disabled":false,"rental_uris":{"android":"levelo://app?vid=f0e06be7-9967-469d-8615-8f686569d122","ios":"levelo://app?vid=f0e06be7-9967-469d-8615-8f686569d122"},"vehicle_type_id":"4","last_reported":1707678277,"current_range_meters":0,"station_id":"ce4bh2h2rcd13ifvqdh0","pricing_plan_id":"free"},{"bike_id":"1e954d3e-e833-4aae-8c81-2669ee5a61f0","system_id":"levelo_inurba_marseille","lat":43.28941,"lon":5.36644,"is_reserved":false,"is_disabled":false,"rental_uris":{"android":"levelo://app?vid=1e954d3e-e833-4aae-8c81-2669ee5a61f0","ios":"levelo://app?vid=1e954d3e-e833-4aae-8c81-2669ee5a61f0"},"vehicle_type_id":"4","last_reported":1707678277,"current_range_meters":11600,"station_id":"ce4bhap2rcd13ifvqek0","pricing_plan_id":"free"},{"bike_id":"fe727bd8-0bb6-4b45-8166-8acba055b61d","system_id":"levelo_inurba_marseille","lat":43.2894,"lon":5.36639,"is_reserved":false,"is_disabled":false,"rental_uris":{"android":"levelo://app?vid=fe727bd8-0bb6-4b45-8166-8acba055b61d","ios":"levelo://app?vid=fe727bd8-0bb6-4b45-8166-8acba055b61d"},"vehicle_type_id":"4","last_reported":1707678277,"current_range_meters":18000,"station_id":"ce4bhap2rcd13ifvqek0","pricing_plan_id":"free"},{"bike_id":"c3e9f390-38c6-4c80-bd00-3b7bb6d8f519","system_id":"levelo_inurba_marseille","lat":43.28939,"lon":5.36645,"is_reserved":false,"is_disabled":false,"rental_uris":{"android":"levelo://app?vid=c3e9f390-38c6-4c80-bd00-3b7bb6d8f519","ios":"levelo://app?vid=c3e9f390-38c6-4c80-bd00-3b7bb6d8f519"},"vehicle_type_id":"4","last_reported":1707678277,"current_range_meters":10400,"station_id":"ce4bhap2rcd13ifvqek0","pricing_plan_id":"free"},{"bike_id":"8fe4900f-d8ae-40ac-8959-645bcb93fdb2","system_id":"levelo_inurba_marseille","lat":43.28937,"lon":5.366398,"is_reserved":false,"is_disabled":false,"rental_uris":{"android":"levelo://app?vid=8fe4900f-d8ae-40ac-8959-645bcb93fdb2","ios":"levelo://app?vid=8fe4900f-d8ae-40ac-8959-645bcb93fdb2"},"vehicle_type_id":"4","last_reported":1707678277,"current_range_meters":4400,"station_id":"ce4bhap2rcd13ifvqek0","pricing_plan_id":"free"},{"bike_id":"cb35bdf4-7a88-437f-b240-e99a97209fb5","system_id":"levelo_inurba_marseille","lat":43.289341,"lon":5.366435,"is_reserved":false,"is_disabled":false,"rental_uris":{"android":"levelo://app?vid=cb35bdf4-7a88-437f-b240-e99a97209fb5","ios":"levelo://app?vid=cb35bdf4-7a88-437f-b240-e99a97209fb5"},"vehicle_type_id":"4","last_reported":1707678277,"current_range_meters":11200,"station_id":"ce4bhap2rcd13ifvqek0","pricing_plan_id":"free"},{"bike_id":"a7825cf9-656c-4268-a252-637c28e24846","system_id":"levelo_inurba_marseille","lat":43.28934,"lon":5.36635,"is_reserved":false,"is_disabled":false,"rental_uris":{"android":"levelo://app?vid=a7825cf9-656c-4268-a252-637c28e24846","ios":"levelo://app?vid=a7825cf9-656c-4268-a252-637c28e24846"},"vehicle_type_id":"4","last_reported":1707678277,"current_range_meters":22000,"station_id":"ce4bhap2rcd13ifvqek0","pricing_plan_id":"free"},{"bike_id":"69d30296-6314-433e-bb73-ca1797a63e57","system_id":"levelo_inurba_marseille","lat":43.294162,"lon":5.386292,"is_reserved":false,"is_disabled":false,"rental_uris":{"android":"levelo://app?vid=69d30296-6314-433e-bb73-ca1797a63e57","ios":"levelo://app?vid=69d30296-6314-433e-bb73-ca1797a63e57"},"vehicle_type_id":"4","last_reported":1707678277,"current_range_meters":8000,"station_id":"ce4bh2h2rcd13ifvqdh0","pricing_plan_id":"free"},{"bike_id":"58c10457-3cea-4b70-9034-a50acd458877","system_id":"levelo_inurba_marseille","lat":43.289468,"lon":5.363719,"is_reserved":false,"is_disabled":false,"rental_uris":{"android":"levelo://app?vid=58c10457-3cea-4b70-9034-a50acd458877","ios":"levelo://app?vid=58c10457-3cea-4b70-9034-a50acd458877"},"vehicle_type_id":"4","last_reported":1707678277,"current_range_meters":2000,"station_id":"ce4bhc92rcd13ifvqetg","pricing_plan_id":"free"},{"bike_id":"91fc7fd4-33ac-4609-a5e1-af73e3dc25bd","system_id":"levelo_inurba_marseille","lat":43.28928,"lon":5.364003,"is_reserved":false,"is_disabled":false,"rental_uris":{"android":"levelo://app?vid=91fc7fd4-33ac-4609-a5e1-af73e3dc25bd","ios":"levelo://app?vid=91fc7fd4-33ac-4609-a5e1-af73e3dc25bd"},"vehicle_type_id":"4","last_reported":1707678277,"current_range_meters":21600,"station_id":"ce4bhc92rcd13ifvqetg","pricing_plan_id":"free"},{"bike_id":"50d821e9-cc99-48fd-8d05-9c2110c956e0","system_id":"levelo_inurba_marseille","lat":43.292708,"lon":5.384422,"is_reserved":false,"is_disabled":false,"rental_uris":{"android":"levelo://app?vid=50d821e9-cc99-48fd-8d05-9c2110c956e0","ios":"levelo://app?vid=50d821e9-cc99-48fd-8d05-9c2110c956e0"},"vehicle_type_id":"4","last_reported":1707678277,"current_range_meters":28000,"station_id":"ce4bh692rcd13ifvqea0","pricing_plan_id":"free"},{"bike_id":"d32757e9-b13c-4abb-8dd0-5ccfb417d182","system_id":"levelo_inurba_marseille","lat":43.29266,"lon":5.38433,"is_reserved":false,"is_disabled":false,"rental_uris":{"android":"levelo://app?vid=d32757e9-b13c-4abb-8dd0-5ccfb417d182","ios":"levelo://app?vid=d32757e9-b13c-4abb-8dd0-5ccfb417d182"},"vehicle_type_id":"4","last_reported":1707678277,"current_range_meters":9600,"station_id":"ce4bh692rcd13ifvqea0","pricing_plan_id":"free"},{"bike_id":"8cb71d8e-b9f1-49b4-a9d2-2a1ef1ab1ba6","system_id":"levelo_inurba_marseille","lat":43.292642,"lon":5.384254,"is_reserved":false,"is_disabled":false,"rental_uris":{"android":"levelo://app?vid=8cb71d8e-b9f1-49b4-a9d2-2a1ef1ab1ba6","ios":"levelo://app?vid=8cb71d8e-b9f1-49b4-a9d2-2a1ef1ab1ba6"},"vehicle_type_id":"4","last_reported":1707678277,"current_range_meters":9600,"station_id":"ce4bh692rcd13ifvqea0","pricing_plan_id":"free"},{"bike_id":"e4aa1bd9-727d-45ba-8677-3895bb4c3a68","system_id":"levelo_inurba_marseille","lat":43.304274,"lon":5.397513,"is_reserved":false,"is_disabled":false,"rental_uris":{"android":"levelo://app?vid=e4aa1bd9-727d-45ba-8677-3895bb4c3a68","ios":"levelo://app?vid=e4aa1bd9-727d-45ba-8677-3895bb4c3a68"},"vehicle_type_id":"4","last_reported":1707678277,"current_range_meters":2800,"station_id":"ce4bh092rcd13ifvqd20","pricing_plan_id":"free"},{"bike_id":"92bf0846-2c5e-4a71-a2f3-5a6e912809f9","system_id":"levelo_inurba_marseille","lat":43.292642,"lon":5.384254,"is_reserved":false,"is_disabled":false,"rental_uris":{"android":"levelo://app?vid=92bf0846-2c5e-4a71-a2f3-5a6e912809f9","ios":"levelo://app?vid=92bf0846-2c5e-4a71-a2f3-5a6e912809f9"},"vehicle_type_id":"4","last_reported":1707678277,"current_range_meters":7600,"station_id":"ce4bh692rcd13ifvqea0","pricing_plan_id":"free"},{"bike_id":"64554d78-6897-4741-9b4a-600da36eb6be","system_id":"levelo_inurba_marseille","lat":43.304274,"lon":5.397513,"is_reserved":false,"is_disabled":false,"rental_uris":{"android":"levelo://app?vid=64554d78-6897-4741-9b4a-600da36eb6be","ios":"levelo://app?vid=64554d78-6897-4741-9b4a-600da36eb6be"},"vehicle_type_id":"4","last_reported":1707678277,"current_range_meters":30000,"station_id":"ce4bh092rcd13ifvqd20","pricing_plan_id":"free"},{"bike_id":"cc6bfad0-d6ad-4736-8168-4e8e176ccf64","system_id":"levelo_inurba_marseille","lat":43.30427,"lon":5.39758,"is_reserved":false,"is_disabled":false,"rental_uris":{"android":"levelo://app?vid=cc6bfad0-d6ad-4736-8168-4e8e176ccf64","ios":"levelo://app?vid=cc6bfad0-d6ad-4736-8168-4e8e176ccf64"},"vehicle_type_id":"4","last_reported":1707678277,"current_range_meters":17200,"station_id":"ce4bh092rcd13ifvqd20","pricing_plan_id":"free"},{"bike_id":"3711a31e-9414-458a-b4c8-4818361cad0d","system_id":"levelo_inurba_marseille","lat":43.304274,"lon":5.397513,"is_reserved":false,"is_disabled":false,"rental_uris":{"android":"levelo://app?vid=3711a31e-9414-458a-b4c8-4818361cad0d","ios":"levelo://app?vid=3711a31e-9414-458a-b4c8-4818361cad0d"},"vehicle_type_id":"4","last_reported":1707678277,"current_range_meters":24000,"station_id":"ce4bh092rcd13ifvqd20","pricing_plan_id":"free"},{"bike_id":"36da5920-b0e0-485a-932a-59c76621e961","system_id":"levelo_inurba_marseille","lat":43.30424,"lon":5.39757,"is_reserved":false,"is_disabled":false,"rental_uris":{"android":"levelo://app?vid=36da5920-b0e0-485a-932a-59c76621e961","ios":"levelo://app?vid=36da5920-b0e0-485a-932a-59c76621e961"},"vehicle_type_id":"4","last_reported":1707678277,"current_range_meters":3600,"station_id":"ce4bh092rcd13ifvqd20","pricing_plan_id":"free"},{"bike_id":"434fc846-ec49-42a8-a67d-aef06d1f37ed","system_id":"levelo_inurba_marseille","lat":43.29257,"lon":5.38447,"is_reserved":false,"is_disabled":false,"rental_uris":{"android":"levelo://app?vid=434fc846-ec49-42a8-a67d-aef06d1f37ed","ios":"levelo://app?vid=434fc846-ec49-42a8-a67d-aef06d1f37ed"},"vehicle_type_id":"4","last_reported":1707678277,"current_range_meters":3600,"station_id":"ce4bh692rcd13ifvqea0","pricing_plan_id":"free"},{"bike_id":"639b59c4-81e8-4b07-9236-6215d684c503","system_id":"levelo_inurba_marseille","lat":43.292642,"lon":5.384254,"is_reserved":false,"is_disabled":false,"rental_uris":{"android":"levelo://app?vid=639b59c4-81e8-4b07-9236-6215d684c503","ios":"levelo://app?vid=639b59c4-81e8-4b07-9236-6215d684c503"},"vehicle_type_id":"4","last_reported":1707678277,"current_range_meters":5200,"station_id":"ce4bh692rcd13ifvqea0","pricing_plan_id":"free"},{"bike_id":"a08e1416-5fe5-4075-a8d5-34cd02f0524d","system_id":"levelo_inurba_marseille","lat":43.292642,"lon":5.384254,"is_reserved":false,"is_disabled":false,"rental_uris":{"android":"levelo://app?vid=a08e1416-5fe5-4075-a8d5-34cd02f0524d","ios":"levelo://app?vid=a08e1416-5fe5-4075-a8d5-34cd02f0524d"},"vehicle_type_id":"4","last_reported":1707678277,"current_range_meters":16000,"station_id":"ce4bh692rcd13ifvqea0","pricing_plan_id":"free"},