{"last_updated":1726225690,"ttl":30,"version":"2.2","data":{"bikes":[{"bike_id":"bc35aeaa-3e4d-43e6-9935-c8f1110a4b4c","system_id":"levelo_inurba_marseille","lat":43.30503,"lon":5.36707,"is_reserved":false,"is_disabled":false,"rental_uris":{"android":"levelo://app?vid=bc35aeaa-3e4d-43e6-9935-c8f1110a4b4c","ios":"levelo://app?vid=bc35aeaa-3e4d-43e6-9935-c8f1110a4b4c"},"vehicle_type_id":"4","last_reported":1726225690,"current_range_meters":37600,"station_id":"ce4bgrp2rcd13ifvqc9g","pricing_plan_id":"cebpf4jnsgd1na2vs0mg"},{"bike_id":"2ca2fd52-6283-4397-ac7e-8db28b0c8f78","system_id":"levelo_inurba_marseille","lat":43.23196,"lon":5.35555,"is_reserved":false,"is_disabled":false,"rental_uris":{"android":"levelo://app?vid=2ca2fd52-6283-4397-ac7e-8db28b0c8f78","ios":"levelo://app?vid=2ca2fd52-6283-4397-ac7e-8db28b0c8f78"},"vehicle_type_id":"4","last_reported":1726225690,"current_range_meters":12000,"station_id":"ce4bhu92rcd13ifvqi70","pricing_plan_id":"cebpf4jnsgd1na2vs0mg"},{"bike_id":"1c10d87d-1b69-4a6b-91c3-4f2722075f3e","system_id":"levelo_inurba_marseille","lat":43.30584,"lon":5.39354,"is_reserved":false,"is_disabled":false,"rental_uris":{"android":"levelo://app?vid=1c10d87d-1b69-4a6b-91c3-4f2722075f3e","ios":"levelo://app?vid=1c10d87d-1b69-4a6b-91c3-4f2722075f3e"},"vehicle_type_id":"4","last_reported":1726225690,"current_range_meters":27200,"station_id":"ce4bh0p2rcd13ifvqd80","pricing_plan_id":"cebpf4jnsgd1na2vs0mg"},{"bike_id":"78daf548-540b-4a2e-b49b-346b3b3d76ec","system_id":"levelo_inurba_marseille","lat":43.23149,"lon":5.4372,"is_reserved":false,"is_disabled":false,"rental_uris":{"android":"levelo://app?vid=78daf548-540b-4a2e-b49b-346b3b3d76ec","ios":"levelo://app?vid=78daf548-540b-4a2e-b49b-346b3b3d76ec"},"vehicle_type_id":"4","last_reported":1726225690,"current_range_meters":17600,"station_id":"ce4bhmp2rcd13ifvqgog","pricing_plan_id":"cebpf4jnsgd1na2vs0mg"},{"bike_id":"ff8b69a8-b843-4d7f-8b6f-7bc0e5d8a315","system_id":"levelo_inurba_marseille","lat":43.29541,"lon":5.374387,"is_reserved":false,"is_disabled":false,"rental_uris":{"android":"levelo://app?vid=ff8b69a8-b843-4d7f-8b6f-7bc0e5d8a315","ios":"levelo://app?vid=ff8b69a8-b843-4d7f-8b6f-7bc0e5d8a315"},"vehicle_type_id":"4","last_reported":1726225690,"current_range_meters":39200,"station_id":"ce4bgh92rcd13ifvqb50","pricing_plan_id":"cebpf4jnsgd1na2vs0mg"},{"bike_id":"1433cc86-19c5-4d38-a0b5-c5c087739e0a","system_id":"levelo_inurba_marseille","lat":43.22932,"lon":5.35374,"is_reserved":false,"is_disabled":false,"rental_uris":{"android":"levelo://app?vid=1433cc86-19c5-4d38-a0b5-c5c087739e0a","ios":"levelo://app?vid=1433cc86-19c5-4d38-a0b5-c5c087739e0a"},"vehicle_type_id":"4","last_reported":1726225690,"current_range_meters":30800,"station_id":"cpo3532slgdg3j2ikp40","pricing_plan_id":"cebpf4jnsgd1na2vs0mg"},{"bike_id":"b9e4f95b-fca6-4dd9-ad61-00b58047b17d","system_id":"levelo_inurba_marseille","lat":43.292035,"lon":5.393199,"is_reserved":false,"is_disabled":false,"rental_uris":{"android":"levelo://app?vid=b9e4f95b-fca6-4dd9-ad61-00b58047b17d","ios":"levelo://app?vid=b9e4f95b-fca6-4dd9-ad61-00b58047b17d"},"vehicle_type_id":"4","last_reported":1726225690,"current_range_meters":37600,"station_id":"ce4bh192rcd13ifvqdd0","pricing_plan_id":"cebpf4jnsgd1na2vs0mg"},{"bike_id":"ae8c7bd4-e320-4650-aaec-5acdea38c512","system_id":"levelo_inurba_marseille","lat":43.28038,"lon":5.38718,"is_reserved":false,"is_disabled":false,"rental_uris":{"android":"levelo://app?vid=ae8c7bd4-e320-4650-aaec-5acdea38c512","ios":"levelo://app?vid=ae8c7bd4-e320-4650-aaec-5acdea38c512"},"vehicle_type_id":"4","last_reported":1726225690,"current_range_meters":22800,"station_id":"","pricing_plan_id":"cebpf4jnsgd1na2vs0mg"},{"bike_id":"98f29766-e561-41e4-8fcb-12e5daf32825","system_id":"levelo_inurba_marseille","lat":43.30527,"lon":5.36545,"is_reserved":false,"is_disabled":false,"rental_uris":{"android":"levelo://app?vid=98f29766-e561-41e4-8fcb-12e5daf32825","ios":"levelo://app?vid=98f29766-e561-41e4-8fcb-12e5daf32825"},"vehicle_type_id":"4","last_reported":1726225690,"current_range_meters":35600,"station_id":"ce4bgs12rcd13ifvqcag","pricing_plan_id":"cebpf4jnsgd1na2vs0mg"},{"bike_id":"5a08b62c-f477-47ab-96b0-f88dcab7aa7b","system_id":"levelo_inurba_marseille","lat":43.25116,"lon":5.40314,"is_reserved":false,"is_disabled":false,"rental_uris":{"android":"levelo://app?vid=5a08b62c-f477-47ab-96b0-f88dcab7aa7b","ios":"levelo://app?vid=5a08b62c-f477-47ab-96b0-f88dcab7aa7b"},"vehicle_type_id":"4","last_reported":1726225690,"current_range_meters":7200,"station_id":"ce4bhlh2rcd13ifvqgig","pricing_plan_id":"cebpf4jnsgd1na2vs0mg"},{"bike_id":"6857c5d1-5581-450d-a969-e54e4e134161","system_id":"levelo_inurba_marseille","lat":43.27559,"lon":5.3843,"is_reserved":false,"is_disabled":false,"rental_uris":{"android":"levelo://app?vid=6857c5d1-5581-450d-a969-e54e4e134161","ios":"levelo://app?vid=6857c5d1-5581-450d-a969-e54e4e134161"},"vehicle_type_id":"4","last_reported":1726225690,"current_range_meters":29600,"station_id":"ce4bhh92rcd13ifvqfi0","pricing_plan_id":"cebpf4jnsgd1na2vs0mg"},{"bike_id":"fcc3c6dd-67f7-4690-a54a-5d6970eeb442","system_id":"levelo_inurba_marseille","lat":43.30314,"lon":5.36906,"is_reserved":false,"is_disabled":false,"rental_uris":{"android":"levelo://app?vid=fcc3c6dd-67f7-4690-a54a-5d6970eeb442","ios":"levelo://app?vid=fcc3c6dd-67f7-4690-a54a-5d6970eeb442"},"vehicle_type_id":"4","last_reported":1726225690,"current_range_meters":23200,"station_id":"ce4bgqh2rcd13ifvqc5g","pricing_plan_id":"cebpf4jnsgd1na2vs0mg"},{"bike_id":"20a93905-b3a1-4ead-a861-f6bd36aa5b5e","system_id":"levelo_inurba_marseille","lat":43.23155,"lon":5.4371,"is_reserved":false,"is_disabled":false,"rental_uris":{"android":"levelo://app?vid=20a93905-b3a1-4ead-a861-f6bd36aa5b5e","ios":"levelo://app?vid=20a93905-b3a1-4ead-a861-f6bd36aa5b5e"},"vehicle_type_id":"4","last_reported":1726225690,"current_range_meters":20000,"station_id":"ce4bhmp2rcd13ifvqgog","pricing_plan_id":"cebpf4jnsgd1na2vs0mg"},{"bike_id":"118d8d6e-e982-4920-9eff-10d0a637c53e","system_id":"levelo_inurba_marseille","lat":43.24076,"lon":5.37748,"is_reserved":false,"is_disabled":false,"rental_uris":{"android":"levelo://app?vid=118d8d6e-e982-4920-9eff-10d0a637c53e","ios":"levelo://app?vid=118d8d6e-e982-4920-9eff-10d0a637c53e"},"vehicle_type_id":"4","last_reported":1726225690,"current_range_meters":8800,"station_id":"ce4bhnp2rcd13ifvqgvg","pricing_plan_id":"cebpf4jnsgd1na2vs0mg"},{"bike_id":"29f30701-11ae-4a1b-8e85-a7687dc90e52","system_id":"levelo_inurba_marseille","lat":43.31705,"lon":5.3774,"is_reserved":false,"is_disabled":false,"rental_uris":{"android":"levelo://app?vid=29f30701-11ae-4a1b-8e85-a7687dc90e52","ios":"levelo://app?vid=29f30701-11ae-4a1b-8e85-a7687dc90e52"},"vehicle_type_id":"4","last_reported":1726225690,"current_range_meters":13600,"station_id":"ce4bgth2rcd13ifvqch0","pricing_plan_id":"cebpf4jnsgd1na2vs0mg"},{"bike_id":"f45d9413-9a73-47f2-a10e-0dc762623601","system_id":"levelo_inurba_marseille","lat":43.23152,"lon":5.43703,"is_reserved":false,"is_disabled":false,"rental_uris":{"android":"levelo://app?vid=f45d9413-9a73-47f2-a10e-0dc762623601","ios":"levelo://app?vid=f45d9413-9a73-47f2-a10e-0dc762623601"},"vehicle_type_id":"4","last_reported":1726225690,"current_range_meters":39200,"station_id":"ce4bhmp2rcd13ifvqgog","pricing_plan_id":"cebpf4jnsgd1na2vs0mg"},{"bike_id":"b034a862-6b83-49a5-82ea-39d786c095c0","system_id":"levelo_inurba_marseille","lat":43.33749,"lon":5.37454,"is_reserved":false,"is_disabled":false,"rental_uris":{"android":"levelo://app?vid=b034a862-6b83-49a5-82ea-39d786c095c0","ios":"levelo://app?vid=b034a862-6b83-49a5-82ea-39d786c095c0"},"vehicle_type_id":"4","last_reported":1726225690,"current_range_meters":14400,"station_id":"","pricing_plan_id":"cebpf4jnsgd1na2vs0mg"},{"bike_id":"13ec4916-f0ea-4897-8afc-596425b42c42","system_id":"levelo_inurba_marseille","lat":43.23186,"lon":5.35559,"is_reserved":false,"is_disabled":false,"rental_uris":{"android":"levelo://app?vid=13ec4916-f0ea-4897-8afc-596425b42c42","ios":"levelo://app?vid=13ec4916-f0ea-4897-8afc-596425b42c42"},"vehicle_type_id":"4","last_reported":1726225690,"current_range_meters":32400,"station_id":"ce4bhu92rcd13ifvqi70","pricing_plan_id":"cebpf4jnsgd1na2vs0mg"},{"bike_id":"c2180115-71d9-4662-a5f1-aab34f7000c2","system_id":"levelo_inurba_marseille","lat":43.26544,"lon":5.37319,"is_reserved":false,"is_disabled":false,"rental_uris":{"android":"levelo://app?vid=c2180115-71d9-4662-a5f1-aab34f7000c2","ios":"levelo://app?vid=c2180115-71d9-4662-a5f1-aab34f7000c2"},"vehicle_type_id":"4","last_reported":1726225690,"current_range_meters":23200,"station_id":"ce4bhg12rcd13ifvqf70","pricing_plan_id":"cebpf4jnsgd1na2vs0mg"},{"bike_id":"171e7c83-45c5-4f40-968b-a2410f7f37a5","system_id":"levelo_inurba_marseille","lat":43.23175,"lon":5.40009,"is_reserved":false,"is_disabled":false,"rental_uris":{"android":"levelo://app?vid=171e7c83-45c5-4f40-968b-a2410f7f37a5","ios":"levelo://app?vid=171e7c83-45c5-4f40-968b-a2410f7f37a5"},"vehicle_type_id":"4","last_reported":1726225690,"current_range_meters":27600,"station_id":"ce4bhn12rcd13ifvqgqg","pricing_plan_id":"cebpf4jnsgd1na2vs0mg"},{"bike_id":"a59d64a6-0c90-478e-8726-6eda2f84c2f7","system_id":"levelo_inurba_marseille","lat":43.26035,"lon":5.37546,"is_reserved":false,"is_disabled":false,"rental_uris":{"android":"levelo://app?vid=a59d64a6-0c90-478e-8726-6eda2f84c2f7","ios":"levelo://app?vid=a59d64a6-0c90-478e-8726-6eda2f84c2f7"},"vehicle_type_id":"4","last_reported":1726225690,"current_range_meters":5600,"station_id":"ce4bhgh2rcd13ifvqfa0","pricing_plan_id":"cebpf4jnsgd1na2vs0mg"},{"bike_id":"d035d579-2e69-4a79-8e97-e3875f643f43","system_id":"levelo_inurba_marseille","lat":43.25823,"lon":5.39427,"is_reserved":false,"is_disabled":false,"rental_uris":{"android":"levelo://app?vid=d035d579-2e69-4a79-8e97-e3875f643f43","ios":"levelo://app?vid=d035d579-2e69-4a79-8e97-e3875f643f43"},"vehicle_type_id":"4","last_reported":1726225690,"current_range_meters":38800,"station_id":"ce4bhip2rcd13ifvqft0","pricing_plan_id":"cebpf4jnsgd1na2vs0mg"},{"bike_id":"acd8a3d5-a9db-4ea3-b234-2a790cfd605a","system_id":"levelo_inurba_marseille","lat":43.23963,"lon":5.36617,"is_reserved":false,"is_disabled":false,"rental_uris":{"android":"levelo://app?vid=acd8a3d5-a9db-4ea3-b234-2a790cfd605a","ios":"levelo://app?vid=acd8a3d5-a9db-4ea3-b234-2a790cfd605a"},"vehicle_type_id":"4","last_reported":1726225690,"current_range_meters":16800,"station_id":"ce4bhi12rcd13ifvqfp0","pricing_plan_id":"cebpf4jnsgd1na2vs0mg"},{"bike_id":"5a4b98e3-b101-4032-a81c-ea5d9a3d1cb3","system_id":"levelo_inurba_marseille","lat":43.308899,"lon":5.39173,"is_reserved":false,"is_disabled":false,"rental_uris":{"android":"levelo://app?vid=5a4b98e3-b101-4032-a81c-ea5d9a3d1cb3","ios":"levelo://app?vid=5a4b98e3-b101-4032-a81c-ea5d9a3d1cb3"},"vehicle_type_id":"4","last_reported":1726225690,"current_range_meters":11200,"station_id":"ce4bgup2rcd13ifvqco0","pricing_plan_id":"cebpf4jnsgd1na2vs0mg"},{"bike_id":"ee5bd0a5-1257-48de-9343-ea8521c36cdd","system_id":"levelo_inurba_marseille","lat":43.2319,"lon":5.3556,"is_reserved":false,"is_disabled":false,"rental_uris":{"android":"levelo://app?vid=ee5bd0a5-1257-48de-9343-ea8521c36cdd","ios":"levelo://app?vid=ee5bd0a5-1257-48de-9343-ea8521c36cdd"},"vehicle_type_id":"4","last_reported":1726225690,"current_range_meters":3200,"station_id":"ce4bhu92rcd13ifvqi70","pricing_plan_id":"cebpf4jnsgd1na2vs0mg"},{"bike_id":"995d3a7e-289e-4ebd-b785-9d2da426ad57","system_id":"levelo_inurba_marseille","lat":43.23196,"lon":5.35549,"is_reserved":false,"is_disabled":false,"rental_uris":{"android":"levelo://app?vid=995d3a7e-289e-4ebd-b785-9d2da426ad57","ios":"levelo://app?vid=995d3a7e-289e-4ebd-b785-9d2da426ad57"},"vehicle_type_id":"4","last_reported":1726225690,"current_range_meters":26000,"station_id":"ce4bhu92rcd13ifvqi70","pricing_plan_id":"cebpf4jnsgd1na2vs0mg"},{"bike_id":"74c67d55-8a5f-40c9-8066-d68354718f8c","system_id":"levelo_inurba_marseille","lat":43.23185,"lon":5.35556,"is_reserved":false,"is_disabled":false,"rental_uris":{"android":"levelo://app?vid=74c67d55-8a5f-40c9-8066-d68354718f8c","ios":"levelo://app?vid=74c67d55-8a5f-40c9-8066-d68354718f8c"},"vehicle_type_id":"4","last_reported":1726225690,"current_range_meters":30400,"station_id":"ce4bhu92rcd13ifvqi70","pricing_plan_id":"cebpf4jnsgd1na2vs0mg"},{"bike_id":"e2be0aea-67dc-4dc6-b46f-e2412631f2dd","system_id":"levelo_inurba_marseille","lat":43.25,"lon":5.38922,"is_reserved":false,"is_disabled":false,"rental_uris":{"android":"levelo://app?vid=e2be0aea-67dc-4dc6-b46f-e2412631f2dd","ios":"levelo://app?vid=e2be0aea-67dc-4dc6-b46f-e2412631f2dd"},"vehicle_type_id":"4","last_reported":1726225690,"current_range_meters":8400,"station_id":"ce4bhgp2rcd13ifvqfd0","pricing_plan_id":"cebpf4jnsgd1na2vs0mg"},{"bike_id":"18363dd6-7c9b-4898-acf1-e538c99e26ab","system_id":"levelo_inurba_marseille","lat":43.30551,"lon":5.36553,"is_reserved":false,"is_disabled":false,"rental_uris":{"android":"levelo://app?vid=18363dd6-7c9b-4898-acf1-e538c99e26ab","ios":"levelo://app?vid=18363dd6-7c9b-4898-acf1-e538c99e26ab"},"vehicle_type_id":"4","last_reported":1726225690,"current_range_meters":38800,"station_id":"ce4bgs12rcd13ifvqcag","pricing_plan_id":"cebpf4jnsgd1na2vs0mg"},{"bike_id":"2d5cc70c-d448-46c2-a6a9-d1789725d8cc","system_id":"levelo_inurba_marseille","lat":43.31219,"lon":5.36864,"is_reserved":false,"is_disabled":false,"rental_uris":{"android":"levelo://app?vid=2d5cc70c-d448-46c2-a6a9-d1789725d8cc","ios":"levelo://app?vid=2d5cc70c-d448-46c2-a6a9-d1789725d8cc"},"vehicle_type_id":"4","last_reported":1726225690,"current_range_meters":37600,"station_id":"ce4bgl92rcd13ifvqbq0","pricing_plan_id":"cebpf4jnsgd1na2vs0mg"},{"bike_id":"ddcd6a1d-6048-412e-a374-9c40896ddcb7","system_id":"levelo_inurba_marseille","lat":43.23156,"lon":5.43709,"is_reserved":false,"is_disabled":false,"rental_uris":{"android":"levelo://app?vid=ddcd6a1d-6048-412e-a374-9c40896ddcb7","ios":"levelo://app?vid=ddcd6a1d-6048-412e-a374-9c40896ddcb7"},"vehicle_type_id":"4","last_reported":1726225690,"current_range_meters":14400,"station_id":"ce4bhmp2rcd13ifvqgog","pricing_plan_id":"cebpf4jnsgd1na2vs0mg"},{"bike_id":"bc1f9ee6-6c05-44c6-92c7-2751eeec6797","system_id":"levelo_inurba_marseille","lat":43.28368,"lon":5.38088,"is_reserved":false,"is_disabled":false,"rental_uris":{"android":"levelo://app?vid=bc1f9ee6-6c05-44c6-92c7-2751eeec6797","ios":"levelo://app?vid=bc1f9ee6-6c05-44c6-92c7-2751eeec6797"},"vehicle_type_id":"4","last_reported":1726225690,"current_range_meters":4800,"station_id":"ce4bh412rcd13ifvqdr0","pricing_plan_id":"cebpf4jnsgd1na2vs0mg"},{"bike_id":"791ac8ea-135d-413f-8ebf-7612e1960b4f","system_id":"levelo_inurba_marseille","lat":43.31994,"lon":5.38165,"is_reserved":false,"is_disabled":false,"rental_uris":{"android":"levelo://app?vid=791ac8ea-135d-413f-8ebf-7612e1960b4f","ios":"levelo://app?vid=791ac8ea-135d-413f-8ebf-7612e1960b4f"},"vehicle_type_id":"4","last_reported":1726225690,"current_range_meters":38000,"station_id":"ce4bhr12rcd13ifvqhpg","pricing_plan_id":"cebpf4jnsgd1na2vs0mg"},{"bike_id":"8650baf2-bb77-4de5-86db-3d5c55fc9920","system_id":"levelo_inurba_marseille","lat":43.2984,"lon":5.36264,"is_reserved":false,"is_disabled":false,"rental_uris":{"android":"levelo://app?vid=8650baf2-bb77-4de5-86db-3d5c55fc9920","ios":"levelo://app?vid=8650baf2-bb77-4de5-86db-3d5c55fc9920"},"vehicle_type_id":"4","last_reported":1726225690,"current_range_meters":38800,"station_id":"ce4bgpp2rcd13ifvqc3g","pricing_plan_id":"cebpf4jnsgd1na2vs0mg"},{"bike_id":"27e95d5b-6b13-4137-adb1-60fe31aab008","system_id":"levelo_inurba_marseille","lat":43.29711,"lon":5.37688,"is_reserved":false,"is_disabled":false,"rental_uris":{"android":"levelo://app?vid=27e95d5b-6b13-4137-adb1-60fe31aab008","ios":"levelo://app?vid=27e95d5b-6b13-4137-adb1-60fe31aab008"},"vehicle_type_id":"4","last_reported":1726225690,"current_range_meters":9600,"station_id":"ce4bgkh2rcd13ifvqbl0","pricing_plan_id":"cebpf4jnsgd1na2vs0mg"},{"bike_id":"d84214b9-11c2-4a5e-8f9e-9bd274cfac2e","system_id":"levelo_inurba_marseille","lat":43.266828,"lon":5.382724,"is_reserved":false,"is_disabled":false,"rental_uris":{"android":"levelo://app?vid=d84214b9-11c2-4a5e-8f9e-9bd274cfac2e","ios":"levelo://app?vid=d84214b9-11c2-4a5e-8f9e-9bd274cfac2e"},"vehicle_type_id":"4","last_reported":1726225690,"current_range_meters":28000,"station_id":"ce4bhg92rcd13ifvqf90","pricing_plan_id":"cebpf4jnsgd1na2vs0mg"},{"bike_id":"445c1462-9e37-40c2-92bd-b577e6c50a54","system_id":"levelo_inurba_marseille","lat":43.26947,"lon":5.38625,"is_reserved":false,"is_disabled":false,"rental_uris":{"android":"levelo://app?vid=445c1462-9e37-40c2-92bd-b577e6c50a54","ios":"levelo://app?vid=445c1462-9e37-40c2-92bd-b577e6c50a54"},"vehicle_type_id":"4","last_reported":1726225690,"current_range_meters":34000,"station_id":"ce4bhh92rcd13ifvqfh0","pricing_plan_id":"cebpf4jnsgd1na2vs0mg"},{"bike_id":"1a16481d-3f7e-485b-9333-22b39a53bcd2","system_id":"levelo_inurba_marseille","lat":43.28715,"lon":5.3609,"is_reserved":false,"is_disabled":false,"rental_uris":{"android":"levelo://app?vid=1a16481d-3f7e-485b-9333-22b39a53bcd2","ios":"levelo://app?vid=1a16481d-3f7e-485b-9333-22b39a53bcd2"},"vehicle_type_id":"4","last_reported":1726225690,"current_range_meters":38800,"station_id":"cki0cbj6b192h4jlfktg","pricing_plan_id":"cebpf4jnsgd1na2vs0mg"},{"bike_id":"8443083a-812f-41cc-be82-42499f6478bf","system_id":"levelo_inurba_marseille","lat":43.264496,"lon":5.395684,"is_reserved":false,"is_disabled":false,"rental_uris":{"android":"levelo://app?vid=8443083a-812f-41cc-be82-42499f6478bf","ios":"levelo://app?vid=8443083a-812f-41cc-be82-42499f6478bf"},"vehicle_type_id":"4","last_reported":1726225690,"current_range_meters":11200,"station_id":"ce4bhhp2rcd13ifvqfm0","pricing_plan_id":"cebpf4jnsgd1na2vs0mg"},{"bike_id":"aa689c1c-3c0a-4234-b839-49df408e75e9","system_id":"levelo_inurba_marseille","lat":43.27073,"lon":5.42278,"is_reserved":false,"is_disabled":false,"rental_uris":{"android":"levelo://app?vid=aa689c1c-3c0a-4234-b839-49df408e75e9","ios":"levelo://app?vid=aa689c1c-3c0a-4234-b839-49df408e75e9"},"vehicle_type_id":"4","last_reported":1726225690,"current_range_meters":28000,"station_id":"ce4bhk92rcd13ifvqgb0","pricing_plan_id":"cebpf4jnsgd1na2vs0mg"},{"bike_id":"60090bfa-093b-4439-9758-549085c2fd6f","system_id":"levelo_inurba_marseille","lat":43.26551,"lon":5.37282,"is_reserved":false,"is_disabled":false,"rental_uris":{"android":"levelo://app?vid=60090bfa-093b-4439-9758-549085c2fd6f","ios":"levelo://app?vid=60090bfa-093b-4439-9758-549085c2fd6f"},"vehicle_type_id":"4","last_reported":1726225690,"current_range_meters":20800,"station_id":"ce4bhg12rcd13ifvqf70","pricing_plan_id":"cebpf4jnsgd1na2vs0mg"},{"bike_id":"3e7284f6-6b22-423f-83c6-066d093107cb","system_id":"levelo_inurba_marseille","lat":43.27607,"lon":5.36109,"is_reserved":false,"is_disabled":false,"rental_uris":{"android":"levelo://app?vid=3e7284f6-6b22-423f-83c6-066d093107cb","ios":"levelo://app?vid=3e7284f6-6b22-423f-83c6-066d093107cb"},"vehicle_type_id":"4","last_reported":1726225690,"current_range_meters":28000,"station_id":"ce4bgj92rcd13ifvqbe0","pricing_plan_id":"cebpf4jnsgd1na2vs0mg"},{"bike_id":"34a29181-3def-4d1d-af94-00f754972e67","system_id":"levelo_inurba_marseille","lat":43.30793,"lon":5.38158,"is_reserved":false,"is_disabled":false,"rental_uris":{"android":"levelo://app?vid=34a29181-3def-4d1d-af94-00f754972e67","ios":"levelo://app?vid=34a29181-3def-4d1d-af94-00f754972e67"},"vehicle_type_id":"4","last_reported":1726225690,"current_range_meters":36800,"station_id":"ce4bgt12rcd13ifvqce0","pricing_plan_id":"cebpf4jnsgd1na2vs0mg"},{"bike_id":"39b86749-80ef-4310-953b-c60370086942","system_id":"levelo_inurba_marseille","lat":43.24543,"lon":5.39523,"is_reserved":false,"is_disabled":false,"rental_uris":{"android":"levelo://app?vid=39b86749-80ef-4310-953b-c60370086942","ios":"levelo://app?vid=39b86749-80ef-4310-953b-c60370086942"},"vehicle_type_id":"4","last_reported":1726225690,"current_range_meters":30800,"station_id":"ce4bhlp2rcd13ifvqgjg","pricing_plan_id":"cebpf4jnsgd1na2vs0mg"},{"bike_id":"6a8f2f10-9a94-4930-acf4-9d3abaa17531","system_id":"levelo_inurba_marseille","lat":43.25499,"lon":5.37651,"is_reserved":false,"is_disabled":false,"rental_uris":{"android":"levelo://app?vid=6a8f2f10-9a94-4930-acf4-9d3abaa17531","ios":"levelo://app?vid=6a8f2f10-9a94-4930-acf4-9d3abaa17531"},"vehicle_type_id":"4","last_reported":1726225690,"current_range_meters":36400,"station_id":"ce4bhh12rcd13ifvqff0","pricing_plan_id":"cebpf4jnsgd1na2vs0mg"},{"bike_id":"622dc3cf-f96c-446f-a774-3cb433a86ab1","system_id":"levelo_inurba_marseille","lat":43.30071,"lon":5.39084,"is_reserved":false,"is_disabled":false,"rental_uris":{"android":"levelo://app?vid=622dc3cf-f96c-446f-a774-3cb433a86ab1","ios":"levelo://app?vid=622dc3cf-f96c-446f-a774-3cb433a86ab1"},"vehicle_type_id":"4","last_reported":1726225690,"current_range_meters":13600,"station_id":"ce4bh192rcd13ifvqdb0","pricing_plan_id":"cebpf4jnsgd1na2vs0mg"},{"bike_id":"6e702bc1-92e5-4f81-974a-281cae37a1db","system_id":"levelo_inurba_marseille","lat":43.2558,"lon":5.38238,"is_reserved":false,"is_disabled":false,"rental_uris":{"android":"levelo://app?vid=6e702bc1-92e5-4f81-974a-281cae37a1db","ios":"levelo://app?vid=6e702bc1-92e5-4f81-974a-281cae37a1db"},"vehicle_type_id":"4","last_reported":1726225690,"current_range_meters":33600,"station_id":"ce4bhih2rcd13ifvqfs0","pricing_plan_id":"cebpf4jnsgd1na2vs0mg"},{"bike_id":"463a29c6-de5f-452d-8ad2-3526bf777173","system_id":"levelo_inurba_marseille","lat":43.3053,"lon":5.36548,"is_reserved":false,"is_disabled":false,"rental_uris":{"android":"levelo://app?vid=463a29c6-de5f-452d-8ad2-3526bf777173","ios":"levelo://app?vid=463a29c6-de5f-452d-8ad2-3526bf777173"},"vehicle_type_id":"4","last_reported":1726225690,"current_range_meters":39200,"station_id":"ce4bgs12rcd13ifvqcag","pricing_plan_id":"cebpf4jnsgd1na2vs0mg"},{"bike_id":"0c6740eb-37e5-4be7-9bb4-b6fb92b8eb51","system_id":"levelo_inurba_marseille","lat":43.29527,"lon":5.38541,"is_reserved":false,"is_disabled":false,"rental_uris":{"android":"levelo://app?vid=0c6740eb-37e5-4be7-9bb4-b6fb92b8eb51","ios":"levelo://app?vid=0c6740eb-37e5-4be7-9bb4-b6fb92b8eb51"},"vehicle_type_id":"4","last_reported":1726225690,"current_range_meters":37600,"station_id":"ce4bgih2rcd13ifvqba0","pricing_plan_id":"cebpf4jnsgd1na2vs0mg"},{"bike_id":"425f21c7-f4ae-4733-9682-7d73da03e587","system_id":"levelo_inurba_marseille","lat":43.24805,"lon":5.37451,"is_reserved":false,"is_disabled":false,"rental_uris":{"android":"levelo://app?vid=425f21c7-f4ae-4733-9682-7d73da03e587","ios":"levelo://app?vid=425f21c7-f4ae-4733-9682-7d73da03e587"},"vehicle_type_id":"4","last_reported":1726225690,"current_range_meters":38800,"station_id":"ce4bhgh2rcd13ifvqfb0","pricing_plan_id":"cebpf4jnsgd1na2vs0mg"},{"bike_id":"d5ba583c-b229-461d-b76f-71e245177b9f","system_id":"levelo_inurba_marseille","lat":43.27065,"lon":5.42279,"is_reserved":false,"is_disabled":false,"rental_uris":{"android":"levelo://app?vid=d5ba583c-b229-461d-b76f-71e245177b9f","ios":"levelo://app?vid=d5ba583c-b229-461d-b76f-71e245177b9f"},"vehicle_type_id":"4","last_reported":1726225690,"current_range_meters":23200,"station_id":"ce4bhk92rcd13ifvqgb0","pricing_plan_id":"cebpf4jnsgd1na2vs0mg"},{"bike_id":"1fed9f32-241a-4793-84de-4bd653e34ed0","system_id":"levelo_inurba_marseille","lat":43.281674,"lon":5.426126,"is_reserved":false,"is_disabled":false,"rental_uris":{"android":"levelo://app?vid=1fed9f32-241a-4793-84de-4bd653e34ed0","ios":"levelo://app?vid=1fed9f32-241a-4793-84de-4bd653e34ed0"},"vehicle_type_id":"4","last_reported":1726225690,"current_range_meters":17200,"station_id":"ce4bhnh2rcd13ifvqgug","pricing_plan_id":"cebpf4jnsgd1na2vs0mg"},{"bike_id":"2e07b390-abcf-46f6-a8a9-228e48a8d6c1","system_id":"levelo_inurba_marseille","lat":43.26777,"lon":5.39419,"is_reserved":false,"is_disabled":false,"rental_uris":{"android":"levelo://app?vid=2e07b390-abcf-46f6-a8a9-228e48a8d6c1","ios":"levelo://app?vid=2e07b390-abcf-46f6-a8a9-228e48a8d6c1"},"vehicle_type_id":"4","last_reported":1726225690,"current_range_meters":38400,"station_id":"ce4bhh12rcd13ifvqfg0","pricing_plan_id":"cebpf4jnsgd1na2vs0mg"},{"bike_id":"4067cf6c-6e3d-4ac9-99bf-c1b92b69f736","system_id":"levelo_inurba_marseille","lat":43.32485,"lon":5.36557,"is_reserved":false,"is_disabled":false,"rental_uris":{"android":"levelo://app?vid=4067cf6c-6e3d-4ac9-99bf-c1b92b69f736","ios":"levelo://app?vid=4067cf6c-6e3d-4ac9-99bf-c1b92b69f736"},"vehicle_type_id":"4","last_reported":1726225690,"current_range_meters":24800,"station_id":"ce4bhs12rcd13ifvqhvg","pricing_plan_id":"cebpf4jnsgd1na2vs0mg"},{"bike_id":"9a294201-177a-42e2-b4e6-ec74738f7951","system_id":"levelo_inurba_marseille","lat":43.26951,"lon":5.3863,"is_reserved":false,"is_disabled":false,"rental_uris":{"android":"levelo://app?vid=9a294201-177a-42e2-b4e6-ec74738f7951","ios":"levelo://app?vid=9a294201-177a-42e2-b4e6-ec74738f7951"},"vehicle_type_id":"4","last_reported":1726225690,"current_range_meters":39200,"station_id":"ce4bhh92rcd13ifvqfh0","pricing_plan_id":"cebpf4jnsgd1na2vs0mg"},{"bike_id":"de0c03fd-df53-4c90-bdc6-56641ff0a144","system_id":"levelo_inurba_marseille","lat":43.28415,"lon":5.34986,"is_reserved":false,"is_disabled":false,"rental_uris":{"android":"levelo://app?vid=de0c03fd-df53-4c90-bdc6-56641ff0a144","ios":"levelo://app?vid=de0c03fd-df53-4c90-bdc6-56641ff0a144"},"vehicle_type_id":"4","last_reported":1726225690,"current_range_meters":16400,"station_id":"ce4bhbh2rcd13ifvqepg","pricing_plan_id":"cebpf4jnsgd1na2vs0mg"},{"bike_id":"52dec6c0-687d-4479-8d92-ca742da95fed","system_id":"levelo_inurba_marseille","lat":43.24661,"lon":5.38161,"is_reserved":false,"is_disabled":false,"rental_uris":{"android":"levelo://app?vid=52dec6c0-687d-4479-8d92-ca742da95fed","ios":"levelo://app?vid=52dec6c0-687d-4479-8d92-ca742da95fed"},"vehicle_type_id":"4","last_reported":1726225690,"current_range_meters":24400,"station_id":"ce4bhih2rcd13ifvqfr0","pricing_plan_id":"cebpf4jnsgd1na2vs0mg"},{"bike_id":"eaf3218e-3b2a-4dde-9c15-99a6c4254e56","system_id":"levelo_inurba_marseille","lat":43.29895,"lon":5.43662,"is_reserved":false,"is_disabled":false,"rental_uris":{"android":"levelo://app?vid=eaf3218e-3b2a-4dde-9c15-99a6c4254e56","ios":"levelo://app?vid=eaf3218e-3b2a-4dde-9c15-99a6c4254e56"},"vehicle_type_id":"4","last_reported":1726225690,"current_range_meters":38800,"station_id":"ce4bhpp2rcd13ifvqhfg","pricing_plan_id":"cebpf4jnsgd1na2vs0mg"},{"bike_id":"88db3a1b-7722-48a5-a994-64dc5a73a8d6","system_id":"levelo_inurba_marseille","lat":43.3133,"lon":5.36718,"is_reserved":false,"is_disabled":false,"rental_uris":{"android":"levelo://app?vid=88db3a1b-7722-48a5-a994-64dc5a73a8d6","ios":"levelo://app?vid=88db3a1b-7722-48a5-a994-64dc5a73a8d6"},"vehicle_type_id":"4","last_reported":1726225690,"current_range_meters":34000,"station_id":"ce4bgr92rcd13ifvqc6g","pricing_plan_id":"cebpf4jnsgd1na2vs0mg"},{"bike_id":"6dfe49f4-83e2-40d0-8865-0920a4415a17","system_id":"levelo_inurba_marseille","lat":43.2969,"lon":5.37688,"is_reserved":false,"is_disabled":false,"rental_uris":{"android":"levelo://app?vid=6dfe49f4-83e2-40d0-8865-0920a4415a17","ios":"levelo://app?vid=6dfe49f4-83e2-40d0-8865-0920a4415a17"},"vehicle_type_id":"4","last_reported":1726225690,"current_range_meters":38800,"station_id":"ce4bgkh2rcd13ifvqbl0","pricing_plan_id":"cebpf4jnsgd1na2vs0mg"},{"bike_id":"0ea99d89-f29c-4e54-9766-bdcd2d65271c","system_id":"levelo_inurba_marseille","lat":43.22935,"lon":5.35376,"is_reserved":false,"is_disabled":false,"rental_uris":{"android":"levelo://app?vid=0ea99d89-f29c-4e54-9766-bdcd2d65271c","ios":"levelo://app?vid=0ea99d89-f29c-4e54-9766-bdcd2d65271c"},"vehicle_type_id":"4","last_reported":1726225690,"current_range_meters":27600,"station_id":"cpo3532slgdg3j2ikp40","pricing_plan_id":"cebpf4jnsgd1na2vs0mg"},{"bike_id":"ba81e19a-02db-4df6-ba4c-045bfb8f6f7d","system_id":"levelo_inurba_marseille","lat":43.30526,"lon":5.36542,"is_reserved":false,"is_disabled":false,"rental_uris":{"android":"levelo://app?vid=ba81e19a-02db-4df6-ba4c-045bfb8f6f7d","ios":"levelo://app?vid=ba81e19a-02db-4df6-ba4c-045bfb8f6f7d"},"vehicle_type_id":"4","last_reported":1726225690,"current_range_meters":38800,"station_id":"ce4bgs12rcd13ifvqcag","pricing_plan_id":"cebpf4jnsgd1na2vs0mg"},{"bike_id":"45eb7e78-e68d-4dc7-9f08-324dadf34c21","system_id":"levelo_inurba_marseille","lat":43.23148,"lon":5.43719,"is_reserved":false,"is_disabled":false,"rental_uris":{"android":"levelo://app?vid=45eb7e78-e68d-4dc7-9f08-324dadf34c21","ios":"levelo://app?vid=45eb7e78-e68d-4dc7-9f08-324dadf34c21"},"vehicle_type_id":"4","last_reported":1726225690,"current_range_meters":17200,"station_id":"ce4bhmp2rcd13ifvqgog","pricing_plan_id":"cebpf4jnsgd1na2vs0mg"},{"bike_id":"aaae1a29-4857-4034-84be-78baad5a5e31","system_id":"levelo_inurba_marseille","lat":43.27986,"lon":5.4166,"is_reserved":false,"is_disabled":false,"rental_uris":{"android":"levelo://app?vid=aaae1a29-4857-4034-84be-78baad5a5e31","ios":"levelo://app?vid=aaae1a29-4857-4034-84be-78baad5a5e31"},"vehicle_type_id":"4","last_reported":1726225690,"current_range_meters":6800,"station_id":"ce4bho12rcd13ifvqh1g","pricing_plan_id":"cebpf4jnsgd1na2vs0mg"},{"bike_id":"e49093f7-6383-4e7f-9f16-cb91fa6cb74b","system_id":"levelo_inurba_marseille","lat":43.24994,"lon":5.3893,"is_reserved":false,"is_disabled":false,"rental_uris":{"android":"levelo://app?vid=e49093f7-6383-4e7f-9f16-cb91fa6cb74b","ios":"levelo://app?vid=e49093f7-6383-4e7f-9f16-cb91fa6cb74b"},"vehicle_type_id":"4","last_reported":1726225690,"current_range_meters":26800,"station_id":"ce4bhgp2rcd13ifvqfd0","pricing_plan_id":"cebpf4jnsgd1na2vs0mg"},{"bike_id":"02d8b35c-e0d4-461e-ba03-7a87c41f4ae0","system_id":"levelo_inurba_marseille","lat":43.261313,"lon":5.379376,"is_reserved":false,"is_disabled":false,"rental_uris":{"android":"levelo://app?vid=02d8b35c-e0d4-461e-ba03-7a87c41f4ae0","ios":"levelo://app?vid=02d8b35c-e0d4-461e-ba03-7a87c41f4ae0"},"vehicle_type_id":"4","last_reported":1726225690,"current_range_meters":8400,"station_id":"ce4bhb92rcd13ifvqen0","pricing_plan_id":"cebpf4jnsgd1na2vs0mg"},{"bike_id":"088f292c-aa53-4034-aaf8-d9607bfb2c08","system_id":"levelo_inurba_marseille","lat":43.337444,"lon":5.374475,"is_reserved":false,"is_disabled":false,"rental_uris":{"android":"levelo://app?vid=088f292c-aa53-4034-aaf8-d9607bfb2c08","ios":"levelo://app?vid=088f292c-aa53-4034-aaf8-d9607bfb2c08"},"vehicle_type_id":"4","last_reported":1726225690,"current_range_meters":16000,"station_id":"","pricing_plan_id":"cebpf4jnsgd1na2vs0mg"},{"bike_id":"8764129a-9b8d-4490-a1c9-f9fa60b4a560","system_id":"levelo_inurba_marseille","lat":43.33609,"lon":5.41028,"is_reserved":false,"is_disabled":false,"rental_uris":{"android":"levelo://app?vid=8764129a-9b8d-4490-a1c9-f9fa60b4a560","ios":"levelo://app?vid=8764129a-9b8d-4490-a1c9-f9fa60b4a560"},"vehicle_type_id":"4","last_reported":1726225690,"current_range_meters":38800,"station_id":"ce4bhqh2rcd13ifvqhmg","pricing_plan_id":"cebpf4jnsgd1na2vs0mg"},{"bike_id":"47be5376-1de4-48e3-818b-a080f6ed9b17","system_id":"levelo_inurba_marseille","lat":43.34142,"lon":5.40898,"is_reserved":false,"is_disabled":false,"rental_uris":{"android":"levelo://app?vid=47be5376-1de4-48e3-818b-a080f6ed9b17","ios":"levelo://app?vid=47be5376-1de4-48e3-818b-a080f6ed9b17"},"vehicle_type_id":"4","last_reported":1726225690,"current_range_meters":29600,"station_id":"ce4bhqh2rcd13ifvqhlg","pricing_plan_id":"cebpf4jnsgd1na2vs0mg"},{"bike_id":"3b0497be-b1de-4665-8970-771c521c47f1","system_id":"levelo_inurba_marseille","lat":43.29443,"lon":5.39754,"is_reserved":false,"is_disabled":false,"rental_uris":{"android":"levelo://app?vid=3b0497be-b1de-4665-8970-771c521c47f1","ios":"levelo://app?vid=3b0497be-b1de-4665-8970-771c521c47f1"},"vehicle_type_id":"4","last_reported":1726225690,"current_range_meters":28400,"station_id":"ce4bh3h2rcd13ifvqdo0","pricing_plan_id":"cebpf4jnsgd1na2vs0mg"},{"bike_id":"96cb29cb-8da1-4dd6-bd35-ee190827a973","system_id":"levelo_inurba_marseille","lat":43.26559,"lon":5.3728,"is_reserved":false,"is_disabled":false,"rental_uris":{"android":"levelo://app?vid=96cb29cb-8da1-4dd6-bd35-ee190827a973","ios":"levelo://app?vid=96cb29cb-8da1-4dd6-bd35-ee190827a973"},"vehicle_type_id":"4","last_reported":1726225690,"current_range_meters":6800,"station_id":"ce4bhg12rcd13ifvqf70","pricing_plan_id":"cebpf4jnsgd1na2vs0mg"},{"bike_id":"e02c980e-bb3e-4f25-952b-8b402d68a1b1","system_id":"levelo_inurba_marseille","lat":43.28719,"lon":5.37938,"is_reserved":false,"is_disabled":false,"rental_uris":{"android":"levelo://app?vid=e02c980e-bb3e-4f25-952b-8b402d68a1b1","ios":"levelo://app?vid=e02c980e-bb3e-4f25-952b-8b402d68a1b1"},"vehicle_type_id":"4","last_reported":1726225690,"current_range_meters":22800,"station_id":"ce4bh9p2rcd13ifvqec0","pricing_plan_id":"cebpf4jnsgd1na2vs0mg"},{"bike_id":"0ed1aded-b0c1-418f-a5e2-4cd49ae43a0e","system_id":"levelo_inurba_marseille","lat":43.30461,"lon":5.37911,"is_reserved":false,"is_disabled":false,"rental_uris":{"android":"levelo://app?vid=0ed1aded-b0c1-418f-a5e2-4cd49ae43a0e","ios":"levelo://app?vid=0ed1aded-b0c1-418f-a5e2-4cd49ae43a0e"},"vehicle_type_id":"4","last_reported":1726225690,"current_range_meters":33600,"station_id":"ce4bgup2rcd13ifvqcn0","pricing_plan_id":"cebpf4jnsgd1na2vs0mg"},{"bike_id":"3d0be373-de2e-4082-893a-54f0b6f55849","system_id":"levelo_inurba_marseille","lat":43.25928,"lon":5.40909,"is_reserved":false,"is_disabled":false,"rental_uris":{"android":"levelo://app?vid=3d0be373-de2e-4082-893a-54f0b6f55849","ios":"levelo://app?vid=3d0be373-de2e-4082-893a-54f0b6f55849"},"vehicle_type_id":"4","last_reported":1726225690,"current_range_meters":32400,"station_id":"ce4bhm92rcd13ifvqglg","pricing_plan_id":"cebpf4jnsgd1na2vs0mg"},{"bike_id":"9b49fc06-69dc-4375-9bc8-2ab31283d424","system_id":"levelo_inurba_marseille","lat":43.29897,"lon":5.43657,"is_reserved":false,"is_disabled":false,"rental_uris":{"android":"levelo://app?vid=9b49fc06-69dc-4375-9bc8-2ab31283d424","ios":"levelo://app?vid=9b49fc06-69dc-4375-9bc8-2ab31283d424"},"vehicle_type_id":"4","last_reported":1726225690,"current_range_meters":37600,"station_id":"ce4bhpp2rcd13ifvqhfg","pricing_plan_id":"cebpf4jnsgd1na2vs0mg"},{"bike_id":"4d5c1237-2194-494d-82ac-3b88b1fa23a8","system_id":"levelo_inurba_marseille","lat":43.2512,"lon":5.40316,"is_reserved":false,"is_disabled":false,"rental_uris":{"android":"levelo://app?vid=4d5c1237-2194-494d-82ac-3b88b1fa23a8","ios":"levelo://app?vid=4d5c1237-2194-494d-82ac-3b88b1fa23a8"},"vehicle_type_id":"4","last_reported":1726225690,"current_range_meters":17200,"station_id":"ce4bhhp2rcd13ifvqfm0","pricing_plan_id":"cebpf4jnsgd1na2vs0mg"},{"bike_id":"7f9d7324-7a9b-4351-875a-368c43396e7e","system_id":"levelo_inurba_marseille","lat":43.29354,"lon":5.3783,"is_reserved":false,"is_disabled":false,"rental_uris":{"android":"levelo://app?vid=7f9d7324-7a9b-4351-875a-368c43396e7e","ios":"levelo://app?vid=7f9d7324-7a9b-4351-875a-368c43396e7e"},"vehicle_type_id":"4","last_reported":1726225690,"current_range_meters":6800,"station_id":"ce4bgjh2rcd13ifvqbf0","pricing_plan_id":"cebpf4jnsgd1na2vs0mg"},{"bike_id":"311b9a6d-a58d-4682-92cb-063e3c5d69ed","system_id":"levelo_inurba_marseille","lat":43.23958,"lon":5.36632,"is_reserved":false,"is_disabled":false,"rental_uris":{"android":"levelo://app?vid=311b9a6d-a58d-4682-92cb-063e3c5d69ed","ios":"levelo://app?vid=311b9a6d-a58d-4682-92cb-063e3c5d69ed"},"vehicle_type_id":"4","last_reported":1726225690,"current_range_meters":24400,"station_id":"ce4bhi12rcd13ifvqfp0","pricing_plan_id":"cebpf4jnsgd1na2vs0mg"},{"bike_id":"69a8bafd-9f00-4df8-bb17-fba606e96b3a","system_id":"levelo_inurba_marseille","lat":43.30535,"lon":5.36549,"is_reserved":false,"is_disabled":false,"rental_uris":{"android":"levelo://app?vid=69a8bafd-9f00-4df8-bb17-fba606e96b3a","ios":"levelo://app?vid=69a8bafd-9f00-4df8-bb17-fba606e96b3a"},"vehicle_type_id":"4","last_reported":1726225690,"current_range_meters":39200,"station_id":"ce4bgs12rcd13ifvqcag","pricing_plan_id":"cebpf4jnsgd1na2vs0mg"},{"bike_id":"8cd504bb-7ccc-41c6-a736-850a175d54b9","system_id":"levelo_inurba_marseille","lat":43.284168,"lon":5.349739,"is_reserved":false,"is_disabled":false,"rental_uris":{"android":"levelo://app?vid=8cd504bb-7ccc-41c6-a736-850a175d54b9","ios":"levelo://app?vid=8cd504bb-7ccc-41c6-a736-850a175d54b9"},"vehicle_type_id":"4","last_reported":1726225690,"current_range_meters":37600,"station_id":"ce4bhbh2rcd13ifvqepg","pricing_plan_id":"cebpf4jnsgd1na2vs0mg"},{"bike_id":"1b01ab5d-5379-4ac8-8e00-e0e84ff0547c","system_id":"levelo_inurba_marseille","lat":43.2959,"lon":5.38109,"is_reserved":false,"is_disabled":false,"rental_uris":{"android":"levelo://app?vid=1b01ab5d-5379-4ac8-8e00-e0e84ff0547c","ios":"levelo://app?vid=1b01ab5d-5379-4ac8-8e00-e0e84ff0547c"},"vehicle_type_id":"4","last_reported":1726225690,"current_range_meters":28800,"station_id":"ce4bguh2rcd13ifvqcj0","pricing_plan_id":"cebpf4jnsgd1na2vs0mg"},{"bike_id":"c191aef9-4423-4df0-b494-9fe295362af0","system_id":"levelo_inurba_marseille","lat":43.30506,"lon":5.40073,"is_reserved":false,"is_disabled":false,"rental_uris":{"android":"levelo://app?vid=c191aef9-4423-4df0-b494-9fe295362af0","ios":"levelo://app?vid=c191aef9-4423-4df0-b494-9fe295362af0"},"vehicle_type_id":"4","last_reported":1726225690,"current_range_meters":27600,"station_id":"ce4bgvp2rcd13ifvqct0","pricing_plan_id":"cebpf4jnsgd1na2vs0mg"},{"bike_id":"46d70e9c-49ee-440a-a92c-d8b60775e17c","system_id":"levelo_inurba_marseille","lat":43.337444,"lon":5.374475,"is_reserved":false,"is_disabled":false,"rental_uris":{"android":"levelo://app?vid=46d70e9c-49ee-440a-a92c-d8b60775e17c","ios":"levelo://app?vid=46d70e9c-49ee-440a-a92c-d8b60775e17c"},"vehicle_type_id":"4","last_reported":1726225690,"current_range_meters":9200,"station_id":"","pricing_plan_id":"cebpf4jnsgd1na2vs0mg"},{"bike_id":"2fbe59be-967c-4f3f-b5eb-2a3f8b0b8fb5","system_id":"levelo_inurba_marseille","lat":43.27491,"lon":5.42458,"is_reserved":false,"is_disabled":false,"rental_uris":{"android":"levelo://app?vid=2fbe59be-967c-4f3f-b5eb-2a3f8b0b8fb5","ios":"levelo://app?vid=2fbe59be-967c-4f3f-b5eb-2a3f8b0b8fb5"},"vehicle_type_id":"4","last_reported":1726225690,"current_range_meters":36000,"station_id":"ce4bhn92rcd13ifvqgrg","pricing_plan_id":"cebpf4jnsgd1na2vs0mg"},{"bike_id":"64fb79f9-6111-4358-8c55-8553d51d9562","system_id":"levelo_inurba_marseille","lat":43.2895,"lon":5.38909,"is_reserved":false,"is_disabled":false,"rental_uris":{"android":"levelo://app?vid=64fb79f9-6111-4358-8c55-8553d51d9562","ios":"levelo://app?vid=64fb79f9-6111-4358-8c55-8553d51d9562"},"vehicle_type_id":"4","last_reported":1726225690,"current_range_meters":5600,"station_id":"","pricing_plan_id":"cebpf4jnsgd1na2vs0mg"},{"bike_id":"a2065f96-47d3-4a85-be06-4c0f1ffbde51","system_id":"levelo_inurba_marseille","lat":43.2606,"lon":5.39395,"is_reserved":false,"is_disabled":false,"rental_uris":{"android":"levelo://app?vid=a2065f96-47d3-4a85-be06-4c0f1ffbde51","ios":"levelo://app?vid=a2065f96-47d3-4a85-be06-4c0f1ffbde51"},"vehicle_type_id":"4","last_reported":1726225690,"current_range_meters":9600,"station_id":"ce4bhh92rcd13ifvqfj0","pricing_plan_id":"cebpf4jnsgd1na2vs0mg"},{"bike_id":"79b7950d-90c8-4e3c-a243-1a31b18cd68e","system_id":"levelo_inurba_marseille","lat":43.2396,"lon":5.36643,"is_reserved":false,"is_disabled":false,"rental_uris":{"android":"levelo://app?vid=79b7950d-90c8-4e3c-a243-1a31b18cd68e","ios":"levelo://app?vid=79b7950d-90c8-4e3c-a243-1a31b18cd68e"},"vehicle_type_id":"4","last_reported":1726225690,"current_range_meters":11200,"station_id":"ce4bhi12rcd13ifvqfp0","pricing_plan_id":"cebpf4jnsgd1na2vs0mg"},{"bike_id":"72b517d2-6987-46d8-857e-779bc7604f01","system_id":"levelo_inurba_marseille","lat":43.26022,"lon":5.37558,"is_reserved":false,"is_disabled":false,"rental_uris":{"android":"levelo://app?vid=72b517d2-6987-46d8-857e-779bc7604f01","ios":"levelo://app?vid=72b517d2-6987-46d8-857e-779bc7604f01"},"vehicle_type_id":"4","last_reported":1726225690,"current_range_meters":19600,"station_id":"ce4bhgh2rcd13ifvqfa0","pricing_plan_id":"cebpf4jnsgd1na2vs0mg"},{"bike_id":"8bc10ab2-b1e2-479f-bb0a-9ab2b1adc777","system_id":"levelo_inurba_marseille","lat":43.290188,"lon":5.381308,"is_reserved":false,"is_disabled":false,"rental_uris":{"android":"levelo://app?vid=8bc10ab2-b1e2-479f-bb0a-9ab2b1adc777","ios":"levelo://app?vid=8bc10ab2-b1e2-479f-bb0a-9ab2b1adc777"},"vehicle_type_id":"4","last_reported":1726225690,"current_range_meters":6800,"station_id":"ce4bh4p2rcd13ifvqe1g","pricing_plan_id":"cebpf4jnsgd1na2vs0mg"},{"bike_id":"2c4577b3-3689-495e-a3c3-a78eafd4dc43","system_id":"levelo_inurba_marseille","lat":43.26553,"lon":5.37285,"is_reserved":false,"is_disabled":false,"rental_uris":{"android":"levelo://app?vid=2c4577b3-3689-495e-a3c3-a78eafd4dc43","ios":"levelo://app?vid=2c4577b3-3689-495e-a3c3-a78eafd4dc43"},"vehicle_type_id":"4","last_reported":1726225690,"current_range_meters":27600,"station_id":"ce4bhg12rcd13ifvqf70","pricing_plan_id":"cebpf4jnsgd1na2vs0mg"},{"bike_id":"6c9ac6be-0029-4a2d-bb72-5c51035bba42","system_id":"levelo_inurba_marseille","lat":43.33607,"lon":5.41026,"is_reserved":false,"is_disabled":false,"rental_uris":{"android":"levelo://app?vid=6c9ac6be-0029-4a2d-bb72-5c51035bba42","ios":"levelo://app?vid=6c9ac6be-0029-4a2d-bb72-5c51035bba42"},"vehicle_type_id":"4","last_reported":1726225690,"current_range_meters":38800,"station_id":"ce4bhqh2rcd13ifvqhmg","pricing_plan_id":"cebpf4jnsgd1na2vs0mg"},{"bike_id":"5808faf6-9bd9-4730-8859-0718e969bfc3","system_id":"levelo_inurba_marseille","lat":43.30537,"lon":5.36556,"is_reserved":false,"is_disabled":false,"rental_uris":{"android":"levelo://app?vid=5808faf6-9bd9-4730-8859-0718e969bfc3","ios":"levelo://app?vid=5808faf6-9bd9-4730-8859-0718e969bfc3"},"vehicle_type_id":"4","last_reported":1726225690,"current_range_meters":38800,"station_id":"ce4bgs12rcd13ifvqcag","pricing_plan_id":"cebpf4jnsgd1na2vs0mg"},{"bike_id":"cf88784d-cbef-4fe3-8b91-622664e3617f","system_id":"levelo_inurba_marseille","lat":43.287415,"lon":5.380593,"is_reserved":false,"is_disabled":false,"rental_uris":{"android":"levelo://app?vid=cf88784d-cbef-4fe3-8b91-622664e3617f","ios":"levelo://app?vid=cf88784d-cbef-4fe3-8b91-622664e3617f"},"vehicle_type_id":"4","last_reported":1726225690,"current_range_meters":33200,"station_id":"","pricing_plan_id":"cebpf4jnsgd1na2vs0mg"},{"bike_id":"60d5bda9-f640-405a-935d-62d1314e50fa","system_id":"levelo_inurba_marseille","lat":43.2396,"lon":5.36648,"is_reserved":false,"is_disabled":false,"rental_uris":{"android":"levelo://app?vid=60d5bda9-f640-405a-935d-62d1314e50fa","ios":"levelo://app?vid=60d5bda9-f640-405a-935d-62d1314e50fa"},"vehicle_type_id":"4","last_reported":1726225690,"current_range_meters":27600,"station_id":"ce4bhi12rcd13ifvqfp0","pricing_plan_id":"cebpf4jnsgd1na2vs0mg"},{"bike_id":"2881e4b7-001f-4ef3-a613-e843bb68f1e8","system_id":"levelo_inurba_marseille","lat":43.25495,"lon":5.37654,"is_reserved":false,"is_disabled":false,"rental_uris":{"android":"levelo://app?vid=2881e4b7-001f-4ef3-a613-e843bb68f1e8","ios":"levelo://app?vid=2881e4b7-001f-4ef3-a613-e843bb68f1e8"},"vehicle_type_id":"4","last_reported":1726225690,"current_range_meters":26800,"station_id":"ce4bhh12rcd13ifvqff0","pricing_plan_id":"cebpf4jnsgd1na2vs0mg"},{"bike_id":"bd2ce2e0-f8d9-4e30-a205-2f074a8614dd","system_id":"levelo_inurba_marseille","lat":43.26947,"lon":5.3863,"is_reserved":false,"is_disabled":false,"rental_uris":{"android":"levelo://app?vid=bd2ce2e0-f8d9-4e30-a205-2f074a8614dd","ios":"levelo://app?vid=bd2ce2e0-f8d9-4e30-a205-2f074a8614dd"},"vehicle_type_id":"4","last_reported":1726225690,"current_range_meters":22800,"station_id":"ce4bhh92rcd13ifvqfh0","pricing_plan_id":"cebpf4jnsgd1na2vs0mg"},{"bike_id":"d28ffe4e-0ebc-42cf-b134-2f654bad2f26","system_id":"levelo_inurba_marseille","lat":43.29523,"lon":5.38553,"is_reserved":false,"is_disabled":false,"rental_uris":{"android":"levelo://app?vid=d28ffe4e-0ebc-42cf-b134-2f654bad2f26","ios":"levelo://app?vid=d28ffe4e-0ebc-42cf-b134-2f654bad2f26"},"vehicle_type_id":"4","last_reported":1726225690,"current_range_meters":17200,"station_id":"ce4bgih2rcd13ifvqba0","pricing_plan_id":"cebpf4jnsgd1na2vs0mg"},{"bike_id":"4f0ea37a-15ba-4240-b0fa-68e3874bc062","system_id":"levelo_inurba_marseille","lat":43.24991,"lon":5.38936,"is_reserved":false,"is_disabled":false,"rental_uris":{"android":"levelo://app?vid=4f0ea37a-15ba-4240-b0fa-68e3874bc062","ios":"levelo://app?vid=4f0ea37a-15ba-4240-b0fa-68e3874bc062"},"vehicle_type_id":"4","last_reported":1726225690,"current_range_meters":6800,"station_id":"ce4bhgp2rcd13ifvqfd0","pricing_plan_id":"cebpf4jnsgd1na2vs0mg"},{"bike_id":"0c90a57b-e9bd-4696-9929-53707ab70205","system_id":"levelo_inurba_marseille","lat":43.30145,"lon":5.38089,"is_reserved":false,"is_disabled":false,"rental_uris":{"android":"levelo://app?vid=0c90a57b-e9bd-4696-9929-53707ab70205","ios":"levelo://app?vid=0c90a57b-e9bd-4696-9929-53707ab70205"},"vehicle_type_id":"4","last_reported":1726225690,"current_range_meters":18000,"station_id":"ce4bgjp2rcd13ifvqbh0","pricing_plan_id":"cebpf4jnsgd1na2vs0mg"},{"bike_id":"02da8137-c82f-48b5-a8b1-a754d8795f59","system_id":"levelo_inurba_marseille","lat":43.26938,"lon":5.40248,"is_reserved":false,"is_disabled":false,"rental_uris":{"android":"levelo://app?vid=02da8137-c82f-48b5-a8b1-a754d8795f59","ios":"levelo://app?vid=02da8137-c82f-48b5-a8b1-a754d8795f59"},"vehicle_type_id":"4","last_reported":1726225690,"current_range_meters":38000,"station_id":"cjm6bp8fraef2m0cb0m0","pricing_plan_id":"cebpf4jnsgd1na2vs0mg"},{"bike_id":"c61b49d7-8c8f-4d56-9187-d7249896e6d8","system_id":"levelo_inurba_marseille","lat":43.23154,"lon":5.43699,"is_reserved":false,"is_disabled":false,"rental_uris":{"android":"levelo://app?vid=c61b49d7-8c8f-4d56-9187-d7249896e6d8","ios":"levelo://app?vid=c61b49d7-8c8f-4d56-9187-d7249896e6d8"},"vehicle_type_id":"4","last_reported":1726225690,"current_range_meters":38800,"station_id":"ce4bhmp2rcd13ifvqgog","pricing_plan_id":"cebpf4jnsgd1na2vs0mg"},{"bike_id":"5f48788a-7c4b-4d34-8653-13463be6e83f","system_id":"levelo_inurba_marseille","lat":43.27945,"lon":5.41052,"is_reserved":false,"is_disabled":false,"rental_uris":{"android":"levelo://app?vid=5f48788a-7c4b-4d34-8653-13463be6e83f","ios":"levelo://app?vid=5f48788a-7c4b-4d34-8653-13463be6e83f"},"vehicle_type_id":"4","last_reported":1726225690,"current_range_meters":9600,"station_id":"ce4bhnp2rcd13ifvqh0g","pricing_plan_id":"cebpf4jnsgd1na2vs0mg"},{"bike_id":"aa4e8f1d-9407-485a-87ff-f80b98af6f87","system_id":"levelo_inurba_marseille","lat":43.32488,"lon":5.36563,"is_reserved":false,"is_disabled":false,"rental_uris":{"android":"levelo://app?vid=aa4e8f1d-9407-485a-87ff-f80b98af6f87","ios":"levelo://app?vid=aa4e8f1d-9407-485a-87ff-f80b98af6f87"},"vehicle_type_id":"4","last_reported":1726225690,"current_range_meters":12400,"station_id":"ce4bhs12rcd13ifvqhvg","pricing_plan_id":"cebpf4jnsgd1na2vs0mg"},{"bike_id":"288cef71-b93b-4cf0-921e-39ef252d67a1","system_id":"levelo_inurba_marseille","lat":43.33763,"lon":5.37415,"is_reserved":false,"is_disabled":false,"rental_uris":{"android":"levelo://app?vid=288cef71-b93b-4cf0-921e-39ef252d67a1","ios":"levelo://app?vid=288cef71-b93b-4cf0-921e-39ef252d67a1"},"vehicle_type_id":"4","last_reported":1726225690,"current_range_meters":30400,"station_id":"","pricing_plan_id":"cebpf4jnsgd1na2vs0mg"},{"bike_id":"2d9f6a36-1e8d-46ce-8819-b2bb04006d43","system_id":"levelo_inurba_marseille","lat":43.25586,"lon":5.38225,"is_reserved":false,"is_disabled":false,"rental_uris":{"android":"levelo://app?vid=2d9f6a36-1e8d-46ce-8819-b2bb04006d43","ios":"levelo://app?vid=2d9f6a36-1e8d-46ce-8819-b2bb04006d43"},"vehicle_type_id":"4","last_reported":1726225690,"current_range_meters":30800,"station_id":"ce4bhih2rcd13ifvqfs0","pricing_plan_id":"cebpf4jnsgd1na2vs0mg"},{"bike_id":"0b6598e3-19a2-4368-b024-1948ee8703c4","system_id":"levelo_inurba_marseille","lat":43.302142,"lon":5.394653,"is_reserved":false,"is_disabled":false,"rental_uris":{"android":"levelo://app?vid=0b6598e3-19a2-4368-b024-1948ee8703c4","ios":"levelo://app?vid=0b6598e3-19a2-4368-b024-1948ee8703c4"},"vehicle_type_id":"4","last_reported":1726225690,"current_range_meters":27600,"station_id":"cki0cbj6b192h4jlfktg","pricing_plan_id":"cebpf4jnsgd1na2vs0mg"},{"bike_id":"e62c8c71-b14f-4c94-8aa4-e0afcaaf93b6","system_id":"levelo_inurba_marseille","lat":43.24816,"lon":5.37461,"is_reserved":false,"is_disabled":false,"rental_uris":{"android":"levelo://app?vid=e62c8c71-b14f-4c94-8aa4-e0afcaaf93b6","ios":"levelo://app?vid=e62c8c71-b14f-4c94-8aa4-e0afcaaf93b6"},"vehicle_type_id":"4","last_reported":1726225690,"current_range_meters":32400,"station_id":"ce4bhgh2rcd13ifvqfb0","pricing_plan_id":"cebpf4jnsgd1na2vs0mg"},{"bike_id":"9e955087-931f-42c6-a5de-4480d9f0a58c","system_id":"levelo_inurba_marseille","lat":43.32486,"lon":5.36562,"is_reserved":false,"is_disabled":false,"rental_uris":{"android":"levelo://app?vid=9e955087-931f-42c6-a5de-4480d9f0a58c","ios":"levelo://app?vid=9e955087-931f-42c6-a5de-4480d9f0a58c"},"vehicle_type_id":"4","last_reported":1726225690,"current_range_meters":27600,"station_id":"ce4bhs12rcd13ifvqhvg","pricing_plan_id":"cebpf4jnsgd1na2vs0mg"},{"bike_id":"19aa7d2a-0e5a-4b19-b63f-3963e00f60f0","system_id":"levelo_inurba_marseille","lat":43.265689,"lon":5.390392,"is_reserved":false,"is_disabled":false,"rental_uris":{"android":"levelo://app?vid=19aa7d2a-0e5a-4b19-b63f-3963e00f60f0","ios":"levelo://app?vid=19aa7d2a-0e5a-4b19-b63f-3963e00f60f0"},"vehicle_type_id":"4","last_reported":1726225690,"current_range_meters":38400,"station_id":"ce4bhe12rcd13ifvqf30","pricing_plan_id":"cebpf4jnsgd1na2vs0mg"},{"bike_id":"69b26a0b-db83-4395-8ee1-1e784091ffad","system_id":"levelo_inurba_marseille","lat":43.23145,"lon":5.43715,"is_reserved":false,"is_disabled":false,"rental_uris":{"android":"levelo://app?vid=69b26a0b-db83-4395-8ee1-1e784091ffad","ios":"levelo://app?vid=69b26a0b-db83-4395-8ee1-1e784091ffad"},"vehicle_type_id":"4","last_reported":1726225690,"current_range_meters":38800,"station_id":"ce4bhmp2rcd13ifvqgog","pricing_plan_id":"cebpf4jnsgd1na2vs0mg"},{"bike_id":"04f5db6d-e0c3-40f2-85bc-a191cf41b4ee","system_id":"levelo_inurba_marseille","lat":43.2952,"lon":5.37513,"is_reserved":false,"is_disabled":false,"rental_uris":{"android":"levelo://app?vid=04f5db6d-e0c3-40f2-85bc-a191cf41b4ee","ios":"levelo://app?vid=04f5db6d-e0c3-40f2-85bc-a191cf41b4ee"},"vehicle_type_id":"4","last_reported":1726225690,"current_range_meters":35200,"station_id":"ce4bgkp2rcd13ifvqbmg","pricing_plan_id":"cebpf4jnsgd1na2vs0mg"},{"bike_id":"655b4797-dc8d-49a1-8610-fcd415671ad9","system_id":"levelo_inurba_marseille","lat":43.33604,"lon":5.41027,"is_reserved":false,"is_disabled":false,"rental_uris":{"android":"levelo://app?vid=655b4797-dc8d-49a1-8610-fcd415671ad9","ios":"levelo://app?vid=655b4797-dc8d-49a1-8610-fcd415671ad9"},"vehicle_type_id":"4","last_reported":1726225690,"current_range_meters":36400,"station_id":"ce4bhqh2rcd13ifvqhmg","pricing_plan_id":"cebpf4jnsgd1na2vs0mg"},{"bike_id":"89f52e50-6b50-4586-86fd-31a3522a1f60","system_id":"levelo_inurba_marseille","lat":43.2927,"lon":5.36848,"is_reserved":false,"is_disabled":false,"rental_uris":{"android":"levelo://app?vid=89f52e50-6b50-4586-86fd-31a3522a1f60","ios":"levelo://app?vid=89f52e50-6b50-4586-86fd-31a3522a1f60"},"vehicle_type_id":"4","last_reported":1726225690,"current_range_meters":20400,"station_id":"ce4bhbp2rcd13ifvqesg","pricing_plan_id":"cebpf4jnsgd1na2vs0mg"},{"bike_id":"848e4701-faff-4bd9-9f92-ca534abc7b7f","system_id":"levelo_inurba_marseille","lat":43.28928,"lon":5.3664,"is_reserved":false,"is_disabled":false,"rental_uris":{"android":"levelo://app?vid=848e4701-faff-4bd9-9f92-ca534abc7b7f","ios":"levelo://app?vid=848e4701-faff-4bd9-9f92-ca534abc7b7f"},"vehicle_type_id":"4","last_reported":1726225690,"current_range_meters":36000,"station_id":"ce4bhap2rcd13ifvqek0","pricing_plan_id":"cebpf4jnsgd1na2vs0mg"},{"bike_id":"91ce77ce-18ef-47d8-9533-f401393ecd0b","system_id":"levelo_inurba_marseille","lat":43.28613,"lon":5.35105,"is_reserved":false,"is_disabled":false,"rental_uris":{"android":"levelo://app?vid=91ce77ce-18ef-47d8-9533-f401393ecd0b","ios":"levelo://app?vid=91ce77ce-18ef-47d8-9533-f401393ecd0b"},"vehicle_type_id":"4","last_reported":1726225690,"current_range_meters":17200,"station_id":"ce4bhch2rcd13ifvqeug","pricing_plan_id":"cebpf4jnsgd1na2vs0mg"},{"bike_id":"ec1d5824-cf29-402c-937e-321bb51d7cc1","system_id":"levelo_inurba_marseille","lat":43.26797,"lon":5.40269,"is_reserved":false,"is_disabled":false,"rental_uris":{"android":"levelo://app?vid=ec1d5824-cf29-402c-937e-321bb51d7cc1","ios":"levelo://app?vid=ec1d5824-cf29-402c-937e-321bb51d7cc1"},"vehicle_type_id":"4","last_reported":1726225690,"current_range_meters":38800,"station_id":"ce501612rcd8frsf0b60","pricing_plan_id":"cebpf4jnsgd1na2vs0mg"},{"bike_id":"5987713b-d8c0-4903-81ac-fe80cbeac0b3","system_id":"levelo_inurba_marseille","lat":43.27067,"lon":5.42269,"is_reserved":false,"is_disabled":false,"rental_uris":{"android":"levelo://app?vid=5987713b-d8c0-4903-81ac-fe80cbeac0b3","ios":"levelo://app?vid=5987713b-d8c0-4903-81ac-fe80cbeac0b3"},"vehicle_type_id":"4","last_reported":1726225690,"current_range_meters":28800,"station_id":"ce4bhk92rcd13ifvqgb0","pricing_plan_id":"cebpf4jnsgd1na2vs0mg"},{"bike_id":"d608f0a9-6c51-4c68-be81-d6c79550be85","system_id":"levelo_inurba_marseille","lat":43.31714,"lon":5.43706,"is_reserved":false,"is_disabled":false,"rental_uris":{"android":"levelo://app?vid=d608f0a9-6c51-4c68-be81-d6c79550be85","ios":"levelo://app?vid=d608f0a9-6c51-4c68-be81-d6c79550be85"},"vehicle_type_id":"4","last_reported":1726225690,"current_range_meters":39200,"station_id":"ce4bhp92rcd13ifvqhcg","pricing_plan_id":"cebpf4jnsgd1na2vs0mg"},{"bike_id":"5c6024f1-eb47-4a0b-8cf6-137a0e85a577","system_id":"levelo_inurba_marseille","lat":43.31489,"lon":5.37308,"is_reserved":false,"is_disabled":false,"rental_uris":{"android":"levelo://app?vid=5c6024f1-eb47-4a0b-8cf6-137a0e85a577","ios":"levelo://app?vid=5c6024f1-eb47-4a0b-8cf6-137a0e85a577"},"vehicle_type_id":"4","last_reported":1726225690,"current_range_meters":4000,"station_id":"ce4bgt12rcd13ifvqcd0","pricing_plan_id":"cebpf4jnsgd1na2vs0mg"},{"bike_id":"a8408bc0-1ad0-4261-92e7-4324637d7c82","system_id":"levelo_inurba_marseille","lat":43.29005,"lon":5.35616,"is_reserved":false,"is_disabled":false,"rental_uris":{"android":"levelo://app?vid=a8408bc0-1ad0-4261-92e7-4324637d7c82","ios":"levelo://app?vid=a8408bc0-1ad0-4261-92e7-4324637d7c82"},"vehicle_type_id":"4","last_reported":1726225690,"current_range_meters":38800,"station_id":"ce4bhb92rcd13ifvqen0","pricing_plan_id":"cebpf4jnsgd1na2vs0mg"},{"bike_id":"f3626372-42a0-4b04-8352-1cce262c63e4","system_id":"levelo_inurba_marseille","lat":43.335099,"lon":5.410376,"is_reserved":false,"is_disabled":false,"rental_uris":{"android":"levelo://app?vid=f3626372-42a0-4b04-8352-1cce262c63e4","ios":"levelo://app?vid=f3626372-42a0-4b04-8352-1cce262c63e4"},"vehicle_type_id":"4","last_reported":1726225690,"current_range_meters":20800,"station_id":"ce4bhqh2rcd13ifvqhmg","pricing_plan_id":"cebpf4jnsgd1na2vs0mg"},{"bike_id":"deaeb920-23ab-4b51-a90a-3a4d369b9959","system_id":"levelo_inurba_marseille","lat":43.26552,"lon":5.37285,"is_reserved":false,"is_disabled":false,"rental_uris":{"android":"levelo://app?vid=deaeb920-23ab-4b51-a90a-3a4d369b9959","ios":"levelo://app?vid=deaeb920-23ab-4b51-a90a-3a4d369b9959"},"vehicle_type_id":"4","last_reported":1726225690,"current_range_meters":8400,"station_id":"ce4bhg12rcd13ifvqf70","pricing_plan_id":"cebpf4jnsgd1na2vs0mg"},{"bike_id":"015baaa5-fdae-4816-9617-da25caae93a6","system_id":"levelo_inurba_marseille","lat":43.29292,"lon":5.3745,"is_reserved":false,"is_disabled":false,"rental_uris":{"android":"levelo://app?vid=015baaa5-fdae-4816-9617-da25caae93a6","ios":"levelo://app?vid=015baaa5-fdae-4816-9617-da25caae93a6"},"vehicle_type_id":"4","last_reported":1726225690,"current_range_meters":18800,"station_id":"ce4bgi12rcd13ifvqb70","pricing_plan_id":"cebpf4jnsgd1na2vs0mg"},{"bike_id":"b1ef9f5c-48fe-4b6e-b5cb-3758aac5ecd5","system_id":"levelo_inurba_marseille","lat":43.23147,"lon":5.43715,"is_reserved":false,"is_disabled":false,"rental_uris":{"android":"levelo://app?vid=b1ef9f5c-48fe-4b6e-b5cb-3758aac5ecd5","ios":"levelo://app?vid=b1ef9f5c-48fe-4b6e-b5cb-3758aac5ecd5"},"vehicle_type_id":"4","last_reported":1726225690,"current_range_meters":38800,"station_id":"ce4bhmp2rcd13ifvqgog","pricing_plan_id":"cebpf4jnsgd1na2vs0mg"},{"bike_id":"2cfa046b-6b6c-4a3f-98b9-131f3ed8b6a3","system_id":"levelo_inurba_marseille","lat":43.27421,"lon":5.39412,"is_reserved":false,"is_disabled":false,"rental_uris":{"android":"levelo://app?vid=2cfa046b-6b6c-4a3f-98b9-131f3ed8b6a3","ios":"levelo://app?vid=2cfa046b-6b6c-4a3f-98b9-131f3ed8b6a3"},"vehicle_type_id":"4","last_reported":1726225690,"current_range_meters":38000,"station_id":"ce4bhdp2rcd13ifvqf20","pricing_plan_id":"cebpf4jnsgd1na2vs0mg"},{"bike_id":"e9de33df-3ec5-4423-8930-1db61f2f343d","system_id":"levelo_inurba_marseille","lat":43.26872,"lon":5.3818,"is_reserved":false,"is_disabled":false,"rental_uris":{"android":"levelo://app?vid=e9de33df-3ec5-4423-8930-1db61f2f343d","ios":"levelo://app?vid=e9de33df-3ec5-4423-8930-1db61f2f343d"},"vehicle_type_id":"4","last_reported":1726225690,"current_range_meters":30000,"station_id":"","pricing_plan_id":"cebpf4jnsgd1na2vs0mg"},{"bike_id":"d765a641-e055-4e3b-87e7-fd69ea5db099","system_id":"levelo_inurba_marseille","lat":43.33759,"lon":5.37435,"is_reserved":false,"is_disabled":false,"rental_uris":{"android":"levelo://app?vid=d765a641-e055-4e3b-87e7-fd69ea5db099","ios":"levelo://app?vid=d765a641-e055-4e3b-87e7-fd69ea5db099"},"vehicle_type_id":"4","last_reported":1726225690,"current_range_meters":35600,"station_id":"","pricing_plan_id":"cebpf4jnsgd1na2vs0mg"},{"bike_id":"ab396781-1ecd-45f9-895a-e961581984c2","system_id":"levelo_inurba_marseille","lat":43.26559,"lon":5.39012,"is_reserved":false,"is_disabled":false,"rental_uris":{"android":"levelo://app?vid=ab396781-1ecd-45f9-895a-e961581984c2","ios":"levelo://app?vid=ab396781-1ecd-45f9-895a-e961581984c2"},"vehicle_type_id":"4","last_reported":1726225690,"current_range_meters":22800,"station_id":"ce4bhe12rcd13ifvqf30","pricing_plan_id":"cebpf4jnsgd1na2vs0mg"},{"bike_id":"7d8e7dc4-af9e-438a-9875-6bd0c829477b","system_id":"levelo_inurba_marseille","lat":43.34143,"lon":5.40896,"is_reserved":false,"is_disabled":false,"rental_uris":{"android":"levelo://app?vid=7d8e7dc4-af9e-438a-9875-6bd0c829477b","ios":"levelo://app?vid=7d8e7dc4-af9e-438a-9875-6bd0c829477b"},"vehicle_type_id":"4","last_reported":1726225690,"current_range_meters":14400,"station_id":"ce4bhqh2rcd13ifvqhlg","pricing_plan_id":"cebpf4jnsgd1na2vs0mg"},{"bike_id":"0f67d894-aafc-402f-9579-5eae191aa6dd","system_id":"levelo_inurba_marseille","lat":43.28849,"lon":5.3586,"is_reserved":false,"is_disabled":false,"rental_uris":{"android":"levelo://app?vid=0f67d894-aafc-402f-9579-5eae191aa6dd","ios":"levelo://app?vid=0f67d894-aafc-402f-9579-5eae191aa6dd"},"vehicle_type_id":"4","last_reported":1726225690,"current_range_meters":37600,"station_id":"ce4bhb12rcd13ifvqem0","pricing_plan_id":"cebpf4jnsgd1na2vs0mg"},{"bike_id":"2e1b7783-3f10-4155-a11c-1bf9df31fd07","system_id":"levelo_inurba_marseille","lat":43.29164,"lon":5.37141,"is_reserved":false,"is_disabled":false,"rental_uris":{"android":"levelo://app?vid=2e1b7783-3f10-4155-a11c-1bf9df31fd07","ios":"levelo://app?vid=2e1b7783-3f10-4155-a11c-1bf9df31fd07"},"vehicle_type_id":"4","last_reported":1726225690,"current_range_meters":38800,"station_id":"ce4bha92rcd13ifvqeh0","pricing_plan_id":"cebpf4jnsgd1na2vs0mg"},{"bike_id":"8244f2a6-1009-4656-9647-1d5428353938","system_id":"levelo_inurba_marseille","lat":43.29921,"lon":5.37487,"is_reserved":false,"is_disabled":false,"rental_uris":{"android":"levelo://app?vid=8244f2a6-1009-4656-9647-1d5428353938","ios":"levelo://app?vid=8244f2a6-1009-4656-9647-1d5428353938"},"vehicle_type_id":"4","last_reported":1726225690,"current_range_meters":15200,"station_id":"ce4bgjh2rcd13ifvqbg0","pricing_plan_id":"cebpf4jnsgd1na2vs0mg"},{"bike_id":"cba65913-210b-4680-93f5-2c73e7d7ea8a","system_id":"levelo_inurba_marseille","lat":43.2937,"lon":5.37858,"is_reserved":false,"is_disabled":false,"rental_uris":{"android":"levelo://app?vid=cba65913-210b-4680-93f5-2c73e7d7ea8a","ios":"levelo://app?vid=cba65913-210b-4680-93f5-2c73e7d7ea8a"},"vehicle_type_id":"4","last_reported":1726225690,"current_range_meters":30800,"station_id":"ce4bgjh2rcd13ifvqbf0","pricing_plan_id":"cebpf4jnsgd1na2vs0mg"},{"bike_id":"3beb6465-3ecd-41c0-80b0-c26950f430ad","system_id":"levelo_inurba_marseille","lat":43.29749,"lon":5.37102,"is_reserved":false,"is_disabled":false,"rental_uris":{"android":"levelo://app?vid=3beb6465-3ecd-41c0-80b0-c26950f430ad","ios":"levelo://app?vid=3beb6465-3ecd-41c0-80b0-c26950f430ad"},"vehicle_type_id":"4","last_reported":1726225690,"current_range_meters":14000,"station_id":"ce4bgop2rcd13ifvqc1g","pricing_plan_id":"cebpf4jnsgd1na2vs0mg"},{"bike_id":"0a5e9fb0-7a38-44e7-bd91-7d1ec503afeb","system_id":"levelo_inurba_marseille","lat":43.29016,"lon":5.38127,"is_reserved":false,"is_disabled":false,"rental_uris":{"android":"levelo://app?vid=0a5e9fb0-7a38-44e7-bd91-7d1ec503afeb","ios":"levelo://app?vid=0a5e9fb0-7a38-44e7-bd91-7d1ec503afeb"},"vehicle_type_id":"4","last_reported":1726225690,"current_range_meters":25200,"station_id":"ce4bh4p2rcd13ifvqe1g","pricing_plan_id":"cebpf4jnsgd1na2vs0mg"},{"bike_id":"52f7574e-15cc-4202-8e95-33143b4464e8","system_id":"levelo_inurba_marseille","lat":43.305328,"lon":5.365507,"is_reserved":false,"is_disabled":false,"rental_uris":{"android":"levelo://app?vid=52f7574e-15cc-4202-8e95-33143b4464e8","ios":"levelo://app?vid=52f7574e-15cc-4202-8e95-33143b4464e8"},"vehicle_type_id":"4","last_reported":1726225690,"current_range_meters":4800,"station_id":"ce4bgs12rcd13ifvqcag","pricing_plan_id":"cebpf4jnsgd1na2vs0mg"},{"bike_id":"8261ace5-2139-442c-b15a-c46a7ca49df2","system_id":"levelo_inurba_marseille","lat":43.299,"lon":5.43668,"is_reserved":false,"is_disabled":false,"rental_uris":{"android":"levelo://app?vid=8261ace5-2139-442c-b15a-c46a7ca49df2","ios":"levelo://app?vid=8261ace5-2139-442c-b15a-c46a7ca49df2"},"vehicle_type_id":"4","last_reported":1726225690,"current_range_meters":31200,"station_id":"ce4bhpp2rcd13ifvqhfg","pricing_plan_id":"cebpf4jnsgd1na2vs0mg"},{"bike_id":"4afb8b00-be3a-4d15-9b8b-47916e625762","system_id":"levelo_inurba_marseille","lat":43.28539,"lon":5.4423,"is_reserved":false,"is_disabled":false,"rental_uris":{"android":"levelo://app?vid=4afb8b00-be3a-4d15-9b8b-47916e625762","ios":"levelo://app?vid=4afb8b00-be3a-4d15-9b8b-47916e625762"},"vehicle_type_id":"4","last_reported":1726225690,"current_range_meters":28000,"station_id":"","pricing_plan_id":"cebpf4jnsgd1na2vs0mg"},{"bike_id":"6160092f-4981-4a7f-8ab0-7f6f0d746aa2","system_id":"levelo_inurba_marseille","lat":43.24994,"lon":5.3893,"is_reserved":false,"is_disabled":false,"rental_uris":{"android":"levelo://app?vid=6160092f-4981-4a7f-8ab0-7f6f0d746aa2","ios":"levelo://app?vid=6160092f-4981-4a7f-8ab0-7f6f0d746aa2"},"vehicle_type_id":"4","last_reported":1726225690,"current_range_meters":4400,"station_id":"ce4bhgp2rcd13ifvqfd0","pricing_plan_id":"cebpf4jnsgd1na2vs0mg"},{"bike_id":"bb7acf50-b6bc-4b2d-adf4-833abc23b24c","system_id":"levelo_inurba_marseille","lat":43.2319,"lon":5.35551,"is_reserved":false,"is_disabled":false,"rental_uris":{"android":"levelo://app?vid=bb7acf50-b6bc-4b2d-adf4-833abc23b24c","ios":"levelo://app?vid=bb7acf50-b6bc-4b2d-adf4-833abc23b24c"},"vehicle_type_id":"4","last_reported":1726225690,"current_range_meters":38800,"station_id":"ce4bhu92rcd13ifvqi70","pricing_plan_id":"cebpf4jnsgd1na2vs0mg"},{"bike_id":"7197659a-31a8-469e-8197-d7a9555b3793","system_id":"levelo_inurba_marseille","lat":43.30354,"lon":5.41876,"is_reserved":false,"is_disabled":false,"rental_uris":{"android":"levelo://app?vid=7197659a-31a8-469e-8197-d7a9555b3793","ios":"levelo://app?vid=7197659a-31a8-469e-8197-d7a9555b3793"},"vehicle_type_id":"4","last_reported":1726225690,"current_range_meters":6800,"station_id":"ce4bhop2rcd13ifvqh7g","pricing_plan_id":"cebpf4jnsgd1na2vs0mg"},{"bike_id":"008655de-5220-4f67-86cb-51fcb1434abb","system_id":"levelo_inurba_marseille","lat":43.25498,"lon":5.37645,"is_reserved":false,"is_disabled":false,"rental_uris":{"android":"levelo://app?vid=008655de-5220-4f67-86cb-51fcb1434abb","ios":"levelo://app?vid=008655de-5220-4f67-86cb-51fcb1434abb"},"vehicle_type_id":"4","last_reported":1726225690,"current_range_meters":22000,"station_id":"ce4bhh12rcd13ifvqff0","pricing_plan_id":"cebpf4jnsgd1na2vs0mg"},{"bike_id":"2f855f06-9250-4286-ae1e-a95c53bd0f86","system_id":"levelo_inurba_marseille","lat":43.27066,"lon":5.42271,"is_reserved":false,"is_disabled":false,"rental_uris":{"android":"levelo://app?vid=2f855f06-9250-4286-ae1e-a95c53bd0f86","ios":"levelo://app?vid=2f855f06-9250-4286-ae1e-a95c53bd0f86"},"vehicle_type_id":"4","last_reported":1726225690,"current_range_meters":30400,"station_id":"ce4bhk92rcd13ifvqgb0","pricing_plan_id":"cebpf4jnsgd1na2vs0mg"},{"bike_id":"fdbafa38-50a6-4c06-990b-5b9471c13f38","system_id":"levelo_inurba_marseille","lat":43.30556,"lon":5.36534,"is_reserved":false,"is_disabled":false,"rental_uris":{"android":"levelo://app?vid=fdbafa38-50a6-4c06-990b-5b9471c13f38","ios":"levelo://app?vid=fdbafa38-50a6-4c06-990b-5b9471c13f38"},"vehicle_type_id":"4","last_reported":1726225690,"current_range_meters":38000,"station_id":"ce4bgs12rcd13ifvqcag","pricing_plan_id":"cebpf4jnsgd1na2vs0mg"},{"bike_id":"a93f4ebc-aa57-456a-b8ef-403a856d2a8e","system_id":"levelo_inurba_marseille","lat":43.29225,"lon":5.36054,"is_reserved":false,"is_disabled":false,"rental_uris":{"android":"levelo://app?vid=a93f4ebc-aa57-456a-b8ef-403a856d2a8e","ios":"levelo://app?vid=a93f4ebc-aa57-456a-b8ef-403a856d2a8e"},"vehicle_type_id":"4","last_reported":1726225690,"current_range_meters":33200,"station_id":"ce4bhbh2rcd13ifvqeqg","pricing_plan_id":"cebpf4jnsgd1na2vs0mg"},{"bike_id":"04b90bdb-7a9f-4b82-a04f-c4470ba8dc57","system_id":"levelo_inurba_marseille","lat":43.29286,"lon":5.37449,"is_reserved":false,"is_disabled":false,"rental_uris":{"android":"levelo://app?vid=04b90bdb-7a9f-4b82-a04f-c4470ba8dc57","ios":"levelo://app?vid=04b90bdb-7a9f-4b82-a04f-c4470ba8dc57"},"vehicle_type_id":"4","last_reported":1726225690,"current_range_meters":38800,"station_id":"ce4bgi12rcd13ifvqb70","pricing_plan_id":"cebpf4jnsgd1na2vs0mg"},{"bike_id":"caed5d57-df6e-401b-87f3-2ad5b0c81ba4","system_id":"levelo_inurba_marseille","lat":43.28681,"lon":5.37402,"is_reserved":false,"is_disabled":false,"rental_uris":{"android":"levelo://app?vid=caed5d57-df6e-401b-87f3-2ad5b0c81ba4","ios":"levelo://app?vid=caed5d57-df6e-401b-87f3-2ad5b0c81ba4"},"vehicle_type_id":"4","last_reported":1726225690,"current_range_meters":4000,"station_id":"ce4bh3p2rcd13ifvqdq0","pricing_plan_id":"cebpf4jnsgd1na2vs0mg"},{"bike_id":"7a416e95-bc47-4596-937a-bb0a25b7a176","system_id":"levelo_inurba_marseille","lat":43.31532,"lon":5.38027,"is_reserved":false,"is_disabled":false,"rental_uris":{"android":"levelo://app?vid=7a416e95-bc47-4596-937a-bb0a25b7a176","ios":"levelo://app?vid=7a416e95-bc47-4596-937a-bb0a25b7a176"},"vehicle_type_id":"4","last_reported":1726225690,"current_range_meters":36000,"station_id":"ce4bhsp2rcd13ifvqi50","pricing_plan_id":"cebpf4jnsgd1na2vs0mg"},{"bike_id":"731ad2a1-9721-44ce-91f8-2e3c57f6297a","system_id":"levelo_inurba_marseille","lat":43.29555,"lon":5.42281,"is_reserved":false,"is_disabled":false,"rental_uris":{"android":"levelo://app?vid=731ad2a1-9721-44ce-91f8-2e3c57f6297a","ios":"levelo://app?vid=731ad2a1-9721-44ce-91f8-2e3c57f6297a"},"vehicle_type_id":"4","last_reported":1726225690,"current_range_meters":10000,"station_id":"ce4bhph2rcd13ifvqhdg","pricing_plan_id":"cebpf4jnsgd1na2vs0mg"},{"bike_id":"65c1412b-046f-4164-bac6-8d82df38fef4","system_id":"levelo_inurba_marseille","lat":43.30545,"lon":5.3654,"is_reserved":false,"is_disabled":false,"rental_uris":{"android":"levelo://app?vid=65c1412b-046f-4164-bac6-8d82df38fef4","ios":"levelo://app?vid=65c1412b-046f-4164-bac6-8d82df38fef4"},"vehicle_type_id":"4","last_reported":1726225690,"current_range_meters":27600,"station_id":"ce4bgs12rcd13ifvqcag","pricing_plan_id":"cebpf4jnsgd1na2vs0mg"},{"bike_id":"83dc7da9-872e-4a10-afdc-b91b1f2b6c49","system_id":"levelo_inurba_marseille","lat":43.30429,"lon":5.397415,"is_reserved":false,"is_disabled":false,"rental_uris":{"android":"levelo://app?vid=83dc7da9-872e-4a10-afdc-b91b1f2b6c49","ios":"levelo://app?vid=83dc7da9-872e-4a10-afdc-b91b1f2b6c49"},"vehicle_type_id":"4","last_reported":1726225690,"current_range_meters":9600,"station_id":"ce4bh092rcd13ifvqd20","pricing_plan_id":"cebpf4jnsgd1na2vs0mg"},{"bike_id":"27de0738-4756-42e5-9093-6ab278fdab9f","system_id":"levelo_inurba_marseille","lat":43.29296,"lon":5.37453,"is_reserved":false,"is_disabled":false,"rental_uris":{"android":"levelo://app?vid=27de0738-4756-42e5-9093-6ab278fdab9f","ios":"levelo://app?vid=27de0738-4756-42e5-9093-6ab278fdab9f"},"vehicle_type_id":"4","last_reported":1726225690,"current_range_meters":27200,"station_id":"ce4bgi12rcd13ifvqb70","pricing_plan_id":"cebpf4jnsgd1na2vs0mg"},{"bike_id":"c28ff0f1-1713-431a-bccf-4e7a21e8e39b","system_id":"levelo_inurba_marseille","lat":43.25504,"lon":5.37648,"is_reserved":false,"is_disabled":false,"rental_uris":{"android":"levelo://app?vid=c28ff0f1-1713-431a-bccf-4e7a21e8e39b","ios":"levelo://app?vid=c28ff0f1-1713-431a-bccf-4e7a21e8e39b"},"vehicle_type_id":"4","last_reported":1726225690,"current_range_meters":38800,"station_id":"ce4bhh12rcd13ifvqff0","pricing_plan_id":"cebpf4jnsgd1na2vs0mg"},{"bike_id":"e5a408aa-5999-4852-a90a-43cd4b788b7b","system_id":"levelo_inurba_marseille","lat":43.27982,"lon":5.38751,"is_reserved":false,"is_disabled":false,"rental_uris":{"android":"levelo://app?vid=e5a408aa-5999-4852-a90a-43cd4b788b7b","ios":"levelo://app?vid=e5a408aa-5999-4852-a90a-43cd4b788b7b"},"vehicle_type_id":"4","last_reported":1726225690,"current_range_meters":22800,"station_id":"ce4bhg12rcd13ifvqf80","pricing_plan_id":"cebpf4jnsgd1na2vs0mg"},{"bike_id":"26849232-2127-4bc0-b1fe-29b4e92976fb","system_id":"levelo_inurba_marseille","lat":43.265656,"lon":5.39006,"is_reserved":false,"is_disabled":false,"rental_uris":{"android":"levelo://app?vid=26849232-2127-4bc0-b1fe-29b4e92976fb","ios":"levelo://app?vid=26849232-2127-4bc0-b1fe-29b4e92976fb"},"vehicle_type_id":"4","last_reported":1726225690,"current_range_meters":32400,"station_id":"ce4bhe12rcd13ifvqf30","pricing_plan_id":"cebpf4jnsgd1na2vs0mg"},{"bike_id":"d63b08fd-7716-422a-94e4-8f1dfff5bb11","system_id":"levelo_inurba_marseille","lat":43.28615,"lon":5.35097,"is_reserved":false,"is_disabled":false,"rental_uris":{"android":"levelo://app?vid=d63b08fd-7716-422a-94e4-8f1dfff5bb11","ios":"levelo://app?vid=d63b08fd-7716-422a-94e4-8f1dfff5bb11"},"vehicle_type_id":"4","last_reported":1726225690,"current_range_meters":38800,"station_id":"ce4bhch2rcd13ifvqeug","pricing_plan_id":"cebpf4jnsgd1na2vs0mg"},{"bike_id":"d10155b8-7044-433a-b929-128cce003972","system_id":"levelo_inurba_marseille","lat":43.30228,"lon":5.4007,"is_reserved":false,"is_disabled":false,"rental_uris":{"android":"levelo://app?vid=d10155b8-7044-433a-b929-128cce003972","ios":"levelo://app?vid=d10155b8-7044-433a-b929-128cce003972"},"vehicle_type_id":"4","last_reported":1726225690,"current_range_meters":37600,"station_id":"ce4bgvh2rcd13ifvqcs0","pricing_plan_id":"cebpf4jnsgd1na2vs0mg"},{"bike_id":"1763571a-9954-433e-872e-ef6d6319dff6","system_id":"levelo_inurba_marseille","lat":43.31364,"lon":5.36708,"is_reserved":false,"is_disabled":false,"rental_uris":{"android":"levelo://app?vid=1763571a-9954-433e-872e-ef6d6319dff6","ios":"levelo://app?vid=1763571a-9954-433e-872e-ef6d6319dff6"},"vehicle_type_id":"4","last_reported":1726225690,"current_range_meters":26800,"station_id":"ce4bgr92rcd13ifvqc6g","pricing_plan_id":"cebpf4jnsgd1na2vs0mg"},{"bike_id":"d23ba85e-2d06-4115-8335-c2ac32e57dd7","system_id":"levelo_inurba_marseille","lat":43.23188,"lon":5.3554,"is_reserved":false,"is_disabled":false,"rental_uris":{"android":"levelo://app?vid=d23ba85e-2d06-4115-8335-c2ac32e57dd7","ios":"levelo://app?vid=d23ba85e-2d06-4115-8335-c2ac32e57dd7"},"vehicle_type_id":"4","last_reported":1726225690,"current_range_meters":2800,"station_id":"ce4bhu92rcd13ifvqi70","pricing_plan_id":"cebpf4jnsgd1na2vs0mg"},{"bike_id":"415d3c4f-5242-4572-8d05-9e1bd45eae7f","system_id":"levelo_inurba_marseille","lat":43.2558,"lon":5.38226,"is_reserved":false,"is_disabled":false,"rental_uris":{"android":"levelo://app?vid=415d3c4f-5242-4572-8d05-9e1bd45eae7f","ios":"levelo://app?vid=415d3c4f-5242-4572-8d05-9e1bd45eae7f"},"vehicle_type_id":"4","last_reported":1726225690,"current_range_meters":33600,"station_id":"ce4bhih2rcd13ifvqfs0","pricing_plan_id":"cebpf4jnsgd1na2vs0mg"},{"bike_id":"8a88f642-8182-4433-942e-9c9b19984aea","system_id":"levelo_inurba_marseille","lat":43.31885,"lon":5.40729,"is_reserved":false,"is_disabled":false,"rental_uris":{"android":"levelo://app?vid=8a88f642-8182-4433-942e-9c9b19984aea","ios":"levelo://app?vid=8a88f642-8182-4433-942e-9c9b19984aea"},"vehicle_type_id":"4","last_reported":1726225690,"current_range_meters":28000,"station_id":"ce4bhq12rcd13ifvqhig","pricing_plan_id":"cebpf4jnsgd1na2vs0mg"},{"bike_id":"321776d9-93da-4f1b-96be-0c30e8fca15a","system_id":"levelo_inurba_marseille","lat":43.25724,"lon":5.41106,"is_reserved":false,"is_disabled":false,"rental_uris":{"android":"levelo://app?vid=321776d9-93da-4f1b-96be-0c30e8fca15a","ios":"levelo://app?vid=321776d9-93da-4f1b-96be-0c30e8fca15a"},"vehicle_type_id":"4","last_reported":1726225690,"current_range_meters":27600,"station_id":"ce4bhkp2rcd13ifvqgd0","pricing_plan_id":"cebpf4jnsgd1na2vs0mg"},{"bike_id":"99229bc5-5004-49b5-9c9f-2f0d83d6d615","system_id":"levelo_inurba_marseille","lat":43.337444,"lon":5.374475,"is_reserved":false,"is_disabled":false,"rental_uris":{"android":"levelo://app?vid=99229bc5-5004-49b5-9c9f-2f0d83d6d615","ios":"levelo://app?vid=99229bc5-5004-49b5-9c9f-2f0d83d6d615"},"vehicle_type_id":"4","last_reported":1726225690,"current_range_meters":7200,"station_id":"ce4bh092rcd13ifvqd20","pricing_plan_id":"cebpf4jnsgd1na2vs0mg"},{"bike_id":"c5521c38-dbb5-4a2f-ae82-cca7849c8615","system_id":"levelo_inurba_marseille","lat":43.29275,"lon":5.40133,"is_reserved":false,"is_disabled":false,"rental_uris":{"android":"levelo://app?vid=c5521c38-dbb5-4a2f-ae82-cca7849c8615","ios":"levelo://app?vid=c5521c38-dbb5-4a2f-ae82-cca7849c8615"},"vehicle_type_id":"4","last_reported":1726225690,"current_range_meters":32000,"station_id":"ce4bh312rcd13ifvqdj0","pricing_plan_id":"cebpf4jnsgd1na2vs0mg"},{"bike_id":"dfc06179-ddb4-49dd-97eb-82ce1608fc58","system_id":"levelo_inurba_marseille","lat":43.2951,"lon":5.39044,"is_reserved":false,"is_disabled":false,"rental_uris":{"android":"levelo://app?vid=dfc06179-ddb4-49dd-97eb-82ce1608fc58","ios":"levelo://app?vid=dfc06179-ddb4-49dd-97eb-82ce1608fc58"},"vehicle_type_id":"4","last_reported":1726225690,"current_range_meters":38000,"station_id":"ce4bh3p2rcd13ifvqdp0","pricing_plan_id":"cebpf4jnsgd1na2vs0mg"},{"bike_id":"71e5bd5f-9941-45ed-83eb-1729c01b5303","system_id":"levelo_inurba_marseille","lat":43.22933,"lon":5.35373,"is_reserved":false,"is_disabled":false,"rental_uris":{"android":"levelo://app?vid=71e5bd5f-9941-45ed-83eb-1729c01b5303","ios":"levelo://app?vid=71e5bd5f-9941-45ed-83eb-1729c01b5303"},"vehicle_type_id":"4","last_reported":1726225690,"current_range_meters":35600,"station_id":"cpo3532slgdg3j2ikp40","pricing_plan_id":"cebpf4jnsgd1na2vs0mg"},{"bike_id":"fe38cfda-f806-492b-af8a-e86630d62da8","system_id":"levelo_inurba_marseille","lat":43.337444,"lon":5.374475,"is_reserved":false,"is_disabled":false,"rental_uris":{"android":"levelo://app?vid=fe38cfda-f806-492b-af8a-e86630d62da8","ios":"levelo://app?vid=fe38cfda-f806-492b-af8a-e86630d62da8"},"vehicle_type_id":"4","last_reported":1726225690,"current_range_meters":36400,"station_id":"","pricing_plan_id":"cebpf4jnsgd1na2vs0mg"},{"bike_id":"01eac27f-0d4a-4eb6-b673-bbe7e2229c1f","system_id":"levelo_inurba_marseille","lat":43.30464,"lon":5.37912,"is_reserved":false,"is_disabled":false,"rental_uris":{"android":"levelo://app?vid=01eac27f-0d4a-4eb6-b673-bbe7e2229c1f","ios":"levelo://app?vid=01eac27f-0d4a-4eb6-b673-bbe7e2229c1f"},"vehicle_type_id":"4","last_reported":1726225690,"current_range_meters":27200,"station_id":"ce4bgup2rcd13ifvqcn0","pricing_plan_id":"cebpf4jnsgd1na2vs0mg"},{"bike_id":"b67e29c2-a2fc-48c9-b091-a0aa3e618481","system_id":"levelo_inurba_marseille","lat":43.30538,"lon":5.36556,"is_reserved":false,"is_disabled":false,"rental_uris":{"android":"levelo://app?vid=b67e29c2-a2fc-48c9-b091-a0aa3e618481","ios":"levelo://app?vid=b67e29c2-a2fc-48c9-b091-a0aa3e618481"},"vehicle_type_id":"4","last_reported":1726225690,"current_range_meters":10800,"station_id":"ce4bgs12rcd13ifvqcag","pricing_plan_id":"cebpf4jnsgd1na2vs0mg"},{"bike_id":"5370546a-7244-45da-af29-6ba1e105add1","system_id":"levelo_inurba_marseille","lat":43.273832,"lon":5.36264,"is_reserved":false,"is_disabled":false,"rental_uris":{"android":"levelo://app?vid=5370546a-7244-45da-af29-6ba1e105add1","ios":"levelo://app?vid=5370546a-7244-45da-af29-6ba1e105add1"},"vehicle_type_id":"4","last_reported":1726225690,"current_range_meters":24400,"station_id":"ce4bhbh2rcd13ifvqeo0","pricing_plan_id":"cebpf4jnsgd1na2vs0mg"},{"bike_id":"e15b1f3d-3b46-4a97-af7e-1fe0caf08045","system_id":"levelo_inurba_marseille","lat":43.29842,"lon":5.3629,"is_reserved":false,"is_disabled":false,"rental_uris":{"android":"levelo://app?vid=e15b1f3d-3b46-4a97-af7e-1fe0caf08045","ios":"levelo://app?vid=e15b1f3d-3b46-4a97-af7e-1fe0caf08045"},"vehicle_type_id":"4","last_reported":1726225690,"current_range_meters":19200,"station_id":"ce4bgpp2rcd13ifvqc3g","pricing_plan_id":"cebpf4jnsgd1na2vs0mg"},{"bike_id":"04b0a4ee-45ca-426f-af20-845cafaf21e3","system_id":"levelo_inurba_marseille","lat":43.30243,"lon":5.40064,"is_reserved":false,"is_disabled":false,"rental_uris":{"android":"levelo://app?vid=04b0a4ee-45ca-426f-af20-845cafaf21e3","ios":"levelo://app?vid=04b0a4ee-45ca-426f-af20-845cafaf21e3"},"vehicle_type_id":"4","last_reported":1726225690,"current_range_meters":38800,"station_id":"ce4bgvh2rcd13ifvqcs0","pricing_plan_id":"cebpf4jnsgd1na2vs0mg"},{"bike_id":"ffd70a77-c284-4424-967a-f18b173c279c","system_id":"levelo_inurba_marseille","lat":43.23153,"lon":5.43702,"is_reserved":false,"is_disabled":false,"rental_uris":{"android":"levelo://app?vid=ffd70a77-c284-4424-967a-f18b173c279c","ios":"levelo://app?vid=ffd70a77-c284-4424-967a-f18b173c279c"},"vehicle_type_id":"4","last_reported":1726225690,"current_range_meters":12800,"station_id":"ce4bhmp2rcd13ifvqgog","pricing_plan_id":"cebpf4jnsgd1na2vs0mg"},{"bike_id":"ad1b5322-55e4-479e-8885-f21d19d9074d","system_id":"levelo_inurba_marseille","lat":43.29773,"lon":5.37114,"is_reserved":false,"is_disabled":false,"rental_uris":{"android":"levelo://app?vid=ad1b5322-55e4-479e-8885-f21d19d9074d","ios":"levelo://app?vid=ad1b5322-55e4-479e-8885-f21d19d9074d"},"vehicle_type_id":"4","last_reported":1726225690,"current_range_meters":36400,"station_id":"ce4bgop2rcd13ifvqc1g","pricing_plan_id":"cebpf4jnsgd1na2vs0mg"},{"bike_id":"ade9ce83-c793-439c-a3e7-2ac6241a7f3f","system_id":"levelo_inurba_marseille","lat":43.299152,"lon":5.381495,"is_reserved":false,"is_disabled":false,"rental_uris":{"android":"levelo://app?vid=ade9ce83-c793-439c-a3e7-2ac6241a7f3f","ios":"levelo://app?vid=ade9ce83-c793-439c-a3e7-2ac6241a7f3f"},"vehicle_type_id":"4","last_reported":1726225690,"current_range_meters":34000,"station_id":"ce4bgj12rcd13ifvqbc0","pricing_plan_id":"cebpf4jnsgd1na2vs0mg"},{"bike_id":"91b36c15-8bb8-4d60-8c33-cdd8e0d267ed","system_id":"levelo_inurba_marseille","lat":43.23147,"lon":5.43713,"is_reserved":false,"is_disabled":false,"rental_uris":{"android":"levelo://app?vid=91b36c15-8bb8-4d60-8c33-cdd8e0d267ed","ios":"levelo://app?vid=91b36c15-8bb8-4d60-8c33-cdd8e0d267ed"},"vehicle_type_id":"4","last_reported":1726225690,"current_range_meters":11600,"station_id":"ce4bhmp2rcd13ifvqgog","pricing_plan_id":"cebpf4jnsgd1na2vs0mg"},{"bike_id":"89f876f8-5fdf-4009-b649-1e69f1fd4e1a","system_id":"levelo_inurba_marseille","lat":43.29713,"lon":5.36581,"is_reserved":false,"is_disabled":false,"rental_uris":{"android":"levelo://app?vid=89f876f8-5fdf-4009-b649-1e69f1fd4e1a","ios":"levelo://app?vid=89f876f8-5fdf-4009-b649-1e69f1fd4e1a"},"vehicle_type_id":"4","last_reported":1726225690,"current_range_meters":28000,"station_id":"ce4bgn12rcd13ifvqbt0","pricing_plan_id":"cebpf4jnsgd1na2vs0mg"},{"bike_id":"55d94928-1c2c-4dfc-95d4-0ae00480b0b3","system_id":"levelo_inurba_marseille","lat":43.27439,"lon":5.39409,"is_reserved":false,"is_disabled":false,"rental_uris":{"android":"levelo://app?vid=55d94928-1c2c-4dfc-95d4-0ae00480b0b3","ios":"levelo://app?vid=55d94928-1c2c-4dfc-95d4-0ae00480b0b3"},"vehicle_type_id":"4","last_reported":1726225690,"current_range_meters":16000,"station_id":"ce4bhdp2rcd13ifvqf20","pricing_plan_id":"cebpf4jnsgd1na2vs0mg"},{"bike_id":"5258b18e-d4fd-44e4-9169-332f048637a8","system_id":"levelo_inurba_marseille","lat":43.29294,"lon":5.37458,"is_reserved":false,"is_disabled":false,"rental_uris":{"android":"levelo://app?vid=5258b18e-d4fd-44e4-9169-332f048637a8","ios":"levelo://app?vid=5258b18e-d4fd-44e4-9169-332f048637a8"},"vehicle_type_id":"4","last_reported":1726225690,"current_range_meters":17600,"station_id":"ce4bgi12rcd13ifvqb70","pricing_plan_id":"cebpf4jnsgd1na2vs0mg"},{"bike_id":"194fdcb0-dfca-4871-8f5a-d9cf95af92a9","system_id":"levelo_inurba_marseille","lat":43.2893,"lon":5.36639,"is_reserved":false,"is_disabled":false,"rental_uris":{"android":"levelo://app?vid=194fdcb0-dfca-4871-8f5a-d9cf95af92a9","ios":"levelo://app?vid=194fdcb0-dfca-4871-8f5a-d9cf95af92a9"},"vehicle_type_id":"4","last_reported":1726225690,"current_range_meters":32400,"station_id":"ce4bhap2rcd13ifvqek0","pricing_plan_id":"cebpf4jnsgd1na2vs0mg"},{"bike_id":"674f9c3f-47c6-41b8-be8e-32e56d02adfd","system_id":"levelo_inurba_marseille","lat":43.26677,"lon":5.3827,"is_reserved":false,"is_disabled":false,"rental_uris":{"android":"levelo://app?vid=674f9c3f-47c6-41b8-be8e-32e56d02adfd","ios":"levelo://app?vid=674f9c3f-47c6-41b8-be8e-32e56d02adfd"},"vehicle_type_id":"4","last_reported":1726225690,"current_range_meters":11600,"station_id":"ce4bhg92rcd13ifvqf90","pricing_plan_id":"cebpf4jnsgd1na2vs0mg"},{"bike_id":"954d2b54-362e-442e-bcaa-d17939d90e2d","system_id":"levelo_inurba_marseille","lat":43.25497,"lon":5.37646,"is_reserved":false,"is_disabled":false,"rental_uris":{"android":"levelo://app?vid=954d2b54-362e-442e-bcaa-d17939d90e2d","ios":"levelo://app?vid=954d2b54-362e-442e-bcaa-d17939d90e2d"},"vehicle_type_id":"4","last_reported":1726225690,"current_range_meters":38800,"station_id":"ce4bhh12rcd13ifvqff0","pricing_plan_id":"cebpf4jnsgd1na2vs0mg"},{"bike_id":"82dec1e1-c024-4a59-b080-1ca526441f94","system_id":"levelo_inurba_marseille","lat":43.337612,"lon":5.374504,"is_reserved":false,"is_disabled":false,"rental_uris":{"android":"levelo://app?vid=82dec1e1-c024-4a59-b080-1ca526441f94","ios":"levelo://app?vid=82dec1e1-c024-4a59-b080-1ca526441f94"},"vehicle_type_id":"4","last_reported":1726225690,"current_range_meters":14800,"station_id":"","pricing_plan_id":"cebpf4jnsgd1na2vs0mg"},{"bike_id":"c388f329-6f3c-470d-96b0-fb1532620c7b","system_id":"levelo_inurba_marseille","lat":43.23147,"lon":5.43717,"is_reserved":false,"is_disabled":false,"rental_uris":{"android":"levelo://app?vid=c388f329-6f3c-470d-96b0-fb1532620c7b","ios":"levelo://app?vid=c388f329-6f3c-470d-96b0-fb1532620c7b"},"vehicle_type_id":"4","last_reported":1726225690,"current_range_meters":22000,"station_id":"ce4bhmp2rcd13ifvqgog","pricing_plan_id":"cebpf4jnsgd1na2vs0mg"},{"bike_id":"482796c1-2dd4-4ac0-869c-7c6b5e1669a8","system_id":"levelo_inurba_marseille","lat":43.26947,"lon":5.3864,"is_reserved":false,"is_disabled":false,"rental_uris":{"android":"levelo://app?vid=482796c1-2dd4-4ac0-869c-7c6b5e1669a8","ios":"levelo://app?vid=482796c1-2dd4-4ac0-869c-7c6b5e1669a8"},"vehicle_type_id":"4","last_reported":1726225690,"current_range_meters":36400,"station_id":"ce4bhh92rcd13ifvqfh0","pricing_plan_id":"cebpf4jnsgd1na2vs0mg"},{"bike_id":"e3b90e0b-4923-474e-90ac-7372ad6957cb","system_id":"levelo_inurba_marseille","lat":43.28341,"lon":5.38107,"is_reserved":false,"is_disabled":false,"rental_uris":{"android":"levelo://app?vid=e3b90e0b-4923-474e-90ac-7372ad6957cb","ios":"levelo://app?vid=e3b90e0b-4923-474e-90ac-7372ad6957cb"},"vehicle_type_id":"4","last_reported":1726225690,"current_range_meters":30800,"station_id":"ce4bh412rcd13ifvqdr0","pricing_plan_id":"cebpf4jnsgd1na2vs0mg"},{"bike_id":"2deeed66-456e-4f3b-be82-f36b0e3c9d4c","system_id":"levelo_inurba_marseille","lat":43.23152,"lon":5.43709,"is_reserved":false,"is_disabled":false,"rental_uris":{"android":"levelo://app?vid=2deeed66-456e-4f3b-be82-f36b0e3c9d4c","ios":"levelo://app?vid=2deeed66-456e-4f3b-be82-f36b0e3c9d4c"},"vehicle_type_id":"4","last_reported":1726225690,"current_range_meters":18800,"station_id":"ce4bhmp2rcd13ifvqgog","pricing_plan_id":"cebpf4jnsgd1na2vs0mg"},{"bike_id":"fad4ce5f-29e2-4402-92b3-eafa4b8fc708","system_id":"levelo_inurba_marseille","lat":43.26025,"lon":5.3755,"is_reserved":false,"is_disabled":false,"rental_uris":{"android":"levelo://app?vid=fad4ce5f-29e2-4402-92b3-eafa4b8fc708","ios":"levelo://app?vid=fad4ce5f-29e2-4402-92b3-eafa4b8fc708"},"vehicle_type_id":"4","last_reported":1726225690,"current_range_meters":32000,"station_id":"ce4bhgh2rcd13ifvqfa0","pricing_plan_id":"cebpf4jnsgd1na2vs0mg"},{"bike_id":"68ff4151-97ec-460a-970f-20908099f2f1","system_id":"levelo_inurba_marseille","lat":43.30552,"lon":5.36552,"is_reserved":false,"is_disabled":false,"rental_uris":{"android":"levelo://app?vid=68ff4151-97ec-460a-970f-20908099f2f1","ios":"levelo://app?vid=68ff4151-97ec-460a-970f-20908099f2f1"},"vehicle_type_id":"4","last_reported":1726225690,"current_range_meters":38800,"station_id":"ce4bgs12rcd13ifvqcag","pricing_plan_id":"cebpf4jnsgd1na2vs0mg"},{"bike_id":"70b10b6a-34cc-460c-a115-d1c61697fe50","system_id":"levelo_inurba_marseille","lat":43.29919,"lon":5.37478,"is_reserved":false,"is_disabled":false,"rental_uris":{"android":"levelo://app?vid=70b10b6a-34cc-460c-a115-d1c61697fe50","ios":"levelo://app?vid=70b10b6a-34cc-460c-a115-d1c61697fe50"},"vehicle_type_id":"4","last_reported":1726225690,"current_range_meters":32400,"station_id":"ce4bgjh2rcd13ifvqbg0","pricing_plan_id":"cebpf4jnsgd1na2vs0mg"},{"bike_id":"f5532006-91c6-4c55-8ed6-9fb9f0ed48ad","system_id":"levelo_inurba_marseille","lat":43.29507,"lon":5.37521,"is_reserved":false,"is_disabled":false,"rental_uris":{"android":"levelo://app?vid=f5532006-91c6-4c55-8ed6-9fb9f0ed48ad","ios":"levelo://app?vid=f5532006-91c6-4c55-8ed6-9fb9f0ed48ad"},"vehicle_type_id":"4","last_reported":1726225690,"current_range_meters":38000,"station_id":"ce4bgkp2rcd13ifvqbmg","pricing_plan_id":"cebpf4jnsgd1na2vs0mg"},{"bike_id":"5ddbd8ac-4c32-41a0-bd5d-0b5ab8b06354","system_id":"levelo_inurba_marseille","lat":43.29669,"lon":5.37295,"is_reserved":false,"is_disabled":false,"rental_uris":{"android":"levelo://app?vid=5ddbd8ac-4c32-41a0-bd5d-0b5ab8b06354","ios":"levelo://app?vid=5ddbd8ac-4c32-41a0-bd5d-0b5ab8b06354"},"vehicle_type_id":"4","last_reported":1726225690,"current_range_meters":32000,"station_id":"ce4bgk12rcd13ifvqbj0","pricing_plan_id":"cebpf4jnsgd1na2vs0mg"},{"bike_id":"beed390f-5590-4e36-a920-552bcc39f2d8","system_id":"levelo_inurba_marseille","lat":43.30533,"lon":5.36555,"is_reserved":false,"is_disabled":false,"rental_uris":{"android":"levelo://app?vid=beed390f-5590-4e36-a920-552bcc39f2d8","ios":"levelo://app?vid=beed390f-5590-4e36-a920-552bcc39f2d8"},"vehicle_type_id":"4","last_reported":1726225690,"current_range_meters":39200,"station_id":"ce4bgs12rcd13ifvqcag","pricing_plan_id":"cebpf4jnsgd1na2vs0mg"},{"bike_id":"61e00977-be43-400f-99ea-3c33330f7657","system_id":"levelo_inurba_marseille","lat":43.25006,"lon":5.38905,"is_reserved":false,"is_disabled":false,"rental_uris":{"android":"levelo://app?vid=61e00977-be43-400f-99ea-3c33330f7657","ios":"levelo://app?vid=61e00977-be43-400f-99ea-3c33330f7657"},"vehicle_type_id":"4","last_reported":1726225690,"current_range_meters":25600,"station_id":"ce4bhgp2rcd13ifvqfd0","pricing_plan_id":"cebpf4jnsgd1na2vs0mg"},{"bike_id":"0032f5f1-e541-4093-a68c-d29e851a1466","system_id":"levelo_inurba_marseille","lat":43.2499,"lon":5.3893,"is_reserved":false,"is_disabled":false,"rental_uris":{"android":"levelo://app?vid=0032f5f1-e541-4093-a68c-d29e851a1466","ios":"levelo://app?vid=0032f5f1-e541-4093-a68c-d29e851a1466"},"vehicle_type_id":"4","last_reported":1726225690,"current_range_meters":17600,"station_id":"ce4bhgp2rcd13ifvqfd0","pricing_plan_id":"cebpf4jnsgd1na2vs0mg"},{"bike_id":"6f460960-ce1e-4b86-8066-4975ee77fdb2","system_id":"levelo_inurba_marseille","lat":43.32482,"lon":5.36556,"is_reserved":false,"is_disabled":false,"rental_uris":{"android":"levelo://app?vid=6f460960-ce1e-4b86-8066-4975ee77fdb2","ios":"levelo://app?vid=6f460960-ce1e-4b86-8066-4975ee77fdb2"},"vehicle_type_id":"4","last_reported":1726225690,"current_range_meters":6400,"station_id":"ce4bhs12rcd13ifvqhvg","pricing_plan_id":"cebpf4jnsgd1na2vs0mg"},{"bike_id":"72dd6a67-214b-43ea-aa3b-7d9d8650531f","system_id":"levelo_inurba_marseille","lat":43.30247,"lon":5.40067,"is_reserved":false,"is_disabled":false,"rental_uris":{"android":"levelo://app?vid=72dd6a67-214b-43ea-aa3b-7d9d8650531f","ios":"levelo://app?vid=72dd6a67-214b-43ea-aa3b-7d9d8650531f"},"vehicle_type_id":"4","last_reported":1726225690,"current_range_meters":39200,"station_id":"ce4bgvh2rcd13ifvqcs0","pricing_plan_id":"cebpf4jnsgd1na2vs0mg"},{"bike_id":"a403d708-a61c-4704-9874-aa401e257cfe","system_id":"levelo_inurba_marseille","lat":43.23179,"lon":5.39986,"is_reserved":false,"is_disabled":false,"rental_uris":{"android":"levelo://app?vid=a403d708-a61c-4704-9874-aa401e257cfe","ios":"levelo://app?vid=a403d708-a61c-4704-9874-aa401e257cfe"},"vehicle_type_id":"4","last_reported":1726225690,"current_range_meters":28400,"station_id":"ce4bhn12rcd13ifvqgqg","pricing_plan_id":"cebpf4jnsgd1na2vs0mg"},{"bike_id":"be925d0a-8950-43e1-83a7-33fbfd003776","system_id":"levelo_inurba_marseille","lat":43.3015,"lon":5.38079,"is_reserved":false,"is_disabled":false,"rental_uris":{"android":"levelo://app?vid=be925d0a-8950-43e1-83a7-33fbfd003776","ios":"levelo://app?vid=be925d0a-8950-43e1-83a7-33fbfd003776"},"vehicle_type_id":"4","last_reported":1726225690,"current_range_meters":32800,"station_id":"ce4bgjp2rcd13ifvqbh0","pricing_plan_id":"cebpf4jnsgd1na2vs0mg"},{"bike_id":"f44b6206-a67f-4a3b-af8d-75ba0606328e","system_id":"levelo_inurba_marseille","lat":43.29566,"lon":5.39974,"is_reserved":false,"is_disabled":false,"rental_uris":{"android":"levelo://app?vid=f44b6206-a67f-4a3b-af8d-75ba0606328e","ios":"levelo://app?vid=f44b6206-a67f-4a3b-af8d-75ba0606328e"},"vehicle_type_id":"4","last_reported":1726225690,"current_range_meters":38800,"station_id":"ce4bh312rcd13ifvqdj0","pricing_plan_id":"cebpf4jnsgd1na2vs0mg"},{"bike_id":"56830307-4a49-40f0-86d8-1373f06855be","system_id":"levelo_inurba_marseille","lat":43.29889,"lon":5.38144,"is_reserved":false,"is_disabled":false,"rental_uris":{"android":"levelo://app?vid=56830307-4a49-40f0-86d8-1373f06855be","ios":"levelo://app?vid=56830307-4a49-40f0-86d8-1373f06855be"},"vehicle_type_id":"4","last_reported":1726225690,"current_range_meters":20000,"station_id":"ce4bgj12rcd13ifvqbc0","pricing_plan_id":"cebpf4jnsgd1na2vs0mg"},{"bike_id":"47caf270-1213-4a68-9e51-ed6baf48e2bf","system_id":"levelo_inurba_marseille","lat":43.269217,"lon":5.388234,"is_reserved":false,"is_disabled":false,"rental_uris":{"android":"levelo://app?vid=47caf270-1213-4a68-9e51-ed6baf48e2bf","ios":"levelo://app?vid=47caf270-1213-4a68-9e51-ed6baf48e2bf"},"vehicle_type_id":"4","last_reported":1726225690,"current_range_meters":39200,"station_id":"ce4bhh92rcd13ifvqfh0","pricing_plan_id":"cebpf4jnsgd1na2vs0mg"},{"bike_id":"7daad7b8-b309-45fe-a51a-5bd5d3fa9a19","system_id":"levelo_inurba_marseille","lat":43.30138,"lon":5.37418,"is_reserved":false,"is_disabled":false,"rental_uris":{"android":"levelo://app?vid=7daad7b8-b309-45fe-a51a-5bd5d3fa9a19","ios":"levelo://app?vid=7daad7b8-b309-45fe-a51a-5bd5d3fa9a19"},"vehicle_type_id":"4","last_reported":1726225690,"current_range_meters":38000,"station_id":"ce4bgs92rcd13ifvqcc0","pricing_plan_id":"cebpf4jnsgd1na2vs0mg"},{"bike_id":"57c311d6-6ab9-413e-ba23-39adfee0b988","system_id":"levelo_inurba_marseille","lat":43.27948,"lon":5.41055,"is_reserved":false,"is_disabled":false,"rental_uris":{"android":"levelo://app?vid=57c311d6-6ab9-413e-ba23-39adfee0b988","ios":"levelo://app?vid=57c311d6-6ab9-413e-ba23-39adfee0b988"},"vehicle_type_id":"4","last_reported":1726225690,"current_range_meters":29600,"station_id":"ce4bhnp2rcd13ifvqh0g","pricing_plan_id":"cebpf4jnsgd1na2vs0mg"},{"bike_id":"5ce50119-0aab-4a32-8337-762db3bf533a","system_id":"levelo_inurba_marseille","lat":43.30247,"lon":5.40093,"is_reserved":false,"is_disabled":false,"rental_uris":{"android":"levelo://app?vid=5ce50119-0aab-4a32-8337-762db3bf533a","ios":"levelo://app?vid=5ce50119-0aab-4a32-8337-762db3bf533a"},"vehicle_type_id":"4","last_reported":1726225690,"current_range_meters":38800,"station_id":"ce4bgvh2rcd13ifvqcs0","pricing_plan_id":"cebpf4jnsgd1na2vs0mg"},{"bike_id":"e8e6349d-f444-441c-a908-08a97b109467","system_id":"levelo_inurba_marseille","lat":43.24177,"lon":5.39721,"is_reserved":false,"is_disabled":false,"rental_uris":{"android":"levelo://app?vid=e8e6349d-f444-441c-a908-08a97b109467","ios":"levelo://app?vid=e8e6349d-f444-441c-a908-08a97b109467"},"vehicle_type_id":"4","last_reported":1726225690,"current_range_meters":2800,"station_id":"ce4bhn12rcd13ifvqgpg","pricing_plan_id":"cebpf4jnsgd1na2vs0mg"},{"bike_id":"f20f613d-77b3-4abc-847d-4abd98073b48","system_id":"levelo_inurba_marseille","lat":43.28618,"lon":5.35092,"is_reserved":false,"is_disabled":false,"rental_uris":{"android":"levelo://app?vid=f20f613d-77b3-4abc-847d-4abd98073b48","ios":"levelo://app?vid=f20f613d-77b3-4abc-847d-4abd98073b48"},"vehicle_type_id":"4","last_reported":1726225690,"current_range_meters":32000,"station_id":"ce4bhch2rcd13ifvqeug","pricing_plan_id":"cebpf4jnsgd1na2vs0mg"},{"bike_id":"37391d25-87c0-4505-bac8-a768bab779a6","system_id":"levelo_inurba_marseille","lat":43.32479,"lon":5.3656,"is_reserved":false,"is_disabled":false,"rental_uris":{"android":"levelo://app?vid=37391d25-87c0-4505-bac8-a768bab779a6","ios":"levelo://app?vid=37391d25-87c0-4505-bac8-a768bab779a6"},"vehicle_type_id":"4","last_reported":1726225690,"current_range_meters":14000,"station_id":"ce4bhs12rcd13ifvqhvg","pricing_plan_id":"cebpf4jnsgd1na2vs0mg"},{"bike_id":"fc761e13-a2f9-4889-97f3-6d62b7844a9f","system_id":"levelo_inurba_marseille","lat":43.33741,"lon":5.37443,"is_reserved":false,"is_disabled":false,"rental_uris":{"android":"levelo://app?vid=fc761e13-a2f9-4889-97f3-6d62b7844a9f","ios":"levelo://app?vid=fc761e13-a2f9-4889-97f3-6d62b7844a9f"},"vehicle_type_id":"4","last_reported":1726225690,"current_range_meters":19200,"station_id":"","pricing_plan_id":"cebpf4jnsgd1na2vs0mg"},{"bike_id":"52ef493d-112f-4c68-8662-3bb1cdb9cb18","system_id":"levelo_inurba_marseille","lat":43.23152,"lon":5.43721,"is_reserved":false,"is_disabled":false,"rental_uris":{"android":"levelo://app?vid=52ef493d-112f-4c68-8662-3bb1cdb9cb18","ios":"levelo://app?vid=52ef493d-112f-4c68-8662-3bb1cdb9cb18"},"vehicle_type_id":"4","last_reported":1726225690,"current_range_meters":36000,"station_id":"ce4bhmp2rcd13ifvqgog","pricing_plan_id":"cebpf4jnsgd1na2vs0mg"},{"bike_id":"bd6294da-50d4-43e9-a7ee-d3317bbbc700","system_id":"levelo_inurba_marseille","lat":43.265334,"lon":5.395261,"is_reserved":false,"is_disabled":false,"rental_uris":{"android":"levelo://app?vid=bd6294da-50d4-43e9-a7ee-d3317bbbc700","ios":"levelo://app?vid=bd6294da-50d4-43e9-a7ee-d3317bbbc700"},"vehicle_type_id":"4","last_reported":1726225690,"current_range_meters":19600,"station_id":"ce4bhi12rcd13ifvqfq0","pricing_plan_id":"cebpf4jnsgd1na2vs0mg"},{"bike_id":"06c5c83d-a657-4596-b3e4-27fb10159b1f","system_id":"levelo_inurba_marseille","lat":43.3149,"lon":5.37308,"is_reserved":false,"is_disabled":false,"rental_uris":{"android":"levelo://app?vid=06c5c83d-a657-4596-b3e4-27fb10159b1f","ios":"levelo://app?vid=06c5c83d-a657-4596-b3e4-27fb10159b1f"},"vehicle_type_id":"4","last_reported":1726225690,"current_range_meters":34800,"station_id":"ce4bgt12rcd13ifvqcd0","pricing_plan_id":"cebpf4jnsgd1na2vs0mg"},{"bike_id":"63ef9601-5329-42ea-94ac-fcdfa4ac72f6","system_id":"levelo_inurba_marseille","lat":43.30532,"lon":5.36715,"is_reserved":false,"is_disabled":false,"rental_uris":{"android":"levelo://app?vid=63ef9601-5329-42ea-94ac-fcdfa4ac72f6","ios":"levelo://app?vid=63ef9601-5329-42ea-94ac-fcdfa4ac72f6"},"vehicle_type_id":"4","last_reported":1726225690,"current_range_meters":28000,"station_id":"ce4bgrp2rcd13ifvqc9g","pricing_plan_id":"cebpf4jnsgd1na2vs0mg"},{"bike_id":"09b30918-6491-4480-b178-c9a1bb6ab112","system_id":"levelo_inurba_marseille","lat":43.30904,"lon":5.36847,"is_reserved":false,"is_disabled":false,"rental_uris":{"android":"levelo://app?vid=09b30918-6491-4480-b178-c9a1bb6ab112","ios":"levelo://app?vid=09b30918-6491-4480-b178-c9a1bb6ab112"},"vehicle_type_id":"4","last_reported":1726225690,"current_range_meters":36400,"station_id":"ce4bgn92rcd13ifvqbvg","pricing_plan_id":"cebpf4jnsgd1na2vs0mg"},{"bike_id":"c94f4dad-5c90-420f-af95-6437f3b1ddb2","system_id":"levelo_inurba_marseille","lat":43.32475,"lon":5.36557,"is_reserved":false,"is_disabled":false,"rental_uris":{"android":"levelo://app?vid=c94f4dad-5c90-420f-af95-6437f3b1ddb2","ios":"levelo://app?vid=c94f4dad-5c90-420f-af95-6437f3b1ddb2"},"vehicle_type_id":"4","last_reported":1726225690,"current_range_meters":36000,"station_id":"ce4bhs12rcd13ifvqhvg","pricing_plan_id":"cebpf4jnsgd1na2vs0mg"},{"bike_id":"deedba50-cf4f-46c5-90f7-f92e01f30f90","system_id":"levelo_inurba_marseille","lat":43.27199,"lon":5.39192,"is_reserved":false,"is_disabled":false,"rental_uris":{"android":"levelo://app?vid=deedba50-cf4f-46c5-90f7-f92e01f30f90","ios":"levelo://app?vid=deedba50-cf4f-46c5-90f7-f92e01f30f90"},"vehicle_type_id":"4","last_reported":1726225690,"current_range_meters":32400,"station_id":"ce4bhhp2rcd13ifvqfm0","pricing_plan_id":"cebpf4jnsgd1na2vs0mg"},{"bike_id":"5ace67cd-96a1-4751-937d-b404b10549bc","system_id":"levelo_inurba_marseille","lat":43.31223,"lon":5.36857,"is_reserved":false,"is_disabled":false,"rental_uris":{"android":"levelo://app?vid=5ace67cd-96a1-4751-937d-b404b10549bc","ios":"levelo://app?vid=5ace67cd-96a1-4751-937d-b404b10549bc"},"vehicle_type_id":"4","last_reported":1726225690,"current_range_meters":25600,"station_id":"ce4bgl92rcd13ifvqbq0","pricing_plan_id":"cebpf4jnsgd1na2vs0mg"},{"bike_id":"9b14a2c7-0684-482d-9ed1-04f34361617e","system_id":"levelo_inurba_marseille","lat":43.28719,"lon":5.37937,"is_reserved":false,"is_disabled":false,"rental_uris":{"android":"levelo://app?vid=9b14a2c7-0684-482d-9ed1-04f34361617e","ios":"levelo://app?vid=9b14a2c7-0684-482d-9ed1-04f34361617e"},"vehicle_type_id":"4","last_reported":1726225690,"current_range_meters":22400,"station_id":"ce4bh9p2rcd13ifvqec0","pricing_plan_id":"cebpf4jnsgd1na2vs0mg"},{"bike_id":"b8958452-e2aa-4a1c-af39-89f3868232f0","system_id":"levelo_inurba_marseille","lat":43.267415,"lon":5.382397,"is_reserved":false,"is_disabled":false,"rental_uris":{"android":"levelo://app?vid=b8958452-e2aa-4a1c-af39-89f3868232f0","ios":"levelo://app?vid=b8958452-e2aa-4a1c-af39-89f3868232f0"},"vehicle_type_id":"4","last_reported":1726225690,"current_range_meters":30800,"station_id":"ce4bhg92rcd13ifvqf90","pricing_plan_id":"cebpf4jnsgd1na2vs0mg"},