{"last_updated":1712686116,"ttl":30,"version":"2.2","data":{"bikes":[{"bike_id":"c4917271-66ca-4121-9878-cde84b5e1cd0","system_id":"levelo_inurba_marseille","lat":43.312239,"lon":5.368562,"is_reserved":false,"is_disabled":false,"rental_uris":{"android":"levelo://app?vid=c4917271-66ca-4121-9878-cde84b5e1cd0","ios":"levelo://app?vid=c4917271-66ca-4121-9878-cde84b5e1cd0"},"vehicle_type_id":"4","last_reported":1712686116,"current_range_meters":0,"station_id":"ce4bgl92rcd13ifvqbq0","pricing_plan_id":"cebpf4jnsgd1na2vs0mg"},{"bike_id":"a609a39c-90f6-4924-a5ca-736f70a73d44","system_id":"levelo_inurba_marseille","lat":43.314941,"lon":5.372771,"is_reserved":false,"is_disabled":false,"rental_uris":{"android":"levelo://app?vid=a609a39c-90f6-4924-a5ca-736f70a73d44","ios":"levelo://app?vid=a609a39c-90f6-4924-a5ca-736f70a73d44"},"vehicle_type_id":"4","last_reported":1712686116,"current_range_meters":0,"station_id":"ce4bgt12rcd13ifvqcd0","pricing_plan_id":"cebpf4jnsgd1na2vs0mg"},{"bike_id":"6989d402-592a-426c-8637-dc882ab67b31","system_id":"levelo_inurba_marseille","lat":43.307796,"lon":5.367628,"is_reserved":false,"is_disabled":false,"rental_uris":{"android":"levelo://app?vid=6989d402-592a-426c-8637-dc882ab67b31","ios":"levelo://app?vid=6989d402-592a-426c-8637-dc882ab67b31"},"vehicle_type_id":"4","last_reported":1712686116,"current_range_meters":0,"station_id":"","pricing_plan_id":"cebpf4jnsgd1na2vs0mg"},{"bike_id":"e621240a-77af-4b9f-8f49-db83507b3f34","system_id":"levelo_inurba_marseille","lat":43.314811,"lon":5.373103,"is_reserved":false,"is_disabled":false,"rental_uris":{"android":"levelo://app?vid=e621240a-77af-4b9f-8f49-db83507b3f34","ios":"levelo://app?vid=e621240a-77af-4b9f-8f49-db83507b3f34"},"vehicle_type_id":"4","last_reported":1712686116,"current_range_meters":0,"station_id":"ce4bgt12rcd13ifvqcd0","pricing_plan_id":"cebpf4jnsgd1na2vs0mg"},{"bike_id":"5df013b5-b93a-4a15-b9b9-8244ac496e24","system_id":"levelo_inurba_marseille","lat":43.314811,"lon":5.373104,"is_reserved":false,"is_disabled":false,"rental_uris":{"android":"levelo://app?vid=5df013b5-b93a-4a15-b9b9-8244ac496e24","ios":"levelo://app?vid=5df013b5-b93a-4a15-b9b9-8244ac496e24"},"vehicle_type_id":"4","last_reported":1712686116,"current_range_meters":3200,"station_id":"ce4bgt12rcd13ifvqcd0","pricing_plan_id":"cebpf4jnsgd1na2vs0mg"},{"bike_id":"1d0786d1-db2b-4abb-87a5-e76b945a8b54","system_id":"levelo_inurba_marseille","lat":43.299222,"lon":5.365554,"is_reserved":false,"is_disabled":false,"rental_uris":{"android":"levelo://app?vid=1d0786d1-db2b-4abb-87a5-e76b945a8b54","ios":"levelo://app?vid=1d0786d1-db2b-4abb-87a5-e76b945a8b54"},"vehicle_type_id":"4","last_reported":1712686116,"current_range_meters":0,"station_id":"ce4bgm92rcd13ifvqbr0","pricing_plan_id":"cebpf4jnsgd1na2vs0mg"},{"bike_id":"9574f0e2-959d-43bd-b003-fcedcda8d310","system_id":"levelo_inurba_marseille","lat":43.314811,"lon":5.373104,"is_reserved":false,"is_disabled":false,"rental_uris":{"android":"levelo://app?vid=9574f0e2-959d-43bd-b003-fcedcda8d310","ios":"levelo://app?vid=9574f0e2-959d-43bd-b003-fcedcda8d310"},"vehicle_type_id":"4","last_reported":1712686116,"current_range_meters":4400,"station_id":"ce4bgt12rcd13ifvqcd0","pricing_plan_id":"cebpf4jnsgd1na2vs0mg"},{"bike_id":"f26d998c-2595-46a3-9794-fde9f12f5e94","system_id":"levelo_inurba_marseille","lat":43.314811,"lon":5.373104,"is_reserved":false,"is_disabled":false,"rental_uris":{"android":"levelo://app?vid=f26d998c-2595-46a3-9794-fde9f12f5e94","ios":"levelo://app?vid=f26d998c-2595-46a3-9794-fde9f12f5e94"},"vehicle_type_id":"4","last_reported":1712686116,"current_range_meters":0,"station_id":"ce4bgt12rcd13ifvqcd0","pricing_plan_id":"cebpf4jnsgd1na2vs0mg"},{"bike_id":"0264ada5-880f-406c-86d1-834d3a51bf20","system_id":"levelo_inurba_marseille","lat":43.309034,"lon":5.371783,"is_reserved":false,"is_disabled":false,"rental_uris":{"android":"levelo://app?vid=0264ada5-880f-406c-86d1-834d3a51bf20","ios":"levelo://app?vid=0264ada5-880f-406c-86d1-834d3a51bf20"},"vehicle_type_id":"4","last_reported":1712686116,"current_range_meters":1600,"station_id":"ce4bguh2rcd13ifvqckg","pricing_plan_id":"cebpf4jnsgd1na2vs0mg"},{"bike_id":"73706916-b3f3-4ff0-b068-cec67895e8b1","system_id":"levelo_inurba_marseille","lat":43.306536,"lon":5.36696,"is_reserved":false,"is_disabled":false,"rental_uris":{"android":"levelo://app?vid=73706916-b3f3-4ff0-b068-cec67895e8b1","ios":"levelo://app?vid=73706916-b3f3-4ff0-b068-cec67895e8b1"},"vehicle_type_id":"4","last_reported":1712686116,"current_range_meters":0,"station_id":"","pricing_plan_id":"cebpf4jnsgd1na2vs0mg"},{"bike_id":"5784eaa5-6745-495b-9286-6927fcfcb74d","system_id":"levelo_inurba_marseille","lat":43.305491,"lon":5.367069,"is_reserved":false,"is_disabled":false,"rental_uris":{"android":"levelo://app?vid=5784eaa5-6745-495b-9286-6927fcfcb74d","ios":"levelo://app?vid=5784eaa5-6745-495b-9286-6927fcfcb74d"},"vehicle_type_id":"4","last_reported":1712686116,"current_range_meters":0,"station_id":"ce4bgrp2rcd13ifvqc9g","pricing_plan_id":"cebpf4jnsgd1na2vs0mg"},{"bike_id":"96e7e46b-e31b-49ad-bff2-93ca9ca3deaa","system_id":"levelo_inurba_marseille","lat":43.305706,"lon":5.365654,"is_reserved":false,"is_disabled":false,"rental_uris":{"android":"levelo://app?vid=96e7e46b-e31b-49ad-bff2-93ca9ca3deaa","ios":"levelo://app?vid=96e7e46b-e31b-49ad-bff2-93ca9ca3deaa"},"vehicle_type_id":"4","last_reported":1712686116,"current_range_meters":2800,"station_id":"ce4bgs12rcd13ifvqcag","pricing_plan_id":"cebpf4jnsgd1na2vs0mg"},{"bike_id":"638ddfe6-9d82-4add-8771-72fefe1ef36b","system_id":"levelo_inurba_marseille","lat":43.305978,"lon":5.372265,"is_reserved":false,"is_disabled":false,"rental_uris":{"android":"levelo://app?vid=638ddfe6-9d82-4add-8771-72fefe1ef36b","ios":"levelo://app?vid=638ddfe6-9d82-4add-8771-72fefe1ef36b"},"vehicle_type_id":"4","last_reported":1712686116,"current_range_meters":0,"station_id":"ce4bgqh2rcd13ifvqc4g","pricing_plan_id":"cebpf4jnsgd1na2vs0mg"},{"bike_id":"a008b0f7-4baa-4c8c-a786-03620a773ea4","system_id":"levelo_inurba_marseille","lat":43.305941,"lon":5.372229,"is_reserved":false,"is_disabled":false,"rental_uris":{"android":"levelo://app?vid=a008b0f7-4baa-4c8c-a786-03620a773ea4","ios":"levelo://app?vid=a008b0f7-4baa-4c8c-a786-03620a773ea4"},"vehicle_type_id":"4","last_reported":1712686116,"current_range_meters":400,"station_id":"ce4bgqh2rcd13ifvqc4g","pricing_plan_id":"cebpf4jnsgd1na2vs0mg"},{"bike_id":"ce7434d3-4ac3-4c21-8ea9-8d6a06e55b02","system_id":"levelo_inurba_marseille","lat":43.305989,"lon":5.37225,"is_reserved":false,"is_disabled":false,"rental_uris":{"android":"levelo://app?vid=ce7434d3-4ac3-4c21-8ea9-8d6a06e55b02","ios":"levelo://app?vid=ce7434d3-4ac3-4c21-8ea9-8d6a06e55b02"},"vehicle_type_id":"4","last_reported":1712686116,"current_range_meters":15200,"station_id":"ce4bgqh2rcd13ifvqc4g","pricing_plan_id":"cebpf4jnsgd1na2vs0mg"},{"bike_id":"00956519-77aa-4776-80a3-4af2cd33c1d6","system_id":"levelo_inurba_marseille","lat":43.307945,"lon":5.376487,"is_reserved":false,"is_disabled":false,"rental_uris":{"android":"levelo://app?vid=00956519-77aa-4776-80a3-4af2cd33c1d6","ios":"levelo://app?vid=00956519-77aa-4776-80a3-4af2cd33c1d6"},"vehicle_type_id":"4","last_reported":1712686116,"current_range_meters":16800,"station_id":"ce4bgv92rcd13ifvqcq0","pricing_plan_id":"cebpf4jnsgd1na2vs0mg"},{"bike_id":"08e88941-71ac-4da5-b279-c0def138a28a","system_id":"levelo_inurba_marseille","lat":43.317075,"lon":5.377367,"is_reserved":false,"is_disabled":false,"rental_uris":{"android":"levelo://app?vid=08e88941-71ac-4da5-b279-c0def138a28a","ios":"levelo://app?vid=08e88941-71ac-4da5-b279-c0def138a28a"},"vehicle_type_id":"4","last_reported":1712686116,"current_range_meters":5600,"station_id":"ce4bgth2rcd13ifvqch0","pricing_plan_id":"cebpf4jnsgd1na2vs0mg"},{"bike_id":"3b91ba90-b84a-4790-b58a-d0e98ef6f7a9","system_id":"levelo_inurba_marseille","lat":43.305989,"lon":5.37225,"is_reserved":false,"is_disabled":false,"rental_uris":{"android":"levelo://app?vid=3b91ba90-b84a-4790-b58a-d0e98ef6f7a9","ios":"levelo://app?vid=3b91ba90-b84a-4790-b58a-d0e98ef6f7a9"},"vehicle_type_id":"4","last_reported":1712686116,"current_range_meters":0,"station_id":"ce4bgqh2rcd13ifvqc4g","pricing_plan_id":"cebpf4jnsgd1na2vs0mg"},{"bike_id":"0946e30c-21d6-4c5b-a227-68bb998e02b3","system_id":"levelo_inurba_marseille","lat":43.317075,"lon":5.377367,"is_reserved":false,"is_disabled":false,"rental_uris":{"android":"levelo://app?vid=0946e30c-21d6-4c5b-a227-68bb998e02b3","ios":"levelo://app?vid=0946e30c-21d6-4c5b-a227-68bb998e02b3"},"vehicle_type_id":"4","last_reported":1712686116,"current_range_meters":27200,"station_id":"ce4bgth2rcd13ifvqch0","pricing_plan_id":"cebpf4jnsgd1na2vs0mg"},{"bike_id":"2b22e0b6-2694-4669-9774-7f47897a75de","system_id":"levelo_inurba_marseille","lat":43.31703,"lon":5.37755,"is_reserved":false,"is_disabled":false,"rental_uris":{"android":"levelo://app?vid=2b22e0b6-2694-4669-9774-7f47897a75de","ios":"levelo://app?vid=2b22e0b6-2694-4669-9774-7f47897a75de"},"vehicle_type_id":"4","last_reported":1712686116,"current_range_meters":800,"station_id":"ce4bgth2rcd13ifvqch0","pricing_plan_id":"cebpf4jnsgd1na2vs0mg"},{"bike_id":"dcb70012-48f0-4f3c-b324-2570579680a9","system_id":"levelo_inurba_marseille","lat":43.317075,"lon":5.377367,"is_reserved":false,"is_disabled":false,"rental_uris":{"android":"levelo://app?vid=dcb70012-48f0-4f3c-b324-2570579680a9","ios":"levelo://app?vid=dcb70012-48f0-4f3c-b324-2570579680a9"},"vehicle_type_id":"4","last_reported":1712686116,"current_range_meters":28800,"station_id":"ce4bgth2rcd13ifvqch0","pricing_plan_id":"cebpf4jnsgd1na2vs0mg"},{"bike_id":"d89476a0-aa2c-4a63-9c6c-557a761b688e","system_id":"levelo_inurba_marseille","lat":43.317075,"lon":5.377367,"is_reserved":false,"is_disabled":false,"rental_uris":{"android":"levelo://app?vid=d89476a0-aa2c-4a63-9c6c-557a761b688e","ios":"levelo://app?vid=d89476a0-aa2c-4a63-9c6c-557a761b688e"},"vehicle_type_id":"4","last_reported":1712686116,"current_range_meters":31600,"station_id":"ce4bgth2rcd13ifvqch0","pricing_plan_id":"cebpf4jnsgd1na2vs0mg"},{"bike_id":"1cbd60eb-0f96-48a8-a190-1beff8e99a27","system_id":"levelo_inurba_marseille","lat":43.317075,"lon":5.377367,"is_reserved":false,"is_disabled":false,"rental_uris":{"android":"levelo://app?vid=1cbd60eb-0f96-48a8-a190-1beff8e99a27","ios":"levelo://app?vid=1cbd60eb-0f96-48a8-a190-1beff8e99a27"},"vehicle_type_id":"4","last_reported":1712686116,"current_range_meters":10000,"station_id":"ce4bgth2rcd13ifvqch0","pricing_plan_id":"cebpf4jnsgd1na2vs0mg"},{"bike_id":"0ca92911-03a0-4b85-81a8-b5db427d49ae","system_id":"levelo_inurba_marseille","lat":43.317075,"lon":5.377367,"is_reserved":false,"is_disabled":false,"rental_uris":{"android":"levelo://app?vid=0ca92911-03a0-4b85-81a8-b5db427d49ae","ios":"levelo://app?vid=0ca92911-03a0-4b85-81a8-b5db427d49ae"},"vehicle_type_id":"4","last_reported":1712686116,"current_range_meters":4000,"station_id":"ce4bgth2rcd13ifvqch0","pricing_plan_id":"cebpf4jnsgd1na2vs0mg"},{"bike_id":"edf8b7cd-2621-45d9-9503-f661039da12d","system_id":"levelo_inurba_marseille","lat":43.317075,"lon":5.377367,"is_reserved":false,"is_disabled":false,"rental_uris":{"android":"levelo://app?vid=edf8b7cd-2621-45d9-9503-f661039da12d","ios":"levelo://app?vid=edf8b7cd-2621-45d9-9503-f661039da12d"},"vehicle_type_id":"4","last_reported":1712686116,"current_range_meters":14800,"station_id":"ce4bgth2rcd13ifvqch0","pricing_plan_id":"cebpf4jnsgd1na2vs0mg"},{"bike_id":"9376eb00-d2dd-4981-a0ee-095298a065a1","system_id":"levelo_inurba_marseille","lat":43.309076,"lon":5.368465,"is_reserved":false,"is_disabled":false,"rental_uris":{"android":"levelo://app?vid=9376eb00-d2dd-4981-a0ee-095298a065a1","ios":"levelo://app?vid=9376eb00-d2dd-4981-a0ee-095298a065a1"},"vehicle_type_id":"4","last_reported":1712686116,"current_range_meters":14400,"station_id":"ce4bgn92rcd13ifvqbvg","pricing_plan_id":"cebpf4jnsgd1na2vs0mg"},{"bike_id":"658cc89d-0c3c-4222-8f2e-056cba0138df","system_id":"levelo_inurba_marseille","lat":43.30319,"lon":5.36906,"is_reserved":false,"is_disabled":false,"rental_uris":{"android":"levelo://app?vid=658cc89d-0c3c-4222-8f2e-056cba0138df","ios":"levelo://app?vid=658cc89d-0c3c-4222-8f2e-056cba0138df"},"vehicle_type_id":"4","last_reported":1712686116,"current_range_meters":0,"station_id":"ce4bgqh2rcd13ifvqc5g","pricing_plan_id":"cebpf4jnsgd1na2vs0mg"},{"bike_id":"947cf5df-1e6a-4fd8-9863-c7878bef8926","system_id":"levelo_inurba_marseille","lat":43.303046,"lon":5.368981,"is_reserved":false,"is_disabled":false,"rental_uris":{"android":"levelo://app?vid=947cf5df-1e6a-4fd8-9863-c7878bef8926","ios":"levelo://app?vid=947cf5df-1e6a-4fd8-9863-c7878bef8926"},"vehicle_type_id":"4","last_reported":1712686116,"current_range_meters":12400,"station_id":"ce4bgqh2rcd13ifvqc5g","pricing_plan_id":"cebpf4jnsgd1na2vs0mg"},{"bike_id":"e4901716-2627-42a8-aa50-429f92c1ca6a","system_id":"levelo_inurba_marseille","lat":43.30968,"lon":5.3799,"is_reserved":false,"is_disabled":false,"rental_uris":{"android":"levelo://app?vid=e4901716-2627-42a8-aa50-429f92c1ca6a","ios":"levelo://app?vid=e4901716-2627-42a8-aa50-429f92c1ca6a"},"vehicle_type_id":"4","last_reported":1712686116,"current_range_meters":19600,"station_id":"","pricing_plan_id":"cebpf4jnsgd1na2vs0mg"},{"bike_id":"1e03d130-22e2-4ba0-9db8-5704439c4ae6","system_id":"levelo_inurba_marseille","lat":43.315293,"lon":5.380349,"is_reserved":false,"is_disabled":false,"rental_uris":{"android":"levelo://app?vid=1e03d130-22e2-4ba0-9db8-5704439c4ae6","ios":"levelo://app?vid=1e03d130-22e2-4ba0-9db8-5704439c4ae6"},"vehicle_type_id":"4","last_reported":1712686116,"current_range_meters":800,"station_id":"ce4bhsp2rcd13ifvqi50","pricing_plan_id":"cebpf4jnsgd1na2vs0mg"},{"bike_id":"7d6dd282-34f3-4579-af43-6893eb56f449","system_id":"levelo_inurba_marseille","lat":43.315289,"lon":5.380349,"is_reserved":false,"is_disabled":false,"rental_uris":{"android":"levelo://app?vid=7d6dd282-34f3-4579-af43-6893eb56f449","ios":"levelo://app?vid=7d6dd282-34f3-4579-af43-6893eb56f449"},"vehicle_type_id":"4","last_reported":1712686116,"current_range_meters":13200,"station_id":"ce4bhsp2rcd13ifvqi50","pricing_plan_id":"cebpf4jnsgd1na2vs0mg"},{"bike_id":"3c6c038e-6374-44cf-aafa-e6266b8d1aab","system_id":"levelo_inurba_marseille","lat":43.315289,"lon":5.380349,"is_reserved":false,"is_disabled":false,"rental_uris":{"android":"levelo://app?vid=3c6c038e-6374-44cf-aafa-e6266b8d1aab","ios":"levelo://app?vid=3c6c038e-6374-44cf-aafa-e6266b8d1aab"},"vehicle_type_id":"4","last_reported":1712686116,"current_range_meters":19200,"station_id":"ce4bhsp2rcd13ifvqi50","pricing_plan_id":"cebpf4jnsgd1na2vs0mg"},{"bike_id":"68eea256-462c-4a44-933a-cc40c4f4d30d","system_id":"levelo_inurba_marseille","lat":43.315289,"lon":5.380349,"is_reserved":false,"is_disabled":false,"rental_uris":{"android":"levelo://app?vid=68eea256-462c-4a44-933a-cc40c4f4d30d","ios":"levelo://app?vid=68eea256-462c-4a44-933a-cc40c4f4d30d"},"vehicle_type_id":"4","last_reported":1712686116,"current_range_meters":31600,"station_id":"ce4bhsp2rcd13ifvqi50","pricing_plan_id":"cebpf4jnsgd1na2vs0mg"},{"bike_id":"42076c19-38dd-4c0c-9cc2-84d4d64e3758","system_id":"levelo_inurba_marseille","lat":43.315293,"lon":5.380349,"is_reserved":false,"is_disabled":false,"rental_uris":{"android":"levelo://app?vid=42076c19-38dd-4c0c-9cc2-84d4d64e3758","ios":"levelo://app?vid=42076c19-38dd-4c0c-9cc2-84d4d64e3758"},"vehicle_type_id":"4","last_reported":1712686116,"current_range_meters":32000,"station_id":"ce4bhsp2rcd13ifvqi50","pricing_plan_id":"cebpf4jnsgd1na2vs0mg"},{"bike_id":"539028f5-bac9-4308-ab71-f11e4fdbf750","system_id":"levelo_inurba_marseille","lat":43.2936,"lon":5.37835,"is_reserved":false,"is_disabled":false,"rental_uris":{"android":"levelo://app?vid=539028f5-bac9-4308-ab71-f11e4fdbf750","ios":"levelo://app?vid=539028f5-bac9-4308-ab71-f11e4fdbf750"},"vehicle_type_id":"4","last_reported":1712686116,"current_range_meters":7200,"station_id":"ce4bgjh2rcd13ifvqbf0","pricing_plan_id":"cebpf4jnsgd1na2vs0mg"},{"bike_id":"ee16e509-d7e6-4da8-9321-00c74a3cffc4","system_id":"levelo_inurba_marseille","lat":43.315289,"lon":5.380349,"is_reserved":false,"is_disabled":false,"rental_uris":{"android":"levelo://app?vid=ee16e509-d7e6-4da8-9321-00c74a3cffc4","ios":"levelo://app?vid=ee16e509-d7e6-4da8-9321-00c74a3cffc4"},"vehicle_type_id":"4","last_reported":1712686116,"current_range_meters":400,"station_id":"ce4bhsp2rcd13ifvqi50","pricing_plan_id":"cebpf4jnsgd1na2vs0mg"},{"bike_id":"5138cd12-be72-4388-baeb-8cce9acee15b","system_id":"levelo_inurba_marseille","lat":43.302891,"lon":5.372622,"is_reserved":false,"is_disabled":false,"rental_uris":{"android":"levelo://app?vid=5138cd12-be72-4388-baeb-8cce9acee15b","ios":"levelo://app?vid=5138cd12-be72-4388-baeb-8cce9acee15b"},"vehicle_type_id":"4","last_reported":1712686116,"current_range_meters":28000,"station_id":"","pricing_plan_id":"cebpf4jnsgd1na2vs0mg"},{"bike_id":"1e2f1a3a-1274-4023-8055-150fa9a21609","system_id":"levelo_inurba_marseille","lat":43.301939,"lon":5.366286,"is_reserved":false,"is_disabled":false,"rental_uris":{"android":"levelo://app?vid=1e2f1a3a-1274-4023-8055-150fa9a21609","ios":"levelo://app?vid=1e2f1a3a-1274-4023-8055-150fa9a21609"},"vehicle_type_id":"4","last_reported":1712686116,"current_range_meters":20800,"station_id":"ce4bgrh2rcd13ifvqc8g","pricing_plan_id":"cebpf4jnsgd1na2vs0mg"},{"bike_id":"08c453c2-4ecb-4c5b-9587-f0787b320123","system_id":"levelo_inurba_marseille","lat":43.304626,"lon":5.379048,"is_reserved":false,"is_disabled":false,"rental_uris":{"android":"levelo://app?vid=08c453c2-4ecb-4c5b-9587-f0787b320123","ios":"levelo://app?vid=08c453c2-4ecb-4c5b-9587-f0787b320123"},"vehicle_type_id":"4","last_reported":1712686116,"current_range_meters":0,"station_id":"ce4bgup2rcd13ifvqcn0","pricing_plan_id":"cebpf4jnsgd1na2vs0mg"},{"bike_id":"4ab09330-884c-430c-b06f-3536dfc87359","system_id":"levelo_inurba_marseille","lat":43.324771,"lon":5.36557,"is_reserved":false,"is_disabled":false,"rental_uris":{"android":"levelo://app?vid=4ab09330-884c-430c-b06f-3536dfc87359","ios":"levelo://app?vid=4ab09330-884c-430c-b06f-3536dfc87359"},"vehicle_type_id":"4","last_reported":1712686116,"current_range_meters":2400,"station_id":"ce4bhs12rcd13ifvqhvg","pricing_plan_id":"cebpf4jnsgd1na2vs0mg"},{"bike_id":"5cd49b38-4b4d-48c2-93a5-c1d29d9cf86c","system_id":"levelo_inurba_marseille","lat":43.32476,"lon":5.36572,"is_reserved":false,"is_disabled":false,"rental_uris":{"android":"levelo://app?vid=5cd49b38-4b4d-48c2-93a5-c1d29d9cf86c","ios":"levelo://app?vid=5cd49b38-4b4d-48c2-93a5-c1d29d9cf86c"},"vehicle_type_id":"4","last_reported":1712686116,"current_range_meters":15200,"station_id":"ce4bhs12rcd13ifvqhvg","pricing_plan_id":"cebpf4jnsgd1na2vs0mg"},{"bike_id":"472c3294-2803-4237-bcbf-54269798f6ec","system_id":"levelo_inurba_marseille","lat":43.32476,"lon":5.36571,"is_reserved":false,"is_disabled":false,"rental_uris":{"android":"levelo://app?vid=472c3294-2803-4237-bcbf-54269798f6ec","ios":"levelo://app?vid=472c3294-2803-4237-bcbf-54269798f6ec"},"vehicle_type_id":"4","last_reported":1712686116,"current_range_meters":18400,"station_id":"ce4bhs12rcd13ifvqhvg","pricing_plan_id":"cebpf4jnsgd1na2vs0mg"},{"bike_id":"b61f5fce-3370-4eb2-9cfe-757ef3a5f155","system_id":"levelo_inurba_marseille","lat":43.324771,"lon":5.36557,"is_reserved":false,"is_disabled":false,"rental_uris":{"android":"levelo://app?vid=b61f5fce-3370-4eb2-9cfe-757ef3a5f155","ios":"levelo://app?vid=b61f5fce-3370-4eb2-9cfe-757ef3a5f155"},"vehicle_type_id":"4","last_reported":1712686116,"current_range_meters":21600,"station_id":"ce4bhs12rcd13ifvqhvg","pricing_plan_id":"cebpf4jnsgd1na2vs0mg"},{"bike_id":"6a699631-fcae-4df0-bc08-2324b1f3edc0","system_id":"levelo_inurba_marseille","lat":43.30456,"lon":5.37914,"is_reserved":false,"is_disabled":false,"rental_uris":{"android":"levelo://app?vid=6a699631-fcae-4df0-bc08-2324b1f3edc0","ios":"levelo://app?vid=6a699631-fcae-4df0-bc08-2324b1f3edc0"},"vehicle_type_id":"4","last_reported":1712686116,"current_range_meters":8000,"station_id":"chh1huq6cuj3fo74tm60","pricing_plan_id":"cebpf4jnsgd1na2vs0mg"},{"bike_id":"dd1eeaf3-7ce5-435e-b6c8-fd616106d621","system_id":"levelo_inurba_marseille","lat":43.324771,"lon":5.36557,"is_reserved":false,"is_disabled":false,"rental_uris":{"android":"levelo://app?vid=dd1eeaf3-7ce5-435e-b6c8-fd616106d621","ios":"levelo://app?vid=dd1eeaf3-7ce5-435e-b6c8-fd616106d621"},"vehicle_type_id":"4","last_reported":1712686116,"current_range_meters":15200,"station_id":"ce4bhs12rcd13ifvqhvg","pricing_plan_id":"cebpf4jnsgd1na2vs0mg"},{"bike_id":"d453f5f1-b263-477b-864b-bf2146099cf6","system_id":"levelo_inurba_marseille","lat":43.324771,"lon":5.36557,"is_reserved":false,"is_disabled":false,"rental_uris":{"android":"levelo://app?vid=d453f5f1-b263-477b-864b-bf2146099cf6","ios":"levelo://app?vid=d453f5f1-b263-477b-864b-bf2146099cf6"},"vehicle_type_id":"4","last_reported":1712686116,"current_range_meters":15200,"station_id":"ce4bhs12rcd13ifvqhvg","pricing_plan_id":"cebpf4jnsgd1na2vs0mg"},{"bike_id":"4d857a07-486f-4587-9836-943a854c8633","system_id":"levelo_inurba_marseille","lat":43.324798,"lon":5.365623,"is_reserved":false,"is_disabled":false,"rental_uris":{"android":"levelo://app?vid=4d857a07-486f-4587-9836-943a854c8633","ios":"levelo://app?vid=4d857a07-486f-4587-9836-943a854c8633"},"vehicle_type_id":"4","last_reported":1712686116,"current_range_meters":23600,"station_id":"ce4bhs12rcd13ifvqhvg","pricing_plan_id":"cebpf4jnsgd1na2vs0mg"},{"bike_id":"6304b356-5718-49c0-9009-11c0cd0b6c8c","system_id":"levelo_inurba_marseille","lat":43.3248,"lon":5.36561,"is_reserved":false,"is_disabled":false,"rental_uris":{"android":"levelo://app?vid=6304b356-5718-49c0-9009-11c0cd0b6c8c","ios":"levelo://app?vid=6304b356-5718-49c0-9009-11c0cd0b6c8c"},"vehicle_type_id":"4","last_reported":1712686116,"current_range_meters":23200,"station_id":"ce4bhs12rcd13ifvqhvg","pricing_plan_id":"cebpf4jnsgd1na2vs0mg"},{"bike_id":"f2f0a323-f4cf-4d69-bda0-3382b45e92bd","system_id":"levelo_inurba_marseille","lat":43.324815,"lon":5.36575,"is_reserved":false,"is_disabled":false,"rental_uris":{"android":"levelo://app?vid=f2f0a323-f4cf-4d69-bda0-3382b45e92bd","ios":"levelo://app?vid=f2f0a323-f4cf-4d69-bda0-3382b45e92bd"},"vehicle_type_id":"4","last_reported":1712686116,"current_range_meters":5600,"station_id":"ce4bhs12rcd13ifvqhvg","pricing_plan_id":"cebpf4jnsgd1na2vs0mg"},{"bike_id":"93f39419-5cbf-400a-91d0-19b962f1e4df","system_id":"levelo_inurba_marseille","lat":43.324771,"lon":5.36557,"is_reserved":false,"is_disabled":false,"rental_uris":{"android":"levelo://app?vid=93f39419-5cbf-400a-91d0-19b962f1e4df","ios":"levelo://app?vid=93f39419-5cbf-400a-91d0-19b962f1e4df"},"vehicle_type_id":"4","last_reported":1712686116,"current_range_meters":1600,"station_id":"ce4bhs12rcd13ifvqhvg","pricing_plan_id":"cebpf4jnsgd1na2vs0mg"},{"bike_id":"466fa14b-daa3-4177-b540-e71b4a8e6995","system_id":"levelo_inurba_marseille","lat":43.324771,"lon":5.36557,"is_reserved":false,"is_disabled":false,"rental_uris":{"android":"levelo://app?vid=466fa14b-daa3-4177-b540-e71b4a8e6995","ios":"levelo://app?vid=466fa14b-daa3-4177-b540-e71b4a8e6995"},"vehicle_type_id":"4","last_reported":1712686116,"current_range_meters":17200,"station_id":"ce4bhs12rcd13ifvqhvg","pricing_plan_id":"cebpf4jnsgd1na2vs0mg"},{"bike_id":"8a7922ca-7efe-4472-81f6-a6d8d0b9b349","system_id":"levelo_inurba_marseille","lat":43.32495,"lon":5.36565,"is_reserved":false,"is_disabled":false,"rental_uris":{"android":"levelo://app?vid=8a7922ca-7efe-4472-81f6-a6d8d0b9b349","ios":"levelo://app?vid=8a7922ca-7efe-4472-81f6-a6d8d0b9b349"},"vehicle_type_id":"4","last_reported":1712686116,"current_range_meters":12000,"station_id":"ce4bhs12rcd13ifvqhvg","pricing_plan_id":"cebpf4jnsgd1na2vs0mg"},{"bike_id":"e604a188-d697-40e2-9e3a-88bc3e72cc93","system_id":"levelo_inurba_marseille","lat":43.302784,"lon":5.377158,"is_reserved":false,"is_disabled":false,"rental_uris":{"android":"levelo://app?vid=e604a188-d697-40e2-9e3a-88bc3e72cc93","ios":"levelo://app?vid=e604a188-d697-40e2-9e3a-88bc3e72cc93"},"vehicle_type_id":"4","last_reported":1712686116,"current_range_meters":28800,"station_id":"ce4bguh2rcd13ifvqcj0","pricing_plan_id":"cebpf4jnsgd1na2vs0mg"},{"bike_id":"7224fdc4-37f0-4076-904e-15fb037ed633","system_id":"levelo_inurba_marseille","lat":43.310804,"lon":5.38359,"is_reserved":false,"is_disabled":false,"rental_uris":{"android":"levelo://app?vid=7224fdc4-37f0-4076-904e-15fb037ed633","ios":"levelo://app?vid=7224fdc4-37f0-4076-904e-15fb037ed633"},"vehicle_type_id":"4","last_reported":1712686116,"current_range_meters":2400,"station_id":"ce4bgv92rcd13ifvqcr0","pricing_plan_id":"cebpf4jnsgd1na2vs0mg"},{"bike_id":"86c6037c-e28d-47c4-b24d-e549f501fcc4","system_id":"levelo_inurba_marseille","lat":43.310804,"lon":5.38359,"is_reserved":false,"is_disabled":false,"rental_uris":{"android":"levelo://app?vid=86c6037c-e28d-47c4-b24d-e549f501fcc4","ios":"levelo://app?vid=86c6037c-e28d-47c4-b24d-e549f501fcc4"},"vehicle_type_id":"4","last_reported":1712686116,"current_range_meters":3600,"station_id":"ce4bgv92rcd13ifvqcr0","pricing_plan_id":"cebpf4jnsgd1na2vs0mg"},{"bike_id":"860707c3-88a4-465a-837a-2fe5e51403da","system_id":"levelo_inurba_marseille","lat":43.301488,"lon":5.374152,"is_reserved":false,"is_disabled":false,"rental_uris":{"android":"levelo://app?vid=860707c3-88a4-465a-837a-2fe5e51403da","ios":"levelo://app?vid=860707c3-88a4-465a-837a-2fe5e51403da"},"vehicle_type_id":"4","last_reported":1712686116,"current_range_meters":20800,"station_id":"ce4bgs92rcd13ifvqcc0","pricing_plan_id":"cebpf4jnsgd1na2vs0mg"},{"bike_id":"d80d8a66-83bb-4d7e-be22-aee2a17efd3c","system_id":"levelo_inurba_marseille","lat":43.319935,"lon":5.381699,"is_reserved":false,"is_disabled":false,"rental_uris":{"android":"levelo://app?vid=d80d8a66-83bb-4d7e-be22-aee2a17efd3c","ios":"levelo://app?vid=d80d8a66-83bb-4d7e-be22-aee2a17efd3c"},"vehicle_type_id":"4","last_reported":1712686116,"current_range_meters":3200,"station_id":"ce4bhr12rcd13ifvqhpg","pricing_plan_id":"cebpf4jnsgd1na2vs0mg"},{"bike_id":"2e088854-dad9-403e-bfda-79ca3c244ab4","system_id":"levelo_inurba_marseille","lat":43.319935,"lon":5.381699,"is_reserved":false,"is_disabled":false,"rental_uris":{"android":"levelo://app?vid=2e088854-dad9-403e-bfda-79ca3c244ab4","ios":"levelo://app?vid=2e088854-dad9-403e-bfda-79ca3c244ab4"},"vehicle_type_id":"4","last_reported":1712686116,"current_range_meters":0,"station_id":"ce4bhr12rcd13ifvqhpg","pricing_plan_id":"cebpf4jnsgd1na2vs0mg"},{"bike_id":"7aaf6772-79c0-4eea-91af-8987a3667435","system_id":"levelo_inurba_marseille","lat":43.319935,"lon":5.381699,"is_reserved":false,"is_disabled":false,"rental_uris":{"android":"levelo://app?vid=7aaf6772-79c0-4eea-91af-8987a3667435","ios":"levelo://app?vid=7aaf6772-79c0-4eea-91af-8987a3667435"},"vehicle_type_id":"4","last_reported":1712686116,"current_range_meters":400,"station_id":"ce4bhr12rcd13ifvqhpg","pricing_plan_id":"cebpf4jnsgd1na2vs0mg"},{"bike_id":"d07a5510-5bbf-455d-8a86-251171d9e586","system_id":"levelo_inurba_marseille","lat":43.319935,"lon":5.381699,"is_reserved":false,"is_disabled":false,"rental_uris":{"android":"levelo://app?vid=d07a5510-5bbf-455d-8a86-251171d9e586","ios":"levelo://app?vid=d07a5510-5bbf-455d-8a86-251171d9e586"},"vehicle_type_id":"4","last_reported":1712686116,"current_range_meters":400,"station_id":"ce4bhr12rcd13ifvqhpg","pricing_plan_id":"cebpf4jnsgd1na2vs0mg"},{"bike_id":"73526712-fbee-4455-8c8b-b33b8c768663","system_id":"levelo_inurba_marseille","lat":43.313571,"lon":5.384829,"is_reserved":false,"is_disabled":false,"rental_uris":{"android":"levelo://app?vid=73526712-fbee-4455-8c8b-b33b8c768663","ios":"levelo://app?vid=73526712-fbee-4455-8c8b-b33b8c768663"},"vehicle_type_id":"4","last_reported":1712686116,"current_range_meters":21600,"station_id":"ce4bgt92rcd13ifvqcf0","pricing_plan_id":"cebpf4jnsgd1na2vs0mg"},{"bike_id":"d27fe873-d0d6-4e98-938a-8af7e96783cd","system_id":"levelo_inurba_marseille","lat":43.313571,"lon":5.384829,"is_reserved":false,"is_disabled":false,"rental_uris":{"android":"levelo://app?vid=d27fe873-d0d6-4e98-938a-8af7e96783cd","ios":"levelo://app?vid=d27fe873-d0d6-4e98-938a-8af7e96783cd"},"vehicle_type_id":"4","last_reported":1712686116,"current_range_meters":4400,"station_id":"ce4bgt92rcd13ifvqcf0","pricing_plan_id":"cebpf4jnsgd1na2vs0mg"},{"bike_id":"31408cbc-9a45-4d8e-b772-f01f845ab295","system_id":"levelo_inurba_marseille","lat":43.313571,"lon":5.384829,"is_reserved":false,"is_disabled":false,"rental_uris":{"android":"levelo://app?vid=31408cbc-9a45-4d8e-b772-f01f845ab295","ios":"levelo://app?vid=31408cbc-9a45-4d8e-b772-f01f845ab295"},"vehicle_type_id":"4","last_reported":1712686116,"current_range_meters":0,"station_id":"ce4bgt92rcd13ifvqcf0","pricing_plan_id":"cebpf4jnsgd1na2vs0mg"},{"bike_id":"2a0072aa-d6a2-42d0-ae9f-fe291ea2330a","system_id":"levelo_inurba_marseille","lat":43.299888,"lon":5.37186,"is_reserved":false,"is_disabled":false,"rental_uris":{"android":"levelo://app?vid=2a0072aa-d6a2-42d0-ae9f-fe291ea2330a","ios":"levelo://app?vid=2a0072aa-d6a2-42d0-ae9f-fe291ea2330a"},"vehicle_type_id":"4","last_reported":1712686116,"current_range_meters":0,"station_id":"ce4bgr92rcd13ifvqc7g","pricing_plan_id":"cebpf4jnsgd1na2vs0mg"},{"bike_id":"50ece9ee-1dab-4209-8df0-18787d51fa42","system_id":"levelo_inurba_marseille","lat":43.299412,"lon":5.365603,"is_reserved":false,"is_disabled":false,"rental_uris":{"android":"levelo://app?vid=50ece9ee-1dab-4209-8df0-18787d51fa42","ios":"levelo://app?vid=50ece9ee-1dab-4209-8df0-18787d51fa42"},"vehicle_type_id":"4","last_reported":1712686116,"current_range_meters":0,"station_id":"ce4bgm92rcd13ifvqbr0","pricing_plan_id":"cebpf4jnsgd1na2vs0mg"},{"bike_id":"dbd2c142-26e5-4e8a-9478-294f1dbe0c36","system_id":"levelo_inurba_marseille","lat":43.299222,"lon":5.365554,"is_reserved":false,"is_disabled":false,"rental_uris":{"android":"levelo://app?vid=dbd2c142-26e5-4e8a-9478-294f1dbe0c36","ios":"levelo://app?vid=dbd2c142-26e5-4e8a-9478-294f1dbe0c36"},"vehicle_type_id":"4","last_reported":1712686116,"current_range_meters":17600,"station_id":"ce4bgm92rcd13ifvqbr0","pricing_plan_id":"cebpf4jnsgd1na2vs0mg"},{"bike_id":"90d272e6-5569-46e3-bb7a-ecbca577efde","system_id":"levelo_inurba_marseille","lat":43.305364,"lon":5.384119,"is_reserved":false,"is_disabled":false,"rental_uris":{"android":"levelo://app?vid=90d272e6-5569-46e3-bb7a-ecbca577efde","ios":"levelo://app?vid=90d272e6-5569-46e3-bb7a-ecbca577efde"},"vehicle_type_id":"4","last_reported":1712686116,"current_range_meters":22000,"station_id":"ce4bgg92rcd13ifvqb30","pricing_plan_id":"cebpf4jnsgd1na2vs0mg"},{"bike_id":"c4f24e30-7ccb-46da-a141-e444b8d5414c","system_id":"levelo_inurba_marseille","lat":43.299243,"lon":5.37481,"is_reserved":false,"is_disabled":false,"rental_uris":{"android":"levelo://app?vid=c4f24e30-7ccb-46da-a141-e444b8d5414c","ios":"levelo://app?vid=c4f24e30-7ccb-46da-a141-e444b8d5414c"},"vehicle_type_id":"4","last_reported":1712686116,"current_range_meters":800,"station_id":"ce4bgjh2rcd13ifvqbg0","pricing_plan_id":"cebpf4jnsgd1na2vs0mg"},{"bike_id":"f9a568bb-9cd1-4f33-ad66-98b1944fee15","system_id":"levelo_inurba_marseille","lat":43.322872,"lon":5.382756,"is_reserved":false,"is_disabled":false,"rental_uris":{"android":"levelo://app?vid=f9a568bb-9cd1-4f33-ad66-98b1944fee15","ios":"levelo://app?vid=f9a568bb-9cd1-4f33-ad66-98b1944fee15"},"vehicle_type_id":"4","last_reported":1712686116,"current_range_meters":2000,"station_id":"ce4bhr12rcd13ifvqhqg","pricing_plan_id":"cebpf4jnsgd1na2vs0mg"},{"bike_id":"e3806fef-d512-46b9-be0d-b65e99ca7ae3","system_id":"levelo_inurba_marseille","lat":43.322872,"lon":5.382756,"is_reserved":false,"is_disabled":false,"rental_uris":{"android":"levelo://app?vid=e3806fef-d512-46b9-be0d-b65e99ca7ae3","ios":"levelo://app?vid=e3806fef-d512-46b9-be0d-b65e99ca7ae3"},"vehicle_type_id":"4","last_reported":1712686116,"current_range_meters":19200,"station_id":"ce4bhr12rcd13ifvqhqg","pricing_plan_id":"cebpf4jnsgd1na2vs0mg"},{"bike_id":"000030bc-1012-41da-9185-8750e6ac94f3","system_id":"levelo_inurba_marseille","lat":43.297774,"lon":5.370875,"is_reserved":false,"is_disabled":false,"rental_uris":{"android":"levelo://app?vid=000030bc-1012-41da-9185-8750e6ac94f3","ios":"levelo://app?vid=000030bc-1012-41da-9185-8750e6ac94f3"},"vehicle_type_id":"4","last_reported":1712686116,"current_range_meters":26400,"station_id":"ce4bgop2rcd13ifvqc1g","pricing_plan_id":"cebpf4jnsgd1na2vs0mg"},{"bike_id":"55e0543f-9210-4351-aeef-82445c5c7b09","system_id":"levelo_inurba_marseille","lat":43.297163,"lon":5.365866,"is_reserved":false,"is_disabled":false,"rental_uris":{"android":"levelo://app?vid=55e0543f-9210-4351-aeef-82445c5c7b09","ios":"levelo://app?vid=55e0543f-9210-4351-aeef-82445c5c7b09"},"vehicle_type_id":"4","last_reported":1712686116,"current_range_meters":0,"station_id":"ce4bgn12rcd13ifvqbt0","pricing_plan_id":"cebpf4jnsgd1na2vs0mg"},{"bike_id":"7c573f62-b1b1-497f-970a-1f582654a7b9","system_id":"levelo_inurba_marseille","lat":43.297163,"lon":5.365866,"is_reserved":false,"is_disabled":false,"rental_uris":{"android":"levelo://app?vid=7c573f62-b1b1-497f-970a-1f582654a7b9","ios":"levelo://app?vid=7c573f62-b1b1-497f-970a-1f582654a7b9"},"vehicle_type_id":"4","last_reported":1712686116,"current_range_meters":1600,"station_id":"ce4bgn12rcd13ifvqbt0","pricing_plan_id":"cebpf4jnsgd1na2vs0mg"},{"bike_id":"2b05ce62-0f8b-4feb-8350-770056697c58","system_id":"levelo_inurba_marseille","lat":43.297163,"lon":5.365866,"is_reserved":false,"is_disabled":false,"rental_uris":{"android":"levelo://app?vid=2b05ce62-0f8b-4feb-8350-770056697c58","ios":"levelo://app?vid=2b05ce62-0f8b-4feb-8350-770056697c58"},"vehicle_type_id":"4","last_reported":1712686116,"current_range_meters":5200,"station_id":"ce4bgn12rcd13ifvqbt0","pricing_plan_id":"cebpf4jnsgd1na2vs0mg"},{"bike_id":"bbbf4d1a-ecde-402d-8a47-7d039a805d1b","system_id":"levelo_inurba_marseille","lat":43.327614,"lon":5.375093,"is_reserved":false,"is_disabled":false,"rental_uris":{"android":"levelo://app?vid=bbbf4d1a-ecde-402d-8a47-7d039a805d1b","ios":"levelo://app?vid=bbbf4d1a-ecde-402d-8a47-7d039a805d1b"},"vehicle_type_id":"4","last_reported":1712686116,"current_range_meters":4000,"station_id":"","pricing_plan_id":"cebpf4jnsgd1na2vs0mg"},{"bike_id":"d93e63d8-7f00-4ccf-9d2d-b3c441e86795","system_id":"levelo_inurba_marseille","lat":43.296131,"lon":5.370791,"is_reserved":false,"is_disabled":false,"rental_uris":{"android":"levelo://app?vid=d93e63d8-7f00-4ccf-9d2d-b3c441e86795","ios":"levelo://app?vid=d93e63d8-7f00-4ccf-9d2d-b3c441e86795"},"vehicle_type_id":"4","last_reported":1712686116,"current_range_meters":800,"station_id":"ce4bgnh2rcd13ifvqc0g","pricing_plan_id":"cebpf4jnsgd1na2vs0mg"},{"bike_id":"58144aa4-aeb9-410a-9eea-8de7875cc946","system_id":"levelo_inurba_marseille","lat":43.29589,"lon":5.36735,"is_reserved":false,"is_disabled":false,"rental_uris":{"android":"levelo://app?vid=58144aa4-aeb9-410a-9eea-8de7875cc946","ios":"levelo://app?vid=58144aa4-aeb9-410a-9eea-8de7875cc946"},"vehicle_type_id":"4","last_reported":1712686116,"current_range_meters":0,"station_id":"ce4bgph2rcd13ifvqc2g","pricing_plan_id":"cebpf4jnsgd1na2vs0mg"},{"bike_id":"88d14bd3-829f-43ed-a722-f64f4c8c4687","system_id":"levelo_inurba_marseille","lat":43.29585,"lon":5.36745,"is_reserved":false,"is_disabled":false,"rental_uris":{"android":"levelo://app?vid=88d14bd3-829f-43ed-a722-f64f4c8c4687","ios":"levelo://app?vid=88d14bd3-829f-43ed-a722-f64f4c8c4687"},"vehicle_type_id":"4","last_reported":1712686116,"current_range_meters":0,"station_id":"ce4bgph2rcd13ifvqc2g","pricing_plan_id":"cebpf4jnsgd1na2vs0mg"},{"bike_id":"e65f38ad-9028-4347-bd1d-89e40b14bbbd","system_id":"levelo_inurba_marseille","lat":43.29573,"lon":5.367355,"is_reserved":false,"is_disabled":false,"rental_uris":{"android":"levelo://app?vid=e65f38ad-9028-4347-bd1d-89e40b14bbbd","ios":"levelo://app?vid=e65f38ad-9028-4347-bd1d-89e40b14bbbd"},"vehicle_type_id":"4","last_reported":1712686116,"current_range_meters":15600,"station_id":"ce4bgph2rcd13ifvqc2g","pricing_plan_id":"cebpf4jnsgd1na2vs0mg"},{"bike_id":"b52a0803-3051-49f0-92cc-530e03acd7d7","system_id":"levelo_inurba_marseille","lat":43.29573,"lon":5.367355,"is_reserved":false,"is_disabled":false,"rental_uris":{"android":"levelo://app?vid=b52a0803-3051-49f0-92cc-530e03acd7d7","ios":"levelo://app?vid=b52a0803-3051-49f0-92cc-530e03acd7d7"},"vehicle_type_id":"4","last_reported":1712686116,"current_range_meters":7600,"station_id":"ce4bgph2rcd13ifvqc2g","pricing_plan_id":"cebpf4jnsgd1na2vs0mg"},{"bike_id":"7bb37ab1-ae8b-4988-af08-f86f2395987e","system_id":"levelo_inurba_marseille","lat":43.296921,"lon":5.376579,"is_reserved":false,"is_disabled":false,"rental_uris":{"android":"levelo://app?vid=7bb37ab1-ae8b-4988-af08-f86f2395987e","ios":"levelo://app?vid=7bb37ab1-ae8b-4988-af08-f86f2395987e"},"vehicle_type_id":"4","last_reported":1712686116,"current_range_meters":0,"station_id":"ce4bgkh2rcd13ifvqbl0","pricing_plan_id":"cebpf4jnsgd1na2vs0mg"},{"bike_id":"b4d35271-4d9c-4dc1-a5e7-9d8d988afa1c","system_id":"levelo_inurba_marseille","lat":43.3095,"lon":5.39023,"is_reserved":false,"is_disabled":false,"rental_uris":{"android":"levelo://app?vid=b4d35271-4d9c-4dc1-a5e7-9d8d988afa1c","ios":"levelo://app?vid=b4d35271-4d9c-4dc1-a5e7-9d8d988afa1c"},"vehicle_type_id":"4","last_reported":1712686116,"current_range_meters":0,"station_id":"ce4bgup2rcd13ifvqco0","pricing_plan_id":"cebpf4jnsgd1na2vs0mg"},{"bike_id":"dc09c980-088f-41b6-80d2-028b29dfc222","system_id":"levelo_inurba_marseille","lat":43.317538,"lon":5.390094,"is_reserved":false,"is_disabled":false,"rental_uris":{"android":"levelo://app?vid=dc09c980-088f-41b6-80d2-028b29dfc222","ios":"levelo://app?vid=dc09c980-088f-41b6-80d2-028b29dfc222"},"vehicle_type_id":"4","last_reported":1712686116,"current_range_meters":3600,"station_id":"ce4bhqp2rcd13ifvqhng","pricing_plan_id":"cebpf4jnsgd1na2vs0mg"},{"bike_id":"2eb84f5f-9eb5-4713-bf3e-07d2419ad755","system_id":"levelo_inurba_marseille","lat":43.317557,"lon":5.390173,"is_reserved":false,"is_disabled":false,"rental_uris":{"android":"levelo://app?vid=2eb84f5f-9eb5-4713-bf3e-07d2419ad755","ios":"levelo://app?vid=2eb84f5f-9eb5-4713-bf3e-07d2419ad755"},"vehicle_type_id":"4","last_reported":1712686116,"current_range_meters":10000,"station_id":"ce4bhqp2rcd13ifvqhng","pricing_plan_id":"cebpf4jnsgd1na2vs0mg"},{"bike_id":"f77aa80e-524a-42b2-9365-2e331f99effd","system_id":"levelo_inurba_marseille","lat":43.317557,"lon":5.390173,"is_reserved":false,"is_disabled":false,"rental_uris":{"android":"levelo://app?vid=f77aa80e-524a-42b2-9365-2e331f99effd","ios":"levelo://app?vid=f77aa80e-524a-42b2-9365-2e331f99effd"},"vehicle_type_id":"4","last_reported":1712686116,"current_range_meters":4400,"station_id":"ce4bhqp2rcd13ifvqhng","pricing_plan_id":"cebpf4jnsgd1na2vs0mg"},{"bike_id":"29d53ff2-516b-45ed-8703-9a7fe0d46075","system_id":"levelo_inurba_marseille","lat":43.317557,"lon":5.390173,"is_reserved":false,"is_disabled":false,"rental_uris":{"android":"levelo://app?vid=29d53ff2-516b-45ed-8703-9a7fe0d46075","ios":"levelo://app?vid=29d53ff2-516b-45ed-8703-9a7fe0d46075"},"vehicle_type_id":"4","last_reported":1712686116,"current_range_meters":10800,"station_id":"ce4bhqp2rcd13ifvqhng","pricing_plan_id":"cebpf4jnsgd1na2vs0mg"},{"bike_id":"ff3fbe14-e12e-4f8b-94e3-b89732efc93d","system_id":"levelo_inurba_marseille","lat":43.29562,"lon":5.361,"is_reserved":false,"is_disabled":false,"rental_uris":{"android":"levelo://app?vid=ff3fbe14-e12e-4f8b-94e3-b89732efc93d","ios":"levelo://app?vid=ff3fbe14-e12e-4f8b-94e3-b89732efc93d"},"vehicle_type_id":"4","last_reported":1712686116,"current_range_meters":25600,"station_id":"","pricing_plan_id":"cebpf4jnsgd1na2vs0mg"},{"bike_id":"b84fc419-f425-492f-b14f-e37b2c8be4de","system_id":"levelo_inurba_marseille","lat":43.298066,"lon":5.380896,"is_reserved":false,"is_disabled":false,"rental_uris":{"android":"levelo://app?vid=b84fc419-f425-492f-b14f-e37b2c8be4de","ios":"levelo://app?vid=b84fc419-f425-492f-b14f-e37b2c8be4de"},"vehicle_type_id":"4","last_reported":1712686116,"current_range_meters":0,"station_id":"ce4bgip2rcd13ifvqbb0","pricing_plan_id":"cebpf4jnsgd1na2vs0mg"},{"bike_id":"624564a2-3f5f-402c-8526-3c49abeb9db6","system_id":"levelo_inurba_marseille","lat":43.297719,"lon":5.380534,"is_reserved":false,"is_disabled":false,"rental_uris":{"android":"levelo://app?vid=624564a2-3f5f-402c-8526-3c49abeb9db6","ios":"levelo://app?vid=624564a2-3f5f-402c-8526-3c49abeb9db6"},"vehicle_type_id":"4","last_reported":1712686116,"current_range_meters":0,"station_id":"ce4bgip2rcd13ifvqbb0","pricing_plan_id":"cebpf4jnsgd1na2vs0mg"},{"bike_id":"6bd022da-8c0c-4342-afcf-ff5ac2a99913","system_id":"levelo_inurba_marseille","lat":43.297951,"lon":5.381007,"is_reserved":false,"is_disabled":false,"rental_uris":{"android":"levelo://app?vid=6bd022da-8c0c-4342-afcf-ff5ac2a99913","ios":"levelo://app?vid=6bd022da-8c0c-4342-afcf-ff5ac2a99913"},"vehicle_type_id":"4","last_reported":1712686116,"current_range_meters":0,"station_id":"ce4bgip2rcd13ifvqbb0","pricing_plan_id":"cebpf4jnsgd1na2vs0mg"},{"bike_id":"c45dce9b-b7e3-48b1-8a86-d6067b95acc9","system_id":"levelo_inurba_marseille","lat":43.304274,"lon":5.388873,"is_reserved":false,"is_disabled":false,"rental_uris":{"android":"levelo://app?vid=c45dce9b-b7e3-48b1-8a86-d6067b95acc9","ios":"levelo://app?vid=c45dce9b-b7e3-48b1-8a86-d6067b95acc9"},"vehicle_type_id":"4","last_reported":1712686116,"current_range_meters":8800,"station_id":"ce4bgk12rcd13ifvqbi0","pricing_plan_id":"cebpf4jnsgd1na2vs0mg"},{"bike_id":"5343395e-d16f-4a6d-8fd2-7f80d1b87dee","system_id":"levelo_inurba_marseille","lat":43.297951,"lon":5.381118,"is_reserved":false,"is_disabled":false,"rental_uris":{"android":"levelo://app?vid=5343395e-d16f-4a6d-8fd2-7f80d1b87dee","ios":"levelo://app?vid=5343395e-d16f-4a6d-8fd2-7f80d1b87dee"},"vehicle_type_id":"4","last_reported":1712686116,"current_range_meters":12400,"station_id":"ce4bgip2rcd13ifvqbb0","pricing_plan_id":"cebpf4jnsgd1na2vs0mg"},{"bike_id":"817e9713-b8d9-46ed-b0eb-97a366f0e770","system_id":"levelo_inurba_marseille","lat":43.297921,"lon":5.381104,"is_reserved":false,"is_disabled":false,"rental_uris":{"android":"levelo://app?vid=817e9713-b8d9-46ed-b0eb-97a366f0e770","ios":"levelo://app?vid=817e9713-b8d9-46ed-b0eb-97a366f0e770"},"vehicle_type_id":"4","last_reported":1712686116,"current_range_meters":0,"station_id":"ce4bgip2rcd13ifvqbb0","pricing_plan_id":"cebpf4jnsgd1na2vs0mg"},{"bike_id":"90c75cb4-c683-41b2-82d6-f9b3b49e80b0","system_id":"levelo_inurba_marseille","lat":43.301939,"lon":5.366286,"is_reserved":false,"is_disabled":false,"rental_uris":{"android":"levelo://app?vid=90c75cb4-c683-41b2-82d6-f9b3b49e80b0","ios":"levelo://app?vid=90c75cb4-c683-41b2-82d6-f9b3b49e80b0"},"vehicle_type_id":"4","last_reported":1712686116,"current_range_meters":8000,"station_id":"ce4bgrh2rcd13ifvqc8g","pricing_plan_id":"cebpf4jnsgd1na2vs0mg"},{"bike_id":"27afcf1a-ac5f-46a2-8bc3-d48cd64b8bfd","system_id":"levelo_inurba_marseille","lat":43.296263,"lon":5.377094,"is_reserved":false,"is_disabled":false,"rental_uris":{"android":"levelo://app?vid=27afcf1a-ac5f-46a2-8bc3-d48cd64b8bfd","ios":"levelo://app?vid=27afcf1a-ac5f-46a2-8bc3-d48cd64b8bfd"},"vehicle_type_id":"4","last_reported":1712686116,"current_range_meters":0,"station_id":"ce4bgi92rcd13ifvqb90","pricing_plan_id":"cebpf4jnsgd1na2vs0mg"},{"bike_id":"d83bb6a4-b7be-4dde-a15c-65f9dd959650","system_id":"levelo_inurba_marseille","lat":43.295748,"lon":5.37522,"is_reserved":false,"is_disabled":false,"rental_uris":{"android":"levelo://app?vid=d83bb6a4-b7be-4dde-a15c-65f9dd959650","ios":"levelo://app?vid=d83bb6a4-b7be-4dde-a15c-65f9dd959650"},"vehicle_type_id":"4","last_reported":1712686116,"current_range_meters":16000,"station_id":"ce4bgh92rcd13ifvqb50","pricing_plan_id":"cebpf4jnsgd1na2vs0mg"},{"bike_id":"aa690513-6864-4709-8946-5c41cf099d2b","system_id":"levelo_inurba_marseille","lat":43.296277,"lon":5.377108,"is_reserved":false,"is_disabled":false,"rental_uris":{"android":"levelo://app?vid=aa690513-6864-4709-8946-5c41cf099d2b","ios":"levelo://app?vid=aa690513-6864-4709-8946-5c41cf099d2b"},"vehicle_type_id":"4","last_reported":1712686116,"current_range_meters":1200,"station_id":"ce4bgi92rcd13ifvqb90","pricing_plan_id":"cebpf4jnsgd1na2vs0mg"},{"bike_id":"b1bd8a2d-d7d2-424e-af5a-60bb97a4be52","system_id":"levelo_inurba_marseille","lat":43.298433,"lon":5.362774,"is_reserved":false,"is_disabled":false,"rental_uris":{"android":"levelo://app?vid=b1bd8a2d-d7d2-424e-af5a-60bb97a4be52","ios":"levelo://app?vid=b1bd8a2d-d7d2-424e-af5a-60bb97a4be52"},"vehicle_type_id":"4","last_reported":1712686116,"current_range_meters":25200,"station_id":"ce4bgpp2rcd13ifvqc3g","pricing_plan_id":"cebpf4jnsgd1na2vs0mg"},{"bike_id":"454dad13-542c-4897-afd4-33c69d834c7c","system_id":"levelo_inurba_marseille","lat":43.29977,"lon":5.38495,"is_reserved":false,"is_disabled":false,"rental_uris":{"android":"levelo://app?vid=454dad13-542c-4897-afd4-33c69d834c7c","ios":"levelo://app?vid=454dad13-542c-4897-afd4-33c69d834c7c"},"vehicle_type_id":"4","last_reported":1712686116,"current_range_meters":0,"station_id":"ce4bgj92rcd13ifvqbd0","pricing_plan_id":"cebpf4jnsgd1na2vs0mg"},{"bike_id":"1f749f40-1311-4465-a181-27408bce4344","system_id":"levelo_inurba_marseille","lat":43.29525,"lon":5.37501,"is_reserved":false,"is_disabled":false,"rental_uris":{"android":"levelo://app?vid=1f749f40-1311-4465-a181-27408bce4344","ios":"levelo://app?vid=1f749f40-1311-4465-a181-27408bce4344"},"vehicle_type_id":"4","last_reported":1712686116,"current_range_meters":5600,"station_id":"","pricing_plan_id":"cebpf4jnsgd1na2vs0mg"},{"bike_id":"12675f23-77f5-4315-9efd-70ca71f79fc6","system_id":"levelo_inurba_marseille","lat":43.299676,"lon":5.384864,"is_reserved":false,"is_disabled":false,"rental_uris":{"android":"levelo://app?vid=12675f23-77f5-4315-9efd-70ca71f79fc6","ios":"levelo://app?vid=12675f23-77f5-4315-9efd-70ca71f79fc6"},"vehicle_type_id":"4","last_reported":1712686116,"current_range_meters":0,"station_id":"ce4bgj92rcd13ifvqbd0","pricing_plan_id":"cebpf4jnsgd1na2vs0mg"},{"bike_id":"41325f93-fd69-4f08-8f59-6acdee87e01b","system_id":"levelo_inurba_marseille","lat":43.299707,"lon":5.384859,"is_reserved":false,"is_disabled":false,"rental_uris":{"android":"levelo://app?vid=41325f93-fd69-4f08-8f59-6acdee87e01b","ios":"levelo://app?vid=41325f93-fd69-4f08-8f59-6acdee87e01b"},"vehicle_type_id":"4","last_reported":1712686116,"current_range_meters":0,"station_id":"ce4bgj92rcd13ifvqbd0","pricing_plan_id":"cebpf4jnsgd1na2vs0mg"},{"bike_id":"95e89a78-8be9-4958-bfff-c755c3cd1bb9","system_id":"levelo_inurba_marseille","lat":43.302759,"lon":5.400793,"is_reserved":false,"is_disabled":false,"rental_uris":{"android":"levelo://app?vid=95e89a78-8be9-4958-bfff-c755c3cd1bb9","ios":"levelo://app?vid=95e89a78-8be9-4958-bfff-c755c3cd1bb9"},"vehicle_type_id":"4","last_reported":1712686116,"current_range_meters":0,"station_id":"ce4bgvh2rcd13ifvqcs0","pricing_plan_id":"cebpf4jnsgd1na2vs0mg"},{"bike_id":"41990eba-785b-459a-a04f-e365f01be129","system_id":"levelo_inurba_marseille","lat":43.295279,"lon":5.375048,"is_reserved":false,"is_disabled":false,"rental_uris":{"android":"levelo://app?vid=41990eba-785b-459a-a04f-e365f01be129","ios":"levelo://app?vid=41990eba-785b-459a-a04f-e365f01be129"},"vehicle_type_id":"4","last_reported":1712686116,"current_range_meters":28000,"station_id":"ce4bgkp2rcd13ifvqbmg","pricing_plan_id":"cebpf4jnsgd1na2vs0mg"},{"bike_id":"47d9f2c0-bcc0-4cd7-badd-b973e3cf6c68","system_id":"levelo_inurba_marseille","lat":43.2952,"lon":5.37501,"is_reserved":false,"is_disabled":false,"rental_uris":{"android":"levelo://app?vid=47d9f2c0-bcc0-4cd7-badd-b973e3cf6c68","ios":"levelo://app?vid=47d9f2c0-bcc0-4cd7-badd-b973e3cf6c68"},"vehicle_type_id":"4","last_reported":1712686116,"current_range_meters":0,"station_id":"ce4bgkp2rcd13ifvqbmg","pricing_plan_id":"cebpf4jnsgd1na2vs0mg"},{"bike_id":"a344bdac-0284-4d50-9558-7a76da13c628","system_id":"levelo_inurba_marseille","lat":43.295176,"lon":5.375018,"is_reserved":false,"is_disabled":false,"rental_uris":{"android":"levelo://app?vid=a344bdac-0284-4d50-9558-7a76da13c628","ios":"levelo://app?vid=a344bdac-0284-4d50-9558-7a76da13c628"},"vehicle_type_id":"4","last_reported":1712686116,"current_range_meters":0,"station_id":"","pricing_plan_id":"cebpf4jnsgd1na2vs0mg"},{"bike_id":"aff4b82c-58ae-4d45-8100-9485aeffa77e","system_id":"levelo_inurba_marseille","lat":43.32362,"lon":5.38884,"is_reserved":false,"is_disabled":false,"rental_uris":{"android":"levelo://app?vid=aff4b82c-58ae-4d45-8100-9485aeffa77e","ios":"levelo://app?vid=aff4b82c-58ae-4d45-8100-9485aeffa77e"},"vehicle_type_id":"4","last_reported":1712686116,"current_range_meters":9200,"station_id":"ce4bhqp2rcd13ifvqhog","pricing_plan_id":"cebpf4jnsgd1na2vs0mg"},{"bike_id":"a6e670a4-41e1-4b99-bffc-da368f8f72db","system_id":"levelo_inurba_marseille","lat":43.32363,"lon":5.38884,"is_reserved":false,"is_disabled":false,"rental_uris":{"android":"levelo://app?vid=a6e670a4-41e1-4b99-bffc-da368f8f72db","ios":"levelo://app?vid=a6e670a4-41e1-4b99-bffc-da368f8f72db"},"vehicle_type_id":"4","last_reported":1712686116,"current_range_meters":1200,"station_id":"ce4bhqp2rcd13ifvqhog","pricing_plan_id":"cebpf4jnsgd1na2vs0mg"},{"bike_id":"fabebb68-01ce-4502-a80f-97dae43fa286","system_id":"levelo_inurba_marseille","lat":43.32366,"lon":5.38884,"is_reserved":false,"is_disabled":false,"rental_uris":{"android":"levelo://app?vid=fabebb68-01ce-4502-a80f-97dae43fa286","ios":"levelo://app?vid=fabebb68-01ce-4502-a80f-97dae43fa286"},"vehicle_type_id":"4","last_reported":1712686116,"current_range_meters":0,"station_id":"ce4bhqp2rcd13ifvqhog","pricing_plan_id":"cebpf4jnsgd1na2vs0mg"},{"bike_id":"a54bc16b-85b3-46aa-b423-218c19b5e292","system_id":"levelo_inurba_marseille","lat":43.32365,"lon":5.38885,"is_reserved":false,"is_disabled":false,"rental_uris":{"android":"levelo://app?vid=a54bc16b-85b3-46aa-b423-218c19b5e292","ios":"levelo://app?vid=a54bc16b-85b3-46aa-b423-218c19b5e292"},"vehicle_type_id":"4","last_reported":1712686116,"current_range_meters":28800,"station_id":"ce4bhqp2rcd13ifvqhog","pricing_plan_id":"cebpf4jnsgd1na2vs0mg"},{"bike_id":"d367b417-5fca-4369-814d-27aadfdeba43","system_id":"levelo_inurba_marseille","lat":43.32369,"lon":5.38884,"is_reserved":false,"is_disabled":false,"rental_uris":{"android":"levelo://app?vid=d367b417-5fca-4369-814d-27aadfdeba43","ios":"levelo://app?vid=d367b417-5fca-4369-814d-27aadfdeba43"},"vehicle_type_id":"4","last_reported":1712686116,"current_range_meters":26800,"station_id":"ce4bhqp2rcd13ifvqhog","pricing_plan_id":"cebpf4jnsgd1na2vs0mg"},{"bike_id":"389e8324-0984-467e-b5e2-6c875757b707","system_id":"levelo_inurba_marseille","lat":43.323702,"lon":5.388834,"is_reserved":false,"is_disabled":false,"rental_uris":{"android":"levelo://app?vid=389e8324-0984-467e-b5e2-6c875757b707","ios":"levelo://app?vid=389e8324-0984-467e-b5e2-6c875757b707"},"vehicle_type_id":"4","last_reported":1712686116,"current_range_meters":27600,"station_id":"ce4bhqp2rcd13ifvqhog","pricing_plan_id":"cebpf4jnsgd1na2vs0mg"},{"bike_id":"ae006dfa-8fb5-4e82-8411-3c19dc030df3","system_id":"levelo_inurba_marseille","lat":43.32368,"lon":5.38887,"is_reserved":false,"is_disabled":false,"rental_uris":{"android":"levelo://app?vid=ae006dfa-8fb5-4e82-8411-3c19dc030df3","ios":"levelo://app?vid=ae006dfa-8fb5-4e82-8411-3c19dc030df3"},"vehicle_type_id":"4","last_reported":1712686116,"current_range_meters":5200,"station_id":"ce4bhqp2rcd13ifvqhog","pricing_plan_id":"cebpf4jnsgd1na2vs0mg"},{"bike_id":"87092a72-3a22-4634-8b80-b4cc1060f7c8","system_id":"levelo_inurba_marseille","lat":43.29602,"lon":5.381084,"is_reserved":false,"is_disabled":false,"rental_uris":{"android":"levelo://app?vid=87092a72-3a22-4634-8b80-b4cc1060f7c8","ios":"levelo://app?vid=87092a72-3a22-4634-8b80-b4cc1060f7c8"},"vehicle_type_id":"4","last_reported":1712686116,"current_range_meters":26800,"station_id":"ce4bgl12rcd13ifvqbo0","pricing_plan_id":"cebpf4jnsgd1na2vs0mg"},{"bike_id":"6b99cc74-d55f-4bfb-9a73-c9b51f4aafe4","system_id":"levelo_inurba_marseille","lat":43.29602,"lon":5.381084,"is_reserved":false,"is_disabled":false,"rental_uris":{"android":"levelo://app?vid=6b99cc74-d55f-4bfb-9a73-c9b51f4aafe4","ios":"levelo://app?vid=6b99cc74-d55f-4bfb-9a73-c9b51f4aafe4"},"vehicle_type_id":"4","last_reported":1712686116,"current_range_meters":12000,"station_id":"ce4bgl12rcd13ifvqbo0","pricing_plan_id":"cebpf4jnsgd1na2vs0mg"},{"bike_id":"26894fc2-242d-476d-ad6b-0929b64a6290","system_id":"levelo_inurba_marseille","lat":43.29599,"lon":5.38096,"is_reserved":false,"is_disabled":false,"rental_uris":{"android":"levelo://app?vid=26894fc2-242d-476d-ad6b-0929b64a6290","ios":"levelo://app?vid=26894fc2-242d-476d-ad6b-0929b64a6290"},"vehicle_type_id":"4","last_reported":1712686116,"current_range_meters":0,"station_id":"ce4bgl12rcd13ifvqbo0","pricing_plan_id":"cebpf4jnsgd1na2vs0mg"},{"bike_id":"ba95910c-c11a-4da1-bd90-7693808462d6","system_id":"levelo_inurba_marseille","lat":43.31424,"lon":5.393887,"is_reserved":false,"is_disabled":false,"rental_uris":{"android":"levelo://app?vid=ba95910c-c11a-4da1-bd90-7693808462d6","ios":"levelo://app?vid=ba95910c-c11a-4da1-bd90-7693808462d6"},"vehicle_type_id":"4","last_reported":1712686116,"current_range_meters":28800,"station_id":"","pricing_plan_id":"cebpf4jnsgd1na2vs0mg"},{"bike_id":"54fe4893-7da2-4722-abc4-29b4e430a5a6","system_id":"levelo_inurba_marseille","lat":43.293259,"lon":5.371586,"is_reserved":false,"is_disabled":false,"rental_uris":{"android":"levelo://app?vid=54fe4893-7da2-4722-abc4-29b4e430a5a6","ios":"levelo://app?vid=54fe4893-7da2-4722-abc4-29b4e430a5a6"},"vehicle_type_id":"4","last_reported":1712686116,"current_range_meters":400,"station_id":"ce4bgh92rcd13ifvqb40","pricing_plan_id":"cebpf4jnsgd1na2vs0mg"},{"bike_id":"8b381781-b040-4bf6-8f23-cbf8914bf4d9","system_id":"levelo_inurba_marseille","lat":43.292815,"lon":5.368782,"is_reserved":false,"is_disabled":false,"rental_uris":{"android":"levelo://app?vid=8b381781-b040-4bf6-8f23-cbf8914bf4d9","ios":"levelo://app?vid=8b381781-b040-4bf6-8f23-cbf8914bf4d9"},"vehicle_type_id":"4","last_reported":1712686116,"current_range_meters":0,"station_id":"ce4bhbp2rcd13ifvqesg","pricing_plan_id":"cebpf4jnsgd1na2vs0mg"},{"bike_id":"96464d2a-35b5-47cb-bf43-42587c3fd2d7","system_id":"levelo_inurba_marseille","lat":43.293259,"lon":5.371586,"is_reserved":false,"is_disabled":false,"rental_uris":{"android":"levelo://app?vid=96464d2a-35b5-47cb-bf43-42587c3fd2d7","ios":"levelo://app?vid=96464d2a-35b5-47cb-bf43-42587c3fd2d7"},"vehicle_type_id":"4","last_reported":1712686116,"current_range_meters":4800,"station_id":"ce4bgh92rcd13ifvqb40","pricing_plan_id":"cebpf4jnsgd1na2vs0mg"},{"bike_id":"fc95b237-0d82-4aeb-b9df-75dcaec0aacc","system_id":"levelo_inurba_marseille","lat":43.292749,"lon":5.368402,"is_reserved":false,"is_disabled":false,"rental_uris":{"android":"levelo://app?vid=fc95b237-0d82-4aeb-b9df-75dcaec0aacc","ios":"levelo://app?vid=fc95b237-0d82-4aeb-b9df-75dcaec0aacc"},"vehicle_type_id":"4","last_reported":1712686116,"current_range_meters":26800,"station_id":"ce4bhbp2rcd13ifvqesg","pricing_plan_id":"cebpf4jnsgd1na2vs0mg"},{"bike_id":"06f7769f-96ea-44e0-aea9-a426170e0ab7","system_id":"levelo_inurba_marseille","lat":43.29271,"lon":5.36843,"is_reserved":false,"is_disabled":false,"rental_uris":{"android":"levelo://app?vid=06f7769f-96ea-44e0-aea9-a426170e0ab7","ios":"levelo://app?vid=06f7769f-96ea-44e0-aea9-a426170e0ab7"},"vehicle_type_id":"4","last_reported":1712686116,"current_range_meters":28000,"station_id":"ce4bhbp2rcd13ifvqesg","pricing_plan_id":"cebpf4jnsgd1na2vs0mg"},{"bike_id":"4e7037a0-ed97-46a5-8f30-b10364e72d05","system_id":"levelo_inurba_marseille","lat":43.31396,"lon":5.39451,"is_reserved":false,"is_disabled":false,"rental_uris":{"android":"levelo://app?vid=4e7037a0-ed97-46a5-8f30-b10364e72d05","ios":"levelo://app?vid=4e7037a0-ed97-46a5-8f30-b10364e72d05"},"vehicle_type_id":"4","last_reported":1712686116,"current_range_meters":1200,"station_id":"","pricing_plan_id":"cebpf4jnsgd1na2vs0mg"},{"bike_id":"dfab8841-56f4-449d-845d-3dcad5578fb9","system_id":"levelo_inurba_marseille","lat":43.300852,"lon":5.390859,"is_reserved":false,"is_disabled":false,"rental_uris":{"android":"levelo://app?vid=dfab8841-56f4-449d-845d-3dcad5578fb9","ios":"levelo://app?vid=dfab8841-56f4-449d-845d-3dcad5578fb9"},"vehicle_type_id":"4","last_reported":1712686116,"current_range_meters":9200,"station_id":"ce4bh192rcd13ifvqdb0","pricing_plan_id":"cebpf4jnsgd1na2vs0mg"},{"bike_id":"246c443d-1257-418a-a196-6bb94c69b7c1","system_id":"levelo_inurba_marseille","lat":43.29309,"lon":5.37459,"is_reserved":false,"is_disabled":false,"rental_uris":{"android":"levelo://app?vid=246c443d-1257-418a-a196-6bb94c69b7c1","ios":"levelo://app?vid=246c443d-1257-418a-a196-6bb94c69b7c1"},"vehicle_type_id":"4","last_reported":1712686116,"current_range_meters":0,"station_id":"ce4bgi12rcd13ifvqb70","pricing_plan_id":"cebpf4jnsgd1na2vs0mg"},{"bike_id":"93bd74e3-d599-44fb-92c3-d1a35aea145a","system_id":"levelo_inurba_marseille","lat":43.305994,"lon":5.393687,"is_reserved":false,"is_disabled":false,"rental_uris":{"android":"levelo://app?vid=93bd74e3-d599-44fb-92c3-d1a35aea145a","ios":"levelo://app?vid=93bd74e3-d599-44fb-92c3-d1a35aea145a"},"vehicle_type_id":"4","last_reported":1712686116,"current_range_meters":9200,"station_id":"ce4bh0p2rcd13ifvqd80","pricing_plan_id":"cebpf4jnsgd1na2vs0mg"},{"bike_id":"da58b61f-f769-49f0-a6a7-6da6c743df8d","system_id":"levelo_inurba_marseille","lat":43.292005,"lon":5.357875,"is_reserved":false,"is_disabled":false,"rental_uris":{"android":"levelo://app?vid=da58b61f-f769-49f0-a6a7-6da6c743df8d","ios":"levelo://app?vid=da58b61f-f769-49f0-a6a7-6da6c743df8d"},"vehicle_type_id":"4","last_reported":1712686116,"current_range_meters":0,"station_id":"ce4bhb12rcd13ifvqel0","pricing_plan_id":"cebpf4jnsgd1na2vs0mg"},{"bike_id":"6bb6d4ec-da9d-4c17-bcc1-131c70c8584b","system_id":"levelo_inurba_marseille","lat":43.305994,"lon":5.393687,"is_reserved":false,"is_disabled":false,"rental_uris":{"android":"levelo://app?vid=6bb6d4ec-da9d-4c17-bcc1-131c70c8584b","ios":"levelo://app?vid=6bb6d4ec-da9d-4c17-bcc1-131c70c8584b"},"vehicle_type_id":"4","last_reported":1712686116,"current_range_meters":8400,"station_id":"ce4bh0p2rcd13ifvqd80","pricing_plan_id":"cebpf4jnsgd1na2vs0mg"},{"bike_id":"1d87a7f4-60a0-489d-81c0-01a58817df4d","system_id":"levelo_inurba_marseille","lat":43.2936,"lon":5.37835,"is_reserved":false,"is_disabled":false,"rental_uris":{"android":"levelo://app?vid=1d87a7f4-60a0-489d-81c0-01a58817df4d","ios":"levelo://app?vid=1d87a7f4-60a0-489d-81c0-01a58817df4d"},"vehicle_type_id":"4","last_reported":1712686116,"current_range_meters":1200,"station_id":"ce4bgjh2rcd13ifvqbf0","pricing_plan_id":"cebpf4jnsgd1na2vs0mg"},{"bike_id":"c9514a4c-cd49-4865-b9fb-61011ea4dd43","system_id":"levelo_inurba_marseille","lat":43.302992,"lon":5.392136,"is_reserved":false,"is_disabled":false,"rental_uris":{"android":"levelo://app?vid=c9514a4c-cd49-4865-b9fb-61011ea4dd43","ios":"levelo://app?vid=c9514a4c-cd49-4865-b9fb-61011ea4dd43"},"vehicle_type_id":"4","last_reported":1712686116,"current_range_meters":9600,"station_id":"ce4bgkh2rcd13ifvqbk0","pricing_plan_id":"cebpf4jnsgd1na2vs0mg"},{"bike_id":"62b4dfbe-9881-4cf6-9298-2fe84319708a","system_id":"levelo_inurba_marseille","lat":43.2936,"lon":5.37835,"is_reserved":false,"is_disabled":false,"rental_uris":{"android":"levelo://app?vid=62b4dfbe-9881-4cf6-9298-2fe84319708a","ios":"levelo://app?vid=62b4dfbe-9881-4cf6-9298-2fe84319708a"},"vehicle_type_id":"4","last_reported":1712686116,"current_range_meters":6000,"station_id":"ce4bgjh2rcd13ifvqbf0","pricing_plan_id":"cebpf4jnsgd1na2vs0mg"},{"bike_id":"7338df92-a0f4-40e6-8a6b-b1a743f1084f","system_id":"levelo_inurba_marseille","lat":43.30085,"lon":5.390856,"is_reserved":false,"is_disabled":false,"rental_uris":{"android":"levelo://app?vid=7338df92-a0f4-40e6-8a6b-b1a743f1084f","ios":"levelo://app?vid=7338df92-a0f4-40e6-8a6b-b1a743f1084f"},"vehicle_type_id":"4","last_reported":1712686116,"current_range_meters":0,"station_id":"ce4bh192rcd13ifvqdb0","pricing_plan_id":"cebpf4jnsgd1na2vs0mg"},{"bike_id":"fc50c4fd-83b8-45d7-b62f-646a5c8a41ca","system_id":"levelo_inurba_marseille","lat":43.292311,"lon":5.360731,"is_reserved":false,"is_disabled":false,"rental_uris":{"android":"levelo://app?vid=fc50c4fd-83b8-45d7-b62f-646a5c8a41ca","ios":"levelo://app?vid=fc50c4fd-83b8-45d7-b62f-646a5c8a41ca"},"vehicle_type_id":"4","last_reported":1712686116,"current_range_meters":19600,"station_id":"ce4bhbh2rcd13ifvqeqg","pricing_plan_id":"cebpf4jnsgd1na2vs0mg"},{"bike_id":"7d29ade3-77a4-4380-85a9-9df82f361794","system_id":"levelo_inurba_marseille","lat":43.292311,"lon":5.360731,"is_reserved":false,"is_disabled":false,"rental_uris":{"android":"levelo://app?vid=7d29ade3-77a4-4380-85a9-9df82f361794","ios":"levelo://app?vid=7d29ade3-77a4-4380-85a9-9df82f361794"},"vehicle_type_id":"4","last_reported":1712686116,"current_range_meters":31600,"station_id":"ce4bhbh2rcd13ifvqeqg","pricing_plan_id":"cebpf4jnsgd1na2vs0mg"},{"bike_id":"02d52101-d731-47ea-9390-4615889d282d","system_id":"levelo_inurba_marseille","lat":43.292311,"lon":5.360731,"is_reserved":false,"is_disabled":false,"rental_uris":{"android":"levelo://app?vid=02d52101-d731-47ea-9390-4615889d282d","ios":"levelo://app?vid=02d52101-d731-47ea-9390-4615889d282d"},"vehicle_type_id":"4","last_reported":1712686116,"current_range_meters":0,"station_id":"ce4bhbh2rcd13ifvqeqg","pricing_plan_id":"cebpf4jnsgd1na2vs0mg"},{"bike_id":"1b091a4c-6d0a-463f-a3b3-ce1318d3f66c","system_id":"levelo_inurba_marseille","lat":43.29226,"lon":5.36068,"is_reserved":false,"is_disabled":false,"rental_uris":{"android":"levelo://app?vid=1b091a4c-6d0a-463f-a3b3-ce1318d3f66c","ios":"levelo://app?vid=1b091a4c-6d0a-463f-a3b3-ce1318d3f66c"},"vehicle_type_id":"4","last_reported":1712686116,"current_range_meters":0,"station_id":"ce4bhbh2rcd13ifvqeqg","pricing_plan_id":"cebpf4jnsgd1na2vs0mg"},{"bike_id":"0172f188-c6c9-4a3a-93b8-3594409ad6c4","system_id":"levelo_inurba_marseille","lat":43.292311,"lon":5.360731,"is_reserved":false,"is_disabled":false,"rental_uris":{"android":"levelo://app?vid=0172f188-c6c9-4a3a-93b8-3594409ad6c4","ios":"levelo://app?vid=0172f188-c6c9-4a3a-93b8-3594409ad6c4"},"vehicle_type_id":"4","last_reported":1712686116,"current_range_meters":2000,"station_id":"ce4bhbh2rcd13ifvqeqg","pricing_plan_id":"cebpf4jnsgd1na2vs0mg"},{"bike_id":"ffd256be-c84e-4726-be68-47d7955e5ee4","system_id":"levelo_inurba_marseille","lat":43.298764,"lon":5.388973,"is_reserved":false,"is_disabled":false,"rental_uris":{"android":"levelo://app?vid=ffd256be-c84e-4726-be68-47d7955e5ee4","ios":"levelo://app?vid=ffd256be-c84e-4726-be68-47d7955e5ee4"},"vehicle_type_id":"4","last_reported":1712686116,"current_range_meters":3600,"station_id":"ce4bh392rcd13ifvqdl0","pricing_plan_id":"cebpf4jnsgd1na2vs0mg"},{"bike_id":"ecf50568-267b-48d9-b0c7-5a76289135a1","system_id":"levelo_inurba_marseille","lat":43.292311,"lon":5.360731,"is_reserved":false,"is_disabled":false,"rental_uris":{"android":"levelo://app?vid=ecf50568-267b-48d9-b0c7-5a76289135a1","ios":"levelo://app?vid=ecf50568-267b-48d9-b0c7-5a76289135a1"},"vehicle_type_id":"4","last_reported":1712686116,"current_range_meters":23600,"station_id":"ce4bhbh2rcd13ifvqeqg","pricing_plan_id":"cebpf4jnsgd1na2vs0mg"},{"bike_id":"1d9ae274-5842-4b84-9182-b21709905992","system_id":"levelo_inurba_marseille","lat":43.292311,"lon":5.360731,"is_reserved":false,"is_disabled":false,"rental_uris":{"android":"levelo://app?vid=1d9ae274-5842-4b84-9182-b21709905992","ios":"levelo://app?vid=1d9ae274-5842-4b84-9182-b21709905992"},"vehicle_type_id":"4","last_reported":1712686116,"current_range_meters":30400,"station_id":"ce4bhbh2rcd13ifvqeqg","pricing_plan_id":"cebpf4jnsgd1na2vs0mg"},{"bike_id":"31af8887-0d1e-4b5c-b1fa-7fa34ae7904f","system_id":"levelo_inurba_marseille","lat":43.298451,"lon":5.388501,"is_reserved":false,"is_disabled":false,"rental_uris":{"android":"levelo://app?vid=31af8887-0d1e-4b5c-b1fa-7fa34ae7904f","ios":"levelo://app?vid=31af8887-0d1e-4b5c-b1fa-7fa34ae7904f"},"vehicle_type_id":"4","last_reported":1712686116,"current_range_meters":9200,"station_id":"ce4bh392rcd13ifvqdl0","pricing_plan_id":"cebpf4jnsgd1na2vs0mg"},{"bike_id":"79ee54ab-8b0a-48e5-a56a-93dccab939b5","system_id":"levelo_inurba_marseille","lat":43.291675,"lon":5.371583,"is_reserved":false,"is_disabled":false,"rental_uris":{"android":"levelo://app?vid=79ee54ab-8b0a-48e5-a56a-93dccab939b5","ios":"levelo://app?vid=79ee54ab-8b0a-48e5-a56a-93dccab939b5"},"vehicle_type_id":"4","last_reported":1712686116,"current_range_meters":0,"station_id":"ce4bha92rcd13ifvqeh0","pricing_plan_id":"cebpf4jnsgd1na2vs0mg"},{"bike_id":"6ad9930a-d074-43c0-9ee5-56d68ad87709","system_id":"levelo_inurba_marseille","lat":43.29884,"lon":5.38908,"is_reserved":false,"is_disabled":false,"rental_uris":{"android":"levelo://app?vid=6ad9930a-d074-43c0-9ee5-56d68ad87709","ios":"levelo://app?vid=6ad9930a-d074-43c0-9ee5-56d68ad87709"},"vehicle_type_id":"4","last_reported":1712686116,"current_range_meters":0,"station_id":"ce4bh392rcd13ifvqdl0","pricing_plan_id":"cebpf4jnsgd1na2vs0mg"},{"bike_id":"9e4a5743-fcc3-43fc-b5fd-b91dd25fc141","system_id":"levelo_inurba_marseille","lat":43.291675,"lon":5.371583,"is_reserved":false,"is_disabled":false,"rental_uris":{"android":"levelo://app?vid=9e4a5743-fcc3-43fc-b5fd-b91dd25fc141","ios":"levelo://app?vid=9e4a5743-fcc3-43fc-b5fd-b91dd25fc141"},"vehicle_type_id":"4","last_reported":1712686116,"current_range_meters":14800,"station_id":"ce4bha92rcd13ifvqeh0","pricing_plan_id":"cebpf4jnsgd1na2vs0mg"},{"bike_id":"522f1221-118b-4001-8750-3e38cf076b84","system_id":"levelo_inurba_marseille","lat":43.291671,"lon":5.371575,"is_reserved":false,"is_disabled":false,"rental_uris":{"android":"levelo://app?vid=522f1221-118b-4001-8750-3e38cf076b84","ios":"levelo://app?vid=522f1221-118b-4001-8750-3e38cf076b84"},"vehicle_type_id":"4","last_reported":1712686116,"current_range_meters":400,"station_id":"ce4bha92rcd13ifvqeh0","pricing_plan_id":"cebpf4jnsgd1na2vs0mg"},{"bike_id":"df0f3cb1-1655-4e60-a712-4123322e0cc9","system_id":"levelo_inurba_marseille","lat":43.291675,"lon":5.371583,"is_reserved":false,"is_disabled":false,"rental_uris":{"android":"levelo://app?vid=df0f3cb1-1655-4e60-a712-4123322e0cc9","ios":"levelo://app?vid=df0f3cb1-1655-4e60-a712-4123322e0cc9"},"vehicle_type_id":"4","last_reported":1712686116,"current_range_meters":0,"station_id":"ce4bha92rcd13ifvqeh0","pricing_plan_id":"cebpf4jnsgd1na2vs0mg"},{"bike_id":"30fe3e39-9e87-43ec-814e-73541fc98ff7","system_id":"levelo_inurba_marseille","lat":43.298764,"lon":5.388973,"is_reserved":false,"is_disabled":false,"rental_uris":{"android":"levelo://app?vid=30fe3e39-9e87-43ec-814e-73541fc98ff7","ios":"levelo://app?vid=30fe3e39-9e87-43ec-814e-73541fc98ff7"},"vehicle_type_id":"4","last_reported":1712686116,"current_range_meters":0,"station_id":"ce4bh392rcd13ifvqdl0","pricing_plan_id":"cebpf4jnsgd1na2vs0mg"},{"bike_id":"3ad83b4e-8206-4492-ae13-50fcae0f1b9f","system_id":"levelo_inurba_marseille","lat":43.298602,"lon":5.389024,"is_reserved":false,"is_disabled":false,"rental_uris":{"android":"levelo://app?vid=3ad83b4e-8206-4492-ae13-50fcae0f1b9f","ios":"levelo://app?vid=3ad83b4e-8206-4492-ae13-50fcae0f1b9f"},"vehicle_type_id":"4","last_reported":1712686116,"current_range_meters":0,"station_id":"ce4bh392rcd13ifvqdl0","pricing_plan_id":"cebpf4jnsgd1na2vs0mg"},{"bike_id":"31428175-a477-4bd8-a69c-7a2f8ef00f61","system_id":"levelo_inurba_marseille","lat":43.308889,"lon":5.396264,"is_reserved":false,"is_disabled":false,"rental_uris":{"android":"levelo://app?vid=31428175-a477-4bd8-a69c-7a2f8ef00f61","ios":"levelo://app?vid=31428175-a477-4bd8-a69c-7a2f8ef00f61"},"vehicle_type_id":"4","last_reported":1712686116,"current_range_meters":1200,"station_id":"ce4bh012rcd13ifvqcv0","pricing_plan_id":"cebpf4jnsgd1na2vs0mg"},{"bike_id":"bd563087-28be-476e-8192-fa4c1c2b7e6d","system_id":"levelo_inurba_marseille","lat":43.290995,"lon":5.381361,"is_reserved":false,"is_disabled":false,"rental_uris":{"android":"levelo://app?vid=bd563087-28be-476e-8192-fa4c1c2b7e6d","ios":"levelo://app?vid=bd563087-28be-476e-8192-fa4c1c2b7e6d"},"vehicle_type_id":"4","last_reported":1712686116,"current_range_meters":18400,"station_id":"ce4bh512rcd13ifvqe2g","pricing_plan_id":"cebpf4jnsgd1na2vs0mg"},{"bike_id":"8472a06a-2246-4261-8adf-45a945babbf9","system_id":"levelo_inurba_marseille","lat":43.30147,"lon":5.392445,"is_reserved":false,"is_disabled":false,"rental_uris":{"android":"levelo://app?vid=8472a06a-2246-4261-8adf-45a945babbf9","ios":"levelo://app?vid=8472a06a-2246-4261-8adf-45a945babbf9"},"vehicle_type_id":"4","last_reported":1712686116,"current_range_meters":3200,"station_id":"","pricing_plan_id":"cebpf4jnsgd1na2vs0mg"},{"bike_id":"fb43e336-66c0-435c-afdc-8eb43f26c8c8","system_id":"levelo_inurba_marseille","lat":43.309038,"lon":5.396546,"is_reserved":false,"is_disabled":false,"rental_uris":{"android":"levelo://app?vid=fb43e336-66c0-435c-afdc-8eb43f26c8c8","ios":"levelo://app?vid=fb43e336-66c0-435c-afdc-8eb43f26c8c8"},"vehicle_type_id":"4","last_reported":1712686116,"current_range_meters":23200,"station_id":"ce4bh012rcd13ifvqcv0","pricing_plan_id":"cebpf4jnsgd1na2vs0mg"},{"bike_id":"88ba09a0-bab4-4922-a632-179f6d89ef26","system_id":"levelo_inurba_marseille","lat":43.309047,"lon":5.396551,"is_reserved":false,"is_disabled":false,"rental_uris":{"android":"levelo://app?vid=88ba09a0-bab4-4922-a632-179f6d89ef26","ios":"levelo://app?vid=88ba09a0-bab4-4922-a632-179f6d89ef26"},"vehicle_type_id":"4","last_reported":1712686116,"current_range_meters":17200,"station_id":"ce4bh012rcd13ifvqcv0","pricing_plan_id":"cebpf4jnsgd1na2vs0mg"},{"bike_id":"85ab6007-8b0c-4dc5-a24c-14b044ea9e8f","system_id":"levelo_inurba_marseille","lat":43.308842,"lon":5.396372,"is_reserved":false,"is_disabled":false,"rental_uris":{"android":"levelo://app?vid=85ab6007-8b0c-4dc5-a24c-14b044ea9e8f","ios":"levelo://app?vid=85ab6007-8b0c-4dc5-a24c-14b044ea9e8f"},"vehicle_type_id":"4","last_reported":1712686116,"current_range_meters":26400,"station_id":"ce4bh012rcd13ifvqcv0","pricing_plan_id":"cebpf4jnsgd1na2vs0mg"},{"bike_id":"f3fc23c2-5612-4a58-ab49-f8eb36b41734","system_id":"levelo_inurba_marseille","lat":43.31331,"lon":5.39686,"is_reserved":false,"is_disabled":false,"rental_uris":{"android":"levelo://app?vid=f3fc23c2-5612-4a58-ab49-f8eb36b41734","ios":"levelo://app?vid=f3fc23c2-5612-4a58-ab49-f8eb36b41734"},"vehicle_type_id":"4","last_reported":1712686116,"current_range_meters":23200,"station_id":"ce4bgvp2rcd13ifvqcu0","pricing_plan_id":"cebpf4jnsgd1na2vs0mg"},{"bike_id":"9fe50c33-eecf-48b1-8986-2b848fe811f8","system_id":"levelo_inurba_marseille","lat":43.313291,"lon":5.396838,"is_reserved":false,"is_disabled":false,"rental_uris":{"android":"levelo://app?vid=9fe50c33-eecf-48b1-8986-2b848fe811f8","ios":"levelo://app?vid=9fe50c33-eecf-48b1-8986-2b848fe811f8"},"vehicle_type_id":"4","last_reported":1712686116,"current_range_meters":20000,"station_id":"ce4bgvp2rcd13ifvqcu0","pricing_plan_id":"cebpf4jnsgd1na2vs0mg"},{"bike_id":"e3193564-97cd-4031-a4b3-0a1613600038","system_id":"levelo_inurba_marseille","lat":43.309038,"lon":5.396546,"is_reserved":false,"is_disabled":false,"rental_uris":{"android":"levelo://app?vid=e3193564-97cd-4031-a4b3-0a1613600038","ios":"levelo://app?vid=e3193564-97cd-4031-a4b3-0a1613600038"},"vehicle_type_id":"4","last_reported":1712686116,"current_range_meters":31200,"station_id":"ce4bh012rcd13ifvqcv0","pricing_plan_id":"cebpf4jnsgd1na2vs0mg"},{"bike_id":"455dad10-e3ec-40a3-9e79-1afed5f83d74","system_id":"levelo_inurba_marseille","lat":43.308417,"lon":5.396348,"is_reserved":false,"is_disabled":false,"rental_uris":{"android":"levelo://app?vid=455dad10-e3ec-40a3-9e79-1afed5f83d74","ios":"levelo://app?vid=455dad10-e3ec-40a3-9e79-1afed5f83d74"},"vehicle_type_id":"4","last_reported":1712686116,"current_range_meters":14000,"station_id":"ce4bh012rcd13ifvqcv0","pricing_plan_id":"cebpf4jnsgd1na2vs0mg"},{"bike_id":"1b765b87-d2d0-4b81-bbfb-b157b0ac6647","system_id":"levelo_inurba_marseille","lat":43.313278,"lon":5.396935,"is_reserved":false,"is_disabled":false,"rental_uris":{"android":"levelo://app?vid=1b765b87-d2d0-4b81-bbfb-b157b0ac6647","ios":"levelo://app?vid=1b765b87-d2d0-4b81-bbfb-b157b0ac6647"},"vehicle_type_id":"4","last_reported":1712686116,"current_range_meters":23200,"station_id":"ce4bgvp2rcd13ifvqcu0","pricing_plan_id":"cebpf4jnsgd1na2vs0mg"},{"bike_id":"21706c9d-8d20-4729-973b-9d74ea17c5d1","system_id":"levelo_inurba_marseille","lat":43.313291,"lon":5.396838,"is_reserved":false,"is_disabled":false,"rental_uris":{"android":"levelo://app?vid=21706c9d-8d20-4729-973b-9d74ea17c5d1","ios":"levelo://app?vid=21706c9d-8d20-4729-973b-9d74ea17c5d1"},"vehicle_type_id":"4","last_reported":1712686116,"current_range_meters":9200,"station_id":"ce4bgvp2rcd13ifvqcu0","pricing_plan_id":"cebpf4jnsgd1na2vs0mg"},{"bike_id":"fa7b6b10-6e4a-4c33-b44e-9ab954ca5b82","system_id":"levelo_inurba_marseille","lat":43.309047,"lon":5.396551,"is_reserved":false,"is_disabled":false,"rental_uris":{"android":"levelo://app?vid=fa7b6b10-6e4a-4c33-b44e-9ab954ca5b82","ios":"levelo://app?vid=fa7b6b10-6e4a-4c33-b44e-9ab954ca5b82"},"vehicle_type_id":"4","last_reported":1712686116,"current_range_meters":4000,"station_id":"ce4bh012rcd13ifvqcv0","pricing_plan_id":"cebpf4jnsgd1na2vs0mg"},{"bike_id":"5f91d419-9ddc-47ac-b6a2-181e9a5d616b","system_id":"levelo_inurba_marseille","lat":43.309047,"lon":5.396551,"is_reserved":false,"is_disabled":false,"rental_uris":{"android":"levelo://app?vid=5f91d419-9ddc-47ac-b6a2-181e9a5d616b","ios":"levelo://app?vid=5f91d419-9ddc-47ac-b6a2-181e9a5d616b"},"vehicle_type_id":"4","last_reported":1712686116,"current_range_meters":10000,"station_id":"ce4bh012rcd13ifvqcv0","pricing_plan_id":"cebpf4jnsgd1na2vs0mg"},{"bike_id":"5d5d1655-e43f-4220-a3a9-42e40d1280c5","system_id":"levelo_inurba_marseille","lat":43.309047,"lon":5.396551,"is_reserved":false,"is_disabled":false,"rental_uris":{"android":"levelo://app?vid=5d5d1655-e43f-4220-a3a9-42e40d1280c5","ios":"levelo://app?vid=5d5d1655-e43f-4220-a3a9-42e40d1280c5"},"vehicle_type_id":"4","last_reported":1712686116,"current_range_meters":7600,"station_id":"ce4bh012rcd13ifvqcv0","pricing_plan_id":"cebpf4jnsgd1na2vs0mg"},{"bike_id":"8603e478-958c-43ef-afb4-0c05b4148741","system_id":"levelo_inurba_marseille","lat":43.309047,"lon":5.396551,"is_reserved":false,"is_disabled":false,"rental_uris":{"android":"levelo://app?vid=8603e478-958c-43ef-afb4-0c05b4148741","ios":"levelo://app?vid=8603e478-958c-43ef-afb4-0c05b4148741"},"vehicle_type_id":"4","last_reported":1712686116,"current_range_meters":21200,"station_id":"ce4bh012rcd13ifvqcv0","pricing_plan_id":"cebpf4jnsgd1na2vs0mg"},{"bike_id":"823a9951-b96b-4b68-95d0-11dc40756334","system_id":"levelo_inurba_marseille","lat":43.295408,"lon":5.38545,"is_reserved":false,"is_disabled":false,"rental_uris":{"android":"levelo://app?vid=823a9951-b96b-4b68-95d0-11dc40756334","ios":"levelo://app?vid=823a9951-b96b-4b68-95d0-11dc40756334"},"vehicle_type_id":"4","last_reported":1712686116,"current_range_meters":0,"station_id":"ce4bgih2rcd13ifvqba0","pricing_plan_id":"cebpf4jnsgd1na2vs0mg"},{"bike_id":"215b0608-0370-4b4c-930b-a7ebbbf3984f","system_id":"levelo_inurba_marseille","lat":43.29529,"lon":5.385581,"is_reserved":false,"is_disabled":false,"rental_uris":{"android":"levelo://app?vid=215b0608-0370-4b4c-930b-a7ebbbf3984f","ios":"levelo://app?vid=215b0608-0370-4b4c-930b-a7ebbbf3984f"},"vehicle_type_id":"4","last_reported":1712686116,"current_range_meters":20800,"station_id":"ce4bgih2rcd13ifvqba0","pricing_plan_id":"cebpf4jnsgd1na2vs0mg"},{"bike_id":"6f9a6ae3-e776-4568-aad5-34864b9a5a3d","system_id":"levelo_inurba_marseille","lat":43.29537,"lon":5.38545,"is_reserved":false,"is_disabled":false,"rental_uris":{"android":"levelo://app?vid=6f9a6ae3-e776-4568-aad5-34864b9a5a3d","ios":"levelo://app?vid=6f9a6ae3-e776-4568-aad5-34864b9a5a3d"},"vehicle_type_id":"4","last_reported":1712686116,"current_range_meters":1200,"station_id":"ce4bgih2rcd13ifvqba0","pricing_plan_id":"cebpf4jnsgd1na2vs0mg"},{"bike_id":"c98d29cc-c3f1-4953-a48e-7173ac182bc5","system_id":"levelo_inurba_marseille","lat":43.29536,"lon":5.38545,"is_reserved":false,"is_disabled":false,"rental_uris":{"android":"levelo://app?vid=c98d29cc-c3f1-4953-a48e-7173ac182bc5","ios":"levelo://app?vid=c98d29cc-c3f1-4953-a48e-7173ac182bc5"},"vehicle_type_id":"4","last_reported":1712686116,"current_range_meters":1200,"station_id":"ce4bgih2rcd13ifvqba0","pricing_plan_id":"cebpf4jnsgd1na2vs0mg"},{"bike_id":"16830e5f-3604-4a1c-a6c1-fd0814e95f78","system_id":"levelo_inurba_marseille","lat":43.29529,"lon":5.385581,"is_reserved":false,"is_disabled":false,"rental_uris":{"android":"levelo://app?vid=16830e5f-3604-4a1c-a6c1-fd0814e95f78","ios":"levelo://app?vid=16830e5f-3604-4a1c-a6c1-fd0814e95f78"},"vehicle_type_id":"4","last_reported":1712686116,"current_range_meters":16000,"station_id":"ce4bgih2rcd13ifvqba0","pricing_plan_id":"cebpf4jnsgd1na2vs0mg"},{"bike_id":"cdedb291-3342-4566-baf1-abeb1300a0af","system_id":"levelo_inurba_marseille","lat":43.2953,"lon":5.38544,"is_reserved":false,"is_disabled":false,"rental_uris":{"android":"levelo://app?vid=cdedb291-3342-4566-baf1-abeb1300a0af","ios":"levelo://app?vid=cdedb291-3342-4566-baf1-abeb1300a0af"},"vehicle_type_id":"4","last_reported":1712686116,"current_range_meters":0,"station_id":"ce4bgih2rcd13ifvqba0","pricing_plan_id":"cebpf4jnsgd1na2vs0mg"},{"bike_id":"8dd67e85-e5d8-4a39-aefb-5d4d9c167b8a","system_id":"levelo_inurba_marseille","lat":43.291413,"lon":5.358994,"is_reserved":false,"is_disabled":false,"rental_uris":{"android":"levelo://app?vid=8dd67e85-e5d8-4a39-aefb-5d4d9c167b8a","ios":"levelo://app?vid=8dd67e85-e5d8-4a39-aefb-5d4d9c167b8a"},"vehicle_type_id":"4","last_reported":1712686116,"current_range_meters":3600,"station_id":"","pricing_plan_id":"cebpf4jnsgd1na2vs0mg"},{"bike_id":"f4b549a0-dd2d-480f-bfa2-d3719131b301","system_id":"levelo_inurba_marseille","lat":43.290779,"lon":5.371482,"is_reserved":false,"is_disabled":false,"rental_uris":{"android":"levelo://app?vid=f4b549a0-dd2d-480f-bfa2-d3719131b301","ios":"levelo://app?vid=f4b549a0-dd2d-480f-bfa2-d3719131b301"},"vehicle_type_id":"4","last_reported":1712686116,"current_range_meters":4000,"station_id":"ce4bh5p2rcd13ifvqe4g","pricing_plan_id":"cebpf4jnsgd1na2vs0mg"},{"bike_id":"ab05bea2-d2bf-4ed4-8f97-bc3e74ad29b4","system_id":"levelo_inurba_marseille","lat":43.290779,"lon":5.371482,"is_reserved":false,"is_disabled":false,"rental_uris":{"android":"levelo://app?vid=ab05bea2-d2bf-4ed4-8f97-bc3e74ad29b4","ios":"levelo://app?vid=ab05bea2-d2bf-4ed4-8f97-bc3e74ad29b4"},"vehicle_type_id":"4","last_reported":1712686116,"current_range_meters":16400,"station_id":"ce4bh5p2rcd13ifvqe4g","pricing_plan_id":"cebpf4jnsgd1na2vs0mg"},{"bike_id":"c5a039a7-ee27-4580-8a05-6876925edd86","system_id":"levelo_inurba_marseille","lat":43.290779,"lon":5.371482,"is_reserved":false,"is_disabled":false,"rental_uris":{"android":"levelo://app?vid=c5a039a7-ee27-4580-8a05-6876925edd86","ios":"levelo://app?vid=c5a039a7-ee27-4580-8a05-6876925edd86"},"vehicle_type_id":"4","last_reported":1712686116,"current_range_meters":6400,"station_id":"ce4bh5p2rcd13ifvqe4g","pricing_plan_id":"cebpf4jnsgd1na2vs0mg"},{"bike_id":"4eade09d-be90-4a56-878e-e1afd8402373","system_id":"levelo_inurba_marseille","lat":43.302008,"lon":5.394694,"is_reserved":false,"is_disabled":false,"rental_uris":{"android":"levelo://app?vid=4eade09d-be90-4a56-878e-e1afd8402373","ios":"levelo://app?vid=4eade09d-be90-4a56-878e-e1afd8402373"},"vehicle_type_id":"4","last_reported":1712686116,"current_range_meters":4800,"station_id":"ce4bh0p2rcd13ifvqd70","pricing_plan_id":"cebpf4jnsgd1na2vs0mg"},{"bike_id":"257dbf1a-08c7-4897-bcc2-eed4ba35e83a","system_id":"levelo_inurba_marseille","lat":43.302008,"lon":5.394694,"is_reserved":false,"is_disabled":false,"rental_uris":{"android":"levelo://app?vid=257dbf1a-08c7-4897-bcc2-eed4ba35e83a","ios":"levelo://app?vid=257dbf1a-08c7-4897-bcc2-eed4ba35e83a"},"vehicle_type_id":"4","last_reported":1712686116,"current_range_meters":3600,"station_id":"ce4bh0p2rcd13ifvqd70","pricing_plan_id":"cebpf4jnsgd1na2vs0mg"},{"bike_id":"f5ecf302-52c3-4516-a637-29fa93754b46","system_id":"levelo_inurba_marseille","lat":43.289184,"lon":5.366408,"is_reserved":false,"is_disabled":false,"rental_uris":{"android":"levelo://app?vid=f5ecf302-52c3-4516-a637-29fa93754b46","ios":"levelo://app?vid=f5ecf302-52c3-4516-a637-29fa93754b46"},"vehicle_type_id":"4","last_reported":1712686116,"current_range_meters":30400,"station_id":"ce4bhap2rcd13ifvqek0","pricing_plan_id":"cebpf4jnsgd1na2vs0mg"},{"bike_id":"8802f544-c7ed-4ca0-8546-f86e267322e7","system_id":"levelo_inurba_marseille","lat":43.290624,"lon":5.359245,"is_reserved":false,"is_disabled":false,"rental_uris":{"android":"levelo://app?vid=8802f544-c7ed-4ca0-8546-f86e267322e7","ios":"levelo://app?vid=8802f544-c7ed-4ca0-8546-f86e267322e7"},"vehicle_type_id":"4","last_reported":1712686116,"current_range_meters":13200,"station_id":"ce4bha92rcd13ifvqeg0","pricing_plan_id":"cebpf4jnsgd1na2vs0mg"},{"bike_id":"4d1d3725-0d86-454b-b4de-b4329828bfe9","system_id":"levelo_inurba_marseille","lat":43.290631,"lon":5.359244,"is_reserved":false,"is_disabled":false,"rental_uris":{"android":"levelo://app?vid=4d1d3725-0d86-454b-b4de-b4329828bfe9","ios":"levelo://app?vid=4d1d3725-0d86-454b-b4de-b4329828bfe9"},"vehicle_type_id":"4","last_reported":1712686116,"current_range_meters":13200,"station_id":"ce4bha92rcd13ifvqeg0","pricing_plan_id":"cebpf4jnsgd1na2vs0mg"},{"bike_id":"22518980-2f42-4997-8d30-d232332eab06","system_id":"levelo_inurba_marseille","lat":43.290624,"lon":5.359245,"is_reserved":false,"is_disabled":false,"rental_uris":{"android":"levelo://app?vid=22518980-2f42-4997-8d30-d232332eab06","ios":"levelo://app?vid=22518980-2f42-4997-8d30-d232332eab06"},"vehicle_type_id":"4","last_reported":1712686116,"current_range_meters":2000,"station_id":"ce4bha92rcd13ifvqeg0","pricing_plan_id":"cebpf4jnsgd1na2vs0mg"},{"bike_id":"5073180e-98f4-4cfa-b54e-cafd14d811fc","system_id":"levelo_inurba_marseille","lat":43.290319,"lon":5.375732,"is_reserved":false,"is_disabled":false,"rental_uris":{"android":"levelo://app?vid=5073180e-98f4-4cfa-b54e-cafd14d811fc","ios":"levelo://app?vid=5073180e-98f4-4cfa-b54e-cafd14d811fc"},"vehicle_type_id":"4","last_reported":1712686116,"current_range_meters":23600,"station_id":"ce4bh692rcd13ifvqe90","pricing_plan_id":"cebpf4jnsgd1na2vs0mg"},{"bike_id":"f6d409ca-7b90-4d97-8bc8-659d32e8b8ee","system_id":"levelo_inurba_marseille","lat":43.29421,"lon":5.3862,"is_reserved":false,"is_disabled":false,"rental_uris":{"android":"levelo://app?vid=f6d409ca-7b90-4d97-8bc8-659d32e8b8ee","ios":"levelo://app?vid=f6d409ca-7b90-4d97-8bc8-659d32e8b8ee"},"vehicle_type_id":"4","last_reported":1712686116,"current_range_meters":0,"station_id":"ce4bh2h2rcd13ifvqdh0","pricing_plan_id":"cebpf4jnsgd1na2vs0mg"},{"bike_id":"d5ffb1f9-74c3-427c-a506-9e067d2de88c","system_id":"levelo_inurba_marseille","lat":43.299579,"lon":5.413255,"is_reserved":false,"is_disabled":false,"rental_uris":{"android":"levelo://app?vid=d5ffb1f9-74c3-427c-a506-9e067d2de88c","ios":"levelo://app?vid=d5ffb1f9-74c3-427c-a506-9e067d2de88c"},"vehicle_type_id":"4","last_reported":1712686116,"current_range_meters":8800,"station_id":"ce4bhp12rcd13ifvqh9g","pricing_plan_id":"cebpf4jnsgd1na2vs0mg"},{"bike_id":"98d28623-67d0-4518-8e91-2617b84d0b45","system_id":"levelo_inurba_marseille","lat":43.29419,"lon":5.38619,"is_reserved":false,"is_disabled":false,"rental_uris":{"android":"levelo://app?vid=98d28623-67d0-4518-8e91-2617b84d0b45","ios":"levelo://app?vid=98d28623-67d0-4518-8e91-2617b84d0b45"},"vehicle_type_id":"4","last_reported":1712686116,"current_range_meters":0,"station_id":"ce4bh2h2rcd13ifvqdh0","pricing_plan_id":"cebpf4jnsgd1na2vs0mg"},{"bike_id":"f28a0fad-6d84-4928-842d-138a2c2306aa","system_id":"levelo_inurba_marseille","lat":43.29421,"lon":5.38623,"is_reserved":false,"is_disabled":false,"rental_uris":{"android":"levelo://app?vid=f28a0fad-6d84-4928-842d-138a2c2306aa","ios":"levelo://app?vid=f28a0fad-6d84-4928-842d-138a2c2306aa"},"vehicle_type_id":"4","last_reported":1712686116,"current_range_meters":0,"station_id":"ce4bh2h2rcd13ifvqdh0","pricing_plan_id":"cebpf4jnsgd1na2vs0mg"},{"bike_id":"67b81ad3-7846-4013-9a41-aed425be1823","system_id":"levelo_inurba_marseille","lat":43.294345,"lon":5.386487,"is_reserved":false,"is_disabled":false,"rental_uris":{"android":"levelo://app?vid=67b81ad3-7846-4013-9a41-aed425be1823","ios":"levelo://app?vid=67b81ad3-7846-4013-9a41-aed425be1823"},"vehicle_type_id":"4","last_reported":1712686116,"current_range_meters":0,"station_id":"ce4bh2h2rcd13ifvqdh0","pricing_plan_id":"cebpf4jnsgd1na2vs0mg"},{"bike_id":"5e3ec59c-e1c2-4ce7-b92f-f5e9e7938025","system_id":"levelo_inurba_marseille","lat":43.29415,"lon":5.38616,"is_reserved":false,"is_disabled":false,"rental_uris":{"android":"levelo://app?vid=5e3ec59c-e1c2-4ce7-b92f-f5e9e7938025","ios":"levelo://app?vid=5e3ec59c-e1c2-4ce7-b92f-f5e9e7938025"},"vehicle_type_id":"4","last_reported":1712686116,"current_range_meters":0,"station_id":"ce4bh2h2rcd13ifvqdh0","pricing_plan_id":"cebpf4jnsgd1na2vs0mg"},{"bike_id":"36490f02-4c3b-4b51-a966-9320c3f56c5a","system_id":"levelo_inurba_marseille","lat":43.29415,"lon":5.3862,"is_reserved":false,"is_disabled":false,"rental_uris":{"android":"levelo://app?vid=36490f02-4c3b-4b51-a966-9320c3f56c5a","ios":"levelo://app?vid=36490f02-4c3b-4b51-a966-9320c3f56c5a"},"vehicle_type_id":"4","last_reported":1712686116,"current_range_meters":0,"station_id":"ce4bh2h2rcd13ifvqdh0","pricing_plan_id":"cebpf4jnsgd1na2vs0mg"},{"bike_id":"33c3f208-d690-4c8e-bfa1-7a23e82be5cf","system_id":"levelo_inurba_marseille","lat":43.294314,"lon":5.397498,"is_reserved":false,"is_disabled":false,"rental_uris":{"android":"levelo://app?vid=33c3f208-d690-4c8e-bfa1-7a23e82be5cf","ios":"levelo://app?vid=33c3f208-d690-4c8e-bfa1-7a23e82be5cf"},"vehicle_type_id":"4","last_reported":1712686116,"current_range_meters":0,"station_id":"ce4bh3h2rcd13ifvqdo0","pricing_plan_id":"cebpf4jnsgd1na2vs0mg"},{"bike_id":"1b0cdb86-9828-42f1-9498-c3616d158b1d","system_id":"levelo_inurba_marseille","lat":43.294153,"lon":5.386305,"is_reserved":false,"is_disabled":false,"rental_uris":{"android":"levelo://app?vid=1b0cdb86-9828-42f1-9498-c3616d158b1d","ios":"levelo://app?vid=1b0cdb86-9828-42f1-9498-c3616d158b1d"},"vehicle_type_id":"4","last_reported":1712686116,"current_range_meters":2400,"station_id":"ce4bh2h2rcd13ifvqdh0","pricing_plan_id":"cebpf4jnsgd1na2vs0mg"},{"bike_id":"1739bef2-d6b9-49d6-916d-8126434242f9","system_id":"levelo_inurba_marseille","lat":43.289425,"lon":5.367132,"is_reserved":false,"is_disabled":false,"rental_uris":{"android":"levelo://app?vid=1739bef2-d6b9-49d6-916d-8126434242f9","ios":"levelo://app?vid=1739bef2-d6b9-49d6-916d-8126434242f9"},"vehicle_type_id":"4","last_reported":1712686116,"current_range_meters":16400,"station_id":"ce4bht12rcd13ifvqi60","pricing_plan_id":"cebpf4jnsgd1na2vs0mg"},{"bike_id":"ce8c3ea8-add6-4842-9730-272589809771","system_id":"levelo_inurba_marseille","lat":43.29414,"lon":5.38625,"is_reserved":false,"is_disabled":false,"rental_uris":{"android":"levelo://app?vid=ce8c3ea8-add6-4842-9730-272589809771","ios":"levelo://app?vid=ce8c3ea8-add6-4842-9730-272589809771"},"vehicle_type_id":"4","last_reported":1712686116,"current_range_meters":0,"station_id":"ce4bh2h2rcd13ifvqdh0","pricing_plan_id":"cebpf4jnsgd1na2vs0mg"},{"bike_id":"113f8c32-26b7-429e-86fa-7ed01dca0521","system_id":"levelo_inurba_marseille","lat":43.289184,"lon":5.366408,"is_reserved":false,"is_disabled":false,"rental_uris":{"android":"levelo://app?vid=113f8c32-26b7-429e-86fa-7ed01dca0521","ios":"levelo://app?vid=113f8c32-26b7-429e-86fa-7ed01dca0521"},"vehicle_type_id":"4","last_reported":1712686116,"current_range_meters":20800,"station_id":"ce4bhap2rcd13ifvqek0","pricing_plan_id":"cebpf4jnsgd1na2vs0mg"},{"bike_id":"b6922796-a0e9-4b7b-ba89-a069fb162314","system_id":"levelo_inurba_marseille","lat":43.289184,"lon":5.366408,"is_reserved":false,"is_disabled":false,"rental_uris":{"android":"levelo://app?vid=b6922796-a0e9-4b7b-ba89-a069fb162314","ios":"levelo://app?vid=b6922796-a0e9-4b7b-ba89-a069fb162314"},"vehicle_type_id":"4","last_reported":1712686116,"current_range_meters":1600,"station_id":"ce4bhap2rcd13ifvqek0","pricing_plan_id":"cebpf4jnsgd1na2vs0mg"},{"bike_id":"3c5713b0-31ec-4847-953d-dbf6b436b702","system_id":"levelo_inurba_marseille","lat":43.289184,"lon":5.366408,"is_reserved":false,"is_disabled":false,"rental_uris":{"android":"levelo://app?vid=3c5713b0-31ec-4847-953d-dbf6b436b702","ios":"levelo://app?vid=3c5713b0-31ec-4847-953d-dbf6b436b702"},"vehicle_type_id":"4","last_reported":1712686116,"current_range_meters":2800,"station_id":"ce4bhap2rcd13ifvqek0","pricing_plan_id":"cebpf4jnsgd1na2vs0mg"},{"bike_id":"237d45de-c345-4b1c-a834-97246619c880","system_id":"levelo_inurba_marseille","lat":43.290995,"lon":5.381361,"is_reserved":false,"is_disabled":false,"rental_uris":{"android":"levelo://app?vid=237d45de-c345-4b1c-a834-97246619c880","ios":"levelo://app?vid=237d45de-c345-4b1c-a834-97246619c880"},"vehicle_type_id":"4","last_reported":1712686116,"current_range_meters":6000,"station_id":"ce4bh512rcd13ifvqe2g","pricing_plan_id":"cebpf4jnsgd1na2vs0mg"},{"bike_id":"284cc1e9-dcf6-4960-a60a-dc0ea5f3993e","system_id":"levelo_inurba_marseille","lat":43.289184,"lon":5.366408,"is_reserved":false,"is_disabled":false,"rental_uris":{"android":"levelo://app?vid=284cc1e9-dcf6-4960-a60a-dc0ea5f3993e","ios":"levelo://app?vid=284cc1e9-dcf6-4960-a60a-dc0ea5f3993e"},"vehicle_type_id":"4","last_reported":1712686116,"current_range_meters":1200,"station_id":"ce4bhap2rcd13ifvqek0","pricing_plan_id":"cebpf4jnsgd1na2vs0mg"},{"bike_id":"811dd8ec-4fc2-4c8b-9ac1-41bdd333ba1d","system_id":"levelo_inurba_marseille","lat":43.289184,"lon":5.366408,"is_reserved":false,"is_disabled":false,"rental_uris":{"android":"levelo://app?vid=811dd8ec-4fc2-4c8b-9ac1-41bdd333ba1d","ios":"levelo://app?vid=811dd8ec-4fc2-4c8b-9ac1-41bdd333ba1d"},"vehicle_type_id":"4","last_reported":1712686116,"current_range_meters":6000,"station_id":"ce4bhap2rcd13ifvqek0","pricing_plan_id":"cebpf4jnsgd1na2vs0mg"},{"bike_id":"70b8242c-95c8-4458-ba62-be9d9b6e5f8a","system_id":"levelo_inurba_marseille","lat":43.289468,"lon":5.363719,"is_reserved":false,"is_disabled":false,"rental_uris":{"android":"levelo://app?vid=70b8242c-95c8-4458-ba62-be9d9b6e5f8a","ios":"levelo://app?vid=70b8242c-95c8-4458-ba62-be9d9b6e5f8a"},"vehicle_type_id":"4","last_reported":1712686116,"current_range_meters":5200,"station_id":"ce4bhc92rcd13ifvqetg","pricing_plan_id":"cebpf4jnsgd1na2vs0mg"},{"bike_id":"5762d016-b7a5-4462-aa05-a42f43c67467","system_id":"levelo_inurba_marseille","lat":43.289184,"lon":5.366408,"is_reserved":false,"is_disabled":false,"rental_uris":{"android":"levelo://app?vid=5762d016-b7a5-4462-aa05-a42f43c67467","ios":"levelo://app?vid=5762d016-b7a5-4462-aa05-a42f43c67467"},"vehicle_type_id":"4","last_reported":1712686116,"current_range_meters":6000,"station_id":"ce4bhap2rcd13ifvqek0","pricing_plan_id":"cebpf4jnsgd1na2vs0mg"},{"bike_id":"317bd764-edfa-409f-b58d-320bfea6ebac","system_id":"levelo_inurba_marseille","lat":43.290104,"lon":5.356111,"is_reserved":false,"is_disabled":false,"rental_uris":{"android":"levelo://app?vid=317bd764-edfa-409f-b58d-320bfea6ebac","ios":"levelo://app?vid=317bd764-edfa-409f-b58d-320bfea6ebac"},"vehicle_type_id":"4","last_reported":1712686116,"current_range_meters":4400,"station_id":"ce4bhb92rcd13ifvqen0","pricing_plan_id":"cebpf4jnsgd1na2vs0mg"},{"bike_id":"5e77c8da-27bb-4a66-8b36-783999cfbf03","system_id":"levelo_inurba_marseille","lat":43.299243,"lon":5.37481,"is_reserved":false,"is_disabled":false,"rental_uris":{"android":"levelo://app?vid=5e77c8da-27bb-4a66-8b36-783999cfbf03","ios":"levelo://app?vid=5e77c8da-27bb-4a66-8b36-783999cfbf03"},"vehicle_type_id":"4","last_reported":1712686116,"current_range_meters":9600,"station_id":"ce4bgjh2rcd13ifvqbg0","pricing_plan_id":"cebpf4jnsgd1na2vs0mg"},{"bike_id":"6df05aa5-575d-4190-a788-f7ae7f577744","system_id":"levelo_inurba_marseille","lat":43.292644,"lon":5.384257,"is_reserved":false,"is_disabled":false,"rental_uris":{"android":"levelo://app?vid=6df05aa5-575d-4190-a788-f7ae7f577744","ios":"levelo://app?vid=6df05aa5-575d-4190-a788-f7ae7f577744"},"vehicle_type_id":"4","last_reported":1712686116,"current_range_meters":8400,"station_id":"ce4bh692rcd13ifvqea0","pricing_plan_id":"cebpf4jnsgd1na2vs0mg"},{"bike_id":"54f4f5b2-ccb6-4cb9-8cd4-fd7d6c091b64","system_id":"levelo_inurba_marseille","lat":43.30414,"lon":5.3974,"is_reserved":false,"is_disabled":false,"rental_uris":{"android":"levelo://app?vid=54f4f5b2-ccb6-4cb9-8cd4-fd7d6c091b64","ios":"levelo://app?vid=54f4f5b2-ccb6-4cb9-8cd4-fd7d6c091b64"},"vehicle_type_id":"4","last_reported":1712686116,"current_range_meters":4800,"station_id":"","pricing_plan_id":"cebpf4jnsgd1na2vs0mg"},{"bike_id":"f8ea9646-9dfe-4c73-af92-94a95890b877","system_id":"levelo_inurba_marseille","lat":43.290104,"lon":5.356111,"is_reserved":false,"is_disabled":false,"rental_uris":{"android":"levelo://app?vid=f8ea9646-9dfe-4c73-af92-94a95890b877","ios":"levelo://app?vid=f8ea9646-9dfe-4c73-af92-94a95890b877"},"vehicle_type_id":"4","last_reported":1712686116,"current_range_meters":10000,"station_id":"ce4bhb92rcd13ifvqen0","pricing_plan_id":"cebpf4jnsgd1na2vs0mg"},{"bike_id":"1680d5aa-0b55-4c1d-862a-c8fad7f0f8f3","system_id":"levelo_inurba_marseille","lat":43.29006,"lon":5.35614,"is_reserved":false,"is_disabled":false,"rental_uris":{"android":"levelo://app?vid=1680d5aa-0b55-4c1d-862a-c8fad7f0f8f3","ios":"levelo://app?vid=1680d5aa-0b55-4c1d-862a-c8fad7f0f8f3"},"vehicle_type_id":"4","last_reported":1712686116,"current_range_meters":23600,"station_id":"ce4bhb92rcd13ifvqen0","pricing_plan_id":"cebpf4jnsgd1na2vs0mg"},{"bike_id":"3c409f40-bd1b-465a-9a0a-d12560403884","system_id":"levelo_inurba_marseille","lat":43.290103,"lon":5.356114,"is_reserved":false,"is_disabled":false,"rental_uris":{"android":"levelo://app?vid=3c409f40-bd1b-465a-9a0a-d12560403884","ios":"levelo://app?vid=3c409f40-bd1b-465a-9a0a-d12560403884"},"vehicle_type_id":"4","last_reported":1712686116,"current_range_meters":16400,"station_id":"ce4bhb92rcd13ifvqen0","pricing_plan_id":"cebpf4jnsgd1na2vs0mg"},{"bike_id":"f981ac0a-12ca-4a64-9aad-563df8b721b4","system_id":"levelo_inurba_marseille","lat":43.290104,"lon":5.356111,"is_reserved":false,"is_disabled":false,"rental_uris":{"android":"levelo://app?vid=f981ac0a-12ca-4a64-9aad-563df8b721b4","ios":"levelo://app?vid=f981ac0a-12ca-4a64-9aad-563df8b721b4"},"vehicle_type_id":"4","last_reported":1712686116,"current_range_meters":16000,"station_id":"ce4bhb92rcd13ifvqen0","pricing_plan_id":"cebpf4jnsgd1na2vs0mg"},{"bike_id":"c4e6e450-b246-4edb-84be-7b9f24702adf","system_id":"levelo_inurba_marseille","lat":43.290104,"lon":5.356111,"is_reserved":false,"is_disabled":false,"rental_uris":{"android":"levelo://app?vid=c4e6e450-b246-4edb-84be-7b9f24702adf","ios":"levelo://app?vid=c4e6e450-b246-4edb-84be-7b9f24702adf"},"vehicle_type_id":"4","last_reported":1712686116,"current_range_meters":10800,"station_id":"ce4bhb92rcd13ifvqen0","pricing_plan_id":"cebpf4jnsgd1na2vs0mg"},{"bike_id":"9205b604-5fad-4f9e-ab91-2222b8f67508","system_id":"levelo_inurba_marseille","lat":43.290995,"lon":5.381361,"is_reserved":false,"is_disabled":false,"rental_uris":{"android":"levelo://app?vid=9205b604-5fad-4f9e-ab91-2222b8f67508","ios":"levelo://app?vid=9205b604-5fad-4f9e-ab91-2222b8f67508"},"vehicle_type_id":"4","last_reported":1712686116,"current_range_meters":10000,"station_id":"ce4bh512rcd13ifvqe2g","pricing_plan_id":"cebpf4jnsgd1na2vs0mg"},{"bike_id":"706a2d97-cb32-4131-afa5-1a0fc1987fc7","system_id":"levelo_inurba_marseille","lat":43.290995,"lon":5.381361,"is_reserved":false,"is_disabled":false,"rental_uris":{"android":"levelo://app?vid=706a2d97-cb32-4131-afa5-1a0fc1987fc7","ios":"levelo://app?vid=706a2d97-cb32-4131-afa5-1a0fc1987fc7"},"vehicle_type_id":"4","last_reported":1712686116,"current_range_meters":20400,"station_id":"ce4bh512rcd13ifvqe2g","pricing_plan_id":"cebpf4jnsgd1na2vs0mg"},{"bike_id":"e75e5901-ce64-4758-b5dc-bb8303f3cac0","system_id":"levelo_inurba_marseille","lat":43.301429,"lon":5.37413,"is_reserved":false,"is_disabled":false,"rental_uris":{"android":"levelo://app?vid=e75e5901-ce64-4758-b5dc-bb8303f3cac0","ios":"levelo://app?vid=e75e5901-ce64-4758-b5dc-bb8303f3cac0"},"vehicle_type_id":"4","last_reported":1712686116,"current_range_meters":0,"station_id":"ce4bgs92rcd13ifvqcc0","pricing_plan_id":"cebpf4jnsgd1na2vs0mg"},{"bike_id":"c857faba-c05b-4320-91ea-df4ec6b706ba","system_id":"levelo_inurba_marseille","lat":43.29789,"lon":5.39346,"is_reserved":false,"is_disabled":false,"rental_uris":{"android":"levelo://app?vid=c857faba-c05b-4320-91ea-df4ec6b706ba","ios":"levelo://app?vid=c857faba-c05b-4320-91ea-df4ec6b706ba"},"vehicle_type_id":"4","last_reported":1712686116,"current_range_meters":0,"station_id":"chh1huq6cuj3fo74tm60","pricing_plan_id":"cebpf4jnsgd1na2vs0mg"},{"bike_id":"060c301c-8b44-49d2-a3ba-f702a981bd50","system_id":"levelo_inurba_marseille","lat":43.290336,"lon":5.386425,"is_reserved":false,"is_disabled":false,"rental_uris":{"android":"levelo://app?vid=060c301c-8b44-49d2-a3ba-f702a981bd50","ios":"levelo://app?vid=060c301c-8b44-49d2-a3ba-f702a981bd50"},"vehicle_type_id":"4","last_reported":1712686116,"current_range_meters":30000,"station_id":"ce4bh4p2rcd13ifvqe0g","pricing_plan_id":"cebpf4jnsgd1na2vs0mg"},{"bike_id":"ad620cad-6eaa-43b1-97f8-eef32c5a191e","system_id":"levelo_inurba_marseille","lat":43.295169,"lon":5.390426,"is_reserved":false,"is_disabled":false,"rental_uris":{"android":"levelo://app?vid=ad620cad-6eaa-43b1-97f8-eef32c5a191e","ios":"levelo://app?vid=ad620cad-6eaa-43b1-97f8-eef32c5a191e"},"vehicle_type_id":"4","last_reported":1712686116,"current_range_meters":0,"station_id":"ce4bh3p2rcd13ifvqdp0","pricing_plan_id":"cebpf4jnsgd1na2vs0mg"},{"bike_id":"2ab15fb8-fa89-4e54-8c26-beda0047f138","system_id":"levelo_inurba_marseille","lat":43.2953,"lon":5.39042,"is_reserved":false,"is_disabled":false,"rental_uris":{"android":"levelo://app?vid=2ab15fb8-fa89-4e54-8c26-beda0047f138","ios":"levelo://app?vid=2ab15fb8-fa89-4e54-8c26-beda0047f138"},"vehicle_type_id":"4","last_reported":1712686116,"current_range_meters":15200,"station_id":"ce4bh3p2rcd13ifvqdp0","pricing_plan_id":"cebpf4jnsgd1na2vs0mg"},{"bike_id":"8cf02fd4-9fd0-4a81-86a0-a507de19a9a0","system_id":"levelo_inurba_marseille","lat":43.29526,"lon":5.39038,"is_reserved":false,"is_disabled":false,"rental_uris":{"android":"levelo://app?vid=8cf02fd4-9fd0-4a81-86a0-a507de19a9a0","ios":"levelo://app?vid=8cf02fd4-9fd0-4a81-86a0-a507de19a9a0"},"vehicle_type_id":"4","last_reported":1712686116,"current_range_meters":0,"station_id":"ce4bh3p2rcd13ifvqdp0","pricing_plan_id":"cebpf4jnsgd1na2vs0mg"},{"bike_id":"fb775545-f2bf-4685-be8e-ad41af33f280","system_id":"levelo_inurba_marseille","lat":43.295215,"lon":5.390323,"is_reserved":false,"is_disabled":false,"rental_uris":{"android":"levelo://app?vid=fb775545-f2bf-4685-be8e-ad41af33f280","ios":"levelo://app?vid=fb775545-f2bf-4685-be8e-ad41af33f280"},"vehicle_type_id":"4","last_reported":1712686116,"current_range_meters":0,"station_id":"ce4bh3p2rcd13ifvqdp0","pricing_plan_id":"cebpf4jnsgd1na2vs0mg"},{"bike_id":"7b66dfe1-cc03-44c7-b1a2-612c79803df2","system_id":"levelo_inurba_marseille","lat":43.295292,"lon":5.390437,"is_reserved":false,"is_disabled":false,"rental_uris":{"android":"levelo://app?vid=7b66dfe1-cc03-44c7-b1a2-612c79803df2","ios":"levelo://app?vid=7b66dfe1-cc03-44c7-b1a2-612c79803df2"},"vehicle_type_id":"4","last_reported":1712686116,"current_range_meters":22800,"station_id":"ce4bh3p2rcd13ifvqdp0","pricing_plan_id":"cebpf4jnsgd1na2vs0mg"},