{"last_updated":1746454260,"ttl":60,"version":"2.2","data":{"bikes":[{"bike_id":"ec5a8d22-9090-4f35-ac87-c075e97261aa","system_id":"levelo_inurba_marseille","lat":43.25867,"lon":5.39893,"is_reserved":false,"is_disabled":false,"rental_uris":{"android":"levelo://app?vid=ec5a8d22-9090-4f35-ac87-c075e97261aa","ios":"levelo://app?vid=ec5a8d22-9090-4f35-ac87-c075e97261aa"},"vehicle_type_id":"4","last_reported":1746454260,"current_range_meters":2800,"station_id":"ce4bhl92rcd13ifvqghg","pricing_plan_id":"cebpf4jnsgd1na2vs0mg"},{"bike_id":"975fc5a9-b56a-4772-a4cf-76a87e5bf23e","system_id":"levelo_inurba_marseille","lat":43.28258,"lon":5.35053,"is_reserved":false,"is_disabled":false,"rental_uris":{"android":"levelo://app?vid=975fc5a9-b56a-4772-a4cf-76a87e5bf23e","ios":"levelo://app?vid=975fc5a9-b56a-4772-a4cf-76a87e5bf23e"},"vehicle_type_id":"4","last_reported":1746454260,"current_range_meters":2800,"station_id":"ce4bhbp2rcd13ifvqerg","pricing_plan_id":"cebpf4jnsgd1na2vs0mg"},{"bike_id":"f6ce537d-a93f-49a2-92b7-72d82f0f2c90","system_id":"levelo_inurba_marseille","lat":43.29008,"lon":5.35613,"is_reserved":false,"is_disabled":false,"rental_uris":{"android":"levelo://app?vid=f6ce537d-a93f-49a2-92b7-72d82f0f2c90","ios":"levelo://app?vid=f6ce537d-a93f-49a2-92b7-72d82f0f2c90"},"vehicle_type_id":"4","last_reported":1746454260,"current_range_meters":3200,"station_id":"ce4bhb92rcd13ifvqen0","pricing_plan_id":"cebpf4jnsgd1na2vs0mg"},{"bike_id":"bdeb3f27-46bf-4eff-aded-090693c05be3","system_id":"levelo_inurba_marseille","lat":43.28694,"lon":5.39982,"is_reserved":false,"is_disabled":false,"rental_uris":{"android":"levelo://app?vid=bdeb3f27-46bf-4eff-aded-090693c05be3","ios":"levelo://app?vid=bdeb3f27-46bf-4eff-aded-090693c05be3"},"vehicle_type_id":"4","last_reported":1746454260,"current_range_meters":2800,"station_id":"ce4bho92rcd13ifvqh3g","pricing_plan_id":"cebpf4jnsgd1na2vs0mg"},{"bike_id":"42d05213-2d04-48f0-b328-53d2a108acea","system_id":"levelo_inurba_marseille","lat":43.28697,"lon":5.37382,"is_reserved":false,"is_disabled":false,"rental_uris":{"android":"levelo://app?vid=42d05213-2d04-48f0-b328-53d2a108acea","ios":"levelo://app?vid=42d05213-2d04-48f0-b328-53d2a108acea"},"vehicle_type_id":"4","last_reported":1746454260,"current_range_meters":3200,"station_id":"ce4bh3p2rcd13ifvqdq0","pricing_plan_id":"cebpf4jnsgd1na2vs0mg"},{"bike_id":"cd08e380-b72f-4b06-bdf9-7ea30b7ecf69","system_id":"levelo_inurba_marseille","lat":43.301533,"lon":5.400801,"is_reserved":false,"is_disabled":false,"rental_uris":{"android":"levelo://app?vid=cd08e380-b72f-4b06-bdf9-7ea30b7ecf69","ios":"levelo://app?vid=cd08e380-b72f-4b06-bdf9-7ea30b7ecf69"},"vehicle_type_id":"4","last_reported":1746454260,"current_range_meters":3600,"station_id":"ce4bh012rcd13ifvqd10","pricing_plan_id":"cebpf4jnsgd1na2vs0mg"},{"bike_id":"5b1ea864-6bc0-4c6e-a83d-a87e4a107d0c","system_id":"levelo_inurba_marseille","lat":43.26954,"lon":5.38641,"is_reserved":false,"is_disabled":false,"rental_uris":{"android":"levelo://app?vid=5b1ea864-6bc0-4c6e-a83d-a87e4a107d0c","ios":"levelo://app?vid=5b1ea864-6bc0-4c6e-a83d-a87e4a107d0c"},"vehicle_type_id":"4","last_reported":1746454260,"current_range_meters":4000,"station_id":"ce4bhh92rcd13ifvqfh0","pricing_plan_id":"cebpf4jnsgd1na2vs0mg"},{"bike_id":"48597f32-c396-4c84-9891-d30c7cf117ec","system_id":"levelo_inurba_marseille","lat":43.29021,"lon":5.3813,"is_reserved":false,"is_disabled":false,"rental_uris":{"android":"levelo://app?vid=48597f32-c396-4c84-9891-d30c7cf117ec","ios":"levelo://app?vid=48597f32-c396-4c84-9891-d30c7cf117ec"},"vehicle_type_id":"4","last_reported":1746454260,"current_range_meters":4000,"station_id":"ce4bh4p2rcd13ifvqe1g","pricing_plan_id":"cebpf4jnsgd1na2vs0mg"},{"bike_id":"c4ec3810-02d5-4b27-8b81-b2e34077caba","system_id":"levelo_inurba_marseille","lat":43.30202,"lon":5.39476,"is_reserved":false,"is_disabled":false,"rental_uris":{"android":"levelo://app?vid=c4ec3810-02d5-4b27-8b81-b2e34077caba","ios":"levelo://app?vid=c4ec3810-02d5-4b27-8b81-b2e34077caba"},"vehicle_type_id":"4","last_reported":1746454260,"current_range_meters":4000,"station_id":"ce4bh0p2rcd13ifvqd70","pricing_plan_id":"cebpf4jnsgd1na2vs0mg"},{"bike_id":"45af8a53-e7a9-42b2-8d50-8afd16346e36","system_id":"levelo_inurba_marseille","lat":43.31175,"lon":5.38717,"is_reserved":false,"is_disabled":false,"rental_uris":{"android":"levelo://app?vid=45af8a53-e7a9-42b2-8d50-8afd16346e36","ios":"levelo://app?vid=45af8a53-e7a9-42b2-8d50-8afd16346e36"},"vehicle_type_id":"4","last_reported":1746454260,"current_range_meters":4000,"station_id":"ce4bgv12rcd13ifvqcp0","pricing_plan_id":"cebpf4jnsgd1na2vs0mg"},{"bike_id":"eeee8669-ab90-45c0-8608-bc991f696b14","system_id":"levelo_inurba_marseille","lat":43.27177,"lon":5.40998,"is_reserved":false,"is_disabled":false,"rental_uris":{"android":"levelo://app?vid=eeee8669-ab90-45c0-8608-bc991f696b14","ios":"levelo://app?vid=eeee8669-ab90-45c0-8608-bc991f696b14"},"vehicle_type_id":"4","last_reported":1746454260,"current_range_meters":4400,"station_id":"ce4bhl12rcd13ifvqgf0","pricing_plan_id":"cebpf4jnsgd1na2vs0mg"},{"bike_id":"debe4758-1b6b-41c8-b947-de7327fb5262","system_id":"levelo_inurba_marseille","lat":43.29714,"lon":5.37701,"is_reserved":false,"is_disabled":false,"rental_uris":{"android":"levelo://app?vid=debe4758-1b6b-41c8-b947-de7327fb5262","ios":"levelo://app?vid=debe4758-1b6b-41c8-b947-de7327fb5262"},"vehicle_type_id":"4","last_reported":1746454260,"current_range_meters":4400,"station_id":"ce4bgkh2rcd13ifvqbl0","pricing_plan_id":"cebpf4jnsgd1na2vs0mg"},{"bike_id":"5b357c18-435b-46ef-9bd9-b90978c0ebef","system_id":"levelo_inurba_marseille","lat":43.29038,"lon":5.37566,"is_reserved":false,"is_disabled":false,"rental_uris":{"android":"levelo://app?vid=5b357c18-435b-46ef-9bd9-b90978c0ebef","ios":"levelo://app?vid=5b357c18-435b-46ef-9bd9-b90978c0ebef"},"vehicle_type_id":"4","last_reported":1746454260,"current_range_meters":4800,"station_id":"ce4bh692rcd13ifvqe90","pricing_plan_id":"cebpf4jnsgd1na2vs0mg"},{"bike_id":"0ba9ae79-36ea-41f7-823b-4178e1d1b59b","system_id":"levelo_inurba_marseille","lat":43.25117,"lon":5.40321,"is_reserved":false,"is_disabled":false,"rental_uris":{"android":"levelo://app?vid=0ba9ae79-36ea-41f7-823b-4178e1d1b59b","ios":"levelo://app?vid=0ba9ae79-36ea-41f7-823b-4178e1d1b59b"},"vehicle_type_id":"4","last_reported":1746454260,"current_range_meters":5600,"station_id":"ce4bhlh2rcd13ifvqgig","pricing_plan_id":"cebpf4jnsgd1na2vs0mg"},{"bike_id":"ae7a57f4-cd01-40e5-8161-67ce60ccc5c9","system_id":"levelo_inurba_marseille","lat":43.2318,"lon":5.39993,"is_reserved":false,"is_disabled":false,"rental_uris":{"android":"levelo://app?vid=ae7a57f4-cd01-40e5-8161-67ce60ccc5c9","ios":"levelo://app?vid=ae7a57f4-cd01-40e5-8161-67ce60ccc5c9"},"vehicle_type_id":"4","last_reported":1746454260,"current_range_meters":4800,"station_id":"ce4bhn12rcd13ifvqgqg","pricing_plan_id":"cebpf4jnsgd1na2vs0mg"},{"bike_id":"931401c9-393d-4c9e-a311-ee1c71677809","system_id":"levelo_inurba_marseille","lat":43.262125,"lon":5.37444,"is_reserved":false,"is_disabled":false,"rental_uris":{"android":"levelo://app?vid=931401c9-393d-4c9e-a311-ee1c71677809","ios":"levelo://app?vid=931401c9-393d-4c9e-a311-ee1c71677809"},"vehicle_type_id":"4","last_reported":1746454260,"current_range_meters":5600,"station_id":"ce4bhgp2rcd13ifvqfc0","pricing_plan_id":"cebpf4jnsgd1na2vs0mg"},{"bike_id":"fedf72f4-0437-48db-afd3-5f8fc0bb6b93","system_id":"levelo_inurba_marseille","lat":43.27392,"lon":5.39022,"is_reserved":false,"is_disabled":false,"rental_uris":{"android":"levelo://app?vid=fedf72f4-0437-48db-afd3-5f8fc0bb6b93","ios":"levelo://app?vid=fedf72f4-0437-48db-afd3-5f8fc0bb6b93"},"vehicle_type_id":"4","last_reported":1746454260,"current_range_meters":6000,"station_id":"","pricing_plan_id":"cebpf4jnsgd1na2vs0mg"},{"bike_id":"616a5f81-e840-477d-8c8f-dbf317102eda","system_id":"levelo_inurba_marseille","lat":43.2594,"lon":5.40926,"is_reserved":false,"is_disabled":false,"rental_uris":{"android":"levelo://app?vid=616a5f81-e840-477d-8c8f-dbf317102eda","ios":"levelo://app?vid=616a5f81-e840-477d-8c8f-dbf317102eda"},"vehicle_type_id":"4","last_reported":1746454260,"current_range_meters":6000,"station_id":"ce4bhm92rcd13ifvqglg","pricing_plan_id":"cebpf4jnsgd1na2vs0mg"},{"bike_id":"f4058794-639c-4973-ab5d-8009a25ee731","system_id":"levelo_inurba_marseille","lat":43.23959,"lon":5.36623,"is_reserved":false,"is_disabled":false,"rental_uris":{"android":"levelo://app?vid=f4058794-639c-4973-ab5d-8009a25ee731","ios":"levelo://app?vid=f4058794-639c-4973-ab5d-8009a25ee731"},"vehicle_type_id":"4","last_reported":1746454260,"current_range_meters":6400,"station_id":"ce4bhi12rcd13ifvqfp0","pricing_plan_id":"cebpf4jnsgd1na2vs0mg"},{"bike_id":"22bd1edc-adc0-4d72-8d69-cc25c23f480b","system_id":"levelo_inurba_marseille","lat":43.2978,"lon":5.37105,"is_reserved":false,"is_disabled":false,"rental_uris":{"android":"levelo://app?vid=22bd1edc-adc0-4d72-8d69-cc25c23f480b","ios":"levelo://app?vid=22bd1edc-adc0-4d72-8d69-cc25c23f480b"},"vehicle_type_id":"4","last_reported":1746454260,"current_range_meters":5600,"station_id":"ce4bgop2rcd13ifvqc1g","pricing_plan_id":"cebpf4jnsgd1na2vs0mg"},{"bike_id":"cdc1668f-85ab-439d-adf5-10582e30c671","system_id":"levelo_inurba_marseille","lat":43.3073,"lon":5.42437,"is_reserved":false,"is_disabled":false,"rental_uris":{"android":"levelo://app?vid=cdc1668f-85ab-439d-adf5-10582e30c671","ios":"levelo://app?vid=cdc1668f-85ab-439d-adf5-10582e30c671"},"vehicle_type_id":"4","last_reported":1746454260,"current_range_meters":6400,"station_id":"st_cvj6ca6bvosntc0bfgr0","pricing_plan_id":"cebpf4jnsgd1na2vs0mg"},{"bike_id":"c920f6c1-6e9a-46ac-92ae-ed92f4d6e267","system_id":"levelo_inurba_marseille","lat":43.30378,"lon":5.42495,"is_reserved":false,"is_disabled":false,"rental_uris":{"android":"levelo://app?vid=c920f6c1-6e9a-46ac-92ae-ed92f4d6e267","ios":"levelo://app?vid=c920f6c1-6e9a-46ac-92ae-ed92f4d6e267"},"vehicle_type_id":"4","last_reported":1746454260,"current_range_meters":6800,"station_id":"ce4bhoh2rcd13ifvqh6g","pricing_plan_id":"cebpf4jnsgd1na2vs0mg"},{"bike_id":"9fadf252-7de3-45e1-81b8-f40efd41373a","system_id":"levelo_inurba_marseille","lat":43.31241,"lon":5.36839,"is_reserved":false,"is_disabled":false,"rental_uris":{"android":"levelo://app?vid=9fadf252-7de3-45e1-81b8-f40efd41373a","ios":"levelo://app?vid=9fadf252-7de3-45e1-81b8-f40efd41373a"},"vehicle_type_id":"4","last_reported":1746454260,"current_range_meters":6800,"station_id":"ce4bgl92rcd13ifvqbq0","pricing_plan_id":"cebpf4jnsgd1na2vs0mg"},{"bike_id":"4e14aec9-c508-41a0-86c8-51964f2f4577","system_id":"levelo_inurba_marseille","lat":43.31119,"lon":5.37761,"is_reserved":false,"is_disabled":false,"rental_uris":{"android":"levelo://app?vid=4e14aec9-c508-41a0-86c8-51964f2f4577","ios":"levelo://app?vid=4e14aec9-c508-41a0-86c8-51964f2f4577"},"vehicle_type_id":"4","last_reported":1746454260,"current_range_meters":6800,"station_id":"ce4bgt92rcd13ifvqcg0","pricing_plan_id":"cebpf4jnsgd1na2vs0mg"},{"bike_id":"573da005-c38d-4d32-aeed-55d24c0cbbc5","system_id":"levelo_inurba_marseille","lat":43.29274,"lon":5.36835,"is_reserved":false,"is_disabled":false,"rental_uris":{"android":"levelo://app?vid=573da005-c38d-4d32-aeed-55d24c0cbbc5","ios":"levelo://app?vid=573da005-c38d-4d32-aeed-55d24c0cbbc5"},"vehicle_type_id":"4","last_reported":1746454260,"current_range_meters":6800,"station_id":"ce4bhbp2rcd13ifvqesg","pricing_plan_id":"cebpf4jnsgd1na2vs0mg"},{"bike_id":"7d540246-4b5b-4399-80c6-709d2b483cf0","system_id":"levelo_inurba_marseille","lat":43.29894,"lon":5.43667,"is_reserved":false,"is_disabled":false,"rental_uris":{"android":"levelo://app?vid=7d540246-4b5b-4399-80c6-709d2b483cf0","ios":"levelo://app?vid=7d540246-4b5b-4399-80c6-709d2b483cf0"},"vehicle_type_id":"4","last_reported":1746454260,"current_range_meters":6400,"station_id":"ce4bhpp2rcd13ifvqhfg","pricing_plan_id":"cebpf4jnsgd1na2vs0mg"},{"bike_id":"31b9b31f-45ba-4bab-ba45-bd9358d192dd","system_id":"levelo_inurba_marseille","lat":43.296087,"lon":5.377133,"is_reserved":false,"is_disabled":false,"rental_uris":{"android":"levelo://app?vid=31b9b31f-45ba-4bab-ba45-bd9358d192dd","ios":"levelo://app?vid=31b9b31f-45ba-4bab-ba45-bd9358d192dd"},"vehicle_type_id":"4","last_reported":1746454260,"current_range_meters":7200,"station_id":"ce4bgi92rcd13ifvqb90","pricing_plan_id":"cebpf4jnsgd1na2vs0mg"},{"bike_id":"66b646b3-6352-44bb-9bfb-21570512e3e5","system_id":"levelo_inurba_marseille","lat":43.28115,"lon":5.40406,"is_reserved":false,"is_disabled":false,"rental_uris":{"android":"levelo://app?vid=66b646b3-6352-44bb-9bfb-21570512e3e5","ios":"levelo://app?vid=66b646b3-6352-44bb-9bfb-21570512e3e5"},"vehicle_type_id":"4","last_reported":1746454260,"current_range_meters":7200,"station_id":"","pricing_plan_id":"cebpf4jnsgd1na2vs0mg"},{"bike_id":"9633523b-42aa-4060-9502-3100756d9313","system_id":"levelo_inurba_marseille","lat":43.3052,"lon":5.36529,"is_reserved":false,"is_disabled":false,"rental_uris":{"android":"levelo://app?vid=9633523b-42aa-4060-9502-3100756d9313","ios":"levelo://app?vid=9633523b-42aa-4060-9502-3100756d9313"},"vehicle_type_id":"4","last_reported":1746454260,"current_range_meters":7200,"station_id":"ce4bgs12rcd13ifvqcag","pricing_plan_id":"cebpf4jnsgd1na2vs0mg"},{"bike_id":"01d42fca-fbc9-4355-9fff-bcf25497bafd","system_id":"levelo_inurba_marseille","lat":43.28147,"lon":5.42631,"is_reserved":false,"is_disabled":false,"rental_uris":{"android":"levelo://app?vid=01d42fca-fbc9-4355-9fff-bcf25497bafd","ios":"levelo://app?vid=01d42fca-fbc9-4355-9fff-bcf25497bafd"},"vehicle_type_id":"4","last_reported":1746454260,"current_range_meters":7200,"station_id":"ce4bhnh2rcd13ifvqgug","pricing_plan_id":"cebpf4jnsgd1na2vs0mg"},{"bike_id":"b265920c-7224-4cff-a2ae-566f3c010532","system_id":"levelo_inurba_marseille","lat":43.2953,"lon":5.38545,"is_reserved":false,"is_disabled":false,"rental_uris":{"android":"levelo://app?vid=b265920c-7224-4cff-a2ae-566f3c010532","ios":"levelo://app?vid=b265920c-7224-4cff-a2ae-566f3c010532"},"vehicle_type_id":"4","last_reported":1746454260,"current_range_meters":7200,"station_id":"ce4bgih2rcd13ifvqba0","pricing_plan_id":"cebpf4jnsgd1na2vs0mg"},{"bike_id":"c8d0aa5d-c975-423b-9f99-2a00a1d97bc8","system_id":"levelo_inurba_marseille","lat":43.25927,"lon":5.40911,"is_reserved":false,"is_disabled":false,"rental_uris":{"android":"levelo://app?vid=c8d0aa5d-c975-423b-9f99-2a00a1d97bc8","ios":"levelo://app?vid=c8d0aa5d-c975-423b-9f99-2a00a1d97bc8"},"vehicle_type_id":"4","last_reported":1746454260,"current_range_meters":7200,"station_id":"ce4bhm92rcd13ifvqglg","pricing_plan_id":"cebpf4jnsgd1na2vs0mg"},{"bike_id":"26dd9f4d-ce9e-4365-b279-fc9c56040cc4","system_id":"levelo_inurba_marseille","lat":43.32324,"lon":5.36716,"is_reserved":false,"is_disabled":false,"rental_uris":{"android":"levelo://app?vid=26dd9f4d-ce9e-4365-b279-fc9c56040cc4","ios":"levelo://app?vid=26dd9f4d-ce9e-4365-b279-fc9c56040cc4"},"vehicle_type_id":"4","last_reported":1746454260,"current_range_meters":7200,"station_id":"ce4bhsh2rcd13ifvqi2g","pricing_plan_id":"cebpf4jnsgd1na2vs0mg"},{"bike_id":"21e1fbf8-6b31-44ce-a1ab-4667f0126197","system_id":"levelo_inurba_marseille","lat":43.23957,"lon":5.36619,"is_reserved":false,"is_disabled":false,"rental_uris":{"android":"levelo://app?vid=21e1fbf8-6b31-44ce-a1ab-4667f0126197","ios":"levelo://app?vid=21e1fbf8-6b31-44ce-a1ab-4667f0126197"},"vehicle_type_id":"4","last_reported":1746454260,"current_range_meters":7200,"station_id":"ce4bhi12rcd13ifvqfp0","pricing_plan_id":"cebpf4jnsgd1na2vs0mg"},{"bike_id":"6ef1b000-d657-487c-93d9-a1ed24a4bd6e","system_id":"levelo_inurba_marseille","lat":43.27375,"lon":5.36259,"is_reserved":false,"is_disabled":false,"rental_uris":{"android":"levelo://app?vid=6ef1b000-d657-487c-93d9-a1ed24a4bd6e","ios":"levelo://app?vid=6ef1b000-d657-487c-93d9-a1ed24a4bd6e"},"vehicle_type_id":"4","last_reported":1746454260,"current_range_meters":7200,"station_id":"ce4bhbh2rcd13ifvqeo0","pricing_plan_id":"cebpf4jnsgd1na2vs0mg"},{"bike_id":"9dda1e11-8eac-4d06-a89a-fd90289c28a1","system_id":"levelo_inurba_marseille","lat":43.27894,"lon":5.38002,"is_reserved":false,"is_disabled":false,"rental_uris":{"android":"levelo://app?vid=9dda1e11-8eac-4d06-a89a-fd90289c28a1","ios":"levelo://app?vid=9dda1e11-8eac-4d06-a89a-fd90289c28a1"},"vehicle_type_id":"4","last_reported":1746454260,"current_range_meters":8000,"station_id":"ce4bhf92rcd13ifvqf50","pricing_plan_id":"cebpf4jnsgd1na2vs0mg"},{"bike_id":"aa71114b-e901-403c-8b3d-218e783f6d09","system_id":"levelo_inurba_marseille","lat":43.3058,"lon":5.36554,"is_reserved":false,"is_disabled":false,"rental_uris":{"android":"levelo://app?vid=aa71114b-e901-403c-8b3d-218e783f6d09","ios":"levelo://app?vid=aa71114b-e901-403c-8b3d-218e783f6d09"},"vehicle_type_id":"4","last_reported":1746454260,"current_range_meters":8000,"station_id":"ce4bgs12rcd13ifvqcag","pricing_plan_id":"cebpf4jnsgd1na2vs0mg"},{"bike_id":"a850cf2e-533f-4d38-8025-e2242781de3e","system_id":"levelo_inurba_marseille","lat":43.23957,"lon":5.36619,"is_reserved":false,"is_disabled":false,"rental_uris":{"android":"levelo://app?vid=a850cf2e-533f-4d38-8025-e2242781de3e","ios":"levelo://app?vid=a850cf2e-533f-4d38-8025-e2242781de3e"},"vehicle_type_id":"4","last_reported":1746454260,"current_range_meters":8400,"station_id":"ce4bhi12rcd13ifvqfp0","pricing_plan_id":"cebpf4jnsgd1na2vs0mg"},{"bike_id":"a611f7d9-1159-4308-a6ea-f570defdef89","system_id":"levelo_inurba_marseille","lat":43.24633,"lon":5.38917,"is_reserved":false,"is_disabled":false,"rental_uris":{"android":"levelo://app?vid=a611f7d9-1159-4308-a6ea-f570defdef89","ios":"levelo://app?vid=a611f7d9-1159-4308-a6ea-f570defdef89"},"vehicle_type_id":"4","last_reported":1746454260,"current_range_meters":8400,"station_id":"ce4bhg12rcd13ifvqf60","pricing_plan_id":"cebpf4jnsgd1na2vs0mg"},{"bike_id":"941c3119-278d-4472-9ff9-6fa78ac808aa","system_id":"levelo_inurba_marseille","lat":43.29599,"lon":5.38093,"is_reserved":false,"is_disabled":false,"rental_uris":{"android":"levelo://app?vid=941c3119-278d-4472-9ff9-6fa78ac808aa","ios":"levelo://app?vid=941c3119-278d-4472-9ff9-6fa78ac808aa"},"vehicle_type_id":"4","last_reported":1746454260,"current_range_meters":8400,"station_id":"ce4bgl12rcd13ifvqbo0","pricing_plan_id":"cebpf4jnsgd1na2vs0mg"},{"bike_id":"9788bc84-2221-4efa-83a6-c358d7a3e66e","system_id":"levelo_inurba_marseille","lat":43.2581,"lon":5.39434,"is_reserved":false,"is_disabled":false,"rental_uris":{"android":"levelo://app?vid=9788bc84-2221-4efa-83a6-c358d7a3e66e","ios":"levelo://app?vid=9788bc84-2221-4efa-83a6-c358d7a3e66e"},"vehicle_type_id":"4","last_reported":1746454260,"current_range_meters":8000,"station_id":"ce4bhip2rcd13ifvqft0","pricing_plan_id":"cebpf4jnsgd1na2vs0mg"},{"bike_id":"b7b8cd67-6146-4388-8e10-5d1c01257b46","system_id":"levelo_inurba_marseille","lat":43.23148,"lon":5.43731,"is_reserved":false,"is_disabled":false,"rental_uris":{"android":"levelo://app?vid=b7b8cd67-6146-4388-8e10-5d1c01257b46","ios":"levelo://app?vid=b7b8cd67-6146-4388-8e10-5d1c01257b46"},"vehicle_type_id":"4","last_reported":1746454260,"current_range_meters":8400,"station_id":"ce4bhmp2rcd13ifvqgog","pricing_plan_id":"cebpf4jnsgd1na2vs0mg"},{"bike_id":"cd015551-8310-4e9d-a816-6e9933fb843d","system_id":"levelo_inurba_marseille","lat":43.32025,"lon":5.41555,"is_reserved":false,"is_disabled":false,"rental_uris":{"android":"levelo://app?vid=cd015551-8310-4e9d-a816-6e9933fb843d","ios":"levelo://app?vid=cd015551-8310-4e9d-a816-6e9933fb843d"},"vehicle_type_id":"4","last_reported":1746454260,"current_range_meters":8800,"station_id":"ce4bhq92rcd13ifvqhkg","pricing_plan_id":"cebpf4jnsgd1na2vs0mg"},{"bike_id":"dde77f7b-722d-4765-b105-b453e273eb3a","system_id":"levelo_inurba_marseille","lat":43.241767,"lon":5.397243,"is_reserved":false,"is_disabled":false,"rental_uris":{"android":"levelo://app?vid=dde77f7b-722d-4765-b105-b453e273eb3a","ios":"levelo://app?vid=dde77f7b-722d-4765-b105-b453e273eb3a"},"vehicle_type_id":"4","last_reported":1746454260,"current_range_meters":8800,"station_id":"ce4bhn12rcd13ifvqgpg","pricing_plan_id":"cebpf4jnsgd1na2vs0mg"},{"bike_id":"47d4a63d-bab1-43ad-9290-2f089fc0e561","system_id":"levelo_inurba_marseille","lat":43.31226,"lon":5.36894,"is_reserved":false,"is_disabled":false,"rental_uris":{"android":"levelo://app?vid=47d4a63d-bab1-43ad-9290-2f089fc0e561","ios":"levelo://app?vid=47d4a63d-bab1-43ad-9290-2f089fc0e561"},"vehicle_type_id":"4","last_reported":1746454260,"current_range_meters":8800,"station_id":"ce4bgl92rcd13ifvqbq0","pricing_plan_id":"cebpf4jnsgd1na2vs0mg"},{"bike_id":"67b0d4aa-1497-4374-bfed-7c135f3c8ba6","system_id":"levelo_inurba_marseille","lat":43.23129,"lon":5.43711,"is_reserved":false,"is_disabled":false,"rental_uris":{"android":"levelo://app?vid=67b0d4aa-1497-4374-bfed-7c135f3c8ba6","ios":"levelo://app?vid=67b0d4aa-1497-4374-bfed-7c135f3c8ba6"},"vehicle_type_id":"4","last_reported":1746454260,"current_range_meters":8800,"station_id":"ce4bhmp2rcd13ifvqgog","pricing_plan_id":"cebpf4jnsgd1na2vs0mg"},{"bike_id":"51552443-7d48-4ace-8f7f-7e879eb09b3e","system_id":"levelo_inurba_marseille","lat":43.241766,"lon":5.397237,"is_reserved":false,"is_disabled":false,"rental_uris":{"android":"levelo://app?vid=51552443-7d48-4ace-8f7f-7e879eb09b3e","ios":"levelo://app?vid=51552443-7d48-4ace-8f7f-7e879eb09b3e"},"vehicle_type_id":"4","last_reported":1746454260,"current_range_meters":8800,"station_id":"ce4bhn12rcd13ifvqgpg","pricing_plan_id":"cebpf4jnsgd1na2vs0mg"},{"bike_id":"35f03362-c15a-4cb6-aa2a-92d0139080f9","system_id":"levelo_inurba_marseille","lat":43.32088,"lon":5.36801,"is_reserved":false,"is_disabled":false,"rental_uris":{"android":"levelo://app?vid=35f03362-c15a-4cb6-aa2a-92d0139080f9","ios":"levelo://app?vid=35f03362-c15a-4cb6-aa2a-92d0139080f9"},"vehicle_type_id":"4","last_reported":1746454260,"current_range_meters":8800,"station_id":"ce4bhrh2rcd13ifvqhug","pricing_plan_id":"cebpf4jnsgd1na2vs0mg"},{"bike_id":"b27cbc7f-086e-43a0-89a5-dfc420dbb6d9","system_id":"levelo_inurba_marseille","lat":43.28615,"lon":5.35102,"is_reserved":false,"is_disabled":false,"rental_uris":{"android":"levelo://app?vid=b27cbc7f-086e-43a0-89a5-dfc420dbb6d9","ios":"levelo://app?vid=b27cbc7f-086e-43a0-89a5-dfc420dbb6d9"},"vehicle_type_id":"4","last_reported":1746454260,"current_range_meters":8800,"station_id":"ce4bhch2rcd13ifvqeug","pricing_plan_id":"cebpf4jnsgd1na2vs0mg"},{"bike_id":"ad595a44-7619-4bc8-8ea6-cc33461d7f21","system_id":"levelo_inurba_marseille","lat":43.29571,"lon":5.375173,"is_reserved":false,"is_disabled":false,"rental_uris":{"android":"levelo://app?vid=ad595a44-7619-4bc8-8ea6-cc33461d7f21","ios":"levelo://app?vid=ad595a44-7619-4bc8-8ea6-cc33461d7f21"},"vehicle_type_id":"4","last_reported":1746454260,"current_range_meters":8800,"station_id":"ce4bgh92rcd13ifvqb50","pricing_plan_id":"cebpf4jnsgd1na2vs0mg"},{"bike_id":"89b9db5e-a6b8-4e26-8488-55f39b09605e","system_id":"levelo_inurba_marseille","lat":43.245819,"lon":5.395235,"is_reserved":false,"is_disabled":false,"rental_uris":{"android":"levelo://app?vid=89b9db5e-a6b8-4e26-8488-55f39b09605e","ios":"levelo://app?vid=89b9db5e-a6b8-4e26-8488-55f39b09605e"},"vehicle_type_id":"4","last_reported":1746454260,"current_range_meters":8400,"station_id":"ce4bhlp2rcd13ifvqgjg","pricing_plan_id":"cebpf4jnsgd1na2vs0mg"},{"bike_id":"18eda1b8-ad05-447b-8c43-1fdf99f7efe7","system_id":"levelo_inurba_marseille","lat":43.29526,"lon":5.38538,"is_reserved":false,"is_disabled":false,"rental_uris":{"android":"levelo://app?vid=18eda1b8-ad05-447b-8c43-1fdf99f7efe7","ios":"levelo://app?vid=18eda1b8-ad05-447b-8c43-1fdf99f7efe7"},"vehicle_type_id":"4","last_reported":1746454260,"current_range_meters":8800,"station_id":"ce4bgih2rcd13ifvqba0","pricing_plan_id":"cebpf4jnsgd1na2vs0mg"},{"bike_id":"ee52bd30-6dc4-491a-9903-3678ae508cdf","system_id":"levelo_inurba_marseille","lat":43.28077,"lon":5.39661,"is_reserved":false,"is_disabled":false,"rental_uris":{"android":"levelo://app?vid=ee52bd30-6dc4-491a-9903-3678ae508cdf","ios":"levelo://app?vid=ee52bd30-6dc4-491a-9903-3678ae508cdf"},"vehicle_type_id":"4","last_reported":1746454260,"current_range_meters":8800,"station_id":"ce4bho12rcd13ifvqh2g","pricing_plan_id":"cebpf4jnsgd1na2vs0mg"},{"bike_id":"8d9f8a9a-7a66-4df7-a7e1-78b1a9856f63","system_id":"levelo_inurba_marseille","lat":43.244304,"lon":5.381686,"is_reserved":false,"is_disabled":false,"rental_uris":{"android":"levelo://app?vid=8d9f8a9a-7a66-4df7-a7e1-78b1a9856f63","ios":"levelo://app?vid=8d9f8a9a-7a66-4df7-a7e1-78b1a9856f63"},"vehicle_type_id":"4","last_reported":1746454260,"current_range_meters":9200,"station_id":"ce4bhih2rcd13ifvqfr0","pricing_plan_id":"cebpf4jnsgd1na2vs0mg"},{"bike_id":"a3f15126-cbf7-4fd2-a5fe-c4cbba56b8f9","system_id":"levelo_inurba_marseille","lat":43.30521,"lon":5.36704,"is_reserved":false,"is_disabled":false,"rental_uris":{"android":"levelo://app?vid=a3f15126-cbf7-4fd2-a5fe-c4cbba56b8f9","ios":"levelo://app?vid=a3f15126-cbf7-4fd2-a5fe-c4cbba56b8f9"},"vehicle_type_id":"4","last_reported":1746454260,"current_range_meters":9200,"station_id":"ce4bgrp2rcd13ifvqc9g","pricing_plan_id":"cebpf4jnsgd1na2vs0mg"},{"bike_id":"5c7249a3-596f-4101-8dbd-1087a1f3b438","system_id":"levelo_inurba_marseille","lat":43.231894,"lon":5.355575,"is_reserved":false,"is_disabled":false,"rental_uris":{"android":"levelo://app?vid=5c7249a3-596f-4101-8dbd-1087a1f3b438","ios":"levelo://app?vid=5c7249a3-596f-4101-8dbd-1087a1f3b438"},"vehicle_type_id":"4","last_reported":1746454260,"current_range_meters":9600,"station_id":"ce4bhu92rcd13ifvqi70","pricing_plan_id":"cebpf4jnsgd1na2vs0mg"},{"bike_id":"79df2d56-8431-46eb-b7c1-70def8f2661b","system_id":"levelo_inurba_marseille","lat":43.29235,"lon":5.36059,"is_reserved":false,"is_disabled":false,"rental_uris":{"android":"levelo://app?vid=79df2d56-8431-46eb-b7c1-70def8f2661b","ios":"levelo://app?vid=79df2d56-8431-46eb-b7c1-70def8f2661b"},"vehicle_type_id":"4","last_reported":1746454260,"current_range_meters":9600,"station_id":"","pricing_plan_id":"cebpf4jnsgd1na2vs0mg"},{"bike_id":"60fe03ce-225d-4bd9-b13e-951bd314c73f","system_id":"levelo_inurba_marseille","lat":43.24175,"lon":5.3972,"is_reserved":false,"is_disabled":false,"rental_uris":{"android":"levelo://app?vid=60fe03ce-225d-4bd9-b13e-951bd314c73f","ios":"levelo://app?vid=60fe03ce-225d-4bd9-b13e-951bd314c73f"},"vehicle_type_id":"4","last_reported":1746454260,"current_range_meters":9600,"station_id":"ce4bhn12rcd13ifvqgpg","pricing_plan_id":"cebpf4jnsgd1na2vs0mg"},{"bike_id":"d7ced594-6501-48d1-9888-8fe268de6fad","system_id":"levelo_inurba_marseille","lat":43.24174,"lon":5.39723,"is_reserved":false,"is_disabled":false,"rental_uris":{"android":"levelo://app?vid=d7ced594-6501-48d1-9888-8fe268de6fad","ios":"levelo://app?vid=d7ced594-6501-48d1-9888-8fe268de6fad"},"vehicle_type_id":"4","last_reported":1746454260,"current_range_meters":9600,"station_id":"ce4bhn12rcd13ifvqgpg","pricing_plan_id":"cebpf4jnsgd1na2vs0mg"},{"bike_id":"01010236-04a5-4c54-bde9-a2e39b7c5b47","system_id":"levelo_inurba_marseille","lat":43.26029,"lon":5.37543,"is_reserved":false,"is_disabled":false,"rental_uris":{"android":"levelo://app?vid=01010236-04a5-4c54-bde9-a2e39b7c5b47","ios":"levelo://app?vid=01010236-04a5-4c54-bde9-a2e39b7c5b47"},"vehicle_type_id":"4","last_reported":1746454260,"current_range_meters":9600,"station_id":"ce4bhgh2rcd13ifvqfa0","pricing_plan_id":"cebpf4jnsgd1na2vs0mg"},{"bike_id":"1b21088e-ab8e-49b4-845a-067a8f6ccf93","system_id":"levelo_inurba_marseille","lat":43.26058,"lon":5.39397,"is_reserved":false,"is_disabled":false,"rental_uris":{"android":"levelo://app?vid=1b21088e-ab8e-49b4-845a-067a8f6ccf93","ios":"levelo://app?vid=1b21088e-ab8e-49b4-845a-067a8f6ccf93"},"vehicle_type_id":"4","last_reported":1746454260,"current_range_meters":9600,"station_id":"ce4bhh92rcd13ifvqfj0","pricing_plan_id":"cebpf4jnsgd1na2vs0mg"},{"bike_id":"95122ff2-c7ea-4a7c-9bd0-afe36f5700a8","system_id":"levelo_inurba_marseille","lat":43.2917,"lon":5.37156,"is_reserved":false,"is_disabled":false,"rental_uris":{"android":"levelo://app?vid=95122ff2-c7ea-4a7c-9bd0-afe36f5700a8","ios":"levelo://app?vid=95122ff2-c7ea-4a7c-9bd0-afe36f5700a8"},"vehicle_type_id":"4","last_reported":1746454260,"current_range_meters":10800,"station_id":"ce4bha92rcd13ifvqeh0","pricing_plan_id":"cebpf4jnsgd1na2vs0mg"},{"bike_id":"e2b2ac32-821c-4554-8d1f-ee505093141e","system_id":"levelo_inurba_marseille","lat":43.26199,"lon":5.37925,"is_reserved":false,"is_disabled":false,"rental_uris":{"android":"levelo://app?vid=e2b2ac32-821c-4554-8d1f-ee505093141e","ios":"levelo://app?vid=e2b2ac32-821c-4554-8d1f-ee505093141e"},"vehicle_type_id":"4","last_reported":1746454260,"current_range_meters":10000,"station_id":"ce4bhjp2rcd13ifvqg90","pricing_plan_id":"cebpf4jnsgd1na2vs0mg"},{"bike_id":"04c2ea43-c898-4799-bce9-3820147f904a","system_id":"levelo_inurba_marseille","lat":43.29933,"lon":5.36538,"is_reserved":false,"is_disabled":false,"rental_uris":{"android":"levelo://app?vid=04c2ea43-c898-4799-bce9-3820147f904a","ios":"levelo://app?vid=04c2ea43-c898-4799-bce9-3820147f904a"},"vehicle_type_id":"4","last_reported":1746454260,"current_range_meters":10000,"station_id":"ce4bgm92rcd13ifvqbr0","pricing_plan_id":"cebpf4jnsgd1na2vs0mg"},{"bike_id":"f63634a7-534a-4419-9984-7395ce66a955","system_id":"levelo_inurba_marseille","lat":43.29624,"lon":5.40588,"is_reserved":false,"is_disabled":false,"rental_uris":{"android":"levelo://app?vid=f63634a7-534a-4419-9984-7395ce66a955","ios":"levelo://app?vid=f63634a7-534a-4419-9984-7395ce66a955"},"vehicle_type_id":"4","last_reported":1746454260,"current_range_meters":9600,"station_id":"ce4bh0h2rcd13ifvqd60","pricing_plan_id":"cebpf4jnsgd1na2vs0mg"},{"bike_id":"fbd303e6-704f-4df0-88b7-e8f14fbb2bc4","system_id":"levelo_inurba_marseille","lat":43.27317,"lon":5.39108,"is_reserved":false,"is_disabled":false,"rental_uris":{"android":"levelo://app?vid=fbd303e6-704f-4df0-88b7-e8f14fbb2bc4","ios":"levelo://app?vid=fbd303e6-704f-4df0-88b7-e8f14fbb2bc4"},"vehicle_type_id":"4","last_reported":1746454260,"current_range_meters":10000,"station_id":"ce4bhgp2rcd13ifvqfe0","pricing_plan_id":"cebpf4jnsgd1na2vs0mg"},{"bike_id":"19b628b5-0959-429f-9685-c598cd79d0a8","system_id":"levelo_inurba_marseille","lat":43.29531,"lon":5.37498,"is_reserved":false,"is_disabled":false,"rental_uris":{"android":"levelo://app?vid=19b628b5-0959-429f-9685-c598cd79d0a8","ios":"levelo://app?vid=19b628b5-0959-429f-9685-c598cd79d0a8"},"vehicle_type_id":"4","last_reported":1746454260,"current_range_meters":10000,"station_id":"ce4bgkp2rcd13ifvqbmg","pricing_plan_id":"cebpf4jnsgd1na2vs0mg"},{"bike_id":"f66f8f6e-ed51-4815-a7de-697d087b5069","system_id":"levelo_inurba_marseille","lat":43.27942,"lon":5.41047,"is_reserved":false,"is_disabled":false,"rental_uris":{"android":"levelo://app?vid=f66f8f6e-ed51-4815-a7de-697d087b5069","ios":"levelo://app?vid=f66f8f6e-ed51-4815-a7de-697d087b5069"},"vehicle_type_id":"4","last_reported":1746454260,"current_range_meters":10800,"station_id":"ce4bhnp2rcd13ifvqh0g","pricing_plan_id":"cebpf4jnsgd1na2vs0mg"},{"bike_id":"c7d8bcea-0651-4117-a3ff-a304302270ab","system_id":"levelo_inurba_marseille","lat":43.29541,"lon":5.42285,"is_reserved":false,"is_disabled":false,"rental_uris":{"android":"levelo://app?vid=c7d8bcea-0651-4117-a3ff-a304302270ab","ios":"levelo://app?vid=c7d8bcea-0651-4117-a3ff-a304302270ab"},"vehicle_type_id":"4","last_reported":1746454260,"current_range_meters":10800,"station_id":"ce4bhph2rcd13ifvqhdg","pricing_plan_id":"cebpf4jnsgd1na2vs0mg"},{"bike_id":"ae39190f-08dd-447a-a875-c05e2ae01e0a","system_id":"levelo_inurba_marseille","lat":43.27915,"lon":5.39579,"is_reserved":false,"is_disabled":false,"rental_uris":{"android":"levelo://app?vid=ae39190f-08dd-447a-a875-c05e2ae01e0a","ios":"levelo://app?vid=ae39190f-08dd-447a-a875-c05e2ae01e0a"},"vehicle_type_id":"4","last_reported":1746454260,"current_range_meters":10800,"station_id":"ce4bhf92rcd13ifvqf40","pricing_plan_id":"cebpf4jnsgd1na2vs0mg"},{"bike_id":"dbe98857-2733-4dd0-ace6-4257a5f20382","system_id":"levelo_inurba_marseille","lat":43.29035,"lon":5.38646,"is_reserved":false,"is_disabled":false,"rental_uris":{"android":"levelo://app?vid=dbe98857-2733-4dd0-ace6-4257a5f20382","ios":"levelo://app?vid=dbe98857-2733-4dd0-ace6-4257a5f20382"},"vehicle_type_id":"4","last_reported":1746454260,"current_range_meters":10800,"station_id":"ce4bh4p2rcd13ifvqe0g","pricing_plan_id":"cebpf4jnsgd1na2vs0mg"},{"bike_id":"1a82a0e9-f369-4d01-ae50-ae98884bab48","system_id":"levelo_inurba_marseille","lat":43.33068,"lon":5.38712,"is_reserved":false,"is_disabled":false,"rental_uris":{"android":"levelo://app?vid=1a82a0e9-f369-4d01-ae50-ae98884bab48","ios":"levelo://app?vid=1a82a0e9-f369-4d01-ae50-ae98884bab48"},"vehicle_type_id":"4","last_reported":1746454260,"current_range_meters":10800,"station_id":"","pricing_plan_id":"cebpf4jnsgd1na2vs0mg"},{"bike_id":"f6965056-e655-4311-bc7b-140fed5bf9b6","system_id":"levelo_inurba_marseille","lat":43.24176,"lon":5.39728,"is_reserved":false,"is_disabled":false,"rental_uris":{"android":"levelo://app?vid=f6965056-e655-4311-bc7b-140fed5bf9b6","ios":"levelo://app?vid=f6965056-e655-4311-bc7b-140fed5bf9b6"},"vehicle_type_id":"4","last_reported":1746454260,"current_range_meters":10800,"station_id":"ce4bhn12rcd13ifvqgpg","pricing_plan_id":"cebpf4jnsgd1na2vs0mg"},{"bike_id":"acbf352e-31a4-49f9-b84b-af68f2a74074","system_id":"levelo_inurba_marseille","lat":43.24177,"lon":5.39733,"is_reserved":false,"is_disabled":false,"rental_uris":{"android":"levelo://app?vid=acbf352e-31a4-49f9-b84b-af68f2a74074","ios":"levelo://app?vid=acbf352e-31a4-49f9-b84b-af68f2a74074"},"vehicle_type_id":"4","last_reported":1746454260,"current_range_meters":11200,"station_id":"ce4bhn12rcd13ifvqgpg","pricing_plan_id":"cebpf4jnsgd1na2vs0mg"},{"bike_id":"a497742f-c244-43cc-ae61-a68c22f59bec","system_id":"levelo_inurba_marseille","lat":43.31353,"lon":5.38482,"is_reserved":false,"is_disabled":false,"rental_uris":{"android":"levelo://app?vid=a497742f-c244-43cc-ae61-a68c22f59bec","ios":"levelo://app?vid=a497742f-c244-43cc-ae61-a68c22f59bec"},"vehicle_type_id":"4","last_reported":1746454260,"current_range_meters":11200,"station_id":"ce4bgt92rcd13ifvqcf0","pricing_plan_id":"cebpf4jnsgd1na2vs0mg"},{"bike_id":"7d4cb860-956c-4f9a-8821-09dd110dc0f4","system_id":"levelo_inurba_marseille","lat":43.28442,"lon":5.39209,"is_reserved":false,"is_disabled":false,"rental_uris":{"android":"levelo://app?vid=7d4cb860-956c-4f9a-8821-09dd110dc0f4","ios":"levelo://app?vid=7d4cb860-956c-4f9a-8821-09dd110dc0f4"},"vehicle_type_id":"4","last_reported":1746454260,"current_range_meters":11200,"station_id":"ce4bhoh2rcd13ifvqh5g","pricing_plan_id":"cebpf4jnsgd1na2vs0mg"},{"bike_id":"d1aa6e5d-6beb-440c-afb6-1d488c12e5a1","system_id":"levelo_inurba_marseille","lat":43.32094,"lon":5.36789,"is_reserved":false,"is_disabled":false,"rental_uris":{"android":"levelo://app?vid=d1aa6e5d-6beb-440c-afb6-1d488c12e5a1","ios":"levelo://app?vid=d1aa6e5d-6beb-440c-afb6-1d488c12e5a1"},"vehicle_type_id":"4","last_reported":1746454260,"current_range_meters":11200,"station_id":"ce4bhrh2rcd13ifvqhug","pricing_plan_id":"cebpf4jnsgd1na2vs0mg"},{"bike_id":"88134262-7407-4c24-bcfa-c71fc125be2b","system_id":"levelo_inurba_marseille","lat":43.26022,"lon":5.3755,"is_reserved":false,"is_disabled":false,"rental_uris":{"android":"levelo://app?vid=88134262-7407-4c24-bcfa-c71fc125be2b","ios":"levelo://app?vid=88134262-7407-4c24-bcfa-c71fc125be2b"},"vehicle_type_id":"4","last_reported":1746454260,"current_range_meters":11200,"station_id":"ce4bhgh2rcd13ifvqfa0","pricing_plan_id":"cebpf4jnsgd1na2vs0mg"},{"bike_id":"44465755-bad9-4c51-8d3d-da69d989994f","system_id":"levelo_inurba_marseille","lat":43.31199,"lon":5.368117,"is_reserved":false,"is_disabled":false,"rental_uris":{"android":"levelo://app?vid=44465755-bad9-4c51-8d3d-da69d989994f","ios":"levelo://app?vid=44465755-bad9-4c51-8d3d-da69d989994f"},"vehicle_type_id":"4","last_reported":1746454260,"current_range_meters":11600,"station_id":"ce4bgr92rcd13ifvqc6g","pricing_plan_id":"cebpf4jnsgd1na2vs0mg"},{"bike_id":"9b8272ed-8c23-4b66-a328-d54ed500e08b","system_id":"levelo_inurba_marseille","lat":43.2757,"lon":5.38412,"is_reserved":false,"is_disabled":false,"rental_uris":{"android":"levelo://app?vid=9b8272ed-8c23-4b66-a328-d54ed500e08b","ios":"levelo://app?vid=9b8272ed-8c23-4b66-a328-d54ed500e08b"},"vehicle_type_id":"4","last_reported":1746454260,"current_range_meters":11600,"station_id":"ce4bhh92rcd13ifvqfi0","pricing_plan_id":"cebpf4jnsgd1na2vs0mg"},{"bike_id":"d033acbf-1b6c-48de-8915-71cf75246dd2","system_id":"levelo_inurba_marseille","lat":43.31166,"lon":5.36959,"is_reserved":false,"is_disabled":false,"rental_uris":{"android":"levelo://app?vid=d033acbf-1b6c-48de-8915-71cf75246dd2","ios":"levelo://app?vid=d033acbf-1b6c-48de-8915-71cf75246dd2"},"vehicle_type_id":"4","last_reported":1746454260,"current_range_meters":12000,"station_id":"","pricing_plan_id":"cebpf4jnsgd1na2vs0mg"},{"bike_id":"ef12a685-ba83-466b-86f2-cd9fe17bb3b1","system_id":"levelo_inurba_marseille","lat":43.32039,"lon":5.41547,"is_reserved":false,"is_disabled":false,"rental_uris":{"android":"levelo://app?vid=ef12a685-ba83-466b-86f2-cd9fe17bb3b1","ios":"levelo://app?vid=ef12a685-ba83-466b-86f2-cd9fe17bb3b1"},"vehicle_type_id":"4","last_reported":1746454260,"current_range_meters":11600,"station_id":"ce4bhq92rcd13ifvqhkg","pricing_plan_id":"cebpf4jnsgd1na2vs0mg"},{"bike_id":"ccc598be-0134-4f7f-b90f-a2b5da7a0248","system_id":"levelo_inurba_marseille","lat":43.31995,"lon":5.38167,"is_reserved":false,"is_disabled":false,"rental_uris":{"android":"levelo://app?vid=ccc598be-0134-4f7f-b90f-a2b5da7a0248","ios":"levelo://app?vid=ccc598be-0134-4f7f-b90f-a2b5da7a0248"},"vehicle_type_id":"4","last_reported":1746454260,"current_range_meters":12000,"station_id":"ce4bhr12rcd13ifvqhpg","pricing_plan_id":"cebpf4jnsgd1na2vs0mg"},{"bike_id":"6da7e2d4-bde0-447e-9bd0-832e950ad05e","system_id":"levelo_inurba_marseille","lat":43.271818,"lon":5.391733,"is_reserved":false,"is_disabled":false,"rental_uris":{"android":"levelo://app?vid=6da7e2d4-bde0-447e-9bd0-832e950ad05e","ios":"levelo://app?vid=6da7e2d4-bde0-447e-9bd0-832e950ad05e"},"vehicle_type_id":"4","last_reported":1746454260,"current_range_meters":12000,"station_id":"ce4bhhp2rcd13ifvqfm0","pricing_plan_id":"cebpf4jnsgd1na2vs0mg"},{"bike_id":"d801a9be-f2ff-4d84-b388-3f2552301547","system_id":"levelo_inurba_marseille","lat":43.281541,"lon":5.426487,"is_reserved":false,"is_disabled":false,"rental_uris":{"android":"levelo://app?vid=d801a9be-f2ff-4d84-b388-3f2552301547","ios":"levelo://app?vid=d801a9be-f2ff-4d84-b388-3f2552301547"},"vehicle_type_id":"4","last_reported":1746454260,"current_range_meters":12000,"station_id":"ce4bhnh2rcd13ifvqgug","pricing_plan_id":"cebpf4jnsgd1na2vs0mg"},{"bike_id":"8f8d412f-d8bf-4c56-a9e5-54014fcbe00d","system_id":"levelo_inurba_marseille","lat":43.3209,"lon":5.36799,"is_reserved":false,"is_disabled":false,"rental_uris":{"android":"levelo://app?vid=8f8d412f-d8bf-4c56-a9e5-54014fcbe00d","ios":"levelo://app?vid=8f8d412f-d8bf-4c56-a9e5-54014fcbe00d"},"vehicle_type_id":"4","last_reported":1746454260,"current_range_meters":12400,"station_id":"ce4bhrh2rcd13ifvqhug","pricing_plan_id":"cebpf4jnsgd1na2vs0mg"},{"bike_id":"75ae73ef-bb0a-4134-a4f1-cfa5ac17ebf0","system_id":"levelo_inurba_marseille","lat":43.31761,"lon":5.39006,"is_reserved":false,"is_disabled":false,"rental_uris":{"android":"levelo://app?vid=75ae73ef-bb0a-4134-a4f1-cfa5ac17ebf0","ios":"levelo://app?vid=75ae73ef-bb0a-4134-a4f1-cfa5ac17ebf0"},"vehicle_type_id":"4","last_reported":1746454260,"current_range_meters":12400,"station_id":"ce4bhqp2rcd13ifvqhng","pricing_plan_id":"cebpf4jnsgd1na2vs0mg"},{"bike_id":"e3f67ffc-6f7b-4d5f-b01c-68c66346c861","system_id":"levelo_inurba_marseille","lat":43.24645,"lon":5.38887,"is_reserved":false,"is_disabled":false,"rental_uris":{"android":"levelo://app?vid=e3f67ffc-6f7b-4d5f-b01c-68c66346c861","ios":"levelo://app?vid=e3f67ffc-6f7b-4d5f-b01c-68c66346c861"},"vehicle_type_id":"4","last_reported":1746454260,"current_range_meters":12000,"station_id":"ce4bhg12rcd13ifvqf60","pricing_plan_id":"cebpf4jnsgd1na2vs0mg"},{"bike_id":"c921f737-d1b4-40c8-9df6-a14d0cb052d3","system_id":"levelo_inurba_marseille","lat":43.32287,"lon":5.38277,"is_reserved":false,"is_disabled":false,"rental_uris":{"android":"levelo://app?vid=c921f737-d1b4-40c8-9df6-a14d0cb052d3","ios":"levelo://app?vid=c921f737-d1b4-40c8-9df6-a14d0cb052d3"},"vehicle_type_id":"4","last_reported":1746454260,"current_range_meters":12400,"station_id":"ce4bhr12rcd13ifvqhqg","pricing_plan_id":"cebpf4jnsgd1na2vs0mg"},{"bike_id":"5b8d1337-a035-4531-8ae9-843647d6f95e","system_id":"levelo_inurba_marseille","lat":43.2318,"lon":5.3998,"is_reserved":false,"is_disabled":false,"rental_uris":{"android":"levelo://app?vid=5b8d1337-a035-4531-8ae9-843647d6f95e","ios":"levelo://app?vid=5b8d1337-a035-4531-8ae9-843647d6f95e"},"vehicle_type_id":"4","last_reported":1746454260,"current_range_meters":12800,"station_id":"ce4bhn12rcd13ifvqgqg","pricing_plan_id":"cebpf4jnsgd1na2vs0mg"},{"bike_id":"36179461-52f2-4b28-b8c1-bf14746a147b","system_id":"levelo_inurba_marseille","lat":43.25578,"lon":5.38242,"is_reserved":false,"is_disabled":false,"rental_uris":{"android":"levelo://app?vid=36179461-52f2-4b28-b8c1-bf14746a147b","ios":"levelo://app?vid=36179461-52f2-4b28-b8c1-bf14746a147b"},"vehicle_type_id":"4","last_reported":1746454260,"current_range_meters":12800,"station_id":"ce4bhih2rcd13ifvqfs0","pricing_plan_id":"cebpf4jnsgd1na2vs0mg"},{"bike_id":"62bfa9fa-531f-4d2b-9e57-eb50b2d48c8c","system_id":"levelo_inurba_marseille","lat":43.24335,"lon":5.37984,"is_reserved":false,"is_disabled":false,"rental_uris":{"android":"levelo://app?vid=62bfa9fa-531f-4d2b-9e57-eb50b2d48c8c","ios":"levelo://app?vid=62bfa9fa-531f-4d2b-9e57-eb50b2d48c8c"},"vehicle_type_id":"4","last_reported":1746454260,"current_range_meters":12800,"station_id":"","pricing_plan_id":"cebpf4jnsgd1na2vs0mg"},{"bike_id":"aae339e1-7391-4016-b067-2901345a8fa3","system_id":"levelo_inurba_marseille","lat":43.27867,"lon":5.3798,"is_reserved":false,"is_disabled":false,"rental_uris":{"android":"levelo://app?vid=aae339e1-7391-4016-b067-2901345a8fa3","ios":"levelo://app?vid=aae339e1-7391-4016-b067-2901345a8fa3"},"vehicle_type_id":"4","last_reported":1746454260,"current_range_meters":12400,"station_id":"ce4bhf92rcd13ifvqf50","pricing_plan_id":"cebpf4jnsgd1na2vs0mg"},{"bike_id":"6d138f64-7b6f-4f20-9d4f-662d30213077","system_id":"levelo_inurba_marseille","lat":43.286927,"lon":5.359877,"is_reserved":false,"is_disabled":false,"rental_uris":{"android":"levelo://app?vid=6d138f64-7b6f-4f20-9d4f-662d30213077","ios":"levelo://app?vid=6d138f64-7b6f-4f20-9d4f-662d30213077"},"vehicle_type_id":"4","last_reported":1746454260,"current_range_meters":13600,"station_id":"cki0cbj6b192h4jlfktg","pricing_plan_id":"cebpf4jnsgd1na2vs0mg"},{"bike_id":"9d8f73eb-df09-4699-86a7-d631e2319093","system_id":"levelo_inurba_marseille","lat":43.26265,"lon":5.37438,"is_reserved":false,"is_disabled":false,"rental_uris":{"android":"levelo://app?vid=9d8f73eb-df09-4699-86a7-d631e2319093","ios":"levelo://app?vid=9d8f73eb-df09-4699-86a7-d631e2319093"},"vehicle_type_id":"4","last_reported":1746454260,"current_range_meters":13600,"station_id":"","pricing_plan_id":"cebpf4jnsgd1na2vs0mg"},{"bike_id":"fd5bc2c2-9d28-48ff-8793-64af25d324f4","system_id":"levelo_inurba_marseille","lat":43.21751,"lon":5.34598,"is_reserved":false,"is_disabled":false,"rental_uris":{"android":"levelo://app?vid=fd5bc2c2-9d28-48ff-8793-64af25d324f4","ios":"levelo://app?vid=fd5bc2c2-9d28-48ff-8793-64af25d324f4"},"vehicle_type_id":"4","last_reported":1746454260,"current_range_meters":13600,"station_id":"st_cvj6r9ubvosntc0bgbag","pricing_plan_id":"cebpf4jnsgd1na2vs0mg"},{"bike_id":"c8cbfd4b-2817-492b-8385-7a234e1629c7","system_id":"levelo_inurba_marseille","lat":43.25714,"lon":5.41116,"is_reserved":false,"is_disabled":false,"rental_uris":{"android":"levelo://app?vid=c8cbfd4b-2817-492b-8385-7a234e1629c7","ios":"levelo://app?vid=c8cbfd4b-2817-492b-8385-7a234e1629c7"},"vehicle_type_id":"4","last_reported":1746454260,"current_range_meters":13600,"station_id":"ce4bhkp2rcd13ifvqgd0","pricing_plan_id":"cebpf4jnsgd1na2vs0mg"},{"bike_id":"1d1dee7e-6eaf-4dff-a697-1f80f49d40ae","system_id":"levelo_inurba_marseille","lat":43.30753,"lon":5.42446,"is_reserved":false,"is_disabled":false,"rental_uris":{"android":"levelo://app?vid=1d1dee7e-6eaf-4dff-a697-1f80f49d40ae","ios":"levelo://app?vid=1d1dee7e-6eaf-4dff-a697-1f80f49d40ae"},"vehicle_type_id":"4","last_reported":1746454260,"current_range_meters":13600,"station_id":"st_cvj6ca6bvosntc0bfgr0","pricing_plan_id":"cebpf4jnsgd1na2vs0mg"},{"bike_id":"7abc2544-a4e6-4d5b-84c9-58797e0c24af","system_id":"levelo_inurba_marseille","lat":43.27904,"lon":5.39583,"is_reserved":false,"is_disabled":false,"rental_uris":{"android":"levelo://app?vid=7abc2544-a4e6-4d5b-84c9-58797e0c24af","ios":"levelo://app?vid=7abc2544-a4e6-4d5b-84c9-58797e0c24af"},"vehicle_type_id":"4","last_reported":1746454260,"current_range_meters":14000,"station_id":"ce4bhf92rcd13ifvqf40","pricing_plan_id":"cebpf4jnsgd1na2vs0mg"},{"bike_id":"9761079f-1a1f-4114-9a02-a6f699456083","system_id":"levelo_inurba_marseille","lat":43.276243,"lon":5.361053,"is_reserved":false,"is_disabled":false,"rental_uris":{"android":"levelo://app?vid=9761079f-1a1f-4114-9a02-a6f699456083","ios":"levelo://app?vid=9761079f-1a1f-4114-9a02-a6f699456083"},"vehicle_type_id":"4","last_reported":1746454260,"current_range_meters":14000,"station_id":"ce4bgj92rcd13ifvqbe0","pricing_plan_id":"cebpf4jnsgd1na2vs0mg"},{"bike_id":"08a8ec16-d96e-4855-a88e-acada3a0d408","system_id":"levelo_inurba_marseille","lat":43.3028,"lon":5.37715,"is_reserved":false,"is_disabled":false,"rental_uris":{"android":"levelo://app?vid=08a8ec16-d96e-4855-a88e-acada3a0d408","ios":"levelo://app?vid=08a8ec16-d96e-4855-a88e-acada3a0d408"},"vehicle_type_id":"4","last_reported":1746454260,"current_range_meters":13600,"station_id":"ce4bguh2rcd13ifvqcj0","pricing_plan_id":"cebpf4jnsgd1na2vs0mg"},{"bike_id":"afd98b4d-f75a-4e82-beca-4b0996b353b3","system_id":"levelo_inurba_marseille","lat":43.25929,"lon":5.40918,"is_reserved":false,"is_disabled":false,"rental_uris":{"android":"levelo://app?vid=afd98b4d-f75a-4e82-beca-4b0996b353b3","ios":"levelo://app?vid=afd98b4d-f75a-4e82-beca-4b0996b353b3"},"vehicle_type_id":"4","last_reported":1746454260,"current_range_meters":14000,"station_id":"ce4bhm92rcd13ifvqglg","pricing_plan_id":"cebpf4jnsgd1na2vs0mg"},{"bike_id":"284ce50b-711e-47eb-a4b3-46491a8a2e9a","system_id":"levelo_inurba_marseille","lat":43.26947,"lon":5.38623,"is_reserved":false,"is_disabled":false,"rental_uris":{"android":"levelo://app?vid=284ce50b-711e-47eb-a4b3-46491a8a2e9a","ios":"levelo://app?vid=284ce50b-711e-47eb-a4b3-46491a8a2e9a"},"vehicle_type_id":"4","last_reported":1746454260,"current_range_meters":14000,"station_id":"ce4bhh92rcd13ifvqfh0","pricing_plan_id":"cebpf4jnsgd1na2vs0mg"},{"bike_id":"0c377d9d-9a3a-47a7-9944-6039314b5e15","system_id":"levelo_inurba_marseille","lat":43.245852,"lon":5.404954,"is_reserved":false,"is_disabled":false,"rental_uris":{"android":"levelo://app?vid=0c377d9d-9a3a-47a7-9944-6039314b5e15","ios":"levelo://app?vid=0c377d9d-9a3a-47a7-9944-6039314b5e15"},"vehicle_type_id":"4","last_reported":1746454260,"current_range_meters":14400,"station_id":"","pricing_plan_id":"cebpf4jnsgd1na2vs0mg"},{"bike_id":"0d68f75a-d843-4c35-91ab-4307e5fc3f48","system_id":"levelo_inurba_marseille","lat":43.24175,"lon":5.39737,"is_reserved":false,"is_disabled":false,"rental_uris":{"android":"levelo://app?vid=0d68f75a-d843-4c35-91ab-4307e5fc3f48","ios":"levelo://app?vid=0d68f75a-d843-4c35-91ab-4307e5fc3f48"},"vehicle_type_id":"4","last_reported":1746454260,"current_range_meters":14800,"station_id":"ce4bhn12rcd13ifvqgpg","pricing_plan_id":"cebpf4jnsgd1na2vs0mg"},{"bike_id":"53bffe96-90ed-4ef0-bddd-80d33659c6df","system_id":"levelo_inurba_marseille","lat":43.26806,"lon":5.4027,"is_reserved":false,"is_disabled":false,"rental_uris":{"android":"levelo://app?vid=53bffe96-90ed-4ef0-bddd-80d33659c6df","ios":"levelo://app?vid=53bffe96-90ed-4ef0-bddd-80d33659c6df"},"vehicle_type_id":"4","last_reported":1746454260,"current_range_meters":14800,"station_id":"ce501612rcd8frsf0b60","pricing_plan_id":"cebpf4jnsgd1na2vs0mg"},{"bike_id":"bff49253-c096-4b8e-a270-da7ad053d738","system_id":"levelo_inurba_marseille","lat":43.31162,"lon":5.387,"is_reserved":false,"is_disabled":false,"rental_uris":{"android":"levelo://app?vid=bff49253-c096-4b8e-a270-da7ad053d738","ios":"levelo://app?vid=bff49253-c096-4b8e-a270-da7ad053d738"},"vehicle_type_id":"4","last_reported":1746454260,"current_range_meters":14800,"station_id":"ce4bgv12rcd13ifvqcp0","pricing_plan_id":"cebpf4jnsgd1na2vs0mg"},{"bike_id":"05a84f69-0592-442a-b098-6253d0b70e9e","system_id":"levelo_inurba_marseille","lat":43.29991,"lon":5.3725,"is_reserved":false,"is_disabled":false,"rental_uris":{"android":"levelo://app?vid=05a84f69-0592-442a-b098-6253d0b70e9e","ios":"levelo://app?vid=05a84f69-0592-442a-b098-6253d0b70e9e"},"vehicle_type_id":"4","last_reported":1746454260,"current_range_meters":14800,"station_id":"","pricing_plan_id":"cebpf4jnsgd1na2vs0mg"},{"bike_id":"91201383-39c7-42c7-91d8-e5b2ca2fb6e1","system_id":"levelo_inurba_marseille","lat":43.30547,"lon":5.36549,"is_reserved":false,"is_disabled":false,"rental_uris":{"android":"levelo://app?vid=91201383-39c7-42c7-91d8-e5b2ca2fb6e1","ios":"levelo://app?vid=91201383-39c7-42c7-91d8-e5b2ca2fb6e1"},"vehicle_type_id":"4","last_reported":1746454260,"current_range_meters":14800,"station_id":"ce4bgs12rcd13ifvqcag","pricing_plan_id":"cebpf4jnsgd1na2vs0mg"},{"bike_id":"94e4bd09-832d-43d5-9c6b-2a96ad855091","system_id":"levelo_inurba_marseille","lat":43.26214,"lon":5.3797,"is_reserved":false,"is_disabled":false,"rental_uris":{"android":"levelo://app?vid=94e4bd09-832d-43d5-9c6b-2a96ad855091","ios":"levelo://app?vid=94e4bd09-832d-43d5-9c6b-2a96ad855091"},"vehicle_type_id":"4","last_reported":1746454260,"current_range_meters":15200,"station_id":"ce4bhjp2rcd13ifvqg90","pricing_plan_id":"cebpf4jnsgd1na2vs0mg"},{"bike_id":"a46b5721-597c-404e-8ddb-3ba6469f967d","system_id":"levelo_inurba_marseille","lat":43.23188,"lon":5.35572,"is_reserved":false,"is_disabled":false,"rental_uris":{"android":"levelo://app?vid=a46b5721-597c-404e-8ddb-3ba6469f967d","ios":"levelo://app?vid=a46b5721-597c-404e-8ddb-3ba6469f967d"},"vehicle_type_id":"4","last_reported":1746454260,"current_range_meters":15200,"station_id":"ce4bhu92rcd13ifvqi70","pricing_plan_id":"cebpf4jnsgd1na2vs0mg"},{"bike_id":"0f83f29e-00b1-42f0-a1ff-a5607c13931c","system_id":"levelo_inurba_marseille","lat":43.24663,"lon":5.38165,"is_reserved":false,"is_disabled":false,"rental_uris":{"android":"levelo://app?vid=0f83f29e-00b1-42f0-a1ff-a5607c13931c","ios":"levelo://app?vid=0f83f29e-00b1-42f0-a1ff-a5607c13931c"},"vehicle_type_id":"4","last_reported":1746454260,"current_range_meters":14800,"station_id":"ce4bhih2rcd13ifvqfr0","pricing_plan_id":"cebpf4jnsgd1na2vs0mg"},{"bike_id":"277c8e8e-2303-40c7-a756-4bbb32b78c9d","system_id":"levelo_inurba_marseille","lat":43.310728,"lon":5.424442,"is_reserved":false,"is_disabled":false,"rental_uris":{"android":"levelo://app?vid=277c8e8e-2303-40c7-a756-4bbb32b78c9d","ios":"levelo://app?vid=277c8e8e-2303-40c7-a756-4bbb32b78c9d"},"vehicle_type_id":"4","last_reported":1746454260,"current_range_meters":15200,"station_id":"ce4bhp92rcd13ifvqhag","pricing_plan_id":"cebpf4jnsgd1na2vs0mg"},{"bike_id":"13b9e824-5dfc-4697-95e0-a654b921b7e3","system_id":"levelo_inurba_marseille","lat":43.32471,"lon":5.36566,"is_reserved":false,"is_disabled":false,"rental_uris":{"android":"levelo://app?vid=13b9e824-5dfc-4697-95e0-a654b921b7e3","ios":"levelo://app?vid=13b9e824-5dfc-4697-95e0-a654b921b7e3"},"vehicle_type_id":"4","last_reported":1746454260,"current_range_meters":14800,"station_id":"ce4bhs12rcd13ifvqhvg","pricing_plan_id":"cebpf4jnsgd1na2vs0mg"},{"bike_id":"db607aba-0db6-423b-a818-c23224727203","system_id":"levelo_inurba_marseille","lat":43.23155,"lon":5.43701,"is_reserved":false,"is_disabled":false,"rental_uris":{"android":"levelo://app?vid=db607aba-0db6-423b-a818-c23224727203","ios":"levelo://app?vid=db607aba-0db6-423b-a818-c23224727203"},"vehicle_type_id":"4","last_reported":1746454260,"current_range_meters":16000,"station_id":"ce4bhmp2rcd13ifvqgog","pricing_plan_id":"cebpf4jnsgd1na2vs0mg"},{"bike_id":"f36953ba-9561-4b07-b1e1-3cf7ce3d6f83","system_id":"levelo_inurba_marseille","lat":43.29005,"lon":5.35605,"is_reserved":false,"is_disabled":false,"rental_uris":{"android":"levelo://app?vid=f36953ba-9561-4b07-b1e1-3cf7ce3d6f83","ios":"levelo://app?vid=f36953ba-9561-4b07-b1e1-3cf7ce3d6f83"},"vehicle_type_id":"4","last_reported":1746454260,"current_range_meters":16400,"station_id":"ce4bhb92rcd13ifvqen0","pricing_plan_id":"cebpf4jnsgd1na2vs0mg"},{"bike_id":"d2cdff3e-610c-47f6-9a92-3063f8bd03ae","system_id":"levelo_inurba_marseille","lat":43.32046,"lon":5.41597,"is_reserved":false,"is_disabled":false,"rental_uris":{"android":"levelo://app?vid=d2cdff3e-610c-47f6-9a92-3063f8bd03ae","ios":"levelo://app?vid=d2cdff3e-610c-47f6-9a92-3063f8bd03ae"},"vehicle_type_id":"4","last_reported":1746454260,"current_range_meters":16400,"station_id":"ce4bhq92rcd13ifvqhkg","pricing_plan_id":"cebpf4jnsgd1na2vs0mg"},{"bike_id":"965291f3-964e-4452-9fb6-06c27ec19d47","system_id":"levelo_inurba_marseille","lat":43.32028,"lon":5.41546,"is_reserved":false,"is_disabled":false,"rental_uris":{"android":"levelo://app?vid=965291f3-964e-4452-9fb6-06c27ec19d47","ios":"levelo://app?vid=965291f3-964e-4452-9fb6-06c27ec19d47"},"vehicle_type_id":"4","last_reported":1746454260,"current_range_meters":16400,"station_id":"ce4bhq92rcd13ifvqhkg","pricing_plan_id":"cebpf4jnsgd1na2vs0mg"},{"bike_id":"85a52d35-b4b8-43e3-a7b8-21ef26fbab4e","system_id":"levelo_inurba_marseille","lat":43.23192,"lon":5.35555,"is_reserved":false,"is_disabled":false,"rental_uris":{"android":"levelo://app?vid=85a52d35-b4b8-43e3-a7b8-21ef26fbab4e","ios":"levelo://app?vid=85a52d35-b4b8-43e3-a7b8-21ef26fbab4e"},"vehicle_type_id":"4","last_reported":1746454260,"current_range_meters":16400,"station_id":"ce4bhu92rcd13ifvqi70","pricing_plan_id":"cebpf4jnsgd1na2vs0mg"},{"bike_id":"c9592205-9409-4f74-aed1-7c4141a58caa","system_id":"levelo_inurba_marseille","lat":43.27134,"lon":5.36363,"is_reserved":false,"is_disabled":false,"rental_uris":{"android":"levelo://app?vid=c9592205-9409-4f74-aed1-7c4141a58caa","ios":"levelo://app?vid=c9592205-9409-4f74-aed1-7c4141a58caa"},"vehicle_type_id":"4","last_reported":1746454260,"current_range_meters":16400,"station_id":"","pricing_plan_id":"cebpf4jnsgd1na2vs0mg"},{"bike_id":"383d07d6-6391-4741-add0-739b20b00e96","system_id":"levelo_inurba_marseille","lat":43.26206,"lon":5.37441,"is_reserved":false,"is_disabled":false,"rental_uris":{"android":"levelo://app?vid=383d07d6-6391-4741-add0-739b20b00e96","ios":"levelo://app?vid=383d07d6-6391-4741-add0-739b20b00e96"},"vehicle_type_id":"4","last_reported":1746454260,"current_range_meters":16400,"station_id":"ce4bhgp2rcd13ifvqfc0","pricing_plan_id":"cebpf4jnsgd1na2vs0mg"},{"bike_id":"aec1c2d9-1387-43dc-8bd6-73652e164a3c","system_id":"levelo_inurba_marseille","lat":43.30555,"lon":5.36535,"is_reserved":false,"is_disabled":false,"rental_uris":{"android":"levelo://app?vid=aec1c2d9-1387-43dc-8bd6-73652e164a3c","ios":"levelo://app?vid=aec1c2d9-1387-43dc-8bd6-73652e164a3c"},"vehicle_type_id":"4","last_reported":1746454260,"current_range_meters":16800,"station_id":"ce4bgs12rcd13ifvqcag","pricing_plan_id":"cebpf4jnsgd1na2vs0mg"},{"bike_id":"2fa95b26-39f0-40f0-ba6f-0d80973b2f74","system_id":"levelo_inurba_marseille","lat":43.25933,"lon":5.40911,"is_reserved":false,"is_disabled":false,"rental_uris":{"android":"levelo://app?vid=2fa95b26-39f0-40f0-ba6f-0d80973b2f74","ios":"levelo://app?vid=2fa95b26-39f0-40f0-ba6f-0d80973b2f74"},"vehicle_type_id":"4","last_reported":1746454260,"current_range_meters":16800,"station_id":"ce4bhm92rcd13ifvqglg","pricing_plan_id":"cebpf4jnsgd1na2vs0mg"},{"bike_id":"ff318078-4859-4840-8af0-e9e519fafc50","system_id":"levelo_inurba_marseille","lat":43.25937,"lon":5.40918,"is_reserved":false,"is_disabled":false,"rental_uris":{"android":"levelo://app?vid=ff318078-4859-4840-8af0-e9e519fafc50","ios":"levelo://app?vid=ff318078-4859-4840-8af0-e9e519fafc50"},"vehicle_type_id":"4","last_reported":1746454260,"current_range_meters":16800,"station_id":"ce4bhm92rcd13ifvqglg","pricing_plan_id":"cebpf4jnsgd1na2vs0mg"},{"bike_id":"af5e13ed-acf1-4224-abb0-760ca6c13e74","system_id":"levelo_inurba_marseille","lat":43.32663,"lon":5.40994,"is_reserved":false,"is_disabled":false,"rental_uris":{"android":"levelo://app?vid=af5e13ed-acf1-4224-abb0-760ca6c13e74","ios":"levelo://app?vid=af5e13ed-acf1-4224-abb0-760ca6c13e74"},"vehicle_type_id":"4","last_reported":1746454260,"current_range_meters":16800,"station_id":"ce4bhpp2rcd13ifvqhgg","pricing_plan_id":"cebpf4jnsgd1na2vs0mg"},{"bike_id":"7ca09d8d-51db-4057-abe2-e9c1bdbcdfac","system_id":"levelo_inurba_marseille","lat":43.22921,"lon":5.35381,"is_reserved":false,"is_disabled":false,"rental_uris":{"android":"levelo://app?vid=7ca09d8d-51db-4057-abe2-e9c1bdbcdfac","ios":"levelo://app?vid=7ca09d8d-51db-4057-abe2-e9c1bdbcdfac"},"vehicle_type_id":"4","last_reported":1746454260,"current_range_meters":16800,"station_id":"cpo3532slgdg3j2ikp40","pricing_plan_id":"cebpf4jnsgd1na2vs0mg"},{"bike_id":"10901646-5e9a-465b-a824-8498d77bfc3b","system_id":"levelo_inurba_marseille","lat":43.27206,"lon":5.39177,"is_reserved":false,"is_disabled":false,"rental_uris":{"android":"levelo://app?vid=10901646-5e9a-465b-a824-8498d77bfc3b","ios":"levelo://app?vid=10901646-5e9a-465b-a824-8498d77bfc3b"},"vehicle_type_id":"4","last_reported":1746454260,"current_range_meters":16400,"station_id":"ce4bhhp2rcd13ifvqfm0","pricing_plan_id":"cebpf4jnsgd1na2vs0mg"},{"bike_id":"211680dd-3877-4247-9f82-33eb9d715163","system_id":"levelo_inurba_marseille","lat":43.27075,"lon":5.42279,"is_reserved":false,"is_disabled":false,"rental_uris":{"android":"levelo://app?vid=211680dd-3877-4247-9f82-33eb9d715163","ios":"levelo://app?vid=211680dd-3877-4247-9f82-33eb9d715163"},"vehicle_type_id":"4","last_reported":1746454260,"current_range_meters":17200,"station_id":"ce4bhk92rcd13ifvqgb0","pricing_plan_id":"cebpf4jnsgd1na2vs0mg"},{"bike_id":"feea0fac-8de3-4222-b590-d8ef47f5ce3f","system_id":"levelo_inurba_marseille","lat":43.31081,"lon":5.42432,"is_reserved":false,"is_disabled":false,"rental_uris":{"android":"levelo://app?vid=feea0fac-8de3-4222-b590-d8ef47f5ce3f","ios":"levelo://app?vid=feea0fac-8de3-4222-b590-d8ef47f5ce3f"},"vehicle_type_id":"4","last_reported":1746454260,"current_range_meters":17200,"station_id":"ce4bhp92rcd13ifvqhag","pricing_plan_id":"cebpf4jnsgd1na2vs0mg"},{"bike_id":"4b873aef-2707-4dd7-9822-e333d4e35007","system_id":"levelo_inurba_marseille","lat":43.27202,"lon":5.39182,"is_reserved":false,"is_disabled":false,"rental_uris":{"android":"levelo://app?vid=4b873aef-2707-4dd7-9822-e333d4e35007","ios":"levelo://app?vid=4b873aef-2707-4dd7-9822-e333d4e35007"},"vehicle_type_id":"4","last_reported":1746454260,"current_range_meters":16800,"station_id":"ce4bhhp2rcd13ifvqfm0","pricing_plan_id":"cebpf4jnsgd1na2vs0mg"},{"bike_id":"e44814ea-0ae9-475f-a6ff-b84ef95d31b8","system_id":"levelo_inurba_marseille","lat":43.28697,"lon":5.37393,"is_reserved":false,"is_disabled":false,"rental_uris":{"android":"levelo://app?vid=e44814ea-0ae9-475f-a6ff-b84ef95d31b8","ios":"levelo://app?vid=e44814ea-0ae9-475f-a6ff-b84ef95d31b8"},"vehicle_type_id":"4","last_reported":1746454260,"current_range_meters":16800,"station_id":"ce4bh3p2rcd13ifvqdq0","pricing_plan_id":"cebpf4jnsgd1na2vs0mg"},{"bike_id":"99097e50-dd2e-47c3-a879-f48655baf4d9","system_id":"levelo_inurba_marseille","lat":43.245918,"lon":5.408313,"is_reserved":false,"is_disabled":false,"rental_uris":{"android":"levelo://app?vid=99097e50-dd2e-47c3-a879-f48655baf4d9","ios":"levelo://app?vid=99097e50-dd2e-47c3-a879-f48655baf4d9"},"vehicle_type_id":"4","last_reported":1746454260,"current_range_meters":17200,"station_id":"","pricing_plan_id":"cebpf4jnsgd1na2vs0mg"},{"bike_id":"296c67b4-37e7-4de9-b97f-c8a1a7bd7ccb","system_id":"levelo_inurba_marseille","lat":43.29374,"lon":5.37843,"is_reserved":false,"is_disabled":false,"rental_uris":{"android":"levelo://app?vid=296c67b4-37e7-4de9-b97f-c8a1a7bd7ccb","ios":"levelo://app?vid=296c67b4-37e7-4de9-b97f-c8a1a7bd7ccb"},"vehicle_type_id":"4","last_reported":1746454260,"current_range_meters":16800,"station_id":"ce4bgjh2rcd13ifvqbf0","pricing_plan_id":"cebpf4jnsgd1na2vs0mg"},{"bike_id":"da92c2dc-1090-4004-b71f-849dd06538ef","system_id":"levelo_inurba_marseille","lat":43.2958,"lon":5.36746,"is_reserved":false,"is_disabled":false,"rental_uris":{"android":"levelo://app?vid=da92c2dc-1090-4004-b71f-849dd06538ef","ios":"levelo://app?vid=da92c2dc-1090-4004-b71f-849dd06538ef"},"vehicle_type_id":"4","last_reported":1746454260,"current_range_meters":17200,"station_id":"ce4bgph2rcd13ifvqc2g","pricing_plan_id":"cebpf4jnsgd1na2vs0mg"},{"bike_id":"655663e5-5e8e-46d8-91ec-f352114a28bc","system_id":"levelo_inurba_marseille","lat":43.29422,"lon":5.38631,"is_reserved":false,"is_disabled":false,"rental_uris":{"android":"levelo://app?vid=655663e5-5e8e-46d8-91ec-f352114a28bc","ios":"levelo://app?vid=655663e5-5e8e-46d8-91ec-f352114a28bc"},"vehicle_type_id":"4","last_reported":1746454260,"current_range_meters":17200,"station_id":"ce4bh2h2rcd13ifvqdh0","pricing_plan_id":"cebpf4jnsgd1na2vs0mg"},{"bike_id":"9349c7c9-2416-48ab-b54e-85f6fc522fab","system_id":"levelo_inurba_marseille","lat":43.31991,"lon":5.3815,"is_reserved":false,"is_disabled":false,"rental_uris":{"android":"levelo://app?vid=9349c7c9-2416-48ab-b54e-85f6fc522fab","ios":"levelo://app?vid=9349c7c9-2416-48ab-b54e-85f6fc522fab"},"vehicle_type_id":"4","last_reported":1746454260,"current_range_meters":17200,"station_id":"ce4bhr12rcd13ifvqhpg","pricing_plan_id":"cebpf4jnsgd1na2vs0mg"},{"bike_id":"e3bb4c0a-ea28-4d8b-a92a-340ecfdd5f1d","system_id":"levelo_inurba_marseille","lat":43.31074,"lon":5.375557,"is_reserved":false,"is_disabled":false,"rental_uris":{"android":"levelo://app?vid=e3bb4c0a-ea28-4d8b-a92a-340ecfdd5f1d","ios":"levelo://app?vid=e3bb4c0a-ea28-4d8b-a92a-340ecfdd5f1d"},"vehicle_type_id":"4","last_reported":1746454260,"current_range_meters":17600,"station_id":"","pricing_plan_id":"cebpf4jnsgd1na2vs0mg"},{"bike_id":"d9766e1c-c799-4d16-aa57-1d47be3d5579","system_id":"levelo_inurba_marseille","lat":43.32666,"lon":5.40415,"is_reserved":false,"is_disabled":false,"rental_uris":{"android":"levelo://app?vid=d9766e1c-c799-4d16-aa57-1d47be3d5579","ios":"levelo://app?vid=d9766e1c-c799-4d16-aa57-1d47be3d5579"},"vehicle_type_id":"4","last_reported":1746454260,"current_range_meters":17600,"station_id":"","pricing_plan_id":"cebpf4jnsgd1na2vs0mg"},{"bike_id":"88655495-4ee5-4dd1-837f-e71713b8e190","system_id":"levelo_inurba_marseille","lat":43.29538,"lon":5.39404,"is_reserved":false,"is_disabled":false,"rental_uris":{"android":"levelo://app?vid=88655495-4ee5-4dd1-837f-e71713b8e190","ios":"levelo://app?vid=88655495-4ee5-4dd1-837f-e71713b8e190"},"vehicle_type_id":"4","last_reported":1746454260,"current_range_meters":17600,"station_id":"ce4bh292rcd13ifvqdf0","pricing_plan_id":"cebpf4jnsgd1na2vs0mg"},{"bike_id":"bfb768d4-db43-4db8-8659-afeb33dd4edd","system_id":"levelo_inurba_marseille","lat":43.30743,"lon":5.42469,"is_reserved":false,"is_disabled":false,"rental_uris":{"android":"levelo://app?vid=bfb768d4-db43-4db8-8659-afeb33dd4edd","ios":"levelo://app?vid=bfb768d4-db43-4db8-8659-afeb33dd4edd"},"vehicle_type_id":"4","last_reported":1746454260,"current_range_meters":17600,"station_id":"st_cvj6ca6bvosntc0bfgr0","pricing_plan_id":"cebpf4jnsgd1na2vs0mg"},{"bike_id":"3f84d55c-f7b3-443f-a8ba-1f83ba8291a2","system_id":"levelo_inurba_marseille","lat":43.21191,"lon":5.35077,"is_reserved":false,"is_disabled":false,"rental_uris":{"android":"levelo://app?vid=3f84d55c-f7b3-443f-a8ba-1f83ba8291a2","ios":"levelo://app?vid=3f84d55c-f7b3-443f-a8ba-1f83ba8291a2"},"vehicle_type_id":"4","last_reported":1746454260,"current_range_meters":17600,"station_id":"st_cvj6sg6p6f1abm77japg","pricing_plan_id":"cebpf4jnsgd1na2vs0mg"},{"bike_id":"54579c78-9716-491b-8525-820002530dbd","system_id":"levelo_inurba_marseille","lat":43.31364,"lon":5.36704,"is_reserved":false,"is_disabled":false,"rental_uris":{"android":"levelo://app?vid=54579c78-9716-491b-8525-820002530dbd","ios":"levelo://app?vid=54579c78-9716-491b-8525-820002530dbd"},"vehicle_type_id":"4","last_reported":1746454260,"current_range_meters":17600,"station_id":"ce4bgr92rcd13ifvqc6g","pricing_plan_id":"cebpf4jnsgd1na2vs0mg"},{"bike_id":"a663771d-95dc-4674-ad1c-415719945ba3","system_id":"levelo_inurba_marseille","lat":43.32358,"lon":5.38892,"is_reserved":false,"is_disabled":false,"rental_uris":{"android":"levelo://app?vid=a663771d-95dc-4674-ad1c-415719945ba3","ios":"levelo://app?vid=a663771d-95dc-4674-ad1c-415719945ba3"},"vehicle_type_id":"4","last_reported":1746454260,"current_range_meters":17600,"station_id":"ce4bhqp2rcd13ifvqhog","pricing_plan_id":"cebpf4jnsgd1na2vs0mg"},{"bike_id":"52c7845f-3df4-48a3-8205-c5ead357aecb","system_id":"levelo_inurba_marseille","lat":43.30543,"lon":5.36527,"is_reserved":false,"is_disabled":false,"rental_uris":{"android":"levelo://app?vid=52c7845f-3df4-48a3-8205-c5ead357aecb","ios":"levelo://app?vid=52c7845f-3df4-48a3-8205-c5ead357aecb"},"vehicle_type_id":"4","last_reported":1746454260,"current_range_meters":18000,"station_id":"ce4bgs12rcd13ifvqcag","pricing_plan_id":"cebpf4jnsgd1na2vs0mg"},{"bike_id":"5987d684-ebbc-4e3b-9225-d827a0b9ff39","system_id":"levelo_inurba_marseille","lat":43.23962,"lon":5.36646,"is_reserved":false,"is_disabled":false,"rental_uris":{"android":"levelo://app?vid=5987d684-ebbc-4e3b-9225-d827a0b9ff39","ios":"levelo://app?vid=5987d684-ebbc-4e3b-9225-d827a0b9ff39"},"vehicle_type_id":"4","last_reported":1746454260,"current_range_meters":18000,"station_id":"ce4bhi12rcd13ifvqfp0","pricing_plan_id":"cebpf4jnsgd1na2vs0mg"},{"bike_id":"fa115b12-8a00-4ce5-b679-7f353c5129c9","system_id":"levelo_inurba_marseille","lat":43.24378,"lon":5.37067,"is_reserved":false,"is_disabled":false,"rental_uris":{"android":"levelo://app?vid=fa115b12-8a00-4ce5-b679-7f353c5129c9","ios":"levelo://app?vid=fa115b12-8a00-4ce5-b679-7f353c5129c9"},"vehicle_type_id":"4","last_reported":1746454260,"current_range_meters":18000,"station_id":"ce4bhhh2rcd13ifvqfk0","pricing_plan_id":"cebpf4jnsgd1na2vs0mg"},{"bike_id":"4f526f60-bc59-452e-b197-f17f6098a3e0","system_id":"levelo_inurba_marseille","lat":43.29573,"lon":5.37525,"is_reserved":false,"is_disabled":false,"rental_uris":{"android":"levelo://app?vid=4f526f60-bc59-452e-b197-f17f6098a3e0","ios":"levelo://app?vid=4f526f60-bc59-452e-b197-f17f6098a3e0"},"vehicle_type_id":"4","last_reported":1746454260,"current_range_meters":18000,"station_id":"ce4bgh92rcd13ifvqb50","pricing_plan_id":"cebpf4jnsgd1na2vs0mg"},{"bike_id":"8614d70c-5274-4c95-bda3-d1d7ed02fdda","system_id":"levelo_inurba_marseille","lat":43.32363,"lon":5.36755,"is_reserved":false,"is_disabled":false,"rental_uris":{"android":"levelo://app?vid=8614d70c-5274-4c95-bda3-d1d7ed02fdda","ios":"levelo://app?vid=8614d70c-5274-4c95-bda3-d1d7ed02fdda"},"vehicle_type_id":"4","last_reported":1746454260,"current_range_meters":18000,"station_id":"ce4bhsh2rcd13ifvqi2g","pricing_plan_id":"cebpf4jnsgd1na2vs0mg"},{"bike_id":"daf0b953-fe3b-4640-8739-f4d4bd8ddf62","system_id":"levelo_inurba_marseille","lat":43.27207,"lon":5.39171,"is_reserved":false,"is_disabled":false,"rental_uris":{"android":"levelo://app?vid=daf0b953-fe3b-4640-8739-f4d4bd8ddf62","ios":"levelo://app?vid=daf0b953-fe3b-4640-8739-f4d4bd8ddf62"},"vehicle_type_id":"4","last_reported":1746454260,"current_range_meters":18800,"station_id":"ce4bhhp2rcd13ifvqfm0","pricing_plan_id":"cebpf4jnsgd1na2vs0mg"},{"bike_id":"a07db7df-d212-4a63-ba71-2fc2a43e04a0","system_id":"levelo_inurba_marseille","lat":43.31709,"lon":5.437,"is_reserved":false,"is_disabled":false,"rental_uris":{"android":"levelo://app?vid=a07db7df-d212-4a63-ba71-2fc2a43e04a0","ios":"levelo://app?vid=a07db7df-d212-4a63-ba71-2fc2a43e04a0"},"vehicle_type_id":"4","last_reported":1746454260,"current_range_meters":18800,"station_id":"ce4bhp92rcd13ifvqhcg","pricing_plan_id":"cebpf4jnsgd1na2vs0mg"},{"bike_id":"edead994-a10d-404e-8fdc-c6f988bdd343","system_id":"levelo_inurba_marseille","lat":43.31384,"lon":5.36786,"is_reserved":false,"is_disabled":false,"rental_uris":{"android":"levelo://app?vid=edead994-a10d-404e-8fdc-c6f988bdd343","ios":"levelo://app?vid=edead994-a10d-404e-8fdc-c6f988bdd343"},"vehicle_type_id":"4","last_reported":1746454260,"current_range_meters":19200,"station_id":"","pricing_plan_id":"cebpf4jnsgd1na2vs0mg"},{"bike_id":"4fbb6c6b-2018-4290-a812-641a2ebf7fff","system_id":"levelo_inurba_marseille","lat":43.33159,"lon":5.3817,"is_reserved":false,"is_disabled":false,"rental_uris":{"android":"levelo://app?vid=4fbb6c6b-2018-4290-a812-641a2ebf7fff","ios":"levelo://app?vid=4fbb6c6b-2018-4290-a812-641a2ebf7fff"},"vehicle_type_id":"4","last_reported":1746454260,"current_range_meters":19200,"station_id":"","pricing_plan_id":"cebpf4jnsgd1na2vs0mg"},{"bike_id":"e7a31cdb-38f9-4c94-a21c-5240691908db","system_id":"levelo_inurba_marseille","lat":43.28097,"lon":5.37828,"is_reserved":false,"is_disabled":false,"rental_uris":{"android":"levelo://app?vid=e7a31cdb-38f9-4c94-a21c-5240691908db","ios":"levelo://app?vid=e7a31cdb-38f9-4c94-a21c-5240691908db"},"vehicle_type_id":"4","last_reported":1746454260,"current_range_meters":19200,"station_id":"ce4bha12rcd13ifvqee0","pricing_plan_id":"cebpf4jnsgd1na2vs0mg"},{"bike_id":"90acacad-1138-4e83-96e1-adf1bf07611f","system_id":"levelo_inurba_marseille","lat":43.30538,"lon":5.36701,"is_reserved":false,"is_disabled":false,"rental_uris":{"android":"levelo://app?vid=90acacad-1138-4e83-96e1-adf1bf07611f","ios":"levelo://app?vid=90acacad-1138-4e83-96e1-adf1bf07611f"},"vehicle_type_id":"4","last_reported":1746454260,"current_range_meters":19200,"station_id":"ce4bgrp2rcd13ifvqc9g","pricing_plan_id":"cebpf4jnsgd1na2vs0mg"},{"bike_id":"b0393bc3-3c0f-4f80-9e5e-a3e097417a57","system_id":"levelo_inurba_marseille","lat":43.27621,"lon":5.38952,"is_reserved":false,"is_disabled":false,"rental_uris":{"android":"levelo://app?vid=b0393bc3-3c0f-4f80-9e5e-a3e097417a57","ios":"levelo://app?vid=b0393bc3-3c0f-4f80-9e5e-a3e097417a57"},"vehicle_type_id":"4","last_reported":1746454260,"current_range_meters":19600,"station_id":"","pricing_plan_id":"cebpf4jnsgd1na2vs0mg"},{"bike_id":"051318c2-c4d5-4b21-8f51-c6900b1acc31","system_id":"levelo_inurba_marseille","lat":43.25573,"lon":5.38226,"is_reserved":false,"is_disabled":false,"rental_uris":{"android":"levelo://app?vid=051318c2-c4d5-4b21-8f51-c6900b1acc31","ios":"levelo://app?vid=051318c2-c4d5-4b21-8f51-c6900b1acc31"},"vehicle_type_id":"4","last_reported":1746454260,"current_range_meters":19600,"station_id":"ce4bhih2rcd13ifvqfs0","pricing_plan_id":"cebpf4jnsgd1na2vs0mg"},{"bike_id":"671eaa72-e53a-466a-8a75-fadf305abbfe","system_id":"levelo_inurba_marseille","lat":43.29257,"lon":5.37637,"is_reserved":false,"is_disabled":false,"rental_uris":{"android":"levelo://app?vid=671eaa72-e53a-466a-8a75-fadf305abbfe","ios":"levelo://app?vid=671eaa72-e53a-466a-8a75-fadf305abbfe"},"vehicle_type_id":"4","last_reported":1746454260,"current_range_meters":19600,"station_id":"ce4bgi12rcd13ifvqb80","pricing_plan_id":"cebpf4jnsgd1na2vs0mg"},{"bike_id":"89d3f377-5a64-405e-ad75-45e8469ae3f6","system_id":"levelo_inurba_marseille","lat":43.26937,"lon":5.40269,"is_reserved":false,"is_disabled":true,"rental_uris":{"android":"levelo://app?vid=89d3f377-5a64-405e-ad75-45e8469ae3f6","ios":"levelo://app?vid=89d3f377-5a64-405e-ad75-45e8469ae3f6"},"vehicle_type_id":"4","last_reported":1746454260,"current_range_meters":19600,"station_id":"cjm6bp8fraef2m0cb0m0","pricing_plan_id":"cebpf4jnsgd1na2vs0mg"},{"bike_id":"a327ed7c-cb3d-44b1-bb3d-7951cd226f01","system_id":"levelo_inurba_marseille","lat":43.293396,"lon":5.371296,"is_reserved":false,"is_disabled":false,"rental_uris":{"android":"levelo://app?vid=a327ed7c-cb3d-44b1-bb3d-7951cd226f01","ios":"levelo://app?vid=a327ed7c-cb3d-44b1-bb3d-7951cd226f01"},"vehicle_type_id":"4","last_reported":1746454260,"current_range_meters":19600,"station_id":"","pricing_plan_id":"cebpf4jnsgd1na2vs0mg"},{"bike_id":"3ac30178-3ad7-4fed-8407-9fa9cc8e5156","system_id":"levelo_inurba_marseille","lat":43.31704,"lon":5.43697,"is_reserved":false,"is_disabled":false,"rental_uris":{"android":"levelo://app?vid=3ac30178-3ad7-4fed-8407-9fa9cc8e5156","ios":"levelo://app?vid=3ac30178-3ad7-4fed-8407-9fa9cc8e5156"},"vehicle_type_id":"4","last_reported":1746454260,"current_range_meters":19600,"station_id":"ce4bhp92rcd13ifvqhcg","pricing_plan_id":"cebpf4jnsgd1na2vs0mg"},{"bike_id":"13d72c90-097d-44e3-a161-c92142027aeb","system_id":"levelo_inurba_marseille","lat":43.32117,"lon":5.36808,"is_reserved":false,"is_disabled":false,"rental_uris":{"android":"levelo://app?vid=13d72c90-097d-44e3-a161-c92142027aeb","ios":"levelo://app?vid=13d72c90-097d-44e3-a161-c92142027aeb"},"vehicle_type_id":"4","last_reported":1746454260,"current_range_meters":19600,"station_id":"ce4bhrh2rcd13ifvqhug","pricing_plan_id":"cebpf4jnsgd1na2vs0mg"},{"bike_id":"11fc333e-a6ef-4e35-8386-14da5aeaff85","system_id":"levelo_inurba_marseille","lat":43.317554,"lon":5.390142,"is_reserved":false,"is_disabled":false,"rental_uris":{"android":"levelo://app?vid=11fc333e-a6ef-4e35-8386-14da5aeaff85","ios":"levelo://app?vid=11fc333e-a6ef-4e35-8386-14da5aeaff85"},"vehicle_type_id":"4","last_reported":1746454260,"current_range_meters":16000,"station_id":"ce4bhqp2rcd13ifvqhng","pricing_plan_id":"cebpf4jnsgd1na2vs0mg"},{"bike_id":"d31b1d72-4def-4add-bb0b-027e54546f3f","system_id":"levelo_inurba_marseille","lat":43.29905,"lon":5.38142,"is_reserved":false,"is_disabled":false,"rental_uris":{"android":"levelo://app?vid=d31b1d72-4def-4add-bb0b-027e54546f3f","ios":"levelo://app?vid=d31b1d72-4def-4add-bb0b-027e54546f3f"},"vehicle_type_id":"4","last_reported":1746454260,"current_range_meters":19200,"station_id":"ce4bgj12rcd13ifvqbc0","pricing_plan_id":"cebpf4jnsgd1na2vs0mg"},{"bike_id":"49e6f1a0-3667-46b6-bb46-ba8d71b1df96","system_id":"levelo_inurba_marseille","lat":43.21738,"lon":5.3461,"is_reserved":false,"is_disabled":false,"rental_uris":{"android":"levelo://app?vid=49e6f1a0-3667-46b6-bb46-ba8d71b1df96","ios":"levelo://app?vid=49e6f1a0-3667-46b6-bb46-ba8d71b1df96"},"vehicle_type_id":"4","last_reported":1746454260,"current_range_meters":20000,"station_id":"st_cvj6r9ubvosntc0bgbag","pricing_plan_id":"cebpf4jnsgd1na2vs0mg"},{"bike_id":"1fb3a17c-1d22-4607-9e35-504f3f0f1b25","system_id":"levelo_inurba_marseille","lat":43.24805,"lon":5.37456,"is_reserved":false,"is_disabled":false,"rental_uris":{"android":"levelo://app?vid=1fb3a17c-1d22-4607-9e35-504f3f0f1b25","ios":"levelo://app?vid=1fb3a17c-1d22-4607-9e35-504f3f0f1b25"},"vehicle_type_id":"4","last_reported":1746454260,"current_range_meters":19600,"station_id":"ce4bhgh2rcd13ifvqfb0","pricing_plan_id":"cebpf4jnsgd1na2vs0mg"},{"bike_id":"2c1818b5-aab3-4ef8-b1ca-d3af6200ed13","system_id":"levelo_inurba_marseille","lat":43.21182,"lon":5.35091,"is_reserved":false,"is_disabled":false,"rental_uris":{"android":"levelo://app?vid=2c1818b5-aab3-4ef8-b1ca-d3af6200ed13","ios":"levelo://app?vid=2c1818b5-aab3-4ef8-b1ca-d3af6200ed13"},"vehicle_type_id":"4","last_reported":1746454260,"current_range_meters":20000,"station_id":"st_cvj6sg6p6f1abm77japg","pricing_plan_id":"cebpf4jnsgd1na2vs0mg"},{"bike_id":"a2da58c1-2339-443c-9ea1-65f7b1d58d47","system_id":"levelo_inurba_marseille","lat":43.30877,"lon":5.37191,"is_reserved":false,"is_disabled":false,"rental_uris":{"android":"levelo://app?vid=a2da58c1-2339-443c-9ea1-65f7b1d58d47","ios":"levelo://app?vid=a2da58c1-2339-443c-9ea1-65f7b1d58d47"},"vehicle_type_id":"4","last_reported":1746454260,"current_range_meters":20000,"station_id":"ce4bguh2rcd13ifvqckg","pricing_plan_id":"cebpf4jnsgd1na2vs0mg"},{"bike_id":"1babb40a-8458-422d-91d6-d94c058ed2e9","system_id":"levelo_inurba_marseille","lat":43.28457,"lon":5.35893,"is_reserved":false,"is_disabled":false,"rental_uris":{"android":"levelo://app?vid=1babb40a-8458-422d-91d6-d94c058ed2e9","ios":"levelo://app?vid=1babb40a-8458-422d-91d6-d94c058ed2e9"},"vehicle_type_id":"4","last_reported":1746454260,"current_range_meters":20400,"station_id":"ce4bhah2rcd13ifvqei0","pricing_plan_id":"cebpf4jnsgd1na2vs0mg"},{"bike_id":"70be3a1f-a1b3-4008-83c8-721d8bb981c3","system_id":"levelo_inurba_marseille","lat":43.29283,"lon":5.40119,"is_reserved":false,"is_disabled":false,"rental_uris":{"android":"levelo://app?vid=70be3a1f-a1b3-4008-83c8-721d8bb981c3","ios":"levelo://app?vid=70be3a1f-a1b3-4008-83c8-721d8bb981c3"},"vehicle_type_id":"4","last_reported":1746454260,"current_range_meters":20000,"station_id":"ce4bh312rcd13ifvqdk0","pricing_plan_id":"cebpf4jnsgd1na2vs0mg"},{"bike_id":"12dc9bdd-d0bb-494a-809b-23a81d99772f","system_id":"levelo_inurba_marseille","lat":43.275676,"lon":5.384358,"is_reserved":false,"is_disabled":false,"rental_uris":{"android":"levelo://app?vid=12dc9bdd-d0bb-494a-809b-23a81d99772f","ios":"levelo://app?vid=12dc9bdd-d0bb-494a-809b-23a81d99772f"},"vehicle_type_id":"4","last_reported":1746454260,"current_range_meters":20400,"station_id":"ce4bhh92rcd13ifvqfi0","pricing_plan_id":"cebpf4jnsgd1na2vs0mg"},{"bike_id":"91ccb5f4-40f8-49d9-8d5f-0a4465869c98","system_id":"levelo_inurba_marseille","lat":43.23196,"lon":5.35551,"is_reserved":false,"is_disabled":false,"rental_uris":{"android":"levelo://app?vid=91ccb5f4-40f8-49d9-8d5f-0a4465869c98","ios":"levelo://app?vid=91ccb5f4-40f8-49d9-8d5f-0a4465869c98"},"vehicle_type_id":"4","last_reported":1746454260,"current_range_meters":20400,"station_id":"ce4bhu92rcd13ifvqi70","pricing_plan_id":"cebpf4jnsgd1na2vs0mg"},{"bike_id":"52d3e2ca-e216-4fd4-a95b-543c00b01230","system_id":"levelo_inurba_marseille","lat":43.30551,"lon":5.36526,"is_reserved":false,"is_disabled":false,"rental_uris":{"android":"levelo://app?vid=52d3e2ca-e216-4fd4-a95b-543c00b01230","ios":"levelo://app?vid=52d3e2ca-e216-4fd4-a95b-543c00b01230"},"vehicle_type_id":"4","last_reported":1746454260,"current_range_meters":20400,"station_id":"ce4bgs12rcd13ifvqcag","pricing_plan_id":"cebpf4jnsgd1na2vs0mg"},{"bike_id":"524d7376-7e6d-43cb-ac79-021988ff3766","system_id":"levelo_inurba_marseille","lat":43.24173,"lon":5.39733,"is_reserved":false,"is_disabled":false,"rental_uris":{"android":"levelo://app?vid=524d7376-7e6d-43cb-ac79-021988ff3766","ios":"levelo://app?vid=524d7376-7e6d-43cb-ac79-021988ff3766"},"vehicle_type_id":"4","last_reported":1746454260,"current_range_meters":20400,"station_id":"ce4bhn12rcd13ifvqgpg","pricing_plan_id":"cebpf4jnsgd1na2vs0mg"},{"bike_id":"7cd4fcf1-0a5a-421d-b3a0-82965edbe3ed","system_id":"levelo_inurba_marseille","lat":43.29779,"lon":5.39338,"is_reserved":false,"is_disabled":false,"rental_uris":{"android":"levelo://app?vid=7cd4fcf1-0a5a-421d-b3a0-82965edbe3ed","ios":"levelo://app?vid=7cd4fcf1-0a5a-421d-b3a0-82965edbe3ed"},"vehicle_type_id":"4","last_reported":1746454260,"current_range_meters":20000,"station_id":"chh1huq6cuj3fo74tm60","pricing_plan_id":"cebpf4jnsgd1na2vs0mg"},{"bike_id":"aedf92eb-5daa-463f-aeb4-66f949caaeb6","system_id":"levelo_inurba_marseille","lat":43.30523,"lon":5.36536,"is_reserved":false,"is_disabled":false,"rental_uris":{"android":"levelo://app?vid=aedf92eb-5daa-463f-aeb4-66f949caaeb6","ios":"levelo://app?vid=aedf92eb-5daa-463f-aeb4-66f949caaeb6"},"vehicle_type_id":"4","last_reported":1746454260,"current_range_meters":20800,"station_id":"ce4bgs12rcd13ifvqcag","pricing_plan_id":"cebpf4jnsgd1na2vs0mg"},{"bike_id":"0b4e07c8-93da-4fbe-9000-1c0e1bc66f26","system_id":"levelo_inurba_marseille","lat":43.31123,"lon":5.37764,"is_reserved":false,"is_disabled":false,"rental_uris":{"android":"levelo://app?vid=0b4e07c8-93da-4fbe-9000-1c0e1bc66f26","ios":"levelo://app?vid=0b4e07c8-93da-4fbe-9000-1c0e1bc66f26"},"vehicle_type_id":"4","last_reported":1746454260,"current_range_meters":20800,"station_id":"ce4bgt92rcd13ifvqcg0","pricing_plan_id":"cebpf4jnsgd1na2vs0mg"},{"bike_id":"44496384-61d0-4fad-99d2-b003c939d4ec","system_id":"levelo_inurba_marseille","lat":43.30938,"lon":5.371923,"is_reserved":false,"is_disabled":false,"rental_uris":{"android":"levelo://app?vid=44496384-61d0-4fad-99d2-b003c939d4ec","ios":"levelo://app?vid=44496384-61d0-4fad-99d2-b003c939d4ec"},"vehicle_type_id":"4","last_reported":1746454260,"current_range_meters":20800,"station_id":"ce4bguh2rcd13ifvqckg","pricing_plan_id":"cebpf4jnsgd1na2vs0mg"},{"bike_id":"47fc4ea7-f15c-4083-9613-8858b28ef5cf","system_id":"levelo_inurba_marseille","lat":43.3024,"lon":5.40074,"is_reserved":false,"is_disabled":false,"rental_uris":{"android":"levelo://app?vid=47fc4ea7-f15c-4083-9613-8858b28ef5cf","ios":"levelo://app?vid=47fc4ea7-f15c-4083-9613-8858b28ef5cf"},"vehicle_type_id":"4","last_reported":1746454260,"current_range_meters":20800,"station_id":"ce4bgvh2rcd13ifvqcs0","pricing_plan_id":"cebpf4jnsgd1na2vs0mg"},{"bike_id":"a72bda5a-953f-4faf-a346-2babba838b24","system_id":"levelo_inurba_marseille","lat":43.27988,"lon":5.40017,"is_reserved":false,"is_disabled":false,"rental_uris":{"android":"levelo://app?vid=a72bda5a-953f-4faf-a346-2babba838b24","ios":"levelo://app?vid=a72bda5a-953f-4faf-a346-2babba838b24"},"vehicle_type_id":"4","last_reported":1746454260,"current_range_meters":20400,"station_id":"ce4bho92rcd13ifvqh4g","pricing_plan_id":"cebpf4jnsgd1na2vs0mg"},{"bike_id":"a61d672b-4cf5-4ee5-bceb-8d3d8d43216a","system_id":"levelo_inurba_marseille","lat":43.29839,"lon":5.3625,"is_reserved":false,"is_disabled":false,"rental_uris":{"android":"levelo://app?vid=a61d672b-4cf5-4ee5-bceb-8d3d8d43216a","ios":"levelo://app?vid=a61d672b-4cf5-4ee5-bceb-8d3d8d43216a"},"vehicle_type_id":"4","last_reported":1746454260,"current_range_meters":20800,"station_id":"ce4bgpp2rcd13ifvqc3g","pricing_plan_id":"cebpf4jnsgd1na2vs0mg"},{"bike_id":"f8e746a9-a88e-4900-9a98-1d55869b307b","system_id":"levelo_inurba_marseille","lat":43.25138,"lon":5.40346,"is_reserved":false,"is_disabled":false,"rental_uris":{"android":"levelo://app?vid=f8e746a9-a88e-4900-9a98-1d55869b307b","ios":"levelo://app?vid=f8e746a9-a88e-4900-9a98-1d55869b307b"},"vehicle_type_id":"4","last_reported":1746454260,"current_range_meters":21600,"station_id":"ce4bhlh2rcd13ifvqgig","pricing_plan_id":"cebpf4jnsgd1na2vs0mg"},{"bike_id":"a44a345e-0993-4d4c-8eee-e9de57c5c1b0","system_id":"levelo_inurba_marseille","lat":43.24804,"lon":5.37456,"is_reserved":false,"is_disabled":false,"rental_uris":{"android":"levelo://app?vid=a44a345e-0993-4d4c-8eee-e9de57c5c1b0","ios":"levelo://app?vid=a44a345e-0993-4d4c-8eee-e9de57c5c1b0"},"vehicle_type_id":"4","last_reported":1746454260,"current_range_meters":21600,"station_id":"ce4bhgh2rcd13ifvqfb0","pricing_plan_id":"cebpf4jnsgd1na2vs0mg"},{"bike_id":"08a183fe-69cb-4cf8-812d-35615b7f3672","system_id":"levelo_inurba_marseille","lat":43.29447,"lon":5.39741,"is_reserved":false,"is_disabled":false,"rental_uris":{"android":"levelo://app?vid=08a183fe-69cb-4cf8-812d-35615b7f3672","ios":"levelo://app?vid=08a183fe-69cb-4cf8-812d-35615b7f3672"},"vehicle_type_id":"4","last_reported":1746454260,"current_range_meters":20800,"station_id":"ce4bh3h2rcd13ifvqdo0","pricing_plan_id":"cebpf4jnsgd1na2vs0mg"},{"bike_id":"6076519d-9e56-4116-ac3f-cf1b55b1f768","system_id":"levelo_inurba_marseille","lat":43.24177,"lon":5.39713,"is_reserved":false,"is_disabled":false,"rental_uris":{"android":"levelo://app?vid=6076519d-9e56-4116-ac3f-cf1b55b1f768","ios":"levelo://app?vid=6076519d-9e56-4116-ac3f-cf1b55b1f768"},"vehicle_type_id":"4","last_reported":1746454260,"current_range_meters":21600,"station_id":"ce4bhn12rcd13ifvqgpg","pricing_plan_id":"cebpf4jnsgd1na2vs0mg"},{"bike_id":"2e84f43e-daee-4e53-a9f5-17df7e6534b4","system_id":"levelo_inurba_marseille","lat":43.25133,"lon":5.40341,"is_reserved":false,"is_disabled":false,"rental_uris":{"android":"levelo://app?vid=2e84f43e-daee-4e53-a9f5-17df7e6534b4","ios":"levelo://app?vid=2e84f43e-daee-4e53-a9f5-17df7e6534b4"},"vehicle_type_id":"4","last_reported":1746454260,"current_range_meters":22000,"station_id":"ce4bhlh2rcd13ifvqgig","pricing_plan_id":"cebpf4jnsgd1na2vs0mg"},{"bike_id":"913ccfc5-350e-41a5-9b6d-15fc5f52aebe","system_id":"levelo_inurba_marseille","lat":43.29193,"lon":5.39318,"is_reserved":false,"is_disabled":false,"rental_uris":{"android":"levelo://app?vid=913ccfc5-350e-41a5-9b6d-15fc5f52aebe","ios":"levelo://app?vid=913ccfc5-350e-41a5-9b6d-15fc5f52aebe"},"vehicle_type_id":"4","last_reported":1746454260,"current_range_meters":21600,"station_id":"ce4bh192rcd13ifvqdd0","pricing_plan_id":"cebpf4jnsgd1na2vs0mg"},{"bike_id":"6983b309-f30a-4a98-b53b-2dda7c6ed5c3","system_id":"levelo_inurba_marseille","lat":43.32524,"lon":5.41449,"is_reserved":false,"is_disabled":false,"rental_uris":{"android":"levelo://app?vid=6983b309-f30a-4a98-b53b-2dda7c6ed5c3","ios":"levelo://app?vid=6983b309-f30a-4a98-b53b-2dda7c6ed5c3"},"vehicle_type_id":"4","last_reported":1746454260,"current_range_meters":22400,"station_id":"ce4bhq12rcd13ifvqhhg","pricing_plan_id":"cebpf4jnsgd1na2vs0mg"},{"bike_id":"f0ffb4d3-077d-491c-8502-34e1576c626b","system_id":"levelo_inurba_marseille","lat":43.31754,"lon":5.39014,"is_reserved":false,"is_disabled":false,"rental_uris":{"android":"levelo://app?vid=f0ffb4d3-077d-491c-8502-34e1576c626b","ios":"levelo://app?vid=f0ffb4d3-077d-491c-8502-34e1576c626b"},"vehicle_type_id":"4","last_reported":1746454260,"current_range_meters":22400,"station_id":"ce4bhqp2rcd13ifvqhng","pricing_plan_id":"cebpf4jnsgd1na2vs0mg"},{"bike_id":"0b384b91-e925-40de-8399-2437d592aa2b","system_id":"levelo_inurba_marseille","lat":43.30545,"lon":5.36538,"is_reserved":false,"is_disabled":false,"rental_uris":{"android":"levelo://app?vid=0b384b91-e925-40de-8399-2437d592aa2b","ios":"levelo://app?vid=0b384b91-e925-40de-8399-2437d592aa2b"},"vehicle_type_id":"4","last_reported":1746454260,"current_range_meters":22400,"station_id":"ce4bgs12rcd13ifvqcag","pricing_plan_id":"cebpf4jnsgd1na2vs0mg"},{"bike_id":"a5282e01-c144-4546-bc32-08cfde33aa76","system_id":"levelo_inurba_marseille","lat":43.28429,"lon":5.39207,"is_reserved":false,"is_disabled":false,"rental_uris":{"android":"levelo://app?vid=a5282e01-c144-4546-bc32-08cfde33aa76","ios":"levelo://app?vid=a5282e01-c144-4546-bc32-08cfde33aa76"},"vehicle_type_id":"4","last_reported":1746454260,"current_range_meters":22800,"station_id":"ce4bhoh2rcd13ifvqh5g","pricing_plan_id":"cebpf4jnsgd1na2vs0mg"},{"bike_id":"390d8d1d-e806-48a6-89b7-ae11f3bd5d29","system_id":"levelo_inurba_marseille","lat":43.30936,"lon":5.40146,"is_reserved":false,"is_disabled":false,"rental_uris":{"android":"levelo://app?vid=390d8d1d-e806-48a6-89b7-ae11f3bd5d29","ios":"levelo://app?vid=390d8d1d-e806-48a6-89b7-ae11f3bd5d29"},"vehicle_type_id":"4","last_reported":1746454260,"current_range_meters":22800,"station_id":"ce4bgvp2rcd13ifvqct0","pricing_plan_id":"cebpf4jnsgd1na2vs0mg"},{"bike_id":"275e4ea3-24aa-48fb-89c9-c9046d107077","system_id":"levelo_inurba_marseille","lat":43.31705,"lon":5.37728,"is_reserved":false,"is_disabled":false,"rental_uris":{"android":"levelo://app?vid=275e4ea3-24aa-48fb-89c9-c9046d107077","ios":"levelo://app?vid=275e4ea3-24aa-48fb-89c9-c9046d107077"},"vehicle_type_id":"4","last_reported":1746454260,"current_range_meters":22800,"station_id":"ce4bgth2rcd13ifvqch0","pricing_plan_id":"cebpf4jnsgd1na2vs0mg"},{"bike_id":"8514f9d6-b38c-4cc5-9c2c-62f80bea6c09","system_id":"levelo_inurba_marseille","lat":43.27936,"lon":5.41036,"is_reserved":false,"is_disabled":false,"rental_uris":{"android":"levelo://app?vid=8514f9d6-b38c-4cc5-9c2c-62f80bea6c09","ios":"levelo://app?vid=8514f9d6-b38c-4cc5-9c2c-62f80bea6c09"},"vehicle_type_id":"4","last_reported":1746454260,"current_range_meters":22800,"station_id":"ce4bhnp2rcd13ifvqh0g","pricing_plan_id":"cebpf4jnsgd1na2vs0mg"},{"bike_id":"f4f6f1b7-8fd6-4ed6-bf5e-e0ce83bb46bb","system_id":"levelo_inurba_marseille","lat":43.25926,"lon":5.40896,"is_reserved":false,"is_disabled":false,"rental_uris":{"android":"levelo://app?vid=f4f6f1b7-8fd6-4ed6-bf5e-e0ce83bb46bb","ios":"levelo://app?vid=f4f6f1b7-8fd6-4ed6-bf5e-e0ce83bb46bb"},"vehicle_type_id":"4","last_reported":1746454260,"current_range_meters":22800,"station_id":"ce4bhm92rcd13ifvqglg","pricing_plan_id":"cebpf4jnsgd1na2vs0mg"},{"bike_id":"1d93dc16-0832-499f-9386-5e2a1697fc1a","system_id":"levelo_inurba_marseille","lat":43.2983,"lon":5.37414,"is_reserved":false,"is_disabled":false,"rental_uris":{"android":"levelo://app?vid=1d93dc16-0832-499f-9386-5e2a1697fc1a","ios":"levelo://app?vid=1d93dc16-0832-499f-9386-5e2a1697fc1a"},"vehicle_type_id":"4","last_reported":1746454260,"current_range_meters":22800,"station_id":"","pricing_plan_id":"cebpf4jnsgd1na2vs0mg"},{"bike_id":"ac700e2e-c129-4f82-a3c3-f628077933a6","system_id":"levelo_inurba_marseille","lat":43.21187,"lon":5.35075,"is_reserved":false,"is_disabled":false,"rental_uris":{"android":"levelo://app?vid=ac700e2e-c129-4f82-a3c3-f628077933a6","ios":"levelo://app?vid=ac700e2e-c129-4f82-a3c3-f628077933a6"},"vehicle_type_id":"4","last_reported":1746454260,"current_range_meters":22800,"station_id":"st_cvj6sg6p6f1abm77japg","pricing_plan_id":"cebpf4jnsgd1na2vs0mg"},{"bike_id":"1fe19f58-befd-40d0-91c8-0ebba9fd3884","system_id":"levelo_inurba_marseille","lat":43.27564,"lon":5.38406,"is_reserved":false,"is_disabled":false,"rental_uris":{"android":"levelo://app?vid=1fe19f58-befd-40d0-91c8-0ebba9fd3884","ios":"levelo://app?vid=1fe19f58-befd-40d0-91c8-0ebba9fd3884"},"vehicle_type_id":"4","last_reported":1746454260,"current_range_meters":22400,"station_id":"ce4bhh92rcd13ifvqfi0","pricing_plan_id":"cebpf4jnsgd1na2vs0mg"},{"bike_id":"2c924610-9a69-4637-be4b-9aafbcedc4cb","system_id":"levelo_inurba_marseille","lat":43.24675,"lon":5.38157,"is_reserved":false,"is_disabled":false,"rental_uris":{"android":"levelo://app?vid=2c924610-9a69-4637-be4b-9aafbcedc4cb","ios":"levelo://app?vid=2c924610-9a69-4637-be4b-9aafbcedc4cb"},"vehicle_type_id":"4","last_reported":1746454260,"current_range_meters":22800,"station_id":"ce4bhih2rcd13ifvqfr0","pricing_plan_id":"cebpf4jnsgd1na2vs0mg"},{"bike_id":"b63a1629-9673-4dd3-9321-4292c219b5d2","system_id":"levelo_inurba_marseille","lat":43.29533,"lon":5.37492,"is_reserved":false,"is_disabled":false,"rental_uris":{"android":"levelo://app?vid=b63a1629-9673-4dd3-9321-4292c219b5d2","ios":"levelo://app?vid=b63a1629-9673-4dd3-9321-4292c219b5d2"},"vehicle_type_id":"4","last_reported":1746454260,"current_range_meters":23200,"station_id":"ce4bgkp2rcd13ifvqbmg","pricing_plan_id":"cebpf4jnsgd1na2vs0mg"},{"bike_id":"8fa70930-3d89-410a-8a0d-ae58e85113d9","system_id":"levelo_inurba_marseille","lat":43.33754,"lon":5.37498,"is_reserved":false,"is_disabled":false,"rental_uris":{"android":"levelo://app?vid=8fa70930-3d89-410a-8a0d-ae58e85113d9","ios":"levelo://app?vid=8fa70930-3d89-410a-8a0d-ae58e85113d9"},"vehicle_type_id":"4","last_reported":1746454260,"current_range_meters":23200,"station_id":"","pricing_plan_id":"cebpf4jnsgd1na2vs0mg"},{"bike_id":"e527ef27-5bcf-4396-8f2f-bc967090cb06","system_id":"levelo_inurba_marseille","lat":43.29535,"lon":5.37498,"is_reserved":false,"is_disabled":false,"rental_uris":{"android":"levelo://app?vid=e527ef27-5bcf-4396-8f2f-bc967090cb06","ios":"levelo://app?vid=e527ef27-5bcf-4396-8f2f-bc967090cb06"},"vehicle_type_id":"4","last_reported":1746454260,"current_range_meters":23200,"station_id":"ce4bgkp2rcd13ifvqbmg","pricing_plan_id":"cebpf4jnsgd1na2vs0mg"},{"bike_id":"f3c2ae2d-0ae8-4978-9125-4ce618f8c7aa","system_id":"levelo_inurba_marseille","lat":43.24177,"lon":5.39721,"is_reserved":false,"is_disabled":false,"rental_uris":{"android":"levelo://app?vid=f3c2ae2d-0ae8-4978-9125-4ce618f8c7aa","ios":"levelo://app?vid=f3c2ae2d-0ae8-4978-9125-4ce618f8c7aa"},"vehicle_type_id":"4","last_reported":1746454260,"current_range_meters":23200,"station_id":"ce4bhn12rcd13ifvqgpg","pricing_plan_id":"cebpf4jnsgd1na2vs0mg"},{"bike_id":"65e7af88-08c9-47e6-a441-f86f0a81473d","system_id":"levelo_inurba_marseille","lat":43.28436,"lon":5.392,"is_reserved":false,"is_disabled":false,"rental_uris":{"android":"levelo://app?vid=65e7af88-08c9-47e6-a441-f86f0a81473d","ios":"levelo://app?vid=65e7af88-08c9-47e6-a441-f86f0a81473d"},"vehicle_type_id":"4","last_reported":1746454260,"current_range_meters":23200,"station_id":"ce4bhoh2rcd13ifvqh5g","pricing_plan_id":"cebpf4jnsgd1na2vs0mg"},{"bike_id":"b4216838-733b-46cd-aae7-8693e0287a61","system_id":"levelo_inurba_marseille","lat":43.22921,"lon":5.35379,"is_reserved":false,"is_disabled":false,"rental_uris":{"android":"levelo://app?vid=b4216838-733b-46cd-aae7-8693e0287a61","ios":"levelo://app?vid=b4216838-733b-46cd-aae7-8693e0287a61"},"vehicle_type_id":"4","last_reported":1746454260,"current_range_meters":23200,"station_id":"cpo3532slgdg3j2ikp40","pricing_plan_id":"cebpf4jnsgd1na2vs0mg"},{"bike_id":"1d80598a-0996-47bb-996c-589c32ceb57b","system_id":"levelo_inurba_marseille","lat":43.230557,"lon":5.354877,"is_reserved":false,"is_disabled":false,"rental_uris":{"android":"levelo://app?vid=1d80598a-0996-47bb-996c-589c32ceb57b","ios":"levelo://app?vid=1d80598a-0996-47bb-996c-589c32ceb57b"},"vehicle_type_id":"4","last_reported":1746454260,"current_range_meters":24000,"station_id":"cpo3342slgdg3j2ifvpg","pricing_plan_id":"cebpf4jnsgd1na2vs0mg"},{"bike_id":"43c5485d-06ed-451f-bc1f-812a0afc8c31","system_id":"levelo_inurba_marseille","lat":43.29667,"lon":5.36037,"is_reserved":false,"is_disabled":false,"rental_uris":{"android":"levelo://app?vid=43c5485d-06ed-451f-bc1f-812a0afc8c31","ios":"levelo://app?vid=43c5485d-06ed-451f-bc1f-812a0afc8c31"},"vehicle_type_id":"4","last_reported":1746454260,"current_range_meters":24000,"station_id":"","pricing_plan_id":"cebpf4jnsgd1na2vs0mg"},{"bike_id":"ebb3f176-d133-4ccc-8191-8a3c1893e108","system_id":"levelo_inurba_marseille","lat":43.2593,"lon":5.40911,"is_reserved":false,"is_disabled":false,"rental_uris":{"android":"levelo://app?vid=ebb3f176-d133-4ccc-8191-8a3c1893e108","ios":"levelo://app?vid=ebb3f176-d133-4ccc-8191-8a3c1893e108"},"vehicle_type_id":"4","last_reported":1746454260,"current_range_meters":24000,"station_id":"ce4bhm92rcd13ifvqglg","pricing_plan_id":"cebpf4jnsgd1na2vs0mg"},{"bike_id":"87470c34-0138-4fc5-962a-73384fac1d10","system_id":"levelo_inurba_marseille","lat":43.30538,"lon":5.36671,"is_reserved":false,"is_disabled":false,"rental_uris":{"android":"levelo://app?vid=87470c34-0138-4fc5-962a-73384fac1d10","ios":"levelo://app?vid=87470c34-0138-4fc5-962a-73384fac1d10"},"vehicle_type_id":"4","last_reported":1746454260,"current_range_meters":24000,"station_id":"ce4bgrp2rcd13ifvqc9g","pricing_plan_id":"cebpf4jnsgd1na2vs0mg"},{"bike_id":"76b2e26a-d1ed-47f3-a49b-06681f98f27f","system_id":"levelo_inurba_marseille","lat":43.231958,"lon":5.355559,"is_reserved":false,"is_disabled":false,"rental_uris":{"android":"levelo://app?vid=76b2e26a-d1ed-47f3-a49b-06681f98f27f","ios":"levelo://app?vid=76b2e26a-d1ed-47f3-a49b-06681f98f27f"},"vehicle_type_id":"4","last_reported":1746454260,"current_range_meters":24000,"station_id":"ce4bhu92rcd13ifvqi70","pricing_plan_id":"cebpf4jnsgd1na2vs0mg"},{"bike_id":"2fa0b816-7ec6-4882-9376-089f3a9e406c","system_id":"levelo_inurba_marseille","lat":43.33755,"lon":5.37482,"is_reserved":false,"is_disabled":false,"rental_uris":{"android":"levelo://app?vid=2fa0b816-7ec6-4882-9376-089f3a9e406c","ios":"levelo://app?vid=2fa0b816-7ec6-4882-9376-089f3a9e406c"},"vehicle_type_id":"4","last_reported":1746454260,"current_range_meters":24000,"station_id":"","pricing_plan_id":"cebpf4jnsgd1na2vs0mg"},{"bike_id":"3fd0ba29-65b6-4d26-b8f0-0d5bd44edbca","system_id":"levelo_inurba_marseille","lat":43.305338,"lon":5.365384,"is_reserved":false,"is_disabled":false,"rental_uris":{"android":"levelo://app?vid=3fd0ba29-65b6-4d26-b8f0-0d5bd44edbca","ios":"levelo://app?vid=3fd0ba29-65b6-4d26-b8f0-0d5bd44edbca"},"vehicle_type_id":"4","last_reported":1746454260,"current_range_meters":24400,"station_id":"ce4bgs12rcd13ifvqcag","pricing_plan_id":"cebpf4jnsgd1na2vs0mg"},{"bike_id":"9c3b9e33-6131-436f-a0bd-6ce00b9d515a","system_id":"levelo_inurba_marseille","lat":43.31224,"lon":5.36856,"is_reserved":false,"is_disabled":false,"rental_uris":{"android":"levelo://app?vid=9c3b9e33-6131-436f-a0bd-6ce00b9d515a","ios":"levelo://app?vid=9c3b9e33-6131-436f-a0bd-6ce00b9d515a"},"vehicle_type_id":"4","last_reported":1746454260,"current_range_meters":24400,"station_id":"ce4bgl92rcd13ifvqbq0","pricing_plan_id":"cebpf4jnsgd1na2vs0mg"},{"bike_id":"1e141fa0-6067-46da-b1ad-a364afdafa0a","system_id":"levelo_inurba_marseille","lat":43.30541,"lon":5.36531,"is_reserved":false,"is_disabled":false,"rental_uris":{"android":"levelo://app?vid=1e141fa0-6067-46da-b1ad-a364afdafa0a","ios":"levelo://app?vid=1e141fa0-6067-46da-b1ad-a364afdafa0a"},"vehicle_type_id":"4","last_reported":1746454260,"current_range_meters":24400,"station_id":"ce4bgs12rcd13ifvqcag","pricing_plan_id":"cebpf4jnsgd1na2vs0mg"},{"bike_id":"62aeba84-32e0-4faa-9f97-c449e29550dc","system_id":"levelo_inurba_marseille","lat":43.296977,"lon":5.390672,"is_reserved":false,"is_disabled":false,"rental_uris":{"android":"levelo://app?vid=62aeba84-32e0-4faa-9f97-c449e29550dc","ios":"levelo://app?vid=62aeba84-32e0-4faa-9f97-c449e29550dc"},"vehicle_type_id":"4","last_reported":1746454260,"current_range_meters":24000,"station_id":"ce4bh192rcd13ifvqdd0","pricing_plan_id":"cebpf4jnsgd1na2vs0mg"},{"bike_id":"b4bac287-3615-423a-bca2-a11fb80cb066","system_id":"levelo_inurba_marseille","lat":43.2305,"lon":5.355,"is_reserved":false,"is_disabled":false,"rental_uris":{"android":"levelo://app?vid=b4bac287-3615-423a-bca2-a11fb80cb066","ios":"levelo://app?vid=b4bac287-3615-423a-bca2-a11fb80cb066"},"vehicle_type_id":"4","last_reported":1746454260,"current_range_meters":24400,"station_id":"cpo3342slgdg3j2ifvpg","pricing_plan_id":"cebpf4jnsgd1na2vs0mg"},{"bike_id":"0071601a-345e-48df-965d-a3dfe2f050ec","system_id":"levelo_inurba_marseille","lat":43.29043,"lon":5.35922,"is_reserved":false,"is_disabled":false,"rental_uris":{"android":"levelo://app?vid=0071601a-345e-48df-965d-a3dfe2f050ec","ios":"levelo://app?vid=0071601a-345e-48df-965d-a3dfe2f050ec"},"vehicle_type_id":"4","last_reported":1746454260,"current_range_meters":24400,"station_id":"ce4bha92rcd13ifvqeg0","pricing_plan_id":"cebpf4jnsgd1na2vs0mg"},{"bike_id":"d8335d22-67e6-4497-9d95-611f5a019dd6","system_id":"levelo_inurba_marseille","lat":43.30541,"lon":5.36519,"is_reserved":false,"is_disabled":false,"rental_uris":{"android":"levelo://app?vid=d8335d22-67e6-4497-9d95-611f5a019dd6","ios":"levelo://app?vid=d8335d22-67e6-4497-9d95-611f5a019dd6"},"vehicle_type_id":"4","last_reported":1746454260,"current_range_meters":24400,"station_id":"ce4bgs12rcd13ifvqcag","pricing_plan_id":"cebpf4jnsgd1na2vs0mg"},{"bike_id":"da6471f1-a387-4088-a1da-2a7e12212668","system_id":"levelo_inurba_marseille","lat":43.30548,"lon":5.36523,"is_reserved":false,"is_disabled":false,"rental_uris":{"android":"levelo://app?vid=da6471f1-a387-4088-a1da-2a7e12212668","ios":"levelo://app?vid=da6471f1-a387-4088-a1da-2a7e12212668"},"vehicle_type_id":"4","last_reported":1746454260,"current_range_meters":24400,"station_id":"ce4bgs12rcd13ifvqcag","pricing_plan_id":"cebpf4jnsgd1na2vs0mg"},{"bike_id":"0d97ed33-7f7a-4e53-a4e7-6d65a819ae87","system_id":"levelo_inurba_marseille","lat":43.29556,"lon":5.42296,"is_reserved":false,"is_disabled":false,"rental_uris":{"android":"levelo://app?vid=0d97ed33-7f7a-4e53-a4e7-6d65a819ae87","ios":"levelo://app?vid=0d97ed33-7f7a-4e53-a4e7-6d65a819ae87"},"vehicle_type_id":"4","last_reported":1746454260,"current_range_meters":24000,"station_id":"ce4bhph2rcd13ifvqhdg","pricing_plan_id":"cebpf4jnsgd1na2vs0mg"},