{"last_updated":1741475269,"ttl":60,"version":"2.2","data":{"bikes":[{"bike_id":"4ed10b44-88a8-4dec-99db-545daad23c1c","system_id":"levelo_inurba_marseille","lat":43.23963,"lon":5.36629,"is_reserved":false,"is_disabled":false,"rental_uris":{"android":"levelo://app?vid=4ed10b44-88a8-4dec-99db-545daad23c1c","ios":"levelo://app?vid=4ed10b44-88a8-4dec-99db-545daad23c1c"},"vehicle_type_id":"4","last_reported":1741475269,"current_range_meters":2800,"station_id":"ce4bhi12rcd13ifvqfp0","pricing_plan_id":"cebpf4jnsgd1na2vs0mg"},{"bike_id":"cfac2935-1e31-4562-8b3a-3bde623c75b3","system_id":"levelo_inurba_marseille","lat":43.2981,"lon":5.40421,"is_reserved":false,"is_disabled":true,"rental_uris":{"android":"levelo://app?vid=cfac2935-1e31-4562-8b3a-3bde623c75b3","ios":"levelo://app?vid=cfac2935-1e31-4562-8b3a-3bde623c75b3"},"vehicle_type_id":"4","last_reported":1741475269,"current_range_meters":2800,"station_id":"ce4bh112rcd13ifvqd90","pricing_plan_id":"cebpf4jnsgd1na2vs0mg"},{"bike_id":"bdb8a2d4-d070-49d3-9d48-7784fe93d362","system_id":"levelo_inurba_marseille","lat":43.29443,"lon":5.39747,"is_reserved":false,"is_disabled":false,"rental_uris":{"android":"levelo://app?vid=bdb8a2d4-d070-49d3-9d48-7784fe93d362","ios":"levelo://app?vid=bdb8a2d4-d070-49d3-9d48-7784fe93d362"},"vehicle_type_id":"4","last_reported":1741475269,"current_range_meters":3200,"station_id":"ce4bh3h2rcd13ifvqdo0","pricing_plan_id":"cebpf4jnsgd1na2vs0mg"},{"bike_id":"2737fd1a-40ed-4641-92ed-54b0ab059c8e","system_id":"levelo_inurba_marseille","lat":43.24813,"lon":5.37458,"is_reserved":false,"is_disabled":false,"rental_uris":{"android":"levelo://app?vid=2737fd1a-40ed-4641-92ed-54b0ab059c8e","ios":"levelo://app?vid=2737fd1a-40ed-4641-92ed-54b0ab059c8e"},"vehicle_type_id":"4","last_reported":1741475269,"current_range_meters":2800,"station_id":"ce4bhgh2rcd13ifvqfb0","pricing_plan_id":"cebpf4jnsgd1na2vs0mg"},{"bike_id":"1ab6788d-f577-4761-8229-003a5e91597b","system_id":"levelo_inurba_marseille","lat":43.25863,"lon":5.39899,"is_reserved":false,"is_disabled":false,"rental_uris":{"android":"levelo://app?vid=1ab6788d-f577-4761-8229-003a5e91597b","ios":"levelo://app?vid=1ab6788d-f577-4761-8229-003a5e91597b"},"vehicle_type_id":"4","last_reported":1741475269,"current_range_meters":3200,"station_id":"ce4bhl92rcd13ifvqghg","pricing_plan_id":"cebpf4jnsgd1na2vs0mg"},{"bike_id":"89b9b55a-1392-498d-b8a5-8520a39c9a74","system_id":"levelo_inurba_marseille","lat":43.29175,"lon":5.40186,"is_reserved":false,"is_disabled":true,"rental_uris":{"android":"levelo://app?vid=89b9b55a-1392-498d-b8a5-8520a39c9a74","ios":"levelo://app?vid=89b9b55a-1392-498d-b8a5-8520a39c9a74"},"vehicle_type_id":"4","last_reported":1741475269,"current_range_meters":3200,"station_id":"","pricing_plan_id":"cebpf4jnsgd1na2vs0mg"},{"bike_id":"ef841903-cdc0-4227-af7f-cb9f26dc3c9b","system_id":"levelo_inurba_marseille","lat":43.314075,"lon":5.392649,"is_reserved":false,"is_disabled":false,"rental_uris":{"android":"levelo://app?vid=ef841903-cdc0-4227-af7f-cb9f26dc3c9b","ios":"levelo://app?vid=ef841903-cdc0-4227-af7f-cb9f26dc3c9b"},"vehicle_type_id":"4","last_reported":1741475269,"current_range_meters":3200,"station_id":"","pricing_plan_id":"cebpf4jnsgd1na2vs0mg"},{"bike_id":"83c30ce6-d287-45bf-b3e2-8a24662ca825","system_id":"levelo_inurba_marseille","lat":43.30799,"lon":5.3814,"is_reserved":false,"is_disabled":false,"rental_uris":{"android":"levelo://app?vid=83c30ce6-d287-45bf-b3e2-8a24662ca825","ios":"levelo://app?vid=83c30ce6-d287-45bf-b3e2-8a24662ca825"},"vehicle_type_id":"4","last_reported":1741475269,"current_range_meters":3200,"station_id":"ce4bgt12rcd13ifvqce0","pricing_plan_id":"cebpf4jnsgd1na2vs0mg"},{"bike_id":"c3ace0f1-258a-473f-bbca-705d4d023f18","system_id":"levelo_inurba_marseille","lat":43.25694,"lon":5.41118,"is_reserved":false,"is_disabled":false,"rental_uris":{"android":"levelo://app?vid=c3ace0f1-258a-473f-bbca-705d4d023f18","ios":"levelo://app?vid=c3ace0f1-258a-473f-bbca-705d4d023f18"},"vehicle_type_id":"4","last_reported":1741475269,"current_range_meters":3200,"station_id":"ce4bhkp2rcd13ifvqgd0","pricing_plan_id":"cebpf4jnsgd1na2vs0mg"},{"bike_id":"e216f249-0d8e-46e1-8bc3-011b7d6a3143","system_id":"levelo_inurba_marseille","lat":43.27964,"lon":5.41039,"is_reserved":false,"is_disabled":true,"rental_uris":{"android":"levelo://app?vid=e216f249-0d8e-46e1-8bc3-011b7d6a3143","ios":"levelo://app?vid=e216f249-0d8e-46e1-8bc3-011b7d6a3143"},"vehicle_type_id":"4","last_reported":1741475269,"current_range_meters":3200,"station_id":"ce4bhnp2rcd13ifvqh0g","pricing_plan_id":"cebpf4jnsgd1na2vs0mg"},{"bike_id":"30af4b38-17f9-4eae-85ca-9d0045cd4d6d","system_id":"levelo_inurba_marseille","lat":43.25725,"lon":5.41105,"is_reserved":false,"is_disabled":false,"rental_uris":{"android":"levelo://app?vid=30af4b38-17f9-4eae-85ca-9d0045cd4d6d","ios":"levelo://app?vid=30af4b38-17f9-4eae-85ca-9d0045cd4d6d"},"vehicle_type_id":"4","last_reported":1741475269,"current_range_meters":3200,"station_id":"ce4bhkp2rcd13ifvqgd0","pricing_plan_id":"cebpf4jnsgd1na2vs0mg"},{"bike_id":"db361612-8186-4e1c-a8a1-a778740c3e27","system_id":"levelo_inurba_marseille","lat":43.26064,"lon":5.39403,"is_reserved":false,"is_disabled":false,"rental_uris":{"android":"levelo://app?vid=db361612-8186-4e1c-a8a1-a778740c3e27","ios":"levelo://app?vid=db361612-8186-4e1c-a8a1-a778740c3e27"},"vehicle_type_id":"4","last_reported":1741475269,"current_range_meters":3600,"station_id":"ce4bhh92rcd13ifvqfj0","pricing_plan_id":"cebpf4jnsgd1na2vs0mg"},{"bike_id":"6e5c1ec0-55c7-428f-ab14-fe8ef478e880","system_id":"levelo_inurba_marseille","lat":43.32071,"lon":5.40125,"is_reserved":false,"is_disabled":false,"rental_uris":{"android":"levelo://app?vid=6e5c1ec0-55c7-428f-ab14-fe8ef478e880","ios":"levelo://app?vid=6e5c1ec0-55c7-428f-ab14-fe8ef478e880"},"vehicle_type_id":"4","last_reported":1741475269,"current_range_meters":3600,"station_id":"","pricing_plan_id":"cebpf4jnsgd1na2vs0mg"},{"bike_id":"794ab296-0ffb-4b94-b5cc-6430ce848b61","system_id":"levelo_inurba_marseille","lat":43.2964,"lon":5.40601,"is_reserved":false,"is_disabled":false,"rental_uris":{"android":"levelo://app?vid=794ab296-0ffb-4b94-b5cc-6430ce848b61","ios":"levelo://app?vid=794ab296-0ffb-4b94-b5cc-6430ce848b61"},"vehicle_type_id":"4","last_reported":1741475269,"current_range_meters":3600,"station_id":"ce4bh0h2rcd13ifvqd60","pricing_plan_id":"cebpf4jnsgd1na2vs0mg"},{"bike_id":"247b4340-3338-49f7-b20d-e36de088bbb8","system_id":"levelo_inurba_marseille","lat":43.29244,"lon":5.42673,"is_reserved":false,"is_disabled":false,"rental_uris":{"android":"levelo://app?vid=247b4340-3338-49f7-b20d-e36de088bbb8","ios":"levelo://app?vid=247b4340-3338-49f7-b20d-e36de088bbb8"},"vehicle_type_id":"4","last_reported":1741475269,"current_range_meters":4000,"station_id":"","pricing_plan_id":"cebpf4jnsgd1na2vs0mg"},{"bike_id":"15376b15-681d-44fa-a9b3-a758af9c04b5","system_id":"levelo_inurba_marseille","lat":43.29518,"lon":5.39419,"is_reserved":false,"is_disabled":false,"rental_uris":{"android":"levelo://app?vid=15376b15-681d-44fa-a9b3-a758af9c04b5","ios":"levelo://app?vid=15376b15-681d-44fa-a9b3-a758af9c04b5"},"vehicle_type_id":"4","last_reported":1741475269,"current_range_meters":4000,"station_id":"ce4bh292rcd13ifvqdf0","pricing_plan_id":"cebpf4jnsgd1na2vs0mg"},{"bike_id":"5d4e4574-6498-4372-afcd-f02df8652fd1","system_id":"levelo_inurba_marseille","lat":43.25719,"lon":5.41113,"is_reserved":false,"is_disabled":false,"rental_uris":{"android":"levelo://app?vid=5d4e4574-6498-4372-afcd-f02df8652fd1","ios":"levelo://app?vid=5d4e4574-6498-4372-afcd-f02df8652fd1"},"vehicle_type_id":"4","last_reported":1741475269,"current_range_meters":4000,"station_id":"ce4bhkp2rcd13ifvqgd0","pricing_plan_id":"cebpf4jnsgd1na2vs0mg"},{"bike_id":"328d7325-fc78-4199-bacd-fbe265073c33","system_id":"levelo_inurba_marseille","lat":43.29194,"lon":5.39324,"is_reserved":false,"is_disabled":false,"rental_uris":{"android":"levelo://app?vid=328d7325-fc78-4199-bacd-fbe265073c33","ios":"levelo://app?vid=328d7325-fc78-4199-bacd-fbe265073c33"},"vehicle_type_id":"4","last_reported":1741475269,"current_range_meters":4400,"station_id":"ce4bh192rcd13ifvqdd0","pricing_plan_id":"cebpf4jnsgd1na2vs0mg"},{"bike_id":"60e1fe0f-c1dd-449c-85d9-a3dd616d061a","system_id":"levelo_inurba_marseille","lat":43.23193,"lon":5.35558,"is_reserved":false,"is_disabled":false,"rental_uris":{"android":"levelo://app?vid=60e1fe0f-c1dd-449c-85d9-a3dd616d061a","ios":"levelo://app?vid=60e1fe0f-c1dd-449c-85d9-a3dd616d061a"},"vehicle_type_id":"4","last_reported":1741475269,"current_range_meters":4400,"station_id":"ce4bhu92rcd13ifvqi70","pricing_plan_id":"cebpf4jnsgd1na2vs0mg"},{"bike_id":"8e6bf23f-7469-408c-84aa-30899262dcd4","system_id":"levelo_inurba_marseille","lat":43.29005,"lon":5.35612,"is_reserved":false,"is_disabled":false,"rental_uris":{"android":"levelo://app?vid=8e6bf23f-7469-408c-84aa-30899262dcd4","ios":"levelo://app?vid=8e6bf23f-7469-408c-84aa-30899262dcd4"},"vehicle_type_id":"4","last_reported":1741475269,"current_range_meters":4400,"station_id":"ce4bhb92rcd13ifvqen0","pricing_plan_id":"cebpf4jnsgd1na2vs0mg"},{"bike_id":"683b60fb-edb3-4cef-8ef2-41b0240be8bf","system_id":"levelo_inurba_marseille","lat":43.30451,"lon":5.38889,"is_reserved":false,"is_disabled":false,"rental_uris":{"android":"levelo://app?vid=683b60fb-edb3-4cef-8ef2-41b0240be8bf","ios":"levelo://app?vid=683b60fb-edb3-4cef-8ef2-41b0240be8bf"},"vehicle_type_id":"4","last_reported":1741475269,"current_range_meters":4400,"station_id":"ce4bgk12rcd13ifvqbi0","pricing_plan_id":"cebpf4jnsgd1na2vs0mg"},{"bike_id":"1c0edaba-550e-4916-9ab6-b50abcaced38","system_id":"levelo_inurba_marseille","lat":43.28155,"lon":5.42644,"is_reserved":false,"is_disabled":false,"rental_uris":{"android":"levelo://app?vid=1c0edaba-550e-4916-9ab6-b50abcaced38","ios":"levelo://app?vid=1c0edaba-550e-4916-9ab6-b50abcaced38"},"vehicle_type_id":"4","last_reported":1741475269,"current_range_meters":4400,"station_id":"ce4bhnh2rcd13ifvqgug","pricing_plan_id":"cebpf4jnsgd1na2vs0mg"},{"bike_id":"8310cde6-c1e7-4f34-9185-55193707cf9d","system_id":"levelo_inurba_marseille","lat":43.27825,"lon":5.40722,"is_reserved":false,"is_disabled":false,"rental_uris":{"android":"levelo://app?vid=8310cde6-c1e7-4f34-9185-55193707cf9d","ios":"levelo://app?vid=8310cde6-c1e7-4f34-9185-55193707cf9d"},"vehicle_type_id":"4","last_reported":1741475269,"current_range_meters":4800,"station_id":"ce4bhnh2rcd13ifvqgtg","pricing_plan_id":"cebpf4jnsgd1na2vs0mg"},{"bike_id":"82e849d5-e006-4a19-9415-e48d295e72fe","system_id":"levelo_inurba_marseille","lat":43.30532,"lon":5.36973,"is_reserved":false,"is_disabled":false,"rental_uris":{"android":"levelo://app?vid=82e849d5-e006-4a19-9415-e48d295e72fe","ios":"levelo://app?vid=82e849d5-e006-4a19-9415-e48d295e72fe"},"vehicle_type_id":"4","last_reported":1741475269,"current_range_meters":4800,"station_id":"","pricing_plan_id":"cebpf4jnsgd1na2vs0mg"},{"bike_id":"9c70530c-0400-4192-b455-c54b6829a3a9","system_id":"levelo_inurba_marseille","lat":43.30593,"lon":5.39359,"is_reserved":false,"is_disabled":false,"rental_uris":{"android":"levelo://app?vid=9c70530c-0400-4192-b455-c54b6829a3a9","ios":"levelo://app?vid=9c70530c-0400-4192-b455-c54b6829a3a9"},"vehicle_type_id":"4","last_reported":1741475269,"current_range_meters":4800,"station_id":"ce4bh0p2rcd13ifvqd80","pricing_plan_id":"cebpf4jnsgd1na2vs0mg"},{"bike_id":"8a04142c-0bc4-43e4-8f9e-fc8f2beafa5a","system_id":"levelo_inurba_marseille","lat":43.23965,"lon":5.36639,"is_reserved":false,"is_disabled":false,"rental_uris":{"android":"levelo://app?vid=8a04142c-0bc4-43e4-8f9e-fc8f2beafa5a","ios":"levelo://app?vid=8a04142c-0bc4-43e4-8f9e-fc8f2beafa5a"},"vehicle_type_id":"4","last_reported":1741475269,"current_range_meters":4800,"station_id":"ce4bhi12rcd13ifvqfp0","pricing_plan_id":"cebpf4jnsgd1na2vs0mg"},{"bike_id":"4a7dc14e-e5f1-4d7c-8a87-8b7be38c6b5b","system_id":"levelo_inurba_marseille","lat":43.29237,"lon":5.38452,"is_reserved":false,"is_disabled":false,"rental_uris":{"android":"levelo://app?vid=4a7dc14e-e5f1-4d7c-8a87-8b7be38c6b5b","ios":"levelo://app?vid=4a7dc14e-e5f1-4d7c-8a87-8b7be38c6b5b"},"vehicle_type_id":"4","last_reported":1741475269,"current_range_meters":4800,"station_id":"ce4bh692rcd13ifvqea0","pricing_plan_id":"cebpf4jnsgd1na2vs0mg"},{"bike_id":"b4335373-39cb-448a-880f-9091abb841a7","system_id":"levelo_inurba_marseille","lat":43.29977,"lon":5.37177,"is_reserved":false,"is_disabled":false,"rental_uris":{"android":"levelo://app?vid=b4335373-39cb-448a-880f-9091abb841a7","ios":"levelo://app?vid=b4335373-39cb-448a-880f-9091abb841a7"},"vehicle_type_id":"4","last_reported":1741475269,"current_range_meters":4800,"station_id":"ce4bgr92rcd13ifvqc7g","pricing_plan_id":"cebpf4jnsgd1na2vs0mg"},{"bike_id":"8fe68d27-3ec3-4925-8957-284503e1a860","system_id":"levelo_inurba_marseille","lat":43.298157,"lon":5.38085,"is_reserved":false,"is_disabled":false,"rental_uris":{"android":"levelo://app?vid=8fe68d27-3ec3-4925-8957-284503e1a860","ios":"levelo://app?vid=8fe68d27-3ec3-4925-8957-284503e1a860"},"vehicle_type_id":"4","last_reported":1741475269,"current_range_meters":4800,"station_id":"","pricing_plan_id":"cebpf4jnsgd1na2vs0mg"},{"bike_id":"9f22fbb6-a380-4b54-b337-75d43e2de561","system_id":"levelo_inurba_marseille","lat":43.25082,"lon":5.39529,"is_reserved":false,"is_disabled":false,"rental_uris":{"android":"levelo://app?vid=9f22fbb6-a380-4b54-b337-75d43e2de561","ios":"levelo://app?vid=9f22fbb6-a380-4b54-b337-75d43e2de561"},"vehicle_type_id":"4","last_reported":1741475269,"current_range_meters":5600,"station_id":"ce4bhm12rcd13ifvqgkg","pricing_plan_id":"cebpf4jnsgd1na2vs0mg"},{"bike_id":"f0732df1-6084-4dfb-9a71-b8dcb27bf341","system_id":"levelo_inurba_marseille","lat":43.27436,"lon":5.39408,"is_reserved":false,"is_disabled":true,"rental_uris":{"android":"levelo://app?vid=f0732df1-6084-4dfb-9a71-b8dcb27bf341","ios":"levelo://app?vid=f0732df1-6084-4dfb-9a71-b8dcb27bf341"},"vehicle_type_id":"4","last_reported":1741475269,"current_range_meters":4800,"station_id":"ce4bhdp2rcd13ifvqf20","pricing_plan_id":"cebpf4jnsgd1na2vs0mg"},{"bike_id":"5d3f60b4-2ab6-4c78-b755-5952d7f74ba3","system_id":"levelo_inurba_marseille","lat":43.31319,"lon":5.39692,"is_reserved":false,"is_disabled":false,"rental_uris":{"android":"levelo://app?vid=5d3f60b4-2ab6-4c78-b755-5952d7f74ba3","ios":"levelo://app?vid=5d3f60b4-2ab6-4c78-b755-5952d7f74ba3"},"vehicle_type_id":"4","last_reported":1741475269,"current_range_meters":4800,"station_id":"ce4bgvp2rcd13ifvqcu0","pricing_plan_id":"cebpf4jnsgd1na2vs0mg"},{"bike_id":"c4d9bd67-d60d-4217-84c8-fb19e5415e2c","system_id":"levelo_inurba_marseille","lat":43.29774,"lon":5.38092,"is_reserved":false,"is_disabled":false,"rental_uris":{"android":"levelo://app?vid=c4d9bd67-d60d-4217-84c8-fb19e5415e2c","ios":"levelo://app?vid=c4d9bd67-d60d-4217-84c8-fb19e5415e2c"},"vehicle_type_id":"4","last_reported":1741475269,"current_range_meters":5600,"station_id":"ce4bgip2rcd13ifvqbb0","pricing_plan_id":"cebpf4jnsgd1na2vs0mg"},{"bike_id":"98099f5b-2d89-4ebc-af70-310ad79dd9aa","system_id":"levelo_inurba_marseille","lat":43.24666,"lon":5.38166,"is_reserved":false,"is_disabled":false,"rental_uris":{"android":"levelo://app?vid=98099f5b-2d89-4ebc-af70-310ad79dd9aa","ios":"levelo://app?vid=98099f5b-2d89-4ebc-af70-310ad79dd9aa"},"vehicle_type_id":"4","last_reported":1741475269,"current_range_meters":6000,"station_id":"ce4bhih2rcd13ifvqfr0","pricing_plan_id":"cebpf4jnsgd1na2vs0mg"},{"bike_id":"4a5f5573-68a0-4ef8-9746-01d4ee12e6d2","system_id":"levelo_inurba_marseille","lat":43.23959,"lon":5.36628,"is_reserved":false,"is_disabled":false,"rental_uris":{"android":"levelo://app?vid=4a5f5573-68a0-4ef8-9746-01d4ee12e6d2","ios":"levelo://app?vid=4a5f5573-68a0-4ef8-9746-01d4ee12e6d2"},"vehicle_type_id":"4","last_reported":1741475269,"current_range_meters":6000,"station_id":"ce4bhi12rcd13ifvqfp0","pricing_plan_id":"cebpf4jnsgd1na2vs0mg"},{"bike_id":"ea95a086-d532-4cf8-aa42-e0b6aad21615","system_id":"levelo_inurba_marseille","lat":43.29553,"lon":5.42293,"is_reserved":false,"is_disabled":false,"rental_uris":{"android":"levelo://app?vid=ea95a086-d532-4cf8-aa42-e0b6aad21615","ios":"levelo://app?vid=ea95a086-d532-4cf8-aa42-e0b6aad21615"},"vehicle_type_id":"4","last_reported":1741475269,"current_range_meters":3600,"station_id":"ce4bhph2rcd13ifvqhdg","pricing_plan_id":"cebpf4jnsgd1na2vs0mg"},{"bike_id":"80418265-aad6-403f-843b-51a8235dd7ec","system_id":"levelo_inurba_marseille","lat":43.299,"lon":5.38904,"is_reserved":false,"is_disabled":false,"rental_uris":{"android":"levelo://app?vid=80418265-aad6-403f-843b-51a8235dd7ec","ios":"levelo://app?vid=80418265-aad6-403f-843b-51a8235dd7ec"},"vehicle_type_id":"4","last_reported":1741475269,"current_range_meters":6000,"station_id":"ce4bh392rcd13ifvqdl0","pricing_plan_id":"cebpf4jnsgd1na2vs0mg"},{"bike_id":"1c72123b-683b-43be-b766-6d8704974992","system_id":"levelo_inurba_marseille","lat":43.28453,"lon":5.35887,"is_reserved":false,"is_disabled":false,"rental_uris":{"android":"levelo://app?vid=1c72123b-683b-43be-b766-6d8704974992","ios":"levelo://app?vid=1c72123b-683b-43be-b766-6d8704974992"},"vehicle_type_id":"4","last_reported":1741475269,"current_range_meters":6000,"station_id":"ce4bhah2rcd13ifvqei0","pricing_plan_id":"cebpf4jnsgd1na2vs0mg"},{"bike_id":"c1b37ffe-209e-42d6-87de-eb1e250701e0","system_id":"levelo_inurba_marseille","lat":43.27943,"lon":5.41064,"is_reserved":false,"is_disabled":false,"rental_uris":{"android":"levelo://app?vid=c1b37ffe-209e-42d6-87de-eb1e250701e0","ios":"levelo://app?vid=c1b37ffe-209e-42d6-87de-eb1e250701e0"},"vehicle_type_id":"4","last_reported":1741475269,"current_range_meters":6000,"station_id":"ce4bhnp2rcd13ifvqh0g","pricing_plan_id":"cebpf4jnsgd1na2vs0mg"},{"bike_id":"dec29720-34f1-4ed4-8695-f9a107b367e4","system_id":"levelo_inurba_marseille","lat":43.28696,"lon":5.37394,"is_reserved":false,"is_disabled":true,"rental_uris":{"android":"levelo://app?vid=dec29720-34f1-4ed4-8695-f9a107b367e4","ios":"levelo://app?vid=dec29720-34f1-4ed4-8695-f9a107b367e4"},"vehicle_type_id":"4","last_reported":1741475269,"current_range_meters":6000,"station_id":"ce4bh3p2rcd13ifvqdq0","pricing_plan_id":"cebpf4jnsgd1na2vs0mg"},{"bike_id":"9e4da86a-3b8c-45c5-a69b-0b27eff2bcd7","system_id":"levelo_inurba_marseille","lat":43.31224,"lon":5.36861,"is_reserved":false,"is_disabled":false,"rental_uris":{"android":"levelo://app?vid=9e4da86a-3b8c-45c5-a69b-0b27eff2bcd7","ios":"levelo://app?vid=9e4da86a-3b8c-45c5-a69b-0b27eff2bcd7"},"vehicle_type_id":"4","last_reported":1741475269,"current_range_meters":6400,"station_id":"ce4bgl92rcd13ifvqbq0","pricing_plan_id":"cebpf4jnsgd1na2vs0mg"},{"bike_id":"11bfe655-d3a1-41f8-ad08-812222e469ef","system_id":"levelo_inurba_marseille","lat":43.29537,"lon":5.38535,"is_reserved":false,"is_disabled":false,"rental_uris":{"android":"levelo://app?vid=11bfe655-d3a1-41f8-ad08-812222e469ef","ios":"levelo://app?vid=11bfe655-d3a1-41f8-ad08-812222e469ef"},"vehicle_type_id":"4","last_reported":1741475269,"current_range_meters":6400,"station_id":"ce4bgih2rcd13ifvqba0","pricing_plan_id":"cebpf4jnsgd1na2vs0mg"},{"bike_id":"afba523c-0c63-402c-a023-c91495c4b2b3","system_id":"levelo_inurba_marseille","lat":43.28453,"lon":5.35888,"is_reserved":false,"is_disabled":false,"rental_uris":{"android":"levelo://app?vid=afba523c-0c63-402c-a023-c91495c4b2b3","ios":"levelo://app?vid=afba523c-0c63-402c-a023-c91495c4b2b3"},"vehicle_type_id":"4","last_reported":1741475269,"current_range_meters":6400,"station_id":"ce4bhah2rcd13ifvqei0","pricing_plan_id":"cebpf4jnsgd1na2vs0mg"},{"bike_id":"02832e18-088e-4353-9d3d-d396bfb0075f","system_id":"levelo_inurba_marseille","lat":43.29233,"lon":5.38455,"is_reserved":false,"is_disabled":false,"rental_uris":{"android":"levelo://app?vid=02832e18-088e-4353-9d3d-d396bfb0075f","ios":"levelo://app?vid=02832e18-088e-4353-9d3d-d396bfb0075f"},"vehicle_type_id":"4","last_reported":1741475269,"current_range_meters":6400,"station_id":"ce4bh692rcd13ifvqea0","pricing_plan_id":"cebpf4jnsgd1na2vs0mg"},{"bike_id":"564083ac-d950-47ac-886d-3eb75056b995","system_id":"levelo_inurba_marseille","lat":43.29009,"lon":5.3867,"is_reserved":false,"is_disabled":false,"rental_uris":{"android":"levelo://app?vid=564083ac-d950-47ac-886d-3eb75056b995","ios":"levelo://app?vid=564083ac-d950-47ac-886d-3eb75056b995"},"vehicle_type_id":"4","last_reported":1741475269,"current_range_meters":6400,"station_id":"ce4bh4p2rcd13ifvqe0g","pricing_plan_id":"cebpf4jnsgd1na2vs0mg"},{"bike_id":"77afb933-d804-487c-8fb0-8e8ebb4c23cc","system_id":"levelo_inurba_marseille","lat":43.29785,"lon":5.38078,"is_reserved":false,"is_disabled":false,"rental_uris":{"android":"levelo://app?vid=77afb933-d804-487c-8fb0-8e8ebb4c23cc","ios":"levelo://app?vid=77afb933-d804-487c-8fb0-8e8ebb4c23cc"},"vehicle_type_id":"4","last_reported":1741475269,"current_range_meters":6400,"station_id":"ce4bgip2rcd13ifvqbb0","pricing_plan_id":"cebpf4jnsgd1na2vs0mg"},{"bike_id":"25305dbe-974d-481a-8296-0926ee678627","system_id":"levelo_inurba_marseille","lat":43.24073,"lon":5.37743,"is_reserved":false,"is_disabled":false,"rental_uris":{"android":"levelo://app?vid=25305dbe-974d-481a-8296-0926ee678627","ios":"levelo://app?vid=25305dbe-974d-481a-8296-0926ee678627"},"vehicle_type_id":"4","last_reported":1741475269,"current_range_meters":6400,"station_id":"ce4bhnp2rcd13ifvqgvg","pricing_plan_id":"cebpf4jnsgd1na2vs0mg"},{"bike_id":"9e311ef8-a18e-414d-a0d7-1c60dc3da37f","system_id":"levelo_inurba_marseille","lat":43.287,"lon":5.40015,"is_reserved":false,"is_disabled":false,"rental_uris":{"android":"levelo://app?vid=9e311ef8-a18e-414d-a0d7-1c60dc3da37f","ios":"levelo://app?vid=9e311ef8-a18e-414d-a0d7-1c60dc3da37f"},"vehicle_type_id":"4","last_reported":1741475269,"current_range_meters":8400,"station_id":"ce4bho92rcd13ifvqh3g","pricing_plan_id":"cebpf4jnsgd1na2vs0mg"},{"bike_id":"2e67c627-da2c-4b7c-b6af-a71ede8daef2","system_id":"levelo_inurba_marseille","lat":43.29292,"lon":5.37456,"is_reserved":false,"is_disabled":false,"rental_uris":{"android":"levelo://app?vid=2e67c627-da2c-4b7c-b6af-a71ede8daef2","ios":"levelo://app?vid=2e67c627-da2c-4b7c-b6af-a71ede8daef2"},"vehicle_type_id":"4","last_reported":1741475269,"current_range_meters":6400,"station_id":"ce4bgi12rcd13ifvqb70","pricing_plan_id":"cebpf4jnsgd1na2vs0mg"},{"bike_id":"04027f9f-3617-4d0f-8003-b61a82d55757","system_id":"levelo_inurba_marseille","lat":43.27819,"lon":5.40709,"is_reserved":false,"is_disabled":false,"rental_uris":{"android":"levelo://app?vid=04027f9f-3617-4d0f-8003-b61a82d55757","ios":"levelo://app?vid=04027f9f-3617-4d0f-8003-b61a82d55757"},"vehicle_type_id":"4","last_reported":1741475269,"current_range_meters":6400,"station_id":"ce4bhnh2rcd13ifvqgtg","pricing_plan_id":"cebpf4jnsgd1na2vs0mg"},{"bike_id":"aa20b16b-6cf5-4ca7-906d-81490255e403","system_id":"levelo_inurba_marseille","lat":43.27068,"lon":5.42281,"is_reserved":false,"is_disabled":false,"rental_uris":{"android":"levelo://app?vid=aa20b16b-6cf5-4ca7-906d-81490255e403","ios":"levelo://app?vid=aa20b16b-6cf5-4ca7-906d-81490255e403"},"vehicle_type_id":"4","last_reported":1741475269,"current_range_meters":6400,"station_id":"ce4bhk92rcd13ifvqgb0","pricing_plan_id":"cebpf4jnsgd1na2vs0mg"},{"bike_id":"ff69b590-8439-4948-a50c-f9b899fda469","system_id":"levelo_inurba_marseille","lat":43.23962,"lon":5.36641,"is_reserved":false,"is_disabled":false,"rental_uris":{"android":"levelo://app?vid=ff69b590-8439-4948-a50c-f9b899fda469","ios":"levelo://app?vid=ff69b590-8439-4948-a50c-f9b899fda469"},"vehicle_type_id":"4","last_reported":1741475269,"current_range_meters":6400,"station_id":"ce4bhi12rcd13ifvqfp0","pricing_plan_id":"cebpf4jnsgd1na2vs0mg"},{"bike_id":"45e74ffc-2cca-4755-99a2-a317bcba5976","system_id":"levelo_inurba_marseille","lat":43.25008,"lon":5.38922,"is_reserved":false,"is_disabled":false,"rental_uris":{"android":"levelo://app?vid=45e74ffc-2cca-4755-99a2-a317bcba5976","ios":"levelo://app?vid=45e74ffc-2cca-4755-99a2-a317bcba5976"},"vehicle_type_id":"4","last_reported":1741475269,"current_range_meters":6400,"station_id":"ce4bhgp2rcd13ifvqfd0","pricing_plan_id":"cebpf4jnsgd1na2vs0mg"},{"bike_id":"4cc5c768-97d6-4527-b038-ce2ac02a21d3","system_id":"levelo_inurba_marseille","lat":43.32997,"lon":5.39041,"is_reserved":false,"is_disabled":false,"rental_uris":{"android":"levelo://app?vid=4cc5c768-97d6-4527-b038-ce2ac02a21d3","ios":"levelo://app?vid=4cc5c768-97d6-4527-b038-ce2ac02a21d3"},"vehicle_type_id":"4","last_reported":1741475269,"current_range_meters":6800,"station_id":"ce4bhr92rcd13ifvqhrg","pricing_plan_id":"cebpf4jnsgd1na2vs0mg"},{"bike_id":"10973d08-7491-43a8-8c8f-8833e3406be5","system_id":"levelo_inurba_marseille","lat":43.29241,"lon":5.38446,"is_reserved":false,"is_disabled":false,"rental_uris":{"android":"levelo://app?vid=10973d08-7491-43a8-8c8f-8833e3406be5","ios":"levelo://app?vid=10973d08-7491-43a8-8c8f-8833e3406be5"},"vehicle_type_id":"4","last_reported":1741475269,"current_range_meters":6800,"station_id":"ce4bh692rcd13ifvqea0","pricing_plan_id":"cebpf4jnsgd1na2vs0mg"},{"bike_id":"59e0a04d-d93a-45ed-b741-90cda0db6ece","system_id":"levelo_inurba_marseille","lat":43.26222,"lon":5.37442,"is_reserved":false,"is_disabled":false,"rental_uris":{"android":"levelo://app?vid=59e0a04d-d93a-45ed-b741-90cda0db6ece","ios":"levelo://app?vid=59e0a04d-d93a-45ed-b741-90cda0db6ece"},"vehicle_type_id":"4","last_reported":1741475269,"current_range_meters":6800,"station_id":"ce4bhgp2rcd13ifvqfc0","pricing_plan_id":"cebpf4jnsgd1na2vs0mg"},{"bike_id":"0e1db52c-d0b3-4542-b2e9-b7a5361e231b","system_id":"levelo_inurba_marseille","lat":43.28943,"lon":5.36639,"is_reserved":false,"is_disabled":false,"rental_uris":{"android":"levelo://app?vid=0e1db52c-d0b3-4542-b2e9-b7a5361e231b","ios":"levelo://app?vid=0e1db52c-d0b3-4542-b2e9-b7a5361e231b"},"vehicle_type_id":"4","last_reported":1741475269,"current_range_meters":6800,"station_id":"ce4bhap2rcd13ifvqek0","pricing_plan_id":"cebpf4jnsgd1na2vs0mg"},{"bike_id":"b22de8d2-bd4f-4b4d-96f7-d05940148262","system_id":"levelo_inurba_marseille","lat":43.29415,"lon":5.38624,"is_reserved":false,"is_disabled":false,"rental_uris":{"android":"levelo://app?vid=b22de8d2-bd4f-4b4d-96f7-d05940148262","ios":"levelo://app?vid=b22de8d2-bd4f-4b4d-96f7-d05940148262"},"vehicle_type_id":"4","last_reported":1741475269,"current_range_meters":6400,"station_id":"ce4bh2h2rcd13ifvqdh0","pricing_plan_id":"cebpf4jnsgd1na2vs0mg"},{"bike_id":"4f736467-d5df-415d-b4f7-1a2f44f20dff","system_id":"levelo_inurba_marseille","lat":43.29794,"lon":5.38103,"is_reserved":false,"is_disabled":false,"rental_uris":{"android":"levelo://app?vid=4f736467-d5df-415d-b4f7-1a2f44f20dff","ios":"levelo://app?vid=4f736467-d5df-415d-b4f7-1a2f44f20dff"},"vehicle_type_id":"4","last_reported":1741475269,"current_range_meters":6400,"station_id":"ce4bgip2rcd13ifvqbb0","pricing_plan_id":"cebpf4jnsgd1na2vs0mg"},{"bike_id":"90b8db64-bbd7-44bb-b7ee-15ff858ae528","system_id":"levelo_inurba_marseille","lat":43.27643,"lon":5.39914,"is_reserved":false,"is_disabled":false,"rental_uris":{"android":"levelo://app?vid=90b8db64-bbd7-44bb-b7ee-15ff858ae528","ios":"levelo://app?vid=90b8db64-bbd7-44bb-b7ee-15ff858ae528"},"vehicle_type_id":"4","last_reported":1741475269,"current_range_meters":6800,"station_id":"","pricing_plan_id":"cebpf4jnsgd1na2vs0mg"},{"bike_id":"79964f25-eee8-4e4b-8e4a-caafc208ee87","system_id":"levelo_inurba_marseille","lat":43.32052,"lon":5.41534,"is_reserved":false,"is_disabled":false,"rental_uris":{"android":"levelo://app?vid=79964f25-eee8-4e4b-8e4a-caafc208ee87","ios":"levelo://app?vid=79964f25-eee8-4e4b-8e4a-caafc208ee87"},"vehicle_type_id":"4","last_reported":1741475269,"current_range_meters":6800,"station_id":"ce4bhq92rcd13ifvqhkg","pricing_plan_id":"cebpf4jnsgd1na2vs0mg"},{"bike_id":"0e8e6e18-3a5d-419d-9840-cebb5c405ec4","system_id":"levelo_inurba_marseille","lat":43.27691,"lon":5.38904,"is_reserved":false,"is_disabled":true,"rental_uris":{"android":"levelo://app?vid=0e8e6e18-3a5d-419d-9840-cebb5c405ec4","ios":"levelo://app?vid=0e8e6e18-3a5d-419d-9840-cebb5c405ec4"},"vehicle_type_id":"4","last_reported":1741475269,"current_range_meters":6800,"station_id":"ce4bhi12rcd13ifvqfo0","pricing_plan_id":"cebpf4jnsgd1na2vs0mg"},{"bike_id":"24eab6f7-5b40-4e15-a267-f117df0d4ccf","system_id":"levelo_inurba_marseille","lat":43.23974,"lon":5.36618,"is_reserved":false,"is_disabled":false,"rental_uris":{"android":"levelo://app?vid=24eab6f7-5b40-4e15-a267-f117df0d4ccf","ios":"levelo://app?vid=24eab6f7-5b40-4e15-a267-f117df0d4ccf"},"vehicle_type_id":"4","last_reported":1741475269,"current_range_meters":6800,"station_id":"ce4bhi12rcd13ifvqfp0","pricing_plan_id":"cebpf4jnsgd1na2vs0mg"},{"bike_id":"60fba7df-4520-4d63-9c5b-9a7a002cedfb","system_id":"levelo_inurba_marseille","lat":43.28076,"lon":5.39137,"is_reserved":false,"is_disabled":false,"rental_uris":{"android":"levelo://app?vid=60fba7df-4520-4d63-9c5b-9a7a002cedfb","ios":"levelo://app?vid=60fba7df-4520-4d63-9c5b-9a7a002cedfb"},"vehicle_type_id":"4","last_reported":1741475269,"current_range_meters":6800,"station_id":"","pricing_plan_id":"cebpf4jnsgd1na2vs0mg"},{"bike_id":"1be03b85-097c-4279-baeb-dacb43dbd30c","system_id":"levelo_inurba_marseille","lat":43.29447,"lon":5.38434,"is_reserved":false,"is_disabled":false,"rental_uris":{"android":"levelo://app?vid=1be03b85-097c-4279-baeb-dacb43dbd30c","ios":"levelo://app?vid=1be03b85-097c-4279-baeb-dacb43dbd30c"},"vehicle_type_id":"4","last_reported":1741475269,"current_range_meters":6800,"station_id":"","pricing_plan_id":"cebpf4jnsgd1na2vs0mg"},{"bike_id":"e73fb96e-0764-498c-88ac-adb20e0dd955","system_id":"levelo_inurba_marseille","lat":43.26064,"lon":5.39417,"is_reserved":false,"is_disabled":false,"rental_uris":{"android":"levelo://app?vid=e73fb96e-0764-498c-88ac-adb20e0dd955","ios":"levelo://app?vid=e73fb96e-0764-498c-88ac-adb20e0dd955"},"vehicle_type_id":"4","last_reported":1741475269,"current_range_meters":6800,"station_id":"ce4bhh92rcd13ifvqfj0","pricing_plan_id":"cebpf4jnsgd1na2vs0mg"},{"bike_id":"7d295ec4-9c0e-4850-9c53-dd65645b97b2","system_id":"levelo_inurba_marseille","lat":43.26049,"lon":5.39391,"is_reserved":false,"is_disabled":false,"rental_uris":{"android":"levelo://app?vid=7d295ec4-9c0e-4850-9c53-dd65645b97b2","ios":"levelo://app?vid=7d295ec4-9c0e-4850-9c53-dd65645b97b2"},"vehicle_type_id":"4","last_reported":1741475269,"current_range_meters":7200,"station_id":"ce4bhh92rcd13ifvqfj0","pricing_plan_id":"cebpf4jnsgd1na2vs0mg"},{"bike_id":"6d0356cd-03ed-4a8b-97c7-0e2dd8952c4d","system_id":"levelo_inurba_marseille","lat":43.31712,"lon":5.4371,"is_reserved":false,"is_disabled":false,"rental_uris":{"android":"levelo://app?vid=6d0356cd-03ed-4a8b-97c7-0e2dd8952c4d","ios":"levelo://app?vid=6d0356cd-03ed-4a8b-97c7-0e2dd8952c4d"},"vehicle_type_id":"4","last_reported":1741475269,"current_range_meters":7200,"station_id":"ce4bhp92rcd13ifvqhcg","pricing_plan_id":"cebpf4jnsgd1na2vs0mg"},{"bike_id":"a01889f6-7082-4c91-9d70-b12d1c00664e","system_id":"levelo_inurba_marseille","lat":43.30805,"lon":5.43531,"is_reserved":false,"is_disabled":false,"rental_uris":{"android":"levelo://app?vid=a01889f6-7082-4c91-9d70-b12d1c00664e","ios":"levelo://app?vid=a01889f6-7082-4c91-9d70-b12d1c00664e"},"vehicle_type_id":"4","last_reported":1741475269,"current_range_meters":7200,"station_id":"ce4bhph2rcd13ifvqheg","pricing_plan_id":"cebpf4jnsgd1na2vs0mg"},{"bike_id":"13f87cb2-3be8-43e8-b05d-0de2144b32fe","system_id":"levelo_inurba_marseille","lat":43.29845,"lon":5.36292,"is_reserved":false,"is_disabled":false,"rental_uris":{"android":"levelo://app?vid=13f87cb2-3be8-43e8-b05d-0de2144b32fe","ios":"levelo://app?vid=13f87cb2-3be8-43e8-b05d-0de2144b32fe"},"vehicle_type_id":"4","last_reported":1741475269,"current_range_meters":7200,"station_id":"ce4bgpp2rcd13ifvqc3g","pricing_plan_id":"cebpf4jnsgd1na2vs0mg"},{"bike_id":"2fe3fa9d-c136-4274-aa2d-ddbc2f5c56d4","system_id":"levelo_inurba_marseille","lat":43.27594,"lon":5.39674,"is_reserved":false,"is_disabled":false,"rental_uris":{"android":"levelo://app?vid=2fe3fa9d-c136-4274-aa2d-ddbc2f5c56d4","ios":"levelo://app?vid=2fe3fa9d-c136-4274-aa2d-ddbc2f5c56d4"},"vehicle_type_id":"4","last_reported":1741475269,"current_range_meters":7200,"station_id":"","pricing_plan_id":"cebpf4jnsgd1na2vs0mg"},{"bike_id":"b6d4299b-4fdb-4612-927d-2e81bbe91b45","system_id":"levelo_inurba_marseille","lat":43.3213,"lon":5.36826,"is_reserved":false,"is_disabled":false,"rental_uris":{"android":"levelo://app?vid=b6d4299b-4fdb-4612-927d-2e81bbe91b45","ios":"levelo://app?vid=b6d4299b-4fdb-4612-927d-2e81bbe91b45"},"vehicle_type_id":"4","last_reported":1741475269,"current_range_meters":7200,"station_id":"","pricing_plan_id":"cebpf4jnsgd1na2vs0mg"},{"bike_id":"a3ea0991-4b1c-4b3b-b5f9-ab60777b4148","system_id":"levelo_inurba_marseille","lat":43.24171,"lon":5.39713,"is_reserved":false,"is_disabled":false,"rental_uris":{"android":"levelo://app?vid=a3ea0991-4b1c-4b3b-b5f9-ab60777b4148","ios":"levelo://app?vid=a3ea0991-4b1c-4b3b-b5f9-ab60777b4148"},"vehicle_type_id":"4","last_reported":1741475269,"current_range_meters":7200,"station_id":"ce4bhn12rcd13ifvqgpg","pricing_plan_id":"cebpf4jnsgd1na2vs0mg"},{"bike_id":"9effefb9-02e3-4c25-ab75-e3a5ac01515f","system_id":"levelo_inurba_marseille","lat":43.2655,"lon":5.37328,"is_reserved":false,"is_disabled":true,"rental_uris":{"android":"levelo://app?vid=9effefb9-02e3-4c25-ab75-e3a5ac01515f","ios":"levelo://app?vid=9effefb9-02e3-4c25-ab75-e3a5ac01515f"},"vehicle_type_id":"4","last_reported":1741475269,"current_range_meters":7200,"station_id":"ce4bhg12rcd13ifvqf70","pricing_plan_id":"cebpf4jnsgd1na2vs0mg"},{"bike_id":"765e68a5-c232-4d35-ae9e-183d3ec2adea","system_id":"levelo_inurba_marseille","lat":43.29259,"lon":5.40899,"is_reserved":false,"is_disabled":false,"rental_uris":{"android":"levelo://app?vid=765e68a5-c232-4d35-ae9e-183d3ec2adea","ios":"levelo://app?vid=765e68a5-c232-4d35-ae9e-183d3ec2adea"},"vehicle_type_id":"4","last_reported":1741475269,"current_range_meters":7200,"station_id":"ce4bh192rcd13ifvqdc0","pricing_plan_id":"cebpf4jnsgd1na2vs0mg"},{"bike_id":"98999954-1375-47a6-b79b-d6595a5dc0f3","system_id":"levelo_inurba_marseille","lat":43.290155,"lon":5.3993,"is_reserved":false,"is_disabled":false,"rental_uris":{"android":"levelo://app?vid=98999954-1375-47a6-b79b-d6595a5dc0f3","ios":"levelo://app?vid=98999954-1375-47a6-b79b-d6595a5dc0f3"},"vehicle_type_id":"4","last_reported":1741475269,"current_range_meters":7200,"station_id":"ce4bh392rcd13ifvqdm0","pricing_plan_id":"cebpf4jnsgd1na2vs0mg"},{"bike_id":"d04764b2-721c-4149-b1b8-42d1c3ceb1a5","system_id":"levelo_inurba_marseille","lat":43.31354,"lon":5.38514,"is_reserved":false,"is_disabled":false,"rental_uris":{"android":"levelo://app?vid=d04764b2-721c-4149-b1b8-42d1c3ceb1a5","ios":"levelo://app?vid=d04764b2-721c-4149-b1b8-42d1c3ceb1a5"},"vehicle_type_id":"4","last_reported":1741475269,"current_range_meters":7200,"station_id":"ce4bgt92rcd13ifvqcf0","pricing_plan_id":"cebpf4jnsgd1na2vs0mg"},{"bike_id":"53bd1732-d8ff-41a5-8f1b-42274afdde26","system_id":"levelo_inurba_marseille","lat":43.2934,"lon":5.42843,"is_reserved":false,"is_disabled":false,"rental_uris":{"android":"levelo://app?vid=53bd1732-d8ff-41a5-8f1b-42274afdde26","ios":"levelo://app?vid=53bd1732-d8ff-41a5-8f1b-42274afdde26"},"vehicle_type_id":"4","last_reported":1741475269,"current_range_meters":7200,"station_id":"","pricing_plan_id":"cebpf4jnsgd1na2vs0mg"},{"bike_id":"21dda7ec-58bd-4ec5-b46b-7fc383d9774f","system_id":"levelo_inurba_marseille","lat":43.32059,"lon":5.41529,"is_reserved":false,"is_disabled":false,"rental_uris":{"android":"levelo://app?vid=21dda7ec-58bd-4ec5-b46b-7fc383d9774f","ios":"levelo://app?vid=21dda7ec-58bd-4ec5-b46b-7fc383d9774f"},"vehicle_type_id":"4","last_reported":1741475269,"current_range_meters":7200,"station_id":"ce4bhq92rcd13ifvqhkg","pricing_plan_id":"cebpf4jnsgd1na2vs0mg"},{"bike_id":"a8f484f1-d47f-4ef2-b175-70c6757421df","system_id":"levelo_inurba_marseille","lat":43.30535,"lon":5.36924,"is_reserved":false,"is_disabled":false,"rental_uris":{"android":"levelo://app?vid=a8f484f1-d47f-4ef2-b175-70c6757421df","ios":"levelo://app?vid=a8f484f1-d47f-4ef2-b175-70c6757421df"},"vehicle_type_id":"4","last_reported":1741475269,"current_range_meters":8000,"station_id":"","pricing_plan_id":"cebpf4jnsgd1na2vs0mg"},{"bike_id":"271b9580-7db4-4949-aec3-e8c596beb552","system_id":"levelo_inurba_marseille","lat":43.31134,"lon":5.37745,"is_reserved":false,"is_disabled":false,"rental_uris":{"android":"levelo://app?vid=271b9580-7db4-4949-aec3-e8c596beb552","ios":"levelo://app?vid=271b9580-7db4-4949-aec3-e8c596beb552"},"vehicle_type_id":"4","last_reported":1741475269,"current_range_meters":8000,"station_id":"ce4bgt92rcd13ifvqcg0","pricing_plan_id":"cebpf4jnsgd1na2vs0mg"},{"bike_id":"8968ebf0-976e-4199-a05d-0b5eb90e8fa7","system_id":"levelo_inurba_marseille","lat":43.25713,"lon":5.4111,"is_reserved":false,"is_disabled":false,"rental_uris":{"android":"levelo://app?vid=8968ebf0-976e-4199-a05d-0b5eb90e8fa7","ios":"levelo://app?vid=8968ebf0-976e-4199-a05d-0b5eb90e8fa7"},"vehicle_type_id":"4","last_reported":1741475269,"current_range_meters":8000,"station_id":"ce4bhkp2rcd13ifvqgd0","pricing_plan_id":"cebpf4jnsgd1na2vs0mg"},{"bike_id":"c40c13ce-fdbb-4f52-b2d8-1005d4c9277b","system_id":"levelo_inurba_marseille","lat":43.25399,"lon":5.4189,"is_reserved":false,"is_disabled":false,"rental_uris":{"android":"levelo://app?vid=c40c13ce-fdbb-4f52-b2d8-1005d4c9277b","ios":"levelo://app?vid=c40c13ce-fdbb-4f52-b2d8-1005d4c9277b"},"vehicle_type_id":"4","last_reported":1741475269,"current_range_meters":8000,"station_id":"","pricing_plan_id":"cebpf4jnsgd1na2vs0mg"},{"bike_id":"99121d6d-76c3-4940-bf6e-13375dbd5bf4","system_id":"levelo_inurba_marseille","lat":43.23941,"lon":5.36617,"is_reserved":false,"is_disabled":false,"rental_uris":{"android":"levelo://app?vid=99121d6d-76c3-4940-bf6e-13375dbd5bf4","ios":"levelo://app?vid=99121d6d-76c3-4940-bf6e-13375dbd5bf4"},"vehicle_type_id":"4","last_reported":1741475269,"current_range_meters":8000,"station_id":"ce4bhi12rcd13ifvqfp0","pricing_plan_id":"cebpf4jnsgd1na2vs0mg"},{"bike_id":"903ca8fb-a01f-48af-9d7f-844151e9f785","system_id":"levelo_inurba_marseille","lat":43.279504,"lon":5.410486,"is_reserved":false,"is_disabled":true,"rental_uris":{"android":"levelo://app?vid=903ca8fb-a01f-48af-9d7f-844151e9f785","ios":"levelo://app?vid=903ca8fb-a01f-48af-9d7f-844151e9f785"},"vehicle_type_id":"4","last_reported":1741475269,"current_range_meters":8000,"station_id":"ce4bhnp2rcd13ifvqh0g","pricing_plan_id":"cebpf4jnsgd1na2vs0mg"},{"bike_id":"b0fab22e-e6d7-4978-96bf-c765be6151ef","system_id":"levelo_inurba_marseille","lat":43.28464,"lon":5.35879,"is_reserved":false,"is_disabled":false,"rental_uris":{"android":"levelo://app?vid=b0fab22e-e6d7-4978-96bf-c765be6151ef","ios":"levelo://app?vid=b0fab22e-e6d7-4978-96bf-c765be6151ef"},"vehicle_type_id":"4","last_reported":1741475269,"current_range_meters":8000,"station_id":"ce4bhah2rcd13ifvqei0","pricing_plan_id":"cebpf4jnsgd1na2vs0mg"},{"bike_id":"cb0d4d15-0ce0-4061-8a04-93bcbe80bd0f","system_id":"levelo_inurba_marseille","lat":43.25869,"lon":5.40917,"is_reserved":false,"is_disabled":false,"rental_uris":{"android":"levelo://app?vid=cb0d4d15-0ce0-4061-8a04-93bcbe80bd0f","ios":"levelo://app?vid=cb0d4d15-0ce0-4061-8a04-93bcbe80bd0f"},"vehicle_type_id":"4","last_reported":1741475269,"current_range_meters":8000,"station_id":"","pricing_plan_id":"cebpf4jnsgd1na2vs0mg"},{"bike_id":"8b76a81a-4c10-4e7b-ab15-0f6dad2b5137","system_id":"levelo_inurba_marseille","lat":43.2655,"lon":5.37289,"is_reserved":false,"is_disabled":false,"rental_uris":{"android":"levelo://app?vid=8b76a81a-4c10-4e7b-ab15-0f6dad2b5137","ios":"levelo://app?vid=8b76a81a-4c10-4e7b-ab15-0f6dad2b5137"},"vehicle_type_id":"4","last_reported":1741475269,"current_range_meters":7200,"station_id":"ce4bhg12rcd13ifvqf70","pricing_plan_id":"cebpf4jnsgd1na2vs0mg"},{"bike_id":"29a2dc41-176e-4ce3-9704-1e0c81ed4573","system_id":"levelo_inurba_marseille","lat":43.26063,"lon":5.39392,"is_reserved":false,"is_disabled":false,"rental_uris":{"android":"levelo://app?vid=29a2dc41-176e-4ce3-9704-1e0c81ed4573","ios":"levelo://app?vid=29a2dc41-176e-4ce3-9704-1e0c81ed4573"},"vehicle_type_id":"4","last_reported":1741475269,"current_range_meters":8000,"station_id":"ce4bhh92rcd13ifvqfj0","pricing_plan_id":"cebpf4jnsgd1na2vs0mg"},{"bike_id":"72c73a00-216e-4b34-b427-00198b16f72a","system_id":"levelo_inurba_marseille","lat":43.28693,"lon":5.38657,"is_reserved":false,"is_disabled":false,"rental_uris":{"android":"levelo://app?vid=72c73a00-216e-4b34-b427-00198b16f72a","ios":"levelo://app?vid=72c73a00-216e-4b34-b427-00198b16f72a"},"vehicle_type_id":"4","last_reported":1741475269,"current_range_meters":8000,"station_id":"ce4bh492rcd13ifvqdug","pricing_plan_id":"cebpf4jnsgd1na2vs0mg"},{"bike_id":"c9bc0d77-21fc-4da2-8a26-6f1d0f23b32e","system_id":"levelo_inurba_marseille","lat":43.291014,"lon":5.381434,"is_reserved":false,"is_disabled":false,"rental_uris":{"android":"levelo://app?vid=c9bc0d77-21fc-4da2-8a26-6f1d0f23b32e","ios":"levelo://app?vid=c9bc0d77-21fc-4da2-8a26-6f1d0f23b32e"},"vehicle_type_id":"4","last_reported":1741475269,"current_range_meters":8000,"station_id":"ce4bh512rcd13ifvqe2g","pricing_plan_id":"cebpf4jnsgd1na2vs0mg"},{"bike_id":"7215f82e-90f0-408f-950b-a94519d8ce3d","system_id":"levelo_inurba_marseille","lat":43.28608,"lon":5.37062,"is_reserved":false,"is_disabled":false,"rental_uris":{"android":"levelo://app?vid=7215f82e-90f0-408f-950b-a94519d8ce3d","ios":"levelo://app?vid=7215f82e-90f0-408f-950b-a94519d8ce3d"},"vehicle_type_id":"4","last_reported":1741475269,"current_range_meters":8400,"station_id":"ce4bht12rcd13ifvqi60","pricing_plan_id":"cebpf4jnsgd1na2vs0mg"},{"bike_id":"f7b9a431-cef0-47cd-aa60-d241d5be9eb1","system_id":"levelo_inurba_marseille","lat":43.30805,"lon":5.38141,"is_reserved":false,"is_disabled":false,"rental_uris":{"android":"levelo://app?vid=f7b9a431-cef0-47cd-aa60-d241d5be9eb1","ios":"levelo://app?vid=f7b9a431-cef0-47cd-aa60-d241d5be9eb1"},"vehicle_type_id":"4","last_reported":1741475269,"current_range_meters":8000,"station_id":"ce4bgt12rcd13ifvqce0","pricing_plan_id":"cebpf4jnsgd1na2vs0mg"},{"bike_id":"4f508b50-1e3d-40c5-be77-1e6495edbe07","system_id":"levelo_inurba_marseille","lat":43.25728,"lon":5.41114,"is_reserved":false,"is_disabled":false,"rental_uris":{"android":"levelo://app?vid=4f508b50-1e3d-40c5-be77-1e6495edbe07","ios":"levelo://app?vid=4f508b50-1e3d-40c5-be77-1e6495edbe07"},"vehicle_type_id":"4","last_reported":1741475269,"current_range_meters":8400,"station_id":"ce4bhkp2rcd13ifvqgd0","pricing_plan_id":"cebpf4jnsgd1na2vs0mg"},{"bike_id":"a85666a4-8fe7-4d6d-9254-683bdd61b61f","system_id":"levelo_inurba_marseille","lat":43.27383,"lon":5.41412,"is_reserved":false,"is_disabled":false,"rental_uris":{"android":"levelo://app?vid=a85666a4-8fe7-4d6d-9254-683bdd61b61f","ios":"levelo://app?vid=a85666a4-8fe7-4d6d-9254-683bdd61b61f"},"vehicle_type_id":"4","last_reported":1741475269,"current_range_meters":8400,"station_id":"","pricing_plan_id":"cebpf4jnsgd1na2vs0mg"},{"bike_id":"025bd80e-2557-4b30-95ed-4938a6d70ede","system_id":"levelo_inurba_marseille","lat":43.26256,"lon":5.38958,"is_reserved":false,"is_disabled":false,"rental_uris":{"android":"levelo://app?vid=025bd80e-2557-4b30-95ed-4938a6d70ede","ios":"levelo://app?vid=025bd80e-2557-4b30-95ed-4938a6d70ede"},"vehicle_type_id":"4","last_reported":1741475269,"current_range_meters":8400,"station_id":"","pricing_plan_id":"cebpf4jnsgd1na2vs0mg"},{"bike_id":"c9201ce5-d0bb-4e55-9e5a-3e3fed2b48c6","system_id":"levelo_inurba_marseille","lat":43.30181,"lon":5.36618,"is_reserved":false,"is_disabled":false,"rental_uris":{"android":"levelo://app?vid=c9201ce5-d0bb-4e55-9e5a-3e3fed2b48c6","ios":"levelo://app?vid=c9201ce5-d0bb-4e55-9e5a-3e3fed2b48c6"},"vehicle_type_id":"4","last_reported":1741475269,"current_range_meters":8400,"station_id":"ce4bgrh2rcd13ifvqc8g","pricing_plan_id":"cebpf4jnsgd1na2vs0mg"},{"bike_id":"a6c74a05-39e7-4da6-8b71-1ba187fc5bae","system_id":"levelo_inurba_marseille","lat":43.30533,"lon":5.3654,"is_reserved":false,"is_disabled":true,"rental_uris":{"android":"levelo://app?vid=a6c74a05-39e7-4da6-8b71-1ba187fc5bae","ios":"levelo://app?vid=a6c74a05-39e7-4da6-8b71-1ba187fc5bae"},"vehicle_type_id":"4","last_reported":1741475269,"current_range_meters":8400,"station_id":"ce4bgs12rcd13ifvqcag","pricing_plan_id":"cebpf4jnsgd1na2vs0mg"},{"bike_id":"7e48344a-4db8-47b3-8baa-574165663505","system_id":"levelo_inurba_marseille","lat":43.2439,"lon":5.37052,"is_reserved":false,"is_disabled":false,"rental_uris":{"android":"levelo://app?vid=7e48344a-4db8-47b3-8baa-574165663505","ios":"levelo://app?vid=7e48344a-4db8-47b3-8baa-574165663505"},"vehicle_type_id":"4","last_reported":1741475269,"current_range_meters":8400,"station_id":"ce4bhhh2rcd13ifvqfk0","pricing_plan_id":"cebpf4jnsgd1na2vs0mg"},{"bike_id":"3f5ed0cc-5685-447f-a0d8-a24d865042ea","system_id":"levelo_inurba_marseille","lat":43.2668,"lon":5.38266,"is_reserved":false,"is_disabled":false,"rental_uris":{"android":"levelo://app?vid=3f5ed0cc-5685-447f-a0d8-a24d865042ea","ios":"levelo://app?vid=3f5ed0cc-5685-447f-a0d8-a24d865042ea"},"vehicle_type_id":"4","last_reported":1741475269,"current_range_meters":8000,"station_id":"ce4bhg92rcd13ifvqf90","pricing_plan_id":"cebpf4jnsgd1na2vs0mg"},{"bike_id":"b27af624-9233-4f49-9436-a8650c462731","system_id":"levelo_inurba_marseille","lat":43.31119,"lon":5.37765,"is_reserved":false,"is_disabled":false,"rental_uris":{"android":"levelo://app?vid=b27af624-9233-4f49-9436-a8650c462731","ios":"levelo://app?vid=b27af624-9233-4f49-9436-a8650c462731"},"vehicle_type_id":"4","last_reported":1741475269,"current_range_meters":6800,"station_id":"ce4bgt92rcd13ifvqcg0","pricing_plan_id":"cebpf4jnsgd1na2vs0mg"},{"bike_id":"46c4231f-7385-4d40-9ad3-8b5e57378081","system_id":"levelo_inurba_marseille","lat":43.29518,"lon":5.38554,"is_reserved":false,"is_disabled":false,"rental_uris":{"android":"levelo://app?vid=46c4231f-7385-4d40-9ad3-8b5e57378081","ios":"levelo://app?vid=46c4231f-7385-4d40-9ad3-8b5e57378081"},"vehicle_type_id":"4","last_reported":1741475269,"current_range_meters":8400,"station_id":"ce4bgih2rcd13ifvqba0","pricing_plan_id":"cebpf4jnsgd1na2vs0mg"},{"bike_id":"b057457c-b45e-4215-b6a4-f2d7ba9ed10d","system_id":"levelo_inurba_marseille","lat":43.29597,"lon":5.38118,"is_reserved":false,"is_disabled":false,"rental_uris":{"android":"levelo://app?vid=b057457c-b45e-4215-b6a4-f2d7ba9ed10d","ios":"levelo://app?vid=b057457c-b45e-4215-b6a4-f2d7ba9ed10d"},"vehicle_type_id":"4","last_reported":1741475269,"current_range_meters":8400,"station_id":"ce4bgl12rcd13ifvqbo0","pricing_plan_id":"cebpf4jnsgd1na2vs0mg"},{"bike_id":"cd577481-c1a0-4716-a980-b40cf86cfd89","system_id":"levelo_inurba_marseille","lat":43.295429,"lon":5.390454,"is_reserved":false,"is_disabled":false,"rental_uris":{"android":"levelo://app?vid=cd577481-c1a0-4716-a980-b40cf86cfd89","ios":"levelo://app?vid=cd577481-c1a0-4716-a980-b40cf86cfd89"},"vehicle_type_id":"4","last_reported":1741475269,"current_range_meters":8400,"station_id":"","pricing_plan_id":"cebpf4jnsgd1na2vs0mg"},{"bike_id":"dad15590-a42a-4a18-8c42-163c3b082f56","system_id":"levelo_inurba_marseille","lat":43.30073,"lon":5.39093,"is_reserved":false,"is_disabled":false,"rental_uris":{"android":"levelo://app?vid=dad15590-a42a-4a18-8c42-163c3b082f56","ios":"levelo://app?vid=dad15590-a42a-4a18-8c42-163c3b082f56"},"vehicle_type_id":"4","last_reported":1741475269,"current_range_meters":8400,"station_id":"ce4bh192rcd13ifvqdb0","pricing_plan_id":"cebpf4jnsgd1na2vs0mg"},{"bike_id":"2db7fb03-a170-4940-9222-bd7cb218edc3","system_id":"levelo_inurba_marseille","lat":43.29281,"lon":5.36851,"is_reserved":false,"is_disabled":false,"rental_uris":{"android":"levelo://app?vid=2db7fb03-a170-4940-9222-bd7cb218edc3","ios":"levelo://app?vid=2db7fb03-a170-4940-9222-bd7cb218edc3"},"vehicle_type_id":"4","last_reported":1741475269,"current_range_meters":8400,"station_id":"ce4bhbp2rcd13ifvqesg","pricing_plan_id":"cebpf4jnsgd1na2vs0mg"},{"bike_id":"cf8661bc-fee9-494a-8f13-615307c50d1c","system_id":"levelo_inurba_marseille","lat":43.32766,"lon":5.39203,"is_reserved":false,"is_disabled":false,"rental_uris":{"android":"levelo://app?vid=cf8661bc-fee9-494a-8f13-615307c50d1c","ios":"levelo://app?vid=cf8661bc-fee9-494a-8f13-615307c50d1c"},"vehicle_type_id":"4","last_reported":1741475269,"current_range_meters":8400,"station_id":"","pricing_plan_id":"cebpf4jnsgd1na2vs0mg"},{"bike_id":"c787a0ef-03a5-4d36-b53c-60238e9036da","system_id":"levelo_inurba_marseille","lat":43.23184,"lon":5.40011,"is_reserved":false,"is_disabled":false,"rental_uris":{"android":"levelo://app?vid=c787a0ef-03a5-4d36-b53c-60238e9036da","ios":"levelo://app?vid=c787a0ef-03a5-4d36-b53c-60238e9036da"},"vehicle_type_id":"4","last_reported":1741475269,"current_range_meters":8800,"station_id":"ce4bhn12rcd13ifvqgqg","pricing_plan_id":"cebpf4jnsgd1na2vs0mg"},{"bike_id":"08ce511a-3c8d-4a9f-8913-e63ebbdff829","system_id":"levelo_inurba_marseille","lat":43.28944,"lon":5.39624,"is_reserved":false,"is_disabled":false,"rental_uris":{"android":"levelo://app?vid=08ce511a-3c8d-4a9f-8913-e63ebbdff829","ios":"levelo://app?vid=08ce511a-3c8d-4a9f-8913-e63ebbdff829"},"vehicle_type_id":"4","last_reported":1741475269,"current_range_meters":8400,"station_id":"ce4bh3h2rcd13ifvqdn0","pricing_plan_id":"cebpf4jnsgd1na2vs0mg"},{"bike_id":"c03bed70-3b92-451c-9cb1-fdfc1b3ce795","system_id":"levelo_inurba_marseille","lat":43.23149,"lon":5.43725,"is_reserved":false,"is_disabled":false,"rental_uris":{"android":"levelo://app?vid=c03bed70-3b92-451c-9cb1-fdfc1b3ce795","ios":"levelo://app?vid=c03bed70-3b92-451c-9cb1-fdfc1b3ce795"},"vehicle_type_id":"4","last_reported":1741475269,"current_range_meters":14000,"station_id":"ce4bhmp2rcd13ifvqgog","pricing_plan_id":"cebpf4jnsgd1na2vs0mg"},{"bike_id":"bdce6986-86c4-4404-aa26-b17249768109","system_id":"levelo_inurba_marseille","lat":43.27799,"lon":5.40713,"is_reserved":false,"is_disabled":false,"rental_uris":{"android":"levelo://app?vid=bdce6986-86c4-4404-aa26-b17249768109","ios":"levelo://app?vid=bdce6986-86c4-4404-aa26-b17249768109"},"vehicle_type_id":"4","last_reported":1741475269,"current_range_meters":8800,"station_id":"ce4bhnh2rcd13ifvqgtg","pricing_plan_id":"cebpf4jnsgd1na2vs0mg"},{"bike_id":"28a222b8-ee91-4818-b3f4-9fc2f0d905f9","system_id":"levelo_inurba_marseille","lat":43.301,"lon":5.39084,"is_reserved":false,"is_disabled":false,"rental_uris":{"android":"levelo://app?vid=28a222b8-ee91-4818-b3f4-9fc2f0d905f9","ios":"levelo://app?vid=28a222b8-ee91-4818-b3f4-9fc2f0d905f9"},"vehicle_type_id":"4","last_reported":1741475269,"current_range_meters":8800,"station_id":"ce4bh192rcd13ifvqdb0","pricing_plan_id":"cebpf4jnsgd1na2vs0mg"},{"bike_id":"42aedb88-473c-4518-8d54-dc991a6234b1","system_id":"levelo_inurba_marseille","lat":43.27829,"lon":5.40716,"is_reserved":false,"is_disabled":false,"rental_uris":{"android":"levelo://app?vid=42aedb88-473c-4518-8d54-dc991a6234b1","ios":"levelo://app?vid=42aedb88-473c-4518-8d54-dc991a6234b1"},"vehicle_type_id":"4","last_reported":1741475269,"current_range_meters":8800,"station_id":"ce4bhnh2rcd13ifvqgtg","pricing_plan_id":"cebpf4jnsgd1na2vs0mg"},{"bike_id":"e2f0b9ec-4e7f-4be6-ba0b-ea951e669535","system_id":"levelo_inurba_marseille","lat":43.30894,"lon":5.37187,"is_reserved":false,"is_disabled":false,"rental_uris":{"android":"levelo://app?vid=e2f0b9ec-4e7f-4be6-ba0b-ea951e669535","ios":"levelo://app?vid=e2f0b9ec-4e7f-4be6-ba0b-ea951e669535"},"vehicle_type_id":"4","last_reported":1741475269,"current_range_meters":8800,"station_id":"ce4bguh2rcd13ifvqckg","pricing_plan_id":"cebpf4jnsgd1na2vs0mg"},{"bike_id":"89846120-624d-4233-a515-bdc69e3f3ab7","system_id":"levelo_inurba_marseille","lat":43.3032,"lon":5.40431,"is_reserved":false,"is_disabled":false,"rental_uris":{"android":"levelo://app?vid=89846120-624d-4233-a515-bdc69e3f3ab7","ios":"levelo://app?vid=89846120-624d-4233-a515-bdc69e3f3ab7"},"vehicle_type_id":"4","last_reported":1741475269,"current_range_meters":8800,"station_id":"ce4bh012rcd13ifvqd10","pricing_plan_id":"cebpf4jnsgd1na2vs0mg"},{"bike_id":"dc3b7e50-0ca9-4aea-9a47-232d24ba0afe","system_id":"levelo_inurba_marseille","lat":43.29557,"lon":5.39965,"is_reserved":false,"is_disabled":false,"rental_uris":{"android":"levelo://app?vid=dc3b7e50-0ca9-4aea-9a47-232d24ba0afe","ios":"levelo://app?vid=dc3b7e50-0ca9-4aea-9a47-232d24ba0afe"},"vehicle_type_id":"4","last_reported":1741475269,"current_range_meters":8800,"station_id":"ce4bh312rcd13ifvqdj0","pricing_plan_id":"cebpf4jnsgd1na2vs0mg"},{"bike_id":"a2183620-77c7-445c-8d1f-5f90280fa95b","system_id":"levelo_inurba_marseille","lat":43.3152,"lon":5.38035,"is_reserved":false,"is_disabled":false,"rental_uris":{"android":"levelo://app?vid=a2183620-77c7-445c-8d1f-5f90280fa95b","ios":"levelo://app?vid=a2183620-77c7-445c-8d1f-5f90280fa95b"},"vehicle_type_id":"4","last_reported":1741475269,"current_range_meters":9200,"station_id":"ce4bhsp2rcd13ifvqi50","pricing_plan_id":"cebpf4jnsgd1na2vs0mg"},{"bike_id":"1c3b3f09-7d3f-4256-9de7-cbf4f23106ef","system_id":"levelo_inurba_marseille","lat":43.33058,"lon":5.39568,"is_reserved":false,"is_disabled":false,"rental_uris":{"android":"levelo://app?vid=1c3b3f09-7d3f-4256-9de7-cbf4f23106ef","ios":"levelo://app?vid=1c3b3f09-7d3f-4256-9de7-cbf4f23106ef"},"vehicle_type_id":"4","last_reported":1741475269,"current_range_meters":9200,"station_id":"","pricing_plan_id":"cebpf4jnsgd1na2vs0mg"},{"bike_id":"e33dac95-281a-4fd5-ab6d-7ca26ffc6df5","system_id":"levelo_inurba_marseille","lat":43.248168,"lon":5.374454,"is_reserved":false,"is_disabled":false,"rental_uris":{"android":"levelo://app?vid=e33dac95-281a-4fd5-ab6d-7ca26ffc6df5","ios":"levelo://app?vid=e33dac95-281a-4fd5-ab6d-7ca26ffc6df5"},"vehicle_type_id":"4","last_reported":1741475269,"current_range_meters":9200,"station_id":"ce4bhgh2rcd13ifvqfb0","pricing_plan_id":"cebpf4jnsgd1na2vs0mg"},{"bike_id":"b2c2514d-58df-4080-9acc-0a3325c87525","system_id":"levelo_inurba_marseille","lat":43.32367,"lon":5.36775,"is_reserved":false,"is_disabled":false,"rental_uris":{"android":"levelo://app?vid=b2c2514d-58df-4080-9acc-0a3325c87525","ios":"levelo://app?vid=b2c2514d-58df-4080-9acc-0a3325c87525"},"vehicle_type_id":"4","last_reported":1741475269,"current_range_meters":9200,"station_id":"ce4bhsh2rcd13ifvqi2g","pricing_plan_id":"cebpf4jnsgd1na2vs0mg"},{"bike_id":"fdf45df4-47d5-41e8-a6c7-03ee85585140","system_id":"levelo_inurba_marseille","lat":43.26759,"lon":5.39439,"is_reserved":false,"is_disabled":true,"rental_uris":{"android":"levelo://app?vid=fdf45df4-47d5-41e8-a6c7-03ee85585140","ios":"levelo://app?vid=fdf45df4-47d5-41e8-a6c7-03ee85585140"},"vehicle_type_id":"4","last_reported":1741475269,"current_range_meters":9200,"station_id":"","pricing_plan_id":"cebpf4jnsgd1na2vs0mg"},{"bike_id":"0ee34a75-da67-4fcc-bde2-63a3210d095a","system_id":"levelo_inurba_marseille","lat":43.29426,"lon":5.38637,"is_reserved":false,"is_disabled":false,"rental_uris":{"android":"levelo://app?vid=0ee34a75-da67-4fcc-bde2-63a3210d095a","ios":"levelo://app?vid=0ee34a75-da67-4fcc-bde2-63a3210d095a"},"vehicle_type_id":"4","last_reported":1741475269,"current_range_meters":9200,"station_id":"ce4bh2h2rcd13ifvqdh0","pricing_plan_id":"cebpf4jnsgd1na2vs0mg"},{"bike_id":"dd9a88d6-be9f-49f5-ab3a-4a9b434f536b","system_id":"levelo_inurba_marseille","lat":43.30925,"lon":5.40142,"is_reserved":false,"is_disabled":true,"rental_uris":{"android":"levelo://app?vid=dd9a88d6-be9f-49f5-ab3a-4a9b434f536b","ios":"levelo://app?vid=dd9a88d6-be9f-49f5-ab3a-4a9b434f536b"},"vehicle_type_id":"4","last_reported":1741475269,"current_range_meters":9200,"station_id":"ce4bgvp2rcd13ifvqct0","pricing_plan_id":"cebpf4jnsgd1na2vs0mg"},{"bike_id":"af2ebc1e-e4b6-4dd5-9b8a-36fa14ab0e82","system_id":"levelo_inurba_marseille","lat":43.298743,"lon":5.397327,"is_reserved":false,"is_disabled":false,"rental_uris":{"android":"levelo://app?vid=af2ebc1e-e4b6-4dd5-9b8a-36fa14ab0e82","ios":"levelo://app?vid=af2ebc1e-e4b6-4dd5-9b8a-36fa14ab0e82"},"vehicle_type_id":"4","last_reported":1741475269,"current_range_meters":9200,"station_id":"ce4bh0h2rcd13ifvqd50","pricing_plan_id":"cebpf4jnsgd1na2vs0mg"},{"bike_id":"14cf3877-3af3-46f4-af3f-e93bc737cb7b","system_id":"levelo_inurba_marseille","lat":43.298502,"lon":5.362855,"is_reserved":false,"is_disabled":false,"rental_uris":{"android":"levelo://app?vid=14cf3877-3af3-46f4-af3f-e93bc737cb7b","ios":"levelo://app?vid=14cf3877-3af3-46f4-af3f-e93bc737cb7b"},"vehicle_type_id":"4","last_reported":1741475269,"current_range_meters":9200,"station_id":"ce4bgpp2rcd13ifvqc3g","pricing_plan_id":"cebpf4jnsgd1na2vs0mg"},{"bike_id":"692c3fd1-e388-4c38-bc5f-023f56dd0104","system_id":"levelo_inurba_marseille","lat":43.25736,"lon":5.4109,"is_reserved":false,"is_disabled":false,"rental_uris":{"android":"levelo://app?vid=692c3fd1-e388-4c38-bc5f-023f56dd0104","ios":"levelo://app?vid=692c3fd1-e388-4c38-bc5f-023f56dd0104"},"vehicle_type_id":"4","last_reported":1741475269,"current_range_meters":9200,"station_id":"ce4bhkp2rcd13ifvqgd0","pricing_plan_id":"cebpf4jnsgd1na2vs0mg"},{"bike_id":"7ccf354e-d9c3-453e-9d8c-ff76790a4a22","system_id":"levelo_inurba_marseille","lat":43.29532,"lon":5.3854,"is_reserved":false,"is_disabled":false,"rental_uris":{"android":"levelo://app?vid=7ccf354e-d9c3-453e-9d8c-ff76790a4a22","ios":"levelo://app?vid=7ccf354e-d9c3-453e-9d8c-ff76790a4a22"},"vehicle_type_id":"4","last_reported":1741475269,"current_range_meters":9200,"station_id":"ce4bgih2rcd13ifvqba0","pricing_plan_id":"cebpf4jnsgd1na2vs0mg"},{"bike_id":"ab66da5b-f0e9-439e-9ff7-184a96ef1430","system_id":"levelo_inurba_marseille","lat":43.32363,"lon":5.36769,"is_reserved":false,"is_disabled":false,"rental_uris":{"android":"levelo://app?vid=ab66da5b-f0e9-439e-9ff7-184a96ef1430","ios":"levelo://app?vid=ab66da5b-f0e9-439e-9ff7-184a96ef1430"},"vehicle_type_id":"4","last_reported":1741475269,"current_range_meters":9200,"station_id":"ce4bhsh2rcd13ifvqi2g","pricing_plan_id":"cebpf4jnsgd1na2vs0mg"},{"bike_id":"d399c68f-4683-4187-95d7-e32ffde3c66c","system_id":"levelo_inurba_marseille","lat":43.25092,"lon":5.3951,"is_reserved":false,"is_disabled":false,"rental_uris":{"android":"levelo://app?vid=d399c68f-4683-4187-95d7-e32ffde3c66c","ios":"levelo://app?vid=d399c68f-4683-4187-95d7-e32ffde3c66c"},"vehicle_type_id":"4","last_reported":1741475269,"current_range_meters":9200,"station_id":"ce4bhm12rcd13ifvqgkg","pricing_plan_id":"cebpf4jnsgd1na2vs0mg"},{"bike_id":"3bbf4e63-bc15-4fc5-b69b-210678351fb6","system_id":"levelo_inurba_marseille","lat":43.24075,"lon":5.37763,"is_reserved":false,"is_disabled":false,"rental_uris":{"android":"levelo://app?vid=3bbf4e63-bc15-4fc5-b69b-210678351fb6","ios":"levelo://app?vid=3bbf4e63-bc15-4fc5-b69b-210678351fb6"},"vehicle_type_id":"4","last_reported":1741475269,"current_range_meters":9200,"station_id":"ce4bhnp2rcd13ifvqgvg","pricing_plan_id":"cebpf4jnsgd1na2vs0mg"},{"bike_id":"6b937baf-8fc2-4105-ab81-d2e048a9a93c","system_id":"levelo_inurba_marseille","lat":43.29414,"lon":5.38638,"is_reserved":false,"is_disabled":false,"rental_uris":{"android":"levelo://app?vid=6b937baf-8fc2-4105-ab81-d2e048a9a93c","ios":"levelo://app?vid=6b937baf-8fc2-4105-ab81-d2e048a9a93c"},"vehicle_type_id":"4","last_reported":1741475269,"current_range_meters":9200,"station_id":"ce4bh2h2rcd13ifvqdh0","pricing_plan_id":"cebpf4jnsgd1na2vs0mg"},{"bike_id":"b533f38f-df9a-4e01-86fb-08f4b9bfcdfb","system_id":"levelo_inurba_marseille","lat":43.26206,"lon":5.42137,"is_reserved":false,"is_disabled":false,"rental_uris":{"android":"levelo://app?vid=b533f38f-df9a-4e01-86fb-08f4b9bfcdfb","ios":"levelo://app?vid=b533f38f-df9a-4e01-86fb-08f4b9bfcdfb"},"vehicle_type_id":"4","last_reported":1741475269,"current_range_meters":9200,"station_id":"","pricing_plan_id":"cebpf4jnsgd1na2vs0mg"},{"bike_id":"dad63a22-3573-4eb3-a8b7-44c1b9eff39e","system_id":"levelo_inurba_marseille","lat":43.32631,"lon":5.41016,"is_reserved":false,"is_disabled":false,"rental_uris":{"android":"levelo://app?vid=dad63a22-3573-4eb3-a8b7-44c1b9eff39e","ios":"levelo://app?vid=dad63a22-3573-4eb3-a8b7-44c1b9eff39e"},"vehicle_type_id":"4","last_reported":1741475269,"current_range_meters":9200,"station_id":"ce4bhpp2rcd13ifvqhgg","pricing_plan_id":"cebpf4jnsgd1na2vs0mg"},{"bike_id":"a2d14984-1470-43e9-a791-4e28d66c40c8","system_id":"levelo_inurba_marseille","lat":43.287,"lon":5.39966,"is_reserved":false,"is_disabled":false,"rental_uris":{"android":"levelo://app?vid=a2d14984-1470-43e9-a791-4e28d66c40c8","ios":"levelo://app?vid=a2d14984-1470-43e9-a791-4e28d66c40c8"},"vehicle_type_id":"4","last_reported":1741475269,"current_range_meters":9200,"station_id":"ce4bho92rcd13ifvqh3g","pricing_plan_id":"cebpf4jnsgd1na2vs0mg"},{"bike_id":"2e3c60b3-f5fc-40b6-b347-86b0b4f3ee6e","system_id":"levelo_inurba_marseille","lat":43.23214,"lon":5.39959,"is_reserved":false,"is_disabled":false,"rental_uris":{"android":"levelo://app?vid=2e3c60b3-f5fc-40b6-b347-86b0b4f3ee6e","ios":"levelo://app?vid=2e3c60b3-f5fc-40b6-b347-86b0b4f3ee6e"},"vehicle_type_id":"4","last_reported":1741475269,"current_range_meters":9200,"station_id":"","pricing_plan_id":"cebpf4jnsgd1na2vs0mg"},{"bike_id":"8a918602-9ac4-47c1-baf8-d4080cced523","system_id":"levelo_inurba_marseille","lat":43.29431,"lon":5.38636,"is_reserved":false,"is_disabled":false,"rental_uris":{"android":"levelo://app?vid=8a918602-9ac4-47c1-baf8-d4080cced523","ios":"levelo://app?vid=8a918602-9ac4-47c1-baf8-d4080cced523"},"vehicle_type_id":"4","last_reported":1741475269,"current_range_meters":9200,"station_id":"ce4bh2h2rcd13ifvqdh0","pricing_plan_id":"cebpf4jnsgd1na2vs0mg"},{"bike_id":"4535af30-838a-436f-9c39-afb86353063f","system_id":"levelo_inurba_marseille","lat":43.30187,"lon":5.39958,"is_reserved":false,"is_disabled":false,"rental_uris":{"android":"levelo://app?vid=4535af30-838a-436f-9c39-afb86353063f","ios":"levelo://app?vid=4535af30-838a-436f-9c39-afb86353063f"},"vehicle_type_id":"4","last_reported":1741475269,"current_range_meters":9200,"station_id":"","pricing_plan_id":"cebpf4jnsgd1na2vs0mg"},{"bike_id":"e4bd2c36-555f-4bad-ae17-7623a44e9165","system_id":"levelo_inurba_marseille","lat":43.31349,"lon":5.38332,"is_reserved":false,"is_disabled":false,"rental_uris":{"android":"levelo://app?vid=e4bd2c36-555f-4bad-ae17-7623a44e9165","ios":"levelo://app?vid=e4bd2c36-555f-4bad-ae17-7623a44e9165"},"vehicle_type_id":"4","last_reported":1741475269,"current_range_meters":9600,"station_id":"","pricing_plan_id":"cebpf4jnsgd1na2vs0mg"},{"bike_id":"5355ed1f-6874-4553-9f3e-dcfeb5b3752c","system_id":"levelo_inurba_marseille","lat":43.33068,"lon":5.40821,"is_reserved":false,"is_disabled":false,"rental_uris":{"android":"levelo://app?vid=5355ed1f-6874-4553-9f3e-dcfeb5b3752c","ios":"levelo://app?vid=5355ed1f-6874-4553-9f3e-dcfeb5b3752c"},"vehicle_type_id":"4","last_reported":1741475269,"current_range_meters":9600,"station_id":"","pricing_plan_id":"cebpf4jnsgd1na2vs0mg"},{"bike_id":"8c868552-074b-4675-9536-a80acb252140","system_id":"levelo_inurba_marseille","lat":43.28105,"lon":5.3784,"is_reserved":false,"is_disabled":false,"rental_uris":{"android":"levelo://app?vid=8c868552-074b-4675-9536-a80acb252140","ios":"levelo://app?vid=8c868552-074b-4675-9536-a80acb252140"},"vehicle_type_id":"4","last_reported":1741475269,"current_range_meters":9200,"station_id":"ce4bha12rcd13ifvqee0","pricing_plan_id":"cebpf4jnsgd1na2vs0mg"},{"bike_id":"7205b0b3-00f7-4d96-9078-4953e7bd6570","system_id":"levelo_inurba_marseille","lat":43.29722,"lon":5.3773,"is_reserved":false,"is_disabled":false,"rental_uris":{"android":"levelo://app?vid=7205b0b3-00f7-4d96-9078-4953e7bd6570","ios":"levelo://app?vid=7205b0b3-00f7-4d96-9078-4953e7bd6570"},"vehicle_type_id":"4","last_reported":1741475269,"current_range_meters":9600,"station_id":"ce4bgkh2rcd13ifvqbl0","pricing_plan_id":"cebpf4jnsgd1na2vs0mg"},{"bike_id":"e5ad6682-c882-42c3-a00b-76efa7111f37","system_id":"levelo_inurba_marseille","lat":43.30293,"lon":5.38617,"is_reserved":false,"is_disabled":false,"rental_uris":{"android":"levelo://app?vid=e5ad6682-c882-42c3-a00b-76efa7111f37","ios":"levelo://app?vid=e5ad6682-c882-42c3-a00b-76efa7111f37"},"vehicle_type_id":"4","last_reported":1741475269,"current_range_meters":6400,"station_id":"ce4bgk12rcd13ifvqbi0","pricing_plan_id":"cebpf4jnsgd1na2vs0mg"},{"bike_id":"388ea826-f5fa-4632-a530-45d13cc0a769","system_id":"levelo_inurba_marseille","lat":43.23186,"lon":5.39998,"is_reserved":false,"is_disabled":false,"rental_uris":{"android":"levelo://app?vid=388ea826-f5fa-4632-a530-45d13cc0a769","ios":"levelo://app?vid=388ea826-f5fa-4632-a530-45d13cc0a769"},"vehicle_type_id":"4","last_reported":1741475269,"current_range_meters":9600,"station_id":"ce4bhn12rcd13ifvqgqg","pricing_plan_id":"cebpf4jnsgd1na2vs0mg"},{"bike_id":"344eec88-8503-48cc-b750-e9b8cb1dcb80","system_id":"levelo_inurba_marseille","lat":43.2508,"lon":5.39528,"is_reserved":false,"is_disabled":false,"rental_uris":{"android":"levelo://app?vid=344eec88-8503-48cc-b750-e9b8cb1dcb80","ios":"levelo://app?vid=344eec88-8503-48cc-b750-e9b8cb1dcb80"},"vehicle_type_id":"4","last_reported":1741475269,"current_range_meters":9600,"station_id":"ce4bhm12rcd13ifvqgkg","pricing_plan_id":"cebpf4jnsgd1na2vs0mg"},{"bike_id":"08c1878a-6f7f-4aed-a469-7d54bca2de49","system_id":"levelo_inurba_marseille","lat":43.29883,"lon":5.38912,"is_reserved":false,"is_disabled":false,"rental_uris":{"android":"levelo://app?vid=08c1878a-6f7f-4aed-a469-7d54bca2de49","ios":"levelo://app?vid=08c1878a-6f7f-4aed-a469-7d54bca2de49"},"vehicle_type_id":"4","last_reported":1741475269,"current_range_meters":8800,"station_id":"ce4bh392rcd13ifvqdl0","pricing_plan_id":"cebpf4jnsgd1na2vs0mg"},{"bike_id":"436bcdbb-61d6-407c-bb12-7dc81cb26c80","system_id":"levelo_inurba_marseille","lat":43.29259,"lon":5.3762,"is_reserved":false,"is_disabled":false,"rental_uris":{"android":"levelo://app?vid=436bcdbb-61d6-407c-bb12-7dc81cb26c80","ios":"levelo://app?vid=436bcdbb-61d6-407c-bb12-7dc81cb26c80"},"vehicle_type_id":"4","last_reported":1741475269,"current_range_meters":9600,"station_id":"ce4bgi12rcd13ifvqb80","pricing_plan_id":"cebpf4jnsgd1na2vs0mg"},{"bike_id":"c3891ad8-9d83-4896-8a6f-f1be2336f31e","system_id":"levelo_inurba_marseille","lat":43.29277,"lon":5.40126,"is_reserved":false,"is_disabled":false,"rental_uris":{"android":"levelo://app?vid=c3891ad8-9d83-4896-8a6f-f1be2336f31e","ios":"levelo://app?vid=c3891ad8-9d83-4896-8a6f-f1be2336f31e"},"vehicle_type_id":"4","last_reported":1741475269,"current_range_meters":10000,"station_id":"ce4bh312rcd13ifvqdk0","pricing_plan_id":"cebpf4jnsgd1na2vs0mg"},{"bike_id":"eaa3cf00-9ae8-4c97-9bea-c424ccd5e353","system_id":"levelo_inurba_marseille","lat":43.29413,"lon":5.38645,"is_reserved":false,"is_disabled":false,"rental_uris":{"android":"levelo://app?vid=eaa3cf00-9ae8-4c97-9bea-c424ccd5e353","ios":"levelo://app?vid=eaa3cf00-9ae8-4c97-9bea-c424ccd5e353"},"vehicle_type_id":"4","last_reported":1741475269,"current_range_meters":10000,"station_id":"ce4bh2h2rcd13ifvqdh0","pricing_plan_id":"cebpf4jnsgd1na2vs0mg"},{"bike_id":"ad284fdb-e6f9-4c5a-9e2c-c44130087410","system_id":"levelo_inurba_marseille","lat":43.232,"lon":5.3997,"is_reserved":false,"is_disabled":false,"rental_uris":{"android":"levelo://app?vid=ad284fdb-e6f9-4c5a-9e2c-c44130087410","ios":"levelo://app?vid=ad284fdb-e6f9-4c5a-9e2c-c44130087410"},"vehicle_type_id":"4","last_reported":1741475269,"current_range_meters":10000,"station_id":"ce4bhn12rcd13ifvqgqg","pricing_plan_id":"cebpf4jnsgd1na2vs0mg"},{"bike_id":"de5e9f86-f674-4c5a-9fc3-493aa3f843db","system_id":"levelo_inurba_marseille","lat":43.31352,"lon":5.36731,"is_reserved":false,"is_disabled":false,"rental_uris":{"android":"levelo://app?vid=de5e9f86-f674-4c5a-9fc3-493aa3f843db","ios":"levelo://app?vid=de5e9f86-f674-4c5a-9fc3-493aa3f843db"},"vehicle_type_id":"4","last_reported":1741475269,"current_range_meters":10000,"station_id":"ce4bgl92rcd13ifvqbq0","pricing_plan_id":"cebpf4jnsgd1na2vs0mg"},{"bike_id":"ccdf59eb-6169-4016-998c-a8bd40344b92","system_id":"levelo_inurba_marseille","lat":43.28707,"lon":5.37392,"is_reserved":false,"is_disabled":false,"rental_uris":{"android":"levelo://app?vid=ccdf59eb-6169-4016-998c-a8bd40344b92","ios":"levelo://app?vid=ccdf59eb-6169-4016-998c-a8bd40344b92"},"vehicle_type_id":"4","last_reported":1741475269,"current_range_meters":10000,"station_id":"ce4bh3p2rcd13ifvqdq0","pricing_plan_id":"cebpf4jnsgd1na2vs0mg"},{"bike_id":"8c48953b-4c44-4322-93ed-5007a58895e4","system_id":"levelo_inurba_marseille","lat":43.28698,"lon":5.39984,"is_reserved":false,"is_disabled":false,"rental_uris":{"android":"levelo://app?vid=8c48953b-4c44-4322-93ed-5007a58895e4","ios":"levelo://app?vid=8c48953b-4c44-4322-93ed-5007a58895e4"},"vehicle_type_id":"4","last_reported":1741475269,"current_range_meters":10000,"station_id":"ce4bho92rcd13ifvqh3g","pricing_plan_id":"cebpf4jnsgd1na2vs0mg"},{"bike_id":"c73d7355-4fe2-45ac-a87e-1e809788576f","system_id":"levelo_inurba_marseille","lat":43.29256,"lon":5.38444,"is_reserved":false,"is_disabled":false,"rental_uris":{"android":"levelo://app?vid=c73d7355-4fe2-45ac-a87e-1e809788576f","ios":"levelo://app?vid=c73d7355-4fe2-45ac-a87e-1e809788576f"},"vehicle_type_id":"4","last_reported":1741475269,"current_range_meters":10000,"station_id":"ce4bh692rcd13ifvqea0","pricing_plan_id":"cebpf4jnsgd1na2vs0mg"},{"bike_id":"d3db5e48-c2af-4fca-8501-f777455dba21","system_id":"levelo_inurba_marseille","lat":43.25002,"lon":5.38924,"is_reserved":false,"is_disabled":false,"rental_uris":{"android":"levelo://app?vid=d3db5e48-c2af-4fca-8501-f777455dba21","ios":"levelo://app?vid=d3db5e48-c2af-4fca-8501-f777455dba21"},"vehicle_type_id":"4","last_reported":1741475269,"current_range_meters":10000,"station_id":"ce4bhgp2rcd13ifvqfd0","pricing_plan_id":"cebpf4jnsgd1na2vs0mg"},{"bike_id":"cdc6fa71-b8c0-46e7-902c-4e18b52385d2","system_id":"levelo_inurba_marseille","lat":43.28804,"lon":5.40063,"is_reserved":false,"is_disabled":false,"rental_uris":{"android":"levelo://app?vid=cdc6fa71-b8c0-46e7-902c-4e18b52385d2","ios":"levelo://app?vid=cdc6fa71-b8c0-46e7-902c-4e18b52385d2"},"vehicle_type_id":"4","last_reported":1741475269,"current_range_meters":10000,"station_id":"","pricing_plan_id":"cebpf4jnsgd1na2vs0mg"},{"bike_id":"ce8e0952-bd72-46a8-9481-a4de30a0a55a","system_id":"levelo_inurba_marseille","lat":43.29255,"lon":5.38448,"is_reserved":false,"is_disabled":false,"rental_uris":{"android":"levelo://app?vid=ce8e0952-bd72-46a8-9481-a4de30a0a55a","ios":"levelo://app?vid=ce8e0952-bd72-46a8-9481-a4de30a0a55a"},"vehicle_type_id":"4","last_reported":1741475269,"current_range_meters":10000,"station_id":"ce4bh692rcd13ifvqea0","pricing_plan_id":"cebpf4jnsgd1na2vs0mg"},{"bike_id":"a5ddb1a2-6779-43c5-b3c1-23e758d87bb7","system_id":"levelo_inurba_marseille","lat":43.29524,"lon":5.38558,"is_reserved":false,"is_disabled":false,"rental_uris":{"android":"levelo://app?vid=a5ddb1a2-6779-43c5-b3c1-23e758d87bb7","ios":"levelo://app?vid=a5ddb1a2-6779-43c5-b3c1-23e758d87bb7"},"vehicle_type_id":"4","last_reported":1741475269,"current_range_meters":10000,"station_id":"ce4bgih2rcd13ifvqba0","pricing_plan_id":"cebpf4jnsgd1na2vs0mg"},{"bike_id":"e7ef88a5-bcbd-49a0-a34d-43f49e9e7fbf","system_id":"levelo_inurba_marseille","lat":43.30436,"lon":5.38904,"is_reserved":false,"is_disabled":false,"rental_uris":{"android":"levelo://app?vid=e7ef88a5-bcbd-49a0-a34d-43f49e9e7fbf","ios":"levelo://app?vid=e7ef88a5-bcbd-49a0-a34d-43f49e9e7fbf"},"vehicle_type_id":"4","last_reported":1741475269,"current_range_meters":10000,"station_id":"ce4bgk12rcd13ifvqbi0","pricing_plan_id":"cebpf4jnsgd1na2vs0mg"},{"bike_id":"93b65028-e8a4-4c8f-876a-ae246ea8ac90","system_id":"levelo_inurba_marseille","lat":43.3135,"lon":5.38499,"is_reserved":false,"is_disabled":true,"rental_uris":{"android":"levelo://app?vid=93b65028-e8a4-4c8f-876a-ae246ea8ac90","ios":"levelo://app?vid=93b65028-e8a4-4c8f-876a-ae246ea8ac90"},"vehicle_type_id":"4","last_reported":1741475269,"current_range_meters":10800,"station_id":"ce4bgt92rcd13ifvqcf0","pricing_plan_id":"cebpf4jnsgd1na2vs0mg"},{"bike_id":"2a3a8222-0824-4130-a051-e3506a3fb94c","system_id":"levelo_inurba_marseille","lat":43.24077,"lon":5.37757,"is_reserved":false,"is_disabled":false,"rental_uris":{"android":"levelo://app?vid=2a3a8222-0824-4130-a051-e3506a3fb94c","ios":"levelo://app?vid=2a3a8222-0824-4130-a051-e3506a3fb94c"},"vehicle_type_id":"4","last_reported":1741475269,"current_range_meters":10800,"station_id":"ce4bhnp2rcd13ifvqgvg","pricing_plan_id":"cebpf4jnsgd1na2vs0mg"},{"bike_id":"38a9b321-2b43-490b-b303-f5b7d4c9bd0f","system_id":"levelo_inurba_marseille","lat":43.27176,"lon":5.40993,"is_reserved":false,"is_disabled":false,"rental_uris":{"android":"levelo://app?vid=38a9b321-2b43-490b-b303-f5b7d4c9bd0f","ios":"levelo://app?vid=38a9b321-2b43-490b-b303-f5b7d4c9bd0f"},"vehicle_type_id":"4","last_reported":1741475269,"current_range_meters":10000,"station_id":"ce4bhl12rcd13ifvqgf0","pricing_plan_id":"cebpf4jnsgd1na2vs0mg"},{"bike_id":"30ca0a12-56c0-4feb-9059-10680035a6ae","system_id":"levelo_inurba_marseille","lat":43.28703,"lon":5.37386,"is_reserved":false,"is_disabled":true,"rental_uris":{"android":"levelo://app?vid=30ca0a12-56c0-4feb-9059-10680035a6ae","ios":"levelo://app?vid=30ca0a12-56c0-4feb-9059-10680035a6ae"},"vehicle_type_id":"4","last_reported":1741475269,"current_range_meters":10800,"station_id":"ce4bh3p2rcd13ifvqdq0","pricing_plan_id":"cebpf4jnsgd1na2vs0mg"},{"bike_id":"e5e118b0-32a8-4ef3-b6d1-b7487133ba19","system_id":"levelo_inurba_marseille","lat":43.28154,"lon":5.42641,"is_reserved":false,"is_disabled":false,"rental_uris":{"android":"levelo://app?vid=e5e118b0-32a8-4ef3-b6d1-b7487133ba19","ios":"levelo://app?vid=e5e118b0-32a8-4ef3-b6d1-b7487133ba19"},"vehicle_type_id":"4","last_reported":1741475269,"current_range_meters":10800,"station_id":"ce4bhnh2rcd13ifvqgug","pricing_plan_id":"cebpf4jnsgd1na2vs0mg"},{"bike_id":"40851586-e1c7-4a2e-a44a-901d0312659c","system_id":"levelo_inurba_marseille","lat":43.30811,"lon":5.38147,"is_reserved":false,"is_disabled":false,"rental_uris":{"android":"levelo://app?vid=40851586-e1c7-4a2e-a44a-901d0312659c","ios":"levelo://app?vid=40851586-e1c7-4a2e-a44a-901d0312659c"},"vehicle_type_id":"4","last_reported":1741475269,"current_range_meters":9600,"station_id":"ce4bgt12rcd13ifvqce0","pricing_plan_id":"cebpf4jnsgd1na2vs0mg"},{"bike_id":"79807326-fcd3-481b-ab9f-6e8edca76950","system_id":"levelo_inurba_marseille","lat":43.29594,"lon":5.381,"is_reserved":false,"is_disabled":false,"rental_uris":{"android":"levelo://app?vid=79807326-fcd3-481b-ab9f-6e8edca76950","ios":"levelo://app?vid=79807326-fcd3-481b-ab9f-6e8edca76950"},"vehicle_type_id":"4","last_reported":1741475269,"current_range_meters":10800,"station_id":"ce4bgl12rcd13ifvqbo0","pricing_plan_id":"cebpf4jnsgd1na2vs0mg"},{"bike_id":"d4d80517-15f5-40ba-adfb-dbbe2bf1cada","system_id":"levelo_inurba_marseille","lat":43.29033,"lon":5.43675,"is_reserved":false,"is_disabled":false,"rental_uris":{"android":"levelo://app?vid=d4d80517-15f5-40ba-adfb-dbbe2bf1cada","ios":"levelo://app?vid=d4d80517-15f5-40ba-adfb-dbbe2bf1cada"},"vehicle_type_id":"4","last_reported":1741475269,"current_range_meters":10800,"station_id":"","pricing_plan_id":"cebpf4jnsgd1na2vs0mg"},{"bike_id":"64f4ef8a-1c6c-46c3-ae62-8e05492b6515","system_id":"levelo_inurba_marseille","lat":43.31469,"lon":5.39224,"is_reserved":false,"is_disabled":false,"rental_uris":{"android":"levelo://app?vid=64f4ef8a-1c6c-46c3-ae62-8e05492b6515","ios":"levelo://app?vid=64f4ef8a-1c6c-46c3-ae62-8e05492b6515"},"vehicle_type_id":"4","last_reported":1741475269,"current_range_meters":10800,"station_id":"","pricing_plan_id":"cebpf4jnsgd1na2vs0mg"},{"bike_id":"58e2d297-8c60-46e9-9753-4f52f6b89aa7","system_id":"levelo_inurba_marseille","lat":43.29242,"lon":5.40909,"is_reserved":false,"is_disabled":false,"rental_uris":{"android":"levelo://app?vid=58e2d297-8c60-46e9-9753-4f52f6b89aa7","ios":"levelo://app?vid=58e2d297-8c60-46e9-9753-4f52f6b89aa7"},"vehicle_type_id":"4","last_reported":1741475269,"current_range_meters":10800,"station_id":"ce4bh192rcd13ifvqdc0","pricing_plan_id":"cebpf4jnsgd1na2vs0mg"},{"bike_id":"4ad7b95c-9bb3-43a7-a832-088f747b81f2","system_id":"levelo_inurba_marseille","lat":43.28703,"lon":5.37399,"is_reserved":false,"is_disabled":false,"rental_uris":{"android":"levelo://app?vid=4ad7b95c-9bb3-43a7-a832-088f747b81f2","ios":"levelo://app?vid=4ad7b95c-9bb3-43a7-a832-088f747b81f2"},"vehicle_type_id":"4","last_reported":1741475269,"current_range_meters":11200,"station_id":"ce4bh3p2rcd13ifvqdq0","pricing_plan_id":"cebpf4jnsgd1na2vs0mg"},{"bike_id":"63349a4f-6b7e-43a2-b332-93f161d3117f","system_id":"levelo_inurba_marseille","lat":43.29565,"lon":5.39969,"is_reserved":false,"is_disabled":false,"rental_uris":{"android":"levelo://app?vid=63349a4f-6b7e-43a2-b332-93f161d3117f","ios":"levelo://app?vid=63349a4f-6b7e-43a2-b332-93f161d3117f"},"vehicle_type_id":"4","last_reported":1741475269,"current_range_meters":11200,"station_id":"ce4bh312rcd13ifvqdj0","pricing_plan_id":"cebpf4jnsgd1na2vs0mg"},{"bike_id":"3e3ed28a-d70d-4e7b-8492-a13a8b5faa63","system_id":"levelo_inurba_marseille","lat":43.25854,"lon":5.39925,"is_reserved":false,"is_disabled":false,"rental_uris":{"android":"levelo://app?vid=3e3ed28a-d70d-4e7b-8492-a13a8b5faa63","ios":"levelo://app?vid=3e3ed28a-d70d-4e7b-8492-a13a8b5faa63"},"vehicle_type_id":"4","last_reported":1741475269,"current_range_meters":11200,"station_id":"ce4bhl92rcd13ifvqghg","pricing_plan_id":"cebpf4jnsgd1na2vs0mg"},{"bike_id":"19bbe8da-d7df-496e-a677-cbaab925cf5e","system_id":"levelo_inurba_marseille","lat":43.24881,"lon":5.42526,"is_reserved":false,"is_disabled":false,"rental_uris":{"android":"levelo://app?vid=19bbe8da-d7df-496e-a677-cbaab925cf5e","ios":"levelo://app?vid=19bbe8da-d7df-496e-a677-cbaab925cf5e"},"vehicle_type_id":"4","last_reported":1741475269,"current_range_meters":11200,"station_id":"","pricing_plan_id":"cebpf4jnsgd1na2vs0mg"},{"bike_id":"565fac05-172c-4b9b-92f1-8fa35566d080","system_id":"levelo_inurba_marseille","lat":43.25726,"lon":5.41107,"is_reserved":false,"is_disabled":false,"rental_uris":{"android":"levelo://app?vid=565fac05-172c-4b9b-92f1-8fa35566d080","ios":"levelo://app?vid=565fac05-172c-4b9b-92f1-8fa35566d080"},"vehicle_type_id":"4","last_reported":1741475269,"current_range_meters":11200,"station_id":"ce4bhkp2rcd13ifvqgd0","pricing_plan_id":"cebpf4jnsgd1na2vs0mg"},{"bike_id":"bc5b5e0e-75c9-4fb1-b1ef-2dce801118df","system_id":"levelo_inurba_marseille","lat":43.29568,"lon":5.39989,"is_reserved":false,"is_disabled":false,"rental_uris":{"android":"levelo://app?vid=bc5b5e0e-75c9-4fb1-b1ef-2dce801118df","ios":"levelo://app?vid=bc5b5e0e-75c9-4fb1-b1ef-2dce801118df"},"vehicle_type_id":"4","last_reported":1741475269,"current_range_meters":9200,"station_id":"ce4bh312rcd13ifvqdj0","pricing_plan_id":"cebpf4jnsgd1na2vs0mg"},{"bike_id":"c923d8c0-f9be-4dd9-91ce-2d0308665cb3","system_id":"levelo_inurba_marseille","lat":43.29555,"lon":5.42294,"is_reserved":false,"is_disabled":false,"rental_uris":{"android":"levelo://app?vid=c923d8c0-f9be-4dd9-91ce-2d0308665cb3","ios":"levelo://app?vid=c923d8c0-f9be-4dd9-91ce-2d0308665cb3"},"vehicle_type_id":"4","last_reported":1741475269,"current_range_meters":11200,"station_id":"ce4bhph2rcd13ifvqhdg","pricing_plan_id":"cebpf4jnsgd1na2vs0mg"},{"bike_id":"97687e68-be46-4713-8e56-6dcec5493f0a","system_id":"levelo_inurba_marseille","lat":43.24795,"lon":5.37468,"is_reserved":false,"is_disabled":false,"rental_uris":{"android":"levelo://app?vid=97687e68-be46-4713-8e56-6dcec5493f0a","ios":"levelo://app?vid=97687e68-be46-4713-8e56-6dcec5493f0a"},"vehicle_type_id":"4","last_reported":1741475269,"current_range_meters":11200,"station_id":"ce4bhgh2rcd13ifvqfb0","pricing_plan_id":"cebpf4jnsgd1na2vs0mg"},{"bike_id":"1d6e1d7c-fde1-4caf-a728-b3ddc99bf769","system_id":"levelo_inurba_marseille","lat":43.28704,"lon":5.373853,"is_reserved":false,"is_disabled":false,"rental_uris":{"android":"levelo://app?vid=1d6e1d7c-fde1-4caf-a728-b3ddc99bf769","ios":"levelo://app?vid=1d6e1d7c-fde1-4caf-a728-b3ddc99bf769"},"vehicle_type_id":"4","last_reported":1741475269,"current_range_meters":11200,"station_id":"ce4bh3p2rcd13ifvqdq0","pricing_plan_id":"cebpf4jnsgd1na2vs0mg"},{"bike_id":"f2bae74f-8efd-4af9-ba95-06715976ab90","system_id":"levelo_inurba_marseille","lat":43.28456,"lon":5.35877,"is_reserved":false,"is_disabled":false,"rental_uris":{"android":"levelo://app?vid=f2bae74f-8efd-4af9-ba95-06715976ab90","ios":"levelo://app?vid=f2bae74f-8efd-4af9-ba95-06715976ab90"},"vehicle_type_id":"4","last_reported":1741475269,"current_range_meters":11200,"station_id":"ce4bhah2rcd13ifvqei0","pricing_plan_id":"cebpf4jnsgd1na2vs0mg"},{"bike_id":"89ebb9e2-be89-4e6b-bf7d-78b5a7d279d0","system_id":"levelo_inurba_marseille","lat":43.29618,"lon":5.37722,"is_reserved":false,"is_disabled":false,"rental_uris":{"android":"levelo://app?vid=89ebb9e2-be89-4e6b-bf7d-78b5a7d279d0","ios":"levelo://app?vid=89ebb9e2-be89-4e6b-bf7d-78b5a7d279d0"},"vehicle_type_id":"4","last_reported":1741475269,"current_range_meters":11200,"station_id":"ce4bgi92rcd13ifvqb90","pricing_plan_id":"cebpf4jnsgd1na2vs0mg"},{"bike_id":"62dcf337-d1a2-440e-b740-b115cd824447","system_id":"levelo_inurba_marseille","lat":43.29441,"lon":5.39772,"is_reserved":false,"is_disabled":false,"rental_uris":{"android":"levelo://app?vid=62dcf337-d1a2-440e-b740-b115cd824447","ios":"levelo://app?vid=62dcf337-d1a2-440e-b740-b115cd824447"},"vehicle_type_id":"4","last_reported":1741475269,"current_range_meters":16400,"station_id":"ce4bh3h2rcd13ifvqdo0","pricing_plan_id":"cebpf4jnsgd1na2vs0mg"},{"bike_id":"fc5966ba-78bb-4e6f-a5e7-e1a08b7e88dd","system_id":"levelo_inurba_marseille","lat":43.27061,"lon":5.42252,"is_reserved":false,"is_disabled":false,"rental_uris":{"android":"levelo://app?vid=fc5966ba-78bb-4e6f-a5e7-e1a08b7e88dd","ios":"levelo://app?vid=fc5966ba-78bb-4e6f-a5e7-e1a08b7e88dd"},"vehicle_type_id":"4","last_reported":1741475269,"current_range_meters":11200,"station_id":"ce4bhk92rcd13ifvqgb0","pricing_plan_id":"cebpf4jnsgd1na2vs0mg"},{"bike_id":"2ccee320-67e8-4dc3-b761-19553b6bcc0d","system_id":"levelo_inurba_marseille","lat":43.25725,"lon":5.41105,"is_reserved":false,"is_disabled":false,"rental_uris":{"android":"levelo://app?vid=2ccee320-67e8-4dc3-b761-19553b6bcc0d","ios":"levelo://app?vid=2ccee320-67e8-4dc3-b761-19553b6bcc0d"},"vehicle_type_id":"4","last_reported":1741475269,"current_range_meters":11200,"station_id":"ce4bhkp2rcd13ifvqgd0","pricing_plan_id":"cebpf4jnsgd1na2vs0mg"},{"bike_id":"8f17af5b-c503-4f40-8df8-fe0bd47d7371","system_id":"levelo_inurba_marseille","lat":43.29909,"lon":5.37496,"is_reserved":false,"is_disabled":false,"rental_uris":{"android":"levelo://app?vid=8f17af5b-c503-4f40-8df8-fe0bd47d7371","ios":"levelo://app?vid=8f17af5b-c503-4f40-8df8-fe0bd47d7371"},"vehicle_type_id":"4","last_reported":1741475269,"current_range_meters":10800,"station_id":"ce4bgjh2rcd13ifvqbg0","pricing_plan_id":"cebpf4jnsgd1na2vs0mg"},{"bike_id":"937dcbc4-6849-4cfb-8a28-103d477d9782","system_id":"levelo_inurba_marseille","lat":43.29034,"lon":5.38639,"is_reserved":false,"is_disabled":false,"rental_uris":{"android":"levelo://app?vid=937dcbc4-6849-4cfb-8a28-103d477d9782","ios":"levelo://app?vid=937dcbc4-6849-4cfb-8a28-103d477d9782"},"vehicle_type_id":"4","last_reported":1741475269,"current_range_meters":11200,"station_id":"ce4bh4p2rcd13ifvqe0g","pricing_plan_id":"cebpf4jnsgd1na2vs0mg"},{"bike_id":"0e698c9d-47bc-4045-944d-ecfd6b2414bc","system_id":"levelo_inurba_marseille","lat":43.31073,"lon":5.42429,"is_reserved":false,"is_disabled":false,"rental_uris":{"android":"levelo://app?vid=0e698c9d-47bc-4045-944d-ecfd6b2414bc","ios":"levelo://app?vid=0e698c9d-47bc-4045-944d-ecfd6b2414bc"},"vehicle_type_id":"4","last_reported":1741475269,"current_range_meters":11200,"station_id":"ce4bhp92rcd13ifvqhag","pricing_plan_id":"cebpf4jnsgd1na2vs0mg"},{"bike_id":"b9f50795-762b-415e-beef-6809359ba11c","system_id":"levelo_inurba_marseille","lat":43.31704,"lon":5.37732,"is_reserved":false,"is_disabled":false,"rental_uris":{"android":"levelo://app?vid=b9f50795-762b-415e-beef-6809359ba11c","ios":"levelo://app?vid=b9f50795-762b-415e-beef-6809359ba11c"},"vehicle_type_id":"4","last_reported":1741475269,"current_range_meters":11600,"station_id":"ce4bgth2rcd13ifvqch0","pricing_plan_id":"cebpf4jnsgd1na2vs0mg"},{"bike_id":"716ad52e-6276-401a-9565-37b068cf8f1c","system_id":"levelo_inurba_marseille","lat":43.24816,"lon":5.37461,"is_reserved":false,"is_disabled":false,"rental_uris":{"android":"levelo://app?vid=716ad52e-6276-401a-9565-37b068cf8f1c","ios":"levelo://app?vid=716ad52e-6276-401a-9565-37b068cf8f1c"},"vehicle_type_id":"4","last_reported":1741475269,"current_range_meters":11600,"station_id":"ce4bhgh2rcd13ifvqfb0","pricing_plan_id":"cebpf4jnsgd1na2vs0mg"},{"bike_id":"14704438-ead4-4a94-95b6-837271a082f6","system_id":"levelo_inurba_marseille","lat":43.24689,"lon":5.38138,"is_reserved":false,"is_disabled":false,"rental_uris":{"android":"levelo://app?vid=14704438-ead4-4a94-95b6-837271a082f6","ios":"levelo://app?vid=14704438-ead4-4a94-95b6-837271a082f6"},"vehicle_type_id":"4","last_reported":1741475269,"current_range_meters":11600,"station_id":"ce4bhih2rcd13ifvqfr0","pricing_plan_id":"cebpf4jnsgd1na2vs0mg"},{"bike_id":"3ec3e2aa-eb1a-4432-8bc2-401db54ef086","system_id":"levelo_inurba_marseille","lat":43.29526,"lon":5.38548,"is_reserved":false,"is_disabled":false,"rental_uris":{"android":"levelo://app?vid=3ec3e2aa-eb1a-4432-8bc2-401db54ef086","ios":"levelo://app?vid=3ec3e2aa-eb1a-4432-8bc2-401db54ef086"},"vehicle_type_id":"4","last_reported":1741475269,"current_range_meters":11600,"station_id":"ce4bgih2rcd13ifvqba0","pricing_plan_id":"cebpf4jnsgd1na2vs0mg"},{"bike_id":"552e68c9-716e-4061-8352-fbae18426fb5","system_id":"levelo_inurba_marseille","lat":43.2954,"lon":5.39397,"is_reserved":false,"is_disabled":false,"rental_uris":{"android":"levelo://app?vid=552e68c9-716e-4061-8352-fbae18426fb5","ios":"levelo://app?vid=552e68c9-716e-4061-8352-fbae18426fb5"},"vehicle_type_id":"4","last_reported":1741475269,"current_range_meters":11600,"station_id":"ce4bh292rcd13ifvqdf0","pricing_plan_id":"cebpf4jnsgd1na2vs0mg"},{"bike_id":"6cfa6918-9998-41e2-be7e-8892614f1312","system_id":"levelo_inurba_marseille","lat":43.23965,"lon":5.36633,"is_reserved":false,"is_disabled":false,"rental_uris":{"android":"levelo://app?vid=6cfa6918-9998-41e2-be7e-8892614f1312","ios":"levelo://app?vid=6cfa6918-9998-41e2-be7e-8892614f1312"},"vehicle_type_id":"4","last_reported":1741475269,"current_range_meters":11600,"station_id":"ce4bhi12rcd13ifvqfp0","pricing_plan_id":"cebpf4jnsgd1na2vs0mg"},{"bike_id":"af8272b0-b8e6-42db-b623-bf9416c7d356","system_id":"levelo_inurba_marseille","lat":43.30129,"lon":5.39901,"is_reserved":false,"is_disabled":false,"rental_uris":{"android":"levelo://app?vid=af8272b0-b8e6-42db-b623-bf9416c7d356","ios":"levelo://app?vid=af8272b0-b8e6-42db-b623-bf9416c7d356"},"vehicle_type_id":"4","last_reported":1741475269,"current_range_meters":12000,"station_id":"ce4bh0h2rcd13ifvqd40","pricing_plan_id":"cebpf4jnsgd1na2vs0mg"},{"bike_id":"f25fa5d5-e01b-45f3-a1b7-239c3cf6aa03","system_id":"levelo_inurba_marseille","lat":43.29577,"lon":5.37503,"is_reserved":false,"is_disabled":false,"rental_uris":{"android":"levelo://app?vid=f25fa5d5-e01b-45f3-a1b7-239c3cf6aa03","ios":"levelo://app?vid=f25fa5d5-e01b-45f3-a1b7-239c3cf6aa03"},"vehicle_type_id":"4","last_reported":1741475269,"current_range_meters":12000,"station_id":"ce4bgh92rcd13ifvqb50","pricing_plan_id":"cebpf4jnsgd1na2vs0mg"},{"bike_id":"bfe03db3-d69a-445a-a62a-d6ccdbb319ad","system_id":"levelo_inurba_marseille","lat":43.29536,"lon":5.3854,"is_reserved":false,"is_disabled":false,"rental_uris":{"android":"levelo://app?vid=bfe03db3-d69a-445a-a62a-d6ccdbb319ad","ios":"levelo://app?vid=bfe03db3-d69a-445a-a62a-d6ccdbb319ad"},"vehicle_type_id":"4","last_reported":1741475269,"current_range_meters":12000,"station_id":"ce4bgih2rcd13ifvqba0","pricing_plan_id":"cebpf4jnsgd1na2vs0mg"},{"bike_id":"61e388e0-88e8-4998-828e-6cf2d929078c","system_id":"levelo_inurba_marseille","lat":43.32105,"lon":5.36777,"is_reserved":false,"is_disabled":false,"rental_uris":{"android":"levelo://app?vid=61e388e0-88e8-4998-828e-6cf2d929078c","ios":"levelo://app?vid=61e388e0-88e8-4998-828e-6cf2d929078c"},"vehicle_type_id":"4","last_reported":1741475269,"current_range_meters":12000,"station_id":"ce4bhrh2rcd13ifvqhug","pricing_plan_id":"cebpf4jnsgd1na2vs0mg"},{"bike_id":"fa8c6a5b-e91f-4274-b418-5c3522c430aa","system_id":"levelo_inurba_marseille","lat":43.27957,"lon":5.41047,"is_reserved":false,"is_disabled":false,"rental_uris":{"android":"levelo://app?vid=fa8c6a5b-e91f-4274-b418-5c3522c430aa","ios":"levelo://app?vid=fa8c6a5b-e91f-4274-b418-5c3522c430aa"},"vehicle_type_id":"4","last_reported":1741475269,"current_range_meters":12000,"station_id":"ce4bhnp2rcd13ifvqh0g","pricing_plan_id":"cebpf4jnsgd1na2vs0mg"},{"bike_id":"e4862560-8b14-41f0-b4ab-304f0c05b04a","system_id":"levelo_inurba_marseille","lat":43.25088,"lon":5.39535,"is_reserved":false,"is_disabled":false,"rental_uris":{"android":"levelo://app?vid=e4862560-8b14-41f0-b4ab-304f0c05b04a","ios":"levelo://app?vid=e4862560-8b14-41f0-b4ab-304f0c05b04a"},"vehicle_type_id":"4","last_reported":1741475269,"current_range_meters":12400,"station_id":"ce4bhm12rcd13ifvqgkg","pricing_plan_id":"cebpf4jnsgd1na2vs0mg"},{"bike_id":"807bdf60-e91b-4802-8ff9-404b8302de21","system_id":"levelo_inurba_marseille","lat":43.30087,"lon":5.39091,"is_reserved":false,"is_disabled":false,"rental_uris":{"android":"levelo://app?vid=807bdf60-e91b-4802-8ff9-404b8302de21","ios":"levelo://app?vid=807bdf60-e91b-4802-8ff9-404b8302de21"},"vehicle_type_id":"4","last_reported":1741475269,"current_range_meters":11600,"station_id":"ce4bh192rcd13ifvqdb0","pricing_plan_id":"cebpf4jnsgd1na2vs0mg"},{"bike_id":"034f586e-2d21-42ac-8d2c-107a31260273","system_id":"levelo_inurba_marseille","lat":43.30954,"lon":5.39051,"is_reserved":false,"is_disabled":false,"rental_uris":{"android":"levelo://app?vid=034f586e-2d21-42ac-8d2c-107a31260273","ios":"levelo://app?vid=034f586e-2d21-42ac-8d2c-107a31260273"},"vehicle_type_id":"4","last_reported":1741475269,"current_range_meters":11600,"station_id":"ce4bgup2rcd13ifvqco0","pricing_plan_id":"cebpf4jnsgd1na2vs0mg"},{"bike_id":"8406b517-d867-4857-8289-3cb545ea2882","system_id":"levelo_inurba_marseille","lat":43.30874,"lon":5.39656,"is_reserved":false,"is_disabled":false,"rental_uris":{"android":"levelo://app?vid=8406b517-d867-4857-8289-3cb545ea2882","ios":"levelo://app?vid=8406b517-d867-4857-8289-3cb545ea2882"},"vehicle_type_id":"4","last_reported":1741475269,"current_range_meters":12400,"station_id":"ce4bh012rcd13ifvqcv0","pricing_plan_id":"cebpf4jnsgd1na2vs0mg"},{"bike_id":"a0f47016-86c2-44a8-86e4-ab6fc080b00d","system_id":"levelo_inurba_marseille","lat":43.2795,"lon":5.41045,"is_reserved":false,"is_disabled":false,"rental_uris":{"android":"levelo://app?vid=a0f47016-86c2-44a8-86e4-ab6fc080b00d","ios":"levelo://app?vid=a0f47016-86c2-44a8-86e4-ab6fc080b00d"},"vehicle_type_id":"4","last_reported":1741475269,"current_range_meters":12400,"station_id":"ce4bhnp2rcd13ifvqh0g","pricing_plan_id":"cebpf4jnsgd1na2vs0mg"},{"bike_id":"9988924e-88db-4657-9020-f9a8b6aac7dc","system_id":"levelo_inurba_marseille","lat":43.254948,"lon":5.376479,"is_reserved":false,"is_disabled":false,"rental_uris":{"android":"levelo://app?vid=9988924e-88db-4657-9020-f9a8b6aac7dc","ios":"levelo://app?vid=9988924e-88db-4657-9020-f9a8b6aac7dc"},"vehicle_type_id":"4","last_reported":1741475269,"current_range_meters":12800,"station_id":"ce4bhh12rcd13ifvqff0","pricing_plan_id":"cebpf4jnsgd1na2vs0mg"},{"bike_id":"05156e07-47f0-4de0-bb69-b66700e92b0e","system_id":"levelo_inurba_marseille","lat":43.24403,"lon":5.37064,"is_reserved":false,"is_disabled":true,"rental_uris":{"android":"levelo://app?vid=05156e07-47f0-4de0-bb69-b66700e92b0e","ios":"levelo://app?vid=05156e07-47f0-4de0-bb69-b66700e92b0e"},"vehicle_type_id":"4","last_reported":1741475269,"current_range_meters":12400,"station_id":"ce4bhhh2rcd13ifvqfk0","pricing_plan_id":"cebpf4jnsgd1na2vs0mg"},{"bike_id":"935dba83-8f31-4028-819f-b2967d57e30b","system_id":"levelo_inurba_marseille","lat":43.30729,"lon":5.37728,"is_reserved":false,"is_disabled":false,"rental_uris":{"android":"levelo://app?vid=935dba83-8f31-4028-819f-b2967d57e30b","ios":"levelo://app?vid=935dba83-8f31-4028-819f-b2967d57e30b"},"vehicle_type_id":"4","last_reported":1741475269,"current_range_meters":11600,"station_id":"ce4bgv92rcd13ifvqcq0","pricing_plan_id":"cebpf4jnsgd1na2vs0mg"},{"bike_id":"ac2efbb8-87f5-4e67-91b6-6982ed970754","system_id":"levelo_inurba_marseille","lat":43.2511,"lon":5.40325,"is_reserved":false,"is_disabled":false,"rental_uris":{"android":"levelo://app?vid=ac2efbb8-87f5-4e67-91b6-6982ed970754","ios":"levelo://app?vid=ac2efbb8-87f5-4e67-91b6-6982ed970754"},"vehicle_type_id":"4","last_reported":1741475269,"current_range_meters":12400,"station_id":"ce4bhlh2rcd13ifvqgig","pricing_plan_id":"cebpf4jnsgd1na2vs0mg"},{"bike_id":"bbf62d9f-22e8-446b-b3ab-fed286c04dd7","system_id":"levelo_inurba_marseille","lat":43.30882,"lon":5.37208,"is_reserved":false,"is_disabled":false,"rental_uris":{"android":"levelo://app?vid=bbf62d9f-22e8-446b-b3ab-fed286c04dd7","ios":"levelo://app?vid=bbf62d9f-22e8-446b-b3ab-fed286c04dd7"},"vehicle_type_id":"4","last_reported":1741475269,"current_range_meters":12400,"station_id":"ce4bguh2rcd13ifvqckg","pricing_plan_id":"cebpf4jnsgd1na2vs0mg"},{"bike_id":"041c5c32-1d4e-489d-9e64-da758553d2f5","system_id":"levelo_inurba_marseille","lat":43.2558,"lon":5.38235,"is_reserved":false,"is_disabled":false,"rental_uris":{"android":"levelo://app?vid=041c5c32-1d4e-489d-9e64-da758553d2f5","ios":"levelo://app?vid=041c5c32-1d4e-489d-9e64-da758553d2f5"},"vehicle_type_id":"4","last_reported":1741475269,"current_range_meters":12800,"station_id":"ce4bhih2rcd13ifvqfs0","pricing_plan_id":"cebpf4jnsgd1na2vs0mg"},{"bike_id":"d7f0e08b-6dac-45ba-bfe3-5ddc58fa3790","system_id":"levelo_inurba_marseille","lat":43.28439,"lon":5.37513,"is_reserved":false,"is_disabled":false,"rental_uris":{"android":"levelo://app?vid=d7f0e08b-6dac-45ba-bfe3-5ddc58fa3790","ios":"levelo://app?vid=d7f0e08b-6dac-45ba-bfe3-5ddc58fa3790"},"vehicle_type_id":"4","last_reported":1741475269,"current_range_meters":12800,"station_id":"ce4bh412rcd13ifvqds0","pricing_plan_id":"cebpf4jnsgd1na2vs0mg"},{"bike_id":"cce1065b-19f9-416f-843a-5cd8d3f60410","system_id":"levelo_inurba_marseille","lat":43.28711,"lon":5.39988,"is_reserved":false,"is_disabled":false,"rental_uris":{"android":"levelo://app?vid=cce1065b-19f9-416f-843a-5cd8d3f60410","ios":"levelo://app?vid=cce1065b-19f9-416f-843a-5cd8d3f60410"},"vehicle_type_id":"4","last_reported":1741475269,"current_range_meters":12400,"station_id":"ce4bho92rcd13ifvqh3g","pricing_plan_id":"cebpf4jnsgd1na2vs0mg"},{"bike_id":"6b3fac2b-5d38-48f2-ae55-d3ebd887c4ab","system_id":"levelo_inurba_marseille","lat":43.30554,"lon":5.36703,"is_reserved":false,"is_disabled":false,"rental_uris":{"android":"levelo://app?vid=6b3fac2b-5d38-48f2-ae55-d3ebd887c4ab","ios":"levelo://app?vid=6b3fac2b-5d38-48f2-ae55-d3ebd887c4ab"},"vehicle_type_id":"4","last_reported":1741475269,"current_range_meters":12800,"station_id":"ce4bgrp2rcd13ifvqc9g","pricing_plan_id":"cebpf4jnsgd1na2vs0mg"},{"bike_id":"87d6e4ef-3df7-4bbb-ac4a-4299f7db2aa6","system_id":"levelo_inurba_marseille","lat":43.25711,"lon":5.41114,"is_reserved":false,"is_disabled":false,"rental_uris":{"android":"levelo://app?vid=87d6e4ef-3df7-4bbb-ac4a-4299f7db2aa6","ios":"levelo://app?vid=87d6e4ef-3df7-4bbb-ac4a-4299f7db2aa6"},"vehicle_type_id":"4","last_reported":1741475269,"current_range_meters":12800,"station_id":"ce4bhkp2rcd13ifvqgd0","pricing_plan_id":"cebpf4jnsgd1na2vs0mg"},{"bike_id":"1882bff9-3a4a-48a1-ae14-1aea4af61a78","system_id":"levelo_inurba_marseille","lat":43.32284,"lon":5.38277,"is_reserved":false,"is_disabled":false,"rental_uris":{"android":"levelo://app?vid=1882bff9-3a4a-48a1-ae14-1aea4af61a78","ios":"levelo://app?vid=1882bff9-3a4a-48a1-ae14-1aea4af61a78"},"vehicle_type_id":"4","last_reported":1741475269,"current_range_meters":12800,"station_id":"ce4bhr12rcd13ifvqhqg","pricing_plan_id":"cebpf4jnsgd1na2vs0mg"},{"bike_id":"4c5d8bb4-3d1e-4689-9d72-361d8d376cce","system_id":"levelo_inurba_marseille","lat":43.24805,"lon":5.37453,"is_reserved":false,"is_disabled":false,"rental_uris":{"android":"levelo://app?vid=4c5d8bb4-3d1e-4689-9d72-361d8d376cce","ios":"levelo://app?vid=4c5d8bb4-3d1e-4689-9d72-361d8d376cce"},"vehicle_type_id":"4","last_reported":1741475269,"current_range_meters":13600,"station_id":"ce4bhgh2rcd13ifvqfb0","pricing_plan_id":"cebpf4jnsgd1na2vs0mg"},{"bike_id":"83464d8d-da01-48ab-a574-6841c0f43d0f","system_id":"levelo_inurba_marseille","lat":43.27929,"lon":5.41045,"is_reserved":false,"is_disabled":false,"rental_uris":{"android":"levelo://app?vid=83464d8d-da01-48ab-a574-6841c0f43d0f","ios":"levelo://app?vid=83464d8d-da01-48ab-a574-6841c0f43d0f"},"vehicle_type_id":"4","last_reported":1741475269,"current_range_meters":14000,"station_id":"ce4bhnp2rcd13ifvqh0g","pricing_plan_id":"cebpf4jnsgd1na2vs0mg"},{"bike_id":"9a62d73a-4568-4029-a56c-7943643fbe75","system_id":"levelo_inurba_marseille","lat":43.32331,"lon":5.40619,"is_reserved":false,"is_disabled":false,"rental_uris":{"android":"levelo://app?vid=9a62d73a-4568-4029-a56c-7943643fbe75","ios":"levelo://app?vid=9a62d73a-4568-4029-a56c-7943643fbe75"},"vehicle_type_id":"4","last_reported":1741475269,"current_range_meters":12800,"station_id":"ce4bhq92rcd13ifvqhjg","pricing_plan_id":"cebpf4jnsgd1na2vs0mg"},{"bike_id":"2d61ec87-0577-43ad-a521-fdb089acfcf2","system_id":"levelo_inurba_marseille","lat":43.30957,"lon":5.39031,"is_reserved":false,"is_disabled":false,"rental_uris":{"android":"levelo://app?vid=2d61ec87-0577-43ad-a521-fdb089acfcf2","ios":"levelo://app?vid=2d61ec87-0577-43ad-a521-fdb089acfcf2"},"vehicle_type_id":"4","last_reported":1741475269,"current_range_meters":14400,"station_id":"ce4bgup2rcd13ifvqco0","pricing_plan_id":"cebpf4jnsgd1na2vs0mg"},{"bike_id":"6ce8e12e-ae0c-4d6e-8cdf-b6233138d862","system_id":"levelo_inurba_marseille","lat":43.30588,"lon":5.39353,"is_reserved":false,"is_disabled":false,"rental_uris":{"android":"levelo://app?vid=6ce8e12e-ae0c-4d6e-8cdf-b6233138d862","ios":"levelo://app?vid=6ce8e12e-ae0c-4d6e-8cdf-b6233138d862"},"vehicle_type_id":"4","last_reported":1741475269,"current_range_meters":14400,"station_id":"ce4bh0p2rcd13ifvqd80","pricing_plan_id":"cebpf4jnsgd1na2vs0mg"},{"bike_id":"8b3eb7e1-026c-4069-94eb-bb98c55a51a8","system_id":"levelo_inurba_marseille","lat":43.30256,"lon":5.40081,"is_reserved":false,"is_disabled":false,"rental_uris":{"android":"levelo://app?vid=8b3eb7e1-026c-4069-94eb-bb98c55a51a8","ios":"levelo://app?vid=8b3eb7e1-026c-4069-94eb-bb98c55a51a8"},"vehicle_type_id":"4","last_reported":1741475269,"current_range_meters":14400,"station_id":"ce4bgvh2rcd13ifvqcs0","pricing_plan_id":"cebpf4jnsgd1na2vs0mg"},{"bike_id":"e9dab2ce-7c7d-40d2-82aa-ed5c703d86fd","system_id":"levelo_inurba_marseille","lat":43.32113,"lon":5.36776,"is_reserved":false,"is_disabled":false,"rental_uris":{"android":"levelo://app?vid=e9dab2ce-7c7d-40d2-82aa-ed5c703d86fd","ios":"levelo://app?vid=e9dab2ce-7c7d-40d2-82aa-ed5c703d86fd"},"vehicle_type_id":"4","last_reported":1741475269,"current_range_meters":14800,"station_id":"ce4bhrh2rcd13ifvqhug","pricing_plan_id":"cebpf4jnsgd1na2vs0mg"},{"bike_id":"862a788e-4ad5-4c91-930d-dd5215bf95e5","system_id":"levelo_inurba_marseille","lat":43.31273,"lon":5.40173,"is_reserved":false,"is_disabled":false,"rental_uris":{"android":"levelo://app?vid=862a788e-4ad5-4c91-930d-dd5215bf95e5","ios":"levelo://app?vid=862a788e-4ad5-4c91-930d-dd5215bf95e5"},"vehicle_type_id":"4","last_reported":1741475269,"current_range_meters":14800,"station_id":"ce4bh092rcd13ifvqd30","pricing_plan_id":"cebpf4jnsgd1na2vs0mg"},