{"last_updated":1700946350,"ttl":30,"version":"2.2","data":{"bikes":[{"bike_id":"1be7a314-267b-4c36-b676-668997f729fc","system_id":"levelo_inurba_marseille","lat":43.31341,"lon":5.367098,"is_reserved":false,"is_disabled":false,"rental_uris":{"android":"levelo://app?vid=1be7a314-267b-4c36-b676-668997f729fc","ios":"levelo://app?vid=1be7a314-267b-4c36-b676-668997f729fc"},"vehicle_type_id":"4","last_reported":1700946350,"current_range_meters":26000,"station_id":"ce4bgr92rcd13ifvqc6g","pricing_plan_id":"free"},{"bike_id":"e648d73a-005b-41a8-97a7-ab749fd3d361","system_id":"levelo_inurba_marseille","lat":43.309076,"lon":5.368465,"is_reserved":false,"is_disabled":false,"rental_uris":{"android":"levelo://app?vid=e648d73a-005b-41a8-97a7-ab749fd3d361","ios":"levelo://app?vid=e648d73a-005b-41a8-97a7-ab749fd3d361"},"vehicle_type_id":"4","last_reported":1700946350,"current_range_meters":12800,"station_id":"ce4bgn92rcd13ifvqbvg","pricing_plan_id":"free"},{"bike_id":"ee3ca9ff-7a6b-4561-9f53-feccc922184e","system_id":"levelo_inurba_marseille","lat":43.314811,"lon":5.373103,"is_reserved":false,"is_disabled":false,"rental_uris":{"android":"levelo://app?vid=ee3ca9ff-7a6b-4561-9f53-feccc922184e","ios":"levelo://app?vid=ee3ca9ff-7a6b-4561-9f53-feccc922184e"},"vehicle_type_id":"4","last_reported":1700946350,"current_range_meters":7600,"station_id":"ce4bgt12rcd13ifvqcd0","pricing_plan_id":"free"},{"bike_id":"5e0f8522-25c9-4504-bc71-2e271ca0e2ce","system_id":"levelo_inurba_marseille","lat":43.314811,"lon":5.373103,"is_reserved":false,"is_disabled":false,"rental_uris":{"android":"levelo://app?vid=5e0f8522-25c9-4504-bc71-2e271ca0e2ce","ios":"levelo://app?vid=5e0f8522-25c9-4504-bc71-2e271ca0e2ce"},"vehicle_type_id":"4","last_reported":1700946350,"current_range_meters":20400,"station_id":"ce4bgt12rcd13ifvqcd0","pricing_plan_id":"free"},{"bike_id":"56dcc7f6-2ea3-40fb-af50-611123df64d7","system_id":"levelo_inurba_marseille","lat":43.309039,"lon":5.371797,"is_reserved":false,"is_disabled":false,"rental_uris":{"android":"levelo://app?vid=56dcc7f6-2ea3-40fb-af50-611123df64d7","ios":"levelo://app?vid=56dcc7f6-2ea3-40fb-af50-611123df64d7"},"vehicle_type_id":"4","last_reported":1700946350,"current_range_meters":31200,"station_id":"ce4bguh2rcd13ifvqckg","pricing_plan_id":"free"},{"bike_id":"12fe559d-2c77-4748-b7cf-fc83d1aede07","system_id":"levelo_inurba_marseille","lat":43.309039,"lon":5.371797,"is_reserved":false,"is_disabled":false,"rental_uris":{"android":"levelo://app?vid=12fe559d-2c77-4748-b7cf-fc83d1aede07","ios":"levelo://app?vid=12fe559d-2c77-4748-b7cf-fc83d1aede07"},"vehicle_type_id":"4","last_reported":1700946350,"current_range_meters":28800,"station_id":"ce4bguh2rcd13ifvqckg","pricing_plan_id":"free"},{"bike_id":"2c4e2ab4-2bc9-4e71-8e28-b7f9c78b7444","system_id":"levelo_inurba_marseille","lat":43.305714,"lon":5.365633,"is_reserved":false,"is_disabled":false,"rental_uris":{"android":"levelo://app?vid=2c4e2ab4-2bc9-4e71-8e28-b7f9c78b7444","ios":"levelo://app?vid=2c4e2ab4-2bc9-4e71-8e28-b7f9c78b7444"},"vehicle_type_id":"4","last_reported":1700946350,"current_range_meters":2400,"station_id":"ce4bgs12rcd13ifvqcag","pricing_plan_id":"free"},{"bike_id":"573a870a-b6c4-429d-8587-8103772b84bc","system_id":"levelo_inurba_marseille","lat":43.308183,"lon":5.376635,"is_reserved":false,"is_disabled":false,"rental_uris":{"android":"levelo://app?vid=573a870a-b6c4-429d-8587-8103772b84bc","ios":"levelo://app?vid=573a870a-b6c4-429d-8587-8103772b84bc"},"vehicle_type_id":"4","last_reported":1700946350,"current_range_meters":4000,"station_id":"ce4bgv92rcd13ifvqcq0","pricing_plan_id":"free"},{"bike_id":"f427a2c3-6e4a-446b-ae2f-9be8aa7f4122","system_id":"levelo_inurba_marseille","lat":43.31719,"lon":5.376813,"is_reserved":false,"is_disabled":false,"rental_uris":{"android":"levelo://app?vid=f427a2c3-6e4a-446b-ae2f-9be8aa7f4122","ios":"levelo://app?vid=f427a2c3-6e4a-446b-ae2f-9be8aa7f4122"},"vehicle_type_id":"4","last_reported":1700946350,"current_range_meters":23600,"station_id":"ce4bgth2rcd13ifvqch0","pricing_plan_id":"free"},{"bike_id":"b898b018-f57d-4901-bab2-fdd15d391de9","system_id":"levelo_inurba_marseille","lat":43.317168,"lon":5.376883,"is_reserved":false,"is_disabled":false,"rental_uris":{"android":"levelo://app?vid=b898b018-f57d-4901-bab2-fdd15d391de9","ios":"levelo://app?vid=b898b018-f57d-4901-bab2-fdd15d391de9"},"vehicle_type_id":"4","last_reported":1700946350,"current_range_meters":26000,"station_id":"ce4bgth2rcd13ifvqch0","pricing_plan_id":"free"},{"bike_id":"3dd1bd93-5287-4ffc-94aa-addf69396612","system_id":"levelo_inurba_marseille","lat":43.31531,"lon":5.38036,"is_reserved":false,"is_disabled":false,"rental_uris":{"android":"levelo://app?vid=3dd1bd93-5287-4ffc-94aa-addf69396612","ios":"levelo://app?vid=3dd1bd93-5287-4ffc-94aa-addf69396612"},"vehicle_type_id":"4","last_reported":1700946350,"current_range_meters":11200,"station_id":"ce4bhsp2rcd13ifvqi50","pricing_plan_id":"free"},{"bike_id":"c92d557f-39be-4802-8115-7634791b99bf","system_id":"levelo_inurba_marseille","lat":43.301939,"lon":5.366286,"is_reserved":false,"is_disabled":false,"rental_uris":{"android":"levelo://app?vid=c92d557f-39be-4802-8115-7634791b99bf","ios":"levelo://app?vid=c92d557f-39be-4802-8115-7634791b99bf"},"vehicle_type_id":"4","last_reported":1700946350,"current_range_meters":6800,"station_id":"ce4bgrh2rcd13ifvqc8g","pricing_plan_id":"free"},{"bike_id":"c602b440-8f09-4713-8bde-be9d6cf58fab","system_id":"levelo_inurba_marseille","lat":43.304606,"lon":5.379026,"is_reserved":false,"is_disabled":false,"rental_uris":{"android":"levelo://app?vid=c602b440-8f09-4713-8bde-be9d6cf58fab","ios":"levelo://app?vid=c602b440-8f09-4713-8bde-be9d6cf58fab"},"vehicle_type_id":"4","last_reported":1700946350,"current_range_meters":26800,"station_id":"ce4bgup2rcd13ifvqcn0","pricing_plan_id":"free"},{"bike_id":"8c8a52fc-0f0b-4dd5-82d7-2c484876092f","system_id":"levelo_inurba_marseille","lat":43.302784,"lon":5.377158,"is_reserved":false,"is_disabled":false,"rental_uris":{"android":"levelo://app?vid=8c8a52fc-0f0b-4dd5-82d7-2c484876092f","ios":"levelo://app?vid=8c8a52fc-0f0b-4dd5-82d7-2c484876092f"},"vehicle_type_id":"4","last_reported":1700946350,"current_range_meters":6000,"station_id":"ce4bguh2rcd13ifvqcj0","pricing_plan_id":"free"},{"bike_id":"85fdd9b8-a4df-4908-82d2-1b395ba1f0f9","system_id":"levelo_inurba_marseille","lat":43.30143,"lon":5.37413,"is_reserved":false,"is_disabled":false,"rental_uris":{"android":"levelo://app?vid=85fdd9b8-a4df-4908-82d2-1b395ba1f0f9","ios":"levelo://app?vid=85fdd9b8-a4df-4908-82d2-1b395ba1f0f9"},"vehicle_type_id":"4","last_reported":1700946350,"current_range_meters":15600,"station_id":"ce4bgs92rcd13ifvqcc0","pricing_plan_id":"free"},{"bike_id":"250b5f86-b7f1-496f-838e-3ef6d1035cf3","system_id":"levelo_inurba_marseille","lat":43.301429,"lon":5.37413,"is_reserved":false,"is_disabled":false,"rental_uris":{"android":"levelo://app?vid=250b5f86-b7f1-496f-838e-3ef6d1035cf3","ios":"levelo://app?vid=250b5f86-b7f1-496f-838e-3ef6d1035cf3"},"vehicle_type_id":"4","last_reported":1700946350,"current_range_meters":4000,"station_id":"ce4bgs92rcd13ifvqcc0","pricing_plan_id":"free"},{"bike_id":"e54be095-0ad8-49c6-b268-99ac8deda3ee","system_id":"levelo_inurba_marseille","lat":43.301429,"lon":5.37413,"is_reserved":false,"is_disabled":false,"rental_uris":{"android":"levelo://app?vid=e54be095-0ad8-49c6-b268-99ac8deda3ee","ios":"levelo://app?vid=e54be095-0ad8-49c6-b268-99ac8deda3ee"},"vehicle_type_id":"4","last_reported":1700946350,"current_range_meters":18800,"station_id":"ce4bgs92rcd13ifvqcc0","pricing_plan_id":"free"},{"bike_id":"4c3734d5-f27a-4693-9dfc-c013374f7be1","system_id":"levelo_inurba_marseille","lat":43.301429,"lon":5.37413,"is_reserved":false,"is_disabled":false,"rental_uris":{"android":"levelo://app?vid=4c3734d5-f27a-4693-9dfc-c013374f7be1","ios":"levelo://app?vid=4c3734d5-f27a-4693-9dfc-c013374f7be1"},"vehicle_type_id":"4","last_reported":1700946350,"current_range_meters":11200,"station_id":"ce4bgs92rcd13ifvqcc0","pricing_plan_id":"free"},{"bike_id":"ec54d779-015f-43be-a3e8-16dc81b5cd5b","system_id":"levelo_inurba_marseille","lat":43.301429,"lon":5.37413,"is_reserved":false,"is_disabled":false,"rental_uris":{"android":"levelo://app?vid=ec54d779-015f-43be-a3e8-16dc81b5cd5b","ios":"levelo://app?vid=ec54d779-015f-43be-a3e8-16dc81b5cd5b"},"vehicle_type_id":"4","last_reported":1700946350,"current_range_meters":21600,"station_id":"ce4bgs92rcd13ifvqcc0","pricing_plan_id":"free"},{"bike_id":"6a26d0ec-e476-4178-b7a4-38d9d3eba74c","system_id":"levelo_inurba_marseille","lat":43.319935,"lon":5.381699,"is_reserved":false,"is_disabled":false,"rental_uris":{"android":"levelo://app?vid=6a26d0ec-e476-4178-b7a4-38d9d3eba74c","ios":"levelo://app?vid=6a26d0ec-e476-4178-b7a4-38d9d3eba74c"},"vehicle_type_id":"4","last_reported":1700946350,"current_range_meters":18000,"station_id":"ce4bhr12rcd13ifvqhpg","pricing_plan_id":"free"},{"bike_id":"9adda1c0-69b0-4cd2-8a9b-3388a2b807a8","system_id":"levelo_inurba_marseille","lat":43.319935,"lon":5.381699,"is_reserved":false,"is_disabled":false,"rental_uris":{"android":"levelo://app?vid=9adda1c0-69b0-4cd2-8a9b-3388a2b807a8","ios":"levelo://app?vid=9adda1c0-69b0-4cd2-8a9b-3388a2b807a8"},"vehicle_type_id":"4","last_reported":1700946350,"current_range_meters":19600,"station_id":"ce4bhr12rcd13ifvqhpg","pricing_plan_id":"free"},{"bike_id":"85a1b2e7-1092-41dc-8fea-b07cb6175595","system_id":"levelo_inurba_marseille","lat":43.319935,"lon":5.381699,"is_reserved":false,"is_disabled":false,"rental_uris":{"android":"levelo://app?vid=85a1b2e7-1092-41dc-8fea-b07cb6175595","ios":"levelo://app?vid=85a1b2e7-1092-41dc-8fea-b07cb6175595"},"vehicle_type_id":"4","last_reported":1700946350,"current_range_meters":20400,"station_id":"ce4bhr12rcd13ifvqhpg","pricing_plan_id":"free"},{"bike_id":"2c0cfbc9-8aed-4ab2-9052-67d693991efd","system_id":"levelo_inurba_marseille","lat":43.319935,"lon":5.381699,"is_reserved":false,"is_disabled":false,"rental_uris":{"android":"levelo://app?vid=2c0cfbc9-8aed-4ab2-9052-67d693991efd","ios":"levelo://app?vid=2c0cfbc9-8aed-4ab2-9052-67d693991efd"},"vehicle_type_id":"4","last_reported":1700946350,"current_range_meters":4400,"station_id":"ce4bhr12rcd13ifvqhpg","pricing_plan_id":"free"},{"bike_id":"54cb0418-5cf0-4569-aff2-4805a97225b2","system_id":"levelo_inurba_marseille","lat":43.313571,"lon":5.384829,"is_reserved":false,"is_disabled":false,"rental_uris":{"android":"levelo://app?vid=54cb0418-5cf0-4569-aff2-4805a97225b2","ios":"levelo://app?vid=54cb0418-5cf0-4569-aff2-4805a97225b2"},"vehicle_type_id":"4","last_reported":1700946350,"current_range_meters":15200,"station_id":"ce4bgt92rcd13ifvqcf0","pricing_plan_id":"free"},{"bike_id":"3cc92d4a-f598-4975-90ba-c46c07417dc7","system_id":"levelo_inurba_marseille","lat":43.298433,"lon":5.362774,"is_reserved":false,"is_disabled":false,"rental_uris":{"android":"levelo://app?vid=3cc92d4a-f598-4975-90ba-c46c07417dc7","ios":"levelo://app?vid=3cc92d4a-f598-4975-90ba-c46c07417dc7"},"vehicle_type_id":"4","last_reported":1700946350,"current_range_meters":4000,"station_id":"ce4bgpp2rcd13ifvqc3g","pricing_plan_id":"free"},{"bike_id":"a049d5d6-5688-4698-a67e-b03645784859","system_id":"levelo_inurba_marseille","lat":43.298433,"lon":5.362774,"is_reserved":false,"is_disabled":false,"rental_uris":{"android":"levelo://app?vid=a049d5d6-5688-4698-a67e-b03645784859","ios":"levelo://app?vid=a049d5d6-5688-4698-a67e-b03645784859"},"vehicle_type_id":"4","last_reported":1700946350,"current_range_meters":28800,"station_id":"ce4bgpp2rcd13ifvqc3g","pricing_plan_id":"free"},{"bike_id":"2512e5d9-2293-4ef3-ad8d-62a3ad2e3891","system_id":"levelo_inurba_marseille","lat":43.311722,"lon":5.387247,"is_reserved":false,"is_disabled":false,"rental_uris":{"android":"levelo://app?vid=2512e5d9-2293-4ef3-ad8d-62a3ad2e3891","ios":"levelo://app?vid=2512e5d9-2293-4ef3-ad8d-62a3ad2e3891"},"vehicle_type_id":"4","last_reported":1700946350,"current_range_meters":16800,"station_id":"ce4bgv12rcd13ifvqcp0","pricing_plan_id":"free"},{"bike_id":"5a1baf68-f9af-496c-ab26-e428d44bc382","system_id":"levelo_inurba_marseille","lat":43.322872,"lon":5.382756,"is_reserved":false,"is_disabled":false,"rental_uris":{"android":"levelo://app?vid=5a1baf68-f9af-496c-ab26-e428d44bc382","ios":"levelo://app?vid=5a1baf68-f9af-496c-ab26-e428d44bc382"},"vehicle_type_id":"4","last_reported":1700946350,"current_range_meters":30400,"station_id":"ce4bhr12rcd13ifvqhqg","pricing_plan_id":"free"},{"bike_id":"0b85aafd-2d06-4b3d-bf23-17256839d1de","system_id":"levelo_inurba_marseille","lat":43.322872,"lon":5.382756,"is_reserved":false,"is_disabled":false,"rental_uris":{"android":"levelo://app?vid=0b85aafd-2d06-4b3d-bf23-17256839d1de","ios":"levelo://app?vid=0b85aafd-2d06-4b3d-bf23-17256839d1de"},"vehicle_type_id":"4","last_reported":1700946350,"current_range_meters":9600,"station_id":"ce4bhr12rcd13ifvqhqg","pricing_plan_id":"free"},{"bike_id":"f9fce30d-0cf4-4e60-9d5e-3e6280524e9e","system_id":"levelo_inurba_marseille","lat":43.322872,"lon":5.382756,"is_reserved":false,"is_disabled":false,"rental_uris":{"android":"levelo://app?vid=f9fce30d-0cf4-4e60-9d5e-3e6280524e9e","ios":"levelo://app?vid=f9fce30d-0cf4-4e60-9d5e-3e6280524e9e"},"vehicle_type_id":"4","last_reported":1700946350,"current_range_meters":30400,"station_id":"ce4bhr12rcd13ifvqhqg","pricing_plan_id":"free"},{"bike_id":"d4ce39f9-7fa1-46e3-a433-f250b4fdb796","system_id":"levelo_inurba_marseille","lat":43.322872,"lon":5.382756,"is_reserved":false,"is_disabled":false,"rental_uris":{"android":"levelo://app?vid=d4ce39f9-7fa1-46e3-a433-f250b4fdb796","ios":"levelo://app?vid=d4ce39f9-7fa1-46e3-a433-f250b4fdb796"},"vehicle_type_id":"4","last_reported":1700946350,"current_range_meters":28000,"station_id":"ce4bhr12rcd13ifvqhqg","pricing_plan_id":"free"},{"bike_id":"95825c38-6c59-4753-b43e-2f944bdb26b9","system_id":"levelo_inurba_marseille","lat":43.32827,"lon":5.36683,"is_reserved":false,"is_disabled":false,"rental_uris":{"android":"levelo://app?vid=95825c38-6c59-4753-b43e-2f944bdb26b9","ios":"levelo://app?vid=95825c38-6c59-4753-b43e-2f944bdb26b9"},"vehicle_type_id":"4","last_reported":1700946350,"current_range_meters":14400,"station_id":"ce4bhs92rcd13ifvqi0g","pricing_plan_id":"free"},{"bike_id":"8791a58e-e3a0-43a8-b083-b15b0d3679b4","system_id":"levelo_inurba_marseille","lat":43.3283,"lon":5.36664,"is_reserved":false,"is_disabled":false,"rental_uris":{"android":"levelo://app?vid=8791a58e-e3a0-43a8-b083-b15b0d3679b4","ios":"levelo://app?vid=8791a58e-e3a0-43a8-b083-b15b0d3679b4"},"vehicle_type_id":"4","last_reported":1700946350,"current_range_meters":6800,"station_id":"ce4bhs92rcd13ifvqi0g","pricing_plan_id":"free"},{"bike_id":"71a104a3-4fa9-4688-bd64-7afc80b1b35c","system_id":"levelo_inurba_marseille","lat":43.297163,"lon":5.365866,"is_reserved":false,"is_disabled":false,"rental_uris":{"android":"levelo://app?vid=71a104a3-4fa9-4688-bd64-7afc80b1b35c","ios":"levelo://app?vid=71a104a3-4fa9-4688-bd64-7afc80b1b35c"},"vehicle_type_id":"4","last_reported":1700946350,"current_range_meters":10400,"station_id":"ce4bgn12rcd13ifvqbt0","pricing_plan_id":"free"},{"bike_id":"62431907-0dfd-4393-b4a1-8f979fb859d0","system_id":"levelo_inurba_marseille","lat":43.297163,"lon":5.365866,"is_reserved":false,"is_disabled":false,"rental_uris":{"android":"levelo://app?vid=62431907-0dfd-4393-b4a1-8f979fb859d0","ios":"levelo://app?vid=62431907-0dfd-4393-b4a1-8f979fb859d0"},"vehicle_type_id":"4","last_reported":1700946350,"current_range_meters":22400,"station_id":"ce4bgn12rcd13ifvqbt0","pricing_plan_id":"free"},{"bike_id":"e6ace3a7-d53e-4fd0-b9c3-84f05e49a091","system_id":"levelo_inurba_marseille","lat":43.297163,"lon":5.365866,"is_reserved":false,"is_disabled":false,"rental_uris":{"android":"levelo://app?vid=e6ace3a7-d53e-4fd0-b9c3-84f05e49a091","ios":"levelo://app?vid=e6ace3a7-d53e-4fd0-b9c3-84f05e49a091"},"vehicle_type_id":"4","last_reported":1700946350,"current_range_meters":25200,"station_id":"ce4bgn12rcd13ifvqbt0","pricing_plan_id":"free"},{"bike_id":"638f73ca-313c-4d9e-b9e0-6e2c0687747f","system_id":"levelo_inurba_marseille","lat":43.309589,"lon":5.390258,"is_reserved":false,"is_disabled":false,"rental_uris":{"android":"levelo://app?vid=638f73ca-313c-4d9e-b9e0-6e2c0687747f","ios":"levelo://app?vid=638f73ca-313c-4d9e-b9e0-6e2c0687747f"},"vehicle_type_id":"4","last_reported":1700946350,"current_range_meters":0,"station_id":"ce4bgup2rcd13ifvqco0","pricing_plan_id":"free"},{"bike_id":"6c34acba-7418-4dcb-88ae-ce72b6bf0000","system_id":"levelo_inurba_marseille","lat":43.309589,"lon":5.390258,"is_reserved":false,"is_disabled":false,"rental_uris":{"android":"levelo://app?vid=6c34acba-7418-4dcb-88ae-ce72b6bf0000","ios":"levelo://app?vid=6c34acba-7418-4dcb-88ae-ce72b6bf0000"},"vehicle_type_id":"4","last_reported":1700946350,"current_range_meters":8400,"station_id":"ce4bgup2rcd13ifvqco0","pricing_plan_id":"free"},{"bike_id":"c603c264-09f0-4c53-ac9a-c4412c6141f1","system_id":"levelo_inurba_marseille","lat":43.309589,"lon":5.390258,"is_reserved":false,"is_disabled":false,"rental_uris":{"android":"levelo://app?vid=c603c264-09f0-4c53-ac9a-c4412c6141f1","ios":"levelo://app?vid=c603c264-09f0-4c53-ac9a-c4412c6141f1"},"vehicle_type_id":"4","last_reported":1700946350,"current_range_meters":23600,"station_id":"ce4bgup2rcd13ifvqco0","pricing_plan_id":"free"},{"bike_id":"6d912f3f-570f-42b8-9a70-49b3a2d1e1f9","system_id":"levelo_inurba_marseille","lat":43.309589,"lon":5.390258,"is_reserved":false,"is_disabled":false,"rental_uris":{"android":"levelo://app?vid=6d912f3f-570f-42b8-9a70-49b3a2d1e1f9","ios":"levelo://app?vid=6d912f3f-570f-42b8-9a70-49b3a2d1e1f9"},"vehicle_type_id":"4","last_reported":1700946350,"current_range_meters":15200,"station_id":"ce4bgup2rcd13ifvqco0","pricing_plan_id":"free"},{"bike_id":"3b339994-3557-4ddd-b662-012dc9114e7e","system_id":"levelo_inurba_marseille","lat":43.317557,"lon":5.390173,"is_reserved":false,"is_disabled":false,"rental_uris":{"android":"levelo://app?vid=3b339994-3557-4ddd-b662-012dc9114e7e","ios":"levelo://app?vid=3b339994-3557-4ddd-b662-012dc9114e7e"},"vehicle_type_id":"4","last_reported":1700946350,"current_range_meters":18000,"station_id":"ce4bhqp2rcd13ifvqhng","pricing_plan_id":"free"},{"bike_id":"269c6317-87ce-4fc8-9c85-66e88533dc75","system_id":"levelo_inurba_marseille","lat":43.317557,"lon":5.390173,"is_reserved":false,"is_disabled":false,"rental_uris":{"android":"levelo://app?vid=269c6317-87ce-4fc8-9c85-66e88533dc75","ios":"levelo://app?vid=269c6317-87ce-4fc8-9c85-66e88533dc75"},"vehicle_type_id":"4","last_reported":1700946350,"current_range_meters":16400,"station_id":"ce4bhqp2rcd13ifvqhng","pricing_plan_id":"free"},{"bike_id":"8e0b024a-cf26-4b65-ac01-3f5bea6a73f0","system_id":"levelo_inurba_marseille","lat":43.31759,"lon":5.39023,"is_reserved":false,"is_disabled":false,"rental_uris":{"android":"levelo://app?vid=8e0b024a-cf26-4b65-ac01-3f5bea6a73f0","ios":"levelo://app?vid=8e0b024a-cf26-4b65-ac01-3f5bea6a73f0"},"vehicle_type_id":"4","last_reported":1700946350,"current_range_meters":0,"station_id":"ce4bhqp2rcd13ifvqhng","pricing_plan_id":"free"},{"bike_id":"138298b0-3369-4a93-b415-827af7418f68","system_id":"levelo_inurba_marseille","lat":43.304278,"lon":5.388868,"is_reserved":false,"is_disabled":false,"rental_uris":{"android":"levelo://app?vid=138298b0-3369-4a93-b415-827af7418f68","ios":"levelo://app?vid=138298b0-3369-4a93-b415-827af7418f68"},"vehicle_type_id":"4","last_reported":1700946350,"current_range_meters":1600,"station_id":"ce4bgk12rcd13ifvqbi0","pricing_plan_id":"free"},{"bike_id":"7a0fad20-3762-410c-aadc-f58781fbffbc","system_id":"levelo_inurba_marseille","lat":43.309589,"lon":5.390258,"is_reserved":false,"is_disabled":false,"rental_uris":{"android":"levelo://app?vid=7a0fad20-3762-410c-aadc-f58781fbffbc","ios":"levelo://app?vid=7a0fad20-3762-410c-aadc-f58781fbffbc"},"vehicle_type_id":"4","last_reported":1700946350,"current_range_meters":9200,"station_id":"ce4bgup2rcd13ifvqco0","pricing_plan_id":"free"},{"bike_id":"74b86f72-5bac-40d3-8697-6e3b66044c95","system_id":"levelo_inurba_marseille","lat":43.29613,"lon":5.37717,"is_reserved":false,"is_disabled":false,"rental_uris":{"android":"levelo://app?vid=74b86f72-5bac-40d3-8697-6e3b66044c95","ios":"levelo://app?vid=74b86f72-5bac-40d3-8697-6e3b66044c95"},"vehicle_type_id":"4","last_reported":1700946350,"current_range_meters":0,"station_id":"ce4bgqh2rcd13ifvqc4g","pricing_plan_id":"free"},{"bike_id":"73947793-507c-4150-b896-96d9ad426572","system_id":"levelo_inurba_marseille","lat":43.29964,"lon":5.38495,"is_reserved":false,"is_disabled":false,"rental_uris":{"android":"levelo://app?vid=73947793-507c-4150-b896-96d9ad426572","ios":"levelo://app?vid=73947793-507c-4150-b896-96d9ad426572"},"vehicle_type_id":"4","last_reported":1700946350,"current_range_meters":23600,"station_id":"ce4bgj92rcd13ifvqbd0","pricing_plan_id":"free"},{"bike_id":"6b621983-5e9e-42f7-990d-ad5a093820d2","system_id":"levelo_inurba_marseille","lat":43.293801,"lon":5.363066,"is_reserved":false,"is_disabled":false,"rental_uris":{"android":"levelo://app?vid=6b621983-5e9e-42f7-990d-ad5a093820d2","ios":"levelo://app?vid=6b621983-5e9e-42f7-990d-ad5a093820d2"},"vehicle_type_id":"4","last_reported":1700946350,"current_range_meters":0,"station_id":"","pricing_plan_id":"free"},{"bike_id":"596a68ec-846e-4c3e-bce4-ec87b49249bd","system_id":"levelo_inurba_marseille","lat":43.32365,"lon":5.3888,"is_reserved":false,"is_disabled":false,"rental_uris":{"android":"levelo://app?vid=596a68ec-846e-4c3e-bce4-ec87b49249bd","ios":"levelo://app?vid=596a68ec-846e-4c3e-bce4-ec87b49249bd"},"vehicle_type_id":"4","last_reported":1700946350,"current_range_meters":4400,"station_id":"ce4bhqp2rcd13ifvqhog","pricing_plan_id":"free"},{"bike_id":"c08692de-893b-4842-ac6a-624a77fd78ec","system_id":"levelo_inurba_marseille","lat":43.3238,"lon":5.38962,"is_reserved":false,"is_disabled":false,"rental_uris":{"android":"levelo://app?vid=c08692de-893b-4842-ac6a-624a77fd78ec","ios":"levelo://app?vid=c08692de-893b-4842-ac6a-624a77fd78ec"},"vehicle_type_id":"4","last_reported":1700946350,"current_range_meters":2000,"station_id":"","pricing_plan_id":"free"},{"bike_id":"a99a98c5-7e88-436c-8d20-73c6fda0c8bc","system_id":"levelo_inurba_marseille","lat":43.29272,"lon":5.36837,"is_reserved":false,"is_disabled":false,"rental_uris":{"android":"levelo://app?vid=a99a98c5-7e88-436c-8d20-73c6fda0c8bc","ios":"levelo://app?vid=a99a98c5-7e88-436c-8d20-73c6fda0c8bc"},"vehicle_type_id":"4","last_reported":1700946350,"current_range_meters":0,"station_id":"ce4bhbp2rcd13ifvqesg","pricing_plan_id":"free"},{"bike_id":"d808e1a3-a631-42b9-8549-d83bbe7ded81","system_id":"levelo_inurba_marseille","lat":43.305994,"lon":5.393687,"is_reserved":false,"is_disabled":false,"rental_uris":{"android":"levelo://app?vid=d808e1a3-a631-42b9-8549-d83bbe7ded81","ios":"levelo://app?vid=d808e1a3-a631-42b9-8549-d83bbe7ded81"},"vehicle_type_id":"4","last_reported":1700946350,"current_range_meters":14000,"station_id":"ce4bh0p2rcd13ifvqd80","pricing_plan_id":"free"},{"bike_id":"635e5adf-671e-4309-8155-7ed6cd9c47cb","system_id":"levelo_inurba_marseille","lat":43.305994,"lon":5.393687,"is_reserved":false,"is_disabled":false,"rental_uris":{"android":"levelo://app?vid=635e5adf-671e-4309-8155-7ed6cd9c47cb","ios":"levelo://app?vid=635e5adf-671e-4309-8155-7ed6cd9c47cb"},"vehicle_type_id":"4","last_reported":1700946350,"current_range_meters":4400,"station_id":"ce4bh0p2rcd13ifvqd80","pricing_plan_id":"free"},{"bike_id":"2affda6a-8a09-4865-8570-719e2657702e","system_id":"levelo_inurba_marseille","lat":43.300852,"lon":5.390859,"is_reserved":false,"is_disabled":false,"rental_uris":{"android":"levelo://app?vid=2affda6a-8a09-4865-8570-719e2657702e","ios":"levelo://app?vid=2affda6a-8a09-4865-8570-719e2657702e"},"vehicle_type_id":"4","last_reported":1700946350,"current_range_meters":22800,"station_id":"ce4bh192rcd13ifvqdb0","pricing_plan_id":"free"},{"bike_id":"0824338a-667b-4bf1-9837-21cc7bdd23e1","system_id":"levelo_inurba_marseille","lat":43.30085,"lon":5.390856,"is_reserved":false,"is_disabled":false,"rental_uris":{"android":"levelo://app?vid=0824338a-667b-4bf1-9837-21cc7bdd23e1","ios":"levelo://app?vid=0824338a-667b-4bf1-9837-21cc7bdd23e1"},"vehicle_type_id":"4","last_reported":1700946350,"current_range_meters":6400,"station_id":"ce4bh192rcd13ifvqdb0","pricing_plan_id":"free"},{"bike_id":"5921b4e6-043e-4a22-84a2-d1b079323cd1","system_id":"levelo_inurba_marseille","lat":43.29198,"lon":5.35799,"is_reserved":false,"is_disabled":false,"rental_uris":{"android":"levelo://app?vid=5921b4e6-043e-4a22-84a2-d1b079323cd1","ios":"levelo://app?vid=5921b4e6-043e-4a22-84a2-d1b079323cd1"},"vehicle_type_id":"4","last_reported":1700946350,"current_range_meters":13200,"station_id":"ce4bhb12rcd13ifvqel0","pricing_plan_id":"free"},{"bike_id":"fb9779ef-74b8-4f04-b5c8-61b5820cbe87","system_id":"levelo_inurba_marseille","lat":43.309038,"lon":5.396546,"is_reserved":false,"is_disabled":false,"rental_uris":{"android":"levelo://app?vid=fb9779ef-74b8-4f04-b5c8-61b5820cbe87","ios":"levelo://app?vid=fb9779ef-74b8-4f04-b5c8-61b5820cbe87"},"vehicle_type_id":"4","last_reported":1700946350,"current_range_meters":16800,"station_id":"ce4bh012rcd13ifvqcv0","pricing_plan_id":"free"},{"bike_id":"d50accdd-0958-4344-a7b1-99d6174e896a","system_id":"levelo_inurba_marseille","lat":43.309047,"lon":5.396551,"is_reserved":false,"is_disabled":false,"rental_uris":{"android":"levelo://app?vid=d50accdd-0958-4344-a7b1-99d6174e896a","ios":"levelo://app?vid=d50accdd-0958-4344-a7b1-99d6174e896a"},"vehicle_type_id":"4","last_reported":1700946350,"current_range_meters":2400,"station_id":"ce4bh012rcd13ifvqcv0","pricing_plan_id":"free"},{"bike_id":"118eb32a-3cd8-43d5-aa47-764836971e68","system_id":"levelo_inurba_marseille","lat":43.309047,"lon":5.396551,"is_reserved":false,"is_disabled":false,"rental_uris":{"android":"levelo://app?vid=118eb32a-3cd8-43d5-aa47-764836971e68","ios":"levelo://app?vid=118eb32a-3cd8-43d5-aa47-764836971e68"},"vehicle_type_id":"4","last_reported":1700946350,"current_range_meters":4800,"station_id":"ce4bh012rcd13ifvqcv0","pricing_plan_id":"free"},{"bike_id":"7fb0e822-f802-4eee-9fe8-dc6679eaff76","system_id":"levelo_inurba_marseille","lat":43.309047,"lon":5.396551,"is_reserved":false,"is_disabled":false,"rental_uris":{"android":"levelo://app?vid=7fb0e822-f802-4eee-9fe8-dc6679eaff76","ios":"levelo://app?vid=7fb0e822-f802-4eee-9fe8-dc6679eaff76"},"vehicle_type_id":"4","last_reported":1700946350,"current_range_meters":3600,"station_id":"ce4bh012rcd13ifvqcv0","pricing_plan_id":"free"},{"bike_id":"d313d9a4-1251-4641-b4ad-43f072888bb1","system_id":"levelo_inurba_marseille","lat":43.290624,"lon":5.359245,"is_reserved":false,"is_disabled":false,"rental_uris":{"android":"levelo://app?vid=d313d9a4-1251-4641-b4ad-43f072888bb1","ios":"levelo://app?vid=d313d9a4-1251-4641-b4ad-43f072888bb1"},"vehicle_type_id":"4","last_reported":1700946350,"current_range_meters":12800,"station_id":"ce4bha92rcd13ifvqeg0","pricing_plan_id":"free"},{"bike_id":"50050e54-0d81-476a-a002-e675e75cf66b","system_id":"levelo_inurba_marseille","lat":43.290327,"lon":5.375711,"is_reserved":false,"is_disabled":false,"rental_uris":{"android":"levelo://app?vid=50050e54-0d81-476a-a002-e675e75cf66b","ios":"levelo://app?vid=50050e54-0d81-476a-a002-e675e75cf66b"},"vehicle_type_id":"4","last_reported":1700946350,"current_range_meters":10000,"station_id":"ce4bh692rcd13ifvqe90","pricing_plan_id":"free"},{"bike_id":"4db287c4-f44c-4b90-82e4-3be10dcf0260","system_id":"levelo_inurba_marseille","lat":43.290327,"lon":5.375711,"is_reserved":false,"is_disabled":false,"rental_uris":{"android":"levelo://app?vid=4db287c4-f44c-4b90-82e4-3be10dcf0260","ios":"levelo://app?vid=4db287c4-f44c-4b90-82e4-3be10dcf0260"},"vehicle_type_id":"4","last_reported":1700946350,"current_range_meters":0,"station_id":"ce4bh692rcd13ifvqe90","pricing_plan_id":"free"},{"bike_id":"85dd6670-c767-414d-83ef-ccea20aef7a9","system_id":"levelo_inurba_marseille","lat":43.289184,"lon":5.366408,"is_reserved":false,"is_disabled":false,"rental_uris":{"android":"levelo://app?vid=85dd6670-c767-414d-83ef-ccea20aef7a9","ios":"levelo://app?vid=85dd6670-c767-414d-83ef-ccea20aef7a9"},"vehicle_type_id":"4","last_reported":1700946350,"current_range_meters":12800,"station_id":"ce4bhap2rcd13ifvqek0","pricing_plan_id":"free"},{"bike_id":"2aeb0433-c5b7-44fa-9488-1bcc3fbe1492","system_id":"levelo_inurba_marseille","lat":43.304296,"lon":5.397513,"is_reserved":false,"is_disabled":false,"rental_uris":{"android":"levelo://app?vid=2aeb0433-c5b7-44fa-9488-1bcc3fbe1492","ios":"levelo://app?vid=2aeb0433-c5b7-44fa-9488-1bcc3fbe1492"},"vehicle_type_id":"4","last_reported":1700946350,"current_range_meters":14400,"station_id":"ce4bh092rcd13ifvqd20","pricing_plan_id":"free"},{"bike_id":"13b7f618-22c5-4640-8f49-7e29db9619e9","system_id":"levelo_inurba_marseille","lat":43.304274,"lon":5.397513,"is_reserved":false,"is_disabled":false,"rental_uris":{"android":"levelo://app?vid=13b7f618-22c5-4640-8f49-7e29db9619e9","ios":"levelo://app?vid=13b7f618-22c5-4640-8f49-7e29db9619e9"},"vehicle_type_id":"4","last_reported":1700946350,"current_range_meters":16800,"station_id":"ce4bh092rcd13ifvqd20","pricing_plan_id":"free"},{"bike_id":"140e0298-a523-4aa7-9a0e-6d5a6558289a","system_id":"levelo_inurba_marseille","lat":43.304296,"lon":5.397513,"is_reserved":false,"is_disabled":false,"rental_uris":{"android":"levelo://app?vid=140e0298-a523-4aa7-9a0e-6d5a6558289a","ios":"levelo://app?vid=140e0298-a523-4aa7-9a0e-6d5a6558289a"},"vehicle_type_id":"4","last_reported":1700946350,"current_range_meters":13200,"station_id":"ce4bh092rcd13ifvqd20","pricing_plan_id":"free"},{"bike_id":"fef2c610-e3d2-4fbc-831d-924d8af4fef5","system_id":"levelo_inurba_marseille","lat":43.304296,"lon":5.397513,"is_reserved":false,"is_disabled":false,"rental_uris":{"android":"levelo://app?vid=fef2c610-e3d2-4fbc-831d-924d8af4fef5","ios":"levelo://app?vid=fef2c610-e3d2-4fbc-831d-924d8af4fef5"},"vehicle_type_id":"4","last_reported":1700946350,"current_range_meters":3200,"station_id":"ce4bh092rcd13ifvqd20","pricing_plan_id":"free"},{"bike_id":"5034e0c3-2473-4c50-9e58-7afdd1f8fd85","system_id":"levelo_inurba_marseille","lat":43.304296,"lon":5.397513,"is_reserved":false,"is_disabled":false,"rental_uris":{"android":"levelo://app?vid=5034e0c3-2473-4c50-9e58-7afdd1f8fd85","ios":"levelo://app?vid=5034e0c3-2473-4c50-9e58-7afdd1f8fd85"},"vehicle_type_id":"4","last_reported":1700946350,"current_range_meters":19600,"station_id":"ce4bh092rcd13ifvqd20","pricing_plan_id":"free"},{"bike_id":"693a139c-e9b3-4d4c-a346-e3372ccbb246","system_id":"levelo_inurba_marseille","lat":43.304296,"lon":5.397513,"is_reserved":false,"is_disabled":false,"rental_uris":{"android":"levelo://app?vid=693a139c-e9b3-4d4c-a346-e3372ccbb246","ios":"levelo://app?vid=693a139c-e9b3-4d4c-a346-e3372ccbb246"},"vehicle_type_id":"4","last_reported":1700946350,"current_range_meters":19200,"station_id":"ce4bh092rcd13ifvqd20","pricing_plan_id":"free"},{"bike_id":"b420e4f6-1330-488a-a68e-de353d903bb2","system_id":"levelo_inurba_marseille","lat":43.3304,"lon":5.3892,"is_reserved":false,"is_disabled":false,"rental_uris":{"android":"levelo://app?vid=b420e4f6-1330-488a-a68e-de353d903bb2","ios":"levelo://app?vid=b420e4f6-1330-488a-a68e-de353d903bb2"},"vehicle_type_id":"4","last_reported":1700946350,"current_range_meters":7200,"station_id":"ce4bhr92rcd13ifvqhrg","pricing_plan_id":"free"},{"bike_id":"4e71dcdc-d4bf-48b6-9951-478975a525bd","system_id":"levelo_inurba_marseille","lat":43.33039,"lon":5.38924,"is_reserved":false,"is_disabled":false,"rental_uris":{"android":"levelo://app?vid=4e71dcdc-d4bf-48b6-9951-478975a525bd","ios":"levelo://app?vid=4e71dcdc-d4bf-48b6-9951-478975a525bd"},"vehicle_type_id":"4","last_reported":1700946350,"current_range_meters":11200,"station_id":"ce4bhr92rcd13ifvqhrg","pricing_plan_id":"free"},{"bike_id":"881e9205-aa4a-47a3-9413-92b44abe9dc7","system_id":"levelo_inurba_marseille","lat":43.297841,"lon":5.393307,"is_reserved":false,"is_disabled":false,"rental_uris":{"android":"levelo://app?vid=881e9205-aa4a-47a3-9413-92b44abe9dc7","ios":"levelo://app?vid=881e9205-aa4a-47a3-9413-92b44abe9dc7"},"vehicle_type_id":"4","last_reported":1700946350,"current_range_meters":22400,"station_id":"ce4bhb12rcd13ifvqem0","pricing_plan_id":"free"},{"bike_id":"4034d165-96d5-4a1a-b325-abbfb6a0c7fb","system_id":"levelo_inurba_marseille","lat":43.295169,"lon":5.390426,"is_reserved":false,"is_disabled":false,"rental_uris":{"android":"levelo://app?vid=4034d165-96d5-4a1a-b325-abbfb6a0c7fb","ios":"levelo://app?vid=4034d165-96d5-4a1a-b325-abbfb6a0c7fb"},"vehicle_type_id":"4","last_reported":1700946350,"current_range_meters":4400,"station_id":"ce4bh3p2rcd13ifvqdp0","pricing_plan_id":"free"},{"bike_id":"2c730695-063d-4403-92bb-79f3eca6b034","system_id":"levelo_inurba_marseille","lat":43.295169,"lon":5.390426,"is_reserved":false,"is_disabled":false,"rental_uris":{"android":"levelo://app?vid=2c730695-063d-4403-92bb-79f3eca6b034","ios":"levelo://app?vid=2c730695-063d-4403-92bb-79f3eca6b034"},"vehicle_type_id":"4","last_reported":1700946350,"current_range_meters":28800,"station_id":"ce4bh3p2rcd13ifvqdp0","pricing_plan_id":"free"},{"bike_id":"01d4c669-5e05-4aac-8e5b-fdd6468fb7eb","system_id":"levelo_inurba_marseille","lat":43.295169,"lon":5.390426,"is_reserved":false,"is_disabled":false,"rental_uris":{"android":"levelo://app?vid=01d4c669-5e05-4aac-8e5b-fdd6468fb7eb","ios":"levelo://app?vid=01d4c669-5e05-4aac-8e5b-fdd6468fb7eb"},"vehicle_type_id":"4","last_reported":1700946350,"current_range_meters":8800,"station_id":"ce4bh3p2rcd13ifvqdp0","pricing_plan_id":"free"},{"bike_id":"9c9bd7db-a71c-419c-ba42-83618cc977b4","system_id":"levelo_inurba_marseille","lat":43.309609,"lon":5.400732,"is_reserved":false,"is_disabled":false,"rental_uris":{"android":"levelo://app?vid=9c9bd7db-a71c-419c-ba42-83618cc977b4","ios":"levelo://app?vid=9c9bd7db-a71c-419c-ba42-83618cc977b4"},"vehicle_type_id":"4","last_reported":1700946350,"current_range_meters":0,"station_id":"","pricing_plan_id":"free"},{"bike_id":"2b23f38a-1831-49fe-a943-86c9ec15f136","system_id":"levelo_inurba_marseille","lat":43.337484,"lon":5.374534,"is_reserved":false,"is_disabled":false,"rental_uris":{"android":"levelo://app?vid=2b23f38a-1831-49fe-a943-86c9ec15f136","ios":"levelo://app?vid=2b23f38a-1831-49fe-a943-86c9ec15f136"},"vehicle_type_id":"4","last_reported":1700946350,"current_range_meters":400,"station_id":"","pricing_plan_id":"free"},{"bike_id":"ac285e26-46ab-4b23-8672-d078d8fed511","system_id":"levelo_inurba_marseille","lat":43.337577,"lon":5.374513,"is_reserved":false,"is_disabled":false,"rental_uris":{"android":"levelo://app?vid=ac285e26-46ab-4b23-8672-d078d8fed511","ios":"levelo://app?vid=ac285e26-46ab-4b23-8672-d078d8fed511"},"vehicle_type_id":"4","last_reported":1700946350,"current_range_meters":24400,"station_id":"","pricing_plan_id":"free"},{"bike_id":"7109feb0-a723-4820-9abd-aab9b6f84b1f","system_id":"levelo_inurba_marseille","lat":43.272116,"lon":5.391747,"is_reserved":false,"is_disabled":false,"rental_uris":{"android":"levelo://app?vid=7109feb0-a723-4820-9abd-aab9b6f84b1f","ios":"levelo://app?vid=7109feb0-a723-4820-9abd-aab9b6f84b1f"},"vehicle_type_id":"4","last_reported":1700946350,"current_range_meters":6000,"station_id":"ce4bhhp2rcd13ifvqfm0","pricing_plan_id":"free"},{"bike_id":"91d13a10-b07c-40ee-a39e-bb3db35d1fb0","system_id":"levelo_inurba_marseille","lat":43.306412,"lon":5.401035,"is_reserved":false,"is_disabled":false,"rental_uris":{"android":"levelo://app?vid=91d13a10-b07c-40ee-a39e-bb3db35d1fb0","ios":"levelo://app?vid=91d13a10-b07c-40ee-a39e-bb3db35d1fb0"},"vehicle_type_id":"4","last_reported":1700946350,"current_range_meters":5600,"station_id":"ce4bh112rcd13ifvqda0","pricing_plan_id":"free"},{"bike_id":"3cc5f4b1-e50c-4c93-862f-213cb02b79c5","system_id":"levelo_inurba_marseille","lat":43.301117,"lon":5.398795,"is_reserved":false,"is_disabled":false,"rental_uris":{"android":"levelo://app?vid=3cc5f4b1-e50c-4c93-862f-213cb02b79c5","ios":"levelo://app?vid=3cc5f4b1-e50c-4c93-862f-213cb02b79c5"},"vehicle_type_id":"4","last_reported":1700946350,"current_range_meters":0,"station_id":"ce4bh0h2rcd13ifvqd40","pricing_plan_id":"free"},{"bike_id":"084d65ee-3c37-4047-b778-7bd445462b28","system_id":"levelo_inurba_marseille","lat":43.301117,"lon":5.398795,"is_reserved":false,"is_disabled":false,"rental_uris":{"android":"levelo://app?vid=084d65ee-3c37-4047-b778-7bd445462b28","ios":"levelo://app?vid=084d65ee-3c37-4047-b778-7bd445462b28"},"vehicle_type_id":"4","last_reported":1700946350,"current_range_meters":30400,"station_id":"ce4bh0h2rcd13ifvqd40","pricing_plan_id":"free"},{"bike_id":"f3e0a1c6-27d0-4738-ab41-50bb7213b977","system_id":"levelo_inurba_marseille","lat":43.28727,"lon":5.36078,"is_reserved":false,"is_disabled":false,"rental_uris":{"android":"levelo://app?vid=f3e0a1c6-27d0-4738-ab41-50bb7213b977","ios":"levelo://app?vid=f3e0a1c6-27d0-4738-ab41-50bb7213b977"},"vehicle_type_id":"4","last_reported":1700946350,"current_range_meters":26800,"station_id":"cki0cbj6b192h4jlfktg","pricing_plan_id":"free"},{"bike_id":"7cf9cc4c-8f26-4e1e-a74b-4b6a80ff6a6a","system_id":"levelo_inurba_marseille","lat":43.286961,"lon":5.373785,"is_reserved":false,"is_disabled":false,"rental_uris":{"android":"levelo://app?vid=7cf9cc4c-8f26-4e1e-a74b-4b6a80ff6a6a","ios":"levelo://app?vid=7cf9cc4c-8f26-4e1e-a74b-4b6a80ff6a6a"},"vehicle_type_id":"4","last_reported":1700946350,"current_range_meters":30400,"station_id":"ce4bh3p2rcd13ifvqdq0","pricing_plan_id":"free"},{"bike_id":"580720e0-432e-4336-8ddd-24e39a33272f","system_id":"levelo_inurba_marseille","lat":43.298681,"lon":5.397225,"is_reserved":false,"is_disabled":false,"rental_uris":{"android":"levelo://app?vid=580720e0-432e-4336-8ddd-24e39a33272f","ios":"levelo://app?vid=580720e0-432e-4336-8ddd-24e39a33272f"},"vehicle_type_id":"4","last_reported":1700946350,"current_range_meters":2800,"station_id":"ce4bh0h2rcd13ifvqd50","pricing_plan_id":"free"},{"bike_id":"3a8c9f50-564b-442c-8bfe-6c7954953dba","system_id":"levelo_inurba_marseille","lat":43.302759,"lon":5.400793,"is_reserved":false,"is_disabled":false,"rental_uris":{"android":"levelo://app?vid=3a8c9f50-564b-442c-8bfe-6c7954953dba","ios":"levelo://app?vid=3a8c9f50-564b-442c-8bfe-6c7954953dba"},"vehicle_type_id":"4","last_reported":1700946350,"current_range_meters":8400,"station_id":"ce4bgvh2rcd13ifvqcs0","pricing_plan_id":"free"},{"bike_id":"faf4bc94-7793-4c1d-8911-9189a109b7c2","system_id":"levelo_inurba_marseille","lat":43.289307,"lon":5.38406,"is_reserved":false,"is_disabled":false,"rental_uris":{"android":"levelo://app?vid=faf4bc94-7793-4c1d-8911-9189a109b7c2","ios":"levelo://app?vid=faf4bc94-7793-4c1d-8911-9189a109b7c2"},"vehicle_type_id":"4","last_reported":1700946350,"current_range_meters":11200,"station_id":"ce4bh612rcd13ifvqe6g","pricing_plan_id":"free"},{"bike_id":"784ddb13-4bda-43aa-8f37-c3450d3f29b6","system_id":"levelo_inurba_marseille","lat":43.3024,"lon":5.40065,"is_reserved":false,"is_disabled":false,"rental_uris":{"android":"levelo://app?vid=784ddb13-4bda-43aa-8f37-c3450d3f29b6","ios":"levelo://app?vid=784ddb13-4bda-43aa-8f37-c3450d3f29b6"},"vehicle_type_id":"4","last_reported":1700946350,"current_range_meters":7200,"station_id":"ce4bgvh2rcd13ifvqcs0","pricing_plan_id":"free"},{"bike_id":"70661fb3-c0a0-4e75-9cc1-95789cf8c65b","system_id":"levelo_inurba_marseille","lat":43.302759,"lon":5.400793,"is_reserved":false,"is_disabled":false,"rental_uris":{"android":"levelo://app?vid=70661fb3-c0a0-4e75-9cc1-95789cf8c65b","ios":"levelo://app?vid=70661fb3-c0a0-4e75-9cc1-95789cf8c65b"},"vehicle_type_id":"4","last_reported":1700946350,"current_range_meters":3600,"station_id":"ce4bgvh2rcd13ifvqcs0","pricing_plan_id":"free"},{"bike_id":"f8a7c781-d275-4271-96a9-43cbaa7d4d01","system_id":"levelo_inurba_marseille","lat":43.302759,"lon":5.400793,"is_reserved":false,"is_disabled":false,"rental_uris":{"android":"levelo://app?vid=f8a7c781-d275-4271-96a9-43cbaa7d4d01","ios":"levelo://app?vid=f8a7c781-d275-4271-96a9-43cbaa7d4d01"},"vehicle_type_id":"4","last_reported":1700946350,"current_range_meters":26000,"station_id":"ce4bgvh2rcd13ifvqcs0","pricing_plan_id":"free"},{"bike_id":"0f56fa0f-1117-4140-8fde-612592dc4d4f","system_id":"levelo_inurba_marseille","lat":43.286039,"lon":5.370679,"is_reserved":false,"is_disabled":false,"rental_uris":{"android":"levelo://app?vid=0f56fa0f-1117-4140-8fde-612592dc4d4f","ios":"levelo://app?vid=0f56fa0f-1117-4140-8fde-612592dc4d4f"},"vehicle_type_id":"4","last_reported":1700946350,"current_range_meters":20400,"station_id":"ce4bht12rcd13ifvqi60","pricing_plan_id":"free"},{"bike_id":"e1cfd804-c192-4c35-ad5c-c8d01222a441","system_id":"levelo_inurba_marseille","lat":43.286039,"lon":5.370679,"is_reserved":false,"is_disabled":false,"rental_uris":{"android":"levelo://app?vid=e1cfd804-c192-4c35-ad5c-c8d01222a441","ios":"levelo://app?vid=e1cfd804-c192-4c35-ad5c-c8d01222a441"},"vehicle_type_id":"4","last_reported":1700946350,"current_range_meters":21600,"station_id":"ce4bht12rcd13ifvqi60","pricing_plan_id":"free"},{"bike_id":"d0ff1b24-b3bf-49c4-9a97-6ac9346c75b4","system_id":"levelo_inurba_marseille","lat":43.291994,"lon":5.392907,"is_reserved":false,"is_disabled":false,"rental_uris":{"android":"levelo://app?vid=d0ff1b24-b3bf-49c4-9a97-6ac9346c75b4","ios":"levelo://app?vid=d0ff1b24-b3bf-49c4-9a97-6ac9346c75b4"},"vehicle_type_id":"4","last_reported":1700946350,"current_range_meters":15200,"station_id":"ce4bh192rcd13ifvqdd0","pricing_plan_id":"free"},{"bike_id":"ca57b001-f9b8-47b2-ac55-5a48f04cda39","system_id":"levelo_inurba_marseille","lat":43.28464,"lon":5.35889,"is_reserved":false,"is_disabled":false,"rental_uris":{"android":"levelo://app?vid=ca57b001-f9b8-47b2-ac55-5a48f04cda39","ios":"levelo://app?vid=ca57b001-f9b8-47b2-ac55-5a48f04cda39"},"vehicle_type_id":"4","last_reported":1700946350,"current_range_meters":18800,"station_id":"ce4bhah2rcd13ifvqei0","pricing_plan_id":"free"},{"bike_id":"d08b2079-b0cd-4cb9-b0d6-38b0349bb91f","system_id":"levelo_inurba_marseille","lat":43.284538,"lon":5.358657,"is_reserved":false,"is_disabled":false,"rental_uris":{"android":"levelo://app?vid=d08b2079-b0cd-4cb9-b0d6-38b0349bb91f","ios":"levelo://app?vid=d08b2079-b0cd-4cb9-b0d6-38b0349bb91f"},"vehicle_type_id":"4","last_reported":1700946350,"current_range_meters":1600,"station_id":"ce4bhah2rcd13ifvqei0","pricing_plan_id":"free"},{"bike_id":"cdead48e-fa06-4435-b6f4-505cbd3628cf","system_id":"levelo_inurba_marseille","lat":43.294314,"lon":5.397498,"is_reserved":false,"is_disabled":false,"rental_uris":{"android":"levelo://app?vid=cdead48e-fa06-4435-b6f4-505cbd3628cf","ios":"levelo://app?vid=cdead48e-fa06-4435-b6f4-505cbd3628cf"},"vehicle_type_id":"4","last_reported":1700946350,"current_range_meters":6800,"station_id":"ce4bh3h2rcd13ifvqdo0","pricing_plan_id":"free"},{"bike_id":"aa25b936-c597-4f2f-9c80-1bac2e7a9194","system_id":"levelo_inurba_marseille","lat":43.294314,"lon":5.397498,"is_reserved":false,"is_disabled":false,"rental_uris":{"android":"levelo://app?vid=aa25b936-c597-4f2f-9c80-1bac2e7a9194","ios":"levelo://app?vid=aa25b936-c597-4f2f-9c80-1bac2e7a9194"},"vehicle_type_id":"4","last_reported":1700946350,"current_range_meters":28000,"station_id":"ce4bh3h2rcd13ifvqdo0","pricing_plan_id":"free"},{"bike_id":"81fe76f5-b88a-46ba-a919-2b1a4543855d","system_id":"levelo_inurba_marseille","lat":43.294314,"lon":5.397498,"is_reserved":false,"is_disabled":false,"rental_uris":{"android":"levelo://app?vid=81fe76f5-b88a-46ba-a919-2b1a4543855d","ios":"levelo://app?vid=81fe76f5-b88a-46ba-a919-2b1a4543855d"},"vehicle_type_id":"4","last_reported":1700946350,"current_range_meters":28400,"station_id":"ce4bh3h2rcd13ifvqdo0","pricing_plan_id":"free"},{"bike_id":"6c75e270-e87d-4fc7-a1c6-e4b3d5c451ba","system_id":"levelo_inurba_marseille","lat":43.283998,"lon":5.375062,"is_reserved":false,"is_disabled":false,"rental_uris":{"android":"levelo://app?vid=6c75e270-e87d-4fc7-a1c6-e4b3d5c451ba","ios":"levelo://app?vid=6c75e270-e87d-4fc7-a1c6-e4b3d5c451ba"},"vehicle_type_id":"4","last_reported":1700946350,"current_range_meters":25200,"station_id":"ce4bh412rcd13ifvqds0","pricing_plan_id":"free"},{"bike_id":"e5d7a276-6bd8-49a0-a556-2c03f79d2290","system_id":"levelo_inurba_marseille","lat":43.283998,"lon":5.375062,"is_reserved":false,"is_disabled":false,"rental_uris":{"android":"levelo://app?vid=e5d7a276-6bd8-49a0-a556-2c03f79d2290","ios":"levelo://app?vid=e5d7a276-6bd8-49a0-a556-2c03f79d2290"},"vehicle_type_id":"4","last_reported":1700946350,"current_range_meters":20800,"station_id":"ce4bh412rcd13ifvqds0","pricing_plan_id":"free"},{"bike_id":"45124fe7-1850-40cc-9c0e-63ec9e1a191f","system_id":"levelo_inurba_marseille","lat":43.296445,"lon":5.400268,"is_reserved":false,"is_disabled":false,"rental_uris":{"android":"levelo://app?vid=45124fe7-1850-40cc-9c0e-63ec9e1a191f","ios":"levelo://app?vid=45124fe7-1850-40cc-9c0e-63ec9e1a191f"},"vehicle_type_id":"4","last_reported":1700946350,"current_range_meters":10000,"station_id":"","pricing_plan_id":"free"},{"bike_id":"af3610e3-3a02-40af-90e2-efcbd6aadb89","system_id":"levelo_inurba_marseille","lat":43.286595,"lon":5.386795,"is_reserved":false,"is_disabled":false,"rental_uris":{"android":"levelo://app?vid=af3610e3-3a02-40af-90e2-efcbd6aadb89","ios":"levelo://app?vid=af3610e3-3a02-40af-90e2-efcbd6aadb89"},"vehicle_type_id":"4","last_reported":1700946350,"current_range_meters":2800,"station_id":"ce4bh492rcd13ifvqdug","pricing_plan_id":"free"},{"bike_id":"a3c897cd-3fcc-4045-93e6-4c5a72149642","system_id":"levelo_inurba_marseille","lat":43.33717,"lon":5.391857,"is_reserved":false,"is_disabled":false,"rental_uris":{"android":"levelo://app?vid=a3c897cd-3fcc-4045-93e6-4c5a72149642","ios":"levelo://app?vid=a3c897cd-3fcc-4045-93e6-4c5a72149642"},"vehicle_type_id":"4","last_reported":1700946350,"current_range_meters":26000,"station_id":"ce4bhr92rcd13ifvqhsg","pricing_plan_id":"free"},{"bike_id":"464a50fd-6a52-400a-80d7-b05dcc34de46","system_id":"levelo_inurba_marseille","lat":43.28857,"lon":5.39317,"is_reserved":false,"is_disabled":false,"rental_uris":{"android":"levelo://app?vid=464a50fd-6a52-400a-80d7-b05dcc34de46","ios":"levelo://app?vid=464a50fd-6a52-400a-80d7-b05dcc34de46"},"vehicle_type_id":"4","last_reported":1700946350,"current_range_meters":16800,"station_id":"ce4bh2p2rcd13ifvqdi0","pricing_plan_id":"free"},{"bike_id":"1d318094-aef0-4f41-b194-505c68b74d09","system_id":"levelo_inurba_marseille","lat":43.28344,"lon":5.38101,"is_reserved":false,"is_disabled":false,"rental_uris":{"android":"levelo://app?vid=1d318094-aef0-4f41-b194-505c68b74d09","ios":"levelo://app?vid=1d318094-aef0-4f41-b194-505c68b74d09"},"vehicle_type_id":"4","last_reported":1700946350,"current_range_meters":0,"station_id":"ce4bh412rcd13ifvqdr0","pricing_plan_id":"free"},{"bike_id":"e2284003-4e46-4e0a-93e7-73d05c3666d9","system_id":"levelo_inurba_marseille","lat":43.33508,"lon":5.397755,"is_reserved":false,"is_disabled":false,"rental_uris":{"android":"levelo://app?vid=e2284003-4e46-4e0a-93e7-73d05c3666d9","ios":"levelo://app?vid=e2284003-4e46-4e0a-93e7-73d05c3666d9"},"vehicle_type_id":"4","last_reported":1700946350,"current_range_meters":21200,"station_id":"","pricing_plan_id":"free"},{"bike_id":"d7855bb9-b9ea-466b-9b53-348980a5935d","system_id":"levelo_inurba_marseille","lat":43.282744,"lon":5.350533,"is_reserved":false,"is_disabled":false,"rental_uris":{"android":"levelo://app?vid=d7855bb9-b9ea-466b-9b53-348980a5935d","ios":"levelo://app?vid=d7855bb9-b9ea-466b-9b53-348980a5935d"},"vehicle_type_id":"4","last_reported":1700946350,"current_range_meters":4800,"station_id":"ce4bhbp2rcd13ifvqerg","pricing_plan_id":"free"},{"bike_id":"db9334a0-0093-411c-aac9-d2c04233863c","system_id":"levelo_inurba_marseille","lat":43.28039,"lon":5.369297,"is_reserved":false,"is_disabled":false,"rental_uris":{"android":"levelo://app?vid=db9334a0-0093-411c-aac9-d2c04233863c","ios":"levelo://app?vid=db9334a0-0093-411c-aac9-d2c04233863c"},"vehicle_type_id":"4","last_reported":1700946350,"current_range_meters":14000,"station_id":"ce4bha12rcd13ifvqef0","pricing_plan_id":"free"},{"bike_id":"3eecbd02-b06f-4a8d-98f7-84d957047b78","system_id":"levelo_inurba_marseille","lat":43.29041,"lon":5.399634,"is_reserved":false,"is_disabled":false,"rental_uris":{"android":"levelo://app?vid=3eecbd02-b06f-4a8d-98f7-84d957047b78","ios":"levelo://app?vid=3eecbd02-b06f-4a8d-98f7-84d957047b78"},"vehicle_type_id":"4","last_reported":1700946350,"current_range_meters":5600,"station_id":"ce4bh392rcd13ifvqdm0","pricing_plan_id":"free"},{"bike_id":"d04588e9-bbab-4445-9e8d-2ba961ba7b92","system_id":"levelo_inurba_marseille","lat":43.28105,"lon":5.378346,"is_reserved":false,"is_disabled":false,"rental_uris":{"android":"levelo://app?vid=d04588e9-bbab-4445-9e8d-2ba961ba7b92","ios":"levelo://app?vid=d04588e9-bbab-4445-9e8d-2ba961ba7b92"},"vehicle_type_id":"4","last_reported":1700946350,"current_range_meters":5600,"station_id":"ce4bha12rcd13ifvqee0","pricing_plan_id":"free"},{"bike_id":"9d3f5624-b3d7-43b2-9f84-615004750da7","system_id":"levelo_inurba_marseille","lat":43.28106,"lon":5.37842,"is_reserved":false,"is_disabled":false,"rental_uris":{"android":"levelo://app?vid=9d3f5624-b3d7-43b2-9f84-615004750da7","ios":"levelo://app?vid=9d3f5624-b3d7-43b2-9f84-615004750da7"},"vehicle_type_id":"4","last_reported":1700946350,"current_range_meters":400,"station_id":"ce4bha12rcd13ifvqee0","pricing_plan_id":"free"},{"bike_id":"1b002525-5b47-41a5-acc0-62e254ddc156","system_id":"levelo_inurba_marseille","lat":43.28103,"lon":5.37834,"is_reserved":false,"is_disabled":false,"rental_uris":{"android":"levelo://app?vid=1b002525-5b47-41a5-acc0-62e254ddc156","ios":"levelo://app?vid=1b002525-5b47-41a5-acc0-62e254ddc156"},"vehicle_type_id":"4","last_reported":1700946350,"current_range_meters":24000,"station_id":"ce4bha12rcd13ifvqee0","pricing_plan_id":"free"},{"bike_id":"3cc366d8-171e-426a-90e8-71e5e8780f24","system_id":"levelo_inurba_marseille","lat":43.281044,"lon":5.378308,"is_reserved":false,"is_disabled":false,"rental_uris":{"android":"levelo://app?vid=3cc366d8-171e-426a-90e8-71e5e8780f24","ios":"levelo://app?vid=3cc366d8-171e-426a-90e8-71e5e8780f24"},"vehicle_type_id":"4","last_reported":1700946350,"current_range_meters":22000,"station_id":"ce4bha12rcd13ifvqee0","pricing_plan_id":"free"},{"bike_id":"8b5fa9aa-33b2-4d3d-8022-678cb5275d9a","system_id":"levelo_inurba_marseille","lat":43.28101,"lon":5.37842,"is_reserved":false,"is_disabled":false,"rental_uris":{"android":"levelo://app?vid=8b5fa9aa-33b2-4d3d-8022-678cb5275d9a","ios":"levelo://app?vid=8b5fa9aa-33b2-4d3d-8022-678cb5275d9a"},"vehicle_type_id":"4","last_reported":1700946350,"current_range_meters":15600,"station_id":"ce4bha12rcd13ifvqee0","pricing_plan_id":"free"},{"bike_id":"21075c1f-baed-44ad-ab43-b39e749f9feb","system_id":"levelo_inurba_marseille","lat":43.281044,"lon":5.378308,"is_reserved":false,"is_disabled":false,"rental_uris":{"android":"levelo://app?vid=21075c1f-baed-44ad-ab43-b39e749f9feb","ios":"levelo://app?vid=21075c1f-baed-44ad-ab43-b39e749f9feb"},"vehicle_type_id":"4","last_reported":1700946350,"current_range_meters":20800,"station_id":"ce4bha12rcd13ifvqee0","pricing_plan_id":"free"},{"bike_id":"2b9314f9-55ce-4532-a18f-311806ed6ffd","system_id":"levelo_inurba_marseille","lat":43.285742,"lon":5.395004,"is_reserved":false,"is_disabled":false,"rental_uris":{"android":"levelo://app?vid=2b9314f9-55ce-4532-a18f-311806ed6ffd","ios":"levelo://app?vid=2b9314f9-55ce-4532-a18f-311806ed6ffd"},"vehicle_type_id":"4","last_reported":1700946350,"current_range_meters":19600,"station_id":"ce4bh292rcd13ifvqdg0","pricing_plan_id":"free"},{"bike_id":"cd726a82-7f1b-4a4b-8e12-b3bc18a68ad2","system_id":"levelo_inurba_marseille","lat":43.28573,"lon":5.394992,"is_reserved":false,"is_disabled":false,"rental_uris":{"android":"levelo://app?vid=cd726a82-7f1b-4a4b-8e12-b3bc18a68ad2","ios":"levelo://app?vid=cd726a82-7f1b-4a4b-8e12-b3bc18a68ad2"},"vehicle_type_id":"4","last_reported":1700946350,"current_range_meters":17200,"station_id":"ce4bh292rcd13ifvqdg0","pricing_plan_id":"free"},{"bike_id":"7129b2a3-49ad-4263-b43e-28064b79bd22","system_id":"levelo_inurba_marseille","lat":43.326605,"lon":5.409903,"is_reserved":false,"is_disabled":false,"rental_uris":{"android":"levelo://app?vid=7129b2a3-49ad-4263-b43e-28064b79bd22","ios":"levelo://app?vid=7129b2a3-49ad-4263-b43e-28064b79bd22"},"vehicle_type_id":"4","last_reported":1700946350,"current_range_meters":28400,"station_id":"ce4bhpp2rcd13ifvqhgg","pricing_plan_id":"free"},{"bike_id":"8cfbf325-ae1a-44db-8854-7a27bb4c686c","system_id":"levelo_inurba_marseille","lat":43.320045,"lon":5.415046,"is_reserved":false,"is_disabled":false,"rental_uris":{"android":"levelo://app?vid=8cfbf325-ae1a-44db-8854-7a27bb4c686c","ios":"levelo://app?vid=8cfbf325-ae1a-44db-8854-7a27bb4c686c"},"vehicle_type_id":"4","last_reported":1700946350,"current_range_meters":18800,"station_id":"ce4bhq92rcd13ifvqhkg","pricing_plan_id":"free"},{"bike_id":"2b351954-53de-4263-8786-37cb5a499023","system_id":"levelo_inurba_marseille","lat":43.320045,"lon":5.415048,"is_reserved":false,"is_disabled":false,"rental_uris":{"android":"levelo://app?vid=2b351954-53de-4263-8786-37cb5a499023","ios":"levelo://app?vid=2b351954-53de-4263-8786-37cb5a499023"},"vehicle_type_id":"4","last_reported":1700946350,"current_range_meters":17200,"station_id":"ce4bhq92rcd13ifvqhkg","pricing_plan_id":"free"},{"bike_id":"5cce28fb-2557-48ba-b681-2728480037d9","system_id":"levelo_inurba_marseille","lat":43.29259,"lon":5.40894,"is_reserved":false,"is_disabled":false,"rental_uris":{"android":"levelo://app?vid=5cce28fb-2557-48ba-b681-2728480037d9","ios":"levelo://app?vid=5cce28fb-2557-48ba-b681-2728480037d9"},"vehicle_type_id":"4","last_reported":1700946350,"current_range_meters":8800,"station_id":"ce4bh192rcd13ifvqdc0","pricing_plan_id":"free"},{"bike_id":"e9333e17-ea63-4942-a642-cb0a1ba22a55","system_id":"levelo_inurba_marseille","lat":43.325243,"lon":5.414326,"is_reserved":false,"is_disabled":false,"rental_uris":{"android":"levelo://app?vid=e9333e17-ea63-4942-a642-cb0a1ba22a55","ios":"levelo://app?vid=e9333e17-ea63-4942-a642-cb0a1ba22a55"},"vehicle_type_id":"4","last_reported":1700946350,"current_range_meters":28000,"station_id":"ce4bhq12rcd13ifvqhhg","pricing_plan_id":"free"},{"bike_id":"a3c6def1-5296-4c7a-9eea-c8d4b330c208","system_id":"levelo_inurba_marseille","lat":43.27613,"lon":5.36119,"is_reserved":false,"is_disabled":false,"rental_uris":{"android":"levelo://app?vid=a3c6def1-5296-4c7a-9eea-c8d4b330c208","ios":"levelo://app?vid=a3c6def1-5296-4c7a-9eea-c8d4b330c208"},"vehicle_type_id":"4","last_reported":1700946350,"current_range_meters":30800,"station_id":"ce4bgj92rcd13ifvqbe0","pricing_plan_id":"free"},{"bike_id":"b6bd24e6-943a-4566-9f51-569035dc9592","system_id":"levelo_inurba_marseille","lat":43.325243,"lon":5.414326,"is_reserved":false,"is_disabled":false,"rental_uris":{"android":"levelo://app?vid=b6bd24e6-943a-4566-9f51-569035dc9592","ios":"levelo://app?vid=b6bd24e6-943a-4566-9f51-569035dc9592"},"vehicle_type_id":"4","last_reported":1700946350,"current_range_meters":4800,"station_id":"ce4bhq12rcd13ifvqhhg","pricing_plan_id":"free"},{"bike_id":"c25ea147-e804-4786-9d25-91f61a8ed59a","system_id":"levelo_inurba_marseille","lat":43.293651,"lon":5.41268,"is_reserved":false,"is_disabled":false,"rental_uris":{"android":"levelo://app?vid=c25ea147-e804-4786-9d25-91f61a8ed59a","ios":"levelo://app?vid=c25ea147-e804-4786-9d25-91f61a8ed59a"},"vehicle_type_id":"4","last_reported":1700946350,"current_range_meters":0,"station_id":"","pricing_plan_id":"free"},{"bike_id":"9ad360ac-da03-4985-abd3-acecd73c2a42","system_id":"levelo_inurba_marseille","lat":43.280784,"lon":5.396622,"is_reserved":false,"is_disabled":false,"rental_uris":{"android":"levelo://app?vid=9ad360ac-da03-4985-abd3-acecd73c2a42","ios":"levelo://app?vid=9ad360ac-da03-4985-abd3-acecd73c2a42"},"vehicle_type_id":"4","last_reported":1700946350,"current_range_meters":26000,"station_id":"ce4bho12rcd13ifvqh2g","pricing_plan_id":"free"},{"bike_id":"44a713c1-e816-4c42-a0d6-57ff4dd012b2","system_id":"levelo_inurba_marseille","lat":43.27381,"lon":5.36251,"is_reserved":false,"is_disabled":false,"rental_uris":{"android":"levelo://app?vid=44a713c1-e816-4c42-a0d6-57ff4dd012b2","ios":"levelo://app?vid=44a713c1-e816-4c42-a0d6-57ff4dd012b2"},"vehicle_type_id":"4","last_reported":1700946350,"current_range_meters":8800,"station_id":"ce4bhbh2rcd13ifvqeo0","pricing_plan_id":"free"},{"bike_id":"b04c8eff-5b73-47e6-a742-567787af1e7b","system_id":"levelo_inurba_marseille","lat":43.275625,"lon":5.384392,"is_reserved":false,"is_disabled":false,"rental_uris":{"android":"levelo://app?vid=b04c8eff-5b73-47e6-a742-567787af1e7b","ios":"levelo://app?vid=b04c8eff-5b73-47e6-a742-567787af1e7b"},"vehicle_type_id":"4","last_reported":1700946350,"current_range_meters":12800,"station_id":"ce4bhh92rcd13ifvqfi0","pricing_plan_id":"free"},{"bike_id":"94284315-d2e9-4352-95e0-000aace26a61","system_id":"levelo_inurba_marseille","lat":43.27991,"lon":5.4001,"is_reserved":false,"is_disabled":false,"rental_uris":{"android":"levelo://app?vid=94284315-d2e9-4352-95e0-000aace26a61","ios":"levelo://app?vid=94284315-d2e9-4352-95e0-000aace26a61"},"vehicle_type_id":"4","last_reported":1700946350,"current_range_meters":0,"station_id":"ce4bho92rcd13ifvqh4g","pricing_plan_id":"free"},{"bike_id":"71ae087c-92f7-4570-823d-987d29c34543","system_id":"levelo_inurba_marseille","lat":43.310785,"lon":5.424305,"is_reserved":false,"is_disabled":false,"rental_uris":{"android":"levelo://app?vid=71ae087c-92f7-4570-823d-987d29c34543","ios":"levelo://app?vid=71ae087c-92f7-4570-823d-987d29c34543"},"vehicle_type_id":"4","last_reported":1700946350,"current_range_meters":25600,"station_id":"ce4bhp92rcd13ifvqhag","pricing_plan_id":"free"},{"bike_id":"8eb5bdb0-5c9b-4999-93c3-a1a499ccf536","system_id":"levelo_inurba_marseille","lat":43.310785,"lon":5.424305,"is_reserved":false,"is_disabled":false,"rental_uris":{"android":"levelo://app?vid=8eb5bdb0-5c9b-4999-93c3-a1a499ccf536","ios":"levelo://app?vid=8eb5bdb0-5c9b-4999-93c3-a1a499ccf536"},"vehicle_type_id":"4","last_reported":1700946350,"current_range_meters":8000,"station_id":"ce4bhp92rcd13ifvqhag","pricing_plan_id":"free"},{"bike_id":"2de05027-7797-4106-81c1-0fbaf060e0d4","system_id":"levelo_inurba_marseille","lat":43.31723,"lon":5.42402,"is_reserved":false,"is_disabled":false,"rental_uris":{"android":"levelo://app?vid=2de05027-7797-4106-81c1-0fbaf060e0d4","ios":"levelo://app?vid=2de05027-7797-4106-81c1-0fbaf060e0d4"},"vehicle_type_id":"4","last_reported":1700946350,"current_range_meters":16000,"station_id":"ce4bhp92rcd13ifvqhbg","pricing_plan_id":"free"},{"bike_id":"60395232-e532-4f5a-ae3e-52a22da3b50f","system_id":"levelo_inurba_marseille","lat":43.3108,"lon":5.42432,"is_reserved":false,"is_disabled":false,"rental_uris":{"android":"levelo://app?vid=60395232-e532-4f5a-ae3e-52a22da3b50f","ios":"levelo://app?vid=60395232-e532-4f5a-ae3e-52a22da3b50f"},"vehicle_type_id":"4","last_reported":1700946350,"current_range_meters":6400,"station_id":"ce4bhp92rcd13ifvqhag","pricing_plan_id":"free"},{"bike_id":"84df32b8-5209-4713-9a7c-35f1c5e64527","system_id":"levelo_inurba_marseille","lat":43.274099,"lon":5.394019,"is_reserved":false,"is_disabled":false,"rental_uris":{"android":"levelo://app?vid=84df32b8-5209-4713-9a7c-35f1c5e64527","ios":"levelo://app?vid=84df32b8-5209-4713-9a7c-35f1c5e64527"},"vehicle_type_id":"4","last_reported":1700946350,"current_range_meters":21200,"station_id":"ce4bhdp2rcd13ifvqf20","pricing_plan_id":"free"},{"bike_id":"58a74f2c-3205-4aed-bf2c-a4151057b68d","system_id":"levelo_inurba_marseille","lat":43.295523,"lon":5.422926,"is_reserved":false,"is_disabled":false,"rental_uris":{"android":"levelo://app?vid=58a74f2c-3205-4aed-bf2c-a4151057b68d","ios":"levelo://app?vid=58a74f2c-3205-4aed-bf2c-a4151057b68d"},"vehicle_type_id":"4","last_reported":1700946350,"current_range_meters":26400,"station_id":"ce4bhph2rcd13ifvqhdg","pricing_plan_id":"free"},{"bike_id":"0c5fe61a-15d7-4bdf-8560-e838ed8fc746","system_id":"levelo_inurba_marseille","lat":43.295511,"lon":5.422926,"is_reserved":false,"is_disabled":false,"rental_uris":{"android":"levelo://app?vid=0c5fe61a-15d7-4bdf-8560-e838ed8fc746","ios":"levelo://app?vid=0c5fe61a-15d7-4bdf-8560-e838ed8fc746"},"vehicle_type_id":"4","last_reported":1700946350,"current_range_meters":10000,"station_id":"ce4bhph2rcd13ifvqhdg","pricing_plan_id":"free"},{"bike_id":"c87b1c43-241d-498d-b1dd-2d9bbf6cdf07","system_id":"levelo_inurba_marseille","lat":43.295523,"lon":5.422926,"is_reserved":false,"is_disabled":false,"rental_uris":{"android":"levelo://app?vid=c87b1c43-241d-498d-b1dd-2d9bbf6cdf07","ios":"levelo://app?vid=c87b1c43-241d-498d-b1dd-2d9bbf6cdf07"},"vehicle_type_id":"4","last_reported":1700946350,"current_range_meters":7200,"station_id":"ce4bhph2rcd13ifvqhdg","pricing_plan_id":"free"},{"bike_id":"6ddacc3a-4021-4e4b-83c9-f6089f1e79db","system_id":"levelo_inurba_marseille","lat":43.295511,"lon":5.422926,"is_reserved":false,"is_disabled":false,"rental_uris":{"android":"levelo://app?vid=6ddacc3a-4021-4e4b-83c9-f6089f1e79db","ios":"levelo://app?vid=6ddacc3a-4021-4e4b-83c9-f6089f1e79db"},"vehicle_type_id":"4","last_reported":1700946350,"current_range_meters":15600,"station_id":"ce4bhph2rcd13ifvqhdg","pricing_plan_id":"free"},{"bike_id":"a47ef0e3-338f-4543-8e63-8e0132c5e349","system_id":"levelo_inurba_marseille","lat":43.278128,"lon":5.407195,"is_reserved":false,"is_disabled":false,"rental_uris":{"android":"levelo://app?vid=a47ef0e3-338f-4543-8e63-8e0132c5e349","ios":"levelo://app?vid=a47ef0e3-338f-4543-8e63-8e0132c5e349"},"vehicle_type_id":"4","last_reported":1700946350,"current_range_meters":30000,"station_id":"ce4bhnh2rcd13ifvqgtg","pricing_plan_id":"free"},{"bike_id":"b263c360-06c8-4f3d-8e06-07bbbf3b8544","system_id":"levelo_inurba_marseille","lat":43.278128,"lon":5.407195,"is_reserved":false,"is_disabled":false,"rental_uris":{"android":"levelo://app?vid=b263c360-06c8-4f3d-8e06-07bbbf3b8544","ios":"levelo://app?vid=b263c360-06c8-4f3d-8e06-07bbbf3b8544"},"vehicle_type_id":"4","last_reported":1700946350,"current_range_meters":16000,"station_id":"ce4bhnh2rcd13ifvqgtg","pricing_plan_id":"free"},{"bike_id":"18238bc1-a7d6-4bf1-97ad-06f73ddaa374","system_id":"levelo_inurba_marseille","lat":43.278128,"lon":5.407195,"is_reserved":false,"is_disabled":false,"rental_uris":{"android":"levelo://app?vid=18238bc1-a7d6-4bf1-97ad-06f73ddaa374","ios":"levelo://app?vid=18238bc1-a7d6-4bf1-97ad-06f73ddaa374"},"vehicle_type_id":"4","last_reported":1700946350,"current_range_meters":24000,"station_id":"ce4bhnh2rcd13ifvqgtg","pricing_plan_id":"free"},{"bike_id":"c5dd23ee-fe1d-4e6f-89e4-747a171a17c6","system_id":"levelo_inurba_marseille","lat":43.2655,"lon":5.37284,"is_reserved":false,"is_disabled":false,"rental_uris":{"android":"levelo://app?vid=c5dd23ee-fe1d-4e6f-89e4-747a171a17c6","ios":"levelo://app?vid=c5dd23ee-fe1d-4e6f-89e4-747a171a17c6"},"vehicle_type_id":"4","last_reported":1700946350,"current_range_meters":26800,"station_id":"ce4bhg12rcd13ifvqf70","pricing_plan_id":"free"},{"bike_id":"f23d8119-b478-4639-98c5-6883279f9f84","system_id":"levelo_inurba_marseille","lat":43.32592,"lon":5.43067,"is_reserved":false,"is_disabled":false,"rental_uris":{"android":"levelo://app?vid=f23d8119-b478-4639-98c5-6883279f9f84","ios":"levelo://app?vid=f23d8119-b478-4639-98c5-6883279f9f84"},"vehicle_type_id":"4","last_reported":1700946350,"current_range_meters":25600,"station_id":"","pricing_plan_id":"free"},{"bike_id":"e7b368e8-9edf-4ac8-acef-7e9558d427aa","system_id":"levelo_inurba_marseille","lat":43.32591,"lon":5.430713,"is_reserved":false,"is_disabled":false,"rental_uris":{"android":"levelo://app?vid=e7b368e8-9edf-4ac8-acef-7e9558d427aa","ios":"levelo://app?vid=e7b368e8-9edf-4ac8-acef-7e9558d427aa"},"vehicle_type_id":"4","last_reported":1700946350,"current_range_meters":0,"station_id":"","pricing_plan_id":"free"},{"bike_id":"ed30d6a1-b23a-49e5-9c83-5546be72a734","system_id":"levelo_inurba_marseille","lat":43.3259,"lon":5.43075,"is_reserved":false,"is_disabled":false,"rental_uris":{"android":"levelo://app?vid=ed30d6a1-b23a-49e5-9c83-5546be72a734","ios":"levelo://app?vid=ed30d6a1-b23a-49e5-9c83-5546be72a734"},"vehicle_type_id":"4","last_reported":1700946350,"current_range_meters":20400,"station_id":"","pricing_plan_id":"free"},{"bike_id":"d67469ee-5362-4610-a163-fe05ae3cf4f7","system_id":"levelo_inurba_marseille","lat":43.32604,"lon":5.430817,"is_reserved":false,"is_disabled":false,"rental_uris":{"android":"levelo://app?vid=d67469ee-5362-4610-a163-fe05ae3cf4f7","ios":"levelo://app?vid=d67469ee-5362-4610-a163-fe05ae3cf4f7"},"vehicle_type_id":"4","last_reported":1700946350,"current_range_meters":8800,"station_id":"","pricing_plan_id":"free"},{"bike_id":"97e80021-871f-43cf-ad8e-99b17a254f61","system_id":"levelo_inurba_marseille","lat":43.27996,"lon":5.416624,"is_reserved":false,"is_disabled":false,"rental_uris":{"android":"levelo://app?vid=97e80021-871f-43cf-ad8e-99b17a254f61","ios":"levelo://app?vid=97e80021-871f-43cf-ad8e-99b17a254f61"},"vehicle_type_id":"4","last_reported":1700946350,"current_range_meters":0,"station_id":"ce4bho12rcd13ifvqh1g","pricing_plan_id":"free"},{"bike_id":"abaa79bf-a66a-4655-9a3b-3940cff4391c","system_id":"levelo_inurba_marseille","lat":43.267966,"lon":5.393976,"is_reserved":false,"is_disabled":false,"rental_uris":{"android":"levelo://app?vid=abaa79bf-a66a-4655-9a3b-3940cff4391c","ios":"levelo://app?vid=abaa79bf-a66a-4655-9a3b-3940cff4391c"},"vehicle_type_id":"4","last_reported":1700946350,"current_range_meters":9600,"station_id":"ce4bhh12rcd13ifvqfg0","pricing_plan_id":"free"},{"bike_id":"2b5f0b27-ae58-4e9e-bd76-c585f78e8a73","system_id":"levelo_inurba_marseille","lat":43.26386,"lon":5.37454,"is_reserved":false,"is_disabled":false,"rental_uris":{"android":"levelo://app?vid=2b5f0b27-ae58-4e9e-bd76-c585f78e8a73","ios":"levelo://app?vid=2b5f0b27-ae58-4e9e-bd76-c585f78e8a73"},"vehicle_type_id":"4","last_reported":1700946350,"current_range_meters":9600,"station_id":"","pricing_plan_id":"free"},{"bike_id":"b2ce843a-b289-43ba-bbdf-aaa877f11fe2","system_id":"levelo_inurba_marseille","lat":43.308051,"lon":5.43527,"is_reserved":false,"is_disabled":false,"rental_uris":{"android":"levelo://app?vid=b2ce843a-b289-43ba-bbdf-aaa877f11fe2","ios":"levelo://app?vid=b2ce843a-b289-43ba-bbdf-aaa877f11fe2"},"vehicle_type_id":"4","last_reported":1700946350,"current_range_meters":6000,"station_id":"ce4bhph2rcd13ifvqheg","pricing_plan_id":"free"},{"bike_id":"a638db44-01b2-4430-874e-cd86a05678ba","system_id":"levelo_inurba_marseille","lat":43.26949,"lon":5.40262,"is_reserved":false,"is_disabled":false,"rental_uris":{"android":"levelo://app?vid=a638db44-01b2-4430-874e-cd86a05678ba","ios":"levelo://app?vid=a638db44-01b2-4430-874e-cd86a05678ba"},"vehicle_type_id":"4","last_reported":1700946350,"current_range_meters":24800,"station_id":"cjm6bp8fraef2m0cb0m0","pricing_plan_id":"free"},{"bike_id":"9db8f32c-9221-4773-ac4a-ae648888acd4","system_id":"levelo_inurba_marseille","lat":43.26941,"lon":5.40258,"is_reserved":false,"is_disabled":false,"rental_uris":{"android":"levelo://app?vid=9db8f32c-9221-4773-ac4a-ae648888acd4","ios":"levelo://app?vid=9db8f32c-9221-4773-ac4a-ae648888acd4"},"vehicle_type_id":"4","last_reported":1700946350,"current_range_meters":22000,"station_id":"cjm6bp8fraef2m0cb0m0","pricing_plan_id":"free"},{"bike_id":"45c462de-3fa3-46b4-91af-f76c28f18892","system_id":"levelo_inurba_marseille","lat":43.261782,"lon":5.374515,"is_reserved":false,"is_disabled":false,"rental_uris":{"android":"levelo://app?vid=45c462de-3fa3-46b4-91af-f76c28f18892","ios":"levelo://app?vid=45c462de-3fa3-46b4-91af-f76c28f18892"},"vehicle_type_id":"4","last_reported":1700946350,"current_range_meters":15600,"station_id":"ce4bhgp2rcd13ifvqfc0","pricing_plan_id":"free"},{"bike_id":"7f6bc14c-609a-459f-ad90-3c8e55a66b7b","system_id":"levelo_inurba_marseille","lat":43.317104,"lon":5.436818,"is_reserved":false,"is_disabled":false,"rental_uris":{"android":"levelo://app?vid=7f6bc14c-609a-459f-ad90-3c8e55a66b7b","ios":"levelo://app?vid=7f6bc14c-609a-459f-ad90-3c8e55a66b7b"},"vehicle_type_id":"4","last_reported":1700946350,"current_range_meters":11600,"station_id":"ce4bhp92rcd13ifvqhcg","pricing_plan_id":"free"},{"bike_id":"ec593df7-85d2-4a7c-a892-75fec147bf75","system_id":"levelo_inurba_marseille","lat":43.317104,"lon":5.436818,"is_reserved":false,"is_disabled":false,"rental_uris":{"android":"levelo://app?vid=ec593df7-85d2-4a7c-a892-75fec147bf75","ios":"levelo://app?vid=ec593df7-85d2-4a7c-a892-75fec147bf75"},"vehicle_type_id":"4","last_reported":1700946350,"current_range_meters":400,"station_id":"ce4bhp92rcd13ifvqhcg","pricing_plan_id":"free"},{"bike_id":"a557bc3e-6255-419b-8a70-ddf4b9c79f66","system_id":"levelo_inurba_marseille","lat":43.317104,"lon":5.436818,"is_reserved":false,"is_disabled":false,"rental_uris":{"android":"levelo://app?vid=a557bc3e-6255-419b-8a70-ddf4b9c79f66","ios":"levelo://app?vid=a557bc3e-6255-419b-8a70-ddf4b9c79f66"},"vehicle_type_id":"4","last_reported":1700946350,"current_range_meters":2800,"station_id":"ce4bhp92rcd13ifvqhcg","pricing_plan_id":"free"},{"bike_id":"345d3c3d-5215-44d7-a610-0848b0e8b817","system_id":"levelo_inurba_marseille","lat":43.317104,"lon":5.436818,"is_reserved":false,"is_disabled":false,"rental_uris":{"android":"levelo://app?vid=345d3c3d-5215-44d7-a610-0848b0e8b817","ios":"levelo://app?vid=345d3c3d-5215-44d7-a610-0848b0e8b817"},"vehicle_type_id":"4","last_reported":1700946350,"current_range_meters":3600,"station_id":"ce4bhp92rcd13ifvqhcg","pricing_plan_id":"free"},{"bike_id":"55861d20-03e8-4416-8d73-55fb2140610b","system_id":"levelo_inurba_marseille","lat":43.317104,"lon":5.436818,"is_reserved":false,"is_disabled":false,"rental_uris":{"android":"levelo://app?vid=55861d20-03e8-4416-8d73-55fb2140610b","ios":"levelo://app?vid=55861d20-03e8-4416-8d73-55fb2140610b"},"vehicle_type_id":"4","last_reported":1700946350,"current_range_meters":31200,"station_id":"ce4bhp92rcd13ifvqhcg","pricing_plan_id":"free"},{"bike_id":"22f3147d-5b3f-4ae9-9e18-cceefc4cd910","system_id":"levelo_inurba_marseille","lat":43.271388,"lon":5.409269,"is_reserved":false,"is_disabled":false,"rental_uris":{"android":"levelo://app?vid=22f3147d-5b3f-4ae9-9e18-cceefc4cd910","ios":"levelo://app?vid=22f3147d-5b3f-4ae9-9e18-cceefc4cd910"},"vehicle_type_id":"4","last_reported":1700946350,"current_range_meters":24000,"station_id":"ce4bhl12rcd13ifvqgf0","pricing_plan_id":"free"},{"bike_id":"d33ff373-472b-4acc-9928-25c5b0a30ee3","system_id":"levelo_inurba_marseille","lat":43.271368,"lon":5.40928,"is_reserved":false,"is_disabled":false,"rental_uris":{"android":"levelo://app?vid=d33ff373-472b-4acc-9928-25c5b0a30ee3","ios":"levelo://app?vid=d33ff373-472b-4acc-9928-25c5b0a30ee3"},"vehicle_type_id":"4","last_reported":1700946350,"current_range_meters":29600,"station_id":"ce4bhl12rcd13ifvqgf0","pricing_plan_id":"free"},{"bike_id":"dbf62bfb-d43b-46dc-b301-0e9e00d707fe","system_id":"levelo_inurba_marseille","lat":43.261757,"lon":5.379001,"is_reserved":false,"is_disabled":false,"rental_uris":{"android":"levelo://app?vid=dbf62bfb-d43b-46dc-b301-0e9e00d707fe","ios":"levelo://app?vid=dbf62bfb-d43b-46dc-b301-0e9e00d707fe"},"vehicle_type_id":"4","last_reported":1700946350,"current_range_meters":27200,"station_id":"ce4bhjp2rcd13ifvqg90","pricing_plan_id":"free"},{"bike_id":"d24921c1-8c61-4b91-941a-2e11a6ed2b73","system_id":"levelo_inurba_marseille","lat":43.29896,"lon":5.43651,"is_reserved":false,"is_disabled":false,"rental_uris":{"android":"levelo://app?vid=d24921c1-8c61-4b91-941a-2e11a6ed2b73","ios":"levelo://app?vid=d24921c1-8c61-4b91-941a-2e11a6ed2b73"},"vehicle_type_id":"4","last_reported":1700946350,"current_range_meters":9600,"station_id":"ce4bhpp2rcd13ifvqhfg","pricing_plan_id":"free"},{"bike_id":"7c5a83ac-336c-4b91-a5ea-82b3c6d6127d","system_id":"levelo_inurba_marseille","lat":43.298768,"lon":5.43643,"is_reserved":false,"is_disabled":false,"rental_uris":{"android":"levelo://app?vid=7c5a83ac-336c-4b91-a5ea-82b3c6d6127d","ios":"levelo://app?vid=7c5a83ac-336c-4b91-a5ea-82b3c6d6127d"},"vehicle_type_id":"4","last_reported":1700946350,"current_range_meters":31200,"station_id":"ce4bhpp2rcd13ifvqhfg","pricing_plan_id":"free"},{"bike_id":"f4f2e1d5-dafa-412d-9b3a-3611814786ce","system_id":"levelo_inurba_marseille","lat":43.298768,"lon":5.43643,"is_reserved":false,"is_disabled":false,"rental_uris":{"android":"levelo://app?vid=f4f2e1d5-dafa-412d-9b3a-3611814786ce","ios":"levelo://app?vid=f4f2e1d5-dafa-412d-9b3a-3611814786ce"},"vehicle_type_id":"4","last_reported":1700946350,"current_range_meters":30400,"station_id":"ce4bhpp2rcd13ifvqhfg","pricing_plan_id":"free"},{"bike_id":"8af0d2ed-93d1-485d-9803-40c71e52d0d9","system_id":"levelo_inurba_marseille","lat":43.29901,"lon":5.43677,"is_reserved":false,"is_disabled":false,"rental_uris":{"android":"levelo://app?vid=8af0d2ed-93d1-485d-9803-40c71e52d0d9","ios":"levelo://app?vid=8af0d2ed-93d1-485d-9803-40c71e52d0d9"},"vehicle_type_id":"4","last_reported":1700946350,"current_range_meters":12000,"station_id":"ce4bhpp2rcd13ifvqhfg","pricing_plan_id":"free"},{"bike_id":"1c8d74f7-5570-450a-a3f0-692cd9a40004","system_id":"levelo_inurba_marseille","lat":43.281548,"lon":5.42643,"is_reserved":false,"is_disabled":false,"rental_uris":{"android":"levelo://app?vid=1c8d74f7-5570-450a-a3f0-692cd9a40004","ios":"levelo://app?vid=1c8d74f7-5570-450a-a3f0-692cd9a40004"},"vehicle_type_id":"4","last_reported":1700946350,"current_range_meters":24800,"station_id":"ce4bhnh2rcd13ifvqgug","pricing_plan_id":"free"},{"bike_id":"e2482bab-1eb4-4a6f-b7fd-75767a4a3271","system_id":"levelo_inurba_marseille","lat":43.275028,"lon":5.424534,"is_reserved":false,"is_disabled":false,"rental_uris":{"android":"levelo://app?vid=e2482bab-1eb4-4a6f-b7fd-75767a4a3271","ios":"levelo://app?vid=e2482bab-1eb4-4a6f-b7fd-75767a4a3271"},"vehicle_type_id":"4","last_reported":1700946350,"current_range_meters":27200,"station_id":"ce4bhn92rcd13ifvqgrg","pricing_plan_id":"free"},{"bike_id":"7079113c-b6b3-426a-8800-027419405141","system_id":"levelo_inurba_marseille","lat":43.26084,"lon":5.39764,"is_reserved":false,"is_disabled":false,"rental_uris":{"android":"levelo://app?vid=7079113c-b6b3-426a-8800-027419405141","ios":"levelo://app?vid=7079113c-b6b3-426a-8800-027419405141"},"vehicle_type_id":"4","last_reported":1700946350,"current_range_meters":14400,"station_id":"ce4bhi12rcd13ifvqfq0","pricing_plan_id":"free"},{"bike_id":"c85f7616-3a9e-47a4-ae16-28a03e51ab4f","system_id":"levelo_inurba_marseille","lat":43.28928,"lon":5.438778,"is_reserved":false,"is_disabled":false,"rental_uris":{"android":"levelo://app?vid=c85f7616-3a9e-47a4-ae16-28a03e51ab4f","ios":"levelo://app?vid=c85f7616-3a9e-47a4-ae16-28a03e51ab4f"},"vehicle_type_id":"4","last_reported":1700946350,"current_range_meters":6400,"station_id":"","pricing_plan_id":"free"},{"bike_id":"53ae05c5-1664-4ddb-ae58-547f63e25710","system_id":"levelo_inurba_marseille","lat":43.25829,"lon":5.39427,"is_reserved":false,"is_disabled":false,"rental_uris":{"android":"levelo://app?vid=53ae05c5-1664-4ddb-ae58-547f63e25710","ios":"levelo://app?vid=53ae05c5-1664-4ddb-ae58-547f63e25710"},"vehicle_type_id":"4","last_reported":1700946350,"current_range_meters":29600,"station_id":"ce4bhip2rcd13ifvqft0","pricing_plan_id":"free"},{"bike_id":"4b1a6838-7bca-4929-8376-58411a6bee6c","system_id":"levelo_inurba_marseille","lat":43.258224,"lon":5.394369,"is_reserved":false,"is_disabled":false,"rental_uris":{"android":"levelo://app?vid=4b1a6838-7bca-4929-8376-58411a6bee6c","ios":"levelo://app?vid=4b1a6838-7bca-4929-8376-58411a6bee6c"},"vehicle_type_id":"4","last_reported":1700946350,"current_range_meters":24000,"station_id":"ce4bhip2rcd13ifvqft0","pricing_plan_id":"free"},{"bike_id":"2e0ed547-f88d-4d8e-8a7d-50171cde8365","system_id":"levelo_inurba_marseille","lat":43.25576,"lon":5.38228,"is_reserved":false,"is_disabled":false,"rental_uris":{"android":"levelo://app?vid=2e0ed547-f88d-4d8e-8a7d-50171cde8365","ios":"levelo://app?vid=2e0ed547-f88d-4d8e-8a7d-50171cde8365"},"vehicle_type_id":"4","last_reported":1700946350,"current_range_meters":20000,"station_id":"ce4bhih2rcd13ifvqfs0","pricing_plan_id":"free"},{"bike_id":"117768a1-b0ac-46a9-b40f-e30b20e5f56f","system_id":"levelo_inurba_marseille","lat":43.258224,"lon":5.394369,"is_reserved":false,"is_disabled":false,"rental_uris":{"android":"levelo://app?vid=117768a1-b0ac-46a9-b40f-e30b20e5f56f","ios":"levelo://app?vid=117768a1-b0ac-46a9-b40f-e30b20e5f56f"},"vehicle_type_id":"4","last_reported":1700946350,"current_range_meters":16400,"station_id":"ce4bhip2rcd13ifvqft0","pricing_plan_id":"free"},{"bike_id":"2ffdcd9f-3493-4985-b831-2d43c5ba0dd3","system_id":"levelo_inurba_marseille","lat":43.25575,"lon":5.38238,"is_reserved":false,"is_disabled":false,"rental_uris":{"android":"levelo://app?vid=2ffdcd9f-3493-4985-b831-2d43c5ba0dd3","ios":"levelo://app?vid=2ffdcd9f-3493-4985-b831-2d43c5ba0dd3"},"vehicle_type_id":"4","last_reported":1700946350,"current_range_meters":0,"station_id":"ce4bhih2rcd13ifvqfs0","pricing_plan_id":"free"},{"bike_id":"3533a6b9-c640-434b-b433-4e41e36be1b7","system_id":"levelo_inurba_marseille","lat":43.270721,"lon":5.422764,"is_reserved":false,"is_disabled":false,"rental_uris":{"android":"levelo://app?vid=3533a6b9-c640-434b-b433-4e41e36be1b7","ios":"levelo://app?vid=3533a6b9-c640-434b-b433-4e41e36be1b7"},"vehicle_type_id":"4","last_reported":1700946350,"current_range_meters":16800,"station_id":"ce4bhk92rcd13ifvqgb0","pricing_plan_id":"free"},{"bike_id":"e06a8c78-4d48-491c-8072-84514714cbe8","system_id":"levelo_inurba_marseille","lat":43.270721,"lon":5.422764,"is_reserved":false,"is_disabled":false,"rental_uris":{"android":"levelo://app?vid=e06a8c78-4d48-491c-8072-84514714cbe8","ios":"levelo://app?vid=e06a8c78-4d48-491c-8072-84514714cbe8"},"vehicle_type_id":"4","last_reported":1700946350,"current_range_meters":31600,"station_id":"ce4bhk92rcd13ifvqgb0","pricing_plan_id":"free"},{"bike_id":"d26b91b0-7080-4c02-baa9-575cb32ac54a","system_id":"levelo_inurba_marseille","lat":43.258658,"lon":5.398935,"is_reserved":false,"is_disabled":false,"rental_uris":{"android":"levelo://app?vid=d26b91b0-7080-4c02-baa9-575cb32ac54a","ios":"levelo://app?vid=d26b91b0-7080-4c02-baa9-575cb32ac54a"},"vehicle_type_id":"4","last_reported":1700946350,"current_range_meters":19200,"station_id":"ce4bhl92rcd13ifvqghg","pricing_plan_id":"free"},{"bike_id":"e4dd06e1-5fa3-4934-863e-c1cfc237ab84","system_id":"levelo_inurba_marseille","lat":43.258658,"lon":5.398935,"is_reserved":false,"is_disabled":false,"rental_uris":{"android":"levelo://app?vid=e4dd06e1-5fa3-4934-863e-c1cfc237ab84","ios":"levelo://app?vid=e4dd06e1-5fa3-4934-863e-c1cfc237ab84"},"vehicle_type_id":"4","last_reported":1700946350,"current_range_meters":23600,"station_id":"ce4bhl92rcd13ifvqghg","pricing_plan_id":"free"},{"bike_id":"bbc4394d-1d8c-4efb-bde0-2f2d1a375d20","system_id":"levelo_inurba_marseille","lat":43.257079,"lon":5.411051,"is_reserved":false,"is_disabled":false,"rental_uris":{"android":"levelo://app?vid=bbc4394d-1d8c-4efb-bde0-2f2d1a375d20","ios":"levelo://app?vid=bbc4394d-1d8c-4efb-bde0-2f2d1a375d20"},"vehicle_type_id":"4","last_reported":1700946350,"current_range_meters":8400,"station_id":"ce4bhkp2rcd13ifvqgd0","pricing_plan_id":"free"},{"bike_id":"8b6e2a1b-c4f1-43f8-ad2c-fdfaa77fc447","system_id":"levelo_inurba_marseille","lat":43.257079,"lon":5.411051,"is_reserved":false,"is_disabled":false,"rental_uris":{"android":"levelo://app?vid=8b6e2a1b-c4f1-43f8-ad2c-fdfaa77fc447","ios":"levelo://app?vid=8b6e2a1b-c4f1-43f8-ad2c-fdfaa77fc447"},"vehicle_type_id":"4","last_reported":1700946350,"current_range_meters":28400,"station_id":"ce4bhkp2rcd13ifvqgd0","pricing_plan_id":"free"},{"bike_id":"76f36148-5dd9-400b-baa8-9aa3b229b966","system_id":"levelo_inurba_marseille","lat":43.250009,"lon":5.389195,"is_reserved":false,"is_disabled":false,"rental_uris":{"android":"levelo://app?vid=76f36148-5dd9-400b-baa8-9aa3b229b966","ios":"levelo://app?vid=76f36148-5dd9-400b-baa8-9aa3b229b966"},"vehicle_type_id":"4","last_reported":1700946350,"current_range_meters":30400,"station_id":"ce4bhgp2rcd13ifvqfd0","pricing_plan_id":"free"},{"bike_id":"59a7ae99-c4d3-4ebc-8af4-dec938d80e4e","system_id":"levelo_inurba_marseille","lat":43.250009,"lon":5.389195,"is_reserved":false,"is_disabled":false,"rental_uris":{"android":"levelo://app?vid=59a7ae99-c4d3-4ebc-8af4-dec938d80e4e","ios":"levelo://app?vid=59a7ae99-c4d3-4ebc-8af4-dec938d80e4e"},"vehicle_type_id":"4","last_reported":1700946350,"current_range_meters":25200,"station_id":"ce4bhgp2rcd13ifvqfd0","pricing_plan_id":"free"},{"bike_id":"fa1c1619-ef7c-452c-83f1-b3437f341807","system_id":"levelo_inurba_marseille","lat":43.250009,"lon":5.389195,"is_reserved":false,"is_disabled":false,"rental_uris":{"android":"levelo://app?vid=fa1c1619-ef7c-452c-83f1-b3437f341807","ios":"levelo://app?vid=fa1c1619-ef7c-452c-83f1-b3437f341807"},"vehicle_type_id":"4","last_reported":1700946350,"current_range_meters":29600,"station_id":"ce4bhgp2rcd13ifvqfd0","pricing_plan_id":"free"},{"bike_id":"e1e5320f-b8bc-4ef5-bad0-a4e56472c4cc","system_id":"levelo_inurba_marseille","lat":43.250023,"lon":5.38919,"is_reserved":false,"is_disabled":false,"rental_uris":{"android":"levelo://app?vid=e1e5320f-b8bc-4ef5-bad0-a4e56472c4cc","ios":"levelo://app?vid=e1e5320f-b8bc-4ef5-bad0-a4e56472c4cc"},"vehicle_type_id":"4","last_reported":1700946350,"current_range_meters":27600,"station_id":"ce4bhgp2rcd13ifvqfd0","pricing_plan_id":"free"},{"bike_id":"c1f5b93e-9ddc-4ee6-9d4c-a11cbe8f3706","system_id":"levelo_inurba_marseille","lat":43.250023,"lon":5.38919,"is_reserved":false,"is_disabled":false,"rental_uris":{"android":"levelo://app?vid=c1f5b93e-9ddc-4ee6-9d4c-a11cbe8f3706","ios":"levelo://app?vid=c1f5b93e-9ddc-4ee6-9d4c-a11cbe8f3706"},"vehicle_type_id":"4","last_reported":1700946350,"current_range_meters":31200,"station_id":"ce4bhgp2rcd13ifvqfd0","pricing_plan_id":"free"},{"bike_id":"02d75adc-1043-49bf-8a92-cc2e66fe63fc","system_id":"levelo_inurba_marseille","lat":43.2479,"lon":5.374457,"is_reserved":false,"is_disabled":false,"rental_uris":{"android":"levelo://app?vid=02d75adc-1043-49bf-8a92-cc2e66fe63fc","ios":"levelo://app?vid=02d75adc-1043-49bf-8a92-cc2e66fe63fc"},"vehicle_type_id":"4","last_reported":1700946350,"current_range_meters":17600,"station_id":"ce4bhgh2rcd13ifvqfb0","pricing_plan_id":"free"},{"bike_id":"4718b3d7-4847-4237-a22f-3d52e449c36d","system_id":"levelo_inurba_marseille","lat":43.250897,"lon":5.395161,"is_reserved":false,"is_disabled":false,"rental_uris":{"android":"levelo://app?vid=4718b3d7-4847-4237-a22f-3d52e449c36d","ios":"levelo://app?vid=4718b3d7-4847-4237-a22f-3d52e449c36d"},"vehicle_type_id":"4","last_reported":1700946350,"current_range_meters":26800,"station_id":"ce4bhm12rcd13ifvqgkg","pricing_plan_id":"free"},{"bike_id":"4e22f755-9fb8-454a-aed8-0ce31691dc80","system_id":"levelo_inurba_marseille","lat":43.2473,"lon":5.37395,"is_reserved":false,"is_disabled":false,"rental_uris":{"android":"levelo://app?vid=4e22f755-9fb8-454a-aed8-0ce31691dc80","ios":"levelo://app?vid=4e22f755-9fb8-454a-aed8-0ce31691dc80"},"vehicle_type_id":"4","last_reported":1700946350,"current_range_meters":18000,"station_id":"","pricing_plan_id":"free"},{"bike_id":"2645cd39-512e-4061-b025-45f27893a23b","system_id":"levelo_inurba_marseille","lat":43.246637,"lon":5.381548,"is_reserved":false,"is_disabled":false,"rental_uris":{"android":"levelo://app?vid=2645cd39-512e-4061-b025-45f27893a23b","ios":"levelo://app?vid=2645cd39-512e-4061-b025-45f27893a23b"},"vehicle_type_id":"4","last_reported":1700946350,"current_range_meters":30000,"station_id":"ce4bhih2rcd13ifvqfr0","pricing_plan_id":"free"},{"bike_id":"890f1931-e5ec-4066-b5a7-0222afec386c","system_id":"levelo_inurba_marseille","lat":43.25102,"lon":5.403214,"is_reserved":false,"is_disabled":false,"rental_uris":{"android":"levelo://app?vid=890f1931-e5ec-4066-b5a7-0222afec386c","ios":"levelo://app?vid=890f1931-e5ec-4066-b5a7-0222afec386c"},"vehicle_type_id":"4","last_reported":1700946350,"current_range_meters":29200,"station_id":"ce4bhlh2rcd13ifvqgig","pricing_plan_id":"free"},{"bike_id":"0317d6ae-40ea-485c-8ac1-17cc21825d16","system_id":"levelo_inurba_marseille","lat":43.24656,"lon":5.38153,"is_reserved":false,"is_disabled":false,"rental_uris":{"android":"levelo://app?vid=0317d6ae-40ea-485c-8ac1-17cc21825d16","ios":"levelo://app?vid=0317d6ae-40ea-485c-8ac1-17cc21825d16"},"vehicle_type_id":"4","last_reported":1700946350,"current_range_meters":28000,"station_id":"ce4bhih2rcd13ifvqfr0","pricing_plan_id":"free"},{"bike_id":"297670fc-15cf-49ca-b4ad-d4387e65c566","system_id":"levelo_inurba_marseille","lat":43.25102,"lon":5.403214,"is_reserved":false,"is_disabled":false,"rental_uris":{"android":"levelo://app?vid=297670fc-15cf-49ca-b4ad-d4387e65c566","ios":"levelo://app?vid=297670fc-15cf-49ca-b4ad-d4387e65c566"},"vehicle_type_id":"4","last_reported":1700946350,"current_range_meters":28800,"station_id":"ce4bhlh2rcd13ifvqgig","pricing_plan_id":"free"},{"bike_id":"4754d520-6d94-4ceb-b936-c49fc9af26ed","system_id":"levelo_inurba_marseille","lat":43.2511,"lon":5.40326,"is_reserved":false,"is_disabled":false,"rental_uris":{"android":"levelo://app?vid=4754d520-6d94-4ceb-b936-c49fc9af26ed","ios":"levelo://app?vid=4754d520-6d94-4ceb-b936-c49fc9af26ed"},"vehicle_type_id":"4","last_reported":1700946350,"current_range_meters":0,"station_id":"ce4bhlh2rcd13ifvqgig","pricing_plan_id":"free"},{"bike_id":"42e732b6-5e26-4b9f-aa12-d16daa93f6b7","system_id":"levelo_inurba_marseille","lat":43.25102,"lon":5.403214,"is_reserved":false,"is_disabled":false,"rental_uris":{"android":"levelo://app?vid=42e732b6-5e26-4b9f-aa12-d16daa93f6b7","ios":"levelo://app?vid=42e732b6-5e26-4b9f-aa12-d16daa93f6b7"},"vehicle_type_id":"4","last_reported":1700946350,"current_range_meters":10400,"station_id":"ce4bhlh2rcd13ifvqgig","pricing_plan_id":"free"},{"bike_id":"c5abd94b-53ad-4088-a14a-139d39627fc9","system_id":"levelo_inurba_marseille","lat":43.25102,"lon":5.403214,"is_reserved":false,"is_disabled":false,"rental_uris":{"android":"levelo://app?vid=c5abd94b-53ad-4088-a14a-139d39627fc9","ios":"levelo://app?vid=c5abd94b-53ad-4088-a14a-139d39627fc9"},"vehicle_type_id":"4","last_reported":1700946350,"current_range_meters":19200,"station_id":"ce4bhlh2rcd13ifvqgig","pricing_plan_id":"free"},{"bike_id":"c1ced6aa-0310-4bab-8214-1f856ce02a86","system_id":"levelo_inurba_marseille","lat":43.246461,"lon":5.389014,"is_reserved":false,"is_disabled":false,"rental_uris":{"android":"levelo://app?vid=c1ced6aa-0310-4bab-8214-1f856ce02a86","ios":"levelo://app?vid=c1ced6aa-0310-4bab-8214-1f856ce02a86"},"vehicle_type_id":"4","last_reported":1700946350,"current_range_meters":20800,"station_id":"ce4bhg12rcd13ifvqf60","pricing_plan_id":"free"},{"bike_id":"1f088b2a-bd00-4ce5-b39c-c0f45ad5c1e2","system_id":"levelo_inurba_marseille","lat":43.246467,"lon":5.388984,"is_reserved":false,"is_disabled":false,"rental_uris":{"android":"levelo://app?vid=1f088b2a-bd00-4ce5-b39c-c0f45ad5c1e2","ios":"levelo://app?vid=1f088b2a-bd00-4ce5-b39c-c0f45ad5c1e2"},"vehicle_type_id":"4","last_reported":1700946350,"current_range_meters":28400,"station_id":"ce4bhg12rcd13ifvqf60","pricing_plan_id":"free"},{"bike_id":"16cbc471-e842-49b7-be91-1309994883e2","system_id":"levelo_inurba_marseille","lat":43.246437,"lon":5.388966,"is_reserved":false,"is_disabled":false,"rental_uris":{"android":"levelo://app?vid=16cbc471-e842-49b7-be91-1309994883e2","ios":"levelo://app?vid=16cbc471-e842-49b7-be91-1309994883e2"},"vehicle_type_id":"4","last_reported":1700946350,"current_range_meters":24000,"station_id":"ce4bhg12rcd13ifvqf60","pricing_plan_id":"free"},{"bike_id":"0265b60e-d829-4d27-8cee-8f8a0b69f409","system_id":"levelo_inurba_marseille","lat":43.24074,"lon":5.377458,"is_reserved":false,"is_disabled":false,"rental_uris":{"android":"levelo://app?vid=0265b60e-d829-4d27-8cee-8f8a0b69f409","ios":"levelo://app?vid=0265b60e-d829-4d27-8cee-8f8a0b69f409"},"vehicle_type_id":"4","last_reported":1700946350,"current_range_meters":0,"station_id":"ce4bhnp2rcd13ifvqgvg","pricing_plan_id":"free"},{"bike_id":"1e128d17-e64b-4270-9579-8a427e522e51","system_id":"levelo_inurba_marseille","lat":43.240623,"lon":5.377642,"is_reserved":false,"is_disabled":false,"rental_uris":{"android":"levelo://app?vid=1e128d17-e64b-4270-9579-8a427e522e51","ios":"levelo://app?vid=1e128d17-e64b-4270-9579-8a427e522e51"},"vehicle_type_id":"4","last_reported":1700946350,"current_range_meters":16400,"station_id":"ce4bhnp2rcd13ifvqgvg","pricing_plan_id":"free"},{"bike_id":"b1065339-1ece-4fd7-a651-bb5f8f2e4643","system_id":"levelo_inurba_marseille","lat":43.240623,"lon":5.377642,"is_reserved":false,"is_disabled":false,"rental_uris":{"android":"levelo://app?vid=b1065339-1ece-4fd7-a651-bb5f8f2e4643","ios":"levelo://app?vid=b1065339-1ece-4fd7-a651-bb5f8f2e4643"},"vehicle_type_id":"4","last_reported":1700946350,"current_range_meters":21200,"station_id":"ce4bhnp2rcd13ifvqgvg","pricing_plan_id":"free"},{"bike_id":"cac7ff2d-584d-4e7e-8f4f-dc6a1371d2d6","system_id":"levelo_inurba_marseille","lat":43.240623,"lon":5.377642,"is_reserved":false,"is_disabled":false,"rental_uris":{"android":"levelo://app?vid=cac7ff2d-584d-4e7e-8f4f-dc6a1371d2d6","ios":"levelo://app?vid=cac7ff2d-584d-4e7e-8f4f-dc6a1371d2d6"},"vehicle_type_id":"4","last_reported":1700946350,"current_range_meters":24800,"station_id":"ce4bhnp2rcd13ifvqgvg","pricing_plan_id":"free"},{"bike_id":"5b85e17b-a2dd-45ea-b255-ec063e06e703","system_id":"levelo_inurba_marseille","lat":43.240623,"lon":5.377642,"is_reserved":false,"is_disabled":false,"rental_uris":{"android":"levelo://app?vid=5b85e17b-a2dd-45ea-b255-ec063e06e703","ios":"levelo://app?vid=5b85e17b-a2dd-45ea-b255-ec063e06e703"},"vehicle_type_id":"4","last_reported":1700946350,"current_range_meters":29200,"station_id":"ce4bhnp2rcd13ifvqgvg","pricing_plan_id":"free"},{"bike_id":"21c17b12-290e-4fbd-8bbb-0601bd7da58c","system_id":"levelo_inurba_marseille","lat":43.240623,"lon":5.377642,"is_reserved":false,"is_disabled":false,"rental_uris":{"android":"levelo://app?vid=21c17b12-290e-4fbd-8bbb-0601bd7da58c","ios":"levelo://app?vid=21c17b12-290e-4fbd-8bbb-0601bd7da58c"},"vehicle_type_id":"4","last_reported":1700946350,"current_range_meters":17600,"station_id":"ce4bhnp2rcd13ifvqgvg","pricing_plan_id":"free"},{"bike_id":"ff01dbe1-223f-43a9-b0c6-51a5a8d2ed05","system_id":"levelo_inurba_marseille","lat":43.239588,"lon":5.366238,"is_reserved":false,"is_disabled":false,"rental_uris":{"android":"levelo://app?vid=ff01dbe1-223f-43a9-b0c6-51a5a8d2ed05","ios":"levelo://app?vid=ff01dbe1-223f-43a9-b0c6-51a5a8d2ed05"},"vehicle_type_id":"4","last_reported":1700946350,"current_range_meters":31200,"station_id":"ce4bhi12rcd13ifvqfp0","pricing_plan_id":"free"},{"bike_id":"608034b1-7344-47da-8318-151765187169","system_id":"levelo_inurba_marseille","lat":43.239588,"lon":5.366238,"is_reserved":false,"is_disabled":false,"rental_uris":{"android":"levelo://app?vid=608034b1-7344-47da-8318-151765187169","ios":"levelo://app?vid=608034b1-7344-47da-8318-151765187169"},"vehicle_type_id":"4","last_reported":1700946350,"current_range_meters":7200,"station_id":"ce4bhi12rcd13ifvqfp0","pricing_plan_id":"free"},{"bike_id":"3c551cb7-0b99-44ed-8b4c-bab8e2e15823","system_id":"levelo_inurba_marseille","lat":43.239588,"lon":5.366238,"is_reserved":false,"is_disabled":false,"rental_uris":{"android":"levelo://app?vid=3c551cb7-0b99-44ed-8b4c-bab8e2e15823","ios":"levelo://app?vid=3c551cb7-0b99-44ed-8b4c-bab8e2e15823"},"vehicle_type_id":"4","last_reported":1700946350,"current_range_meters":24800,"station_id":"ce4bhi12rcd13ifvqfp0","pricing_plan_id":"free"},{"bike_id":"8ddc8e40-82e4-4cc6-90af-c119357648f0","system_id":"levelo_inurba_marseille","lat":43.239588,"lon":5.366238,"is_reserved":false,"is_disabled":false,"rental_uris":{"android":"levelo://app?vid=8ddc8e40-82e4-4cc6-90af-c119357648f0","ios":"levelo://app?vid=8ddc8e40-82e4-4cc6-90af-c119357648f0"},"vehicle_type_id":"4","last_reported":1700946350,"current_range_meters":24400,"station_id":"ce4bhi12rcd13ifvqfp0","pricing_plan_id":"free"},{"bike_id":"a0e1f1d6-3f92-4eff-927c-9ca415b7ca93","system_id":"levelo_inurba_marseille","lat":43.239644,"lon":5.366337,"is_reserved":false,"is_disabled":false,"rental_uris":{"android":"levelo://app?vid=a0e1f1d6-3f92-4eff-927c-9ca415b7ca93","ios":"levelo://app?vid=a0e1f1d6-3f92-4eff-927c-9ca415b7ca93"},"vehicle_type_id":"4","last_reported":1700946350,"current_range_meters":4800,"station_id":"ce4bhi12rcd13ifvqfp0","pricing_plan_id":"free"},{"bike_id":"340ba89e-beb6-4edd-9f37-a6ad2b2c6a9c","system_id":"levelo_inurba_marseille","lat":43.239588,"lon":5.366238,"is_reserved":false,"is_disabled":false,"rental_uris":{"android":"levelo://app?vid=340ba89e-beb6-4edd-9f37-a6ad2b2c6a9c","ios":"levelo://app?vid=340ba89e-beb6-4edd-9f37-a6ad2b2c6a9c"},"vehicle_type_id":"4","last_reported":1700946350,"current_range_meters":13200,"station_id":"ce4bhi12rcd13ifvqfp0","pricing_plan_id":"free"},{"bike_id":"05291694-2672-4b1e-9b26-7f92e1594559","system_id":"levelo_inurba_marseille","lat":43.239588,"lon":5.366238,"is_reserved":false,"is_disabled":false,"rental_uris":{"android":"levelo://app?vid=05291694-2672-4b1e-9b26-7f92e1594559","ios":"levelo://app?vid=05291694-2672-4b1e-9b26-7f92e1594559"},"vehicle_type_id":"4","last_reported":1700946350,"current_range_meters":6400,"station_id":"ce4bhi12rcd13ifvqfp0","pricing_plan_id":"free"},{"bike_id":"a59a9f52-9d06-4b12-9392-cdd5f569c2ca","system_id":"levelo_inurba_marseille","lat":43.23962,"lon":5.36629,"is_reserved":false,"is_disabled":false,"rental_uris":{"android":"levelo://app?vid=a59a9f52-9d06-4b12-9392-cdd5f569c2ca","ios":"levelo://app?vid=a59a9f52-9d06-4b12-9392-cdd5f569c2ca"},"vehicle_type_id":"4","last_reported":1700946350,"current_range_meters":29600,"station_id":"ce4bhi12rcd13ifvqfp0","pricing_plan_id":"free"},{"bike_id":"47e43998-06a7-44f6-a336-05874a757f9d","system_id":"levelo_inurba_marseille","lat":43.239588,"lon":5.366238,"is_reserved":false,"is_disabled":false,"rental_uris":{"android":"levelo://app?vid=47e43998-06a7-44f6-a336-05874a757f9d","ios":"levelo://app?vid=47e43998-06a7-44f6-a336-05874a757f9d"},"vehicle_type_id":"4","last_reported":1700946350,"current_range_meters":15200,"station_id":"ce4bhi12rcd13ifvqfp0","pricing_plan_id":"free"},{"bike_id":"c8b0fc92-e06b-450c-b7d7-d6ab9ca59443","system_id":"levelo_inurba_marseille","lat":43.239617,"lon":5.366311,"is_reserved":false,"is_disabled":false,"rental_uris":{"android":"levelo://app?vid=c8b0fc92-e06b-450c-b7d7-d6ab9ca59443","ios":"levelo://app?vid=c8b0fc92-e06b-450c-b7d7-d6ab9ca59443"},"vehicle_type_id":"4","last_reported":1700946350,"current_range_meters":31200,"station_id":"ce4bhi12rcd13ifvqfp0","pricing_plan_id":"free"},{"bike_id":"2928aec4-a092-4b20-8697-2fcf599c9821","system_id":"levelo_inurba_marseille","lat":43.239588,"lon":5.366238,"is_reserved":false,"is_disabled":false,"rental_uris":{"android":"levelo://app?vid=2928aec4-a092-4b20-8697-2fcf599c9821","ios":"levelo://app?vid=2928aec4-a092-4b20-8697-2fcf599c9821"},"vehicle_type_id":"4","last_reported":1700946350,"current_range_meters":24800,"station_id":"ce4bhi12rcd13ifvqfp0","pricing_plan_id":"free"},{"bike_id":"fc6ccc5a-bc4d-4544-a669-27960c9fde66","system_id":"levelo_inurba_marseille","lat":43.239588,"lon":5.366238,"is_reserved":false,"is_disabled":false,"rental_uris":{"android":"levelo://app?vid=fc6ccc5a-bc4d-4544-a669-27960c9fde66","ios":"levelo://app?vid=fc6ccc5a-bc4d-4544-a669-27960c9fde66"},"vehicle_type_id":"4","last_reported":1700946350,"current_range_meters":18400,"station_id":"ce4bhi12rcd13ifvqfp0","pricing_plan_id":"free"},{"bike_id":"b3ffab4a-cf52-4b4f-9f0f-fcb873d0f038","system_id":"levelo_inurba_marseille","lat":43.239586,"lon":5.3663,"is_reserved":false,"is_disabled":false,"rental_uris":{"android":"levelo://app?vid=b3ffab4a-cf52-4b4f-9f0f-fcb873d0f038","ios":"levelo://app?vid=b3ffab4a-cf52-4b4f-9f0f-fcb873d0f038"},"vehicle_type_id":"4","last_reported":1700946350,"current_range_meters":29600,"station_id":"ce4bhi12rcd13ifvqfp0","pricing_plan_id":"free"},{"bike_id":"fb7be5a0-e980-436b-ac60-879a3e279215","system_id":"levelo_inurba_marseille","lat":43.239567,"lon":5.366317,"is_reserved":false,"is_disabled":false,"rental_uris":{"android":"levelo://app?vid=fb7be5a0-e980-436b-ac60-879a3e279215","ios":"levelo://app?vid=fb7be5a0-e980-436b-ac60-879a3e279215"},"vehicle_type_id":"4","last_reported":1700946350,"current_range_meters":22800,"station_id":"ce4bhi12rcd13ifvqfp0","pricing_plan_id":"free"},{"bike_id":"47bf6cc0-d560-42b0-9ba8-16e81a4e15b8","system_id":"levelo_inurba_marseille","lat":43.241782,"lon":5.397264,"is_reserved":false,"is_disabled":false,"rental_uris":{"android":"levelo://app?vid=47bf6cc0-d560-42b0-9ba8-16e81a4e15b8","ios":"levelo://app?vid=47bf6cc0-d560-42b0-9ba8-16e81a4e15b8"},"vehicle_type_id":"4","last_reported":1700946350,"current_range_meters":10400,"station_id":"ce4bhn12rcd13ifvqgpg","pricing_plan_id":"free"},{"bike_id":"26cf5b06-ea1a-435b-a012-9d75c20552b0","system_id":"levelo_inurba_marseille","lat":43.24177,"lon":5.39726,"is_reserved":false,"is_disabled":false,"rental_uris":{"android":"levelo://app?vid=26cf5b06-ea1a-435b-a012-9d75c20552b0","ios":"levelo://app?vid=26cf5b06-ea1a-435b-a012-9d75c20552b0"},"vehicle_type_id":"4","last_reported":1700946350,"current_range_meters":4800,"station_id":"ce4bhn12rcd13ifvqgpg","pricing_plan_id":"free"},{"bike_id":"cd658075-924a-4bf8-ad25-c269ea7ae49d","system_id":"levelo_inurba_marseille","lat":43.24111,"lon":5.39721,"is_reserved":false,"is_disabled":false,"rental_uris":{"android":"levelo://app?vid=cd658075-924a-4bf8-ad25-c269ea7ae49d","ios":"levelo://app?vid=cd658075-924a-4bf8-ad25-c269ea7ae49d"},"vehicle_type_id":"4","last_reported":1700946350,"current_range_meters":0,"station_id":"","pricing_plan_id":"free"},{"bike_id":"dcc8f0d2-659c-44cb-9a1d-9d57ae623781","system_id":"levelo_inurba_marseille","lat":43.23194,"lon":5.35561,"is_reserved":false,"is_disabled":false,"rental_uris":{"android":"levelo://app?vid=dcc8f0d2-659c-44cb-9a1d-9d57ae623781","ios":"levelo://app?vid=dcc8f0d2-659c-44cb-9a1d-9d57ae623781"},"vehicle_type_id":"4","last_reported":1700946350,"current_range_meters":19600,"station_id":"ce4bhu92rcd13ifvqi70","pricing_plan_id":"free"},{"bike_id":"0a349838-8936-442e-8a55-c173dbb54834","system_id":"levelo_inurba_marseille","lat":43.23194,"lon":5.3556,"is_reserved":false,"is_disabled":false,"rental_uris":{"android":"levelo://app?vid=0a349838-8936-442e-8a55-c173dbb54834","ios":"levelo://app?vid=0a349838-8936-442e-8a55-c173dbb54834"},"vehicle_type_id":"4","last_reported":1700946350,"current_range_meters":24000,"station_id":"ce4bhu92rcd13ifvqi70","pricing_plan_id":"free"},{"bike_id":"76da77ba-a8a2-45d9-bea0-75d9631bba15","system_id":"levelo_inurba_marseille","lat":43.231923,"lon":5.355545,"is_reserved":false,"is_disabled":false,"rental_uris":{"android":"levelo://app?vid=76da77ba-a8a2-45d9-bea0-75d9631bba15","ios":"levelo://app?vid=76da77ba-a8a2-45d9-bea0-75d9631bba15"},"vehicle_type_id":"4","last_reported":1700946350,"current_range_meters":30000,"station_id":"ce4bhu92rcd13ifvqi70","pricing_plan_id":"free"},{"bike_id":"48217564-eee6-47a9-ae01-f8f1659e40db","system_id":"levelo_inurba_marseille","lat":43.231923,"lon":5.355545,"is_reserved":false,"is_disabled":false,"rental_uris":{"android":"levelo://app?vid=48217564-eee6-47a9-ae01-f8f1659e40db","ios":"levelo://app?vid=48217564-eee6-47a9-ae01-f8f1659e40db"},"vehicle_type_id":"4","last_reported":1700946350,"current_range_meters":31600,"station_id":"ce4bhu92rcd13ifvqi70","pricing_plan_id":"free"},{"bike_id":"2c965575-bc91-4e3f-b6d2-1df5b195e3bf","system_id":"levelo_inurba_marseille","lat":43.2319,"lon":5.35559,"is_reserved":false,"is_disabled":false,"rental_uris":{"android":"levelo://app?vid=2c965575-bc91-4e3f-b6d2-1df5b195e3bf","ios":"levelo://app?vid=2c965575-bc91-4e3f-b6d2-1df5b195e3bf"},