{"last_updated":1726661808,"ttl":30,"version":"2.2","data":{"bikes":[{"bike_id":"e7d24c68-c109-4b28-a30d-9556fff92986","system_id":"levelo_inurba_marseille","lat":43.243887,"lon":5.370534,"is_reserved":false,"is_disabled":false,"rental_uris":{"android":"levelo://app?vid=e7d24c68-c109-4b28-a30d-9556fff92986","ios":"levelo://app?vid=e7d24c68-c109-4b28-a30d-9556fff92986"},"vehicle_type_id":"4","last_reported":1726661809,"current_range_meters":20800,"station_id":"ce4bhhh2rcd13ifvqfk0","pricing_plan_id":"cebpf4jnsgd1na2vs0mg"},{"bike_id":"49ccaf55-2603-4229-86e9-34ae3d9748b5","system_id":"levelo_inurba_marseille","lat":43.27493,"lon":5.42458,"is_reserved":false,"is_disabled":false,"rental_uris":{"android":"levelo://app?vid=49ccaf55-2603-4229-86e9-34ae3d9748b5","ios":"levelo://app?vid=49ccaf55-2603-4229-86e9-34ae3d9748b5"},"vehicle_type_id":"4","last_reported":1726661809,"current_range_meters":39200,"station_id":"ce4bhn92rcd13ifvqgrg","pricing_plan_id":"cebpf4jnsgd1na2vs0mg"},{"bike_id":"f5e0678d-3c1e-4b9a-bb26-bbd93986695d","system_id":"levelo_inurba_marseille","lat":43.30142,"lon":5.37426,"is_reserved":false,"is_disabled":false,"rental_uris":{"android":"levelo://app?vid=f5e0678d-3c1e-4b9a-bb26-bbd93986695d","ios":"levelo://app?vid=f5e0678d-3c1e-4b9a-bb26-bbd93986695d"},"vehicle_type_id":"4","last_reported":1726661809,"current_range_meters":12400,"station_id":"ce4bgs92rcd13ifvqcc0","pricing_plan_id":"cebpf4jnsgd1na2vs0mg"},{"bike_id":"886483ee-c9c7-476e-88a9-9ae8f98a2ea0","system_id":"levelo_inurba_marseille","lat":43.23068,"lon":5.3549,"is_reserved":false,"is_disabled":false,"rental_uris":{"android":"levelo://app?vid=886483ee-c9c7-476e-88a9-9ae8f98a2ea0","ios":"levelo://app?vid=886483ee-c9c7-476e-88a9-9ae8f98a2ea0"},"vehicle_type_id":"4","last_reported":1726661809,"current_range_meters":25600,"station_id":"cpo3342slgdg3j2ifvpg","pricing_plan_id":"cebpf4jnsgd1na2vs0mg"},{"bike_id":"0b578572-6531-45c7-aeb3-a7a35bfa567e","system_id":"levelo_inurba_marseille","lat":43.30762,"lon":5.36629,"is_reserved":false,"is_disabled":false,"rental_uris":{"android":"levelo://app?vid=0b578572-6531-45c7-aeb3-a7a35bfa567e","ios":"levelo://app?vid=0b578572-6531-45c7-aeb3-a7a35bfa567e"},"vehicle_type_id":"4","last_reported":1726661809,"current_range_meters":38400,"station_id":"","pricing_plan_id":"cebpf4jnsgd1na2vs0mg"},{"bike_id":"43176770-eaee-4996-86c7-d408161e4ce6","system_id":"levelo_inurba_marseille","lat":43.29896,"lon":5.43665,"is_reserved":false,"is_disabled":false,"rental_uris":{"android":"levelo://app?vid=43176770-eaee-4996-86c7-d408161e4ce6","ios":"levelo://app?vid=43176770-eaee-4996-86c7-d408161e4ce6"},"vehicle_type_id":"4","last_reported":1726661809,"current_range_meters":37600,"station_id":"ce4bhpp2rcd13ifvqhfg","pricing_plan_id":"cebpf4jnsgd1na2vs0mg"},{"bike_id":"929a2cf7-6928-4657-bd3f-642735ceda51","system_id":"levelo_inurba_marseille","lat":43.280002,"lon":5.400083,"is_reserved":false,"is_disabled":false,"rental_uris":{"android":"levelo://app?vid=929a2cf7-6928-4657-bd3f-642735ceda51","ios":"levelo://app?vid=929a2cf7-6928-4657-bd3f-642735ceda51"},"vehicle_type_id":"4","last_reported":1726661809,"current_range_meters":23200,"station_id":"ce4bhnh2rcd13ifvqgug","pricing_plan_id":"cebpf4jnsgd1na2vs0mg"},{"bike_id":"baf4071e-6c19-46bb-b55b-9a1e2e4e3eff","system_id":"levelo_inurba_marseille","lat":43.28373,"lon":5.38616,"is_reserved":false,"is_disabled":false,"rental_uris":{"android":"levelo://app?vid=baf4071e-6c19-46bb-b55b-9a1e2e4e3eff","ios":"levelo://app?vid=baf4071e-6c19-46bb-b55b-9a1e2e4e3eff"},"vehicle_type_id":"4","last_reported":1726661809,"current_range_meters":23200,"station_id":"ce4bh492rcd13ifvqdvg","pricing_plan_id":"cebpf4jnsgd1na2vs0mg"},{"bike_id":"9a9423d1-de56-4c33-bdc7-8462d66f683c","system_id":"levelo_inurba_marseille","lat":43.310809,"lon":5.424347,"is_reserved":false,"is_disabled":false,"rental_uris":{"android":"levelo://app?vid=9a9423d1-de56-4c33-bdc7-8462d66f683c","ios":"levelo://app?vid=9a9423d1-de56-4c33-bdc7-8462d66f683c"},"vehicle_type_id":"4","last_reported":1726661809,"current_range_meters":25600,"station_id":"ce4bhp92rcd13ifvqhag","pricing_plan_id":"cebpf4jnsgd1na2vs0mg"},{"bike_id":"a5277535-ee35-4f9d-a5f9-e87bcf3daede","system_id":"levelo_inurba_marseille","lat":43.33607,"lon":5.41028,"is_reserved":false,"is_disabled":false,"rental_uris":{"android":"levelo://app?vid=a5277535-ee35-4f9d-a5f9-e87bcf3daede","ios":"levelo://app?vid=a5277535-ee35-4f9d-a5f9-e87bcf3daede"},"vehicle_type_id":"4","last_reported":1726661809,"current_range_meters":16400,"station_id":"ce4bhqh2rcd13ifvqhmg","pricing_plan_id":"cebpf4jnsgd1na2vs0mg"},{"bike_id":"5e83057c-a40a-4544-a629-a63805102126","system_id":"levelo_inurba_marseille","lat":43.27491,"lon":5.42456,"is_reserved":false,"is_disabled":false,"rental_uris":{"android":"levelo://app?vid=5e83057c-a40a-4544-a629-a63805102126","ios":"levelo://app?vid=5e83057c-a40a-4544-a629-a63805102126"},"vehicle_type_id":"4","last_reported":1726661809,"current_range_meters":29600,"station_id":"ce4bhn92rcd13ifvqgrg","pricing_plan_id":"cebpf4jnsgd1na2vs0mg"},{"bike_id":"b592e2f2-3b3c-4b97-abca-4d0c4bf54e79","system_id":"levelo_inurba_marseille","lat":43.29946,"lon":5.40386,"is_reserved":false,"is_disabled":false,"rental_uris":{"android":"levelo://app?vid=b592e2f2-3b3c-4b97-abca-4d0c4bf54e79","ios":"levelo://app?vid=b592e2f2-3b3c-4b97-abca-4d0c4bf54e79"},"vehicle_type_id":"4","last_reported":1726661809,"current_range_meters":33600,"station_id":"","pricing_plan_id":"cebpf4jnsgd1na2vs0mg"},{"bike_id":"65dbd916-c028-49ec-b72d-bfa91ddd9ea1","system_id":"levelo_inurba_marseille","lat":43.2997,"lon":5.384862,"is_reserved":false,"is_disabled":false,"rental_uris":{"android":"levelo://app?vid=65dbd916-c028-49ec-b72d-bfa91ddd9ea1","ios":"levelo://app?vid=65dbd916-c028-49ec-b72d-bfa91ddd9ea1"},"vehicle_type_id":"4","last_reported":1726661809,"current_range_meters":23200,"station_id":"ce4bhb12rcd13ifvqel0","pricing_plan_id":"cebpf4jnsgd1na2vs0mg"},{"bike_id":"0bb599d8-a77d-4a00-a45f-bb462d0a879f","system_id":"levelo_inurba_marseille","lat":43.31115,"lon":5.37773,"is_reserved":false,"is_disabled":false,"rental_uris":{"android":"levelo://app?vid=0bb599d8-a77d-4a00-a45f-bb462d0a879f","ios":"levelo://app?vid=0bb599d8-a77d-4a00-a45f-bb462d0a879f"},"vehicle_type_id":"4","last_reported":1726661809,"current_range_meters":25200,"station_id":"ce4bgt92rcd13ifvqcg0","pricing_plan_id":"cebpf4jnsgd1na2vs0mg"},{"bike_id":"e9305e9e-94fd-4fb4-9a7a-95a26da81fe2","system_id":"levelo_inurba_marseille","lat":43.27941,"lon":5.41044,"is_reserved":false,"is_disabled":false,"rental_uris":{"android":"levelo://app?vid=e9305e9e-94fd-4fb4-9a7a-95a26da81fe2","ios":"levelo://app?vid=e9305e9e-94fd-4fb4-9a7a-95a26da81fe2"},"vehicle_type_id":"4","last_reported":1726661809,"current_range_meters":37600,"station_id":"ce4bhnp2rcd13ifvqh0g","pricing_plan_id":"cebpf4jnsgd1na2vs0mg"},{"bike_id":"7a15cc44-ed05-48c0-9f9d-67ec2eb91903","system_id":"levelo_inurba_marseille","lat":43.286635,"lon":5.386696,"is_reserved":false,"is_disabled":false,"rental_uris":{"android":"levelo://app?vid=7a15cc44-ed05-48c0-9f9d-67ec2eb91903","ios":"levelo://app?vid=7a15cc44-ed05-48c0-9f9d-67ec2eb91903"},"vehicle_type_id":"4","last_reported":1726661809,"current_range_meters":39200,"station_id":"ce4bh492rcd13ifvqdug","pricing_plan_id":"cebpf4jnsgd1na2vs0mg"},{"bike_id":"f5829883-7d32-4a46-8f8d-a6b78fb369f5","system_id":"levelo_inurba_marseille","lat":43.258538,"lon":5.399038,"is_reserved":false,"is_disabled":false,"rental_uris":{"android":"levelo://app?vid=f5829883-7d32-4a46-8f8d-a6b78fb369f5","ios":"levelo://app?vid=f5829883-7d32-4a46-8f8d-a6b78fb369f5"},"vehicle_type_id":"4","last_reported":1726661809,"current_range_meters":2800,"station_id":"ce4bhl92rcd13ifvqghg","pricing_plan_id":"cebpf4jnsgd1na2vs0mg"},{"bike_id":"89204cd0-cf09-427c-bb8c-5023756e7952","system_id":"levelo_inurba_marseille","lat":43.30547,"lon":5.36529,"is_reserved":false,"is_disabled":false,"rental_uris":{"android":"levelo://app?vid=89204cd0-cf09-427c-bb8c-5023756e7952","ios":"levelo://app?vid=89204cd0-cf09-427c-bb8c-5023756e7952"},"vehicle_type_id":"4","last_reported":1726661809,"current_range_meters":18000,"station_id":"ce4bgs12rcd13ifvqcag","pricing_plan_id":"cebpf4jnsgd1na2vs0mg"},{"bike_id":"6eab6b3e-cf7b-4d2e-a72d-6677d9b88013","system_id":"levelo_inurba_marseille","lat":43.28931,"lon":5.38411,"is_reserved":false,"is_disabled":false,"rental_uris":{"android":"levelo://app?vid=6eab6b3e-cf7b-4d2e-a72d-6677d9b88013","ios":"levelo://app?vid=6eab6b3e-cf7b-4d2e-a72d-6677d9b88013"},"vehicle_type_id":"4","last_reported":1726661809,"current_range_meters":27200,"station_id":"ce4bh612rcd13ifvqe6g","pricing_plan_id":"cebpf4jnsgd1na2vs0mg"},{"bike_id":"103a716b-dbc7-4e49-a7f2-16e378e92b85","system_id":"levelo_inurba_marseille","lat":43.22927,"lon":5.35373,"is_reserved":false,"is_disabled":false,"rental_uris":{"android":"levelo://app?vid=103a716b-dbc7-4e49-a7f2-16e378e92b85","ios":"levelo://app?vid=103a716b-dbc7-4e49-a7f2-16e378e92b85"},"vehicle_type_id":"4","last_reported":1726661809,"current_range_meters":25200,"station_id":"cpo3532slgdg3j2ikp40","pricing_plan_id":"cebpf4jnsgd1na2vs0mg"},{"bike_id":"c8b16021-ad4f-4c1b-80b1-7d1b9c811227","system_id":"levelo_inurba_marseille","lat":43.32366,"lon":5.38882,"is_reserved":false,"is_disabled":false,"rental_uris":{"android":"levelo://app?vid=c8b16021-ad4f-4c1b-80b1-7d1b9c811227","ios":"levelo://app?vid=c8b16021-ad4f-4c1b-80b1-7d1b9c811227"},"vehicle_type_id":"4","last_reported":1726661809,"current_range_meters":17600,"station_id":"ce4bhqp2rcd13ifvqhog","pricing_plan_id":"cebpf4jnsgd1na2vs0mg"},{"bike_id":"734aa74e-b926-4042-9aab-1e80809573f6","system_id":"levelo_inurba_marseille","lat":43.28768,"lon":5.39049,"is_reserved":false,"is_disabled":false,"rental_uris":{"android":"levelo://app?vid=734aa74e-b926-4042-9aab-1e80809573f6","ios":"levelo://app?vid=734aa74e-b926-4042-9aab-1e80809573f6"},"vehicle_type_id":"4","last_reported":1726661809,"current_range_meters":27600,"station_id":"","pricing_plan_id":"cebpf4jnsgd1na2vs0mg"},{"bike_id":"506a28f7-0798-49e4-b38f-f0bb95dda86f","system_id":"levelo_inurba_marseille","lat":43.32484,"lon":5.36581,"is_reserved":false,"is_disabled":false,"rental_uris":{"android":"levelo://app?vid=506a28f7-0798-49e4-b38f-f0bb95dda86f","ios":"levelo://app?vid=506a28f7-0798-49e4-b38f-f0bb95dda86f"},"vehicle_type_id":"4","last_reported":1726661809,"current_range_meters":34000,"station_id":"ce4bhs12rcd13ifvqhvg","pricing_plan_id":"cebpf4jnsgd1na2vs0mg"},{"bike_id":"2ead656c-8850-4401-b04f-8b4ba65c4285","system_id":"levelo_inurba_marseille","lat":43.23186,"lon":5.3999,"is_reserved":false,"is_disabled":false,"rental_uris":{"android":"levelo://app?vid=2ead656c-8850-4401-b04f-8b4ba65c4285","ios":"levelo://app?vid=2ead656c-8850-4401-b04f-8b4ba65c4285"},"vehicle_type_id":"4","last_reported":1726661809,"current_range_meters":15200,"station_id":"ce4bhn12rcd13ifvqgqg","pricing_plan_id":"cebpf4jnsgd1na2vs0mg"},{"bike_id":"d9b62648-6378-4dbb-9f13-09848203a4fd","system_id":"levelo_inurba_marseille","lat":43.26685,"lon":5.38277,"is_reserved":false,"is_disabled":false,"rental_uris":{"android":"levelo://app?vid=d9b62648-6378-4dbb-9f13-09848203a4fd","ios":"levelo://app?vid=d9b62648-6378-4dbb-9f13-09848203a4fd"},"vehicle_type_id":"4","last_reported":1726661809,"current_range_meters":39200,"station_id":"ce4bhg92rcd13ifvqf90","pricing_plan_id":"cebpf4jnsgd1na2vs0mg"},{"bike_id":"2a5808e5-1612-4dc1-a62b-b9c71459256c","system_id":"levelo_inurba_marseille","lat":43.34082,"lon":5.3911,"is_reserved":false,"is_disabled":false,"rental_uris":{"android":"levelo://app?vid=2a5808e5-1612-4dc1-a62b-b9c71459256c","ios":"levelo://app?vid=2a5808e5-1612-4dc1-a62b-b9c71459256c"},"vehicle_type_id":"4","last_reported":1726661809,"current_range_meters":4400,"station_id":"","pricing_plan_id":"cebpf4jnsgd1na2vs0mg"},{"bike_id":"a08a05a1-7e90-4586-bd4e-408a0a83e1f6","system_id":"levelo_inurba_marseille","lat":43.27617,"lon":5.36103,"is_reserved":false,"is_disabled":false,"rental_uris":{"android":"levelo://app?vid=a08a05a1-7e90-4586-bd4e-408a0a83e1f6","ios":"levelo://app?vid=a08a05a1-7e90-4586-bd4e-408a0a83e1f6"},"vehicle_type_id":"4","last_reported":1726661809,"current_range_meters":8800,"station_id":"ce4bgj92rcd13ifvqbe0","pricing_plan_id":"cebpf4jnsgd1na2vs0mg"},{"bike_id":"b84032e4-09d9-4107-bb3a-f33c434cb5bd","system_id":"levelo_inurba_marseille","lat":43.28344,"lon":5.38107,"is_reserved":false,"is_disabled":false,"rental_uris":{"android":"levelo://app?vid=b84032e4-09d9-4107-bb3a-f33c434cb5bd","ios":"levelo://app?vid=b84032e4-09d9-4107-bb3a-f33c434cb5bd"},"vehicle_type_id":"4","last_reported":1726661809,"current_range_meters":20800,"station_id":"ce4bh412rcd13ifvqdr0","pricing_plan_id":"cebpf4jnsgd1na2vs0mg"},{"bike_id":"33511452-0528-4a93-a5f7-92a265f5a279","system_id":"levelo_inurba_marseille","lat":43.301331,"lon":5.387744,"is_reserved":false,"is_disabled":false,"rental_uris":{"android":"levelo://app?vid=33511452-0528-4a93-a5f7-92a265f5a279","ios":"levelo://app?vid=33511452-0528-4a93-a5f7-92a265f5a279"},"vehicle_type_id":"4","last_reported":1726661809,"current_range_meters":30800,"station_id":"ce4bghh2rcd13ifvqb60","pricing_plan_id":"cebpf4jnsgd1na2vs0mg"},{"bike_id":"b4450704-51e1-4ff8-a772-08322cc70eb7","system_id":"levelo_inurba_marseille","lat":43.23194,"lon":5.3555,"is_reserved":false,"is_disabled":false,"rental_uris":{"android":"levelo://app?vid=b4450704-51e1-4ff8-a772-08322cc70eb7","ios":"levelo://app?vid=b4450704-51e1-4ff8-a772-08322cc70eb7"},"vehicle_type_id":"4","last_reported":1726661809,"current_range_meters":36000,"station_id":"ce4bhu92rcd13ifvqi70","pricing_plan_id":"cebpf4jnsgd1na2vs0mg"},{"bike_id":"bf88ca0f-0ef9-4e3a-8aca-4feea64e0090","system_id":"levelo_inurba_marseille","lat":43.231521,"lon":5.43724,"is_reserved":false,"is_disabled":false,"rental_uris":{"android":"levelo://app?vid=bf88ca0f-0ef9-4e3a-8aca-4feea64e0090","ios":"levelo://app?vid=bf88ca0f-0ef9-4e3a-8aca-4feea64e0090"},"vehicle_type_id":"4","last_reported":1726661809,"current_range_meters":2800,"station_id":"ce4bhmp2rcd13ifvqgog","pricing_plan_id":"cebpf4jnsgd1na2vs0mg"},{"bike_id":"34970b26-0ab1-44f0-b076-35f842cf43f8","system_id":"levelo_inurba_marseille","lat":43.28942,"lon":5.36631,"is_reserved":false,"is_disabled":false,"rental_uris":{"android":"levelo://app?vid=34970b26-0ab1-44f0-b076-35f842cf43f8","ios":"levelo://app?vid=34970b26-0ab1-44f0-b076-35f842cf43f8"},"vehicle_type_id":"4","last_reported":1726661809,"current_range_meters":27200,"station_id":"ce4bhap2rcd13ifvqek0","pricing_plan_id":"cebpf4jnsgd1na2vs0mg"},{"bike_id":"997cb8ff-7e70-44b8-8b10-0781e0343a19","system_id":"levelo_inurba_marseille","lat":43.29011,"lon":5.35619,"is_reserved":false,"is_disabled":false,"rental_uris":{"android":"levelo://app?vid=997cb8ff-7e70-44b8-8b10-0781e0343a19","ios":"levelo://app?vid=997cb8ff-7e70-44b8-8b10-0781e0343a19"},"vehicle_type_id":"4","last_reported":1726661809,"current_range_meters":40000,"station_id":"ce4bhb92rcd13ifvqen0","pricing_plan_id":"cebpf4jnsgd1na2vs0mg"},{"bike_id":"c2667222-5d26-4d9c-a938-761c480fe584","system_id":"levelo_inurba_marseille","lat":43.33026,"lon":5.39036,"is_reserved":false,"is_disabled":false,"rental_uris":{"android":"levelo://app?vid=c2667222-5d26-4d9c-a938-761c480fe584","ios":"levelo://app?vid=c2667222-5d26-4d9c-a938-761c480fe584"},"vehicle_type_id":"4","last_reported":1726661809,"current_range_meters":10800,"station_id":"ce4bhr92rcd13ifvqhrg","pricing_plan_id":"cebpf4jnsgd1na2vs0mg"},{"bike_id":"d2648441-8611-4e86-b6a3-95e5dd6d09df","system_id":"levelo_inurba_marseille","lat":43.24647,"lon":5.38891,"is_reserved":false,"is_disabled":false,"rental_uris":{"android":"levelo://app?vid=d2648441-8611-4e86-b6a3-95e5dd6d09df","ios":"levelo://app?vid=d2648441-8611-4e86-b6a3-95e5dd6d09df"},"vehicle_type_id":"4","last_reported":1726661809,"current_range_meters":40000,"station_id":"ce4bhg12rcd13ifvqf60","pricing_plan_id":"cebpf4jnsgd1na2vs0mg"},{"bike_id":"091c6bdc-542c-4ec3-a185-7db76c8de25a","system_id":"levelo_inurba_marseille","lat":43.23185,"lon":5.3998,"is_reserved":false,"is_disabled":false,"rental_uris":{"android":"levelo://app?vid=091c6bdc-542c-4ec3-a185-7db76c8de25a","ios":"levelo://app?vid=091c6bdc-542c-4ec3-a185-7db76c8de25a"},"vehicle_type_id":"4","last_reported":1726661809,"current_range_meters":24000,"station_id":"ce4bhn12rcd13ifvqgqg","pricing_plan_id":"cebpf4jnsgd1na2vs0mg"},{"bike_id":"74cf48ce-0c7c-49e2-81d6-547ab0656005","system_id":"levelo_inurba_marseille","lat":43.23155,"lon":5.4371,"is_reserved":false,"is_disabled":false,"rental_uris":{"android":"levelo://app?vid=74cf48ce-0c7c-49e2-81d6-547ab0656005","ios":"levelo://app?vid=74cf48ce-0c7c-49e2-81d6-547ab0656005"},"vehicle_type_id":"4","last_reported":1726661809,"current_range_meters":39200,"station_id":"ce4bhmp2rcd13ifvqgog","pricing_plan_id":"cebpf4jnsgd1na2vs0mg"},{"bike_id":"35e2db4b-d64d-44f8-bb80-f38ceac19f95","system_id":"levelo_inurba_marseille","lat":43.29909,"lon":5.38146,"is_reserved":false,"is_disabled":false,"rental_uris":{"android":"levelo://app?vid=35e2db4b-d64d-44f8-bb80-f38ceac19f95","ios":"levelo://app?vid=35e2db4b-d64d-44f8-bb80-f38ceac19f95"},"vehicle_type_id":"4","last_reported":1726661809,"current_range_meters":6800,"station_id":"ce4bgj12rcd13ifvqbc0","pricing_plan_id":"cebpf4jnsgd1na2vs0mg"},{"bike_id":"bacf1473-d122-4286-aebc-e8f2b33bf5ad","system_id":"levelo_inurba_marseille","lat":43.23145,"lon":5.43721,"is_reserved":false,"is_disabled":false,"rental_uris":{"android":"levelo://app?vid=bacf1473-d122-4286-aebc-e8f2b33bf5ad","ios":"levelo://app?vid=bacf1473-d122-4286-aebc-e8f2b33bf5ad"},"vehicle_type_id":"4","last_reported":1726661809,"current_range_meters":38800,"station_id":"ce4bhmp2rcd13ifvqgog","pricing_plan_id":"cebpf4jnsgd1na2vs0mg"},{"bike_id":"897092b9-9b64-499f-a9f3-477bda401453","system_id":"levelo_inurba_marseille","lat":43.30811,"lon":5.38153,"is_reserved":false,"is_disabled":false,"rental_uris":{"android":"levelo://app?vid=897092b9-9b64-499f-a9f3-477bda401453","ios":"levelo://app?vid=897092b9-9b64-499f-a9f3-477bda401453"},"vehicle_type_id":"4","last_reported":1726661809,"current_range_meters":8800,"station_id":"ce4bgt12rcd13ifvqce0","pricing_plan_id":"cebpf4jnsgd1na2vs0mg"},{"bike_id":"483729e1-b08b-4682-a476-2a1961bce358","system_id":"levelo_inurba_marseille","lat":43.2794,"lon":5.41046,"is_reserved":false,"is_disabled":false,"rental_uris":{"android":"levelo://app?vid=483729e1-b08b-4682-a476-2a1961bce358","ios":"levelo://app?vid=483729e1-b08b-4682-a476-2a1961bce358"},"vehicle_type_id":"4","last_reported":1726661809,"current_range_meters":6000,"station_id":"ce4bhnp2rcd13ifvqh0g","pricing_plan_id":"cebpf4jnsgd1na2vs0mg"},{"bike_id":"8e4a7868-c507-4412-811a-2bbd93275fec","system_id":"levelo_inurba_marseille","lat":43.30179,"lon":5.37997,"is_reserved":false,"is_disabled":false,"rental_uris":{"android":"levelo://app?vid=8e4a7868-c507-4412-811a-2bbd93275fec","ios":"levelo://app?vid=8e4a7868-c507-4412-811a-2bbd93275fec"},"vehicle_type_id":"4","last_reported":1726661809,"current_range_meters":39200,"station_id":"ce4bguh2rcd13ifvqcj0","pricing_plan_id":"cebpf4jnsgd1na2vs0mg"},{"bike_id":"85accb8b-04bf-4b10-bd64-d66dfa393f45","system_id":"levelo_inurba_marseille","lat":43.26556,"lon":5.37284,"is_reserved":false,"is_disabled":false,"rental_uris":{"android":"levelo://app?vid=85accb8b-04bf-4b10-bd64-d66dfa393f45","ios":"levelo://app?vid=85accb8b-04bf-4b10-bd64-d66dfa393f45"},"vehicle_type_id":"4","last_reported":1726661809,"current_range_meters":20800,"station_id":"ce4bhg12rcd13ifvqf70","pricing_plan_id":"cebpf4jnsgd1na2vs0mg"},{"bike_id":"808c7029-a1ec-41e4-8bf2-805809b0bfc7","system_id":"levelo_inurba_marseille","lat":43.29579,"lon":5.36734,"is_reserved":false,"is_disabled":false,"rental_uris":{"android":"levelo://app?vid=808c7029-a1ec-41e4-8bf2-805809b0bfc7","ios":"levelo://app?vid=808c7029-a1ec-41e4-8bf2-805809b0bfc7"},"vehicle_type_id":"4","last_reported":1726661809,"current_range_meters":39200,"station_id":"ce4bgph2rcd13ifvqc2g","pricing_plan_id":"cebpf4jnsgd1na2vs0mg"},{"bike_id":"a69c00bb-9ab8-4259-8a66-762c6972366d","system_id":"levelo_inurba_marseille","lat":43.28861,"lon":5.39301,"is_reserved":false,"is_disabled":false,"rental_uris":{"android":"levelo://app?vid=a69c00bb-9ab8-4259-8a66-762c6972366d","ios":"levelo://app?vid=a69c00bb-9ab8-4259-8a66-762c6972366d"},"vehicle_type_id":"4","last_reported":1726661809,"current_range_meters":35600,"station_id":"ce4bh2p2rcd13ifvqdi0","pricing_plan_id":"cebpf4jnsgd1na2vs0mg"},{"bike_id":"28b7976b-ccb9-4d1e-b743-2a1643d89d48","system_id":"levelo_inurba_marseille","lat":43.29034,"lon":5.39972,"is_reserved":false,"is_disabled":false,"rental_uris":{"android":"levelo://app?vid=28b7976b-ccb9-4d1e-b743-2a1643d89d48","ios":"levelo://app?vid=28b7976b-ccb9-4d1e-b743-2a1643d89d48"},"vehicle_type_id":"4","last_reported":1726661809,"current_range_meters":20000,"station_id":"ce4bh392rcd13ifvqdm0","pricing_plan_id":"cebpf4jnsgd1na2vs0mg"},{"bike_id":"058c3d34-ab9b-4f85-94c1-47b01487dcc2","system_id":"levelo_inurba_marseille","lat":43.28278,"lon":5.35064,"is_reserved":false,"is_disabled":false,"rental_uris":{"android":"levelo://app?vid=058c3d34-ab9b-4f85-94c1-47b01487dcc2","ios":"levelo://app?vid=058c3d34-ab9b-4f85-94c1-47b01487dcc2"},"vehicle_type_id":"4","last_reported":1726661809,"current_range_meters":36800,"station_id":"ce4bhbp2rcd13ifvqerg","pricing_plan_id":"cebpf4jnsgd1na2vs0mg"},{"bike_id":"55b5a4cc-060d-4660-b59a-73a2200a56fb","system_id":"levelo_inurba_marseille","lat":43.2315,"lon":5.43722,"is_reserved":false,"is_disabled":false,"rental_uris":{"android":"levelo://app?vid=55b5a4cc-060d-4660-b59a-73a2200a56fb","ios":"levelo://app?vid=55b5a4cc-060d-4660-b59a-73a2200a56fb"},"vehicle_type_id":"4","last_reported":1726661809,"current_range_meters":16800,"station_id":"ce4bhmp2rcd13ifvqgog","pricing_plan_id":"cebpf4jnsgd1na2vs0mg"},{"bike_id":"8ea6a708-68b1-4611-bdb7-f70a6168e26e","system_id":"levelo_inurba_marseille","lat":43.30318,"lon":5.36895,"is_reserved":false,"is_disabled":false,"rental_uris":{"android":"levelo://app?vid=8ea6a708-68b1-4611-bdb7-f70a6168e26e","ios":"levelo://app?vid=8ea6a708-68b1-4611-bdb7-f70a6168e26e"},"vehicle_type_id":"4","last_reported":1726661809,"current_range_meters":32000,"station_id":"ce4bgqh2rcd13ifvqc5g","pricing_plan_id":"cebpf4jnsgd1na2vs0mg"},{"bike_id":"f5e01140-efd3-4746-8e29-aef1319d243a","system_id":"levelo_inurba_marseille","lat":43.29887,"lon":5.38904,"is_reserved":false,"is_disabled":false,"rental_uris":{"android":"levelo://app?vid=f5e01140-efd3-4746-8e29-aef1319d243a","ios":"levelo://app?vid=f5e01140-efd3-4746-8e29-aef1319d243a"},"vehicle_type_id":"4","last_reported":1726661809,"current_range_meters":9600,"station_id":"ce4bh392rcd13ifvqdl0","pricing_plan_id":"cebpf4jnsgd1na2vs0mg"},{"bike_id":"c7f93bf2-2b30-4c5c-aa72-447b3f4a28ea","system_id":"levelo_inurba_marseille","lat":43.29901,"lon":5.43669,"is_reserved":false,"is_disabled":false,"rental_uris":{"android":"levelo://app?vid=c7f93bf2-2b30-4c5c-aa72-447b3f4a28ea","ios":"levelo://app?vid=c7f93bf2-2b30-4c5c-aa72-447b3f4a28ea"},"vehicle_type_id":"4","last_reported":1726661809,"current_range_meters":4000,"station_id":"ce4bhpp2rcd13ifvqhfg","pricing_plan_id":"cebpf4jnsgd1na2vs0mg"},{"bike_id":"ed69e130-7cee-4db1-9e10-0d56961305c9","system_id":"levelo_inurba_marseille","lat":43.24169,"lon":5.36399,"is_reserved":false,"is_disabled":false,"rental_uris":{"android":"levelo://app?vid=ed69e130-7cee-4db1-9e10-0d56961305c9","ios":"levelo://app?vid=ed69e130-7cee-4db1-9e10-0d56961305c9"},"vehicle_type_id":"4","last_reported":1726661809,"current_range_meters":26800,"station_id":"cpo36qri1sfpv3e86is0","pricing_plan_id":"cebpf4jnsgd1na2vs0mg"},{"bike_id":"401bb7ed-0ede-41aa-ab9b-948ce139fb3a","system_id":"levelo_inurba_marseille","lat":43.29065,"lon":5.37165,"is_reserved":false,"is_disabled":false,"rental_uris":{"android":"levelo://app?vid=401bb7ed-0ede-41aa-ab9b-948ce139fb3a","ios":"levelo://app?vid=401bb7ed-0ede-41aa-ab9b-948ce139fb3a"},"vehicle_type_id":"4","last_reported":1726661809,"current_range_meters":4000,"station_id":"ce4bh5p2rcd13ifvqe4g","pricing_plan_id":"cebpf4jnsgd1na2vs0mg"},{"bike_id":"9becb0ce-231c-4475-8b02-a28250908e9e","system_id":"levelo_inurba_marseille","lat":43.280884,"lon":5.396775,"is_reserved":false,"is_disabled":false,"rental_uris":{"android":"levelo://app?vid=9becb0ce-231c-4475-8b02-a28250908e9e","ios":"levelo://app?vid=9becb0ce-231c-4475-8b02-a28250908e9e"},"vehicle_type_id":"4","last_reported":1726661809,"current_range_meters":25600,"station_id":"ce4bho12rcd13ifvqh2g","pricing_plan_id":"cebpf4jnsgd1na2vs0mg"},{"bike_id":"97cbea3b-ab97-498e-a8fc-2789e3b785c9","system_id":"levelo_inurba_marseille","lat":43.31724,"lon":5.424,"is_reserved":false,"is_disabled":false,"rental_uris":{"android":"levelo://app?vid=97cbea3b-ab97-498e-a8fc-2789e3b785c9","ios":"levelo://app?vid=97cbea3b-ab97-498e-a8fc-2789e3b785c9"},"vehicle_type_id":"4","last_reported":1726661809,"current_range_meters":28000,"station_id":"ce4bhp92rcd13ifvqhbg","pricing_plan_id":"cebpf4jnsgd1na2vs0mg"},{"bike_id":"1b5a3615-4988-4982-8b62-9226ed5a66a6","system_id":"levelo_inurba_marseille","lat":43.31354,"lon":5.38308,"is_reserved":false,"is_disabled":false,"rental_uris":{"android":"levelo://app?vid=1b5a3615-4988-4982-8b62-9226ed5a66a6","ios":"levelo://app?vid=1b5a3615-4988-4982-8b62-9226ed5a66a6"},"vehicle_type_id":"4","last_reported":1726661809,"current_range_meters":2800,"station_id":"","pricing_plan_id":"cebpf4jnsgd1na2vs0mg"},{"bike_id":"80d1eb54-6334-4c2f-a160-7e4b5cb79537","system_id":"levelo_inurba_marseille","lat":43.29957,"lon":5.41324,"is_reserved":false,"is_disabled":false,"rental_uris":{"android":"levelo://app?vid=80d1eb54-6334-4c2f-a160-7e4b5cb79537","ios":"levelo://app?vid=80d1eb54-6334-4c2f-a160-7e4b5cb79537"},"vehicle_type_id":"4","last_reported":1726661809,"current_range_meters":35200,"station_id":"ce4bhp12rcd13ifvqh9g","pricing_plan_id":"cebpf4jnsgd1na2vs0mg"},{"bike_id":"65e49931-730a-4741-b805-3dadcc05b37a","system_id":"levelo_inurba_marseille","lat":43.31211,"lon":5.37688,"is_reserved":false,"is_disabled":false,"rental_uris":{"android":"levelo://app?vid=65e49931-730a-4741-b805-3dadcc05b37a","ios":"levelo://app?vid=65e49931-730a-4741-b805-3dadcc05b37a"},"vehicle_type_id":"4","last_reported":1726661809,"current_range_meters":28800,"station_id":"ce4bgt92rcd13ifvqcg0","pricing_plan_id":"cebpf4jnsgd1na2vs0mg"},{"bike_id":"e81a9a6a-b281-42ac-8844-f24bc9550496","system_id":"levelo_inurba_marseille","lat":43.28851,"lon":5.39324,"is_reserved":false,"is_disabled":false,"rental_uris":{"android":"levelo://app?vid=e81a9a6a-b281-42ac-8844-f24bc9550496","ios":"levelo://app?vid=e81a9a6a-b281-42ac-8844-f24bc9550496"},"vehicle_type_id":"4","last_reported":1726661809,"current_range_meters":39200,"station_id":"ce4bh2p2rcd13ifvqdi0","pricing_plan_id":"cebpf4jnsgd1na2vs0mg"},{"bike_id":"64de88cf-d117-4ffb-a8d7-2bf53095d59c","system_id":"levelo_inurba_marseille","lat":43.32365,"lon":5.38879,"is_reserved":false,"is_disabled":false,"rental_uris":{"android":"levelo://app?vid=64de88cf-d117-4ffb-a8d7-2bf53095d59c","ios":"levelo://app?vid=64de88cf-d117-4ffb-a8d7-2bf53095d59c"},"vehicle_type_id":"4","last_reported":1726661809,"current_range_meters":25600,"station_id":"ce4bhqp2rcd13ifvqhog","pricing_plan_id":"cebpf4jnsgd1na2vs0mg"},{"bike_id":"b88d8bac-711e-49d2-9eee-8f0f2fcec434","system_id":"levelo_inurba_marseille","lat":43.33024,"lon":5.39046,"is_reserved":false,"is_disabled":false,"rental_uris":{"android":"levelo://app?vid=b88d8bac-711e-49d2-9eee-8f0f2fcec434","ios":"levelo://app?vid=b88d8bac-711e-49d2-9eee-8f0f2fcec434"},"vehicle_type_id":"4","last_reported":1726661809,"current_range_meters":25200,"station_id":"ce4bhr92rcd13ifvqhrg","pricing_plan_id":"cebpf4jnsgd1na2vs0mg"},{"bike_id":"bc1e210e-3de2-4ffb-8c8c-6c70178cad8b","system_id":"levelo_inurba_marseille","lat":43.24388,"lon":5.37064,"is_reserved":false,"is_disabled":false,"rental_uris":{"android":"levelo://app?vid=bc1e210e-3de2-4ffb-8c8c-6c70178cad8b","ios":"levelo://app?vid=bc1e210e-3de2-4ffb-8c8c-6c70178cad8b"},"vehicle_type_id":"4","last_reported":1726661809,"current_range_meters":28400,"station_id":"ce4bhhh2rcd13ifvqfk0","pricing_plan_id":"cebpf4jnsgd1na2vs0mg"},{"bike_id":"51c8f926-dd42-4188-8ae9-9d5cbb2f7e71","system_id":"levelo_inurba_marseille","lat":43.24179,"lon":5.39728,"is_reserved":false,"is_disabled":false,"rental_uris":{"android":"levelo://app?vid=51c8f926-dd42-4188-8ae9-9d5cbb2f7e71","ios":"levelo://app?vid=51c8f926-dd42-4188-8ae9-9d5cbb2f7e71"},"vehicle_type_id":"4","last_reported":1726661809,"current_range_meters":19600,"station_id":"ce4bhn12rcd13ifvqgpg","pricing_plan_id":"cebpf4jnsgd1na2vs0mg"},{"bike_id":"d29f50cf-a565-48b9-b502-f74324cfe4c0","system_id":"levelo_inurba_marseille","lat":43.24542,"lon":5.39522,"is_reserved":false,"is_disabled":false,"rental_uris":{"android":"levelo://app?vid=d29f50cf-a565-48b9-b502-f74324cfe4c0","ios":"levelo://app?vid=d29f50cf-a565-48b9-b502-f74324cfe4c0"},"vehicle_type_id":"4","last_reported":1726661809,"current_range_meters":35600,"station_id":"ce4bhlp2rcd13ifvqgjg","pricing_plan_id":"cebpf4jnsgd1na2vs0mg"},{"bike_id":"2e2254f6-d3ed-4277-af5f-ee204e464f40","system_id":"levelo_inurba_marseille","lat":43.29949,"lon":5.41318,"is_reserved":false,"is_disabled":false,"rental_uris":{"android":"levelo://app?vid=2e2254f6-d3ed-4277-af5f-ee204e464f40","ios":"levelo://app?vid=2e2254f6-d3ed-4277-af5f-ee204e464f40"},"vehicle_type_id":"4","last_reported":1726661809,"current_range_meters":35600,"station_id":"ce4bhp12rcd13ifvqh9g","pricing_plan_id":"cebpf4jnsgd1na2vs0mg"},{"bike_id":"8fb87ab6-aead-4858-bee6-adab0057accf","system_id":"levelo_inurba_marseille","lat":43.30798,"lon":5.38778,"is_reserved":false,"is_disabled":false,"rental_uris":{"android":"levelo://app?vid=8fb87ab6-aead-4858-bee6-adab0057accf","ios":"levelo://app?vid=8fb87ab6-aead-4858-bee6-adab0057accf"},"vehicle_type_id":"4","last_reported":1726661809,"current_range_meters":19600,"station_id":"","pricing_plan_id":"cebpf4jnsgd1na2vs0mg"},{"bike_id":"fec5e1d4-a494-4b7c-a879-ec895a3d4d47","system_id":"levelo_inurba_marseille","lat":43.29899,"lon":5.4367,"is_reserved":false,"is_disabled":false,"rental_uris":{"android":"levelo://app?vid=fec5e1d4-a494-4b7c-a879-ec895a3d4d47","ios":"levelo://app?vid=fec5e1d4-a494-4b7c-a879-ec895a3d4d47"},"vehicle_type_id":"4","last_reported":1726661809,"current_range_meters":10800,"station_id":"ce4bhpp2rcd13ifvqhfg","pricing_plan_id":"cebpf4jnsgd1na2vs0mg"},{"bike_id":"52821215-7aa1-4d53-b2d6-f514391eb788","system_id":"levelo_inurba_marseille","lat":43.33756,"lon":5.37451,"is_reserved":false,"is_disabled":false,"rental_uris":{"android":"levelo://app?vid=52821215-7aa1-4d53-b2d6-f514391eb788","ios":"levelo://app?vid=52821215-7aa1-4d53-b2d6-f514391eb788"},"vehicle_type_id":"4","last_reported":1726661809,"current_range_meters":38000,"station_id":"","pricing_plan_id":"cebpf4jnsgd1na2vs0mg"},{"bike_id":"8cb592d9-f82f-4171-894f-8d7ffa6525e5","system_id":"levelo_inurba_marseille","lat":43.23197,"lon":5.35543,"is_reserved":false,"is_disabled":false,"rental_uris":{"android":"levelo://app?vid=8cb592d9-f82f-4171-894f-8d7ffa6525e5","ios":"levelo://app?vid=8cb592d9-f82f-4171-894f-8d7ffa6525e5"},"vehicle_type_id":"4","last_reported":1726661809,"current_range_meters":14000,"station_id":"ce4bhu92rcd13ifvqi70","pricing_plan_id":"cebpf4jnsgd1na2vs0mg"},{"bike_id":"79cad5b6-9cb0-4262-b39c-374cdf1c25d1","system_id":"levelo_inurba_marseille","lat":43.32488,"lon":5.36556,"is_reserved":false,"is_disabled":false,"rental_uris":{"android":"levelo://app?vid=79cad5b6-9cb0-4262-b39c-374cdf1c25d1","ios":"levelo://app?vid=79cad5b6-9cb0-4262-b39c-374cdf1c25d1"},"vehicle_type_id":"4","last_reported":1726661809,"current_range_meters":38800,"station_id":"ce4bhs12rcd13ifvqhvg","pricing_plan_id":"cebpf4jnsgd1na2vs0mg"},{"bike_id":"bdb7003c-fda5-484d-b45b-1b58bf6ca3a0","system_id":"levelo_inurba_marseille","lat":43.28936,"lon":5.38399,"is_reserved":false,"is_disabled":false,"rental_uris":{"android":"levelo://app?vid=bdb7003c-fda5-484d-b45b-1b58bf6ca3a0","ios":"levelo://app?vid=bdb7003c-fda5-484d-b45b-1b58bf6ca3a0"},"vehicle_type_id":"4","last_reported":1726661809,"current_range_meters":20400,"station_id":"ce4bh612rcd13ifvqe6g","pricing_plan_id":"cebpf4jnsgd1na2vs0mg"},{"bike_id":"50711cd9-7a0c-42fc-8734-da6691f6e84e","system_id":"levelo_inurba_marseille","lat":43.31326,"lon":5.39692,"is_reserved":false,"is_disabled":false,"rental_uris":{"android":"levelo://app?vid=50711cd9-7a0c-42fc-8734-da6691f6e84e","ios":"levelo://app?vid=50711cd9-7a0c-42fc-8734-da6691f6e84e"},"vehicle_type_id":"4","last_reported":1726661809,"current_range_meters":30400,"station_id":"ce4bgvp2rcd13ifvqcu0","pricing_plan_id":"cebpf4jnsgd1na2vs0mg"},{"bike_id":"c3bcca86-6294-4639-9d07-9722d40f464e","system_id":"levelo_inurba_marseille","lat":43.29899,"lon":5.43669,"is_reserved":false,"is_disabled":false,"rental_uris":{"android":"levelo://app?vid=c3bcca86-6294-4639-9d07-9722d40f464e","ios":"levelo://app?vid=c3bcca86-6294-4639-9d07-9722d40f464e"},"vehicle_type_id":"4","last_reported":1726661809,"current_range_meters":23200,"station_id":"ce4bhpp2rcd13ifvqhfg","pricing_plan_id":"cebpf4jnsgd1na2vs0mg"},{"bike_id":"cbf6fabe-a2b0-42a3-a005-12c7918c07ed","system_id":"levelo_inurba_marseille","lat":43.24803,"lon":5.37456,"is_reserved":false,"is_disabled":false,"rental_uris":{"android":"levelo://app?vid=cbf6fabe-a2b0-42a3-a005-12c7918c07ed","ios":"levelo://app?vid=cbf6fabe-a2b0-42a3-a005-12c7918c07ed"},"vehicle_type_id":"4","last_reported":1726661809,"current_range_meters":30800,"station_id":"ce4bhgh2rcd13ifvqfb0","pricing_plan_id":"cebpf4jnsgd1na2vs0mg"},{"bike_id":"fa77e604-95b4-476d-a30f-499c3aaf710d","system_id":"levelo_inurba_marseille","lat":43.33727,"lon":5.39174,"is_reserved":false,"is_disabled":false,"rental_uris":{"android":"levelo://app?vid=fa77e604-95b4-476d-a30f-499c3aaf710d","ios":"levelo://app?vid=fa77e604-95b4-476d-a30f-499c3aaf710d"},"vehicle_type_id":"4","last_reported":1726661809,"current_range_meters":14800,"station_id":"ce4bhr92rcd13ifvqhsg","pricing_plan_id":"cebpf4jnsgd1na2vs0mg"},{"bike_id":"bb1a9693-ecf3-4b0c-8f6f-826fe66ac44a","system_id":"levelo_inurba_marseille","lat":43.28848,"lon":5.3586,"is_reserved":false,"is_disabled":false,"rental_uris":{"android":"levelo://app?vid=bb1a9693-ecf3-4b0c-8f6f-826fe66ac44a","ios":"levelo://app?vid=bb1a9693-ecf3-4b0c-8f6f-826fe66ac44a"},"vehicle_type_id":"4","last_reported":1726661809,"current_range_meters":15200,"station_id":"ce4bhb12rcd13ifvqem0","pricing_plan_id":"cebpf4jnsgd1na2vs0mg"},{"bike_id":"32a92804-3d11-4cfc-ab0f-97030bbe2d9d","system_id":"levelo_inurba_marseille","lat":43.2511,"lon":5.40323,"is_reserved":false,"is_disabled":false,"rental_uris":{"android":"levelo://app?vid=32a92804-3d11-4cfc-ab0f-97030bbe2d9d","ios":"levelo://app?vid=32a92804-3d11-4cfc-ab0f-97030bbe2d9d"},"vehicle_type_id":"4","last_reported":1726661809,"current_range_meters":36400,"station_id":"ce4bhlh2rcd13ifvqgig","pricing_plan_id":"cebpf4jnsgd1na2vs0mg"},{"bike_id":"5304ed70-fad3-470c-b0c3-63f08a2a0a36","system_id":"levelo_inurba_marseille","lat":43.31322,"lon":5.39693,"is_reserved":false,"is_disabled":false,"rental_uris":{"android":"levelo://app?vid=5304ed70-fad3-470c-b0c3-63f08a2a0a36","ios":"levelo://app?vid=5304ed70-fad3-470c-b0c3-63f08a2a0a36"},"vehicle_type_id":"4","last_reported":1726661809,"current_range_meters":19600,"station_id":"ce4bgvp2rcd13ifvqcu0","pricing_plan_id":"cebpf4jnsgd1na2vs0mg"},{"bike_id":"00e75aa4-679c-42d6-be48-906ec2eca445","system_id":"levelo_inurba_marseille","lat":43.30537,"lon":5.36538,"is_reserved":false,"is_disabled":false,"rental_uris":{"android":"levelo://app?vid=00e75aa4-679c-42d6-be48-906ec2eca445","ios":"levelo://app?vid=00e75aa4-679c-42d6-be48-906ec2eca445"},"vehicle_type_id":"4","last_reported":1726661809,"current_range_meters":32400,"station_id":"ce4bgs12rcd13ifvqcag","pricing_plan_id":"cebpf4jnsgd1na2vs0mg"},{"bike_id":"b5cc06aa-fd0a-4f16-9512-cc0ee529c93f","system_id":"levelo_inurba_marseille","lat":43.23145,"lon":5.43714,"is_reserved":false,"is_disabled":false,"rental_uris":{"android":"levelo://app?vid=b5cc06aa-fd0a-4f16-9512-cc0ee529c93f","ios":"levelo://app?vid=b5cc06aa-fd0a-4f16-9512-cc0ee529c93f"},"vehicle_type_id":"4","last_reported":1726661809,"current_range_meters":25200,"station_id":"ce4bhmp2rcd13ifvqgog","pricing_plan_id":"cebpf4jnsgd1na2vs0mg"},{"bike_id":"0e81c0fb-65b8-4c83-b4ec-4681cc352947","system_id":"levelo_inurba_marseille","lat":43.29008,"lon":5.38131,"is_reserved":false,"is_disabled":false,"rental_uris":{"android":"levelo://app?vid=0e81c0fb-65b8-4c83-b4ec-4681cc352947","ios":"levelo://app?vid=0e81c0fb-65b8-4c83-b4ec-4681cc352947"},"vehicle_type_id":"4","last_reported":1726661809,"current_range_meters":16400,"station_id":"ce4bh4p2rcd13ifvqe1g","pricing_plan_id":"cebpf4jnsgd1na2vs0mg"},{"bike_id":"114229ed-7b50-4ac0-9fe6-068c1288e4e5","system_id":"levelo_inurba_marseille","lat":43.24162,"lon":5.36397,"is_reserved":false,"is_disabled":false,"rental_uris":{"android":"levelo://app?vid=114229ed-7b50-4ac0-9fe6-068c1288e4e5","ios":"levelo://app?vid=114229ed-7b50-4ac0-9fe6-068c1288e4e5"},"vehicle_type_id":"4","last_reported":1726661809,"current_range_meters":26000,"station_id":"cpo36qri1sfpv3e86is0","pricing_plan_id":"cebpf4jnsgd1na2vs0mg"},{"bike_id":"14e9527e-f89e-4f54-89ab-2a7154c3c673","system_id":"levelo_inurba_marseille","lat":43.26202,"lon":5.3792,"is_reserved":false,"is_disabled":false,"rental_uris":{"android":"levelo://app?vid=14e9527e-f89e-4f54-89ab-2a7154c3c673","ios":"levelo://app?vid=14e9527e-f89e-4f54-89ab-2a7154c3c673"},"vehicle_type_id":"4","last_reported":1726661809,"current_range_meters":36000,"station_id":"ce4bhjp2rcd13ifvqg90","pricing_plan_id":"cebpf4jnsgd1na2vs0mg"},{"bike_id":"d0d8fbfa-4de4-42a7-9832-5e25d5f2fdfb","system_id":"levelo_inurba_marseille","lat":43.30534,"lon":5.3654,"is_reserved":false,"is_disabled":false,"rental_uris":{"android":"levelo://app?vid=d0d8fbfa-4de4-42a7-9832-5e25d5f2fdfb","ios":"levelo://app?vid=d0d8fbfa-4de4-42a7-9832-5e25d5f2fdfb"},"vehicle_type_id":"4","last_reported":1726661809,"current_range_meters":36400,"station_id":"ce4bgs12rcd13ifvqcag","pricing_plan_id":"cebpf4jnsgd1na2vs0mg"},{"bike_id":"5e47fee9-7078-4e6a-b6c5-4fe1eaaf305c","system_id":"levelo_inurba_marseille","lat":43.29807,"lon":5.38101,"is_reserved":false,"is_disabled":false,"rental_uris":{"android":"levelo://app?vid=5e47fee9-7078-4e6a-b6c5-4fe1eaaf305c","ios":"levelo://app?vid=5e47fee9-7078-4e6a-b6c5-4fe1eaaf305c"},"vehicle_type_id":"4","last_reported":1726661809,"current_range_meters":24400,"station_id":"ce4bgip2rcd13ifvqbb0","pricing_plan_id":"cebpf4jnsgd1na2vs0mg"},{"bike_id":"7a1aefa5-3f47-4fb6-b298-3120a02f47d7","system_id":"levelo_inurba_marseille","lat":43.32477,"lon":5.3657,"is_reserved":false,"is_disabled":false,"rental_uris":{"android":"levelo://app?vid=7a1aefa5-3f47-4fb6-b298-3120a02f47d7","ios":"levelo://app?vid=7a1aefa5-3f47-4fb6-b298-3120a02f47d7"},"vehicle_type_id":"4","last_reported":1726661809,"current_range_meters":36400,"station_id":"ce4bhs12rcd13ifvqhvg","pricing_plan_id":"cebpf4jnsgd1na2vs0mg"},{"bike_id":"8f3bc9d3-59a7-4ebd-a025-f5c0064ba6d9","system_id":"levelo_inurba_marseille","lat":43.29278,"lon":5.40117,"is_reserved":false,"is_disabled":false,"rental_uris":{"android":"levelo://app?vid=8f3bc9d3-59a7-4ebd-a025-f5c0064ba6d9","ios":"levelo://app?vid=8f3bc9d3-59a7-4ebd-a025-f5c0064ba6d9"},"vehicle_type_id":"4","last_reported":1726661809,"current_range_meters":14400,"station_id":"ce4bh312rcd13ifvqdk0","pricing_plan_id":"cebpf4jnsgd1na2vs0mg"},{"bike_id":"e2f93157-dea0-45a5-82f3-6b3f12ad379f","system_id":"levelo_inurba_marseille","lat":43.28033,"lon":5.36939,"is_reserved":false,"is_disabled":false,"rental_uris":{"android":"levelo://app?vid=e2f93157-dea0-45a5-82f3-6b3f12ad379f","ios":"levelo://app?vid=e2f93157-dea0-45a5-82f3-6b3f12ad379f"},"vehicle_type_id":"4","last_reported":1726661809,"current_range_meters":30800,"station_id":"ce4bha12rcd13ifvqef0","pricing_plan_id":"cebpf4jnsgd1na2vs0mg"},{"bike_id":"3fcaec07-152a-4cdb-bc8f-7888623c0646","system_id":"levelo_inurba_marseille","lat":43.23966,"lon":5.36631,"is_reserved":false,"is_disabled":false,"rental_uris":{"android":"levelo://app?vid=3fcaec07-152a-4cdb-bc8f-7888623c0646","ios":"levelo://app?vid=3fcaec07-152a-4cdb-bc8f-7888623c0646"},"vehicle_type_id":"4","last_reported":1726661809,"current_range_meters":26000,"station_id":"ce4bhi12rcd13ifvqfp0","pricing_plan_id":"cebpf4jnsgd1na2vs0mg"},{"bike_id":"b645ac77-0d58-4fa9-8ad3-947af8bdb1d9","system_id":"levelo_inurba_marseille","lat":43.29903,"lon":5.43678,"is_reserved":false,"is_disabled":false,"rental_uris":{"android":"levelo://app?vid=b645ac77-0d58-4fa9-8ad3-947af8bdb1d9","ios":"levelo://app?vid=b645ac77-0d58-4fa9-8ad3-947af8bdb1d9"},"vehicle_type_id":"4","last_reported":1726661809,"current_range_meters":19200,"station_id":"ce4bhpp2rcd13ifvqhfg","pricing_plan_id":"cebpf4jnsgd1na2vs0mg"},{"bike_id":"e3e9687d-b3c5-418d-8091-4006dd8ebb24","system_id":"levelo_inurba_marseille","lat":43.30546,"lon":5.36543,"is_reserved":false,"is_disabled":false,"rental_uris":{"android":"levelo://app?vid=e3e9687d-b3c5-418d-8091-4006dd8ebb24","ios":"levelo://app?vid=e3e9687d-b3c5-418d-8091-4006dd8ebb24"},"vehicle_type_id":"4","last_reported":1726661809,"current_range_meters":12800,"station_id":"ce4bgs12rcd13ifvqcag","pricing_plan_id":"cebpf4jnsgd1na2vs0mg"},{"bike_id":"6aa19938-3994-4506-9417-669b864c1e4e","system_id":"levelo_inurba_marseille","lat":43.29322,"lon":5.38007,"is_reserved":false,"is_disabled":false,"rental_uris":{"android":"levelo://app?vid=6aa19938-3994-4506-9417-669b864c1e4e","ios":"levelo://app?vid=6aa19938-3994-4506-9417-669b864c1e4e"},"vehicle_type_id":"4","last_reported":1726661809,"current_range_meters":37600,"station_id":"","pricing_plan_id":"cebpf4jnsgd1na2vs0mg"},{"bike_id":"55fed244-caf4-46e6-99fc-fcd916ddb5b7","system_id":"levelo_inurba_marseille","lat":43.23205,"lon":5.3555,"is_reserved":false,"is_disabled":false,"rental_uris":{"android":"levelo://app?vid=55fed244-caf4-46e6-99fc-fcd916ddb5b7","ios":"levelo://app?vid=55fed244-caf4-46e6-99fc-fcd916ddb5b7"},"vehicle_type_id":"4","last_reported":1726661809,"current_range_meters":24800,"station_id":"ce4bhu92rcd13ifvqi70","pricing_plan_id":"cebpf4jnsgd1na2vs0mg"},{"bike_id":"2821bd5e-f2cc-464c-a98c-3e36c986cc0e","system_id":"levelo_inurba_marseille","lat":43.25933,"lon":5.40915,"is_reserved":false,"is_disabled":false,"rental_uris":{"android":"levelo://app?vid=2821bd5e-f2cc-464c-a98c-3e36c986cc0e","ios":"levelo://app?vid=2821bd5e-f2cc-464c-a98c-3e36c986cc0e"},"vehicle_type_id":"4","last_reported":1726661809,"current_range_meters":36000,"station_id":"ce4bhm92rcd13ifvqglg","pricing_plan_id":"cebpf4jnsgd1na2vs0mg"},{"bike_id":"22c184d7-d8b8-4533-92c2-fae6bea77b03","system_id":"levelo_inurba_marseille","lat":43.30601,"lon":5.37224,"is_reserved":false,"is_disabled":false,"rental_uris":{"android":"levelo://app?vid=22c184d7-d8b8-4533-92c2-fae6bea77b03","ios":"levelo://app?vid=22c184d7-d8b8-4533-92c2-fae6bea77b03"},"vehicle_type_id":"4","last_reported":1726661809,"current_range_meters":39200,"station_id":"ce4bgqh2rcd13ifvqc4g","pricing_plan_id":"cebpf4jnsgd1na2vs0mg"},{"bike_id":"8ceb5aea-b40e-4dad-98b0-1dcabb72c74a","system_id":"levelo_inurba_marseille","lat":43.31851,"lon":5.37938,"is_reserved":false,"is_disabled":false,"rental_uris":{"android":"levelo://app?vid=8ceb5aea-b40e-4dad-98b0-1dcabb72c74a","ios":"levelo://app?vid=8ceb5aea-b40e-4dad-98b0-1dcabb72c74a"},"vehicle_type_id":"4","last_reported":1726661809,"current_range_meters":26000,"station_id":"","pricing_plan_id":"cebpf4jnsgd1na2vs0mg"},{"bike_id":"b25232db-c485-4e9c-a2f6-4acc0677bc78","system_id":"levelo_inurba_marseille","lat":43.23147,"lon":5.43715,"is_reserved":false,"is_disabled":false,"rental_uris":{"android":"levelo://app?vid=b25232db-c485-4e9c-a2f6-4acc0677bc78","ios":"levelo://app?vid=b25232db-c485-4e9c-a2f6-4acc0677bc78"},"vehicle_type_id":"4","last_reported":1726661809,"current_range_meters":39200,"station_id":"ce4bhmp2rcd13ifvqgog","pricing_plan_id":"cebpf4jnsgd1na2vs0mg"},{"bike_id":"677498c9-746b-4650-9a8e-2c7479635944","system_id":"levelo_inurba_marseille","lat":43.33022,"lon":5.39051,"is_reserved":false,"is_disabled":false,"rental_uris":{"android":"levelo://app?vid=677498c9-746b-4650-9a8e-2c7479635944","ios":"levelo://app?vid=677498c9-746b-4650-9a8e-2c7479635944"},"vehicle_type_id":"4","last_reported":1726661809,"current_range_meters":15200,"station_id":"ce4bhr92rcd13ifvqhrg","pricing_plan_id":"cebpf4jnsgd1na2vs0mg"},{"bike_id":"ed645ef0-83f1-4699-9183-8201b34b05b0","system_id":"levelo_inurba_marseille","lat":43.32286,"lon":5.38273,"is_reserved":false,"is_disabled":false,"rental_uris":{"android":"levelo://app?vid=ed645ef0-83f1-4699-9183-8201b34b05b0","ios":"levelo://app?vid=ed645ef0-83f1-4699-9183-8201b34b05b0"},"vehicle_type_id":"4","last_reported":1726661809,"current_range_meters":8000,"station_id":"ce4bhr12rcd13ifvqhqg","pricing_plan_id":"cebpf4jnsgd1na2vs0mg"},{"bike_id":"2bbcdf41-9b43-45e1-bf99-77a3ace1dc9e","system_id":"levelo_inurba_marseille","lat":43.27617,"lon":5.36103,"is_reserved":false,"is_disabled":false,"rental_uris":{"android":"levelo://app?vid=2bbcdf41-9b43-45e1-bf99-77a3ace1dc9e","ios":"levelo://app?vid=2bbcdf41-9b43-45e1-bf99-77a3ace1dc9e"},"vehicle_type_id":"4","last_reported":1726661809,"current_range_meters":23200,"station_id":"ce4bgj92rcd13ifvqbe0","pricing_plan_id":"cebpf4jnsgd1na2vs0mg"},{"bike_id":"726d1b8e-23e4-4929-bfe1-161c1e982bf7","system_id":"levelo_inurba_marseille","lat":43.323403,"lon":5.406273,"is_reserved":false,"is_disabled":false,"rental_uris":{"android":"levelo://app?vid=726d1b8e-23e4-4929-bfe1-161c1e982bf7","ios":"levelo://app?vid=726d1b8e-23e4-4929-bfe1-161c1e982bf7"},"vehicle_type_id":"4","last_reported":1726661809,"current_range_meters":7200,"station_id":"ce4bhq92rcd13ifvqhjg","pricing_plan_id":"cebpf4jnsgd1na2vs0mg"},{"bike_id":"edcb7831-5f93-4381-9cdb-bf2cddba3298","system_id":"levelo_inurba_marseille","lat":43.26682,"lon":5.38264,"is_reserved":false,"is_disabled":false,"rental_uris":{"android":"levelo://app?vid=edcb7831-5f93-4381-9cdb-bf2cddba3298","ios":"levelo://app?vid=edcb7831-5f93-4381-9cdb-bf2cddba3298"},"vehicle_type_id":"4","last_reported":1726661809,"current_range_meters":32400,"station_id":"ce4bhg92rcd13ifvqf90","pricing_plan_id":"cebpf4jnsgd1na2vs0mg"},{"bike_id":"83b487bb-5554-4b94-a40e-3abba8c26f6e","system_id":"levelo_inurba_marseille","lat":43.25871,"lon":5.39897,"is_reserved":false,"is_disabled":false,"rental_uris":{"android":"levelo://app?vid=83b487bb-5554-4b94-a40e-3abba8c26f6e","ios":"levelo://app?vid=83b487bb-5554-4b94-a40e-3abba8c26f6e"},"vehicle_type_id":"4","last_reported":1726661809,"current_range_meters":28400,"station_id":"ce4bhl92rcd13ifvqghg","pricing_plan_id":"cebpf4jnsgd1na2vs0mg"},{"bike_id":"039abe42-d53e-48b2-910f-be7e05ba47a1","system_id":"levelo_inurba_marseille","lat":43.29843,"lon":5.36275,"is_reserved":false,"is_disabled":false,"rental_uris":{"android":"levelo://app?vid=039abe42-d53e-48b2-910f-be7e05ba47a1","ios":"levelo://app?vid=039abe42-d53e-48b2-910f-be7e05ba47a1"},"vehicle_type_id":"4","last_reported":1726661809,"current_range_meters":30400,"station_id":"ce4bgpp2rcd13ifvqc3g","pricing_plan_id":"cebpf4jnsgd1na2vs0mg"},{"bike_id":"80c47e16-baa6-4fc8-a547-2d338a887528","system_id":"levelo_inurba_marseille","lat":43.2971,"lon":5.36586,"is_reserved":false,"is_disabled":false,"rental_uris":{"android":"levelo://app?vid=80c47e16-baa6-4fc8-a547-2d338a887528","ios":"levelo://app?vid=80c47e16-baa6-4fc8-a547-2d338a887528"},"vehicle_type_id":"4","last_reported":1726661809,"current_range_meters":4800,"station_id":"ce4bgn12rcd13ifvqbt0","pricing_plan_id":"cebpf4jnsgd1na2vs0mg"},{"bike_id":"deaf6f13-ba23-4860-bb59-f6666ec33c46","system_id":"levelo_inurba_marseille","lat":43.29619,"lon":5.37154,"is_reserved":false,"is_disabled":false,"rental_uris":{"android":"levelo://app?vid=deaf6f13-ba23-4860-bb59-f6666ec33c46","ios":"levelo://app?vid=deaf6f13-ba23-4860-bb59-f6666ec33c46"},"vehicle_type_id":"4","last_reported":1726661809,"current_range_meters":32000,"station_id":"ce4bgnh2rcd13ifvqc0g","pricing_plan_id":"cebpf4jnsgd1na2vs0mg"},{"bike_id":"2df883fd-d247-4085-a279-31959a3690d8","system_id":"levelo_inurba_marseille","lat":43.30551,"lon":5.3669,"is_reserved":false,"is_disabled":false,"rental_uris":{"android":"levelo://app?vid=2df883fd-d247-4085-a279-31959a3690d8","ios":"levelo://app?vid=2df883fd-d247-4085-a279-31959a3690d8"},"vehicle_type_id":"4","last_reported":1726661809,"current_range_meters":37600,"station_id":"ce4bgrp2rcd13ifvqc9g","pricing_plan_id":"cebpf4jnsgd1na2vs0mg"},{"bike_id":"af15b34b-0a1b-4f05-9975-d29c112ecf5a","system_id":"levelo_inurba_marseille","lat":43.26549,"lon":5.37287,"is_reserved":false,"is_disabled":false,"rental_uris":{"android":"levelo://app?vid=af15b34b-0a1b-4f05-9975-d29c112ecf5a","ios":"levelo://app?vid=af15b34b-0a1b-4f05-9975-d29c112ecf5a"},"vehicle_type_id":"4","last_reported":1726661809,"current_range_meters":32800,"station_id":"ce4bhg12rcd13ifvqf70","pricing_plan_id":"cebpf4jnsgd1na2vs0mg"},{"bike_id":"99684f50-b398-427b-a4e9-7ca0a0382c79","system_id":"levelo_inurba_marseille","lat":43.23195,"lon":5.35547,"is_reserved":false,"is_disabled":false,"rental_uris":{"android":"levelo://app?vid=99684f50-b398-427b-a4e9-7ca0a0382c79","ios":"levelo://app?vid=99684f50-b398-427b-a4e9-7ca0a0382c79"},"vehicle_type_id":"4","last_reported":1726661809,"current_range_meters":40000,"station_id":"ce4bhu92rcd13ifvqi70","pricing_plan_id":"cebpf4jnsgd1na2vs0mg"},{"bike_id":"d782c430-b2c7-45ce-aaaf-78dc9a80ca97","system_id":"levelo_inurba_marseille","lat":43.33022,"lon":5.39036,"is_reserved":false,"is_disabled":false,"rental_uris":{"android":"levelo://app?vid=d782c430-b2c7-45ce-aaaf-78dc9a80ca97","ios":"levelo://app?vid=d782c430-b2c7-45ce-aaaf-78dc9a80ca97"},"vehicle_type_id":"4","last_reported":1726661809,"current_range_meters":24800,"station_id":"ce4bhr92rcd13ifvqhrg","pricing_plan_id":"cebpf4jnsgd1na2vs0mg"},{"bike_id":"1bcd8cc3-f20b-4bc3-a88a-134f78dc7f8d","system_id":"levelo_inurba_marseille","lat":43.24544,"lon":5.39525,"is_reserved":false,"is_disabled":false,"rental_uris":{"android":"levelo://app?vid=1bcd8cc3-f20b-4bc3-a88a-134f78dc7f8d","ios":"levelo://app?vid=1bcd8cc3-f20b-4bc3-a88a-134f78dc7f8d"},"vehicle_type_id":"4","last_reported":1726661809,"current_range_meters":18000,"station_id":"ce4bhlp2rcd13ifvqgjg","pricing_plan_id":"cebpf4jnsgd1na2vs0mg"},{"bike_id":"f3097615-9e12-461d-98ce-1401b3ef0416","system_id":"levelo_inurba_marseille","lat":43.30154,"lon":5.38083,"is_reserved":false,"is_disabled":false,"rental_uris":{"android":"levelo://app?vid=f3097615-9e12-461d-98ce-1401b3ef0416","ios":"levelo://app?vid=f3097615-9e12-461d-98ce-1401b3ef0416"},"vehicle_type_id":"4","last_reported":1726661809,"current_range_meters":14000,"station_id":"ce4bgjp2rcd13ifvqbh0","pricing_plan_id":"cebpf4jnsgd1na2vs0mg"},{"bike_id":"2b714e73-49f8-4f26-bb6d-7d72ce23aabc","system_id":"levelo_inurba_marseille","lat":43.23051,"lon":5.35491,"is_reserved":false,"is_disabled":false,"rental_uris":{"android":"levelo://app?vid=2b714e73-49f8-4f26-bb6d-7d72ce23aabc","ios":"levelo://app?vid=2b714e73-49f8-4f26-bb6d-7d72ce23aabc"},"vehicle_type_id":"4","last_reported":1726661809,"current_range_meters":8400,"station_id":"cpo3342slgdg3j2ifvpg","pricing_plan_id":"cebpf4jnsgd1na2vs0mg"},{"bike_id":"08517893-63cf-43d9-88aa-3c89b83ce921","system_id":"levelo_inurba_marseille","lat":43.32488,"lon":5.36548,"is_reserved":false,"is_disabled":false,"rental_uris":{"android":"levelo://app?vid=08517893-63cf-43d9-88aa-3c89b83ce921","ios":"levelo://app?vid=08517893-63cf-43d9-88aa-3c89b83ce921"},"vehicle_type_id":"4","last_reported":1726661809,"current_range_meters":39200,"station_id":"ce4bhs12rcd13ifvqhvg","pricing_plan_id":"cebpf4jnsgd1na2vs0mg"},{"bike_id":"8cd53c67-998a-490c-9eaf-e78736c4c6c2","system_id":"levelo_inurba_marseille","lat":43.30318,"lon":5.36901,"is_reserved":false,"is_disabled":false,"rental_uris":{"android":"levelo://app?vid=8cd53c67-998a-490c-9eaf-e78736c4c6c2","ios":"levelo://app?vid=8cd53c67-998a-490c-9eaf-e78736c4c6c2"},"vehicle_type_id":"4","last_reported":1726661809,"current_range_meters":38400,"station_id":"ce4bgqh2rcd13ifvqc5g","pricing_plan_id":"cebpf4jnsgd1na2vs0mg"},{"bike_id":"6a3e0bcf-6dfd-4eed-b57b-6033e25f8c2a","system_id":"levelo_inurba_marseille","lat":43.3133,"lon":5.3969,"is_reserved":false,"is_disabled":false,"rental_uris":{"android":"levelo://app?vid=6a3e0bcf-6dfd-4eed-b57b-6033e25f8c2a","ios":"levelo://app?vid=6a3e0bcf-6dfd-4eed-b57b-6033e25f8c2a"},"vehicle_type_id":"4","last_reported":1726661809,"current_range_meters":8400,"station_id":"ce4bgvp2rcd13ifvqcu0","pricing_plan_id":"cebpf4jnsgd1na2vs0mg"},{"bike_id":"9aa4f766-675f-47e9-8532-2a9c7e411a51","system_id":"levelo_inurba_marseille","lat":43.24545,"lon":5.39523,"is_reserved":false,"is_disabled":false,"rental_uris":{"android":"levelo://app?vid=9aa4f766-675f-47e9-8532-2a9c7e411a51","ios":"levelo://app?vid=9aa4f766-675f-47e9-8532-2a9c7e411a51"},"vehicle_type_id":"4","last_reported":1726661809,"current_range_meters":34000,"station_id":"ce4bhlp2rcd13ifvqgjg","pricing_plan_id":"cebpf4jnsgd1na2vs0mg"},{"bike_id":"f6e88fe5-39a9-4e66-96a2-c5621c23b6f4","system_id":"levelo_inurba_marseille","lat":43.27811,"lon":5.4071,"is_reserved":false,"is_disabled":false,"rental_uris":{"android":"levelo://app?vid=f6e88fe5-39a9-4e66-96a2-c5621c23b6f4","ios":"levelo://app?vid=f6e88fe5-39a9-4e66-96a2-c5621c23b6f4"},"vehicle_type_id":"4","last_reported":1726661809,"current_range_meters":21600,"station_id":"ce4bhnh2rcd13ifvqgtg","pricing_plan_id":"cebpf4jnsgd1na2vs0mg"},{"bike_id":"e8befb56-1303-484d-9ed5-cb1654ca2bd2","system_id":"levelo_inurba_marseille","lat":43.23965,"lon":5.36636,"is_reserved":false,"is_disabled":false,"rental_uris":{"android":"levelo://app?vid=e8befb56-1303-484d-9ed5-cb1654ca2bd2","ios":"levelo://app?vid=e8befb56-1303-484d-9ed5-cb1654ca2bd2"},"vehicle_type_id":"4","last_reported":1726661809,"current_range_meters":37600,"station_id":"ce4bhi12rcd13ifvqfp0","pricing_plan_id":"cebpf4jnsgd1na2vs0mg"},{"bike_id":"e93522eb-9034-4f1e-9f84-0b0ccddbf9fb","system_id":"levelo_inurba_marseille","lat":43.28941,"lon":5.36639,"is_reserved":false,"is_disabled":false,"rental_uris":{"android":"levelo://app?vid=e93522eb-9034-4f1e-9f84-0b0ccddbf9fb","ios":"levelo://app?vid=e93522eb-9034-4f1e-9f84-0b0ccddbf9fb"},"vehicle_type_id":"4","last_reported":1726661809,"current_range_meters":18800,"station_id":"ce4bhap2rcd13ifvqek0","pricing_plan_id":"cebpf4jnsgd1na2vs0mg"},{"bike_id":"bc3793b6-2ad3-497e-8fb6-7ea707011f3a","system_id":"levelo_inurba_marseille","lat":43.284161,"lon":5.374979,"is_reserved":false,"is_disabled":false,"rental_uris":{"android":"levelo://app?vid=bc3793b6-2ad3-497e-8fb6-7ea707011f3a","ios":"levelo://app?vid=bc3793b6-2ad3-497e-8fb6-7ea707011f3a"},"vehicle_type_id":"4","last_reported":1726661809,"current_range_meters":25200,"station_id":"ce4bh412rcd13ifvqds0","pricing_plan_id":"cebpf4jnsgd1na2vs0mg"},{"bike_id":"f24b6059-7435-48b0-826f-a615cb14199f","system_id":"levelo_inurba_marseille","lat":43.26552,"lon":5.37284,"is_reserved":false,"is_disabled":false,"rental_uris":{"android":"levelo://app?vid=f24b6059-7435-48b0-826f-a615cb14199f","ios":"levelo://app?vid=f24b6059-7435-48b0-826f-a615cb14199f"},"vehicle_type_id":"4","last_reported":1726661809,"current_range_meters":30400,"station_id":"ce4bhg12rcd13ifvqf70","pricing_plan_id":"cebpf4jnsgd1na2vs0mg"},{"bike_id":"77aad35c-f5ef-4192-80d4-71582050296e","system_id":"levelo_inurba_marseille","lat":43.28282,"lon":5.35071,"is_reserved":false,"is_disabled":false,"rental_uris":{"android":"levelo://app?vid=77aad35c-f5ef-4192-80d4-71582050296e","ios":"levelo://app?vid=77aad35c-f5ef-4192-80d4-71582050296e"},"vehicle_type_id":"4","last_reported":1726661809,"current_range_meters":20000,"station_id":"ce4bhbp2rcd13ifvqerg","pricing_plan_id":"cebpf4jnsgd1na2vs0mg"},{"bike_id":"3e034926-5539-4480-9686-77673b0cd3d6","system_id":"levelo_inurba_marseille","lat":43.28705,"lon":5.37387,"is_reserved":false,"is_disabled":false,"rental_uris":{"android":"levelo://app?vid=3e034926-5539-4480-9686-77673b0cd3d6","ios":"levelo://app?vid=3e034926-5539-4480-9686-77673b0cd3d6"},"vehicle_type_id":"4","last_reported":1726661809,"current_range_meters":39200,"station_id":"ce4bh3p2rcd13ifvqdq0","pricing_plan_id":"cebpf4jnsgd1na2vs0mg"},{"bike_id":"28ce08c6-8021-40d9-aea1-3f02da483b29","system_id":"levelo_inurba_marseille","lat":43.265564,"lon":5.372805,"is_reserved":false,"is_disabled":false,"rental_uris":{"android":"levelo://app?vid=28ce08c6-8021-40d9-aea1-3f02da483b29","ios":"levelo://app?vid=28ce08c6-8021-40d9-aea1-3f02da483b29"},"vehicle_type_id":"4","last_reported":1726661809,"current_range_meters":36400,"station_id":"ce4bhg12rcd13ifvqf70","pricing_plan_id":"cebpf4jnsgd1na2vs0mg"},{"bike_id":"8a69aec8-bcbe-420d-a304-2674a65e1999","system_id":"levelo_inurba_marseille","lat":43.32339,"lon":5.40619,"is_reserved":false,"is_disabled":false,"rental_uris":{"android":"levelo://app?vid=8a69aec8-bcbe-420d-a304-2674a65e1999","ios":"levelo://app?vid=8a69aec8-bcbe-420d-a304-2674a65e1999"},"vehicle_type_id":"4","last_reported":1726661809,"current_range_meters":16400,"station_id":"ce4bhq92rcd13ifvqhjg","pricing_plan_id":"cebpf4jnsgd1na2vs0mg"},{"bike_id":"7146c9bd-9033-42d8-a755-543b00fa8c71","system_id":"levelo_inurba_marseille","lat":43.27689,"lon":5.3888,"is_reserved":false,"is_disabled":false,"rental_uris":{"android":"levelo://app?vid=7146c9bd-9033-42d8-a755-543b00fa8c71","ios":"levelo://app?vid=7146c9bd-9033-42d8-a755-543b00fa8c71"},"vehicle_type_id":"4","last_reported":1726661809,"current_range_meters":9600,"station_id":"ce4bhi12rcd13ifvqfo0","pricing_plan_id":"cebpf4jnsgd1na2vs0mg"},{"bike_id":"6dd17a2f-59bb-4453-859d-2c09ab795824","system_id":"levelo_inurba_marseille","lat":43.33021,"lon":5.39039,"is_reserved":false,"is_disabled":false,"rental_uris":{"android":"levelo://app?vid=6dd17a2f-59bb-4453-859d-2c09ab795824","ios":"levelo://app?vid=6dd17a2f-59bb-4453-859d-2c09ab795824"},"vehicle_type_id":"4","last_reported":1726661809,"current_range_meters":25200,"station_id":"ce4bhr92rcd13ifvqhrg","pricing_plan_id":"cebpf4jnsgd1na2vs0mg"},{"bike_id":"81252e94-b3e6-480e-a6f5-2ff330ea64d6","system_id":"levelo_inurba_marseille","lat":43.28704,"lon":5.39981,"is_reserved":false,"is_disabled":false,"rental_uris":{"android":"levelo://app?vid=81252e94-b3e6-480e-a6f5-2ff330ea64d6","ios":"levelo://app?vid=81252e94-b3e6-480e-a6f5-2ff330ea64d6"},"vehicle_type_id":"4","last_reported":1726661809,"current_range_meters":38800,"station_id":"ce4bho92rcd13ifvqh3g","pricing_plan_id":"cebpf4jnsgd1na2vs0mg"},{"bike_id":"c51967f7-e373-4be4-8ce4-e6f504ec906a","system_id":"levelo_inurba_marseille","lat":43.29778,"lon":5.37116,"is_reserved":false,"is_disabled":false,"rental_uris":{"android":"levelo://app?vid=c51967f7-e373-4be4-8ce4-e6f504ec906a","ios":"levelo://app?vid=c51967f7-e373-4be4-8ce4-e6f504ec906a"},"vehicle_type_id":"4","last_reported":1726661809,"current_range_meters":19600,"station_id":"ce4bgop2rcd13ifvqc1g","pricing_plan_id":"cebpf4jnsgd1na2vs0mg"},{"bike_id":"fc2c37fd-b30e-4e49-9975-3233bf5effda","system_id":"levelo_inurba_marseille","lat":43.31846,"lon":5.37937,"is_reserved":false,"is_disabled":false,"rental_uris":{"android":"levelo://app?vid=fc2c37fd-b30e-4e49-9975-3233bf5effda","ios":"levelo://app?vid=fc2c37fd-b30e-4e49-9975-3233bf5effda"},"vehicle_type_id":"4","last_reported":1726661809,"current_range_meters":31200,"station_id":"","pricing_plan_id":"cebpf4jnsgd1na2vs0mg"},{"bike_id":"6df8c321-c3d4-4060-abaf-2fa6d3bf72c1","system_id":"levelo_inurba_marseille","lat":43.28703,"lon":5.39976,"is_reserved":false,"is_disabled":false,"rental_uris":{"android":"levelo://app?vid=6df8c321-c3d4-4060-abaf-2fa6d3bf72c1","ios":"levelo://app?vid=6df8c321-c3d4-4060-abaf-2fa6d3bf72c1"},"vehicle_type_id":"4","last_reported":1726661809,"current_range_meters":22800,"station_id":"ce4bho92rcd13ifvqh3g","pricing_plan_id":"cebpf4jnsgd1na2vs0mg"},{"bike_id":"ee801c62-e0a3-4a04-87cf-ccb6d6159297","system_id":"levelo_inurba_marseille","lat":43.26573,"lon":5.39007,"is_reserved":false,"is_disabled":false,"rental_uris":{"android":"levelo://app?vid=ee801c62-e0a3-4a04-87cf-ccb6d6159297","ios":"levelo://app?vid=ee801c62-e0a3-4a04-87cf-ccb6d6159297"},"vehicle_type_id":"4","last_reported":1726661809,"current_range_meters":10800,"station_id":"ce4bhe12rcd13ifvqf30","pricing_plan_id":"cebpf4jnsgd1na2vs0mg"},{"bike_id":"c5483938-683f-4dd8-a9d6-ebf3c734472a","system_id":"levelo_inurba_marseille","lat":43.26683,"lon":5.38273,"is_reserved":false,"is_disabled":false,"rental_uris":{"android":"levelo://app?vid=c5483938-683f-4dd8-a9d6-ebf3c734472a","ios":"levelo://app?vid=c5483938-683f-4dd8-a9d6-ebf3c734472a"},"vehicle_type_id":"4","last_reported":1726661809,"current_range_meters":36000,"station_id":"ce4bhg92rcd13ifvqf90","pricing_plan_id":"cebpf4jnsgd1na2vs0mg"},{"bike_id":"df140004-36af-4f95-b59e-c58393b3c036","system_id":"levelo_inurba_marseille","lat":43.27944,"lon":5.41041,"is_reserved":false,"is_disabled":false,"rental_uris":{"android":"levelo://app?vid=df140004-36af-4f95-b59e-c58393b3c036","ios":"levelo://app?vid=df140004-36af-4f95-b59e-c58393b3c036"},"vehicle_type_id":"4","last_reported":1726661809,"current_range_meters":28800,"station_id":"ce4bhnp2rcd13ifvqh0g","pricing_plan_id":"cebpf4jnsgd1na2vs0mg"},{"bike_id":"551007eb-0d19-4212-aaad-40cf20c93b6d","system_id":"levelo_inurba_marseille","lat":43.3054,"lon":5.36535,"is_reserved":false,"is_disabled":false,"rental_uris":{"android":"levelo://app?vid=551007eb-0d19-4212-aaad-40cf20c93b6d","ios":"levelo://app?vid=551007eb-0d19-4212-aaad-40cf20c93b6d"},"vehicle_type_id":"4","last_reported":1726661809,"current_range_meters":38800,"station_id":"ce4bgs12rcd13ifvqcag","pricing_plan_id":"cebpf4jnsgd1na2vs0mg"},{"bike_id":"42077fa7-1784-48be-93a4-4eb6f6fac3b8","system_id":"levelo_inurba_marseille","lat":43.2972,"lon":5.37695,"is_reserved":false,"is_disabled":false,"rental_uris":{"android":"levelo://app?vid=42077fa7-1784-48be-93a4-4eb6f6fac3b8","ios":"levelo://app?vid=42077fa7-1784-48be-93a4-4eb6f6fac3b8"},"vehicle_type_id":"4","last_reported":1726661809,"current_range_meters":38400,"station_id":"ce4bgkh2rcd13ifvqbl0","pricing_plan_id":"cebpf4jnsgd1na2vs0mg"},{"bike_id":"50f2eba0-8388-4a98-93e0-466beadabfca","system_id":"levelo_inurba_marseille","lat":43.23962,"lon":5.36635,"is_reserved":false,"is_disabled":false,"rental_uris":{"android":"levelo://app?vid=50f2eba0-8388-4a98-93e0-466beadabfca","ios":"levelo://app?vid=50f2eba0-8388-4a98-93e0-466beadabfca"},"vehicle_type_id":"4","last_reported":1726661809,"current_range_meters":38800,"station_id":"ce4bhi12rcd13ifvqfp0","pricing_plan_id":"cebpf4jnsgd1na2vs0mg"},{"bike_id":"db062467-6714-4fe6-9787-dad478074a54","system_id":"levelo_inurba_marseille","lat":43.297811,"lon":5.371042,"is_reserved":false,"is_disabled":false,"rental_uris":{"android":"levelo://app?vid=db062467-6714-4fe6-9787-dad478074a54","ios":"levelo://app?vid=db062467-6714-4fe6-9787-dad478074a54"},"vehicle_type_id":"4","last_reported":1726661809,"current_range_meters":30400,"station_id":"ce4bgop2rcd13ifvqc1g","pricing_plan_id":"cebpf4jnsgd1na2vs0mg"},{"bike_id":"638cd044-af55-4e4b-8ec1-6b37bbce43d7","system_id":"levelo_inurba_marseille","lat":43.298431,"lon":5.362639,"is_reserved":false,"is_disabled":false,"rental_uris":{"android":"levelo://app?vid=638cd044-af55-4e4b-8ec1-6b37bbce43d7","ios":"levelo://app?vid=638cd044-af55-4e4b-8ec1-6b37bbce43d7"},"vehicle_type_id":"4","last_reported":1726661809,"current_range_meters":23200,"station_id":"","pricing_plan_id":"cebpf4jnsgd1na2vs0mg"},{"bike_id":"8c0d530c-80a9-463b-b552-7c7a8c8ab48a","system_id":"levelo_inurba_marseille","lat":43.2315,"lon":5.43713,"is_reserved":false,"is_disabled":false,"rental_uris":{"android":"levelo://app?vid=8c0d530c-80a9-463b-b552-7c7a8c8ab48a","ios":"levelo://app?vid=8c0d530c-80a9-463b-b552-7c7a8c8ab48a"},"vehicle_type_id":"4","last_reported":1726661809,"current_range_meters":39200,"station_id":"ce4bhmp2rcd13ifvqgog","pricing_plan_id":"cebpf4jnsgd1na2vs0mg"},{"bike_id":"4f3a0681-696d-4d41-852d-066bd0d3066f","system_id":"levelo_inurba_marseille","lat":43.295794,"lon":5.367386,"is_reserved":false,"is_disabled":false,"rental_uris":{"android":"levelo://app?vid=4f3a0681-696d-4d41-852d-066bd0d3066f","ios":"levelo://app?vid=4f3a0681-696d-4d41-852d-066bd0d3066f"},"vehicle_type_id":"4","last_reported":1726661809,"current_range_meters":9600,"station_id":"ce4bgi12rcd13ifvqb70","pricing_plan_id":"cebpf4jnsgd1na2vs0mg"},{"bike_id":"9c7340ee-7d9b-4a50-8b88-dd479bd9d490","system_id":"levelo_inurba_marseille","lat":43.26551,"lon":5.37284,"is_reserved":false,"is_disabled":false,"rental_uris":{"android":"levelo://app?vid=9c7340ee-7d9b-4a50-8b88-dd479bd9d490","ios":"levelo://app?vid=9c7340ee-7d9b-4a50-8b88-dd479bd9d490"},"vehicle_type_id":"4","last_reported":1726661809,"current_range_meters":30000,"station_id":"ce4bhg12rcd13ifvqf70","pricing_plan_id":"cebpf4jnsgd1na2vs0mg"},{"bike_id":"58014cc6-4f39-4119-a8a0-cdc0e2507820","system_id":"levelo_inurba_marseille","lat":43.32285,"lon":5.38264,"is_reserved":false,"is_disabled":false,"rental_uris":{"android":"levelo://app?vid=58014cc6-4f39-4119-a8a0-cdc0e2507820","ios":"levelo://app?vid=58014cc6-4f39-4119-a8a0-cdc0e2507820"},"vehicle_type_id":"4","last_reported":1726661809,"current_range_meters":38400,"station_id":"ce4bhr12rcd13ifvqhqg","pricing_plan_id":"cebpf4jnsgd1na2vs0mg"},{"bike_id":"7231c74c-5278-429f-90a8-a50ab6504eee","system_id":"levelo_inurba_marseille","lat":43.32485,"lon":5.36567,"is_reserved":false,"is_disabled":false,"rental_uris":{"android":"levelo://app?vid=7231c74c-5278-429f-90a8-a50ab6504eee","ios":"levelo://app?vid=7231c74c-5278-429f-90a8-a50ab6504eee"},"vehicle_type_id":"4","last_reported":1726661809,"current_range_meters":28400,"station_id":"ce4bhs12rcd13ifvqhvg","pricing_plan_id":"cebpf4jnsgd1na2vs0mg"},{"bike_id":"391beb24-e1b4-42c5-a02e-eacdb8db2f42","system_id":"levelo_inurba_marseille","lat":43.27368,"lon":5.36234,"is_reserved":false,"is_disabled":false,"rental_uris":{"android":"levelo://app?vid=391beb24-e1b4-42c5-a02e-eacdb8db2f42","ios":"levelo://app?vid=391beb24-e1b4-42c5-a02e-eacdb8db2f42"},"vehicle_type_id":"4","last_reported":1726661809,"current_range_meters":30400,"station_id":"ce4bhbh2rcd13ifvqeo0","pricing_plan_id":"cebpf4jnsgd1na2vs0mg"},{"bike_id":"e3ba66dd-bcdb-40df-9e9f-cb8cec6d10a9","system_id":"levelo_inurba_marseille","lat":43.30078,"lon":5.39074,"is_reserved":false,"is_disabled":false,"rental_uris":{"android":"levelo://app?vid=e3ba66dd-bcdb-40df-9e9f-cb8cec6d10a9","ios":"levelo://app?vid=e3ba66dd-bcdb-40df-9e9f-cb8cec6d10a9"},"vehicle_type_id":"4","last_reported":1726661809,"current_range_meters":28400,"station_id":"ce4bh192rcd13ifvqdb0","pricing_plan_id":"cebpf4jnsgd1na2vs0mg"},{"bike_id":"16dac193-a93c-4b89-96b5-ac0cbc2f4ca0","system_id":"levelo_inurba_marseille","lat":43.28442,"lon":5.39192,"is_reserved":false,"is_disabled":false,"rental_uris":{"android":"levelo://app?vid=16dac193-a93c-4b89-96b5-ac0cbc2f4ca0","ios":"levelo://app?vid=16dac193-a93c-4b89-96b5-ac0cbc2f4ca0"},"vehicle_type_id":"4","last_reported":1726661809,"current_range_meters":22800,"station_id":"ce4bhoh2rcd13ifvqh5g","pricing_plan_id":"cebpf4jnsgd1na2vs0mg"},{"bike_id":"9de036c4-decb-465b-a775-32e663a8924f","system_id":"levelo_inurba_marseille","lat":43.33021,"lon":5.39026,"is_reserved":false,"is_disabled":false,"rental_uris":{"android":"levelo://app?vid=9de036c4-decb-465b-a775-32e663a8924f","ios":"levelo://app?vid=9de036c4-decb-465b-a775-32e663a8924f"},"vehicle_type_id":"4","last_reported":1726661809,"current_range_meters":34800,"station_id":"ce4bhr92rcd13ifvqhrg","pricing_plan_id":"cebpf4jnsgd1na2vs0mg"},{"bike_id":"5f60f5ce-6cdd-4cf0-88b4-518e456ecfea","system_id":"levelo_inurba_marseille","lat":43.295243,"lon":5.390482,"is_reserved":false,"is_disabled":false,"rental_uris":{"android":"levelo://app?vid=5f60f5ce-6cdd-4cf0-88b4-518e456ecfea","ios":"levelo://app?vid=5f60f5ce-6cdd-4cf0-88b4-518e456ecfea"},"vehicle_type_id":"4","last_reported":1726661809,"current_range_meters":17600,"station_id":"ce4bh0h2rcd13ifvqd50","pricing_plan_id":"cebpf4jnsgd1na2vs0mg"},{"bike_id":"6ff4ce02-3ef0-442c-aeaa-002d5008e739","system_id":"levelo_inurba_marseille","lat":43.32486,"lon":5.36582,"is_reserved":false,"is_disabled":false,"rental_uris":{"android":"levelo://app?vid=6ff4ce02-3ef0-442c-aeaa-002d5008e739","ios":"levelo://app?vid=6ff4ce02-3ef0-442c-aeaa-002d5008e739"},"vehicle_type_id":"4","last_reported":1726661809,"current_range_meters":30000,"station_id":"ce4bhs12rcd13ifvqhvg","pricing_plan_id":"cebpf4jnsgd1na2vs0mg"},{"bike_id":"2288ba81-535e-4010-b418-848c4cfcd2be","system_id":"levelo_inurba_marseille","lat":43.27494,"lon":5.42448,"is_reserved":false,"is_disabled":false,"rental_uris":{"android":"levelo://app?vid=2288ba81-535e-4010-b418-848c4cfcd2be","ios":"levelo://app?vid=2288ba81-535e-4010-b418-848c4cfcd2be"},"vehicle_type_id":"4","last_reported":1726661809,"current_range_meters":2800,"station_id":"ce4bhn92rcd13ifvqgrg","pricing_plan_id":"cebpf4jnsgd1na2vs0mg"},{"bike_id":"e1511f40-b206-41e9-a0dc-78b7df05ce8e","system_id":"levelo_inurba_marseille","lat":43.28941,"lon":5.36637,"is_reserved":false,"is_disabled":false,"rental_uris":{"android":"levelo://app?vid=e1511f40-b206-41e9-a0dc-78b7df05ce8e","ios":"levelo://app?vid=e1511f40-b206-41e9-a0dc-78b7df05ce8e"},"vehicle_type_id":"4","last_reported":1726661809,"current_range_meters":34000,"station_id":"ce4bhap2rcd13ifvqek0","pricing_plan_id":"cebpf4jnsgd1na2vs0mg"},{"bike_id":"3b284695-b855-4d46-aab1-90fadc311ca9","system_id":"levelo_inurba_marseille","lat":43.25824,"lon":5.39432,"is_reserved":false,"is_disabled":false,"rental_uris":{"android":"levelo://app?vid=3b284695-b855-4d46-aab1-90fadc311ca9","ios":"levelo://app?vid=3b284695-b855-4d46-aab1-90fadc311ca9"},"vehicle_type_id":"4","last_reported":1726661809,"current_range_meters":2800,"station_id":"ce4bhip2rcd13ifvqft0","pricing_plan_id":"cebpf4jnsgd1na2vs0mg"},{"bike_id":"cbaf03bf-0340-4293-a424-18d0ef0b595f","system_id":"levelo_inurba_marseille","lat":43.29899,"lon":5.43666,"is_reserved":false,"is_disabled":false,"rental_uris":{"android":"levelo://app?vid=cbaf03bf-0340-4293-a424-18d0ef0b595f","ios":"levelo://app?vid=cbaf03bf-0340-4293-a424-18d0ef0b595f"},"vehicle_type_id":"4","last_reported":1726661809,"current_range_meters":16400,"station_id":"ce4bhpp2rcd13ifvqhfg","pricing_plan_id":"cebpf4jnsgd1na2vs0mg"},{"bike_id":"4a418309-f677-48c8-891d-32b3b9c23345","system_id":"levelo_inurba_marseille","lat":43.23182,"lon":5.39981,"is_reserved":false,"is_disabled":false,"rental_uris":{"android":"levelo://app?vid=4a418309-f677-48c8-891d-32b3b9c23345","ios":"levelo://app?vid=4a418309-f677-48c8-891d-32b3b9c23345"},"vehicle_type_id":"4","last_reported":1726661809,"current_range_meters":28400,"station_id":"ce4bhn12rcd13ifvqgqg","pricing_plan_id":"cebpf4jnsgd1na2vs0mg"},{"bike_id":"0c8e5b27-7dac-4337-97fc-befadb0a0771","system_id":"levelo_inurba_marseille","lat":43.25121,"lon":5.40317,"is_reserved":false,"is_disabled":false,"rental_uris":{"android":"levelo://app?vid=0c8e5b27-7dac-4337-97fc-befadb0a0771","ios":"levelo://app?vid=0c8e5b27-7dac-4337-97fc-befadb0a0771"},"vehicle_type_id":"4","last_reported":1726661809,"current_range_meters":20800,"station_id":"ce4bhlh2rcd13ifvqgig","pricing_plan_id":"cebpf4jnsgd1na2vs0mg"},{"bike_id":"2b8109c9-565d-4a71-a153-5a5330af979d","system_id":"levelo_inurba_marseille","lat":43.279946,"lon":5.416541,"is_reserved":false,"is_disabled":false,"rental_uris":{"android":"levelo://app?vid=2b8109c9-565d-4a71-a153-5a5330af979d","ios":"levelo://app?vid=2b8109c9-565d-4a71-a153-5a5330af979d"},"vehicle_type_id":"4","last_reported":1726661809,"current_range_meters":8800,"station_id":"ce4bho12rcd13ifvqh1g","pricing_plan_id":"cebpf4jnsgd1na2vs0mg"},{"bike_id":"6d53b504-3879-4603-98cc-f34bd9e0a287","system_id":"levelo_inurba_marseille","lat":43.29789,"lon":5.39347,"is_reserved":false,"is_disabled":false,"rental_uris":{"android":"levelo://app?vid=6d53b504-3879-4603-98cc-f34bd9e0a287","ios":"levelo://app?vid=6d53b504-3879-4603-98cc-f34bd9e0a287"},"vehicle_type_id":"4","last_reported":1726661809,"current_range_meters":38400,"station_id":"chh1huq6cuj3fo74tm60","pricing_plan_id":"cebpf4jnsgd1na2vs0mg"},{"bike_id":"29fb8db0-bc72-45e8-9718-014b21f653e2","system_id":"levelo_inurba_marseille","lat":43.30536,"lon":5.36534,"is_reserved":false,"is_disabled":false,"rental_uris":{"android":"levelo://app?vid=29fb8db0-bc72-45e8-9718-014b21f653e2","ios":"levelo://app?vid=29fb8db0-bc72-45e8-9718-014b21f653e2"},"vehicle_type_id":"4","last_reported":1726661809,"current_range_meters":37600,"station_id":"ce4bgs12rcd13ifvqcag","pricing_plan_id":"cebpf4jnsgd1na2vs0mg"},{"bike_id":"827efdd9-8483-4778-886e-16c4a87f100d","system_id":"levelo_inurba_marseille","lat":43.271884,"lon":5.391174,"is_reserved":false,"is_disabled":false,"rental_uris":{"android":"levelo://app?vid=827efdd9-8483-4778-886e-16c4a87f100d","ios":"levelo://app?vid=827efdd9-8483-4778-886e-16c4a87f100d"},"vehicle_type_id":"4","last_reported":1726661809,"current_range_meters":30400,"station_id":"ce4bhhp2rcd13ifvqfm0","pricing_plan_id":"cebpf4jnsgd1na2vs0mg"},{"bike_id":"fa2e946d-01fe-4bb4-a2b0-55af60a0bcec","system_id":"levelo_inurba_marseille","lat":43.33731,"lon":5.39179,"is_reserved":false,"is_disabled":false,"rental_uris":{"android":"levelo://app?vid=fa2e946d-01fe-4bb4-a2b0-55af60a0bcec","ios":"levelo://app?vid=fa2e946d-01fe-4bb4-a2b0-55af60a0bcec"},"vehicle_type_id":"4","last_reported":1726661809,"current_range_meters":38800,"station_id":"ce4bhr92rcd13ifvqhsg","pricing_plan_id":"cebpf4jnsgd1na2vs0mg"},{"bike_id":"a225e308-9f3b-4239-997c-85b47c044156","system_id":"levelo_inurba_marseille","lat":43.25932,"lon":5.40918,"is_reserved":false,"is_disabled":false,"rental_uris":{"android":"levelo://app?vid=a225e308-9f3b-4239-997c-85b47c044156","ios":"levelo://app?vid=a225e308-9f3b-4239-997c-85b47c044156"},"vehicle_type_id":"4","last_reported":1726661809,"current_range_meters":30000,"station_id":"ce4bhm92rcd13ifvqglg","pricing_plan_id":"cebpf4jnsgd1na2vs0mg"},{"bike_id":"84441f72-fa93-4a01-ad61-519abb0196cf","system_id":"levelo_inurba_marseille","lat":43.29048,"lon":5.35913,"is_reserved":false,"is_disabled":false,"rental_uris":{"android":"levelo://app?vid=84441f72-fa93-4a01-ad61-519abb0196cf","ios":"levelo://app?vid=84441f72-fa93-4a01-ad61-519abb0196cf"},"vehicle_type_id":"4","last_reported":1726661809,"current_range_meters":39200,"station_id":"ce4bha92rcd13ifvqeg0","pricing_plan_id":"cebpf4jnsgd1na2vs0mg"},{"bike_id":"c11ebf5c-b2d3-4290-a13c-2ad74dd9fb71","system_id":"levelo_inurba_marseille","lat":43.30147,"lon":5.37419,"is_reserved":false,"is_disabled":false,"rental_uris":{"android":"levelo://app?vid=c11ebf5c-b2d3-4290-a13c-2ad74dd9fb71","ios":"levelo://app?vid=c11ebf5c-b2d3-4290-a13c-2ad74dd9fb71"},"vehicle_type_id":"4","last_reported":1726661809,"current_range_meters":6400,"station_id":"ce4bgs92rcd13ifvqcc0","pricing_plan_id":"cebpf4jnsgd1na2vs0mg"},{"bike_id":"7f8c5afb-39c9-452c-975f-bc75bc43fcf9","system_id":"levelo_inurba_marseille","lat":43.3054,"lon":5.36531,"is_reserved":false,"is_disabled":false,"rental_uris":{"android":"levelo://app?vid=7f8c5afb-39c9-452c-975f-bc75bc43fcf9","ios":"levelo://app?vid=7f8c5afb-39c9-452c-975f-bc75bc43fcf9"},"vehicle_type_id":"4","last_reported":1726661809,"current_range_meters":8400,"station_id":"ce4bgs12rcd13ifvqcag","pricing_plan_id":"cebpf4jnsgd1na2vs0mg"},{"bike_id":"328d45f9-980e-4811-97c0-47d761861509","system_id":"levelo_inurba_marseille","lat":43.29847,"lon":5.37836,"is_reserved":false,"is_disabled":false,"rental_uris":{"android":"levelo://app?vid=328d45f9-980e-4811-97c0-47d761861509","ios":"levelo://app?vid=328d45f9-980e-4811-97c0-47d761861509"},"vehicle_type_id":"4","last_reported":1726661809,"current_range_meters":11200,"station_id":"ce4bgkh2rcd13ifvqbl0","pricing_plan_id":"cebpf4jnsgd1na2vs0mg"},{"bike_id":"0ecf3999-1530-4190-bf9c-a5236a643bb7","system_id":"levelo_inurba_marseille","lat":43.2721,"lon":5.39173,"is_reserved":false,"is_disabled":false,"rental_uris":{"android":"levelo://app?vid=0ecf3999-1530-4190-bf9c-a5236a643bb7","ios":"levelo://app?vid=0ecf3999-1530-4190-bf9c-a5236a643bb7"},"vehicle_type_id":"4","last_reported":1726661809,"current_range_meters":38000,"station_id":"ce4bhhp2rcd13ifvqfm0","pricing_plan_id":"cebpf4jnsgd1na2vs0mg"},{"bike_id":"683db4d3-1408-4308-91bf-aa7166a33307","system_id":"levelo_inurba_marseille","lat":43.29304,"lon":5.37462,"is_reserved":false,"is_disabled":false,"rental_uris":{"android":"levelo://app?vid=683db4d3-1408-4308-91bf-aa7166a33307","ios":"levelo://app?vid=683db4d3-1408-4308-91bf-aa7166a33307"},"vehicle_type_id":"4","last_reported":1726661809,"current_range_meters":39200,"station_id":"ce4bgi12rcd13ifvqb70","pricing_plan_id":"cebpf4jnsgd1na2vs0mg"},{"bike_id":"a94c77f8-b42b-49e0-a316-8745fe816005","system_id":"levelo_inurba_marseille","lat":43.28397,"lon":5.37518,"is_reserved":false,"is_disabled":false,"rental_uris":{"android":"levelo://app?vid=a94c77f8-b42b-49e0-a316-8745fe816005","ios":"levelo://app?vid=a94c77f8-b42b-49e0-a316-8745fe816005"},"vehicle_type_id":"4","last_reported":1726661809,"current_range_meters":16800,"station_id":"ce4bh412rcd13ifvqds0","pricing_plan_id":"cebpf4jnsgd1na2vs0mg"},{"bike_id":"021fb09d-4bc7-4dde-9676-4552af7f0905","system_id":"levelo_inurba_marseille","lat":43.29308,"lon":5.37466,"is_reserved":false,"is_disabled":false,"rental_uris":{"android":"levelo://app?vid=021fb09d-4bc7-4dde-9676-4552af7f0905","ios":"levelo://app?vid=021fb09d-4bc7-4dde-9676-4552af7f0905"},"vehicle_type_id":"4","last_reported":1726661809,"current_range_meters":8800,"station_id":"ce4bgi12rcd13ifvqb70","pricing_plan_id":"cebpf4jnsgd1na2vs0mg"},{"bike_id":"fa690805-233a-4a70-a9f3-33f1b67cdb1f","system_id":"levelo_inurba_marseille","lat":43.32287,"lon":5.38253,"is_reserved":false,"is_disabled":false,"rental_uris":{"android":"levelo://app?vid=fa690805-233a-4a70-a9f3-33f1b67cdb1f","ios":"levelo://app?vid=fa690805-233a-4a70-a9f3-33f1b67cdb1f"},"vehicle_type_id":"4","last_reported":1726661809,"current_range_meters":28000,"station_id":"ce4bhr12rcd13ifvqhqg","pricing_plan_id":"cebpf4jnsgd1na2vs0mg"},{"bike_id":"d4dee6ce-09ee-4472-9917-4640f642bb72","system_id":"levelo_inurba_marseille","lat":43.2293,"lon":5.35379,"is_reserved":false,"is_disabled":false,"rental_uris":{"android":"levelo://app?vid=d4dee6ce-09ee-4472-9917-4640f642bb72","ios":"levelo://app?vid=d4dee6ce-09ee-4472-9917-4640f642bb72"},"vehicle_type_id":"4","last_reported":1726661809,"current_range_meters":28800,"station_id":"cpo3532slgdg3j2ikp40","pricing_plan_id":"cebpf4jnsgd1na2vs0mg"},{"bike_id":"8b608b96-fedf-4511-8d4b-09bad2606e1a","system_id":"levelo_inurba_marseille","lat":43.27733,"lon":5.41139,"is_reserved":false,"is_disabled":false,"rental_uris":{"android":"levelo://app?vid=8b608b96-fedf-4511-8d4b-09bad2606e1a","ios":"levelo://app?vid=8b608b96-fedf-4511-8d4b-09bad2606e1a"},"vehicle_type_id":"4","last_reported":1726661809,"current_range_meters":4800,"station_id":"","pricing_plan_id":"cebpf4jnsgd1na2vs0mg"},{"bike_id":"e8215741-0611-480f-8b5d-3c337556e93d","system_id":"levelo_inurba_marseille","lat":43.24386,"lon":5.3706,"is_reserved":false,"is_disabled":false,"rental_uris":{"android":"levelo://app?vid=e8215741-0611-480f-8b5d-3c337556e93d","ios":"levelo://app?vid=e8215741-0611-480f-8b5d-3c337556e93d"},"vehicle_type_id":"4","last_reported":1726661809,"current_range_meters":28400,"station_id":"ce4bhhh2rcd13ifvqfk0","pricing_plan_id":"cebpf4jnsgd1na2vs0mg"},{"bike_id":"74fcf1e7-64a1-42f8-bcec-bf0af491e527","system_id":"levelo_inurba_marseille","lat":43.31713,"lon":5.43705,"is_reserved":false,"is_disabled":false,"rental_uris":{"android":"levelo://app?vid=74fcf1e7-64a1-42f8-bcec-bf0af491e527","ios":"levelo://app?vid=74fcf1e7-64a1-42f8-bcec-bf0af491e527"},"vehicle_type_id":"4","last_reported":1726661809,"current_range_meters":38800,"station_id":"ce4bhp92rcd13ifvqhcg","pricing_plan_id":"cebpf4jnsgd1na2vs0mg"},{"bike_id":"1568d2cb-32bc-49ce-8e47-763403fa167e","system_id":"levelo_inurba_marseille","lat":43.31361,"lon":5.36739,"is_reserved":false,"is_disabled":false,"rental_uris":{"android":"levelo://app?vid=1568d2cb-32bc-49ce-8e47-763403fa167e","ios":"levelo://app?vid=1568d2cb-32bc-49ce-8e47-763403fa167e"},"vehicle_type_id":"4","last_reported":1726661809,"current_range_meters":31200,"station_id":"ce4bgr92rcd13ifvqc6g","pricing_plan_id":"cebpf4jnsgd1na2vs0mg"},{"bike_id":"dcd29b31-6835-4f71-8604-29c5360ee230","system_id":"levelo_inurba_marseille","lat":43.28987,"lon":5.37843,"is_reserved":false,"is_disabled":false,"rental_uris":{"android":"levelo://app?vid=dcd29b31-6835-4f71-8604-29c5360ee230","ios":"levelo://app?vid=dcd29b31-6835-4f71-8604-29c5360ee230"},"vehicle_type_id":"4","last_reported":1726661809,"current_range_meters":33600,"station_id":"ce4bh9p2rcd13ifvqed0","pricing_plan_id":"cebpf4jnsgd1na2vs0mg"},{"bike_id":"b34127f8-5178-47a4-b5aa-0bda1778c693","system_id":"levelo_inurba_marseille","lat":43.23187,"lon":5.39989,"is_reserved":false,"is_disabled":false,"rental_uris":{"android":"levelo://app?vid=b34127f8-5178-47a4-b5aa-0bda1778c693","ios":"levelo://app?vid=b34127f8-5178-47a4-b5aa-0bda1778c693"},"vehicle_type_id":"4","last_reported":1726661809,"current_range_meters":6400,"station_id":"ce4bhn12rcd13ifvqgqg","pricing_plan_id":"cebpf4jnsgd1na2vs0mg"},{"bike_id":"b05edf11-fa56-4784-ac49-4358032ff923","system_id":"levelo_inurba_marseille","lat":43.28937,"lon":5.36634,"is_reserved":false,"is_disabled":false,"rental_uris":{"android":"levelo://app?vid=b05edf11-fa56-4784-ac49-4358032ff923","ios":"levelo://app?vid=b05edf11-fa56-4784-ac49-4358032ff923"},"vehicle_type_id":"4","last_reported":1726661809,"current_range_meters":38800,"station_id":"ce4bhap2rcd13ifvqek0","pricing_plan_id":"cebpf4jnsgd1na2vs0mg"},{"bike_id":"2ae9adc7-73a4-4996-94a1-bd75ddcf6673","system_id":"levelo_inurba_marseille","lat":43.30912,"lon":5.36859,"is_reserved":false,"is_disabled":false,"rental_uris":{"android":"levelo://app?vid=2ae9adc7-73a4-4996-94a1-bd75ddcf6673","ios":"levelo://app?vid=2ae9adc7-73a4-4996-94a1-bd75ddcf6673"},"vehicle_type_id":"4","last_reported":1726661809,"current_range_meters":34800,"station_id":"ce4bgn92rcd13ifvqbvg","pricing_plan_id":"cebpf4jnsgd1na2vs0mg"},{"bike_id":"0f7561aa-0fa9-417e-b432-a5c4a0588518","system_id":"levelo_inurba_marseille","lat":43.22933,"lon":5.35376,"is_reserved":false,"is_disabled":false,"rental_uris":{"android":"levelo://app?vid=0f7561aa-0fa9-417e-b432-a5c4a0588518","ios":"levelo://app?vid=0f7561aa-0fa9-417e-b432-a5c4a0588518"},"vehicle_type_id":"4","last_reported":1726661809,"current_range_meters":22800,"station_id":"cpo3532slgdg3j2ikp40","pricing_plan_id":"cebpf4jnsgd1na2vs0mg"},{"bike_id":"ae55e842-b8f1-46b9-b0f1-425fe08e8086","system_id":"levelo_inurba_marseille","lat":43.29938,"lon":5.36547,"is_reserved":false,"is_disabled":false,"rental_uris":{"android":"levelo://app?vid=ae55e842-b8f1-46b9-b0f1-425fe08e8086","ios":"levelo://app?vid=ae55e842-b8f1-46b9-b0f1-425fe08e8086"},"vehicle_type_id":"4","last_reported":1726661809,"current_range_meters":30400,"station_id":"ce4bgm92rcd13ifvqbr0","pricing_plan_id":"cebpf4jnsgd1na2vs0mg"},{"bike_id":"caa0f34b-8b40-4c29-85a6-76c38487b57f","system_id":"levelo_inurba_marseille","lat":43.29259,"lon":5.36705,"is_reserved":false,"is_disabled":false,"rental_uris":{"android":"levelo://app?vid=caa0f34b-8b40-4c29-85a6-76c38487b57f","ios":"levelo://app?vid=caa0f34b-8b40-4c29-85a6-76c38487b57f"},"vehicle_type_id":"4","last_reported":1726661809,"current_range_meters":17600,"station_id":"ce4bgs12rcd13ifvqcag","pricing_plan_id":"cebpf4jnsgd1na2vs0mg"},{"bike_id":"08d8ce71-e1d0-49a6-b5fc-4c547ee23ceb","system_id":"levelo_inurba_marseille","lat":43.2885,"lon":5.39325,"is_reserved":false,"is_disabled":false,"rental_uris":{"android":"levelo://app?vid=08d8ce71-e1d0-49a6-b5fc-4c547ee23ceb","ios":"levelo://app?vid=08d8ce71-e1d0-49a6-b5fc-4c547ee23ceb"},"vehicle_type_id":"4","last_reported":1726661809,"current_range_meters":24400,"station_id":"ce4bh2p2rcd13ifvqdi0","pricing_plan_id":"cebpf4jnsgd1na2vs0mg"},{"bike_id":"298245cd-aa2b-4a4d-b334-c0a3fa25c03d","system_id":"levelo_inurba_marseille","lat":43.289368,"lon":5.383938,"is_reserved":false,"is_disabled":false,"rental_uris":{"android":"levelo://app?vid=298245cd-aa2b-4a4d-b334-c0a3fa25c03d","ios":"levelo://app?vid=298245cd-aa2b-4a4d-b334-c0a3fa25c03d"},"vehicle_type_id":"4","last_reported":1726661809,"current_range_meters":15200,"station_id":"ce4bh512rcd13ifvqe3g","pricing_plan_id":"cebpf4jnsgd1na2vs0mg"},{"bike_id":"19b41e84-3d25-4b44-903d-67b69827c344","system_id":"levelo_inurba_marseille","lat":43.2318,"lon":5.39995,"is_reserved":false,"is_disabled":false,"rental_uris":{"android":"levelo://app?vid=19b41e84-3d25-4b44-903d-67b69827c344","ios":"levelo://app?vid=19b41e84-3d25-4b44-903d-67b69827c344"},"vehicle_type_id":"4","last_reported":1726661809,"current_range_meters":4000,"station_id":"ce4bhn12rcd13ifvqgqg","pricing_plan_id":"cebpf4jnsgd1na2vs0mg"},{"bike_id":"da1a9713-42f8-451d-b375-496a9a3cf3eb","system_id":"levelo_inurba_marseille","lat":43.24667,"lon":5.38164,"is_reserved":false,"is_disabled":false,"rental_uris":{"android":"levelo://app?vid=da1a9713-42f8-451d-b375-496a9a3cf3eb","ios":"levelo://app?vid=da1a9713-42f8-451d-b375-496a9a3cf3eb"},"vehicle_type_id":"4","last_reported":1726661809,"current_range_meters":38000,"station_id":"ce4bhih2rcd13ifvqfr0","pricing_plan_id":"cebpf4jnsgd1na2vs0mg"},{"bike_id":"498a9975-f93a-42dc-9b2f-06fb60860407","system_id":"levelo_inurba_marseille","lat":43.23149,"lon":5.43727,"is_reserved":false,"is_disabled":false,"rental_uris":{"android":"levelo://app?vid=498a9975-f93a-42dc-9b2f-06fb60860407","ios":"levelo://app?vid=498a9975-f93a-42dc-9b2f-06fb60860407"},"vehicle_type_id":"4","last_reported":1726661809,"current_range_meters":24800,"station_id":"ce4bhmp2rcd13ifvqgog","pricing_plan_id":"cebpf4jnsgd1na2vs0mg"},{"bike_id":"15b391f8-82a1-45ba-80c4-3a85015bd649","system_id":"levelo_inurba_marseille","lat":43.32479,"lon":5.36577,"is_reserved":false,"is_disabled":false,"rental_uris":{"android":"levelo://app?vid=15b391f8-82a1-45ba-80c4-3a85015bd649","ios":"levelo://app?vid=15b391f8-82a1-45ba-80c4-3a85015bd649"},"vehicle_type_id":"4","last_reported":1726661809,"current_range_meters":36000,"station_id":"ce4bhs12rcd13ifvqhvg","pricing_plan_id":"cebpf4jnsgd1na2vs0mg"},{"bike_id":"7bb3d27d-6090-4033-82d0-86fa4b2ffe9a","system_id":"levelo_inurba_marseille","lat":43.29847,"lon":5.36267,"is_reserved":false,"is_disabled":false,"rental_uris":{"android":"levelo://app?vid=7bb3d27d-6090-4033-82d0-86fa4b2ffe9a","ios":"levelo://app?vid=7bb3d27d-6090-4033-82d0-86fa4b2ffe9a"},"vehicle_type_id":"4","last_reported":1726661809,"current_range_meters":38400,"station_id":"ce4bgpp2rcd13ifvqc3g","pricing_plan_id":"cebpf4jnsgd1na2vs0mg"},{"bike_id":"ebd4f5f2-2f35-4883-b334-5f070eefb734","system_id":"levelo_inurba_marseille","lat":43.27944,"lon":5.41046,"is_reserved":false,"is_disabled":false,"rental_uris":{"android":"levelo://app?vid=ebd4f5f2-2f35-4883-b334-5f070eefb734","ios":"levelo://app?vid=ebd4f5f2-2f35-4883-b334-5f070eefb734"},"vehicle_type_id":"4","last_reported":1726661809,"current_range_meters":19600,"station_id":"ce4bhnp2rcd13ifvqh0g","pricing_plan_id":"cebpf4jnsgd1na2vs0mg"},{"bike_id":"1fcbd01a-427d-43a5-9535-912c25efa134","system_id":"levelo_inurba_marseille","lat":43.23197,"lon":5.35546,"is_reserved":false,"is_disabled":false,"rental_uris":{"android":"levelo://app?vid=1fcbd01a-427d-43a5-9535-912c25efa134","ios":"levelo://app?vid=1fcbd01a-427d-43a5-9535-912c25efa134"},"vehicle_type_id":"4","last_reported":1726661809,"current_range_meters":38000,"station_id":"ce4bhu92rcd13ifvqi70","pricing_plan_id":"cebpf4jnsgd1na2vs0mg"},{"bike_id":"a682371d-ede3-4757-8d77-ca527ee895ef","system_id":"levelo_inurba_marseille","lat":43.27375,"lon":5.36253,"is_reserved":false,"is_disabled":false,"rental_uris":{"android":"levelo://app?vid=a682371d-ede3-4757-8d77-ca527ee895ef","ios":"levelo://app?vid=a682371d-ede3-4757-8d77-ca527ee895ef"},"vehicle_type_id":"4","last_reported":1726661809,"current_range_meters":39200,"station_id":"ce4bhbh2rcd13ifvqeo0","pricing_plan_id":"cebpf4jnsgd1na2vs0mg"},{"bike_id":"38fe9352-6de4-4cfc-9cd2-3b888e14bfba","system_id":"levelo_inurba_marseille","lat":43.24176,"lon":5.39733,"is_reserved":false,"is_disabled":false,"rental_uris":{"android":"levelo://app?vid=38fe9352-6de4-4cfc-9cd2-3b888e14bfba","ios":"levelo://app?vid=38fe9352-6de4-4cfc-9cd2-3b888e14bfba"},"vehicle_type_id":"4","last_reported":1726661809,"current_range_meters":36800,"station_id":"ce4bhn12rcd13ifvqgpg","pricing_plan_id":"cebpf4jnsgd1na2vs0mg"},{"bike_id":"27109f1d-8ca1-4ba1-8193-7ca41a45028e","system_id":"levelo_inurba_marseille","lat":43.2669,"lon":5.38267,"is_reserved":false,"is_disabled":false,"rental_uris":{"android":"levelo://app?vid=27109f1d-8ca1-4ba1-8193-7ca41a45028e","ios":"levelo://app?vid=27109f1d-8ca1-4ba1-8193-7ca41a45028e"},"vehicle_type_id":"4","last_reported":1726661809,"current_range_meters":30000,"station_id":"ce4bhg92rcd13ifvqf90","pricing_plan_id":"cebpf4jnsgd1na2vs0mg"},{"bike_id":"321f1d67-22ab-4889-b12f-adf96aac164d","system_id":"levelo_inurba_marseille","lat":43.3055,"lon":5.36539,"is_reserved":false,"is_disabled":false,"rental_uris":{"android":"levelo://app?vid=321f1d67-22ab-4889-b12f-adf96aac164d","ios":"levelo://app?vid=321f1d67-22ab-4889-b12f-adf96aac164d"},"vehicle_type_id":"4","last_reported":1726661809,"current_range_meters":28800,"station_id":"ce4bgs12rcd13ifvqcag","pricing_plan_id":"cebpf4jnsgd1na2vs0mg"},{"bike_id":"e5ce120e-f189-4882-876a-d185220bcf95","system_id":"levelo_inurba_marseille","lat":43.3302,"lon":5.39049,"is_reserved":false,"is_disabled":false,"rental_uris":{"android":"levelo://app?vid=e5ce120e-f189-4882-876a-d185220bcf95","ios":"levelo://app?vid=e5ce120e-f189-4882-876a-d185220bcf95"},"vehicle_type_id":"4","last_reported":1726661809,"current_range_meters":10000,"station_id":"ce4bhr92rcd13ifvqhrg","pricing_plan_id":"cebpf4jnsgd1na2vs0mg"},{"bike_id":"0ccb72de-41bb-4947-b1f9-f070c862d606","system_id":"levelo_inurba_marseille","lat":43.300309,"lon":5.380786,"is_reserved":false,"is_disabled":false,"rental_uris":{"android":"levelo://app?vid=0ccb72de-41bb-4947-b1f9-f070c862d606","ios":"levelo://app?vid=0ccb72de-41bb-4947-b1f9-f070c862d606"},"vehicle_type_id":"4","last_reported":1726661809,"current_range_meters":35200,"station_id":"ce4bgjp2rcd13ifvqbh0","pricing_plan_id":"cebpf4jnsgd1na2vs0mg"},{"bike_id":"7817dd2a-009b-46c7-aa0a-ce18bf959fb4","system_id":"levelo_inurba_marseille","lat":43.301459,"lon":5.37418,"is_reserved":false,"is_disabled":false,"rental_uris":{"android":"levelo://app?vid=7817dd2a-009b-46c7-aa0a-ce18bf959fb4","ios":"levelo://app?vid=7817dd2a-009b-46c7-aa0a-ce18bf959fb4"},"vehicle_type_id":"4","last_reported":1726661809,"current_range_meters":16400,"station_id":"ce4bgs92rcd13ifvqcc0","pricing_plan_id":"cebpf4jnsgd1na2vs0mg"},{"bike_id":"0f6401ba-8693-4f1f-a191-d2bf3385c473","system_id":"levelo_inurba_marseille","lat":43.28937,"lon":5.36641,"is_reserved":false,"is_disabled":false,"rental_uris":{"android":"levelo://app?vid=0f6401ba-8693-4f1f-a191-d2bf3385c473","ios":"levelo://app?vid=0f6401ba-8693-4f1f-a191-d2bf3385c473"},"vehicle_type_id":"4","last_reported":1726661809,"current_range_meters":17200,"station_id":"ce4bhap2rcd13ifvqek0","pricing_plan_id":"cebpf4jnsgd1na2vs0mg"},{"bike_id":"6f387a41-1a28-4619-ac86-26875678b81b","system_id":"levelo_inurba_marseille","lat":43.29899,"lon":5.43668,"is_reserved":false,"is_disabled":false,"rental_uris":{"android":"levelo://app?vid=6f387a41-1a28-4619-ac86-26875678b81b","ios":"levelo://app?vid=6f387a41-1a28-4619-ac86-26875678b81b"},"vehicle_type_id":"4","last_reported":1726661809,"current_range_meters":16000,"station_id":"ce4bhpp2rcd13ifvqhfg","pricing_plan_id":"cebpf4jnsgd1na2vs0mg"},{"bike_id":"fd58a34b-6872-4eee-8898-fe38ffb41a01","system_id":"levelo_inurba_marseille","lat":43.31327,"lon":5.39701,"is_reserved":false,"is_disabled":false,"rental_uris":{"android":"levelo://app?vid=fd58a34b-6872-4eee-8898-fe38ffb41a01","ios":"levelo://app?vid=fd58a34b-6872-4eee-8898-fe38ffb41a01"},"vehicle_type_id":"4","last_reported":1726661809,"current_range_meters":18800,"station_id":"ce4bgvp2rcd13ifvqcu0","pricing_plan_id":"cebpf4jnsgd1na2vs0mg"},{"bike_id":"66075e51-c532-41b2-837a-c8514ef0a0cb","system_id":"levelo_inurba_marseille","lat":43.25729,"lon":5.41109,"is_reserved":false,"is_disabled":false,"rental_uris":{"android":"levelo://app?vid=66075e51-c532-41b2-837a-c8514ef0a0cb","ios":"levelo://app?vid=66075e51-c532-41b2-837a-c8514ef0a0cb"},"vehicle_type_id":"4","last_reported":1726661809,"current_range_meters":8000,"station_id":"ce4bhkp2rcd13ifvqgd0","pricing_plan_id":"cebpf4jnsgd1na2vs0mg"},{"bike_id":"8d205185-9039-40cf-ab9c-0b437a5b0eeb","system_id":"levelo_inurba_marseille","lat":43.25935,"lon":5.40912,"is_reserved":false,"is_disabled":false,"rental_uris":{"android":"levelo://app?vid=8d205185-9039-40cf-ab9c-0b437a5b0eeb","ios":"levelo://app?vid=8d205185-9039-40cf-ab9c-0b437a5b0eeb"},"vehicle_type_id":"4","last_reported":1726661809,"current_range_meters":36000,"station_id":"ce4bhm92rcd13ifvqglg","pricing_plan_id":"cebpf4jnsgd1na2vs0mg"},{"bike_id":"eaa8e44f-530c-4d18-8f60-bedb254a178c","system_id":"levelo_inurba_marseille","lat":43.32001,"lon":5.38145,"is_reserved":false,"is_disabled":false,"rental_uris":{"android":"levelo://app?vid=eaa8e44f-530c-4d18-8f60-bedb254a178c","ios":"levelo://app?vid=eaa8e44f-530c-4d18-8f60-bedb254a178c"},"vehicle_type_id":"4","last_reported":1726661809,"current_range_meters":38000,"station_id":"ce4bhr12rcd13ifvqhpg","pricing_plan_id":"cebpf4jnsgd1na2vs0mg"},{"bike_id":"af19cee2-2d71-43d3-9ec9-cf489e3615b0","system_id":"levelo_inurba_marseille","lat":43.23965,"lon":5.36631,"is_reserved":false,"is_disabled":false,"rental_uris":{"android":"levelo://app?vid=af19cee2-2d71-43d3-9ec9-cf489e3615b0","ios":"levelo://app?vid=af19cee2-2d71-43d3-9ec9-cf489e3615b0"},"vehicle_type_id":"4","last_reported":1726661809,"current_range_meters":35200,"station_id":"ce4bhi12rcd13ifvqfp0","pricing_plan_id":"cebpf4jnsgd1na2vs0mg"},{"bike_id":"e809c7fb-aedd-4f5d-958f-9834eaa83ae5","system_id":"levelo_inurba_marseille","lat":43.27213,"lon":5.39176,"is_reserved":false,"is_disabled":false,"rental_uris":{"android":"levelo://app?vid=e809c7fb-aedd-4f5d-958f-9834eaa83ae5","ios":"levelo://app?vid=e809c7fb-aedd-4f5d-958f-9834eaa83ae5"},"vehicle_type_id":"4","last_reported":1726661809,"current_range_meters":8400,"station_id":"ce4bhhp2rcd13ifvqfm0","pricing_plan_id":"cebpf4jnsgd1na2vs0mg"},{"bike_id":"0b5d0cb6-ef84-4166-9176-1ac0adba0dcd","system_id":"levelo_inurba_marseille","lat":43.30144,"lon":5.37416,"is_reserved":false,"is_disabled":false,"rental_uris":{"android":"levelo://app?vid=0b5d0cb6-ef84-4166-9176-1ac0adba0dcd","ios":"levelo://app?vid=0b5d0cb6-ef84-4166-9176-1ac0adba0dcd"},"vehicle_type_id":"4","last_reported":1726661809,"current_range_meters":37600,"station_id":"ce4bgs92rcd13ifvqcc0","pricing_plan_id":"cebpf4jnsgd1na2vs0mg"},{"bike_id":"67efb6ee-ebb3-43aa-835f-8448b00affdf","system_id":"levelo_inurba_marseille","lat":43.3028,"lon":5.37695,"is_reserved":false,"is_disabled":false,"rental_uris":{"android":"levelo://app?vid=67efb6ee-ebb3-43aa-835f-8448b00affdf","ios":"levelo://app?vid=67efb6ee-ebb3-43aa-835f-8448b00affdf"},"vehicle_type_id":"4","last_reported":1726661809,"current_range_meters":39200,"station_id":"ce4bguh2rcd13ifvqcj0","pricing_plan_id":"cebpf4jnsgd1na2vs0mg"},{"bike_id":"b7523c11-0564-492c-9b7e-344c73303f66","system_id":"levelo_inurba_marseille","lat":43.31353,"lon":5.36713,"is_reserved":false,"is_disabled":false,"rental_uris":{"android":"levelo://app?vid=b7523c11-0564-492c-9b7e-344c73303f66","ios":"levelo://app?vid=b7523c11-0564-492c-9b7e-344c73303f66"},"vehicle_type_id":"4","last_reported":1726661809,"current_range_meters":39200,"station_id":"ce4bgr92rcd13ifvqc6g","pricing_plan_id":"cebpf4jnsgd1na2vs0mg"},{"bike_id":"f941f2f3-6ddd-40dd-839b-452af6f824cc","system_id":"levelo_inurba_marseille","lat":43.30141,"lon":5.37418,"is_reserved":false,"is_disabled":false,"rental_uris":{"android":"levelo://app?vid=f941f2f3-6ddd-40dd-839b-452af6f824cc","ios":"levelo://app?vid=f941f2f3-6ddd-40dd-839b-452af6f824cc"},"vehicle_type_id":"4","last_reported":1726661809,"current_range_meters":16000,"station_id":"ce4bgs92rcd13ifvqcc0","pricing_plan_id":"cebpf4jnsgd1na2vs0mg"},{"bike_id":"b52fada4-82b9-4a0d-aa7a-2ad5c333583a","system_id":"levelo_inurba_marseille","lat":43.30142,"lon":5.37421,"is_reserved":false,"is_disabled":false,"rental_uris":{"android":"levelo://app?vid=b52fada4-82b9-4a0d-aa7a-2ad5c333583a","ios":"levelo://app?vid=b52fada4-82b9-4a0d-aa7a-2ad5c333583a"},"vehicle_type_id":"4","last_reported":1726661809,"current_range_meters":20000,"station_id":"ce4bgs92rcd13ifvqcc0","pricing_plan_id":"cebpf4jnsgd1na2vs0mg"},{"bike_id":"6bb9dfe1-e95e-4e11-b4c4-db9020739bcc","system_id":"levelo_inurba_marseille","lat":43.26783,"lon":5.39415,"is_reserved":false,"is_disabled":false,"rental_uris":{"android":"levelo://app?vid=6bb9dfe1-e95e-4e11-b4c4-db9020739bcc","ios":"levelo://app?vid=6bb9dfe1-e95e-4e11-b4c4-db9020739bcc"},"vehicle_type_id":"4","last_reported":1726661809,"current_range_meters":5600,"station_id":"ce4bhh12rcd13ifvqfg0","pricing_plan_id":"cebpf4jnsgd1na2vs0mg"},{"bike_id":"6a6b3a8a-4cca-4541-b36c-6eb384390cb1","system_id":"levelo_inurba_marseille","lat":43.28699,"lon":5.39985,"is_reserved":false,"is_disabled":false,"rental_uris":{"android":"levelo://app?vid=6a6b3a8a-4cca-4541-b36c-6eb384390cb1","ios":"levelo://app?vid=6a6b3a8a-4cca-4541-b36c-6eb384390cb1"},"vehicle_type_id":"4","last_reported":1726661809,"current_range_meters":32800,"station_id":"ce4bho92rcd13ifvqh3g","pricing_plan_id":"cebpf4jnsgd1na2vs0mg"},{"bike_id":"cd818b24-2f87-4d48-8020-124d29d13928","system_id":"levelo_inurba_marseille","lat":43.26209,"lon":5.37439,"is_reserved":false,"is_disabled":false,"rental_uris":{"android":"levelo://app?vid=cd818b24-2f87-4d48-8020-124d29d13928","ios":"levelo://app?vid=cd818b24-2f87-4d48-8020-124d29d13928"},"vehicle_type_id":"4","last_reported":1726661809,"current_range_meters":27200,"station_id":"ce4bhgp2rcd13ifvqfc0","pricing_plan_id":"cebpf4jnsgd1na2vs0mg"},{"bike_id":"b2d80a0a-0909-4592-8a00-62fbbab09557","system_id":"levelo_inurba_marseille","lat":43.28413,"lon":5.37513,"is_reserved":false,"is_disabled":false,"rental_uris":{"android":"levelo://app?vid=b2d80a0a-0909-4592-8a00-62fbbab09557","ios":"levelo://app?vid=b2d80a0a-0909-4592-8a00-62fbbab09557"},"vehicle_type_id":"4","last_reported":1726661809,"current_range_meters":18000,"station_id":"ce4bh412rcd13ifvqds0","pricing_plan_id":"cebpf4jnsgd1na2vs0mg"},{"bike_id":"4c034b9f-cbab-4e04-b5bc-ee83cd01a53c","system_id":"levelo_inurba_marseille","lat":43.32288,"lon":5.38278,"is_reserved":false,"is_disabled":false,"rental_uris":{"android":"levelo://app?vid=4c034b9f-cbab-4e04-b5bc-ee83cd01a53c","ios":"levelo://app?vid=4c034b9f-cbab-4e04-b5bc-ee83cd01a53c"},"vehicle_type_id":"4","last_reported":1726661809,"current_range_meters":30400,"station_id":"ce4bhr12rcd13ifvqhqg","pricing_plan_id":"cebpf4jnsgd1na2vs0mg"},{"bike_id":"2bac6b95-c690-4ab2-b52d-9cb898650d90","system_id":"levelo_inurba_marseille","lat":43.32366,"lon":5.38886,"is_reserved":false,"is_disabled":false,"rental_uris":{"android":"levelo://app?vid=2bac6b95-c690-4ab2-b52d-9cb898650d90","ios":"levelo://app?vid=2bac6b95-c690-4ab2-b52d-9cb898650d90"},"vehicle_type_id":"4","last_reported":1726661809,"current_range_meters":22800,"station_id":"ce4bhqp2rcd13ifvqhog","pricing_plan_id":"cebpf4jnsgd1na2vs0mg"},