{"last_updated":1758809449,"ttl":60,"version":"2.2","data":{"bikes":[{"bike_id":"9f81c461-cbe3-4776-84db-f8625f1e0fc3","system_id":"levelo_inurba_marseille","lat":43.31484,"lon":5.37305,"is_reserved":false,"is_disabled":false,"rental_uris":{"android":"levelo://app?vid=9f81c461-cbe3-4776-84db-f8625f1e0fc3","ios":"levelo://app?vid=9f81c461-cbe3-4776-84db-f8625f1e0fc3"},"vehicle_type_id":"4","last_reported":1758809449,"current_range_meters":2800,"station_id":"ce4bgt12rcd13ifvqcd0","pricing_plan_id":"cebpf4jnsgd1na2vs0mg"},{"bike_id":"07769fdc-2a72-4d7a-969c-633f02c8f0b3","system_id":"levelo_inurba_marseille","lat":43.28268,"lon":5.3506,"is_reserved":false,"is_disabled":false,"rental_uris":{"android":"levelo://app?vid=07769fdc-2a72-4d7a-969c-633f02c8f0b3","ios":"levelo://app?vid=07769fdc-2a72-4d7a-969c-633f02c8f0b3"},"vehicle_type_id":"4","last_reported":1758809449,"current_range_meters":2800,"station_id":"ce4bhbp2rcd13ifvqerg","pricing_plan_id":"cebpf4jnsgd1na2vs0mg"},{"bike_id":"8886854f-c29c-4097-9aa6-e9cbcb1ed4e8","system_id":"levelo_inurba_marseille","lat":43.30602,"lon":5.37224,"is_reserved":false,"is_disabled":false,"rental_uris":{"android":"levelo://app?vid=8886854f-c29c-4097-9aa6-e9cbcb1ed4e8","ios":"levelo://app?vid=8886854f-c29c-4097-9aa6-e9cbcb1ed4e8"},"vehicle_type_id":"4","last_reported":1758809449,"current_range_meters":2000,"station_id":"ce4bgqh2rcd13ifvqc4g","pricing_plan_id":"cebpf4jnsgd1na2vs0mg"},{"bike_id":"889eb569-6cbf-43ca-8286-72486385194e","system_id":"levelo_inurba_marseille","lat":43.29531,"lon":5.3941,"is_reserved":false,"is_disabled":false,"rental_uris":{"android":"levelo://app?vid=889eb569-6cbf-43ca-8286-72486385194e","ios":"levelo://app?vid=889eb569-6cbf-43ca-8286-72486385194e"},"vehicle_type_id":"4","last_reported":1758809449,"current_range_meters":3200,"station_id":"ce4bh292rcd13ifvqdf0","pricing_plan_id":"cebpf4jnsgd1na2vs0mg"},{"bike_id":"20d0f0fb-c89a-44ce-b7d1-50a8032ef295","system_id":"levelo_inurba_marseille","lat":43.30193,"lon":5.36605,"is_reserved":false,"is_disabled":false,"rental_uris":{"android":"levelo://app?vid=20d0f0fb-c89a-44ce-b7d1-50a8032ef295","ios":"levelo://app?vid=20d0f0fb-c89a-44ce-b7d1-50a8032ef295"},"vehicle_type_id":"4","last_reported":1758809449,"current_range_meters":3600,"station_id":"ce4bgrh2rcd13ifvqc8g","pricing_plan_id":"cebpf4jnsgd1na2vs0mg"},{"bike_id":"9446425e-0a86-42ae-bc3c-f72ad738e590","system_id":"levelo_inurba_marseille","lat":43.33655,"lon":5.36287,"is_reserved":false,"is_disabled":false,"rental_uris":{"android":"levelo://app?vid=9446425e-0a86-42ae-bc3c-f72ad738e590","ios":"levelo://app?vid=9446425e-0a86-42ae-bc3c-f72ad738e590"},"vehicle_type_id":"4","last_reported":1758809449,"current_range_meters":3600,"station_id":"","pricing_plan_id":"cebpf4jnsgd1na2vs0mg"},{"bike_id":"1efddf8d-578f-4e4c-8c3f-e3a8bd592ba4","system_id":"levelo_inurba_marseille","lat":43.29953,"lon":5.37317,"is_reserved":false,"is_disabled":false,"rental_uris":{"android":"levelo://app?vid=1efddf8d-578f-4e4c-8c3f-e3a8bd592ba4","ios":"levelo://app?vid=1efddf8d-578f-4e4c-8c3f-e3a8bd592ba4"},"vehicle_type_id":"4","last_reported":1758809449,"current_range_meters":4000,"station_id":"","pricing_plan_id":"cebpf4jnsgd1na2vs0mg"},{"bike_id":"64736d13-ab19-48e2-a44d-e4bcfd2749d8","system_id":"levelo_inurba_marseille","lat":43.28273,"lon":5.35075,"is_reserved":false,"is_disabled":false,"rental_uris":{"android":"levelo://app?vid=64736d13-ab19-48e2-a44d-e4bcfd2749d8","ios":"levelo://app?vid=64736d13-ab19-48e2-a44d-e4bcfd2749d8"},"vehicle_type_id":"4","last_reported":1758809449,"current_range_meters":4000,"station_id":"ce4bhbp2rcd13ifvqerg","pricing_plan_id":"cebpf4jnsgd1na2vs0mg"},{"bike_id":"d75c1f77-1f18-40aa-94b6-684e7d6977b6","system_id":"levelo_inurba_marseille","lat":43.2978,"lon":5.39321,"is_reserved":false,"is_disabled":false,"rental_uris":{"android":"levelo://app?vid=d75c1f77-1f18-40aa-94b6-684e7d6977b6","ios":"levelo://app?vid=d75c1f77-1f18-40aa-94b6-684e7d6977b6"},"vehicle_type_id":"4","last_reported":1758809449,"current_range_meters":4000,"station_id":"chh1huq6cuj3fo74tm60","pricing_plan_id":"cebpf4jnsgd1na2vs0mg"},{"bike_id":"c186aae7-800e-4bc7-9e80-838ab4e22ef3","system_id":"levelo_inurba_marseille","lat":43.30133,"lon":5.39874,"is_reserved":false,"is_disabled":false,"rental_uris":{"android":"levelo://app?vid=c186aae7-800e-4bc7-9e80-838ab4e22ef3","ios":"levelo://app?vid=c186aae7-800e-4bc7-9e80-838ab4e22ef3"},"vehicle_type_id":"4","last_reported":1758809449,"current_range_meters":4000,"station_id":"ce4bh0h2rcd13ifvqd40","pricing_plan_id":"cebpf4jnsgd1na2vs0mg"},{"bike_id":"04fe2832-9fec-4fee-bc94-072596dd824d","system_id":"levelo_inurba_marseille","lat":43.25333,"lon":5.42172,"is_reserved":false,"is_disabled":false,"rental_uris":{"android":"levelo://app?vid=04fe2832-9fec-4fee-bc94-072596dd824d","ios":"levelo://app?vid=04fe2832-9fec-4fee-bc94-072596dd824d"},"vehicle_type_id":"4","last_reported":1758809449,"current_range_meters":4400,"station_id":"st_d2m65c5bi1j21697t3ng","pricing_plan_id":"cebpf4jnsgd1na2vs0mg"},{"bike_id":"2db4deb6-9c11-4acd-bde4-6352f5b50b79","system_id":"levelo_inurba_marseille","lat":43.2842,"lon":5.34986,"is_reserved":false,"is_disabled":false,"rental_uris":{"android":"levelo://app?vid=2db4deb6-9c11-4acd-bde4-6352f5b50b79","ios":"levelo://app?vid=2db4deb6-9c11-4acd-bde4-6352f5b50b79"},"vehicle_type_id":"4","last_reported":1758809449,"current_range_meters":4400,"station_id":"ce4bhbh2rcd13ifvqepg","pricing_plan_id":"cebpf4jnsgd1na2vs0mg"},{"bike_id":"953afe76-cb66-45c7-95a6-f714bce22dee","system_id":"levelo_inurba_marseille","lat":43.25108,"lon":5.40305,"is_reserved":false,"is_disabled":false,"rental_uris":{"android":"levelo://app?vid=953afe76-cb66-45c7-95a6-f714bce22dee","ios":"levelo://app?vid=953afe76-cb66-45c7-95a6-f714bce22dee"},"vehicle_type_id":"4","last_reported":1758809449,"current_range_meters":4400,"station_id":"ce4bhlh2rcd13ifvqgig","pricing_plan_id":"cebpf4jnsgd1na2vs0mg"},{"bike_id":"d8c6a9f3-39d1-454a-9e79-8fd3b93849ad","system_id":"levelo_inurba_marseille","lat":43.30507,"lon":5.36725,"is_reserved":false,"is_disabled":false,"rental_uris":{"android":"levelo://app?vid=d8c6a9f3-39d1-454a-9e79-8fd3b93849ad","ios":"levelo://app?vid=d8c6a9f3-39d1-454a-9e79-8fd3b93849ad"},"vehicle_type_id":"4","last_reported":1758809449,"current_range_meters":4400,"station_id":"ce4bgrp2rcd13ifvqc9g","pricing_plan_id":"cebpf4jnsgd1na2vs0mg"},{"bike_id":"965b4c60-c334-4908-a23e-eb01558fc0f9","system_id":"levelo_inurba_marseille","lat":43.30549,"lon":5.36527,"is_reserved":false,"is_disabled":false,"rental_uris":{"android":"levelo://app?vid=965b4c60-c334-4908-a23e-eb01558fc0f9","ios":"levelo://app?vid=965b4c60-c334-4908-a23e-eb01558fc0f9"},"vehicle_type_id":"4","last_reported":1758809449,"current_range_meters":4400,"station_id":"ce4bgs12rcd13ifvqcag","pricing_plan_id":"cebpf4jnsgd1na2vs0mg"},{"bike_id":"05ce00f6-e64a-4aad-be7c-afa6cb0ba981","system_id":"levelo_inurba_marseille","lat":43.24071,"lon":5.37759,"is_reserved":false,"is_disabled":false,"rental_uris":{"android":"levelo://app?vid=05ce00f6-e64a-4aad-be7c-afa6cb0ba981","ios":"levelo://app?vid=05ce00f6-e64a-4aad-be7c-afa6cb0ba981"},"vehicle_type_id":"4","last_reported":1758809449,"current_range_meters":4800,"station_id":"ce4bhnp2rcd13ifvqgvg","pricing_plan_id":"cebpf4jnsgd1na2vs0mg"},{"bike_id":"3d476d69-4af4-40a8-8ecd-153d3d338261","system_id":"levelo_inurba_marseille","lat":43.271763,"lon":5.429548,"is_reserved":false,"is_disabled":false,"rental_uris":{"android":"levelo://app?vid=3d476d69-4af4-40a8-8ecd-153d3d338261","ios":"levelo://app?vid=3d476d69-4af4-40a8-8ecd-153d3d338261"},"vehicle_type_id":"4","last_reported":1758809449,"current_range_meters":5600,"station_id":"","pricing_plan_id":"cebpf4jnsgd1na2vs0mg"},{"bike_id":"7c0482c3-9253-4d1b-b4f3-be55cdb7721d","system_id":"levelo_inurba_marseille","lat":43.33757,"lon":5.37466,"is_reserved":false,"is_disabled":false,"rental_uris":{"android":"levelo://app?vid=7c0482c3-9253-4d1b-b4f3-be55cdb7721d","ios":"levelo://app?vid=7c0482c3-9253-4d1b-b4f3-be55cdb7721d"},"vehicle_type_id":"4","last_reported":1758809449,"current_range_meters":5600,"station_id":"","pricing_plan_id":"cebpf4jnsgd1na2vs0mg"},{"bike_id":"4a09d0ab-d20d-42b4-9811-5b1518ae9c01","system_id":"levelo_inurba_marseille","lat":43.290331,"lon":5.386488,"is_reserved":false,"is_disabled":false,"rental_uris":{"android":"levelo://app?vid=4a09d0ab-d20d-42b4-9811-5b1518ae9c01","ios":"levelo://app?vid=4a09d0ab-d20d-42b4-9811-5b1518ae9c01"},"vehicle_type_id":"4","last_reported":1758809449,"current_range_meters":5600,"station_id":"ce4bhah2rcd13ifvqei0","pricing_plan_id":"cebpf4jnsgd1na2vs0mg"},{"bike_id":"5ddda237-2ac6-42de-99e0-401cf42b0576","system_id":"levelo_inurba_marseille","lat":43.26059,"lon":5.394,"is_reserved":false,"is_disabled":false,"rental_uris":{"android":"levelo://app?vid=5ddda237-2ac6-42de-99e0-401cf42b0576","ios":"levelo://app?vid=5ddda237-2ac6-42de-99e0-401cf42b0576"},"vehicle_type_id":"4","last_reported":1758809449,"current_range_meters":5600,"station_id":"ce4bhh92rcd13ifvqfj0","pricing_plan_id":"cebpf4jnsgd1na2vs0mg"},{"bike_id":"30ba1361-8bf9-42be-8c65-3532be8a0186","system_id":"levelo_inurba_marseille","lat":43.29523,"lon":5.385405,"is_reserved":false,"is_disabled":false,"rental_uris":{"android":"levelo://app?vid=30ba1361-8bf9-42be-8c65-3532be8a0186","ios":"levelo://app?vid=30ba1361-8bf9-42be-8c65-3532be8a0186"},"vehicle_type_id":"4","last_reported":1758809449,"current_range_meters":5600,"station_id":"ce4bgih2rcd13ifvqba0","pricing_plan_id":"cebpf4jnsgd1na2vs0mg"},{"bike_id":"e70308b9-36c1-4d7c-967d-e4c6b3cbc1b4","system_id":"levelo_inurba_marseille","lat":43.29627,"lon":5.37728,"is_reserved":false,"is_disabled":false,"rental_uris":{"android":"levelo://app?vid=e70308b9-36c1-4d7c-967d-e4c6b3cbc1b4","ios":"levelo://app?vid=e70308b9-36c1-4d7c-967d-e4c6b3cbc1b4"},"vehicle_type_id":"4","last_reported":1758809449,"current_range_meters":5600,"station_id":"ce4bgi92rcd13ifvqb90","pricing_plan_id":"cebpf4jnsgd1na2vs0mg"},{"bike_id":"c7b58e96-1cba-4eca-b061-aca358729f43","system_id":"levelo_inurba_marseille","lat":43.30244,"lon":5.40043,"is_reserved":false,"is_disabled":false,"rental_uris":{"android":"levelo://app?vid=c7b58e96-1cba-4eca-b061-aca358729f43","ios":"levelo://app?vid=c7b58e96-1cba-4eca-b061-aca358729f43"},"vehicle_type_id":"4","last_reported":1758809449,"current_range_meters":6000,"station_id":"ce4bgvh2rcd13ifvqcs0","pricing_plan_id":"cebpf4jnsgd1na2vs0mg"},{"bike_id":"2145fbc9-a035-4cd6-9249-6f280654b464","system_id":"levelo_inurba_marseille","lat":43.293737,"lon":5.378414,"is_reserved":false,"is_disabled":false,"rental_uris":{"android":"levelo://app?vid=2145fbc9-a035-4cd6-9249-6f280654b464","ios":"levelo://app?vid=2145fbc9-a035-4cd6-9249-6f280654b464"},"vehicle_type_id":"4","last_reported":1758809449,"current_range_meters":5600,"station_id":"ce4bgjh2rcd13ifvqbf0","pricing_plan_id":"cebpf4jnsgd1na2vs0mg"},{"bike_id":"939538dc-20bd-4d94-8a10-8e1e0a179bc7","system_id":"levelo_inurba_marseille","lat":43.30481,"lon":5.36668,"is_reserved":false,"is_disabled":false,"rental_uris":{"android":"levelo://app?vid=939538dc-20bd-4d94-8a10-8e1e0a179bc7","ios":"levelo://app?vid=939538dc-20bd-4d94-8a10-8e1e0a179bc7"},"vehicle_type_id":"4","last_reported":1758809449,"current_range_meters":6000,"station_id":"","pricing_plan_id":"cebpf4jnsgd1na2vs0mg"},{"bike_id":"bcebb3a1-ab7c-421f-952d-50fec9c24680","system_id":"levelo_inurba_marseille","lat":43.29553,"lon":5.37517,"is_reserved":false,"is_disabled":false,"rental_uris":{"android":"levelo://app?vid=bcebb3a1-ab7c-421f-952d-50fec9c24680","ios":"levelo://app?vid=bcebb3a1-ab7c-421f-952d-50fec9c24680"},"vehicle_type_id":"4","last_reported":1758809449,"current_range_meters":6000,"station_id":"ce4bgh92rcd13ifvqb50","pricing_plan_id":"cebpf4jnsgd1na2vs0mg"},{"bike_id":"9c4a7bdb-c552-4dfd-8efb-40b9e0b0b147","system_id":"levelo_inurba_marseille","lat":43.30927,"lon":5.36742,"is_reserved":false,"is_disabled":false,"rental_uris":{"android":"levelo://app?vid=9c4a7bdb-c552-4dfd-8efb-40b9e0b0b147","ios":"levelo://app?vid=9c4a7bdb-c552-4dfd-8efb-40b9e0b0b147"},"vehicle_type_id":"4","last_reported":1758809449,"current_range_meters":6400,"station_id":"","pricing_plan_id":"cebpf4jnsgd1na2vs0mg"},{"bike_id":"ded8666d-4431-4324-b1bb-687d75adfa7b","system_id":"levelo_inurba_marseille","lat":43.24809,"lon":5.374591,"is_reserved":false,"is_disabled":false,"rental_uris":{"android":"levelo://app?vid=ded8666d-4431-4324-b1bb-687d75adfa7b","ios":"levelo://app?vid=ded8666d-4431-4324-b1bb-687d75adfa7b"},"vehicle_type_id":"4","last_reported":1758809449,"current_range_meters":6800,"station_id":"ce4bhgh2rcd13ifvqfb0","pricing_plan_id":"cebpf4jnsgd1na2vs0mg"},{"bike_id":"440d82b2-c02c-4985-ae65-3700f1ecb5e3","system_id":"levelo_inurba_marseille","lat":43.290763,"lon":5.371735,"is_reserved":false,"is_disabled":false,"rental_uris":{"android":"levelo://app?vid=440d82b2-c02c-4985-ae65-3700f1ecb5e3","ios":"levelo://app?vid=440d82b2-c02c-4985-ae65-3700f1ecb5e3"},"vehicle_type_id":"4","last_reported":1758809449,"current_range_meters":6800,"station_id":"ce4bh5p2rcd13ifvqe4g","pricing_plan_id":"cebpf4jnsgd1na2vs0mg"},{"bike_id":"cb3d83dd-8277-415b-bc5d-a118e1200728","system_id":"levelo_inurba_marseille","lat":43.30098,"lon":5.41043,"is_reserved":false,"is_disabled":false,"rental_uris":{"android":"levelo://app?vid=cb3d83dd-8277-415b-bc5d-a118e1200728","ios":"levelo://app?vid=cb3d83dd-8277-415b-bc5d-a118e1200728"},"vehicle_type_id":"4","last_reported":1758809449,"current_range_meters":6800,"station_id":"","pricing_plan_id":"cebpf4jnsgd1na2vs0mg"},{"bike_id":"fbfc7f9f-60f5-4cee-b577-404875945054","system_id":"levelo_inurba_marseille","lat":43.29533,"lon":5.38551,"is_reserved":false,"is_disabled":false,"rental_uris":{"android":"levelo://app?vid=fbfc7f9f-60f5-4cee-b577-404875945054","ios":"levelo://app?vid=fbfc7f9f-60f5-4cee-b577-404875945054"},"vehicle_type_id":"4","last_reported":1758809449,"current_range_meters":7200,"station_id":"ce4bgih2rcd13ifvqba0","pricing_plan_id":"cebpf4jnsgd1na2vs0mg"},{"bike_id":"136a707a-b224-4c44-8119-f846f7b7d0a7","system_id":"levelo_inurba_marseille","lat":43.29516,"lon":5.37375,"is_reserved":false,"is_disabled":false,"rental_uris":{"android":"levelo://app?vid=136a707a-b224-4c44-8119-f846f7b7d0a7","ios":"levelo://app?vid=136a707a-b224-4c44-8119-f846f7b7d0a7"},"vehicle_type_id":"4","last_reported":1758809449,"current_range_meters":7200,"station_id":"","pricing_plan_id":"cebpf4jnsgd1na2vs0mg"},{"bike_id":"afbaeec5-a1ad-4632-b6d8-b35851088244","system_id":"levelo_inurba_marseille","lat":43.30146,"lon":5.373973,"is_reserved":false,"is_disabled":false,"rental_uris":{"android":"levelo://app?vid=afbaeec5-a1ad-4632-b6d8-b35851088244","ios":"levelo://app?vid=afbaeec5-a1ad-4632-b6d8-b35851088244"},"vehicle_type_id":"4","last_reported":1758809449,"current_range_meters":7200,"station_id":"ce4bgs92rcd13ifvqcc0","pricing_plan_id":"cebpf4jnsgd1na2vs0mg"},{"bike_id":"4e737411-53ce-4bdf-9802-c3bc30d9bc94","system_id":"levelo_inurba_marseille","lat":43.295452,"lon":5.406509,"is_reserved":false,"is_disabled":false,"rental_uris":{"android":"levelo://app?vid=4e737411-53ce-4bdf-9802-c3bc30d9bc94","ios":"levelo://app?vid=4e737411-53ce-4bdf-9802-c3bc30d9bc94"},"vehicle_type_id":"4","last_reported":1758809449,"current_range_meters":8000,"station_id":"","pricing_plan_id":"cebpf4jnsgd1na2vs0mg"},{"bike_id":"cbf14a57-e8bf-4b79-b691-a97f72d450ad","system_id":"levelo_inurba_marseille","lat":43.30536,"lon":5.36693,"is_reserved":false,"is_disabled":false,"rental_uris":{"android":"levelo://app?vid=cbf14a57-e8bf-4b79-b691-a97f72d450ad","ios":"levelo://app?vid=cbf14a57-e8bf-4b79-b691-a97f72d450ad"},"vehicle_type_id":"4","last_reported":1758809449,"current_range_meters":8000,"station_id":"ce4bgrp2rcd13ifvqc9g","pricing_plan_id":"cebpf4jnsgd1na2vs0mg"},{"bike_id":"04d23233-45ac-473e-9747-4a5064680ed8","system_id":"levelo_inurba_marseille","lat":43.287386,"lon":5.38935,"is_reserved":false,"is_disabled":false,"rental_uris":{"android":"levelo://app?vid=04d23233-45ac-473e-9747-4a5064680ed8","ios":"levelo://app?vid=04d23233-45ac-473e-9747-4a5064680ed8"},"vehicle_type_id":"4","last_reported":1758809449,"current_range_meters":8000,"station_id":"ce4bh292rcd13ifvqdf0","pricing_plan_id":"cebpf4jnsgd1na2vs0mg"},{"bike_id":"c3cbb5d6-9cec-428f-96aa-000cc1ffb44d","system_id":"levelo_inurba_marseille","lat":43.29369,"lon":5.37842,"is_reserved":false,"is_disabled":false,"rental_uris":{"android":"levelo://app?vid=c3cbb5d6-9cec-428f-96aa-000cc1ffb44d","ios":"levelo://app?vid=c3cbb5d6-9cec-428f-96aa-000cc1ffb44d"},"vehicle_type_id":"4","last_reported":1758809449,"current_range_meters":8000,"station_id":"ce4bgjh2rcd13ifvqbf0","pricing_plan_id":"cebpf4jnsgd1na2vs0mg"},{"bike_id":"235215e3-3d5f-493c-bcf5-e8a23e7a7fb0","system_id":"levelo_inurba_marseille","lat":43.28356,"lon":5.38087,"is_reserved":false,"is_disabled":false,"rental_uris":{"android":"levelo://app?vid=235215e3-3d5f-493c-bcf5-e8a23e7a7fb0","ios":"levelo://app?vid=235215e3-3d5f-493c-bcf5-e8a23e7a7fb0"},"vehicle_type_id":"4","last_reported":1758809449,"current_range_meters":8000,"station_id":"ce4bh412rcd13ifvqdr0","pricing_plan_id":"cebpf4jnsgd1na2vs0mg"},{"bike_id":"438ead59-de14-4fa0-a61d-03a70a4122ae","system_id":"levelo_inurba_marseille","lat":43.97269,"lon":4.89111,"is_reserved":false,"is_disabled":true,"rental_uris":{"android":"levelo://app?vid=438ead59-de14-4fa0-a61d-03a70a4122ae","ios":"levelo://app?vid=438ead59-de14-4fa0-a61d-03a70a4122ae"},"vehicle_type_id":"4","last_reported":1758809449,"current_range_meters":8000,"station_id":"","pricing_plan_id":"cebpf4jnsgd1na2vs0mg"},{"bike_id":"ef7a62bb-9af8-4582-9e2e-b9d4057a3af7","system_id":"levelo_inurba_marseille","lat":43.31713,"lon":5.43705,"is_reserved":false,"is_disabled":false,"rental_uris":{"android":"levelo://app?vid=ef7a62bb-9af8-4582-9e2e-b9d4057a3af7","ios":"levelo://app?vid=ef7a62bb-9af8-4582-9e2e-b9d4057a3af7"},"vehicle_type_id":"4","last_reported":1758809449,"current_range_meters":8000,"station_id":"ce4bhp92rcd13ifvqhcg","pricing_plan_id":"cebpf4jnsgd1na2vs0mg"},{"bike_id":"fcd7abd0-9718-43f0-b468-83d7086d3727","system_id":"levelo_inurba_marseille","lat":43.26491,"lon":5.39544,"is_reserved":false,"is_disabled":false,"rental_uris":{"android":"levelo://app?vid=fcd7abd0-9718-43f0-b468-83d7086d3727","ios":"levelo://app?vid=fcd7abd0-9718-43f0-b468-83d7086d3727"},"vehicle_type_id":"4","last_reported":1758809449,"current_range_meters":8400,"station_id":"ce4bhi12rcd13ifvqfq0","pricing_plan_id":"cebpf4jnsgd1na2vs0mg"},{"bike_id":"ef1263ec-ed68-4448-8e66-e8e17eb98a4b","system_id":"levelo_inurba_marseille","lat":43.30142,"lon":5.37404,"is_reserved":false,"is_disabled":false,"rental_uris":{"android":"levelo://app?vid=ef1263ec-ed68-4448-8e66-e8e17eb98a4b","ios":"levelo://app?vid=ef1263ec-ed68-4448-8e66-e8e17eb98a4b"},"vehicle_type_id":"4","last_reported":1758809449,"current_range_meters":8400,"station_id":"ce4bgs92rcd13ifvqcc0","pricing_plan_id":"cebpf4jnsgd1na2vs0mg"},{"bike_id":"77daa39a-6d92-4fe8-8266-f8eceab04af2","system_id":"levelo_inurba_marseille","lat":43.29851,"lon":5.36277,"is_reserved":false,"is_disabled":false,"rental_uris":{"android":"levelo://app?vid=77daa39a-6d92-4fe8-8266-f8eceab04af2","ios":"levelo://app?vid=77daa39a-6d92-4fe8-8266-f8eceab04af2"},"vehicle_type_id":"4","last_reported":1758809449,"current_range_meters":8400,"station_id":"ce4bgpp2rcd13ifvqc3g","pricing_plan_id":"cebpf4jnsgd1na2vs0mg"},{"bike_id":"c8ae037d-f8b1-4f06-ae8a-68300396a567","system_id":"levelo_inurba_marseille","lat":43.30212,"lon":5.39471,"is_reserved":false,"is_disabled":false,"rental_uris":{"android":"levelo://app?vid=c8ae037d-f8b1-4f06-ae8a-68300396a567","ios":"levelo://app?vid=c8ae037d-f8b1-4f06-ae8a-68300396a567"},"vehicle_type_id":"4","last_reported":1758809449,"current_range_meters":8800,"station_id":"ce4bh0p2rcd13ifvqd70","pricing_plan_id":"cebpf4jnsgd1na2vs0mg"},{"bike_id":"03f00808-463c-4c08-996a-95296e028847","system_id":"levelo_inurba_marseille","lat":43.24068,"lon":5.37762,"is_reserved":false,"is_disabled":false,"rental_uris":{"android":"levelo://app?vid=03f00808-463c-4c08-996a-95296e028847","ios":"levelo://app?vid=03f00808-463c-4c08-996a-95296e028847"},"vehicle_type_id":"4","last_reported":1758809449,"current_range_meters":8800,"station_id":"ce4bhnp2rcd13ifvqgvg","pricing_plan_id":"cebpf4jnsgd1na2vs0mg"},{"bike_id":"ccca0472-7ce3-404b-b5e4-df1d7f968cff","system_id":"levelo_inurba_marseille","lat":43.27621,"lon":5.36105,"is_reserved":false,"is_disabled":false,"rental_uris":{"android":"levelo://app?vid=ccca0472-7ce3-404b-b5e4-df1d7f968cff","ios":"levelo://app?vid=ccca0472-7ce3-404b-b5e4-df1d7f968cff"},"vehicle_type_id":"4","last_reported":1758809449,"current_range_meters":8800,"station_id":"ce4bgj92rcd13ifvqbe0","pricing_plan_id":"cebpf4jnsgd1na2vs0mg"},{"bike_id":"23b6a0ff-053f-4c1c-98b6-bb80262cd1ed","system_id":"levelo_inurba_marseille","lat":43.24807,"lon":5.37458,"is_reserved":false,"is_disabled":false,"rental_uris":{"android":"levelo://app?vid=23b6a0ff-053f-4c1c-98b6-bb80262cd1ed","ios":"levelo://app?vid=23b6a0ff-053f-4c1c-98b6-bb80262cd1ed"},"vehicle_type_id":"4","last_reported":1758809449,"current_range_meters":8800,"station_id":"ce4bhgh2rcd13ifvqfb0","pricing_plan_id":"cebpf4jnsgd1na2vs0mg"},{"bike_id":"3edc195e-74be-41c8-aeb1-a467da252460","system_id":"levelo_inurba_marseille","lat":43.28482,"lon":5.38424,"is_reserved":false,"is_disabled":false,"rental_uris":{"android":"levelo://app?vid=3edc195e-74be-41c8-aeb1-a467da252460","ios":"levelo://app?vid=3edc195e-74be-41c8-aeb1-a467da252460"},"vehicle_type_id":"4","last_reported":1758809449,"current_range_meters":8800,"station_id":"ce4bh512rcd13ifvqe3g","pricing_plan_id":"cebpf4jnsgd1na2vs0mg"},{"bike_id":"c4505b19-91df-4366-9078-570dffbc6760","system_id":"levelo_inurba_marseille","lat":43.297903,"lon":5.393478,"is_reserved":false,"is_disabled":false,"rental_uris":{"android":"levelo://app?vid=c4505b19-91df-4366-9078-570dffbc6760","ios":"levelo://app?vid=c4505b19-91df-4366-9078-570dffbc6760"},"vehicle_type_id":"4","last_reported":1758809449,"current_range_meters":9200,"station_id":"chh1huq6cuj3fo74tm60","pricing_plan_id":"cebpf4jnsgd1na2vs0mg"},{"bike_id":"b7d15b37-9a5f-4b39-995a-987ae6496a26","system_id":"levelo_inurba_marseille","lat":43.32456,"lon":5.36575,"is_reserved":false,"is_disabled":false,"rental_uris":{"android":"levelo://app?vid=b7d15b37-9a5f-4b39-995a-987ae6496a26","ios":"levelo://app?vid=b7d15b37-9a5f-4b39-995a-987ae6496a26"},"vehicle_type_id":"4","last_reported":1758809449,"current_range_meters":9200,"station_id":"ce4bhs12rcd13ifvqhvg","pricing_plan_id":"cebpf4jnsgd1na2vs0mg"},{"bike_id":"94b2f036-4ca4-4693-89f2-72df2150ee98","system_id":"levelo_inurba_marseille","lat":43.258265,"lon":5.394374,"is_reserved":false,"is_disabled":false,"rental_uris":{"android":"levelo://app?vid=94b2f036-4ca4-4693-89f2-72df2150ee98","ios":"levelo://app?vid=94b2f036-4ca4-4693-89f2-72df2150ee98"},"vehicle_type_id":"4","last_reported":1758809449,"current_range_meters":9200,"station_id":"ce4bhip2rcd13ifvqft0","pricing_plan_id":"cebpf4jnsgd1na2vs0mg"},{"bike_id":"e551e9da-2779-4ca2-92a2-1a8a6f52aaa0","system_id":"levelo_inurba_marseille","lat":43.29802,"lon":5.40397,"is_reserved":false,"is_disabled":false,"rental_uris":{"android":"levelo://app?vid=e551e9da-2779-4ca2-92a2-1a8a6f52aaa0","ios":"levelo://app?vid=e551e9da-2779-4ca2-92a2-1a8a6f52aaa0"},"vehicle_type_id":"4","last_reported":1758809449,"current_range_meters":9200,"station_id":"ce4bh112rcd13ifvqd90","pricing_plan_id":"cebpf4jnsgd1na2vs0mg"},{"bike_id":"450844ba-2fc2-47be-9959-8fee61f07fb6","system_id":"levelo_inurba_marseille","lat":43.31741,"lon":5.39024,"is_reserved":false,"is_disabled":false,"rental_uris":{"android":"levelo://app?vid=450844ba-2fc2-47be-9959-8fee61f07fb6","ios":"levelo://app?vid=450844ba-2fc2-47be-9959-8fee61f07fb6"},"vehicle_type_id":"4","last_reported":1758809449,"current_range_meters":9600,"station_id":"ce4bhqp2rcd13ifvqhng","pricing_plan_id":"cebpf4jnsgd1na2vs0mg"},{"bike_id":"ae4d123c-65ee-4c52-8933-f4b14d3f9582","system_id":"levelo_inurba_marseille","lat":43.22568,"lon":5.41615,"is_reserved":false,"is_disabled":false,"rental_uris":{"android":"levelo://app?vid=ae4d123c-65ee-4c52-8933-f4b14d3f9582","ios":"levelo://app?vid=ae4d123c-65ee-4c52-8933-f4b14d3f9582"},"vehicle_type_id":"4","last_reported":1758809449,"current_range_meters":9600,"station_id":"st_d2o4gvlbi1j2169b742g","pricing_plan_id":"cebpf4jnsgd1na2vs0mg"},{"bike_id":"bf1244d3-d7e7-45bd-8580-d0cbc34b36e3","system_id":"levelo_inurba_marseille","lat":43.22563,"lon":5.41623,"is_reserved":false,"is_disabled":false,"rental_uris":{"android":"levelo://app?vid=bf1244d3-d7e7-45bd-8580-d0cbc34b36e3","ios":"levelo://app?vid=bf1244d3-d7e7-45bd-8580-d0cbc34b36e3"},"vehicle_type_id":"4","last_reported":1758809449,"current_range_meters":9600,"station_id":"st_d2o4gvlbi1j2169b742g","pricing_plan_id":"cebpf4jnsgd1na2vs0mg"},{"bike_id":"7c4e40c6-f6da-4bb3-bedb-5f929aed2197","system_id":"levelo_inurba_marseille","lat":43.24958,"lon":5.40488,"is_reserved":false,"is_disabled":false,"rental_uris":{"android":"levelo://app?vid=7c4e40c6-f6da-4bb3-bedb-5f929aed2197","ios":"levelo://app?vid=7c4e40c6-f6da-4bb3-bedb-5f929aed2197"},"vehicle_type_id":"4","last_reported":1758809449,"current_range_meters":9600,"station_id":"st_d2ngiaodas8pm72gd1h0","pricing_plan_id":"cebpf4jnsgd1na2vs0mg"},{"bike_id":"221c2b18-651c-466a-af1e-3d4b7d8e249f","system_id":"levelo_inurba_marseille","lat":43.279237,"lon":5.399473,"is_reserved":false,"is_disabled":false,"rental_uris":{"android":"levelo://app?vid=221c2b18-651c-466a-af1e-3d4b7d8e249f","ios":"levelo://app?vid=221c2b18-651c-466a-af1e-3d4b7d8e249f"},"vehicle_type_id":"4","last_reported":1758809449,"current_range_meters":9600,"station_id":"ce4bho92rcd13ifvqh4g","pricing_plan_id":"cebpf4jnsgd1na2vs0mg"},{"bike_id":"d2be082e-bd73-4203-addb-18871b3a9587","system_id":"levelo_inurba_marseille","lat":43.29417,"lon":5.3748,"is_reserved":false,"is_disabled":false,"rental_uris":{"android":"levelo://app?vid=d2be082e-bd73-4203-addb-18871b3a9587","ios":"levelo://app?vid=d2be082e-bd73-4203-addb-18871b3a9587"},"vehicle_type_id":"4","last_reported":1758809449,"current_range_meters":9600,"station_id":"","pricing_plan_id":"cebpf4jnsgd1na2vs0mg"},{"bike_id":"117acf13-6b03-4ee3-b4a5-edb1f47e11bc","system_id":"levelo_inurba_marseille","lat":43.26839,"lon":5.38687,"is_reserved":false,"is_disabled":false,"rental_uris":{"android":"levelo://app?vid=117acf13-6b03-4ee3-b4a5-edb1f47e11bc","ios":"levelo://app?vid=117acf13-6b03-4ee3-b4a5-edb1f47e11bc"},"vehicle_type_id":"4","last_reported":1758809449,"current_range_meters":9600,"station_id":"","pricing_plan_id":"cebpf4jnsgd1na2vs0mg"},{"bike_id":"d8cea3ac-6647-454c-90de-9895e74491ac","system_id":"levelo_inurba_marseille","lat":43.28359,"lon":5.3865,"is_reserved":false,"is_disabled":false,"rental_uris":{"android":"levelo://app?vid=d8cea3ac-6647-454c-90de-9895e74491ac","ios":"levelo://app?vid=d8cea3ac-6647-454c-90de-9895e74491ac"},"vehicle_type_id":"4","last_reported":1758809449,"current_range_meters":10000,"station_id":"ce4bh492rcd13ifvqdvg","pricing_plan_id":"cebpf4jnsgd1na2vs0mg"},{"bike_id":"512c9f57-1260-4b0b-8a1f-0f291d3edb8e","system_id":"levelo_inurba_marseille","lat":43.28102,"lon":5.37828,"is_reserved":false,"is_disabled":false,"rental_uris":{"android":"levelo://app?vid=512c9f57-1260-4b0b-8a1f-0f291d3edb8e","ios":"levelo://app?vid=512c9f57-1260-4b0b-8a1f-0f291d3edb8e"},"vehicle_type_id":"4","last_reported":1758809449,"current_range_meters":9600,"station_id":"ce4bha12rcd13ifvqee0","pricing_plan_id":"cebpf4jnsgd1na2vs0mg"},{"bike_id":"23140e36-f94a-45e3-ad98-ae547703d6c0","system_id":"levelo_inurba_marseille","lat":43.28269,"lon":5.35059,"is_reserved":false,"is_disabled":false,"rental_uris":{"android":"levelo://app?vid=23140e36-f94a-45e3-ad98-ae547703d6c0","ios":"levelo://app?vid=23140e36-f94a-45e3-ad98-ae547703d6c0"},"vehicle_type_id":"4","last_reported":1758809449,"current_range_meters":10000,"station_id":"ce4bhbp2rcd13ifvqerg","pricing_plan_id":"cebpf4jnsgd1na2vs0mg"},{"bike_id":"d21a9d78-5940-48a3-9b45-281df6c47d2b","system_id":"levelo_inurba_marseille","lat":43.30466,"lon":5.37912,"is_reserved":false,"is_disabled":false,"rental_uris":{"android":"levelo://app?vid=d21a9d78-5940-48a3-9b45-281df6c47d2b","ios":"levelo://app?vid=d21a9d78-5940-48a3-9b45-281df6c47d2b"},"vehicle_type_id":"4","last_reported":1758809449,"current_range_meters":10000,"station_id":"ce4bgup2rcd13ifvqcn0","pricing_plan_id":"cebpf4jnsgd1na2vs0mg"},{"bike_id":"379911e0-a8b9-4b05-96ac-c75be54d3c45","system_id":"levelo_inurba_marseille","lat":43.2887,"lon":5.42499,"is_reserved":false,"is_disabled":false,"rental_uris":{"android":"levelo://app?vid=379911e0-a8b9-4b05-96ac-c75be54d3c45","ios":"levelo://app?vid=379911e0-a8b9-4b05-96ac-c75be54d3c45"},"vehicle_type_id":"4","last_reported":1758809449,"current_range_meters":10000,"station_id":"","pricing_plan_id":"cebpf4jnsgd1na2vs0mg"},{"bike_id":"3a83ddcd-ce03-4ed4-a7fa-b273c2464f02","system_id":"levelo_inurba_marseille","lat":43.27959,"lon":5.36319,"is_reserved":false,"is_disabled":false,"rental_uris":{"android":"levelo://app?vid=3a83ddcd-ce03-4ed4-a7fa-b273c2464f02","ios":"levelo://app?vid=3a83ddcd-ce03-4ed4-a7fa-b273c2464f02"},"vehicle_type_id":"4","last_reported":1758809449,"current_range_meters":10000,"station_id":"","pricing_plan_id":"cebpf4jnsgd1na2vs0mg"},{"bike_id":"0ef81889-2d7f-4e70-b480-0b08f55cbfba","system_id":"levelo_inurba_marseille","lat":43.30848,"lon":5.36836,"is_reserved":false,"is_disabled":false,"rental_uris":{"android":"levelo://app?vid=0ef81889-2d7f-4e70-b480-0b08f55cbfba","ios":"levelo://app?vid=0ef81889-2d7f-4e70-b480-0b08f55cbfba"},"vehicle_type_id":"4","last_reported":1758809449,"current_range_meters":10000,"station_id":"","pricing_plan_id":"cebpf4jnsgd1na2vs0mg"},{"bike_id":"c811373e-37aa-4e16-8f70-f6656a27af2c","system_id":"levelo_inurba_marseille","lat":43.30144,"lon":5.37403,"is_reserved":false,"is_disabled":false,"rental_uris":{"android":"levelo://app?vid=c811373e-37aa-4e16-8f70-f6656a27af2c","ios":"levelo://app?vid=c811373e-37aa-4e16-8f70-f6656a27af2c"},"vehicle_type_id":"4","last_reported":1758809449,"current_range_meters":10800,"station_id":"ce4bgs92rcd13ifvqcc0","pricing_plan_id":"cebpf4jnsgd1na2vs0mg"},{"bike_id":"03a6a884-356c-4ce6-bc3d-b84c2b847c71","system_id":"levelo_inurba_marseille","lat":43.29523,"lon":5.394,"is_reserved":false,"is_disabled":false,"rental_uris":{"android":"levelo://app?vid=03a6a884-356c-4ce6-bc3d-b84c2b847c71","ios":"levelo://app?vid=03a6a884-356c-4ce6-bc3d-b84c2b847c71"},"vehicle_type_id":"4","last_reported":1758809449,"current_range_meters":10800,"station_id":"ce4bh292rcd13ifvqdf0","pricing_plan_id":"cebpf4jnsgd1na2vs0mg"},{"bike_id":"11861489-7179-4f66-9366-2867baf2b94e","system_id":"levelo_inurba_marseille","lat":43.30138,"lon":5.38787,"is_reserved":false,"is_disabled":false,"rental_uris":{"android":"levelo://app?vid=11861489-7179-4f66-9366-2867baf2b94e","ios":"levelo://app?vid=11861489-7179-4f66-9366-2867baf2b94e"},"vehicle_type_id":"4","last_reported":1758809449,"current_range_meters":10800,"station_id":"ce4bghh2rcd13ifvqb60","pricing_plan_id":"cebpf4jnsgd1na2vs0mg"},{"bike_id":"0e9ca394-4351-4bf8-a641-f4e5215baf20","system_id":"levelo_inurba_marseille","lat":43.28275,"lon":5.35062,"is_reserved":false,"is_disabled":false,"rental_uris":{"android":"levelo://app?vid=0e9ca394-4351-4bf8-a641-f4e5215baf20","ios":"levelo://app?vid=0e9ca394-4351-4bf8-a641-f4e5215baf20"},"vehicle_type_id":"4","last_reported":1758809449,"current_range_meters":10800,"station_id":"ce4bhbp2rcd13ifvqerg","pricing_plan_id":"cebpf4jnsgd1na2vs0mg"},{"bike_id":"818ee7f4-2e6f-4b0e-96f7-bec2cc5f4b84","system_id":"levelo_inurba_marseille","lat":43.21745,"lon":5.34595,"is_reserved":false,"is_disabled":false,"rental_uris":{"android":"levelo://app?vid=818ee7f4-2e6f-4b0e-96f7-bec2cc5f4b84","ios":"levelo://app?vid=818ee7f4-2e6f-4b0e-96f7-bec2cc5f4b84"},"vehicle_type_id":"4","last_reported":1758809449,"current_range_meters":10800,"station_id":"st_cvj6r9ubvosntc0bgbag","pricing_plan_id":"cebpf4jnsgd1na2vs0mg"},{"bike_id":"b66370a3-3b60-4b8b-a916-9d2b76d4a459","system_id":"levelo_inurba_marseille","lat":43.281262,"lon":5.368925,"is_reserved":false,"is_disabled":false,"rental_uris":{"android":"levelo://app?vid=b66370a3-3b60-4b8b-a916-9d2b76d4a459","ios":"levelo://app?vid=b66370a3-3b60-4b8b-a916-9d2b76d4a459"},"vehicle_type_id":"4","last_reported":1758809449,"current_range_meters":10800,"station_id":"ce4bha12rcd13ifvqef0","pricing_plan_id":"cebpf4jnsgd1na2vs0mg"},{"bike_id":"fe800229-b562-4ba3-a845-5bc7d0966ce2","system_id":"levelo_inurba_marseille","lat":43.27684,"lon":5.38881,"is_reserved":false,"is_disabled":false,"rental_uris":{"android":"levelo://app?vid=fe800229-b562-4ba3-a845-5bc7d0966ce2","ios":"levelo://app?vid=fe800229-b562-4ba3-a845-5bc7d0966ce2"},"vehicle_type_id":"4","last_reported":1758809449,"current_range_meters":10800,"station_id":"ce4bhi12rcd13ifvqfo0","pricing_plan_id":"cebpf4jnsgd1na2vs0mg"},{"bike_id":"9b6e6ded-78dd-4901-822a-5b45d848c3fc","system_id":"levelo_inurba_marseille","lat":43.2893,"lon":5.38402,"is_reserved":false,"is_disabled":false,"rental_uris":{"android":"levelo://app?vid=9b6e6ded-78dd-4901-822a-5b45d848c3fc","ios":"levelo://app?vid=9b6e6ded-78dd-4901-822a-5b45d848c3fc"},"vehicle_type_id":"4","last_reported":1758809449,"current_range_meters":11200,"station_id":"ce4bh612rcd13ifvqe6g","pricing_plan_id":"cebpf4jnsgd1na2vs0mg"},{"bike_id":"b6a9b367-2165-44be-acb2-9cd05f210360","system_id":"levelo_inurba_marseille","lat":43.30547,"lon":5.36687,"is_reserved":false,"is_disabled":false,"rental_uris":{"android":"levelo://app?vid=b6a9b367-2165-44be-acb2-9cd05f210360","ios":"levelo://app?vid=b6a9b367-2165-44be-acb2-9cd05f210360"},"vehicle_type_id":"4","last_reported":1758809449,"current_range_meters":11200,"station_id":"ce4bgrp2rcd13ifvqc9g","pricing_plan_id":"cebpf4jnsgd1na2vs0mg"},{"bike_id":"469b3fc4-31b1-43f1-a8ed-8d37f2273893","system_id":"levelo_inurba_marseille","lat":43.30324,"lon":5.40433,"is_reserved":false,"is_disabled":false,"rental_uris":{"android":"levelo://app?vid=469b3fc4-31b1-43f1-a8ed-8d37f2273893","ios":"levelo://app?vid=469b3fc4-31b1-43f1-a8ed-8d37f2273893"},"vehicle_type_id":"4","last_reported":1758809449,"current_range_meters":11200,"station_id":"ce4bh012rcd13ifvqd10","pricing_plan_id":"cebpf4jnsgd1na2vs0mg"},{"bike_id":"8584eb3e-f7b4-4300-97fe-005a37d8d75b","system_id":"levelo_inurba_marseille","lat":43.36846,"lon":5.36297,"is_reserved":false,"is_disabled":false,"rental_uris":{"android":"levelo://app?vid=8584eb3e-f7b4-4300-97fe-005a37d8d75b","ios":"levelo://app?vid=8584eb3e-f7b4-4300-97fe-005a37d8d75b"},"vehicle_type_id":"4","last_reported":1758809449,"current_range_meters":11200,"station_id":"","pricing_plan_id":"cebpf4jnsgd1na2vs0mg"},{"bike_id":"4efc8356-66f7-4d7e-b1bd-e6e9ce4b0be2","system_id":"levelo_inurba_marseille","lat":43.30648,"lon":5.401,"is_reserved":false,"is_disabled":false,"rental_uris":{"android":"levelo://app?vid=4efc8356-66f7-4d7e-b1bd-e6e9ce4b0be2","ios":"levelo://app?vid=4efc8356-66f7-4d7e-b1bd-e6e9ce4b0be2"},"vehicle_type_id":"4","last_reported":1758809449,"current_range_meters":10800,"station_id":"ce4bh112rcd13ifvqda0","pricing_plan_id":"cebpf4jnsgd1na2vs0mg"},{"bike_id":"e8ade81b-44d6-4fe2-bf2b-404b7228caae","system_id":"levelo_inurba_marseille","lat":43.27992,"lon":5.4166,"is_reserved":false,"is_disabled":false,"rental_uris":{"android":"levelo://app?vid=e8ade81b-44d6-4fe2-bf2b-404b7228caae","ios":"levelo://app?vid=e8ade81b-44d6-4fe2-bf2b-404b7228caae"},"vehicle_type_id":"4","last_reported":1758809449,"current_range_meters":11200,"station_id":"ce4bho12rcd13ifvqh1g","pricing_plan_id":"cebpf4jnsgd1na2vs0mg"},{"bike_id":"ea51304e-05ed-44cf-ac9c-db45c2605227","system_id":"levelo_inurba_marseille","lat":43.30886,"lon":5.37185,"is_reserved":false,"is_disabled":false,"rental_uris":{"android":"levelo://app?vid=ea51304e-05ed-44cf-ac9c-db45c2605227","ios":"levelo://app?vid=ea51304e-05ed-44cf-ac9c-db45c2605227"},"vehicle_type_id":"4","last_reported":1758809449,"current_range_meters":11200,"station_id":"ce4bguh2rcd13ifvqckg","pricing_plan_id":"cebpf4jnsgd1na2vs0mg"},{"bike_id":"d5632eaf-207f-4351-be9c-95c58bc9c538","system_id":"levelo_inurba_marseille","lat":43.29533,"lon":5.37485,"is_reserved":false,"is_disabled":true,"rental_uris":{"android":"levelo://app?vid=d5632eaf-207f-4351-be9c-95c58bc9c538","ios":"levelo://app?vid=d5632eaf-207f-4351-be9c-95c58bc9c538"},"vehicle_type_id":"4","last_reported":1758809449,"current_range_meters":11600,"station_id":"ce4bgkp2rcd13ifvqbmg","pricing_plan_id":"cebpf4jnsgd1na2vs0mg"},{"bike_id":"8eae954c-dab6-4303-94f5-569e1c483f62","system_id":"levelo_inurba_marseille","lat":43.29458,"lon":5.40752,"is_reserved":false,"is_disabled":false,"rental_uris":{"android":"levelo://app?vid=8eae954c-dab6-4303-94f5-569e1c483f62","ios":"levelo://app?vid=8eae954c-dab6-4303-94f5-569e1c483f62"},"vehicle_type_id":"4","last_reported":1758809449,"current_range_meters":11600,"station_id":"","pricing_plan_id":"cebpf4jnsgd1na2vs0mg"},{"bike_id":"88c2e972-dde0-41a2-9a77-8a7e65445ac7","system_id":"levelo_inurba_marseille","lat":43.28101,"lon":5.37833,"is_reserved":false,"is_disabled":false,"rental_uris":{"android":"levelo://app?vid=88c2e972-dde0-41a2-9a77-8a7e65445ac7","ios":"levelo://app?vid=88c2e972-dde0-41a2-9a77-8a7e65445ac7"},"vehicle_type_id":"4","last_reported":1758809449,"current_range_meters":11600,"station_id":"ce4bha12rcd13ifvqee0","pricing_plan_id":"cebpf4jnsgd1na2vs0mg"},{"bike_id":"d1ce3d1d-7384-4ad6-94e8-2e75fb29ca04","system_id":"levelo_inurba_marseille","lat":43.27369,"lon":5.3626,"is_reserved":false,"is_disabled":false,"rental_uris":{"android":"levelo://app?vid=d1ce3d1d-7384-4ad6-94e8-2e75fb29ca04","ios":"levelo://app?vid=d1ce3d1d-7384-4ad6-94e8-2e75fb29ca04"},"vehicle_type_id":"4","last_reported":1758809449,"current_range_meters":12000,"station_id":"ce4bhbh2rcd13ifvqeo0","pricing_plan_id":"cebpf4jnsgd1na2vs0mg"},{"bike_id":"45e3a486-cbf8-41c6-a348-2f2db89d5340","system_id":"levelo_inurba_marseille","lat":43.265373,"lon":5.395033,"is_reserved":false,"is_disabled":false,"rental_uris":{"android":"levelo://app?vid=45e3a486-cbf8-41c6-a348-2f2db89d5340","ios":"levelo://app?vid=45e3a486-cbf8-41c6-a348-2f2db89d5340"},"vehicle_type_id":"4","last_reported":1758809449,"current_range_meters":11600,"station_id":"","pricing_plan_id":"cebpf4jnsgd1na2vs0mg"},{"bike_id":"f97c0048-c7ff-4b71-93c6-9cda50594045","system_id":"levelo_inurba_marseille","lat":43.27368,"lon":5.36257,"is_reserved":false,"is_disabled":false,"rental_uris":{"android":"levelo://app?vid=f97c0048-c7ff-4b71-93c6-9cda50594045","ios":"levelo://app?vid=f97c0048-c7ff-4b71-93c6-9cda50594045"},"vehicle_type_id":"4","last_reported":1758809449,"current_range_meters":11600,"station_id":"ce4bhbh2rcd13ifvqeo0","pricing_plan_id":"cebpf4jnsgd1na2vs0mg"},{"bike_id":"293b57f7-114f-4898-a96d-0c92b01bcfe2","system_id":"levelo_inurba_marseille","lat":43.32333,"lon":5.40617,"is_reserved":false,"is_disabled":false,"rental_uris":{"android":"levelo://app?vid=293b57f7-114f-4898-a96d-0c92b01bcfe2","ios":"levelo://app?vid=293b57f7-114f-4898-a96d-0c92b01bcfe2"},"vehicle_type_id":"4","last_reported":1758809449,"current_range_meters":11600,"station_id":"ce4bhq92rcd13ifvqhjg","pricing_plan_id":"cebpf4jnsgd1na2vs0mg"},{"bike_id":"32143090-3518-41a7-9da1-2b26c7ee30c3","system_id":"levelo_inurba_marseille","lat":43.25577,"lon":5.38237,"is_reserved":false,"is_disabled":false,"rental_uris":{"android":"levelo://app?vid=32143090-3518-41a7-9da1-2b26c7ee30c3","ios":"levelo://app?vid=32143090-3518-41a7-9da1-2b26c7ee30c3"},"vehicle_type_id":"4","last_reported":1758809449,"current_range_meters":11600,"station_id":"ce4bhih2rcd13ifvqfs0","pricing_plan_id":"cebpf4jnsgd1na2vs0mg"},{"bike_id":"3b31d633-b5d5-4cb8-bc19-6e3745360861","system_id":"levelo_inurba_marseille","lat":43.31223,"lon":5.36855,"is_reserved":false,"is_disabled":false,"rental_uris":{"android":"levelo://app?vid=3b31d633-b5d5-4cb8-bc19-6e3745360861","ios":"levelo://app?vid=3b31d633-b5d5-4cb8-bc19-6e3745360861"},"vehicle_type_id":"4","last_reported":1758809449,"current_range_meters":11600,"station_id":"ce4bgl92rcd13ifvqbq0","pricing_plan_id":"cebpf4jnsgd1na2vs0mg"},{"bike_id":"a6ad0c6c-868d-42f3-ba54-573e1a175a36","system_id":"levelo_inurba_marseille","lat":43.26267,"lon":5.41264,"is_reserved":false,"is_disabled":false,"rental_uris":{"android":"levelo://app?vid=a6ad0c6c-868d-42f3-ba54-573e1a175a36","ios":"levelo://app?vid=a6ad0c6c-868d-42f3-ba54-573e1a175a36"},"vehicle_type_id":"4","last_reported":1758809449,"current_range_meters":11600,"station_id":"","pricing_plan_id":"cebpf4jnsgd1na2vs0mg"},{"bike_id":"47e2a56c-4545-45c7-87ce-985cfb44adfd","system_id":"levelo_inurba_marseille","lat":43.311674,"lon":5.387243,"is_reserved":false,"is_disabled":false,"rental_uris":{"android":"levelo://app?vid=47e2a56c-4545-45c7-87ce-985cfb44adfd","ios":"levelo://app?vid=47e2a56c-4545-45c7-87ce-985cfb44adfd"},"vehicle_type_id":"4","last_reported":1758809449,"current_range_meters":11600,"station_id":"ce4bgv12rcd13ifvqcp0","pricing_plan_id":"cebpf4jnsgd1na2vs0mg"},{"bike_id":"31c9cf9d-f95c-4e17-8dc3-5e8bd9e1b81a","system_id":"levelo_inurba_marseille","lat":43.29261,"lon":5.40907,"is_reserved":false,"is_disabled":false,"rental_uris":{"android":"levelo://app?vid=31c9cf9d-f95c-4e17-8dc3-5e8bd9e1b81a","ios":"levelo://app?vid=31c9cf9d-f95c-4e17-8dc3-5e8bd9e1b81a"},"vehicle_type_id":"4","last_reported":1758809449,"current_range_meters":11600,"station_id":"ce4bh192rcd13ifvqdc0","pricing_plan_id":"cebpf4jnsgd1na2vs0mg"},{"bike_id":"77848a0e-20b7-4b68-ae3a-0dddd1fba848","system_id":"levelo_inurba_marseille","lat":43.31487,"lon":5.37305,"is_reserved":false,"is_disabled":false,"rental_uris":{"android":"levelo://app?vid=77848a0e-20b7-4b68-ae3a-0dddd1fba848","ios":"levelo://app?vid=77848a0e-20b7-4b68-ae3a-0dddd1fba848"},"vehicle_type_id":"4","last_reported":1758809449,"current_range_meters":12000,"station_id":"ce4bgt12rcd13ifvqcd0","pricing_plan_id":"cebpf4jnsgd1na2vs0mg"},{"bike_id":"0c16ac8a-a536-4d89-a0b4-2803631fd83e","system_id":"levelo_inurba_marseille","lat":43.25003,"lon":5.38909,"is_reserved":false,"is_disabled":false,"rental_uris":{"android":"levelo://app?vid=0c16ac8a-a536-4d89-a0b4-2803631fd83e","ios":"levelo://app?vid=0c16ac8a-a536-4d89-a0b4-2803631fd83e"},"vehicle_type_id":"4","last_reported":1758809449,"current_range_meters":12000,"station_id":"ce4bhgp2rcd13ifvqfd0","pricing_plan_id":"cebpf4jnsgd1na2vs0mg"},{"bike_id":"237c6c1c-3b20-4dcb-82ea-76107a136d3e","system_id":"levelo_inurba_marseille","lat":43.292865,"lon":5.369459,"is_reserved":false,"is_disabled":true,"rental_uris":{"android":"levelo://app?vid=237c6c1c-3b20-4dcb-82ea-76107a136d3e","ios":"levelo://app?vid=237c6c1c-3b20-4dcb-82ea-76107a136d3e"},"vehicle_type_id":"4","last_reported":1758809449,"current_range_meters":12000,"station_id":"ce4bhbp2rcd13ifvqesg","pricing_plan_id":"cebpf4jnsgd1na2vs0mg"},{"bike_id":"9fd15e46-d713-423e-ab94-b5de949787aa","system_id":"levelo_inurba_marseille","lat":43.26552,"lon":5.37276,"is_reserved":false,"is_disabled":false,"rental_uris":{"android":"levelo://app?vid=9fd15e46-d713-423e-ab94-b5de949787aa","ios":"levelo://app?vid=9fd15e46-d713-423e-ab94-b5de949787aa"},"vehicle_type_id":"4","last_reported":1758809449,"current_range_meters":12000,"station_id":"ce4bhg12rcd13ifvqf70","pricing_plan_id":"cebpf4jnsgd1na2vs0mg"},{"bike_id":"ebc594a1-6a9d-4596-b1e7-353ade90ef2c","system_id":"levelo_inurba_marseille","lat":43.27172,"lon":5.40987,"is_reserved":false,"is_disabled":false,"rental_uris":{"android":"levelo://app?vid=ebc594a1-6a9d-4596-b1e7-353ade90ef2c","ios":"levelo://app?vid=ebc594a1-6a9d-4596-b1e7-353ade90ef2c"},"vehicle_type_id":"4","last_reported":1758809449,"current_range_meters":11200,"station_id":"ce4bhl12rcd13ifvqgf0","pricing_plan_id":"cebpf4jnsgd1na2vs0mg"},{"bike_id":"d1035cda-0828-4480-ab90-b06087f3ef72","system_id":"levelo_inurba_marseille","lat":43.25583,"lon":5.3822,"is_reserved":false,"is_disabled":false,"rental_uris":{"android":"levelo://app?vid=d1035cda-0828-4480-ab90-b06087f3ef72","ios":"levelo://app?vid=d1035cda-0828-4480-ab90-b06087f3ef72"},"vehicle_type_id":"4","last_reported":1758809449,"current_range_meters":12000,"station_id":"ce4bhih2rcd13ifvqfs0","pricing_plan_id":"cebpf4jnsgd1na2vs0mg"},{"bike_id":"003515e8-8117-44bb-979d-5f47e8d50fda","system_id":"levelo_inurba_marseille","lat":43.30629,"lon":5.37558,"is_reserved":false,"is_disabled":false,"rental_uris":{"android":"levelo://app?vid=003515e8-8117-44bb-979d-5f47e8d50fda","ios":"levelo://app?vid=003515e8-8117-44bb-979d-5f47e8d50fda"},"vehicle_type_id":"4","last_reported":1758809449,"current_range_meters":12400,"station_id":"","pricing_plan_id":"cebpf4jnsgd1na2vs0mg"},{"bike_id":"2bd2a176-8590-4e06-8b8c-a96b49b7b36a","system_id":"levelo_inurba_marseille","lat":43.262237,"lon":5.404538,"is_reserved":false,"is_disabled":false,"rental_uris":{"android":"levelo://app?vid=2bd2a176-8590-4e06-8b8c-a96b49b7b36a","ios":"levelo://app?vid=2bd2a176-8590-4e06-8b8c-a96b49b7b36a"},"vehicle_type_id":"4","last_reported":1758809449,"current_range_meters":12400,"station_id":"","pricing_plan_id":"cebpf4jnsgd1na2vs0mg"},{"bike_id":"08fe57de-42f7-434a-8a30-59f636be20dc","system_id":"levelo_inurba_marseille","lat":43.2827,"lon":5.35065,"is_reserved":false,"is_disabled":false,"rental_uris":{"android":"levelo://app?vid=08fe57de-42f7-434a-8a30-59f636be20dc","ios":"levelo://app?vid=08fe57de-42f7-434a-8a30-59f636be20dc"},"vehicle_type_id":"4","last_reported":1758809449,"current_range_meters":12400,"station_id":"ce4bhbp2rcd13ifvqerg","pricing_plan_id":"cebpf4jnsgd1na2vs0mg"},{"bike_id":"0c271021-80f3-42bd-a497-7484053cc86d","system_id":"levelo_inurba_marseille","lat":43.30549,"lon":5.36698,"is_reserved":false,"is_disabled":false,"rental_uris":{"android":"levelo://app?vid=0c271021-80f3-42bd-a497-7484053cc86d","ios":"levelo://app?vid=0c271021-80f3-42bd-a497-7484053cc86d"},"vehicle_type_id":"4","last_reported":1758809449,"current_range_meters":12400,"station_id":"ce4bgrp2rcd13ifvqc9g","pricing_plan_id":"cebpf4jnsgd1na2vs0mg"},{"bike_id":"bdec3261-de13-477f-818b-7af8ae1d1f6a","system_id":"levelo_inurba_marseille","lat":43.23959,"lon":5.37679,"is_reserved":false,"is_disabled":false,"rental_uris":{"android":"levelo://app?vid=bdec3261-de13-477f-818b-7af8ae1d1f6a","ios":"levelo://app?vid=bdec3261-de13-477f-818b-7af8ae1d1f6a"},"vehicle_type_id":"4","last_reported":1758809449,"current_range_meters":12400,"station_id":"","pricing_plan_id":"cebpf4jnsgd1na2vs0mg"},{"bike_id":"28276d4e-f3d4-4e28-a29e-2946a2b1d795","system_id":"levelo_inurba_marseille","lat":43.2962,"lon":5.3773,"is_reserved":false,"is_disabled":false,"rental_uris":{"android":"levelo://app?vid=28276d4e-f3d4-4e28-a29e-2946a2b1d795","ios":"levelo://app?vid=28276d4e-f3d4-4e28-a29e-2946a2b1d795"},"vehicle_type_id":"4","last_reported":1758809449,"current_range_meters":12400,"station_id":"ce4bgi92rcd13ifvqb90","pricing_plan_id":"cebpf4jnsgd1na2vs0mg"},{"bike_id":"46923300-e0d3-40c1-8c76-7dadc761100f","system_id":"levelo_inurba_marseille","lat":43.28994,"lon":5.3561,"is_reserved":false,"is_disabled":false,"rental_uris":{"android":"levelo://app?vid=46923300-e0d3-40c1-8c76-7dadc761100f","ios":"levelo://app?vid=46923300-e0d3-40c1-8c76-7dadc761100f"},"vehicle_type_id":"4","last_reported":1758809449,"current_range_meters":12400,"station_id":"ce4bhb92rcd13ifvqen0","pricing_plan_id":"cebpf4jnsgd1na2vs0mg"},{"bike_id":"212de2eb-8bbc-413c-b204-9fe1facd76e8","system_id":"levelo_inurba_marseille","lat":43.313053,"lon":5.378229,"is_reserved":false,"is_disabled":false,"rental_uris":{"android":"levelo://app?vid=212de2eb-8bbc-413c-b204-9fe1facd76e8","ios":"levelo://app?vid=212de2eb-8bbc-413c-b204-9fe1facd76e8"},"vehicle_type_id":"4","last_reported":1758809449,"current_range_meters":12400,"station_id":"","pricing_plan_id":"cebpf4jnsgd1na2vs0mg"},{"bike_id":"f9af076b-c426-46f0-97f6-f6a5a530c8e2","system_id":"levelo_inurba_marseille","lat":43.3305,"lon":5.39456,"is_reserved":false,"is_disabled":false,"rental_uris":{"android":"levelo://app?vid=f9af076b-c426-46f0-97f6-f6a5a530c8e2","ios":"levelo://app?vid=f9af076b-c426-46f0-97f6-f6a5a530c8e2"},"vehicle_type_id":"4","last_reported":1758809449,"current_range_meters":12400,"station_id":"","pricing_plan_id":"cebpf4jnsgd1na2vs0mg"},{"bike_id":"f0c5386a-9938-4d6a-81e8-14ec0c5e2580","system_id":"levelo_inurba_marseille","lat":43.31501,"lon":5.37758,"is_reserved":false,"is_disabled":false,"rental_uris":{"android":"levelo://app?vid=f0c5386a-9938-4d6a-81e8-14ec0c5e2580","ios":"levelo://app?vid=f0c5386a-9938-4d6a-81e8-14ec0c5e2580"},"vehicle_type_id":"4","last_reported":1758809449,"current_range_meters":12400,"station_id":"","pricing_plan_id":"cebpf4jnsgd1na2vs0mg"},{"bike_id":"9957286a-78bd-4512-a2e9-c89373c449b0","system_id":"levelo_inurba_marseille","lat":43.23181,"lon":5.39987,"is_reserved":false,"is_disabled":false,"rental_uris":{"android":"levelo://app?vid=9957286a-78bd-4512-a2e9-c89373c449b0","ios":"levelo://app?vid=9957286a-78bd-4512-a2e9-c89373c449b0"},"vehicle_type_id":"4","last_reported":1758809449,"current_range_meters":12400,"station_id":"ce4bhn12rcd13ifvqgqg","pricing_plan_id":"cebpf4jnsgd1na2vs0mg"},{"bike_id":"a60401e2-cc37-4b8c-ad80-4d0d42d21ca9","system_id":"levelo_inurba_marseille","lat":43.30316,"lon":5.40429,"is_reserved":false,"is_disabled":false,"rental_uris":{"android":"levelo://app?vid=a60401e2-cc37-4b8c-ad80-4d0d42d21ca9","ios":"levelo://app?vid=a60401e2-cc37-4b8c-ad80-4d0d42d21ca9"},"vehicle_type_id":"4","last_reported":1758809449,"current_range_meters":12800,"station_id":"ce4bh012rcd13ifvqd10","pricing_plan_id":"cebpf4jnsgd1na2vs0mg"},{"bike_id":"53b6e848-03a3-4409-a4a8-aee2ea677460","system_id":"levelo_inurba_marseille","lat":43.28002,"lon":5.40006,"is_reserved":false,"is_disabled":false,"rental_uris":{"android":"levelo://app?vid=53b6e848-03a3-4409-a4a8-aee2ea677460","ios":"levelo://app?vid=53b6e848-03a3-4409-a4a8-aee2ea677460"},"vehicle_type_id":"4","last_reported":1758809449,"current_range_meters":12400,"station_id":"ce4bho92rcd13ifvqh4g","pricing_plan_id":"cebpf4jnsgd1na2vs0mg"},{"bike_id":"2398e714-da7f-4f0e-a401-0b08570bddf3","system_id":"levelo_inurba_marseille","lat":43.32112,"lon":5.36775,"is_reserved":false,"is_disabled":false,"rental_uris":{"android":"levelo://app?vid=2398e714-da7f-4f0e-a401-0b08570bddf3","ios":"levelo://app?vid=2398e714-da7f-4f0e-a401-0b08570bddf3"},"vehicle_type_id":"4","last_reported":1758809449,"current_range_meters":12800,"station_id":"ce4bhrh2rcd13ifvqhug","pricing_plan_id":"cebpf4jnsgd1na2vs0mg"},{"bike_id":"16c5926f-99db-4751-b38f-955f5b2d765b","system_id":"levelo_inurba_marseille","lat":43.25584,"lon":5.38227,"is_reserved":false,"is_disabled":false,"rental_uris":{"android":"levelo://app?vid=16c5926f-99db-4751-b38f-955f5b2d765b","ios":"levelo://app?vid=16c5926f-99db-4751-b38f-955f5b2d765b"},"vehicle_type_id":"4","last_reported":1758809449,"current_range_meters":12800,"station_id":"ce4bhih2rcd13ifvqfs0","pricing_plan_id":"cebpf4jnsgd1na2vs0mg"},{"bike_id":"1ce0e92d-2291-4f47-96fc-c3c78b7004d0","system_id":"levelo_inurba_marseille","lat":43.28924,"lon":5.38388,"is_reserved":false,"is_disabled":false,"rental_uris":{"android":"levelo://app?vid=1ce0e92d-2291-4f47-96fc-c3c78b7004d0","ios":"levelo://app?vid=1ce0e92d-2291-4f47-96fc-c3c78b7004d0"},"vehicle_type_id":"4","last_reported":1758809449,"current_range_meters":12800,"station_id":"ce4bh612rcd13ifvqe6g","pricing_plan_id":"cebpf4jnsgd1na2vs0mg"},{"bike_id":"15e81773-13c2-4026-9a7b-90dea0c2e4d0","system_id":"levelo_inurba_marseille","lat":43.3123,"lon":5.36874,"is_reserved":false,"is_disabled":false,"rental_uris":{"android":"levelo://app?vid=15e81773-13c2-4026-9a7b-90dea0c2e4d0","ios":"levelo://app?vid=15e81773-13c2-4026-9a7b-90dea0c2e4d0"},"vehicle_type_id":"4","last_reported":1758809449,"current_range_meters":12800,"station_id":"ce4bgl92rcd13ifvqbq0","pricing_plan_id":"cebpf4jnsgd1na2vs0mg"},{"bike_id":"17b6e890-308f-4e08-9acd-7090f69670ec","system_id":"levelo_inurba_marseille","lat":43.31269,"lon":5.36887,"is_reserved":false,"is_disabled":false,"rental_uris":{"android":"levelo://app?vid=17b6e890-308f-4e08-9acd-7090f69670ec","ios":"levelo://app?vid=17b6e890-308f-4e08-9acd-7090f69670ec"},"vehicle_type_id":"4","last_reported":1758809449,"current_range_meters":13600,"station_id":"","pricing_plan_id":"cebpf4jnsgd1na2vs0mg"},{"bike_id":"cb9cb42f-92a3-4a1f-bbc9-86ec08ab8615","system_id":"levelo_inurba_marseille","lat":43.25088,"lon":5.39524,"is_reserved":false,"is_disabled":false,"rental_uris":{"android":"levelo://app?vid=cb9cb42f-92a3-4a1f-bbc9-86ec08ab8615","ios":"levelo://app?vid=cb9cb42f-92a3-4a1f-bbc9-86ec08ab8615"},"vehicle_type_id":"4","last_reported":1758809449,"current_range_meters":13600,"station_id":"ce4bhm12rcd13ifvqgkg","pricing_plan_id":"cebpf4jnsgd1na2vs0mg"},{"bike_id":"1ea82c4f-b19e-42c1-8e1c-cd0ff13ff844","system_id":"levelo_inurba_marseille","lat":43.30934,"lon":5.40154,"is_reserved":false,"is_disabled":false,"rental_uris":{"android":"levelo://app?vid=1ea82c4f-b19e-42c1-8e1c-cd0ff13ff844","ios":"levelo://app?vid=1ea82c4f-b19e-42c1-8e1c-cd0ff13ff844"},"vehicle_type_id":"4","last_reported":1758809449,"current_range_meters":13600,"station_id":"ce4bgvp2rcd13ifvqct0","pricing_plan_id":"cebpf4jnsgd1na2vs0mg"},{"bike_id":"ca04c569-8b98-48a9-940a-f0056a516894","system_id":"levelo_inurba_marseille","lat":43.29437,"lon":5.39756,"is_reserved":false,"is_disabled":false,"rental_uris":{"android":"levelo://app?vid=ca04c569-8b98-48a9-940a-f0056a516894","ios":"levelo://app?vid=ca04c569-8b98-48a9-940a-f0056a516894"},"vehicle_type_id":"4","last_reported":1758809449,"current_range_meters":12800,"station_id":"ce4bh3h2rcd13ifvqdo0","pricing_plan_id":"cebpf4jnsgd1na2vs0mg"},{"bike_id":"03c12457-0866-4283-a32c-3c94a04d7d47","system_id":"levelo_inurba_marseille","lat":43.26568,"lon":5.37301,"is_reserved":false,"is_disabled":false,"rental_uris":{"android":"levelo://app?vid=03c12457-0866-4283-a32c-3c94a04d7d47","ios":"levelo://app?vid=03c12457-0866-4283-a32c-3c94a04d7d47"},"vehicle_type_id":"4","last_reported":1758809449,"current_range_meters":13600,"station_id":"ce4bhg12rcd13ifvqf70","pricing_plan_id":"cebpf4jnsgd1na2vs0mg"},{"bike_id":"82d161be-763e-4df4-a1ba-be0e3c89505c","system_id":"levelo_inurba_marseille","lat":43.280771,"lon":5.39657,"is_reserved":false,"is_disabled":false,"rental_uris":{"android":"levelo://app?vid=82d161be-763e-4df4-a1ba-be0e3c89505c","ios":"levelo://app?vid=82d161be-763e-4df4-a1ba-be0e3c89505c"},"vehicle_type_id":"4","last_reported":1758809449,"current_range_meters":13600,"station_id":"ce4bho12rcd13ifvqh2g","pricing_plan_id":"cebpf4jnsgd1na2vs0mg"},{"bike_id":"1eed498f-827e-4f95-8e20-4820673863da","system_id":"levelo_inurba_marseille","lat":43.33775,"lon":5.37449,"is_reserved":false,"is_disabled":false,"rental_uris":{"android":"levelo://app?vid=1eed498f-827e-4f95-8e20-4820673863da","ios":"levelo://app?vid=1eed498f-827e-4f95-8e20-4820673863da"},"vehicle_type_id":"4","last_reported":1758809449,"current_range_meters":14000,"station_id":"","pricing_plan_id":"cebpf4jnsgd1na2vs0mg"},{"bike_id":"87e35d32-0ec4-4cda-949d-9256b87baba1","system_id":"levelo_inurba_marseille","lat":43.337444,"lon":5.374475,"is_reserved":false,"is_disabled":false,"rental_uris":{"android":"levelo://app?vid=87e35d32-0ec4-4cda-949d-9256b87baba1","ios":"levelo://app?vid=87e35d32-0ec4-4cda-949d-9256b87baba1"},"vehicle_type_id":"4","last_reported":1758809449,"current_range_meters":13600,"station_id":"","pricing_plan_id":"cebpf4jnsgd1na2vs0mg"},{"bike_id":"3e795a56-fcd5-414a-824d-13838a97cb44","system_id":"levelo_inurba_marseille","lat":43.24171,"lon":5.36383,"is_reserved":false,"is_disabled":false,"rental_uris":{"android":"levelo://app?vid=3e795a56-fcd5-414a-824d-13838a97cb44","ios":"levelo://app?vid=3e795a56-fcd5-414a-824d-13838a97cb44"},"vehicle_type_id":"4","last_reported":1758809449,"current_range_meters":14000,"station_id":"cpo36qri1sfpv3e86is0","pricing_plan_id":"cebpf4jnsgd1na2vs0mg"},{"bike_id":"af60c407-5d0d-4124-90bc-f5c672eb5129","system_id":"levelo_inurba_marseille","lat":43.317,"lon":5.40441,"is_reserved":false,"is_disabled":false,"rental_uris":{"android":"levelo://app?vid=af60c407-5d0d-4124-90bc-f5c672eb5129","ios":"levelo://app?vid=af60c407-5d0d-4124-90bc-f5c672eb5129"},"vehicle_type_id":"4","last_reported":1758809449,"current_range_meters":14000,"station_id":"ce4bh012rcd13ifvqd00","pricing_plan_id":"cebpf4jnsgd1na2vs0mg"},{"bike_id":"8b75477f-10f0-4393-bd04-9642a86def9d","system_id":"levelo_inurba_marseille","lat":43.23146,"lon":5.43728,"is_reserved":false,"is_disabled":false,"rental_uris":{"android":"levelo://app?vid=8b75477f-10f0-4393-bd04-9642a86def9d","ios":"levelo://app?vid=8b75477f-10f0-4393-bd04-9642a86def9d"},"vehicle_type_id":"4","last_reported":1758809449,"current_range_meters":14000,"station_id":"ce4bhmp2rcd13ifvqgog","pricing_plan_id":"cebpf4jnsgd1na2vs0mg"},{"bike_id":"85cd6d06-e6e2-4f5c-a023-284376820711","system_id":"levelo_inurba_marseille","lat":43.29703,"lon":5.36587,"is_reserved":false,"is_disabled":false,"rental_uris":{"android":"levelo://app?vid=85cd6d06-e6e2-4f5c-a023-284376820711","ios":"levelo://app?vid=85cd6d06-e6e2-4f5c-a023-284376820711"},"vehicle_type_id":"4","last_reported":1758809449,"current_range_meters":14000,"station_id":"ce4bgn12rcd13ifvqbt0","pricing_plan_id":"cebpf4jnsgd1na2vs0mg"},{"bike_id":"595573fc-e79a-41eb-8127-3c8f7b96d8f1","system_id":"levelo_inurba_marseille","lat":43.265643,"lon":5.372895,"is_reserved":false,"is_disabled":false,"rental_uris":{"android":"levelo://app?vid=595573fc-e79a-41eb-8127-3c8f7b96d8f1","ios":"levelo://app?vid=595573fc-e79a-41eb-8127-3c8f7b96d8f1"},"vehicle_type_id":"4","last_reported":1758809449,"current_range_meters":14000,"station_id":"ce4bhg12rcd13ifvqf70","pricing_plan_id":"cebpf4jnsgd1na2vs0mg"},{"bike_id":"1c27f7d4-507d-43e2-b324-44f5e35dee72","system_id":"levelo_inurba_marseille","lat":43.32368,"lon":5.38869,"is_reserved":false,"is_disabled":false,"rental_uris":{"android":"levelo://app?vid=1c27f7d4-507d-43e2-b324-44f5e35dee72","ios":"levelo://app?vid=1c27f7d4-507d-43e2-b324-44f5e35dee72"},"vehicle_type_id":"4","last_reported":1758809449,"current_range_meters":14000,"station_id":"ce4bhqp2rcd13ifvqhog","pricing_plan_id":"cebpf4jnsgd1na2vs0mg"},{"bike_id":"d31d856a-933d-49cf-948f-ce03657dfc74","system_id":"levelo_inurba_marseille","lat":43.28419,"lon":5.34982,"is_reserved":false,"is_disabled":false,"rental_uris":{"android":"levelo://app?vid=d31d856a-933d-49cf-948f-ce03657dfc74","ios":"levelo://app?vid=d31d856a-933d-49cf-948f-ce03657dfc74"},"vehicle_type_id":"4","last_reported":1758809449,"current_range_meters":14000,"station_id":"ce4bhbh2rcd13ifvqepg","pricing_plan_id":"cebpf4jnsgd1na2vs0mg"},{"bike_id":"da31b028-2f05-491c-8a3c-833c47440e43","system_id":"levelo_inurba_marseille","lat":43.29032,"lon":5.3996,"is_reserved":false,"is_disabled":false,"rental_uris":{"android":"levelo://app?vid=da31b028-2f05-491c-8a3c-833c47440e43","ios":"levelo://app?vid=da31b028-2f05-491c-8a3c-833c47440e43"},"vehicle_type_id":"4","last_reported":1758809449,"current_range_meters":14000,"station_id":"ce4bh392rcd13ifvqdm0","pricing_plan_id":"cebpf4jnsgd1na2vs0mg"},{"bike_id":"96c55bcf-90b7-4618-9025-978539f925b5","system_id":"levelo_inurba_marseille","lat":43.32352,"lon":5.36758,"is_reserved":false,"is_disabled":false,"rental_uris":{"android":"levelo://app?vid=96c55bcf-90b7-4618-9025-978539f925b5","ios":"levelo://app?vid=96c55bcf-90b7-4618-9025-978539f925b5"},"vehicle_type_id":"4","last_reported":1758809449,"current_range_meters":14000,"station_id":"ce4bhsh2rcd13ifvqi2g","pricing_plan_id":"cebpf4jnsgd1na2vs0mg"},{"bike_id":"df649d25-1f44-4471-8cdd-9566da8ef9b9","system_id":"levelo_inurba_marseille","lat":43.32365,"lon":5.38883,"is_reserved":false,"is_disabled":false,"rental_uris":{"android":"levelo://app?vid=df649d25-1f44-4471-8cdd-9566da8ef9b9","ios":"levelo://app?vid=df649d25-1f44-4471-8cdd-9566da8ef9b9"},"vehicle_type_id":"4","last_reported":1758809449,"current_range_meters":14400,"station_id":"ce4bhqp2rcd13ifvqhog","pricing_plan_id":"cebpf4jnsgd1na2vs0mg"},{"bike_id":"a291eeae-bc52-451c-8f67-3780447bf373","system_id":"levelo_inurba_marseille","lat":43.323603,"lon":5.367474,"is_reserved":false,"is_disabled":false,"rental_uris":{"android":"levelo://app?vid=a291eeae-bc52-451c-8f67-3780447bf373","ios":"levelo://app?vid=a291eeae-bc52-451c-8f67-3780447bf373"},"vehicle_type_id":"4","last_reported":1758809449,"current_range_meters":14400,"station_id":"ce4bhsh2rcd13ifvqi2g","pricing_plan_id":"cebpf4jnsgd1na2vs0mg"},{"bike_id":"f897d300-643c-4c7a-951b-f56d70ef23ca","system_id":"levelo_inurba_marseille","lat":43.30336,"lon":5.39062,"is_reserved":false,"is_disabled":false,"rental_uris":{"android":"levelo://app?vid=f897d300-643c-4c7a-951b-f56d70ef23ca","ios":"levelo://app?vid=f897d300-643c-4c7a-951b-f56d70ef23ca"},"vehicle_type_id":"4","last_reported":1758809449,"current_range_meters":14400,"station_id":"","pricing_plan_id":"cebpf4jnsgd1na2vs0mg"},{"bike_id":"4322c262-7a26-437b-9526-4c27c991a4bc","system_id":"levelo_inurba_marseille","lat":43.23153,"lon":5.43704,"is_reserved":false,"is_disabled":false,"rental_uris":{"android":"levelo://app?vid=4322c262-7a26-437b-9526-4c27c991a4bc","ios":"levelo://app?vid=4322c262-7a26-437b-9526-4c27c991a4bc"},"vehicle_type_id":"4","last_reported":1758809449,"current_range_meters":14400,"station_id":"ce4bhmp2rcd13ifvqgog","pricing_plan_id":"cebpf4jnsgd1na2vs0mg"},{"bike_id":"3731e4b4-e57b-4ad8-affe-801decac42ca","system_id":"levelo_inurba_marseille","lat":43.24947,"lon":5.40495,"is_reserved":false,"is_disabled":false,"rental_uris":{"android":"levelo://app?vid=3731e4b4-e57b-4ad8-affe-801decac42ca","ios":"levelo://app?vid=3731e4b4-e57b-4ad8-affe-801decac42ca"},"vehicle_type_id":"4","last_reported":1758809449,"current_range_meters":14400,"station_id":"st_d2ngiaodas8pm72gd1h0","pricing_plan_id":"cebpf4jnsgd1na2vs0mg"},{"bike_id":"c7f6a08b-c655-4213-b2ba-7d02e7f382fe","system_id":"levelo_inurba_marseille","lat":43.27988,"lon":5.39483,"is_reserved":false,"is_disabled":false,"rental_uris":{"android":"levelo://app?vid=c7f6a08b-c655-4213-b2ba-7d02e7f382fe","ios":"levelo://app?vid=c7f6a08b-c655-4213-b2ba-7d02e7f382fe"},"vehicle_type_id":"4","last_reported":1758809449,"current_range_meters":14400,"station_id":"","pricing_plan_id":"cebpf4jnsgd1na2vs0mg"},{"bike_id":"8b38790f-2d99-43bd-be10-dff12f67d8dd","system_id":"levelo_inurba_marseille","lat":43.28712,"lon":5.37934,"is_reserved":false,"is_disabled":false,"rental_uris":{"android":"levelo://app?vid=8b38790f-2d99-43bd-be10-dff12f67d8dd","ios":"levelo://app?vid=8b38790f-2d99-43bd-be10-dff12f67d8dd"},"vehicle_type_id":"4","last_reported":1758809449,"current_range_meters":14400,"station_id":"ce4bh9p2rcd13ifvqec0","pricing_plan_id":"cebpf4jnsgd1na2vs0mg"},{"bike_id":"e5303607-da03-4ac7-b81e-b332ede84cf7","system_id":"levelo_inurba_marseille","lat":43.31302,"lon":5.3781,"is_reserved":false,"is_disabled":false,"rental_uris":{"android":"levelo://app?vid=e5303607-da03-4ac7-b81e-b332ede84cf7","ios":"levelo://app?vid=e5303607-da03-4ac7-b81e-b332ede84cf7"},"vehicle_type_id":"4","last_reported":1758809449,"current_range_meters":14400,"station_id":"","pricing_plan_id":"cebpf4jnsgd1na2vs0mg"},{"bike_id":"1a48820e-08fe-4675-a54b-651241ef6812","system_id":"levelo_inurba_marseille","lat":43.25341,"lon":5.42162,"is_reserved":false,"is_disabled":false,"rental_uris":{"android":"levelo://app?vid=1a48820e-08fe-4675-a54b-651241ef6812","ios":"levelo://app?vid=1a48820e-08fe-4675-a54b-651241ef6812"},"vehicle_type_id":"4","last_reported":1758809449,"current_range_meters":14400,"station_id":"st_d2m65c5bi1j21697t3ng","pricing_plan_id":"cebpf4jnsgd1na2vs0mg"},{"bike_id":"74f40866-2c32-4f2d-86ad-36601678b525","system_id":"levelo_inurba_marseille","lat":43.28264,"lon":5.35058,"is_reserved":false,"is_disabled":false,"rental_uris":{"android":"levelo://app?vid=74f40866-2c32-4f2d-86ad-36601678b525","ios":"levelo://app?vid=74f40866-2c32-4f2d-86ad-36601678b525"},"vehicle_type_id":"4","last_reported":1758809449,"current_range_meters":14800,"station_id":"ce4bhbp2rcd13ifvqerg","pricing_plan_id":"cebpf4jnsgd1na2vs0mg"},{"bike_id":"606509ed-8225-4624-8ecf-492690476bed","system_id":"levelo_inurba_marseille","lat":43.25822,"lon":5.39425,"is_reserved":false,"is_disabled":false,"rental_uris":{"android":"levelo://app?vid=606509ed-8225-4624-8ecf-492690476bed","ios":"levelo://app?vid=606509ed-8225-4624-8ecf-492690476bed"},"vehicle_type_id":"4","last_reported":1758809449,"current_range_meters":14800,"station_id":"ce4bhip2rcd13ifvqft0","pricing_plan_id":"cebpf4jnsgd1na2vs0mg"},{"bike_id":"70f51fcf-74f4-45ec-9be6-a0518cc18044","system_id":"levelo_inurba_marseille","lat":43.336,"lon":5.41025,"is_reserved":false,"is_disabled":false,"rental_uris":{"android":"levelo://app?vid=70f51fcf-74f4-45ec-9be6-a0518cc18044","ios":"levelo://app?vid=70f51fcf-74f4-45ec-9be6-a0518cc18044"},"vehicle_type_id":"4","last_reported":1758809449,"current_range_meters":15200,"station_id":"ce4bhqh2rcd13ifvqhmg","pricing_plan_id":"cebpf4jnsgd1na2vs0mg"},{"bike_id":"98d21211-215a-4898-8ab7-381e23b970bd","system_id":"levelo_inurba_marseille","lat":43.30535,"lon":5.36547,"is_reserved":false,"is_disabled":false,"rental_uris":{"android":"levelo://app?vid=98d21211-215a-4898-8ab7-381e23b970bd","ios":"levelo://app?vid=98d21211-215a-4898-8ab7-381e23b970bd"},"vehicle_type_id":"4","last_reported":1758809449,"current_range_meters":15200,"station_id":"ce4bgs12rcd13ifvqcag","pricing_plan_id":"cebpf4jnsgd1na2vs0mg"},{"bike_id":"041cd397-24ab-4e04-af23-07b961e161f4","system_id":"levelo_inurba_marseille","lat":43.337444,"lon":5.374475,"is_reserved":false,"is_disabled":false,"rental_uris":{"android":"levelo://app?vid=041cd397-24ab-4e04-af23-07b961e161f4","ios":"levelo://app?vid=041cd397-24ab-4e04-af23-07b961e161f4"},"vehicle_type_id":"4","last_reported":1758809449,"current_range_meters":15200,"station_id":"","pricing_plan_id":"cebpf4jnsgd1na2vs0mg"},{"bike_id":"0f6610c3-0117-423f-96c3-13fb2a429453","system_id":"levelo_inurba_marseille","lat":43.29251,"lon":5.40905,"is_reserved":false,"is_disabled":false,"rental_uris":{"android":"levelo://app?vid=0f6610c3-0117-423f-96c3-13fb2a429453","ios":"levelo://app?vid=0f6610c3-0117-423f-96c3-13fb2a429453"},"vehicle_type_id":"4","last_reported":1758809449,"current_range_meters":16000,"station_id":"ce4bh192rcd13ifvqdc0","pricing_plan_id":"cebpf4jnsgd1na2vs0mg"},{"bike_id":"de034c7b-77bc-4224-844f-5abbbafacb5a","system_id":"levelo_inurba_marseille","lat":43.30883,"lon":5.39635,"is_reserved":false,"is_disabled":false,"rental_uris":{"android":"levelo://app?vid=de034c7b-77bc-4224-844f-5abbbafacb5a","ios":"levelo://app?vid=de034c7b-77bc-4224-844f-5abbbafacb5a"},"vehicle_type_id":"4","last_reported":1758809449,"current_range_meters":16000,"station_id":"ce4bh012rcd13ifvqcv0","pricing_plan_id":"cebpf4jnsgd1na2vs0mg"},{"bike_id":"751b459c-ece3-4965-8b39-d32f7b7f19e9","system_id":"levelo_inurba_marseille","lat":43.30786,"lon":5.37647,"is_reserved":false,"is_disabled":false,"rental_uris":{"android":"levelo://app?vid=751b459c-ece3-4965-8b39-d32f7b7f19e9","ios":"levelo://app?vid=751b459c-ece3-4965-8b39-d32f7b7f19e9"},"vehicle_type_id":"4","last_reported":1758809449,"current_range_meters":16000,"station_id":"ce4bgv92rcd13ifvqcq0","pricing_plan_id":"cebpf4jnsgd1na2vs0mg"},{"bike_id":"1962763a-068c-43af-80ca-b2d480514eda","system_id":"levelo_inurba_marseille","lat":43.24959,"lon":5.40495,"is_reserved":false,"is_disabled":false,"rental_uris":{"android":"levelo://app?vid=1962763a-068c-43af-80ca-b2d480514eda","ios":"levelo://app?vid=1962763a-068c-43af-80ca-b2d480514eda"},"vehicle_type_id":"4","last_reported":1758809449,"current_range_meters":16000,"station_id":"st_d2ngiaodas8pm72gd1h0","pricing_plan_id":"cebpf4jnsgd1na2vs0mg"},{"bike_id":"d734f0f7-bb82-4cbc-9571-824c32d91d22","system_id":"levelo_inurba_marseille","lat":43.24176,"lon":5.36403,"is_reserved":false,"is_disabled":false,"rental_uris":{"android":"levelo://app?vid=d734f0f7-bb82-4cbc-9571-824c32d91d22","ios":"levelo://app?vid=d734f0f7-bb82-4cbc-9571-824c32d91d22"},"vehicle_type_id":"4","last_reported":1758809449,"current_range_meters":16000,"station_id":"cpo36qri1sfpv3e86is0","pricing_plan_id":"cebpf4jnsgd1na2vs0mg"},{"bike_id":"b0876e22-01c2-4752-8c20-d0f26e855839","system_id":"levelo_inurba_marseille","lat":43.31356,"lon":5.38505,"is_reserved":false,"is_disabled":false,"rental_uris":{"android":"levelo://app?vid=b0876e22-01c2-4752-8c20-d0f26e855839","ios":"levelo://app?vid=b0876e22-01c2-4752-8c20-d0f26e855839"},"vehicle_type_id":"4","last_reported":1758809449,"current_range_meters":16000,"station_id":"ce4bgt92rcd13ifvqcf0","pricing_plan_id":"cebpf4jnsgd1na2vs0mg"},{"bike_id":"ca1c3235-95fc-4837-a2c9-df6873877b35","system_id":"levelo_inurba_marseille","lat":43.29932,"lon":5.36538,"is_reserved":false,"is_disabled":false,"rental_uris":{"android":"levelo://app?vid=ca1c3235-95fc-4837-a2c9-df6873877b35","ios":"levelo://app?vid=ca1c3235-95fc-4837-a2c9-df6873877b35"},"vehicle_type_id":"4","last_reported":1758809449,"current_range_meters":16000,"station_id":"ce4bgm92rcd13ifvqbr0","pricing_plan_id":"cebpf4jnsgd1na2vs0mg"},{"bike_id":"b6ff3672-4e7c-404c-ab2a-bd902cf95e14","system_id":"levelo_inurba_marseille","lat":43.26861,"lon":5.40658,"is_reserved":false,"is_disabled":false,"rental_uris":{"android":"levelo://app?vid=b6ff3672-4e7c-404c-ab2a-bd902cf95e14","ios":"levelo://app?vid=b6ff3672-4e7c-404c-ab2a-bd902cf95e14"},"vehicle_type_id":"4","last_reported":1758809449,"current_range_meters":16000,"station_id":"","pricing_plan_id":"cebpf4jnsgd1na2vs0mg"},{"bike_id":"8853ca67-02c3-4604-aaf0-76ea98b989a3","system_id":"levelo_inurba_marseille","lat":43.258726,"lon":5.372901,"is_reserved":false,"is_disabled":false,"rental_uris":{"android":"levelo://app?vid=8853ca67-02c3-4604-aaf0-76ea98b989a3","ios":"levelo://app?vid=8853ca67-02c3-4604-aaf0-76ea98b989a3"},"vehicle_type_id":"4","last_reported":1758809449,"current_range_meters":16000,"station_id":"","pricing_plan_id":"cebpf4jnsgd1na2vs0mg"},{"bike_id":"97a5ee76-2e0a-479d-a727-d5a9ad8fecb2","system_id":"levelo_inurba_marseille","lat":43.22945,"lon":5.35364,"is_reserved":false,"is_disabled":false,"rental_uris":{"android":"levelo://app?vid=97a5ee76-2e0a-479d-a727-d5a9ad8fecb2","ios":"levelo://app?vid=97a5ee76-2e0a-479d-a727-d5a9ad8fecb2"},"vehicle_type_id":"4","last_reported":1758809449,"current_range_meters":16400,"station_id":"cpo3532slgdg3j2ikp40","pricing_plan_id":"cebpf4jnsgd1na2vs0mg"},{"bike_id":"15d2418b-b348-492c-9cab-d7afbb95f04f","system_id":"levelo_inurba_marseille","lat":43.29022,"lon":5.38635,"is_reserved":false,"is_disabled":false,"rental_uris":{"android":"levelo://app?vid=15d2418b-b348-492c-9cab-d7afbb95f04f","ios":"levelo://app?vid=15d2418b-b348-492c-9cab-d7afbb95f04f"},"vehicle_type_id":"4","last_reported":1758809449,"current_range_meters":16400,"station_id":"ce4bh4p2rcd13ifvqe0g","pricing_plan_id":"cebpf4jnsgd1na2vs0mg"},{"bike_id":"567c9c08-2df1-4876-b0b0-3894b43cbc13","system_id":"levelo_inurba_marseille","lat":43.30155,"lon":5.38084,"is_reserved":false,"is_disabled":false,"rental_uris":{"android":"levelo://app?vid=567c9c08-2df1-4876-b0b0-3894b43cbc13","ios":"levelo://app?vid=567c9c08-2df1-4876-b0b0-3894b43cbc13"},"vehicle_type_id":"4","last_reported":1758809449,"current_range_meters":16400,"station_id":"ce4bgjp2rcd13ifvqbh0","pricing_plan_id":"cebpf4jnsgd1na2vs0mg"},{"bike_id":"9b60f32b-f965-4366-b2f7-6a0d1f9f47cb","system_id":"levelo_inurba_marseille","lat":43.26061,"lon":5.39395,"is_reserved":false,"is_disabled":false,"rental_uris":{"android":"levelo://app?vid=9b60f32b-f965-4366-b2f7-6a0d1f9f47cb","ios":"levelo://app?vid=9b60f32b-f965-4366-b2f7-6a0d1f9f47cb"},"vehicle_type_id":"4","last_reported":1758809449,"current_range_meters":16400,"station_id":"ce4bhh92rcd13ifvqfj0","pricing_plan_id":"cebpf4jnsgd1na2vs0mg"},{"bike_id":"834a4381-6fdb-4334-a45a-528d5cb23dc0","system_id":"levelo_inurba_marseille","lat":43.31327,"lon":5.39698,"is_reserved":false,"is_disabled":false,"rental_uris":{"android":"levelo://app?vid=834a4381-6fdb-4334-a45a-528d5cb23dc0","ios":"levelo://app?vid=834a4381-6fdb-4334-a45a-528d5cb23dc0"},"vehicle_type_id":"4","last_reported":1758809449,"current_range_meters":17600,"station_id":"ce4bgvp2rcd13ifvqcu0","pricing_plan_id":"cebpf4jnsgd1na2vs0mg"},{"bike_id":"c31c58ee-4e29-4ce3-bf0a-25ae5cf57cfc","system_id":"levelo_inurba_marseille","lat":43.24951,"lon":5.40485,"is_reserved":false,"is_disabled":false,"rental_uris":{"android":"levelo://app?vid=c31c58ee-4e29-4ce3-bf0a-25ae5cf57cfc","ios":"levelo://app?vid=c31c58ee-4e29-4ce3-bf0a-25ae5cf57cfc"},"vehicle_type_id":"4","last_reported":1758809449,"current_range_meters":16400,"station_id":"st_d2ngiaodas8pm72gd1h0","pricing_plan_id":"cebpf4jnsgd1na2vs0mg"},{"bike_id":"f08718b9-e1c7-4dd4-8a31-eead7fcd1c85","system_id":"levelo_inurba_marseille","lat":43.32109,"lon":5.36772,"is_reserved":false,"is_disabled":false,"rental_uris":{"android":"levelo://app?vid=f08718b9-e1c7-4dd4-8a31-eead7fcd1c85","ios":"levelo://app?vid=f08718b9-e1c7-4dd4-8a31-eead7fcd1c85"},"vehicle_type_id":"4","last_reported":1758809449,"current_range_meters":16400,"station_id":"ce4bhrh2rcd13ifvqhug","pricing_plan_id":"cebpf4jnsgd1na2vs0mg"},{"bike_id":"39e6b2d7-e7bc-4366-8a01-87bc46855564","system_id":"levelo_inurba_marseille","lat":43.321092,"lon":5.367719,"is_reserved":false,"is_disabled":false,"rental_uris":{"android":"levelo://app?vid=39e6b2d7-e7bc-4366-8a01-87bc46855564","ios":"levelo://app?vid=39e6b2d7-e7bc-4366-8a01-87bc46855564"},"vehicle_type_id":"4","last_reported":1758809449,"current_range_meters":16400,"station_id":"ce4bhrh2rcd13ifvqhug","pricing_plan_id":"cebpf4jnsgd1na2vs0mg"},{"bike_id":"872ecbb4-a64e-4509-9b48-1ea78a1893d4","system_id":"levelo_inurba_marseille","lat":43.29573,"lon":5.39967,"is_reserved":false,"is_disabled":false,"rental_uris":{"android":"levelo://app?vid=872ecbb4-a64e-4509-9b48-1ea78a1893d4","ios":"levelo://app?vid=872ecbb4-a64e-4509-9b48-1ea78a1893d4"},"vehicle_type_id":"4","last_reported":1758809449,"current_range_meters":16000,"station_id":"ce4bh312rcd13ifvqdj0","pricing_plan_id":"cebpf4jnsgd1na2vs0mg"},{"bike_id":"7e848ad8-3b46-4990-8791-073379270774","system_id":"levelo_inurba_marseille","lat":43.2733,"lon":5.3909,"is_reserved":false,"is_disabled":true,"rental_uris":{"android":"levelo://app?vid=7e848ad8-3b46-4990-8791-073379270774","ios":"levelo://app?vid=7e848ad8-3b46-4990-8791-073379270774"},"vehicle_type_id":"4","last_reported":1758809449,"current_range_meters":16800,"station_id":"ce4bhgp2rcd13ifvqfe0","pricing_plan_id":"cebpf4jnsgd1na2vs0mg"},{"bike_id":"fc0c7499-532a-4ad7-b3f6-c72f9d10d862","system_id":"levelo_inurba_marseille","lat":43.31222,"lon":5.36851,"is_reserved":false,"is_disabled":false,"rental_uris":{"android":"levelo://app?vid=fc0c7499-532a-4ad7-b3f6-c72f9d10d862","ios":"levelo://app?vid=fc0c7499-532a-4ad7-b3f6-c72f9d10d862"},"vehicle_type_id":"4","last_reported":1758809449,"current_range_meters":16400,"station_id":"ce4bgl92rcd13ifvqbq0","pricing_plan_id":"cebpf4jnsgd1na2vs0mg"},{"bike_id":"f84ca7be-c651-4e74-bba2-65c5fe4928ff","system_id":"levelo_inurba_marseille","lat":43.23167,"lon":5.43713,"is_reserved":false,"is_disabled":false,"rental_uris":{"android":"levelo://app?vid=f84ca7be-c651-4e74-bba2-65c5fe4928ff","ios":"levelo://app?vid=f84ca7be-c651-4e74-bba2-65c5fe4928ff"},"vehicle_type_id":"4","last_reported":1758809449,"current_range_meters":16800,"station_id":"ce4bhmp2rcd13ifvqgog","pricing_plan_id":"cebpf4jnsgd1na2vs0mg"},{"bike_id":"a28c4950-acb8-4027-9776-770922e1aae9","system_id":"levelo_inurba_marseille","lat":43.23139,"lon":5.43715,"is_reserved":false,"is_disabled":false,"rental_uris":{"android":"levelo://app?vid=a28c4950-acb8-4027-9776-770922e1aae9","ios":"levelo://app?vid=a28c4950-acb8-4027-9776-770922e1aae9"},"vehicle_type_id":"4","last_reported":1758809449,"current_range_meters":16800,"station_id":"ce4bhmp2rcd13ifvqgog","pricing_plan_id":"cebpf4jnsgd1na2vs0mg"},{"bike_id":"d47bcabe-415f-46ee-b143-6ff40a07a404","system_id":"levelo_inurba_marseille","lat":43.27047,"lon":5.40279,"is_reserved":false,"is_disabled":false,"rental_uris":{"android":"levelo://app?vid=d47bcabe-415f-46ee-b143-6ff40a07a404","ios":"levelo://app?vid=d47bcabe-415f-46ee-b143-6ff40a07a404"},"vehicle_type_id":"4","last_reported":1758809449,"current_range_meters":16800,"station_id":"ce4bhk92rcd13ifvqgc0","pricing_plan_id":"cebpf4jnsgd1na2vs0mg"},{"bike_id":"e6c862e4-0701-4cd6-9f1a-c5045632cee5","system_id":"levelo_inurba_marseille","lat":43.250849,"lon":5.395305,"is_reserved":false,"is_disabled":false,"rental_uris":{"android":"levelo://app?vid=e6c862e4-0701-4cd6-9f1a-c5045632cee5","ios":"levelo://app?vid=e6c862e4-0701-4cd6-9f1a-c5045632cee5"},"vehicle_type_id":"4","last_reported":1758809449,"current_range_meters":16800,"station_id":"ce4bhh92rcd13ifvqfh0","pricing_plan_id":"cebpf4jnsgd1na2vs0mg"},{"bike_id":"a57b3feb-2354-42fe-87fd-e8fcee3a0260","system_id":"levelo_inurba_marseille","lat":43.26953,"lon":5.40241,"is_reserved":false,"is_disabled":false,"rental_uris":{"android":"levelo://app?vid=a57b3feb-2354-42fe-87fd-e8fcee3a0260","ios":"levelo://app?vid=a57b3feb-2354-42fe-87fd-e8fcee3a0260"},"vehicle_type_id":"4","last_reported":1758809449,"current_range_meters":16800,"station_id":"","pricing_plan_id":"cebpf4jnsgd1na2vs0mg"},{"bike_id":"75d73ab9-ac13-44ed-a5f2-2eb47879b783","system_id":"levelo_inurba_marseille","lat":43.30543,"lon":5.36678,"is_reserved":false,"is_disabled":false,"rental_uris":{"android":"levelo://app?vid=75d73ab9-ac13-44ed-a5f2-2eb47879b783","ios":"levelo://app?vid=75d73ab9-ac13-44ed-a5f2-2eb47879b783"},"vehicle_type_id":"4","last_reported":1758809449,"current_range_meters":16800,"station_id":"ce4bgrp2rcd13ifvqc9g","pricing_plan_id":"cebpf4jnsgd1na2vs0mg"},{"bike_id":"ba497036-143b-4452-b70f-c2678e359f20","system_id":"levelo_inurba_marseille","lat":43.26206,"lon":5.37437,"is_reserved":false,"is_disabled":false,"rental_uris":{"android":"levelo://app?vid=ba497036-143b-4452-b70f-c2678e359f20","ios":"levelo://app?vid=ba497036-143b-4452-b70f-c2678e359f20"},"vehicle_type_id":"4","last_reported":1758809449,"current_range_meters":17200,"station_id":"ce4bhgp2rcd13ifvqfc0","pricing_plan_id":"cebpf4jnsgd1na2vs0mg"},{"bike_id":"43f56d58-1b07-45ca-99eb-ebe4d290b7b0","system_id":"levelo_inurba_marseille","lat":43.262,"lon":5.37929,"is_reserved":false,"is_disabled":false,"rental_uris":{"android":"levelo://app?vid=43f56d58-1b07-45ca-99eb-ebe4d290b7b0","ios":"levelo://app?vid=43f56d58-1b07-45ca-99eb-ebe4d290b7b0"},"vehicle_type_id":"4","last_reported":1758809449,"current_range_meters":17200,"station_id":"ce4bhjp2rcd13ifvqg90","pricing_plan_id":"cebpf4jnsgd1na2vs0mg"},{"bike_id":"bb38e78d-5511-4e94-a24d-89b6f678f2e5","system_id":"levelo_inurba_marseille","lat":43.31482,"lon":5.37305,"is_reserved":false,"is_disabled":false,"rental_uris":{"android":"levelo://app?vid=bb38e78d-5511-4e94-a24d-89b6f678f2e5","ios":"levelo://app?vid=bb38e78d-5511-4e94-a24d-89b6f678f2e5"},"vehicle_type_id":"4","last_reported":1758809449,"current_range_meters":17200,"station_id":"ce4bgt12rcd13ifvqcd0","pricing_plan_id":"cebpf4jnsgd1na2vs0mg"},{"bike_id":"a10f7ed7-4d21-45d1-b57d-01405ef498fe","system_id":"levelo_inurba_marseille","lat":43.31243,"lon":5.36898,"is_reserved":false,"is_disabled":false,"rental_uris":{"android":"levelo://app?vid=a10f7ed7-4d21-45d1-b57d-01405ef498fe","ios":"levelo://app?vid=a10f7ed7-4d21-45d1-b57d-01405ef498fe"},"vehicle_type_id":"4","last_reported":1758809449,"current_range_meters":17200,"station_id":"ce4bgl92rcd13ifvqbq0","pricing_plan_id":"cebpf4jnsgd1na2vs0mg"},{"bike_id":"35425744-1bb5-4605-bd68-007206a687a1","system_id":"levelo_inurba_marseille","lat":43.313306,"lon":5.396983,"is_reserved":false,"is_disabled":false,"rental_uris":{"android":"levelo://app?vid=35425744-1bb5-4605-bd68-007206a687a1","ios":"levelo://app?vid=35425744-1bb5-4605-bd68-007206a687a1"},"vehicle_type_id":"4","last_reported":1758809449,"current_range_meters":17200,"station_id":"ce4bgvp2rcd13ifvqcu0","pricing_plan_id":"cebpf4jnsgd1na2vs0mg"},{"bike_id":"657c3c21-29e5-4d67-95ae-5fec90c65136","system_id":"levelo_inurba_marseille","lat":43.30883,"lon":5.37206,"is_reserved":false,"is_disabled":false,"rental_uris":{"android":"levelo://app?vid=657c3c21-29e5-4d67-95ae-5fec90c65136","ios":"levelo://app?vid=657c3c21-29e5-4d67-95ae-5fec90c65136"},"vehicle_type_id":"4","last_reported":1758809449,"current_range_meters":17200,"station_id":"ce4bguh2rcd13ifvqckg","pricing_plan_id":"cebpf4jnsgd1na2vs0mg"},{"bike_id":"bb55bdb6-d0b3-4e10-97cf-0bc4f1b8165b","system_id":"levelo_inurba_marseille","lat":43.27934,"lon":5.41021,"is_reserved":false,"is_disabled":false,"rental_uris":{"android":"levelo://app?vid=bb55bdb6-d0b3-4e10-97cf-0bc4f1b8165b","ios":"levelo://app?vid=bb55bdb6-d0b3-4e10-97cf-0bc4f1b8165b"},"vehicle_type_id":"4","last_reported":1758809449,"current_range_meters":17200,"station_id":"ce4bhnp2rcd13ifvqh0g","pricing_plan_id":"cebpf4jnsgd1na2vs0mg"},{"bike_id":"7b48f9da-656b-4ee2-9306-cb5bf7123ffd","system_id":"levelo_inurba_marseille","lat":43.28098,"lon":5.37832,"is_reserved":false,"is_disabled":false,"rental_uris":{"android":"levelo://app?vid=7b48f9da-656b-4ee2-9306-cb5bf7123ffd","ios":"levelo://app?vid=7b48f9da-656b-4ee2-9306-cb5bf7123ffd"},"vehicle_type_id":"4","last_reported":1758809449,"current_range_meters":17600,"station_id":"ce4bha12rcd13ifvqee0","pricing_plan_id":"cebpf4jnsgd1na2vs0mg"},{"bike_id":"9e998cef-d196-444b-b732-61a5398f28dd","system_id":"levelo_inurba_marseille","lat":43.30877,"lon":5.39639,"is_reserved":false,"is_disabled":false,"rental_uris":{"android":"levelo://app?vid=9e998cef-d196-444b-b732-61a5398f28dd","ios":"levelo://app?vid=9e998cef-d196-444b-b732-61a5398f28dd"},"vehicle_type_id":"4","last_reported":1758809449,"current_range_meters":17600,"station_id":"ce4bh012rcd13ifvqcv0","pricing_plan_id":"cebpf4jnsgd1na2vs0mg"},{"bike_id":"cb586d54-3471-470a-9fc6-fc3e5b5f7b7b","system_id":"levelo_inurba_marseille","lat":43.25088,"lon":5.39522,"is_reserved":false,"is_disabled":false,"rental_uris":{"android":"levelo://app?vid=cb586d54-3471-470a-9fc6-fc3e5b5f7b7b","ios":"levelo://app?vid=cb586d54-3471-470a-9fc6-fc3e5b5f7b7b"},"vehicle_type_id":"4","last_reported":1758809449,"current_range_meters":17600,"station_id":"ce4bhm12rcd13ifvqgkg","pricing_plan_id":"cebpf4jnsgd1na2vs0mg"},{"bike_id":"1bf0d617-d19f-402a-8397-1391b616115d","system_id":"levelo_inurba_marseille","lat":43.290933,"lon":5.381323,"is_reserved":false,"is_disabled":false,"rental_uris":{"android":"levelo://app?vid=1bf0d617-d19f-402a-8397-1391b616115d","ios":"levelo://app?vid=1bf0d617-d19f-402a-8397-1391b616115d"},"vehicle_type_id":"4","last_reported":1758809449,"current_range_meters":17200,"station_id":"ce4bh512rcd13ifvqe2g","pricing_plan_id":"cebpf4jnsgd1na2vs0mg"},{"bike_id":"7f09bc43-02a6-468a-9182-731c83281b4a","system_id":"levelo_inurba_marseille","lat":43.26365,"lon":5.37439,"is_reserved":false,"is_disabled":false,"rental_uris":{"android":"levelo://app?vid=7f09bc43-02a6-468a-9182-731c83281b4a","ios":"levelo://app?vid=7f09bc43-02a6-468a-9182-731c83281b4a"},"vehicle_type_id":"4","last_reported":1758809449,"current_range_meters":17600,"station_id":"","pricing_plan_id":"cebpf4jnsgd1na2vs0mg"},{"bike_id":"13be0879-670b-43f4-8fc1-8fbc1c4ccf9c","system_id":"levelo_inurba_marseille","lat":43.284208,"lon":5.349895,"is_reserved":false,"is_disabled":false,"rental_uris":{"android":"levelo://app?vid=13be0879-670b-43f4-8fc1-8fbc1c4ccf9c","ios":"levelo://app?vid=13be0879-670b-43f4-8fc1-8fbc1c4ccf9c"},"vehicle_type_id":"4","last_reported":1758809449,"current_range_meters":17600,"station_id":"ce4bhbh2rcd13ifvqepg","pricing_plan_id":"cebpf4jnsgd1na2vs0mg"},{"bike_id":"f5a888db-229a-4246-81ee-0ff2a1bcfdfa","system_id":"levelo_inurba_marseille","lat":43.22929,"lon":5.35377,"is_reserved":false,"is_disabled":false,"rental_uris":{"android":"levelo://app?vid=f5a888db-229a-4246-81ee-0ff2a1bcfdfa","ios":"levelo://app?vid=f5a888db-229a-4246-81ee-0ff2a1bcfdfa"},"vehicle_type_id":"4","last_reported":1758809449,"current_range_meters":17600,"station_id":"cpo3532slgdg3j2ikp40","pricing_plan_id":"cebpf4jnsgd1na2vs0mg"},{"bike_id":"43009bdc-c1d2-476d-8753-a235cb8d1a73","system_id":"levelo_inurba_marseille","lat":43.250076,"lon":5.389282,"is_reserved":false,"is_disabled":false,"rental_uris":{"android":"levelo://app?vid=43009bdc-c1d2-476d-8753-a235cb8d1a73","ios":"levelo://app?vid=43009bdc-c1d2-476d-8753-a235cb8d1a73"},"vehicle_type_id":"4","last_reported":1758809449,"current_range_meters":17600,"station_id":"ce4bhgp2rcd13ifvqfd0","pricing_plan_id":"cebpf4jnsgd1na2vs0mg"},{"bike_id":"510b2815-df33-4a77-8749-fc26fda67295","system_id":"levelo_inurba_marseille","lat":43.29228,"lon":5.40386,"is_reserved":false,"is_disabled":false,"rental_uris":{"android":"levelo://app?vid=510b2815-df33-4a77-8749-fc26fda67295","ios":"levelo://app?vid=510b2815-df33-4a77-8749-fc26fda67295"},"vehicle_type_id":"4","last_reported":1758809449,"current_range_meters":12800,"station_id":"ce4bh312rcd13ifvqdk0","pricing_plan_id":"cebpf4jnsgd1na2vs0mg"},{"bike_id":"327c041e-5c9e-4b0d-a97c-a2dbaab036ae","system_id":"levelo_inurba_marseille","lat":43.3294,"lon":5.41096,"is_reserved":false,"is_disabled":false,"rental_uris":{"android":"levelo://app?vid=327c041e-5c9e-4b0d-a97c-a2dbaab036ae","ios":"levelo://app?vid=327c041e-5c9e-4b0d-a97c-a2dbaab036ae"},"vehicle_type_id":"4","last_reported":1758809449,"current_range_meters":18000,"station_id":"","pricing_plan_id":"cebpf4jnsgd1na2vs0mg"},{"bike_id":"467b4306-5fd8-484e-9a4b-cf8eb50151ba","system_id":"levelo_inurba_marseille","lat":43.32284,"lon":5.38262,"is_reserved":false,"is_disabled":false,"rental_uris":{"android":"levelo://app?vid=467b4306-5fd8-484e-9a4b-cf8eb50151ba","ios":"levelo://app?vid=467b4306-5fd8-484e-9a4b-cf8eb50151ba"},"vehicle_type_id":"4","last_reported":1758809449,"current_range_meters":18000,"station_id":"ce4bhr12rcd13ifvqhqg","pricing_plan_id":"cebpf4jnsgd1na2vs0mg"},{"bike_id":"75611fb7-df45-4d9f-9db0-a181136cc424","system_id":"levelo_inurba_marseille","lat":43.21749,"lon":5.34598,"is_reserved":false,"is_disabled":true,"rental_uris":{"android":"levelo://app?vid=75611fb7-df45-4d9f-9db0-a181136cc424","ios":"levelo://app?vid=75611fb7-df45-4d9f-9db0-a181136cc424"},"vehicle_type_id":"4","last_reported":1758809449,"current_range_meters":18000,"station_id":"st_cvj6r9ubvosntc0bgbag","pricing_plan_id":"cebpf4jnsgd1na2vs0mg"},{"bike_id":"bf36ed01-e725-4c64-bbb7-638745867c41","system_id":"levelo_inurba_marseille","lat":43.337444,"lon":5.374475,"is_reserved":false,"is_disabled":false,"rental_uris":{"android":"levelo://app?vid=bf36ed01-e725-4c64-bbb7-638745867c41","ios":"levelo://app?vid=bf36ed01-e725-4c64-bbb7-638745867c41"},"vehicle_type_id":"4","last_reported":1758809449,"current_range_meters":18000,"station_id":"ce4bh012rcd13ifvqcv0","pricing_plan_id":"cebpf4jnsgd1na2vs0mg"},{"bike_id":"77e2d895-129a-4ff3-9d84-075d048492b7","system_id":"levelo_inurba_marseille","lat":43.24992,"lon":5.38935,"is_reserved":false,"is_disabled":false,"rental_uris":{"android":"levelo://app?vid=77e2d895-129a-4ff3-9d84-075d048492b7","ios":"levelo://app?vid=77e2d895-129a-4ff3-9d84-075d048492b7"},"vehicle_type_id":"4","last_reported":1758809449,"current_range_meters":18000,"station_id":"ce4bhgp2rcd13ifvqfd0","pricing_plan_id":"cebpf4jnsgd1na2vs0mg"},{"bike_id":"e37e8de6-367f-4781-830a-609c7b547700","system_id":"levelo_inurba_marseille","lat":43.28368,"lon":5.38667,"is_reserved":false,"is_disabled":false,"rental_uris":{"android":"levelo://app?vid=e37e8de6-367f-4781-830a-609c7b547700","ios":"levelo://app?vid=e37e8de6-367f-4781-830a-609c7b547700"},"vehicle_type_id":"4","last_reported":1758809449,"current_range_meters":18000,"station_id":"ce4bh492rcd13ifvqdvg","pricing_plan_id":"cebpf4jnsgd1na2vs0mg"},{"bike_id":"377142cb-267c-494b-99d9-6fe238c4e676","system_id":"levelo_inurba_marseille","lat":43.30985,"lon":5.40774,"is_reserved":false,"is_disabled":false,"rental_uris":{"android":"levelo://app?vid=377142cb-267c-494b-99d9-6fe238c4e676","ios":"levelo://app?vid=377142cb-267c-494b-99d9-6fe238c4e676"},"vehicle_type_id":"4","last_reported":1758809449,"current_range_meters":18000,"station_id":"","pricing_plan_id":"cebpf4jnsgd1na2vs0mg"},{"bike_id":"08fe2b08-b3fa-43f8-ae73-04061f76318d","system_id":"levelo_inurba_marseille","lat":43.305552,"lon":5.365395,"is_reserved":false,"is_disabled":false,"rental_uris":{"android":"levelo://app?vid=08fe2b08-b3fa-43f8-ae73-04061f76318d","ios":"levelo://app?vid=08fe2b08-b3fa-43f8-ae73-04061f76318d"},"vehicle_type_id":"4","last_reported":1758809449,"current_range_meters":18000,"station_id":"","pricing_plan_id":"cebpf4jnsgd1na2vs0mg"},{"bike_id":"1da878b2-6c33-4f2e-8a31-9a256db0616b","system_id":"levelo_inurba_marseille","lat":43.29853,"lon":5.36263,"is_reserved":false,"is_disabled":false,"rental_uris":{"android":"levelo://app?vid=1da878b2-6c33-4f2e-8a31-9a256db0616b","ios":"levelo://app?vid=1da878b2-6c33-4f2e-8a31-9a256db0616b"},"vehicle_type_id":"4","last_reported":1758809449,"current_range_meters":18000,"station_id":"ce4bgpp2rcd13ifvqc3g","pricing_plan_id":"cebpf4jnsgd1na2vs0mg"},{"bike_id":"208d8654-3228-40c7-b9c8-8618c2e5fa52","system_id":"levelo_inurba_marseille","lat":43.286419,"lon":5.382709,"is_reserved":false,"is_disabled":false,"rental_uris":{"android":"levelo://app?vid=208d8654-3228-40c7-b9c8-8618c2e5fa52","ios":"levelo://app?vid=208d8654-3228-40c7-b9c8-8618c2e5fa52"},"vehicle_type_id":"4","last_reported":1758809449,"current_range_meters":18000,"station_id":"","pricing_plan_id":"cebpf4jnsgd1na2vs0mg"},{"bike_id":"3611f2ba-eeb4-45ee-ac8e-be195e39a1a4","system_id":"levelo_inurba_marseille","lat":43.284252,"lon":5.349939,"is_reserved":false,"is_disabled":false,"rental_uris":{"android":"levelo://app?vid=3611f2ba-eeb4-45ee-ac8e-be195e39a1a4","ios":"levelo://app?vid=3611f2ba-eeb4-45ee-ac8e-be195e39a1a4"},"vehicle_type_id":"4","last_reported":1758809449,"current_range_meters":18000,"station_id":"ce4bhbh2rcd13ifvqepg","pricing_plan_id":"cebpf4jnsgd1na2vs0mg"},{"bike_id":"10b8d871-07e9-4114-9eb9-6bcce40e7beb","system_id":"levelo_inurba_marseille","lat":43.27045,"lon":5.392226,"is_reserved":false,"is_disabled":false,"rental_uris":{"android":"levelo://app?vid=10b8d871-07e9-4114-9eb9-6bcce40e7beb","ios":"levelo://app?vid=10b8d871-07e9-4114-9eb9-6bcce40e7beb"},"vehicle_type_id":"4","last_reported":1758809449,"current_range_meters":18000,"station_id":"ce4bhe12rcd13ifvqf30","pricing_plan_id":"cebpf4jnsgd1na2vs0mg"},{"bike_id":"7d386e92-0637-4894-be92-264d6a72c11e","system_id":"levelo_inurba_marseille","lat":43.28415,"lon":5.34988,"is_reserved":false,"is_disabled":false,"rental_uris":{"android":"levelo://app?vid=7d386e92-0637-4894-be92-264d6a72c11e","ios":"levelo://app?vid=7d386e92-0637-4894-be92-264d6a72c11e"},"vehicle_type_id":"4","last_reported":1758809449,"current_range_meters":18800,"station_id":"ce4bhbh2rcd13ifvqepg","pricing_plan_id":"cebpf4jnsgd1na2vs0mg"},{"bike_id":"6625c117-38ad-467e-a262-46a42499eb5b","system_id":"levelo_inurba_marseille","lat":43.28933,"lon":5.38391,"is_reserved":false,"is_disabled":false,"rental_uris":{"android":"levelo://app?vid=6625c117-38ad-467e-a262-46a42499eb5b","ios":"levelo://app?vid=6625c117-38ad-467e-a262-46a42499eb5b"},"vehicle_type_id":"4","last_reported":1758809449,"current_range_meters":18800,"station_id":"ce4bh612rcd13ifvqe6g","pricing_plan_id":"cebpf4jnsgd1na2vs0mg"},{"bike_id":"0c43afb7-aa5a-4498-80da-12729863446c","system_id":"levelo_inurba_marseille","lat":43.25581,"lon":5.38226,"is_reserved":false,"is_disabled":false,"rental_uris":{"android":"levelo://app?vid=0c43afb7-aa5a-4498-80da-12729863446c","ios":"levelo://app?vid=0c43afb7-aa5a-4498-80da-12729863446c"},"vehicle_type_id":"4","last_reported":1758809449,"current_range_meters":18000,"station_id":"ce4bhih2rcd13ifvqfs0","pricing_plan_id":"cebpf4jnsgd1na2vs0mg"},{"bike_id":"1bc81293-e67c-4b20-b52e-1045d44975f7","system_id":"levelo_inurba_marseille","lat":43.28003,"lon":5.40006,"is_reserved":false,"is_disabled":false,"rental_uris":{"android":"levelo://app?vid=1bc81293-e67c-4b20-b52e-1045d44975f7","ios":"levelo://app?vid=1bc81293-e67c-4b20-b52e-1045d44975f7"},"vehicle_type_id":"4","last_reported":1758809449,"current_range_meters":18800,"station_id":"ce4bho92rcd13ifvqh4g","pricing_plan_id":"cebpf4jnsgd1na2vs0mg"},{"bike_id":"ccabd35a-a691-4eed-acd2-dce907f56433","system_id":"levelo_inurba_marseille","lat":43.32339,"lon":5.40627,"is_reserved":false,"is_disabled":false,"rental_uris":{"android":"levelo://app?vid=ccabd35a-a691-4eed-acd2-dce907f56433","ios":"levelo://app?vid=ccabd35a-a691-4eed-acd2-dce907f56433"},"vehicle_type_id":"4","last_reported":1758809449,"current_range_meters":18800,"station_id":"ce4bhq92rcd13ifvqhjg","pricing_plan_id":"cebpf4jnsgd1na2vs0mg"},{"bike_id":"48f118ba-5e81-4c62-9fdf-4f2e2bca94e9","system_id":"levelo_inurba_marseille","lat":43.26211,"lon":5.37449,"is_reserved":false,"is_disabled":false,"rental_uris":{"android":"levelo://app?vid=48f118ba-5e81-4c62-9fdf-4f2e2bca94e9","ios":"levelo://app?vid=48f118ba-5e81-4c62-9fdf-4f2e2bca94e9"},"vehicle_type_id":"4","last_reported":1758809449,"current_range_meters":18800,"station_id":"ce4bhgp2rcd13ifvqfc0","pricing_plan_id":"cebpf4jnsgd1na2vs0mg"},{"bike_id":"c48df859-0674-4297-a310-4bb55f84acc5","system_id":"levelo_inurba_marseille","lat":43.320129,"lon":5.415098,"is_reserved":false,"is_disabled":false,"rental_uris":{"android":"levelo://app?vid=c48df859-0674-4297-a310-4bb55f84acc5","ios":"levelo://app?vid=c48df859-0674-4297-a310-4bb55f84acc5"},"vehicle_type_id":"4","last_reported":1758809449,"current_range_meters":18800,"station_id":"ce4bhq92rcd13ifvqhkg","pricing_plan_id":"cebpf4jnsgd1na2vs0mg"},{"bike_id":"9006bf3d-4da8-4adb-9ea9-b302b3a5f525","system_id":"levelo_inurba_marseille","lat":43.24082,"lon":5.37736,"is_reserved":false,"is_disabled":false,"rental_uris":{"android":"levelo://app?vid=9006bf3d-4da8-4adb-9ea9-b302b3a5f525","ios":"levelo://app?vid=9006bf3d-4da8-4adb-9ea9-b302b3a5f525"},"vehicle_type_id":"4","last_reported":1758809449,"current_range_meters":18800,"station_id":"ce4bhnp2rcd13ifvqgvg","pricing_plan_id":"cebpf4jnsgd1na2vs0mg"},{"bike_id":"1d5d14cf-15e7-4470-bff9-613bb9abe120","system_id":"levelo_inurba_marseille","lat":43.334887,"lon":5.42059,"is_reserved":false,"is_disabled":false,"rental_uris":{"android":"levelo://app?vid=1d5d14cf-15e7-4470-bff9-613bb9abe120","ios":"levelo://app?vid=1d5d14cf-15e7-4470-bff9-613bb9abe120"},"vehicle_type_id":"4","last_reported":1758809449,"current_range_meters":18800,"station_id":"","pricing_plan_id":"cebpf4jnsgd1na2vs0mg"},{"bike_id":"1df5ce8c-d7d2-4870-a705-78837839c325","system_id":"levelo_inurba_marseille","lat":43.26782,"lon":5.3942,"is_reserved":false,"is_disabled":false,"rental_uris":{"android":"levelo://app?vid=1df5ce8c-d7d2-4870-a705-78837839c325","ios":"levelo://app?vid=1df5ce8c-d7d2-4870-a705-78837839c325"},"vehicle_type_id":"4","last_reported":1758809449,"current_range_meters":18800,"station_id":"ce4bhh12rcd13ifvqfg0","pricing_plan_id":"cebpf4jnsgd1na2vs0mg"},{"bike_id":"11691f1d-e624-4821-af5b-86cd6f6d081a","system_id":"levelo_inurba_marseille","lat":43.2795,"lon":5.41043,"is_reserved":false,"is_disabled":false,"rental_uris":{"android":"levelo://app?vid=11691f1d-e624-4821-af5b-86cd6f6d081a","ios":"levelo://app?vid=11691f1d-e624-4821-af5b-86cd6f6d081a"},"vehicle_type_id":"4","last_reported":1758809449,"current_range_meters":18800,"station_id":"ce4bhnp2rcd13ifvqh0g","pricing_plan_id":"cebpf4jnsgd1na2vs0mg"},{"bike_id":"5b44d860-a0c5-4ed9-a94a-62a1fd1abff4","system_id":"levelo_inurba_marseille","lat":43.29851,"lon":5.36283,"is_reserved":false,"is_disabled":false,"rental_uris":{"android":"levelo://app?vid=5b44d860-a0c5-4ed9-a94a-62a1fd1abff4","ios":"levelo://app?vid=5b44d860-a0c5-4ed9-a94a-62a1fd1abff4"},"vehicle_type_id":"4","last_reported":1758809449,"current_range_meters":19200,"station_id":"ce4bgpp2rcd13ifvqc3g","pricing_plan_id":"cebpf4jnsgd1na2vs0mg"},{"bike_id":"e4fa45e2-da10-440b-87a9-554053aae45b","system_id":"levelo_inurba_marseille","lat":43.2738,"lon":5.36248,"is_reserved":false,"is_disabled":false,"rental_uris":{"android":"levelo://app?vid=e4fa45e2-da10-440b-87a9-554053aae45b","ios":"levelo://app?vid=e4fa45e2-da10-440b-87a9-554053aae45b"},"vehicle_type_id":"4","last_reported":1758809449,"current_range_meters":19200,"station_id":"ce4bhbh2rcd13ifvqeo0","pricing_plan_id":"cebpf4jnsgd1na2vs0mg"},{"bike_id":"d6fe8dac-d476-4200-8e36-308fc5a1dc07","system_id":"levelo_inurba_marseille","lat":43.279746,"lon":5.38753,"is_reserved":false,"is_disabled":false,"rental_uris":{"android":"levelo://app?vid=d6fe8dac-d476-4200-8e36-308fc5a1dc07","ios":"levelo://app?vid=d6fe8dac-d476-4200-8e36-308fc5a1dc07"},"vehicle_type_id":"4","last_reported":1758809449,"current_range_meters":19200,"station_id":"","pricing_plan_id":"cebpf4jnsgd1na2vs0mg"},{"bike_id":"c81e4bec-d195-40b5-b3ce-1fd32d29bd77","system_id":"levelo_inurba_marseille","lat":43.28862,"lon":5.35854,"is_reserved":false,"is_disabled":false,"rental_uris":{"android":"levelo://app?vid=c81e4bec-d195-40b5-b3ce-1fd32d29bd77","ios":"levelo://app?vid=c81e4bec-d195-40b5-b3ce-1fd32d29bd77"},"vehicle_type_id":"4","last_reported":1758809449,"current_range_meters":19600,"station_id":"ce4bhb12rcd13ifvqem0","pricing_plan_id":"cebpf4jnsgd1na2vs0mg"},{"bike_id":"7c4ad0e1-6c14-4cb3-bded-113bec18a207","system_id":"levelo_inurba_marseille","lat":43.33596,"lon":5.41002,"is_reserved":false,"is_disabled":false,"rental_uris":{"android":"levelo://app?vid=7c4ad0e1-6c14-4cb3-bded-113bec18a207","ios":"levelo://app?vid=7c4ad0e1-6c14-4cb3-bded-113bec18a207"},"vehicle_type_id":"4","last_reported":1758809449,"current_range_meters":18800,"station_id":"ce4bhqh2rcd13ifvqhmg","pricing_plan_id":"cebpf4jnsgd1na2vs0mg"},{"bike_id":"9a4f92ed-e086-4038-a651-bbe0613f80bd","system_id":"levelo_inurba_marseille","lat":43.22569,"lon":5.41598,"is_reserved":false,"is_disabled":false,"rental_uris":{"android":"levelo://app?vid=9a4f92ed-e086-4038-a651-bbe0613f80bd","ios":"levelo://app?vid=9a4f92ed-e086-4038-a651-bbe0613f80bd"},"vehicle_type_id":"4","last_reported":1758809449,"current_range_meters":19200,"station_id":"st_d2o4gvlbi1j2169b742g","pricing_plan_id":"cebpf4jnsgd1na2vs0mg"},{"bike_id":"2204779a-1302-4a3e-98db-6c2bb24c7fec","system_id":"levelo_inurba_marseille","lat":43.31469,"lon":5.37297,"is_reserved":false,"is_disabled":false,"rental_uris":{"android":"levelo://app?vid=2204779a-1302-4a3e-98db-6c2bb24c7fec","ios":"levelo://app?vid=2204779a-1302-4a3e-98db-6c2bb24c7fec"},"vehicle_type_id":"4","last_reported":1758809449,"current_range_meters":19200,"station_id":"ce4bgt12rcd13ifvqcd0","pricing_plan_id":"cebpf4jnsgd1na2vs0mg"},{"bike_id":"62212a56-4778-45b4-afb5-04df46ae5598","system_id":"levelo_inurba_marseille","lat":43.295337,"lon":5.385393,"is_reserved":false,"is_disabled":false,"rental_uris":{"android":"levelo://app?vid=62212a56-4778-45b4-afb5-04df46ae5598","ios":"levelo://app?vid=62212a56-4778-45b4-afb5-04df46ae5598"},"vehicle_type_id":"4","last_reported":1758809449,"current_range_meters":19200,"station_id":"ce4bgih2rcd13ifvqba0","pricing_plan_id":"cebpf4jnsgd1na2vs0mg"},{"bike_id":"cc1b766d-7a66-4717-9955-e5ea9f76c1b8","system_id":"levelo_inurba_marseille","lat":43.29956,"lon":5.36499,"is_reserved":false,"is_disabled":false,"rental_uris":{"android":"levelo://app?vid=cc1b766d-7a66-4717-9955-e5ea9f76c1b8","ios":"levelo://app?vid=cc1b766d-7a66-4717-9955-e5ea9f76c1b8"},"vehicle_type_id":"4","last_reported":1758809449,"current_range_meters":19200,"station_id":"","pricing_plan_id":"cebpf4jnsgd1na2vs0mg"},