{"last_updated":1743826320,"ttl":60,"version":"2.2","data":{"bikes":[{"bike_id":"036f3044-256d-4aaa-b72b-30b226e18e41","system_id":"levelo_inurba_marseille","lat":43.2808,"lon":5.39915,"is_reserved":false,"is_disabled":false,"rental_uris":{"android":"levelo://app?vid=036f3044-256d-4aaa-b72b-30b226e18e41","ios":"levelo://app?vid=036f3044-256d-4aaa-b72b-30b226e18e41"},"vehicle_type_id":"4","last_reported":1743826320,"current_range_meters":2800,"station_id":"","pricing_plan_id":"cebpf4jnsgd1na2vs0mg"},{"bike_id":"a667a3a8-14d4-4ff0-8db6-fa515b02c3e2","system_id":"levelo_inurba_marseille","lat":43.2867,"lon":5.40056,"is_reserved":false,"is_disabled":false,"rental_uris":{"android":"levelo://app?vid=a667a3a8-14d4-4ff0-8db6-fa515b02c3e2","ios":"levelo://app?vid=a667a3a8-14d4-4ff0-8db6-fa515b02c3e2"},"vehicle_type_id":"4","last_reported":1743826320,"current_range_meters":2800,"station_id":"ce4bho92rcd13ifvqh3g","pricing_plan_id":"cebpf4jnsgd1na2vs0mg"},{"bike_id":"def02aca-3531-4366-b533-bf48bf766008","system_id":"levelo_inurba_marseille","lat":43.25106,"lon":5.40348,"is_reserved":false,"is_disabled":true,"rental_uris":{"android":"levelo://app?vid=def02aca-3531-4366-b533-bf48bf766008","ios":"levelo://app?vid=def02aca-3531-4366-b533-bf48bf766008"},"vehicle_type_id":"4","last_reported":1743826320,"current_range_meters":3200,"station_id":"ce4bhlh2rcd13ifvqgig","pricing_plan_id":"cebpf4jnsgd1na2vs0mg"},{"bike_id":"8687fc4e-327a-4149-b6fe-4e432e9d0a9f","system_id":"levelo_inurba_marseille","lat":43.2977,"lon":5.39358,"is_reserved":false,"is_disabled":true,"rental_uris":{"android":"levelo://app?vid=8687fc4e-327a-4149-b6fe-4e432e9d0a9f","ios":"levelo://app?vid=8687fc4e-327a-4149-b6fe-4e432e9d0a9f"},"vehicle_type_id":"4","last_reported":1743826320,"current_range_meters":3600,"station_id":"chh1huq6cuj3fo74tm60","pricing_plan_id":"cebpf4jnsgd1na2vs0mg"},{"bike_id":"c566cedc-f91a-455f-a3cd-f85b269166fe","system_id":"levelo_inurba_marseille","lat":43.26562,"lon":5.39024,"is_reserved":false,"is_disabled":false,"rental_uris":{"android":"levelo://app?vid=c566cedc-f91a-455f-a3cd-f85b269166fe","ios":"levelo://app?vid=c566cedc-f91a-455f-a3cd-f85b269166fe"},"vehicle_type_id":"4","last_reported":1743826320,"current_range_meters":3600,"station_id":"ce4bhe12rcd13ifvqf30","pricing_plan_id":"cebpf4jnsgd1na2vs0mg"},{"bike_id":"715eff50-001a-413a-8e2d-3344911b1ca7","system_id":"levelo_inurba_marseille","lat":43.333271,"lon":5.398635,"is_reserved":false,"is_disabled":false,"rental_uris":{"android":"levelo://app?vid=715eff50-001a-413a-8e2d-3344911b1ca7","ios":"levelo://app?vid=715eff50-001a-413a-8e2d-3344911b1ca7"},"vehicle_type_id":"4","last_reported":1743826320,"current_range_meters":3600,"station_id":"","pricing_plan_id":"cebpf4jnsgd1na2vs0mg"},{"bike_id":"98085950-e471-460e-9c58-2f06c316b261","system_id":"levelo_inurba_marseille","lat":43.27963,"lon":5.38729,"is_reserved":false,"is_disabled":false,"rental_uris":{"android":"levelo://app?vid=98085950-e471-460e-9c58-2f06c316b261","ios":"levelo://app?vid=98085950-e471-460e-9c58-2f06c316b261"},"vehicle_type_id":"4","last_reported":1743826320,"current_range_meters":3600,"station_id":"ce4bhg12rcd13ifvqf80","pricing_plan_id":"cebpf4jnsgd1na2vs0mg"},{"bike_id":"7645905d-fda5-47c8-9e91-a013345bc9d2","system_id":"levelo_inurba_marseille","lat":43.30933,"lon":5.40168,"is_reserved":false,"is_disabled":false,"rental_uris":{"android":"levelo://app?vid=7645905d-fda5-47c8-9e91-a013345bc9d2","ios":"levelo://app?vid=7645905d-fda5-47c8-9e91-a013345bc9d2"},"vehicle_type_id":"4","last_reported":1743826320,"current_range_meters":4000,"station_id":"ce4bgvp2rcd13ifvqct0","pricing_plan_id":"cebpf4jnsgd1na2vs0mg"},{"bike_id":"e3a29d38-a611-4b12-87ef-2fb8a21c41d5","system_id":"levelo_inurba_marseille","lat":43.229318,"lon":5.353698,"is_reserved":false,"is_disabled":false,"rental_uris":{"android":"levelo://app?vid=e3a29d38-a611-4b12-87ef-2fb8a21c41d5","ios":"levelo://app?vid=e3a29d38-a611-4b12-87ef-2fb8a21c41d5"},"vehicle_type_id":"4","last_reported":1743826320,"current_range_meters":4000,"station_id":"cpo3532slgdg3j2ikp40","pricing_plan_id":"cebpf4jnsgd1na2vs0mg"},{"bike_id":"4e08bad6-8678-4501-98ce-24478d2a4ff9","system_id":"levelo_inurba_marseille","lat":43.28401,"lon":5.37522,"is_reserved":false,"is_disabled":false,"rental_uris":{"android":"levelo://app?vid=4e08bad6-8678-4501-98ce-24478d2a4ff9","ios":"levelo://app?vid=4e08bad6-8678-4501-98ce-24478d2a4ff9"},"vehicle_type_id":"4","last_reported":1743826320,"current_range_meters":4400,"station_id":"ce4bh412rcd13ifvqds0","pricing_plan_id":"cebpf4jnsgd1na2vs0mg"},{"bike_id":"c79464e7-6aec-41ae-8a2c-64d384d37f65","system_id":"levelo_inurba_marseille","lat":43.255081,"lon":5.376381,"is_reserved":false,"is_disabled":false,"rental_uris":{"android":"levelo://app?vid=c79464e7-6aec-41ae-8a2c-64d384d37f65","ios":"levelo://app?vid=c79464e7-6aec-41ae-8a2c-64d384d37f65"},"vehicle_type_id":"4","last_reported":1743826320,"current_range_meters":4000,"station_id":"ce4bhh12rcd13ifvqff0","pricing_plan_id":"cebpf4jnsgd1na2vs0mg"},{"bike_id":"71b5f888-6463-4795-aba7-c343056e2940","system_id":"levelo_inurba_marseille","lat":43.31116,"lon":5.37758,"is_reserved":false,"is_disabled":false,"rental_uris":{"android":"levelo://app?vid=71b5f888-6463-4795-aba7-c343056e2940","ios":"levelo://app?vid=71b5f888-6463-4795-aba7-c343056e2940"},"vehicle_type_id":"4","last_reported":1743826320,"current_range_meters":4400,"station_id":"ce4bgt92rcd13ifvqcg0","pricing_plan_id":"cebpf4jnsgd1na2vs0mg"},{"bike_id":"d053ce73-3294-48d7-893d-d68ec20a4fe9","system_id":"levelo_inurba_marseille","lat":43.231968,"lon":5.355453,"is_reserved":false,"is_disabled":false,"rental_uris":{"android":"levelo://app?vid=d053ce73-3294-48d7-893d-d68ec20a4fe9","ios":"levelo://app?vid=d053ce73-3294-48d7-893d-d68ec20a4fe9"},"vehicle_type_id":"4","last_reported":1743826320,"current_range_meters":4400,"station_id":"ce4bhu92rcd13ifvqi70","pricing_plan_id":"cebpf4jnsgd1na2vs0mg"},{"bike_id":"0e88f134-2423-4b08-bc3c-5f7a38937552","system_id":"levelo_inurba_marseille","lat":43.23195,"lon":5.40011,"is_reserved":false,"is_disabled":false,"rental_uris":{"android":"levelo://app?vid=0e88f134-2423-4b08-bc3c-5f7a38937552","ios":"levelo://app?vid=0e88f134-2423-4b08-bc3c-5f7a38937552"},"vehicle_type_id":"4","last_reported":1743826320,"current_range_meters":4800,"station_id":"ce4bhn12rcd13ifvqgqg","pricing_plan_id":"cebpf4jnsgd1na2vs0mg"},{"bike_id":"80160bc7-9dd0-4d7e-bec6-1cf3edc169b8","system_id":"levelo_inurba_marseille","lat":43.25817,"lon":5.39429,"is_reserved":false,"is_disabled":true,"rental_uris":{"android":"levelo://app?vid=80160bc7-9dd0-4d7e-bec6-1cf3edc169b8","ios":"levelo://app?vid=80160bc7-9dd0-4d7e-bec6-1cf3edc169b8"},"vehicle_type_id":"4","last_reported":1743826320,"current_range_meters":4800,"station_id":"ce4bhip2rcd13ifvqft0","pricing_plan_id":"cebpf4jnsgd1na2vs0mg"},{"bike_id":"88f031ac-7f62-4288-a914-284e5a5b5906","system_id":"levelo_inurba_marseille","lat":43.23961,"lon":5.36665,"is_reserved":false,"is_disabled":false,"rental_uris":{"android":"levelo://app?vid=88f031ac-7f62-4288-a914-284e5a5b5906","ios":"levelo://app?vid=88f031ac-7f62-4288-a914-284e5a5b5906"},"vehicle_type_id":"4","last_reported":1743826320,"current_range_meters":4800,"station_id":"ce4bhi12rcd13ifvqfp0","pricing_plan_id":"cebpf4jnsgd1na2vs0mg"},{"bike_id":"2c584e93-10f6-4054-a15a-076ac673fc06","system_id":"levelo_inurba_marseille","lat":43.303712,"lon":5.424876,"is_reserved":false,"is_disabled":true,"rental_uris":{"android":"levelo://app?vid=2c584e93-10f6-4054-a15a-076ac673fc06","ios":"levelo://app?vid=2c584e93-10f6-4054-a15a-076ac673fc06"},"vehicle_type_id":"4","last_reported":1743826320,"current_range_meters":5600,"station_id":"ce4bhoh2rcd13ifvqh6g","pricing_plan_id":"cebpf4jnsgd1na2vs0mg"},{"bike_id":"3a9e676b-f492-470e-9df7-4dfa6c4412fc","system_id":"levelo_inurba_marseille","lat":43.30935,"lon":5.40142,"is_reserved":false,"is_disabled":false,"rental_uris":{"android":"levelo://app?vid=3a9e676b-f492-470e-9df7-4dfa6c4412fc","ios":"levelo://app?vid=3a9e676b-f492-470e-9df7-4dfa6c4412fc"},"vehicle_type_id":"4","last_reported":1743826320,"current_range_meters":5600,"station_id":"ce4bgvp2rcd13ifvqct0","pricing_plan_id":"cebpf4jnsgd1na2vs0mg"},{"bike_id":"2d3cfe1c-173b-4184-80ec-d0dc33750349","system_id":"levelo_inurba_marseille","lat":43.26171,"lon":5.37466,"is_reserved":false,"is_disabled":false,"rental_uris":{"android":"levelo://app?vid=2d3cfe1c-173b-4184-80ec-d0dc33750349","ios":"levelo://app?vid=2d3cfe1c-173b-4184-80ec-d0dc33750349"},"vehicle_type_id":"4","last_reported":1743826320,"current_range_meters":5600,"station_id":"ce4bhgp2rcd13ifvqfc0","pricing_plan_id":"cebpf4jnsgd1na2vs0mg"},{"bike_id":"c13336a2-47ce-488c-b5b6-77c01a3ac1d1","system_id":"levelo_inurba_marseille","lat":43.31912,"lon":5.40774,"is_reserved":false,"is_disabled":true,"rental_uris":{"android":"levelo://app?vid=c13336a2-47ce-488c-b5b6-77c01a3ac1d1","ios":"levelo://app?vid=c13336a2-47ce-488c-b5b6-77c01a3ac1d1"},"vehicle_type_id":"4","last_reported":1743826320,"current_range_meters":5600,"station_id":"ce4bhq12rcd13ifvqhig","pricing_plan_id":"cebpf4jnsgd1na2vs0mg"},{"bike_id":"6e7e8bd0-971a-4bf5-a521-0d1053f36753","system_id":"levelo_inurba_marseille","lat":43.310796,"lon":5.424358,"is_reserved":false,"is_disabled":true,"rental_uris":{"android":"levelo://app?vid=6e7e8bd0-971a-4bf5-a521-0d1053f36753","ios":"levelo://app?vid=6e7e8bd0-971a-4bf5-a521-0d1053f36753"},"vehicle_type_id":"4","last_reported":1743826320,"current_range_meters":5600,"station_id":"ce4bhp92rcd13ifvqhag","pricing_plan_id":"cebpf4jnsgd1na2vs0mg"},{"bike_id":"6af7531c-89a3-423c-875a-8805148ba973","system_id":"levelo_inurba_marseille","lat":43.33602,"lon":5.41038,"is_reserved":false,"is_disabled":false,"rental_uris":{"android":"levelo://app?vid=6af7531c-89a3-423c-875a-8805148ba973","ios":"levelo://app?vid=6af7531c-89a3-423c-875a-8805148ba973"},"vehicle_type_id":"4","last_reported":1743826320,"current_range_meters":5600,"station_id":"ce4bhqh2rcd13ifvqhmg","pricing_plan_id":"cebpf4jnsgd1na2vs0mg"},{"bike_id":"cc2f94e7-44a5-4674-9e1f-4b2123ee686a","system_id":"levelo_inurba_marseille","lat":43.31365,"lon":5.38503,"is_reserved":false,"is_disabled":false,"rental_uris":{"android":"levelo://app?vid=cc2f94e7-44a5-4674-9e1f-4b2123ee686a","ios":"levelo://app?vid=cc2f94e7-44a5-4674-9e1f-4b2123ee686a"},"vehicle_type_id":"4","last_reported":1743826320,"current_range_meters":6000,"station_id":"ce4bgt92rcd13ifvqcf0","pricing_plan_id":"cebpf4jnsgd1na2vs0mg"},{"bike_id":"26a9400e-71cd-45c6-9211-9781e64f8fa6","system_id":"levelo_inurba_marseille","lat":43.28619,"lon":5.37081,"is_reserved":false,"is_disabled":false,"rental_uris":{"android":"levelo://app?vid=26a9400e-71cd-45c6-9211-9781e64f8fa6","ios":"levelo://app?vid=26a9400e-71cd-45c6-9211-9781e64f8fa6"},"vehicle_type_id":"4","last_reported":1743826320,"current_range_meters":6000,"station_id":"ce4bht12rcd13ifvqi60","pricing_plan_id":"cebpf4jnsgd1na2vs0mg"},{"bike_id":"d76832c4-3604-4de9-b7a5-182f7c6e995c","system_id":"levelo_inurba_marseille","lat":43.31365,"lon":5.38506,"is_reserved":false,"is_disabled":true,"rental_uris":{"android":"levelo://app?vid=d76832c4-3604-4de9-b7a5-182f7c6e995c","ios":"levelo://app?vid=d76832c4-3604-4de9-b7a5-182f7c6e995c"},"vehicle_type_id":"4","last_reported":1743826320,"current_range_meters":6000,"station_id":"ce4bgt92rcd13ifvqcf0","pricing_plan_id":"cebpf4jnsgd1na2vs0mg"},{"bike_id":"426af549-07ec-4b87-8397-e705745ce2c9","system_id":"levelo_inurba_marseille","lat":43.25121,"lon":5.40344,"is_reserved":false,"is_disabled":false,"rental_uris":{"android":"levelo://app?vid=426af549-07ec-4b87-8397-e705745ce2c9","ios":"levelo://app?vid=426af549-07ec-4b87-8397-e705745ce2c9"},"vehicle_type_id":"4","last_reported":1743826320,"current_range_meters":1200,"station_id":"ce4bhlh2rcd13ifvqgig","pricing_plan_id":"cebpf4jnsgd1na2vs0mg"},{"bike_id":"87fe484c-094e-4486-8fa5-efad50ec7d81","system_id":"levelo_inurba_marseille","lat":43.25101,"lon":5.40325,"is_reserved":false,"is_disabled":false,"rental_uris":{"android":"levelo://app?vid=87fe484c-094e-4486-8fa5-efad50ec7d81","ios":"levelo://app?vid=87fe484c-094e-4486-8fa5-efad50ec7d81"},"vehicle_type_id":"4","last_reported":1743826320,"current_range_meters":6000,"station_id":"ce4bhlh2rcd13ifvqgig","pricing_plan_id":"cebpf4jnsgd1na2vs0mg"},{"bike_id":"5f46717b-05d1-4f34-a220-8087932d755b","system_id":"levelo_inurba_marseille","lat":43.301035,"lon":5.369499,"is_reserved":false,"is_disabled":false,"rental_uris":{"android":"levelo://app?vid=5f46717b-05d1-4f34-a220-8087932d755b","ios":"levelo://app?vid=5f46717b-05d1-4f34-a220-8087932d755b"},"vehicle_type_id":"4","last_reported":1743826320,"current_range_meters":6000,"station_id":"","pricing_plan_id":"cebpf4jnsgd1na2vs0mg"},{"bike_id":"1049ba71-fb41-4dc5-8c5a-67fbc6fe8421","system_id":"levelo_inurba_marseille","lat":43.2552,"lon":5.37674,"is_reserved":false,"is_disabled":true,"rental_uris":{"android":"levelo://app?vid=1049ba71-fb41-4dc5-8c5a-67fbc6fe8421","ios":"levelo://app?vid=1049ba71-fb41-4dc5-8c5a-67fbc6fe8421"},"vehicle_type_id":"4","last_reported":1743826320,"current_range_meters":6400,"station_id":"ce4bhh12rcd13ifvqff0","pricing_plan_id":"cebpf4jnsgd1na2vs0mg"},{"bike_id":"0d4d6691-b3a3-49d8-8eac-677370bcc341","system_id":"levelo_inurba_marseille","lat":43.28147,"lon":5.42644,"is_reserved":false,"is_disabled":false,"rental_uris":{"android":"levelo://app?vid=0d4d6691-b3a3-49d8-8eac-677370bcc341","ios":"levelo://app?vid=0d4d6691-b3a3-49d8-8eac-677370bcc341"},"vehicle_type_id":"4","last_reported":1743826320,"current_range_meters":6400,"station_id":"ce4bhnh2rcd13ifvqgug","pricing_plan_id":"cebpf4jnsgd1na2vs0mg"},{"bike_id":"908b5a48-c991-459d-8edc-39a6ce48f51f","system_id":"levelo_inurba_marseille","lat":43.32115,"lon":5.36766,"is_reserved":false,"is_disabled":false,"rental_uris":{"android":"levelo://app?vid=908b5a48-c991-459d-8edc-39a6ce48f51f","ios":"levelo://app?vid=908b5a48-c991-459d-8edc-39a6ce48f51f"},"vehicle_type_id":"4","last_reported":1743826320,"current_range_meters":6400,"station_id":"ce4bhrh2rcd13ifvqhug","pricing_plan_id":"cebpf4jnsgd1na2vs0mg"},{"bike_id":"8a526347-100b-49fd-a458-e9e10b3c7fc4","system_id":"levelo_inurba_marseille","lat":43.307971,"lon":5.435263,"is_reserved":false,"is_disabled":false,"rental_uris":{"android":"levelo://app?vid=8a526347-100b-49fd-a458-e9e10b3c7fc4","ios":"levelo://app?vid=8a526347-100b-49fd-a458-e9e10b3c7fc4"},"vehicle_type_id":"4","last_reported":1743826320,"current_range_meters":6400,"station_id":"ce4bhph2rcd13ifvqheg","pricing_plan_id":"cebpf4jnsgd1na2vs0mg"},{"bike_id":"1314e27e-2011-45ad-b8e0-a3faba718da1","system_id":"levelo_inurba_marseille","lat":43.33298,"lon":5.39745,"is_reserved":false,"is_disabled":false,"rental_uris":{"android":"levelo://app?vid=1314e27e-2011-45ad-b8e0-a3faba718da1","ios":"levelo://app?vid=1314e27e-2011-45ad-b8e0-a3faba718da1"},"vehicle_type_id":"4","last_reported":1743826320,"current_range_meters":6400,"station_id":"","pricing_plan_id":"cebpf4jnsgd1na2vs0mg"},{"bike_id":"78aa739b-6b8d-475e-b97e-0b11343810fc","system_id":"levelo_inurba_marseille","lat":43.231463,"lon":5.437094,"is_reserved":false,"is_disabled":false,"rental_uris":{"android":"levelo://app?vid=78aa739b-6b8d-475e-b97e-0b11343810fc","ios":"levelo://app?vid=78aa739b-6b8d-475e-b97e-0b11343810fc"},"vehicle_type_id":"4","last_reported":1743826320,"current_range_meters":6400,"station_id":"ce4bhmp2rcd13ifvqgog","pricing_plan_id":"cebpf4jnsgd1na2vs0mg"},{"bike_id":"428c3385-3758-45ef-a6a7-443e16c34fe3","system_id":"levelo_inurba_marseille","lat":43.31126,"lon":5.37779,"is_reserved":false,"is_disabled":false,"rental_uris":{"android":"levelo://app?vid=428c3385-3758-45ef-a6a7-443e16c34fe3","ios":"levelo://app?vid=428c3385-3758-45ef-a6a7-443e16c34fe3"},"vehicle_type_id":"4","last_reported":1743826320,"current_range_meters":6400,"station_id":"ce4bgt92rcd13ifvqcg0","pricing_plan_id":"cebpf4jnsgd1na2vs0mg"},{"bike_id":"41b45839-ada1-45dc-b7f8-d5280a9f336a","system_id":"levelo_inurba_marseille","lat":43.24088,"lon":5.37782,"is_reserved":false,"is_disabled":false,"rental_uris":{"android":"levelo://app?vid=41b45839-ada1-45dc-b7f8-d5280a9f336a","ios":"levelo://app?vid=41b45839-ada1-45dc-b7f8-d5280a9f336a"},"vehicle_type_id":"4","last_reported":1743826320,"current_range_meters":6800,"station_id":"ce4bhnp2rcd13ifvqgvg","pricing_plan_id":"cebpf4jnsgd1na2vs0mg"},{"bike_id":"12f59b50-8a80-44b7-b314-f0894b21bd8a","system_id":"levelo_inurba_marseille","lat":43.2929,"lon":5.40144,"is_reserved":false,"is_disabled":false,"rental_uris":{"android":"levelo://app?vid=12f59b50-8a80-44b7-b314-f0894b21bd8a","ios":"levelo://app?vid=12f59b50-8a80-44b7-b314-f0894b21bd8a"},"vehicle_type_id":"4","last_reported":1743826320,"current_range_meters":6800,"station_id":"ce4bh312rcd13ifvqdk0","pricing_plan_id":"cebpf4jnsgd1na2vs0mg"},{"bike_id":"2b47a5ae-e9ea-4823-a9a9-58b9a7e21f9f","system_id":"levelo_inurba_marseille","lat":43.26886,"lon":5.38911,"is_reserved":false,"is_disabled":false,"rental_uris":{"android":"levelo://app?vid=2b47a5ae-e9ea-4823-a9a9-58b9a7e21f9f","ios":"levelo://app?vid=2b47a5ae-e9ea-4823-a9a9-58b9a7e21f9f"},"vehicle_type_id":"4","last_reported":1743826320,"current_range_meters":6800,"station_id":"","pricing_plan_id":"cebpf4jnsgd1na2vs0mg"},{"bike_id":"24c36f1a-0923-4db7-830b-c7b1d0a0271d","system_id":"levelo_inurba_marseille","lat":43.284608,"lon":5.358869,"is_reserved":false,"is_disabled":false,"rental_uris":{"android":"levelo://app?vid=24c36f1a-0923-4db7-830b-c7b1d0a0271d","ios":"levelo://app?vid=24c36f1a-0923-4db7-830b-c7b1d0a0271d"},"vehicle_type_id":"4","last_reported":1743826320,"current_range_meters":6800,"station_id":"ce4bhah2rcd13ifvqei0","pricing_plan_id":"cebpf4jnsgd1na2vs0mg"},{"bike_id":"732fe7e5-97fc-403d-83ce-fc700823bed0","system_id":"levelo_inurba_marseille","lat":43.30957,"lon":5.39058,"is_reserved":false,"is_disabled":false,"rental_uris":{"android":"levelo://app?vid=732fe7e5-97fc-403d-83ce-fc700823bed0","ios":"levelo://app?vid=732fe7e5-97fc-403d-83ce-fc700823bed0"},"vehicle_type_id":"4","last_reported":1743826320,"current_range_meters":6800,"station_id":"ce4bgup2rcd13ifvqco0","pricing_plan_id":"cebpf4jnsgd1na2vs0mg"},{"bike_id":"09db4a91-984c-497c-b272-724cdd009a67","system_id":"levelo_inurba_marseille","lat":43.31354,"lon":5.38514,"is_reserved":false,"is_disabled":false,"rental_uris":{"android":"levelo://app?vid=09db4a91-984c-497c-b272-724cdd009a67","ios":"levelo://app?vid=09db4a91-984c-497c-b272-724cdd009a67"},"vehicle_type_id":"4","last_reported":1743826320,"current_range_meters":6800,"station_id":"ce4bgt92rcd13ifvqcf0","pricing_plan_id":"cebpf4jnsgd1na2vs0mg"},{"bike_id":"5065addd-37b5-4e4f-97c6-f100daef7252","system_id":"levelo_inurba_marseille","lat":43.31103,"lon":5.37741,"is_reserved":false,"is_disabled":false,"rental_uris":{"android":"levelo://app?vid=5065addd-37b5-4e4f-97c6-f100daef7252","ios":"levelo://app?vid=5065addd-37b5-4e4f-97c6-f100daef7252"},"vehicle_type_id":"4","last_reported":1743826320,"current_range_meters":6800,"station_id":"ce4bgt92rcd13ifvqcg0","pricing_plan_id":"cebpf4jnsgd1na2vs0mg"},{"bike_id":"69c0db05-6ded-4dc6-9720-2452c83c1020","system_id":"levelo_inurba_marseille","lat":43.22933,"lon":5.35389,"is_reserved":false,"is_disabled":false,"rental_uris":{"android":"levelo://app?vid=69c0db05-6ded-4dc6-9720-2452c83c1020","ios":"levelo://app?vid=69c0db05-6ded-4dc6-9720-2452c83c1020"},"vehicle_type_id":"4","last_reported":1743826320,"current_range_meters":6800,"station_id":"cpo3532slgdg3j2ikp40","pricing_plan_id":"cebpf4jnsgd1na2vs0mg"},{"bike_id":"3a25e57f-413f-4987-8c44-080676a1ab69","system_id":"levelo_inurba_marseille","lat":43.28456,"lon":5.35905,"is_reserved":false,"is_disabled":false,"rental_uris":{"android":"levelo://app?vid=3a25e57f-413f-4987-8c44-080676a1ab69","ios":"levelo://app?vid=3a25e57f-413f-4987-8c44-080676a1ab69"},"vehicle_type_id":"4","last_reported":1743826320,"current_range_meters":6800,"station_id":"ce4bhah2rcd13ifvqei0","pricing_plan_id":"cebpf4jnsgd1na2vs0mg"},{"bike_id":"36a207c1-12d8-479b-900c-01221303b430","system_id":"levelo_inurba_marseille","lat":43.314995,"lon":5.373043,"is_reserved":false,"is_disabled":false,"rental_uris":{"android":"levelo://app?vid=36a207c1-12d8-479b-900c-01221303b430","ios":"levelo://app?vid=36a207c1-12d8-479b-900c-01221303b430"},"vehicle_type_id":"4","last_reported":1743826320,"current_range_meters":7200,"station_id":"ce4bgt12rcd13ifvqcd0","pricing_plan_id":"cebpf4jnsgd1na2vs0mg"},{"bike_id":"36d996d1-147d-4367-84e7-9ff54765b37a","system_id":"levelo_inurba_marseille","lat":43.23187,"lon":5.35555,"is_reserved":false,"is_disabled":false,"rental_uris":{"android":"levelo://app?vid=36d996d1-147d-4367-84e7-9ff54765b37a","ios":"levelo://app?vid=36d996d1-147d-4367-84e7-9ff54765b37a"},"vehicle_type_id":"4","last_reported":1743826320,"current_range_meters":7200,"station_id":"ce4bhu92rcd13ifvqi70","pricing_plan_id":"cebpf4jnsgd1na2vs0mg"},{"bike_id":"820c1965-ecb8-4574-8ddb-2df09330c1da","system_id":"levelo_inurba_marseille","lat":43.27076,"lon":5.39182,"is_reserved":false,"is_disabled":false,"rental_uris":{"android":"levelo://app?vid=820c1965-ecb8-4574-8ddb-2df09330c1da","ios":"levelo://app?vid=820c1965-ecb8-4574-8ddb-2df09330c1da"},"vehicle_type_id":"4","last_reported":1743826320,"current_range_meters":7200,"station_id":"","pricing_plan_id":"cebpf4jnsgd1na2vs0mg"},{"bike_id":"b7fc6fee-18f2-4847-8e71-e05735f414b1","system_id":"levelo_inurba_marseille","lat":43.30876,"lon":5.37188,"is_reserved":false,"is_disabled":false,"rental_uris":{"android":"levelo://app?vid=b7fc6fee-18f2-4847-8e71-e05735f414b1","ios":"levelo://app?vid=b7fc6fee-18f2-4847-8e71-e05735f414b1"},"vehicle_type_id":"4","last_reported":1743826320,"current_range_meters":7200,"station_id":"ce4bguh2rcd13ifvqckg","pricing_plan_id":"cebpf4jnsgd1na2vs0mg"},{"bike_id":"a7d25e4f-2da3-42fe-8518-f5570ba8c5ed","system_id":"levelo_inurba_marseille","lat":43.30528,"lon":5.38429,"is_reserved":false,"is_disabled":true,"rental_uris":{"android":"levelo://app?vid=a7d25e4f-2da3-42fe-8518-f5570ba8c5ed","ios":"levelo://app?vid=a7d25e4f-2da3-42fe-8518-f5570ba8c5ed"},"vehicle_type_id":"4","last_reported":1743826320,"current_range_meters":7200,"station_id":"ce4bgg92rcd13ifvqb30","pricing_plan_id":"cebpf4jnsgd1na2vs0mg"},{"bike_id":"758c2355-846a-4f3d-bcd8-eac4b3145cd6","system_id":"levelo_inurba_marseille","lat":43.231889,"lon":5.355597,"is_reserved":false,"is_disabled":false,"rental_uris":{"android":"levelo://app?vid=758c2355-846a-4f3d-bcd8-eac4b3145cd6","ios":"levelo://app?vid=758c2355-846a-4f3d-bcd8-eac4b3145cd6"},"vehicle_type_id":"4","last_reported":1743826320,"current_range_meters":7200,"station_id":"ce4bhu92rcd13ifvqi70","pricing_plan_id":"cebpf4jnsgd1na2vs0mg"},{"bike_id":"8969ed25-c9d4-4070-8211-c460c3573d18","system_id":"levelo_inurba_marseille","lat":43.29375,"lon":5.37868,"is_reserved":false,"is_disabled":true,"rental_uris":{"android":"levelo://app?vid=8969ed25-c9d4-4070-8211-c460c3573d18","ios":"levelo://app?vid=8969ed25-c9d4-4070-8211-c460c3573d18"},"vehicle_type_id":"4","last_reported":1743826320,"current_range_meters":7200,"station_id":"ce4bgjh2rcd13ifvqbf0","pricing_plan_id":"cebpf4jnsgd1na2vs0mg"},{"bike_id":"ed034283-1492-4da7-9409-35bdead80f30","system_id":"levelo_inurba_marseille","lat":43.30144,"lon":5.38772,"is_reserved":false,"is_disabled":true,"rental_uris":{"android":"levelo://app?vid=ed034283-1492-4da7-9409-35bdead80f30","ios":"levelo://app?vid=ed034283-1492-4da7-9409-35bdead80f30"},"vehicle_type_id":"4","last_reported":1743826320,"current_range_meters":7200,"station_id":"ce4bghh2rcd13ifvqb60","pricing_plan_id":"cebpf4jnsgd1na2vs0mg"},{"bike_id":"30801e32-e486-425c-b6e1-9bed190597c2","system_id":"levelo_inurba_marseille","lat":43.27052,"lon":5.40256,"is_reserved":false,"is_disabled":false,"rental_uris":{"android":"levelo://app?vid=30801e32-e486-425c-b6e1-9bed190597c2","ios":"levelo://app?vid=30801e32-e486-425c-b6e1-9bed190597c2"},"vehicle_type_id":"4","last_reported":1743826320,"current_range_meters":7200,"station_id":"ce4bhk92rcd13ifvqgc0","pricing_plan_id":"cebpf4jnsgd1na2vs0mg"},{"bike_id":"62f58f09-6cb3-47fe-995a-22ad2a01f631","system_id":"levelo_inurba_marseille","lat":43.28714,"lon":5.39965,"is_reserved":false,"is_disabled":false,"rental_uris":{"android":"levelo://app?vid=62f58f09-6cb3-47fe-995a-22ad2a01f631","ios":"levelo://app?vid=62f58f09-6cb3-47fe-995a-22ad2a01f631"},"vehicle_type_id":"4","last_reported":1743826320,"current_range_meters":7200,"station_id":"ce4bho92rcd13ifvqh3g","pricing_plan_id":"cebpf4jnsgd1na2vs0mg"},{"bike_id":"0eb90149-a410-495b-b3dc-1f5fb18bf1db","system_id":"levelo_inurba_marseille","lat":43.29271,"lon":5.38457,"is_reserved":false,"is_disabled":false,"rental_uris":{"android":"levelo://app?vid=0eb90149-a410-495b-b3dc-1f5fb18bf1db","ios":"levelo://app?vid=0eb90149-a410-495b-b3dc-1f5fb18bf1db"},"vehicle_type_id":"4","last_reported":1743826320,"current_range_meters":7200,"station_id":"ce4bh692rcd13ifvqea0","pricing_plan_id":"cebpf4jnsgd1na2vs0mg"},{"bike_id":"cdb7e4b1-8ea1-4a1d-91f3-73a8b3b493a5","system_id":"levelo_inurba_marseille","lat":43.31077,"lon":5.42457,"is_reserved":false,"is_disabled":false,"rental_uris":{"android":"levelo://app?vid=cdb7e4b1-8ea1-4a1d-91f3-73a8b3b493a5","ios":"levelo://app?vid=cdb7e4b1-8ea1-4a1d-91f3-73a8b3b493a5"},"vehicle_type_id":"4","last_reported":1743826320,"current_range_meters":7200,"station_id":"ce4bhp92rcd13ifvqhag","pricing_plan_id":"cebpf4jnsgd1na2vs0mg"},{"bike_id":"1219f204-7702-4fd3-81c1-164c45f83d97","system_id":"levelo_inurba_marseille","lat":43.28698,"lon":5.3999,"is_reserved":false,"is_disabled":false,"rental_uris":{"android":"levelo://app?vid=1219f204-7702-4fd3-81c1-164c45f83d97","ios":"levelo://app?vid=1219f204-7702-4fd3-81c1-164c45f83d97"},"vehicle_type_id":"4","last_reported":1743826320,"current_range_meters":7200,"station_id":"ce4bho92rcd13ifvqh3g","pricing_plan_id":"cebpf4jnsgd1na2vs0mg"},{"bike_id":"869e9513-78a9-48b7-ae2d-1a2ee88f5dcb","system_id":"levelo_inurba_marseille","lat":43.240768,"lon":5.377603,"is_reserved":false,"is_disabled":false,"rental_uris":{"android":"levelo://app?vid=869e9513-78a9-48b7-ae2d-1a2ee88f5dcb","ios":"levelo://app?vid=869e9513-78a9-48b7-ae2d-1a2ee88f5dcb"},"vehicle_type_id":"4","last_reported":1743826320,"current_range_meters":7200,"station_id":"ce4bhnp2rcd13ifvqgvg","pricing_plan_id":"cebpf4jnsgd1na2vs0mg"},{"bike_id":"dca0a3b3-5d59-4df4-aa71-6f29875e7065","system_id":"levelo_inurba_marseille","lat":43.28689,"lon":5.39956,"is_reserved":false,"is_disabled":false,"rental_uris":{"android":"levelo://app?vid=dca0a3b3-5d59-4df4-aa71-6f29875e7065","ios":"levelo://app?vid=dca0a3b3-5d59-4df4-aa71-6f29875e7065"},"vehicle_type_id":"4","last_reported":1743826320,"current_range_meters":8000,"station_id":"ce4bho92rcd13ifvqh3g","pricing_plan_id":"cebpf4jnsgd1na2vs0mg"},{"bike_id":"8a6c6f3e-a0ca-426b-926a-9bac537f3981","system_id":"levelo_inurba_marseille","lat":43.314929,"lon":5.373099,"is_reserved":false,"is_disabled":false,"rental_uris":{"android":"levelo://app?vid=8a6c6f3e-a0ca-426b-926a-9bac537f3981","ios":"levelo://app?vid=8a6c6f3e-a0ca-426b-926a-9bac537f3981"},"vehicle_type_id":"4","last_reported":1743826320,"current_range_meters":8000,"station_id":"ce4bgt12rcd13ifvqcd0","pricing_plan_id":"cebpf4jnsgd1na2vs0mg"},{"bike_id":"ea9918ee-d698-4d1b-8e0b-7cdbbc8e969f","system_id":"levelo_inurba_marseille","lat":43.29446,"lon":5.39778,"is_reserved":false,"is_disabled":false,"rental_uris":{"android":"levelo://app?vid=ea9918ee-d698-4d1b-8e0b-7cdbbc8e969f","ios":"levelo://app?vid=ea9918ee-d698-4d1b-8e0b-7cdbbc8e969f"},"vehicle_type_id":"4","last_reported":1743826320,"current_range_meters":8000,"station_id":"ce4bh3h2rcd13ifvqdo0","pricing_plan_id":"cebpf4jnsgd1na2vs0mg"},{"bike_id":"c26c0bf0-d03f-4dc2-800a-cc0ce613595e","system_id":"levelo_inurba_marseille","lat":43.27953,"lon":5.41052,"is_reserved":false,"is_disabled":false,"rental_uris":{"android":"levelo://app?vid=c26c0bf0-d03f-4dc2-800a-cc0ce613595e","ios":"levelo://app?vid=c26c0bf0-d03f-4dc2-800a-cc0ce613595e"},"vehicle_type_id":"4","last_reported":1743826320,"current_range_meters":8000,"station_id":"ce4bhnp2rcd13ifvqh0g","pricing_plan_id":"cebpf4jnsgd1na2vs0mg"},{"bike_id":"256b7c80-a51c-40eb-b667-6fbce6192e8f","system_id":"levelo_inurba_marseille","lat":43.27838,"lon":5.39217,"is_reserved":false,"is_disabled":false,"rental_uris":{"android":"levelo://app?vid=256b7c80-a51c-40eb-b667-6fbce6192e8f","ios":"levelo://app?vid=256b7c80-a51c-40eb-b667-6fbce6192e8f"},"vehicle_type_id":"4","last_reported":1743826320,"current_range_meters":8000,"station_id":"ce4bhjp2rcd13ifvqga0","pricing_plan_id":"cebpf4jnsgd1na2vs0mg"},{"bike_id":"50297066-959d-45c5-a71e-b062cc3724ec","system_id":"levelo_inurba_marseille","lat":43.30799,"lon":5.37339,"is_reserved":false,"is_disabled":false,"rental_uris":{"android":"levelo://app?vid=50297066-959d-45c5-a71e-b062cc3724ec","ios":"levelo://app?vid=50297066-959d-45c5-a71e-b062cc3724ec"},"vehicle_type_id":"4","last_reported":1743826320,"current_range_meters":8000,"station_id":"","pricing_plan_id":"cebpf4jnsgd1na2vs0mg"},{"bike_id":"74a13a18-430a-4f50-ba26-e7dfbad23482","system_id":"levelo_inurba_marseille","lat":43.23072,"lon":5.35512,"is_reserved":false,"is_disabled":false,"rental_uris":{"android":"levelo://app?vid=74a13a18-430a-4f50-ba26-e7dfbad23482","ios":"levelo://app?vid=74a13a18-430a-4f50-ba26-e7dfbad23482"},"vehicle_type_id":"4","last_reported":1743826320,"current_range_meters":8000,"station_id":"cpo3342slgdg3j2ifvpg","pricing_plan_id":"cebpf4jnsgd1na2vs0mg"},{"bike_id":"9ec7d284-5a6c-4264-a0ee-e4a74bd6f8ec","system_id":"levelo_inurba_marseille","lat":43.303201,"lon":5.404343,"is_reserved":false,"is_disabled":false,"rental_uris":{"android":"levelo://app?vid=9ec7d284-5a6c-4264-a0ee-e4a74bd6f8ec","ios":"levelo://app?vid=9ec7d284-5a6c-4264-a0ee-e4a74bd6f8ec"},"vehicle_type_id":"4","last_reported":1743826320,"current_range_meters":8400,"station_id":"ce4bh012rcd13ifvqd10","pricing_plan_id":"cebpf4jnsgd1na2vs0mg"},{"bike_id":"fb348b09-6abb-47a4-a266-91f2eeaee291","system_id":"levelo_inurba_marseille","lat":43.321023,"lon":5.36769,"is_reserved":false,"is_disabled":false,"rental_uris":{"android":"levelo://app?vid=fb348b09-6abb-47a4-a266-91f2eeaee291","ios":"levelo://app?vid=fb348b09-6abb-47a4-a266-91f2eeaee291"},"vehicle_type_id":"4","last_reported":1743826320,"current_range_meters":8400,"station_id":"ce4bhrh2rcd13ifvqhug","pricing_plan_id":"cebpf4jnsgd1na2vs0mg"},{"bike_id":"9b02f742-f038-4739-9c1b-418a3e5904eb","system_id":"levelo_inurba_marseille","lat":43.31361,"lon":5.36646,"is_reserved":false,"is_disabled":true,"rental_uris":{"android":"levelo://app?vid=9b02f742-f038-4739-9c1b-418a3e5904eb","ios":"levelo://app?vid=9b02f742-f038-4739-9c1b-418a3e5904eb"},"vehicle_type_id":"4","last_reported":1743826320,"current_range_meters":8400,"station_id":"","pricing_plan_id":"cebpf4jnsgd1na2vs0mg"},{"bike_id":"3a673a01-13fc-4ed6-b9b1-08a0faf2fd75","system_id":"levelo_inurba_marseille","lat":43.23182,"lon":5.39991,"is_reserved":false,"is_disabled":false,"rental_uris":{"android":"levelo://app?vid=3a673a01-13fc-4ed6-b9b1-08a0faf2fd75","ios":"levelo://app?vid=3a673a01-13fc-4ed6-b9b1-08a0faf2fd75"},"vehicle_type_id":"4","last_reported":1743826320,"current_range_meters":8400,"station_id":"ce4bhn12rcd13ifvqgqg","pricing_plan_id":"cebpf4jnsgd1na2vs0mg"},{"bike_id":"457df9e3-5413-4df9-b655-302e9b941294","system_id":"levelo_inurba_marseille","lat":43.28459,"lon":5.35881,"is_reserved":false,"is_disabled":false,"rental_uris":{"android":"levelo://app?vid=457df9e3-5413-4df9-b655-302e9b941294","ios":"levelo://app?vid=457df9e3-5413-4df9-b655-302e9b941294"},"vehicle_type_id":"4","last_reported":1743826320,"current_range_meters":8000,"station_id":"ce4bhh12rcd13ifvqff0","pricing_plan_id":"cebpf4jnsgd1na2vs0mg"},{"bike_id":"5e86f1b9-309e-4b23-804d-8038811a0903","system_id":"levelo_inurba_marseille","lat":43.31473,"lon":5.37355,"is_reserved":false,"is_disabled":false,"rental_uris":{"android":"levelo://app?vid=5e86f1b9-309e-4b23-804d-8038811a0903","ios":"levelo://app?vid=5e86f1b9-309e-4b23-804d-8038811a0903"},"vehicle_type_id":"4","last_reported":1743826320,"current_range_meters":8800,"station_id":"ce4bgt12rcd13ifvqcd0","pricing_plan_id":"cebpf4jnsgd1na2vs0mg"},{"bike_id":"afd0cb81-42fd-44ba-9989-2d131ba4acb2","system_id":"levelo_inurba_marseille","lat":43.30107,"lon":5.39136,"is_reserved":false,"is_disabled":true,"rental_uris":{"android":"levelo://app?vid=afd0cb81-42fd-44ba-9989-2d131ba4acb2","ios":"levelo://app?vid=afd0cb81-42fd-44ba-9989-2d131ba4acb2"},"vehicle_type_id":"4","last_reported":1743826320,"current_range_meters":8800,"station_id":"ce4bh192rcd13ifvqdb0","pricing_plan_id":"cebpf4jnsgd1na2vs0mg"},{"bike_id":"ed562682-b9c4-45a5-a5d9-628992c2c17c","system_id":"levelo_inurba_marseille","lat":43.33022,"lon":5.39047,"is_reserved":false,"is_disabled":false,"rental_uris":{"android":"levelo://app?vid=ed562682-b9c4-45a5-a5d9-628992c2c17c","ios":"levelo://app?vid=ed562682-b9c4-45a5-a5d9-628992c2c17c"},"vehicle_type_id":"4","last_reported":1743826320,"current_range_meters":8800,"station_id":"ce4bhr92rcd13ifvqhrg","pricing_plan_id":"cebpf4jnsgd1na2vs0mg"},{"bike_id":"f39de0ce-5dfe-4eca-9497-ceb174a0d2a4","system_id":"levelo_inurba_marseille","lat":43.25734,"lon":5.41139,"is_reserved":false,"is_disabled":false,"rental_uris":{"android":"levelo://app?vid=f39de0ce-5dfe-4eca-9497-ceb174a0d2a4","ios":"levelo://app?vid=f39de0ce-5dfe-4eca-9497-ceb174a0d2a4"},"vehicle_type_id":"4","last_reported":1743826320,"current_range_meters":8800,"station_id":"ce4bhkp2rcd13ifvqgd0","pricing_plan_id":"cebpf4jnsgd1na2vs0mg"},{"bike_id":"85569c5e-792a-4809-8948-6b3410ae7c98","system_id":"levelo_inurba_marseille","lat":43.246907,"lon":5.411878,"is_reserved":false,"is_disabled":false,"rental_uris":{"android":"levelo://app?vid=85569c5e-792a-4809-8948-6b3410ae7c98","ios":"levelo://app?vid=85569c5e-792a-4809-8948-6b3410ae7c98"},"vehicle_type_id":"4","last_reported":1743826320,"current_range_meters":8800,"station_id":"","pricing_plan_id":"cebpf4jnsgd1na2vs0mg"},{"bike_id":"644e19f0-23c8-43d1-b5ae-c63ea280c030","system_id":"levelo_inurba_marseille","lat":43.29683,"lon":5.37291,"is_reserved":false,"is_disabled":false,"rental_uris":{"android":"levelo://app?vid=644e19f0-23c8-43d1-b5ae-c63ea280c030","ios":"levelo://app?vid=644e19f0-23c8-43d1-b5ae-c63ea280c030"},"vehicle_type_id":"4","last_reported":1743826320,"current_range_meters":8400,"station_id":"ce4bgk12rcd13ifvqbj0","pricing_plan_id":"cebpf4jnsgd1na2vs0mg"},{"bike_id":"998aae2e-ce99-48eb-af2b-fc3dd60b4083","system_id":"levelo_inurba_marseille","lat":43.303059,"lon":5.369045,"is_reserved":false,"is_disabled":false,"rental_uris":{"android":"levelo://app?vid=998aae2e-ce99-48eb-af2b-fc3dd60b4083","ios":"levelo://app?vid=998aae2e-ce99-48eb-af2b-fc3dd60b4083"},"vehicle_type_id":"4","last_reported":1743826320,"current_range_meters":8800,"station_id":"ce4bgqh2rcd13ifvqc5g","pricing_plan_id":"cebpf4jnsgd1na2vs0mg"},{"bike_id":"f1c94e73-6d75-46c1-a24a-f82d52996508","system_id":"levelo_inurba_marseille","lat":43.309417,"lon":5.401416,"is_reserved":false,"is_disabled":false,"rental_uris":{"android":"levelo://app?vid=f1c94e73-6d75-46c1-a24a-f82d52996508","ios":"levelo://app?vid=f1c94e73-6d75-46c1-a24a-f82d52996508"},"vehicle_type_id":"4","last_reported":1743826320,"current_range_meters":8800,"station_id":"ce4bgvp2rcd13ifvqct0","pricing_plan_id":"cebpf4jnsgd1na2vs0mg"},{"bike_id":"41a95b86-7e86-4485-95f0-5338f824b27f","system_id":"levelo_inurba_marseille","lat":43.30794,"lon":5.3816,"is_reserved":false,"is_disabled":false,"rental_uris":{"android":"levelo://app?vid=41a95b86-7e86-4485-95f0-5338f824b27f","ios":"levelo://app?vid=41a95b86-7e86-4485-95f0-5338f824b27f"},"vehicle_type_id":"4","last_reported":1743826320,"current_range_meters":8800,"station_id":"ce4bgt12rcd13ifvqce0","pricing_plan_id":"cebpf4jnsgd1na2vs0mg"},{"bike_id":"db526bca-5447-4ac0-922d-45ecb017eb78","system_id":"levelo_inurba_marseille","lat":43.30787,"lon":5.43543,"is_reserved":false,"is_disabled":false,"rental_uris":{"android":"levelo://app?vid=db526bca-5447-4ac0-922d-45ecb017eb78","ios":"levelo://app?vid=db526bca-5447-4ac0-922d-45ecb017eb78"},"vehicle_type_id":"4","last_reported":1743826320,"current_range_meters":8800,"station_id":"ce4bhph2rcd13ifvqheg","pricing_plan_id":"cebpf4jnsgd1na2vs0mg"},{"bike_id":"6ee728d1-1037-4a9c-acea-7b94d7948765","system_id":"levelo_inurba_marseille","lat":43.30932,"lon":5.40119,"is_reserved":false,"is_disabled":false,"rental_uris":{"android":"levelo://app?vid=6ee728d1-1037-4a9c-acea-7b94d7948765","ios":"levelo://app?vid=6ee728d1-1037-4a9c-acea-7b94d7948765"},"vehicle_type_id":"4","last_reported":1743826320,"current_range_meters":9200,"station_id":"ce4bgvp2rcd13ifvqct0","pricing_plan_id":"cebpf4jnsgd1na2vs0mg"},{"bike_id":"ef076cc9-b478-41aa-802a-ed7212300556","system_id":"levelo_inurba_marseille","lat":43.22928,"lon":5.35404,"is_reserved":false,"is_disabled":false,"rental_uris":{"android":"levelo://app?vid=ef076cc9-b478-41aa-802a-ed7212300556","ios":"levelo://app?vid=ef076cc9-b478-41aa-802a-ed7212300556"},"vehicle_type_id":"4","last_reported":1743826320,"current_range_meters":9200,"station_id":"cpo3532slgdg3j2ikp40","pricing_plan_id":"cebpf4jnsgd1na2vs0mg"},{"bike_id":"53d75380-8638-4768-85b6-f042881abee1","system_id":"levelo_inurba_marseille","lat":43.309265,"lon":5.401502,"is_reserved":false,"is_disabled":false,"rental_uris":{"android":"levelo://app?vid=53d75380-8638-4768-85b6-f042881abee1","ios":"levelo://app?vid=53d75380-8638-4768-85b6-f042881abee1"},"vehicle_type_id":"4","last_reported":1743826320,"current_range_meters":9200,"station_id":"ce4bgvp2rcd13ifvqct0","pricing_plan_id":"cebpf4jnsgd1na2vs0mg"},{"bike_id":"35da84c8-70f0-4e2f-b773-2c76f93429fd","system_id":"levelo_inurba_marseille","lat":43.2988,"lon":5.39727,"is_reserved":false,"is_disabled":false,"rental_uris":{"android":"levelo://app?vid=35da84c8-70f0-4e2f-b773-2c76f93429fd","ios":"levelo://app?vid=35da84c8-70f0-4e2f-b773-2c76f93429fd"},"vehicle_type_id":"4","last_reported":1743826320,"current_range_meters":9200,"station_id":"ce4bh0h2rcd13ifvqd50","pricing_plan_id":"cebpf4jnsgd1na2vs0mg"},{"bike_id":"69ce2717-07f4-49be-8035-79dfd2778e94","system_id":"levelo_inurba_marseille","lat":43.24057,"lon":5.37768,"is_reserved":false,"is_disabled":false,"rental_uris":{"android":"levelo://app?vid=69ce2717-07f4-49be-8035-79dfd2778e94","ios":"levelo://app?vid=69ce2717-07f4-49be-8035-79dfd2778e94"},"vehicle_type_id":"4","last_reported":1743826320,"current_range_meters":9200,"station_id":"ce4bhnp2rcd13ifvqgvg","pricing_plan_id":"cebpf4jnsgd1na2vs0mg"},{"bike_id":"01dbfd75-8b48-44e3-82fb-2e2119ac87f3","system_id":"levelo_inurba_marseille","lat":43.29932,"lon":5.365358,"is_reserved":false,"is_disabled":false,"rental_uris":{"android":"levelo://app?vid=01dbfd75-8b48-44e3-82fb-2e2119ac87f3","ios":"levelo://app?vid=01dbfd75-8b48-44e3-82fb-2e2119ac87f3"},"vehicle_type_id":"4","last_reported":1743826320,"current_range_meters":9200,"station_id":"ce4bgm92rcd13ifvqbr0","pricing_plan_id":"cebpf4jnsgd1na2vs0mg"},{"bike_id":"908c0033-ebf3-400a-acb3-0a621b83539f","system_id":"levelo_inurba_marseille","lat":43.23208,"lon":5.40006,"is_reserved":false,"is_disabled":false,"rental_uris":{"android":"levelo://app?vid=908c0033-ebf3-400a-acb3-0a621b83539f","ios":"levelo://app?vid=908c0033-ebf3-400a-acb3-0a621b83539f"},"vehicle_type_id":"4","last_reported":1743826320,"current_range_meters":9200,"station_id":"ce4bhn12rcd13ifvqgqg","pricing_plan_id":"cebpf4jnsgd1na2vs0mg"},{"bike_id":"ee939f17-ee8c-4a6f-a641-88e21d352e27","system_id":"levelo_inurba_marseille","lat":43.28702,"lon":5.37398,"is_reserved":false,"is_disabled":false,"rental_uris":{"android":"levelo://app?vid=ee939f17-ee8c-4a6f-a641-88e21d352e27","ios":"levelo://app?vid=ee939f17-ee8c-4a6f-a641-88e21d352e27"},"vehicle_type_id":"4","last_reported":1743826320,"current_range_meters":9200,"station_id":"ce4bh3p2rcd13ifvqdq0","pricing_plan_id":"cebpf4jnsgd1na2vs0mg"},{"bike_id":"c9723415-0b2f-4ca6-a8bd-a7421e682851","system_id":"levelo_inurba_marseille","lat":43.29639,"lon":5.40624,"is_reserved":false,"is_disabled":false,"rental_uris":{"android":"levelo://app?vid=c9723415-0b2f-4ca6-a8bd-a7421e682851","ios":"levelo://app?vid=c9723415-0b2f-4ca6-a8bd-a7421e682851"},"vehicle_type_id":"4","last_reported":1743826320,"current_range_meters":9200,"station_id":"ce4bh0h2rcd13ifvqd60","pricing_plan_id":"cebpf4jnsgd1na2vs0mg"},{"bike_id":"ecc74f07-3692-4c0a-9fcc-eae9ccaeb211","system_id":"levelo_inurba_marseille","lat":43.29872,"lon":5.39743,"is_reserved":false,"is_disabled":false,"rental_uris":{"android":"levelo://app?vid=ecc74f07-3692-4c0a-9fcc-eae9ccaeb211","ios":"levelo://app?vid=ecc74f07-3692-4c0a-9fcc-eae9ccaeb211"},"vehicle_type_id":"4","last_reported":1743826320,"current_range_meters":9200,"station_id":"ce4bh0h2rcd13ifvqd50","pricing_plan_id":"cebpf4jnsgd1na2vs0mg"},{"bike_id":"520b10b3-b8d6-49e6-980e-14217422d833","system_id":"levelo_inurba_marseille","lat":43.30688,"lon":5.40062,"is_reserved":false,"is_disabled":false,"rental_uris":{"android":"levelo://app?vid=520b10b3-b8d6-49e6-980e-14217422d833","ios":"levelo://app?vid=520b10b3-b8d6-49e6-980e-14217422d833"},"vehicle_type_id":"4","last_reported":1743826320,"current_range_meters":9200,"station_id":"","pricing_plan_id":"cebpf4jnsgd1na2vs0mg"},{"bike_id":"69765911-a657-4873-ab71-1b6674378393","system_id":"levelo_inurba_marseille","lat":43.293036,"lon":5.374507,"is_reserved":false,"is_disabled":true,"rental_uris":{"android":"levelo://app?vid=69765911-a657-4873-ab71-1b6674378393","ios":"levelo://app?vid=69765911-a657-4873-ab71-1b6674378393"},"vehicle_type_id":"4","last_reported":1743826320,"current_range_meters":9600,"station_id":"ce4bgi12rcd13ifvqb70","pricing_plan_id":"cebpf4jnsgd1na2vs0mg"},{"bike_id":"c91a6301-d46d-458e-a0a6-5762e813d6dd","system_id":"levelo_inurba_marseille","lat":43.295411,"lon":5.38547,"is_reserved":false,"is_disabled":true,"rental_uris":{"android":"levelo://app?vid=c91a6301-d46d-458e-a0a6-5762e813d6dd","ios":"levelo://app?vid=c91a6301-d46d-458e-a0a6-5762e813d6dd"},"vehicle_type_id":"4","last_reported":1743826320,"current_range_meters":9600,"station_id":"ce4bgih2rcd13ifvqba0","pricing_plan_id":"cebpf4jnsgd1na2vs0mg"},{"bike_id":"ead8fb85-2ed4-4b6a-bfa6-b10b2549cc84","system_id":"levelo_inurba_marseille","lat":43.262156,"lon":5.404559,"is_reserved":false,"is_disabled":false,"rental_uris":{"android":"levelo://app?vid=ead8fb85-2ed4-4b6a-bfa6-b10b2549cc84","ios":"levelo://app?vid=ead8fb85-2ed4-4b6a-bfa6-b10b2549cc84"},"vehicle_type_id":"4","last_reported":1743826320,"current_range_meters":9600,"station_id":"ce4bhmh2rcd13ifvqgmg","pricing_plan_id":"cebpf4jnsgd1na2vs0mg"},{"bike_id":"f40fc4e8-cfdd-40aa-8507-3bd8857476a8","system_id":"levelo_inurba_marseille","lat":43.30197,"lon":5.39965,"is_reserved":false,"is_disabled":true,"rental_uris":{"android":"levelo://app?vid=f40fc4e8-cfdd-40aa-8507-3bd8857476a8","ios":"levelo://app?vid=f40fc4e8-cfdd-40aa-8507-3bd8857476a8"},"vehicle_type_id":"4","last_reported":1743826320,"current_range_meters":9600,"station_id":"","pricing_plan_id":"cebpf4jnsgd1na2vs0mg"},{"bike_id":"a183770d-d0ab-4f82-8e51-09298d13fee6","system_id":"levelo_inurba_marseille","lat":43.31168,"lon":5.3871,"is_reserved":false,"is_disabled":false,"rental_uris":{"android":"levelo://app?vid=a183770d-d0ab-4f82-8e51-09298d13fee6","ios":"levelo://app?vid=a183770d-d0ab-4f82-8e51-09298d13fee6"},"vehicle_type_id":"4","last_reported":1743826320,"current_range_meters":9600,"station_id":"ce4bgv12rcd13ifvqcp0","pricing_plan_id":"cebpf4jnsgd1na2vs0mg"},{"bike_id":"c9ab5bfd-fa91-4b45-8fa2-52813c43fa45","system_id":"levelo_inurba_marseille","lat":43.23045,"lon":5.35508,"is_reserved":false,"is_disabled":false,"rental_uris":{"android":"levelo://app?vid=c9ab5bfd-fa91-4b45-8fa2-52813c43fa45","ios":"levelo://app?vid=c9ab5bfd-fa91-4b45-8fa2-52813c43fa45"},"vehicle_type_id":"4","last_reported":1743826320,"current_range_meters":9600,"station_id":"cpo3342slgdg3j2ifvpg","pricing_plan_id":"cebpf4jnsgd1na2vs0mg"},{"bike_id":"156737a5-e872-489c-8f5b-97ea8abe042b","system_id":"levelo_inurba_marseille","lat":43.25112,"lon":5.40329,"is_reserved":false,"is_disabled":false,"rental_uris":{"android":"levelo://app?vid=156737a5-e872-489c-8f5b-97ea8abe042b","ios":"levelo://app?vid=156737a5-e872-489c-8f5b-97ea8abe042b"},"vehicle_type_id":"4","last_reported":1743826320,"current_range_meters":9600,"station_id":"ce4bhlh2rcd13ifvqgig","pricing_plan_id":"cebpf4jnsgd1na2vs0mg"},{"bike_id":"cae37b12-7f84-4bf4-94ea-60e900d39894","system_id":"levelo_inurba_marseille","lat":43.29631,"lon":5.37749,"is_reserved":false,"is_disabled":false,"rental_uris":{"android":"levelo://app?vid=cae37b12-7f84-4bf4-94ea-60e900d39894","ios":"levelo://app?vid=cae37b12-7f84-4bf4-94ea-60e900d39894"},"vehicle_type_id":"4","last_reported":1743826320,"current_range_meters":9200,"station_id":"ce4bgi92rcd13ifvqb90","pricing_plan_id":"cebpf4jnsgd1na2vs0mg"},{"bike_id":"a1cc8429-7f5d-4c98-838c-0dbc6d7c247e","system_id":"levelo_inurba_marseille","lat":43.281526,"lon":5.426458,"is_reserved":false,"is_disabled":false,"rental_uris":{"android":"levelo://app?vid=a1cc8429-7f5d-4c98-838c-0dbc6d7c247e","ios":"levelo://app?vid=a1cc8429-7f5d-4c98-838c-0dbc6d7c247e"},"vehicle_type_id":"4","last_reported":1743826320,"current_range_meters":9600,"station_id":"ce4bhnh2rcd13ifvqgug","pricing_plan_id":"cebpf4jnsgd1na2vs0mg"},{"bike_id":"ccbaad60-ee1e-4837-a1f8-1af8e79dfa40","system_id":"levelo_inurba_marseille","lat":43.30616,"lon":5.39371,"is_reserved":false,"is_disabled":true,"rental_uris":{"android":"levelo://app?vid=ccbaad60-ee1e-4837-a1f8-1af8e79dfa40","ios":"levelo://app?vid=ccbaad60-ee1e-4837-a1f8-1af8e79dfa40"},"vehicle_type_id":"4","last_reported":1743826320,"current_range_meters":9600,"station_id":"ce4bh0p2rcd13ifvqd80","pricing_plan_id":"cebpf4jnsgd1na2vs0mg"},{"bike_id":"5ad625c2-341a-4de8-8cf2-038a98c0b024","system_id":"levelo_inurba_marseille","lat":43.27959,"lon":5.38699,"is_reserved":false,"is_disabled":false,"rental_uris":{"android":"levelo://app?vid=5ad625c2-341a-4de8-8cf2-038a98c0b024","ios":"levelo://app?vid=5ad625c2-341a-4de8-8cf2-038a98c0b024"},"vehicle_type_id":"4","last_reported":1743826320,"current_range_meters":9600,"station_id":"ce4bhg12rcd13ifvqf80","pricing_plan_id":"cebpf4jnsgd1na2vs0mg"},{"bike_id":"706fc506-2aa0-4db5-833c-3cdac573bb9a","system_id":"levelo_inurba_marseille","lat":43.29036,"lon":5.3867,"is_reserved":false,"is_disabled":true,"rental_uris":{"android":"levelo://app?vid=706fc506-2aa0-4db5-833c-3cdac573bb9a","ios":"levelo://app?vid=706fc506-2aa0-4db5-833c-3cdac573bb9a"},"vehicle_type_id":"4","last_reported":1743826320,"current_range_meters":9600,"station_id":"ce4bh4p2rcd13ifvqe0g","pricing_plan_id":"cebpf4jnsgd1na2vs0mg"},{"bike_id":"ae85a7a4-7c38-4e25-9e50-a9a925b58789","system_id":"levelo_inurba_marseille","lat":43.31089,"lon":5.42465,"is_reserved":false,"is_disabled":false,"rental_uris":{"android":"levelo://app?vid=ae85a7a4-7c38-4e25-9e50-a9a925b58789","ios":"levelo://app?vid=ae85a7a4-7c38-4e25-9e50-a9a925b58789"},"vehicle_type_id":"4","last_reported":1743826320,"current_range_meters":9600,"station_id":"ce4bhp92rcd13ifvqhag","pricing_plan_id":"cebpf4jnsgd1na2vs0mg"},{"bike_id":"60466e0c-a8b9-4bc7-92be-d68e779f1109","system_id":"levelo_inurba_marseille","lat":43.30431,"lon":5.39758,"is_reserved":false,"is_disabled":false,"rental_uris":{"android":"levelo://app?vid=60466e0c-a8b9-4bc7-92be-d68e779f1109","ios":"levelo://app?vid=60466e0c-a8b9-4bc7-92be-d68e779f1109"},"vehicle_type_id":"4","last_reported":1743826320,"current_range_meters":9600,"station_id":"ce4bh092rcd13ifvqd20","pricing_plan_id":"cebpf4jnsgd1na2vs0mg"},{"bike_id":"8980209c-4b8c-4f30-a818-89a0aaa71deb","system_id":"levelo_inurba_marseille","lat":43.24404,"lon":5.37078,"is_reserved":false,"is_disabled":false,"rental_uris":{"android":"levelo://app?vid=8980209c-4b8c-4f30-a818-89a0aaa71deb","ios":"levelo://app?vid=8980209c-4b8c-4f30-a818-89a0aaa71deb"},"vehicle_type_id":"4","last_reported":1743826320,"current_range_meters":10000,"station_id":"ce4bhhh2rcd13ifvqfk0","pricing_plan_id":"cebpf4jnsgd1na2vs0mg"},{"bike_id":"a07480da-f5a9-4597-b3e6-cc405effeae7","system_id":"levelo_inurba_marseille","lat":43.289503,"lon":5.396497,"is_reserved":false,"is_disabled":true,"rental_uris":{"android":"levelo://app?vid=a07480da-f5a9-4597-b3e6-cc405effeae7","ios":"levelo://app?vid=a07480da-f5a9-4597-b3e6-cc405effeae7"},"vehicle_type_id":"4","last_reported":1743826320,"current_range_meters":10000,"station_id":"ce4bh3h2rcd13ifvqdn0","pricing_plan_id":"cebpf4jnsgd1na2vs0mg"},{"bike_id":"3b4ad8c6-6244-4378-90d7-dac703d1508d","system_id":"levelo_inurba_marseille","lat":43.23191,"lon":5.35576,"is_reserved":false,"is_disabled":false,"rental_uris":{"android":"levelo://app?vid=3b4ad8c6-6244-4378-90d7-dac703d1508d","ios":"levelo://app?vid=3b4ad8c6-6244-4378-90d7-dac703d1508d"},"vehicle_type_id":"4","last_reported":1743826320,"current_range_meters":10000,"station_id":"ce4bhu92rcd13ifvqi70","pricing_plan_id":"cebpf4jnsgd1na2vs0mg"},{"bike_id":"203176fb-52f7-45ec-88b4-caa4115f7b7b","system_id":"levelo_inurba_marseille","lat":43.296204,"lon":5.400145,"is_reserved":false,"is_disabled":false,"rental_uris":{"android":"levelo://app?vid=203176fb-52f7-45ec-88b4-caa4115f7b7b","ios":"levelo://app?vid=203176fb-52f7-45ec-88b4-caa4115f7b7b"},"vehicle_type_id":"4","last_reported":1743826320,"current_range_meters":10000,"station_id":"","pricing_plan_id":"cebpf4jnsgd1na2vs0mg"},{"bike_id":"783ef245-163c-4c81-b038-df23059b7c57","system_id":"levelo_inurba_marseille","lat":43.310755,"lon":5.383546,"is_reserved":false,"is_disabled":false,"rental_uris":{"android":"levelo://app?vid=783ef245-163c-4c81-b038-df23059b7c57","ios":"levelo://app?vid=783ef245-163c-4c81-b038-df23059b7c57"},"vehicle_type_id":"4","last_reported":1743826320,"current_range_meters":10000,"station_id":"","pricing_plan_id":"cebpf4jnsgd1na2vs0mg"},{"bike_id":"829acafc-221e-41d2-b87e-1eaa511b3313","system_id":"levelo_inurba_marseille","lat":43.29047,"lon":5.40014,"is_reserved":false,"is_disabled":true,"rental_uris":{"android":"levelo://app?vid=829acafc-221e-41d2-b87e-1eaa511b3313","ios":"levelo://app?vid=829acafc-221e-41d2-b87e-1eaa511b3313"},"vehicle_type_id":"4","last_reported":1743826320,"current_range_meters":10000,"station_id":"ce4bh392rcd13ifvqdm0","pricing_plan_id":"cebpf4jnsgd1na2vs0mg"},{"bike_id":"fb0d4993-67fa-4314-9525-ef2ba9197c72","system_id":"levelo_inurba_marseille","lat":43.30321,"lon":5.4059,"is_reserved":false,"is_disabled":false,"rental_uris":{"android":"levelo://app?vid=fb0d4993-67fa-4314-9525-ef2ba9197c72","ios":"levelo://app?vid=fb0d4993-67fa-4314-9525-ef2ba9197c72"},"vehicle_type_id":"4","last_reported":1743826320,"current_range_meters":10000,"station_id":"","pricing_plan_id":"cebpf4jnsgd1na2vs0mg"},{"bike_id":"82094fca-82b5-45b4-81a5-df2e6ffd6728","system_id":"levelo_inurba_marseille","lat":43.32334,"lon":5.40652,"is_reserved":false,"is_disabled":false,"rental_uris":{"android":"levelo://app?vid=82094fca-82b5-45b4-81a5-df2e6ffd6728","ios":"levelo://app?vid=82094fca-82b5-45b4-81a5-df2e6ffd6728"},"vehicle_type_id":"4","last_reported":1743826320,"current_range_meters":10000,"station_id":"ce4bhq92rcd13ifvqhjg","pricing_plan_id":"cebpf4jnsgd1na2vs0mg"},{"bike_id":"0eb30f16-826e-404e-9494-cbd59d704ab7","system_id":"levelo_inurba_marseille","lat":43.29001,"lon":5.38641,"is_reserved":false,"is_disabled":true,"rental_uris":{"android":"levelo://app?vid=0eb30f16-826e-404e-9494-cbd59d704ab7","ios":"levelo://app?vid=0eb30f16-826e-404e-9494-cbd59d704ab7"},"vehicle_type_id":"4","last_reported":1743826320,"current_range_meters":10000,"station_id":"ce4bh4p2rcd13ifvqe0g","pricing_plan_id":"cebpf4jnsgd1na2vs0mg"},{"bike_id":"682f7ec8-5529-42b7-a265-aaa70f95d362","system_id":"levelo_inurba_marseille","lat":43.31357,"lon":5.38491,"is_reserved":false,"is_disabled":false,"rental_uris":{"android":"levelo://app?vid=682f7ec8-5529-42b7-a265-aaa70f95d362","ios":"levelo://app?vid=682f7ec8-5529-42b7-a265-aaa70f95d362"},"vehicle_type_id":"4","last_reported":1743826320,"current_range_meters":10000,"station_id":"ce4bgt92rcd13ifvqcf0","pricing_plan_id":"cebpf4jnsgd1na2vs0mg"},{"bike_id":"c2055a2a-1cff-4f19-a52d-9b52baeaa63f","system_id":"levelo_inurba_marseille","lat":43.320214,"lon":5.381279,"is_reserved":false,"is_disabled":true,"rental_uris":{"android":"levelo://app?vid=c2055a2a-1cff-4f19-a52d-9b52baeaa63f","ios":"levelo://app?vid=c2055a2a-1cff-4f19-a52d-9b52baeaa63f"},"vehicle_type_id":"4","last_reported":1743826320,"current_range_meters":10000,"station_id":"ce4bhr12rcd13ifvqhpg","pricing_plan_id":"cebpf4jnsgd1na2vs0mg"},{"bike_id":"d305d118-c379-494a-a499-22d121e5ecc7","system_id":"levelo_inurba_marseille","lat":43.31113,"lon":5.37766,"is_reserved":false,"is_disabled":false,"rental_uris":{"android":"levelo://app?vid=d305d118-c379-494a-a499-22d121e5ecc7","ios":"levelo://app?vid=d305d118-c379-494a-a499-22d121e5ecc7"},"vehicle_type_id":"4","last_reported":1743826320,"current_range_meters":10000,"station_id":"ce4bgt92rcd13ifvqcg0","pricing_plan_id":"cebpf4jnsgd1na2vs0mg"},{"bike_id":"883b5c19-b9c3-441b-a6c9-b48bb59fef42","system_id":"levelo_inurba_marseille","lat":43.279718,"lon":5.387256,"is_reserved":false,"is_disabled":false,"rental_uris":{"android":"levelo://app?vid=883b5c19-b9c3-441b-a6c9-b48bb59fef42","ios":"levelo://app?vid=883b5c19-b9c3-441b-a6c9-b48bb59fef42"},"vehicle_type_id":"4","last_reported":1743826320,"current_range_meters":10800,"station_id":"ce4bhg12rcd13ifvqf80","pricing_plan_id":"cebpf4jnsgd1na2vs0mg"},{"bike_id":"2ac6a623-063c-4fc4-8bde-f17112b0788e","system_id":"levelo_inurba_marseille","lat":43.234224,"lon":5.406128,"is_reserved":false,"is_disabled":false,"rental_uris":{"android":"levelo://app?vid=2ac6a623-063c-4fc4-8bde-f17112b0788e","ios":"levelo://app?vid=2ac6a623-063c-4fc4-8bde-f17112b0788e"},"vehicle_type_id":"4","last_reported":1743826320,"current_range_meters":10800,"station_id":"","pricing_plan_id":"cebpf4jnsgd1na2vs0mg"},{"bike_id":"6b8df6c6-e69f-416d-869f-6c58b572d426","system_id":"levelo_inurba_marseille","lat":43.23197,"lon":5.39969,"is_reserved":false,"is_disabled":false,"rental_uris":{"android":"levelo://app?vid=6b8df6c6-e69f-416d-869f-6c58b572d426","ios":"levelo://app?vid=6b8df6c6-e69f-416d-869f-6c58b572d426"},"vehicle_type_id":"4","last_reported":1743826320,"current_range_meters":10800,"station_id":"ce4bhn12rcd13ifvqgqg","pricing_plan_id":"cebpf4jnsgd1na2vs0mg"},{"bike_id":"599a84dd-b3d2-49b9-8b4b-b503cefa8862","system_id":"levelo_inurba_marseille","lat":43.30809,"lon":5.38163,"is_reserved":false,"is_disabled":false,"rental_uris":{"android":"levelo://app?vid=599a84dd-b3d2-49b9-8b4b-b503cefa8862","ios":"levelo://app?vid=599a84dd-b3d2-49b9-8b4b-b503cefa8862"},"vehicle_type_id":"4","last_reported":1743826320,"current_range_meters":10800,"station_id":"ce4bgt12rcd13ifvqce0","pricing_plan_id":"cebpf4jnsgd1na2vs0mg"},{"bike_id":"48ec1fe3-fdf4-49a5-977a-526829b4e2e3","system_id":"levelo_inurba_marseille","lat":43.23057,"lon":5.35495,"is_reserved":false,"is_disabled":false,"rental_uris":{"android":"levelo://app?vid=48ec1fe3-fdf4-49a5-977a-526829b4e2e3","ios":"levelo://app?vid=48ec1fe3-fdf4-49a5-977a-526829b4e2e3"},"vehicle_type_id":"4","last_reported":1743826320,"current_range_meters":10800,"station_id":"cpo3342slgdg3j2ifvpg","pricing_plan_id":"cebpf4jnsgd1na2vs0mg"},{"bike_id":"fdad6e5e-1467-4616-9d72-68b29d343e00","system_id":"levelo_inurba_marseille","lat":43.322839,"lon":5.382771,"is_reserved":false,"is_disabled":false,"rental_uris":{"android":"levelo://app?vid=fdad6e5e-1467-4616-9d72-68b29d343e00","ios":"levelo://app?vid=fdad6e5e-1467-4616-9d72-68b29d343e00"},"vehicle_type_id":"4","last_reported":1743826320,"current_range_meters":10800,"station_id":"ce4bhr12rcd13ifvqhqg","pricing_plan_id":"cebpf4jnsgd1na2vs0mg"},{"bike_id":"95df1b46-4651-4e01-99a6-3ccb43dd586c","system_id":"levelo_inurba_marseille","lat":43.28925,"lon":5.39647,"is_reserved":false,"is_disabled":false,"rental_uris":{"android":"levelo://app?vid=95df1b46-4651-4e01-99a6-3ccb43dd586c","ios":"levelo://app?vid=95df1b46-4651-4e01-99a6-3ccb43dd586c"},"vehicle_type_id":"4","last_reported":1743826320,"current_range_meters":10800,"station_id":"ce4bh3h2rcd13ifvqdn0","pricing_plan_id":"cebpf4jnsgd1na2vs0mg"},{"bike_id":"26bd561b-7d34-41ee-b9f0-d1fdd42a031c","system_id":"levelo_inurba_marseille","lat":43.303185,"lon":5.404403,"is_reserved":false,"is_disabled":false,"rental_uris":{"android":"levelo://app?vid=26bd561b-7d34-41ee-b9f0-d1fdd42a031c","ios":"levelo://app?vid=26bd561b-7d34-41ee-b9f0-d1fdd42a031c"},"vehicle_type_id":"4","last_reported":1743826320,"current_range_meters":10800,"station_id":"ce4bh012rcd13ifvqd10","pricing_plan_id":"cebpf4jnsgd1na2vs0mg"},{"bike_id":"d68bb49e-ae67-46b9-9113-2f1b9eefff70","system_id":"levelo_inurba_marseille","lat":43.3203,"lon":5.38167,"is_reserved":false,"is_disabled":true,"rental_uris":{"android":"levelo://app?vid=d68bb49e-ae67-46b9-9113-2f1b9eefff70","ios":"levelo://app?vid=d68bb49e-ae67-46b9-9113-2f1b9eefff70"},"vehicle_type_id":"4","last_reported":1743826320,"current_range_meters":10800,"station_id":"ce4bhr12rcd13ifvqhpg","pricing_plan_id":"cebpf4jnsgd1na2vs0mg"},{"bike_id":"6d9715e6-045f-417b-844a-144b6e5c1132","system_id":"levelo_inurba_marseille","lat":43.29195,"lon":5.35719,"is_reserved":false,"is_disabled":false,"rental_uris":{"android":"levelo://app?vid=6d9715e6-045f-417b-844a-144b6e5c1132","ios":"levelo://app?vid=6d9715e6-045f-417b-844a-144b6e5c1132"},"vehicle_type_id":"4","last_reported":1743826320,"current_range_meters":10800,"station_id":"","pricing_plan_id":"cebpf4jnsgd1na2vs0mg"},{"bike_id":"1d5ef6d0-a413-45b3-8100-7222d11689f2","system_id":"levelo_inurba_marseille","lat":43.28917,"lon":5.38381,"is_reserved":false,"is_disabled":true,"rental_uris":{"android":"levelo://app?vid=1d5ef6d0-a413-45b3-8100-7222d11689f2","ios":"levelo://app?vid=1d5ef6d0-a413-45b3-8100-7222d11689f2"},"vehicle_type_id":"4","last_reported":1743826320,"current_range_meters":10800,"station_id":"ce4bh612rcd13ifvqe6g","pricing_plan_id":"cebpf4jnsgd1na2vs0mg"},{"bike_id":"eb79d1f9-7c91-4ea2-b5f8-796189743e1a","system_id":"levelo_inurba_marseille","lat":43.33714,"lon":5.39146,"is_reserved":false,"is_disabled":false,"rental_uris":{"android":"levelo://app?vid=eb79d1f9-7c91-4ea2-b5f8-796189743e1a","ios":"levelo://app?vid=eb79d1f9-7c91-4ea2-b5f8-796189743e1a"},"vehicle_type_id":"4","last_reported":1743826320,"current_range_meters":11200,"station_id":"ce4bhr92rcd13ifvqhsg","pricing_plan_id":"cebpf4jnsgd1na2vs0mg"},{"bike_id":"a7b231d5-55ed-4ec1-b27d-bb0fe80f18ea","system_id":"levelo_inurba_marseille","lat":43.26954,"lon":5.38646,"is_reserved":false,"is_disabled":false,"rental_uris":{"android":"levelo://app?vid=a7b231d5-55ed-4ec1-b27d-bb0fe80f18ea","ios":"levelo://app?vid=a7b231d5-55ed-4ec1-b27d-bb0fe80f18ea"},"vehicle_type_id":"4","last_reported":1743826320,"current_range_meters":11200,"station_id":"ce4bhh92rcd13ifvqfh0","pricing_plan_id":"cebpf4jnsgd1na2vs0mg"},{"bike_id":"754f647c-4229-4cc1-8af5-c330aba6d86c","system_id":"levelo_inurba_marseille","lat":43.32853,"lon":5.37485,"is_reserved":false,"is_disabled":false,"rental_uris":{"android":"levelo://app?vid=754f647c-4229-4cc1-8af5-c330aba6d86c","ios":"levelo://app?vid=754f647c-4229-4cc1-8af5-c330aba6d86c"},"vehicle_type_id":"4","last_reported":1743826320,"current_range_meters":11200,"station_id":"","pricing_plan_id":"cebpf4jnsgd1na2vs0mg"},{"bike_id":"d89bb348-a2b2-475f-b66f-22fe74c882fd","system_id":"levelo_inurba_marseille","lat":43.23187,"lon":5.39992,"is_reserved":false,"is_disabled":false,"rental_uris":{"android":"levelo://app?vid=d89bb348-a2b2-475f-b66f-22fe74c882fd","ios":"levelo://app?vid=d89bb348-a2b2-475f-b66f-22fe74c882fd"},"vehicle_type_id":"4","last_reported":1743826320,"current_range_meters":11200,"station_id":"ce4bhn12rcd13ifvqgqg","pricing_plan_id":"cebpf4jnsgd1na2vs0mg"},{"bike_id":"850ed682-e538-4212-87f1-45c6912d20ff","system_id":"levelo_inurba_marseille","lat":43.28708,"lon":5.40011,"is_reserved":false,"is_disabled":false,"rental_uris":{"android":"levelo://app?vid=850ed682-e538-4212-87f1-45c6912d20ff","ios":"levelo://app?vid=850ed682-e538-4212-87f1-45c6912d20ff"},"vehicle_type_id":"4","last_reported":1743826320,"current_range_meters":11200,"station_id":"ce4bho92rcd13ifvqh3g","pricing_plan_id":"cebpf4jnsgd1na2vs0mg"},{"bike_id":"41296888-352e-4ce3-b582-026d48019870","system_id":"levelo_inurba_marseille","lat":43.29155,"lon":5.37972,"is_reserved":false,"is_disabled":false,"rental_uris":{"android":"levelo://app?vid=41296888-352e-4ce3-b582-026d48019870","ios":"levelo://app?vid=41296888-352e-4ce3-b582-026d48019870"},"vehicle_type_id":"4","last_reported":1743826320,"current_range_meters":11200,"station_id":"","pricing_plan_id":"cebpf4jnsgd1na2vs0mg"},{"bike_id":"6fe5edb4-df2e-4d1e-ad96-6974e9dff0b8","system_id":"levelo_inurba_marseille","lat":43.28932,"lon":5.39664,"is_reserved":false,"is_disabled":false,"rental_uris":{"android":"levelo://app?vid=6fe5edb4-df2e-4d1e-ad96-6974e9dff0b8","ios":"levelo://app?vid=6fe5edb4-df2e-4d1e-ad96-6974e9dff0b8"},"vehicle_type_id":"4","last_reported":1743826320,"current_range_meters":11600,"station_id":"ce4bh3h2rcd13ifvqdn0","pricing_plan_id":"cebpf4jnsgd1na2vs0mg"},{"bike_id":"445101c0-7b4a-48c3-933a-a7ca02d8dc22","system_id":"levelo_inurba_marseille","lat":43.29434,"lon":5.39764,"is_reserved":false,"is_disabled":false,"rental_uris":{"android":"levelo://app?vid=445101c0-7b4a-48c3-933a-a7ca02d8dc22","ios":"levelo://app?vid=445101c0-7b4a-48c3-933a-a7ca02d8dc22"},"vehicle_type_id":"4","last_reported":1743826320,"current_range_meters":11600,"station_id":"ce4bh3h2rcd13ifvqdo0","pricing_plan_id":"cebpf4jnsgd1na2vs0mg"},{"bike_id":"e2d60a27-aabd-4da3-8161-1c72606123cf","system_id":"levelo_inurba_marseille","lat":43.31183,"lon":5.38736,"is_reserved":false,"is_disabled":false,"rental_uris":{"android":"levelo://app?vid=e2d60a27-aabd-4da3-8161-1c72606123cf","ios":"levelo://app?vid=e2d60a27-aabd-4da3-8161-1c72606123cf"},"vehicle_type_id":"4","last_reported":1743826320,"current_range_meters":11600,"station_id":"ce4bgv12rcd13ifvqcp0","pricing_plan_id":"cebpf4jnsgd1na2vs0mg"},{"bike_id":"eb79d7a6-44fa-47f5-a197-9a9a537a08ba","system_id":"levelo_inurba_marseille","lat":43.29577,"lon":5.39997,"is_reserved":false,"is_disabled":false,"rental_uris":{"android":"levelo://app?vid=eb79d7a6-44fa-47f5-a197-9a9a537a08ba","ios":"levelo://app?vid=eb79d7a6-44fa-47f5-a197-9a9a537a08ba"},"vehicle_type_id":"4","last_reported":1743826320,"current_range_meters":11600,"station_id":"ce4bh312rcd13ifvqdj0","pricing_plan_id":"cebpf4jnsgd1na2vs0mg"},{"bike_id":"da98834e-7628-4e36-8261-884578fb56e3","system_id":"levelo_inurba_marseille","lat":43.24664,"lon":5.38197,"is_reserved":false,"is_disabled":false,"rental_uris":{"android":"levelo://app?vid=da98834e-7628-4e36-8261-884578fb56e3","ios":"levelo://app?vid=da98834e-7628-4e36-8261-884578fb56e3"},"vehicle_type_id":"4","last_reported":1743826320,"current_range_meters":11600,"station_id":"ce4bhih2rcd13ifvqfr0","pricing_plan_id":"cebpf4jnsgd1na2vs0mg"},{"bike_id":"9735e1d0-b6b2-486b-b890-34ddc3fed392","system_id":"levelo_inurba_marseille","lat":43.245405,"lon":5.395217,"is_reserved":false,"is_disabled":true,"rental_uris":{"android":"levelo://app?vid=9735e1d0-b6b2-486b-b890-34ddc3fed392","ios":"levelo://app?vid=9735e1d0-b6b2-486b-b890-34ddc3fed392"},"vehicle_type_id":"4","last_reported":1743826320,"current_range_meters":11600,"station_id":"ce4bhlp2rcd13ifvqgjg","pricing_plan_id":"cebpf4jnsgd1na2vs0mg"},{"bike_id":"3719d63c-6535-40a3-9206-8644906174c4","system_id":"levelo_inurba_marseille","lat":43.298996,"lon":5.436692,"is_reserved":false,"is_disabled":false,"rental_uris":{"android":"levelo://app?vid=3719d63c-6535-40a3-9206-8644906174c4","ios":"levelo://app?vid=3719d63c-6535-40a3-9206-8644906174c4"},"vehicle_type_id":"4","last_reported":1743826320,"current_range_meters":12000,"station_id":"ce4bhpp2rcd13ifvqhfg","pricing_plan_id":"cebpf4jnsgd1na2vs0mg"},{"bike_id":"07abcedc-bf49-4bf3-b4ce-1b77e9e25f6f","system_id":"levelo_inurba_marseille","lat":43.28401,"lon":5.37516,"is_reserved":false,"is_disabled":false,"rental_uris":{"android":"levelo://app?vid=07abcedc-bf49-4bf3-b4ce-1b77e9e25f6f","ios":"levelo://app?vid=07abcedc-bf49-4bf3-b4ce-1b77e9e25f6f"},"vehicle_type_id":"4","last_reported":1743826320,"current_range_meters":12000,"station_id":"ce4bh412rcd13ifvqds0","pricing_plan_id":"cebpf4jnsgd1na2vs0mg"},{"bike_id":"cd9b8fed-a06b-4ae8-8217-db7902c0bf19","system_id":"levelo_inurba_marseille","lat":43.29033,"lon":5.39963,"is_reserved":false,"is_disabled":false,"rental_uris":{"android":"levelo://app?vid=cd9b8fed-a06b-4ae8-8217-db7902c0bf19","ios":"levelo://app?vid=cd9b8fed-a06b-4ae8-8217-db7902c0bf19"},"vehicle_type_id":"4","last_reported":1743826320,"current_range_meters":12000,"station_id":"ce4bh392rcd13ifvqdm0","pricing_plan_id":"cebpf4jnsgd1na2vs0mg"},{"bike_id":"e0025ce5-fe29-4293-8000-c88ee2bac657","system_id":"levelo_inurba_marseille","lat":43.3147,"lon":5.39257,"is_reserved":false,"is_disabled":false,"rental_uris":{"android":"levelo://app?vid=e0025ce5-fe29-4293-8000-c88ee2bac657","ios":"levelo://app?vid=e0025ce5-fe29-4293-8000-c88ee2bac657"},"vehicle_type_id":"4","last_reported":1743826320,"current_range_meters":12000,"station_id":"","pricing_plan_id":"cebpf4jnsgd1na2vs0mg"},{"bike_id":"de03a71e-1500-4ab3-a4b1-6efb90b0ce13","system_id":"levelo_inurba_marseille","lat":43.30439,"lon":5.38893,"is_reserved":false,"is_disabled":false,"rental_uris":{"android":"levelo://app?vid=de03a71e-1500-4ab3-a4b1-6efb90b0ce13","ios":"levelo://app?vid=de03a71e-1500-4ab3-a4b1-6efb90b0ce13"},"vehicle_type_id":"4","last_reported":1743826320,"current_range_meters":12400,"station_id":"ce4bgk12rcd13ifvqbi0","pricing_plan_id":"cebpf4jnsgd1na2vs0mg"},{"bike_id":"eaf859a6-ff3d-4281-be3e-7de787fa533a","system_id":"levelo_inurba_marseille","lat":43.30286,"lon":5.39183,"is_reserved":false,"is_disabled":true,"rental_uris":{"android":"levelo://app?vid=eaf859a6-ff3d-4281-be3e-7de787fa533a","ios":"levelo://app?vid=eaf859a6-ff3d-4281-be3e-7de787fa533a"},"vehicle_type_id":"4","last_reported":1743826320,"current_range_meters":12400,"station_id":"ce4bgkh2rcd13ifvqbk0","pricing_plan_id":"cebpf4jnsgd1na2vs0mg"},{"bike_id":"30e26119-64c6-4abe-8ece-4f6f9d0e22fc","system_id":"levelo_inurba_marseille","lat":43.28659,"lon":5.36359,"is_reserved":false,"is_disabled":false,"rental_uris":{"android":"levelo://app?vid=30e26119-64c6-4abe-8ece-4f6f9d0e22fc","ios":"levelo://app?vid=30e26119-64c6-4abe-8ece-4f6f9d0e22fc"},"vehicle_type_id":"4","last_reported":1743826320,"current_range_meters":12400,"station_id":"ce4bhah2rcd13ifvqej0","pricing_plan_id":"cebpf4jnsgd1na2vs0mg"},{"bike_id":"88122bdf-e454-4295-87eb-4f2b4f98db61","system_id":"levelo_inurba_marseille","lat":43.31074,"lon":5.38355,"is_reserved":false,"is_disabled":false,"rental_uris":{"android":"levelo://app?vid=88122bdf-e454-4295-87eb-4f2b4f98db61","ios":"levelo://app?vid=88122bdf-e454-4295-87eb-4f2b4f98db61"},"vehicle_type_id":"4","last_reported":1743826320,"current_range_meters":12400,"station_id":"ce4bgv92rcd13ifvqcr0","pricing_plan_id":"cebpf4jnsgd1na2vs0mg"},{"bike_id":"30b57730-cb66-4122-bd93-7dabcaba84e7","system_id":"levelo_inurba_marseille","lat":43.24894,"lon":5.40671,"is_reserved":false,"is_disabled":false,"rental_uris":{"android":"levelo://app?vid=30b57730-cb66-4122-bd93-7dabcaba84e7","ios":"levelo://app?vid=30b57730-cb66-4122-bd93-7dabcaba84e7"},"vehicle_type_id":"4","last_reported":1743826320,"current_range_meters":12400,"station_id":"","pricing_plan_id":"cebpf4jnsgd1na2vs0mg"},{"bike_id":"727a5d65-d84f-4ae0-a752-9320462583ab","system_id":"levelo_inurba_marseille","lat":43.231833,"lon":5.399847,"is_reserved":false,"is_disabled":false,"rental_uris":{"android":"levelo://app?vid=727a5d65-d84f-4ae0-a752-9320462583ab","ios":"levelo://app?vid=727a5d65-d84f-4ae0-a752-9320462583ab"},"vehicle_type_id":"4","last_reported":1743826320,"current_range_meters":12400,"station_id":"ce4bhn12rcd13ifvqgqg","pricing_plan_id":"cebpf4jnsgd1na2vs0mg"},{"bike_id":"fc0e6b37-f82f-4eda-9ccc-ebaf6e264a5b","system_id":"levelo_inurba_marseille","lat":43.3032,"lon":5.40426,"is_reserved":false,"is_disabled":false,"rental_uris":{"android":"levelo://app?vid=fc0e6b37-f82f-4eda-9ccc-ebaf6e264a5b","ios":"levelo://app?vid=fc0e6b37-f82f-4eda-9ccc-ebaf6e264a5b"},"vehicle_type_id":"4","last_reported":1743826320,"current_range_meters":12400,"station_id":"ce4bh012rcd13ifvqd10","pricing_plan_id":"cebpf4jnsgd1na2vs0mg"},{"bike_id":"553252c4-7cb9-4577-9f30-769c22424688","system_id":"levelo_inurba_marseille","lat":43.31123,"lon":5.3779,"is_reserved":false,"is_disabled":false,"rental_uris":{"android":"levelo://app?vid=553252c4-7cb9-4577-9f30-769c22424688","ios":"levelo://app?vid=553252c4-7cb9-4577-9f30-769c22424688"},"vehicle_type_id":"4","last_reported":1743826320,"current_range_meters":12400,"station_id":"ce4bgt92rcd13ifvqcg0","pricing_plan_id":"cebpf4jnsgd1na2vs0mg"},{"bike_id":"ba311037-5d6d-49dc-9af7-06638a37bf38","system_id":"levelo_inurba_marseille","lat":43.2407,"lon":5.37765,"is_reserved":false,"is_disabled":false,"rental_uris":{"android":"levelo://app?vid=ba311037-5d6d-49dc-9af7-06638a37bf38","ios":"levelo://app?vid=ba311037-5d6d-49dc-9af7-06638a37bf38"},"vehicle_type_id":"4","last_reported":1743826320,"current_range_meters":12800,"station_id":"ce4bhnp2rcd13ifvqgvg","pricing_plan_id":"cebpf4jnsgd1na2vs0mg"},{"bike_id":"7a3cd935-e309-44d8-a3c4-a75980111808","system_id":"levelo_inurba_marseille","lat":43.29378,"lon":5.37849,"is_reserved":false,"is_disabled":true,"rental_uris":{"android":"levelo://app?vid=7a3cd935-e309-44d8-a3c4-a75980111808","ios":"levelo://app?vid=7a3cd935-e309-44d8-a3c4-a75980111808"},"vehicle_type_id":"4","last_reported":1743826320,"current_range_meters":12800,"station_id":"ce4bgjh2rcd13ifvqbf0","pricing_plan_id":"cebpf4jnsgd1na2vs0mg"},{"bike_id":"f4de8fa2-b8d2-4bd2-a98d-0b17fcf7cb8c","system_id":"levelo_inurba_marseille","lat":43.30147,"lon":5.38782,"is_reserved":false,"is_disabled":false,"rental_uris":{"android":"levelo://app?vid=f4de8fa2-b8d2-4bd2-a98d-0b17fcf7cb8c","ios":"levelo://app?vid=f4de8fa2-b8d2-4bd2-a98d-0b17fcf7cb8c"},"vehicle_type_id":"4","last_reported":1743826320,"current_range_meters":12800,"station_id":"ce4bghh2rcd13ifvqb60","pricing_plan_id":"cebpf4jnsgd1na2vs0mg"},{"bike_id":"771f8f1e-cd87-4047-b3ff-87a86b8218fe","system_id":"levelo_inurba_marseille","lat":43.30811,"lon":5.38162,"is_reserved":false,"is_disabled":false,"rental_uris":{"android":"levelo://app?vid=771f8f1e-cd87-4047-b3ff-87a86b8218fe","ios":"levelo://app?vid=771f8f1e-cd87-4047-b3ff-87a86b8218fe"},"vehicle_type_id":"4","last_reported":1743826320,"current_range_meters":13600,"station_id":"ce4bgt12rcd13ifvqce0","pricing_plan_id":"cebpf4jnsgd1na2vs0mg"},{"bike_id":"578bc356-2030-442b-918f-46afd8669ba1","system_id":"levelo_inurba_marseille","lat":43.30834,"lon":5.396,"is_reserved":false,"is_disabled":false,"rental_uris":{"android":"levelo://app?vid=578bc356-2030-442b-918f-46afd8669ba1","ios":"levelo://app?vid=578bc356-2030-442b-918f-46afd8669ba1"},"vehicle_type_id":"4","last_reported":1743826320,"current_range_meters":13600,"station_id":"","pricing_plan_id":"cebpf4jnsgd1na2vs0mg"},{"bike_id":"571e3573-115d-45f0-be34-7a09c1088906","system_id":"levelo_inurba_marseille","lat":43.30429,"lon":5.39779,"is_reserved":false,"is_disabled":false,"rental_uris":{"android":"levelo://app?vid=571e3573-115d-45f0-be34-7a09c1088906","ios":"levelo://app?vid=571e3573-115d-45f0-be34-7a09c1088906"},"vehicle_type_id":"4","last_reported":1743826320,"current_range_meters":13600,"station_id":"ce4bh092rcd13ifvqd20","pricing_plan_id":"cebpf4jnsgd1na2vs0mg"},{"bike_id":"b646ace8-08b7-485e-abcd-2b6b162d14dc","system_id":"levelo_inurba_marseille","lat":43.29908,"lon":5.43646,"is_reserved":false,"is_disabled":false,"rental_uris":{"android":"levelo://app?vid=b646ace8-08b7-485e-abcd-2b6b162d14dc","ios":"levelo://app?vid=b646ace8-08b7-485e-abcd-2b6b162d14dc"},"vehicle_type_id":"4","last_reported":1743826320,"current_range_meters":13600,"station_id":"ce4bhpp2rcd13ifvqhfg","pricing_plan_id":"cebpf4jnsgd1na2vs0mg"},{"bike_id":"d5e984d3-343e-4e16-bd54-bc3ebbd48639","system_id":"levelo_inurba_marseille","lat":43.30141,"lon":5.38815,"is_reserved":false,"is_disabled":true,"rental_uris":{"android":"levelo://app?vid=d5e984d3-343e-4e16-bd54-bc3ebbd48639","ios":"levelo://app?vid=d5e984d3-343e-4e16-bd54-bc3ebbd48639"},"vehicle_type_id":"4","last_reported":1743826320,"current_range_meters":14000,"station_id":"ce4bghh2rcd13ifvqb60","pricing_plan_id":"cebpf4jnsgd1na2vs0mg"},{"bike_id":"a058f5d4-511f-4c92-a3e5-742831067ae0","system_id":"levelo_inurba_marseille","lat":43.30149,"lon":5.37661,"is_reserved":false,"is_disabled":false,"rental_uris":{"android":"levelo://app?vid=a058f5d4-511f-4c92-a3e5-742831067ae0","ios":"levelo://app?vid=a058f5d4-511f-4c92-a3e5-742831067ae0"},"vehicle_type_id":"4","last_reported":1743826320,"current_range_meters":14000,"station_id":"","pricing_plan_id":"cebpf4jnsgd1na2vs0mg"},{"bike_id":"7ae928d1-8ce2-4ef2-8244-058415c1adf3","system_id":"levelo_inurba_marseille","lat":43.27903,"lon":5.39586,"is_reserved":false,"is_disabled":false,"rental_uris":{"android":"levelo://app?vid=7ae928d1-8ce2-4ef2-8244-058415c1adf3","ios":"levelo://app?vid=7ae928d1-8ce2-4ef2-8244-058415c1adf3"},"vehicle_type_id":"4","last_reported":1743826320,"current_range_meters":14000,"station_id":"ce4bhf92rcd13ifvqf40","pricing_plan_id":"cebpf4jnsgd1na2vs0mg"},{"bike_id":"c7ccca11-2ac9-468f-aae0-f1e3a4b20ccf","system_id":"levelo_inurba_marseille","lat":43.27564,"lon":5.38428,"is_reserved":false,"is_disabled":false,"rental_uris":{"android":"levelo://app?vid=c7ccca11-2ac9-468f-aae0-f1e3a4b20ccf","ios":"levelo://app?vid=c7ccca11-2ac9-468f-aae0-f1e3a4b20ccf"},"vehicle_type_id":"4","last_reported":1743826320,"current_range_meters":13600,"station_id":"ce4bhh92rcd13ifvqfi0","pricing_plan_id":"cebpf4jnsgd1na2vs0mg"},{"bike_id":"3f0d38e6-3bc0-460b-b1cd-2dff4e888875","system_id":"levelo_inurba_marseille","lat":43.29252,"lon":5.4093,"is_reserved":false,"is_disabled":false,"rental_uris":{"android":"levelo://app?vid=3f0d38e6-3bc0-460b-b1cd-2dff4e888875","ios":"levelo://app?vid=3f0d38e6-3bc0-460b-b1cd-2dff4e888875"},"vehicle_type_id":"4","last_reported":1743826320,"current_range_meters":14000,"station_id":"ce4bh192rcd13ifvqdc0","pricing_plan_id":"cebpf4jnsgd1na2vs0mg"},{"bike_id":"f6e033d8-796b-4611-81fd-4ba95f2ddc38","system_id":"levelo_inurba_marseille","lat":43.23053,"lon":5.354774,"is_reserved":false,"is_disabled":false,"rental_uris":{"android":"levelo://app?vid=f6e033d8-796b-4611-81fd-4ba95f2ddc38","ios":"levelo://app?vid=f6e033d8-796b-4611-81fd-4ba95f2ddc38"},"vehicle_type_id":"4","last_reported":1743826320,"current_range_meters":14000,"station_id":"cpo3342slgdg3j2ifvpg","pricing_plan_id":"cebpf4jnsgd1na2vs0mg"},{"bike_id":"b0b014ad-5ede-4af3-86b6-2dd480528f10","system_id":"levelo_inurba_marseille","lat":43.31688,"lon":5.40533,"is_reserved":false,"is_disabled":false,"rental_uris":{"android":"levelo://app?vid=b0b014ad-5ede-4af3-86b6-2dd480528f10","ios":"levelo://app?vid=b0b014ad-5ede-4af3-86b6-2dd480528f10"},"vehicle_type_id":"4","last_reported":1743826320,"current_range_meters":14400,"station_id":"ce4bh012rcd13ifvqd00","pricing_plan_id":"cebpf4jnsgd1na2vs0mg"},{"bike_id":"a45393b3-6b7b-4fca-b601-50b1af1dbd9d","system_id":"levelo_inurba_marseille","lat":43.320093,"lon":5.381652,"is_reserved":false,"is_disabled":true,"rental_uris":{"android":"levelo://app?vid=a45393b3-6b7b-4fca-b601-50b1af1dbd9d","ios":"levelo://app?vid=a45393b3-6b7b-4fca-b601-50b1af1dbd9d"},"vehicle_type_id":"4","last_reported":1743826320,"current_range_meters":14400,"station_id":"ce4bhr12rcd13ifvqhpg","pricing_plan_id":"cebpf4jnsgd1na2vs0mg"},{"bike_id":"486d4b1e-2c8e-445b-acd4-4c20161fead3","system_id":"levelo_inurba_marseille","lat":43.25106,"lon":5.40338,"is_reserved":false,"is_disabled":false,"rental_uris":{"android":"levelo://app?vid=486d4b1e-2c8e-445b-acd4-4c20161fead3","ios":"levelo://app?vid=486d4b1e-2c8e-445b-acd4-4c20161fead3"},"vehicle_type_id":"4","last_reported":1743826320,"current_range_meters":14400,"station_id":"ce4bhlh2rcd13ifvqgig","pricing_plan_id":"cebpf4jnsgd1na2vs0mg"},{"bike_id":"4a772168-9ca5-48d4-a381-d0d984a984d8","system_id":"levelo_inurba_marseille","lat":43.28711,"lon":5.39996,"is_reserved":false,"is_disabled":false,"rental_uris":{"android":"levelo://app?vid=4a772168-9ca5-48d4-a381-d0d984a984d8","ios":"levelo://app?vid=4a772168-9ca5-48d4-a381-d0d984a984d8"},"vehicle_type_id":"4","last_reported":1743826320,"current_range_meters":14400,"station_id":"ce4bho92rcd13ifvqh3g","pricing_plan_id":"cebpf4jnsgd1na2vs0mg"},{"bike_id":"00de5d9d-417e-4f3b-b5cd-dfc0421e4a5e","system_id":"levelo_inurba_marseille","lat":43.30626,"lon":5.4021,"is_reserved":false,"is_disabled":false,"rental_uris":{"android":"levelo://app?vid=00de5d9d-417e-4f3b-b5cd-dfc0421e4a5e","ios":"levelo://app?vid=00de5d9d-417e-4f3b-b5cd-dfc0421e4a5e"},"vehicle_type_id":"4","last_reported":1743826320,"current_range_meters":14400,"station_id":"","pricing_plan_id":"cebpf4jnsgd1na2vs0mg"},{"bike_id":"7ec1c536-4bee-4456-af37-38cee5757d79","system_id":"levelo_inurba_marseille","lat":43.311676,"lon":5.387176,"is_reserved":false,"is_disabled":false,"rental_uris":{"android":"levelo://app?vid=7ec1c536-4bee-4456-af37-38cee5757d79","ios":"levelo://app?vid=7ec1c536-4bee-4456-af37-38cee5757d79"},"vehicle_type_id":"4","last_reported":1743826320,"current_range_meters":14400,"station_id":"ce4bgv12rcd13ifvqcp0","pricing_plan_id":"cebpf4jnsgd1na2vs0mg"},{"bike_id":"4c364a14-a14f-4fad-ae4a-d1fa8696b548","system_id":"levelo_inurba_marseille","lat":43.25119,"lon":5.40323,"is_reserved":false,"is_disabled":true,"rental_uris":{"android":"levelo://app?vid=4c364a14-a14f-4fad-ae4a-d1fa8696b548","ios":"levelo://app?vid=4c364a14-a14f-4fad-ae4a-d1fa8696b548"},"vehicle_type_id":"4","last_reported":1743826320,"current_range_meters":14400,"station_id":"ce4bhlh2rcd13ifvqgig","pricing_plan_id":"cebpf4jnsgd1na2vs0mg"},{"bike_id":"b9159e5d-b36c-42d9-b993-69ac1abffed4","system_id":"levelo_inurba_marseille","lat":43.28265,"lon":5.35076,"is_reserved":false,"is_disabled":false,"rental_uris":{"android":"levelo://app?vid=b9159e5d-b36c-42d9-b993-69ac1abffed4","ios":"levelo://app?vid=b9159e5d-b36c-42d9-b993-69ac1abffed4"},"vehicle_type_id":"4","last_reported":1743826320,"current_range_meters":14400,"station_id":"ce4bhbp2rcd13ifvqerg","pricing_plan_id":"cebpf4jnsgd1na2vs0mg"},{"bike_id":"ed81289f-b9f3-4d86-9f8f-d8896cd8f07f","system_id":"levelo_inurba_marseille","lat":43.3044,"lon":5.39767,"is_reserved":false,"is_disabled":true,"rental_uris":{"android":"levelo://app?vid=ed81289f-b9f3-4d86-9f8f-d8896cd8f07f","ios":"levelo://app?vid=ed81289f-b9f3-4d86-9f8f-d8896cd8f07f"},"vehicle_type_id":"4","last_reported":1743826320,"current_range_meters":14800,"station_id":"ce4bh092rcd13ifvqd20","pricing_plan_id":"cebpf4jnsgd1na2vs0mg"},{"bike_id":"34fa0ed0-cf6e-4ef5-a984-813fdfb79d3e","system_id":"levelo_inurba_marseille","lat":43.29016,"lon":5.37809,"is_reserved":false,"is_disabled":false,"rental_uris":{"android":"levelo://app?vid=34fa0ed0-cf6e-4ef5-a984-813fdfb79d3e","ios":"levelo://app?vid=34fa0ed0-cf6e-4ef5-a984-813fdfb79d3e"},"vehicle_type_id":"4","last_reported":1743826320,"current_range_meters":14800,"station_id":"ce4bh9p2rcd13ifvqed0","pricing_plan_id":"cebpf4jnsgd1na2vs0mg"},{"bike_id":"d2a07d60-57ab-498a-9a05-2527f7931b4d","system_id":"levelo_inurba_marseille","lat":43.23055,"lon":5.35493,"is_reserved":false,"is_disabled":false,"rental_uris":{"android":"levelo://app?vid=d2a07d60-57ab-498a-9a05-2527f7931b4d","ios":"levelo://app?vid=d2a07d60-57ab-498a-9a05-2527f7931b4d"},"vehicle_type_id":"4","last_reported":1743826320,"current_range_meters":15200,"station_id":"cpo3342slgdg3j2ifvpg","pricing_plan_id":"cebpf4jnsgd1na2vs0mg"},{"bike_id":"94bbf571-4919-4cea-8c50-79e346f7dc11","system_id":"levelo_inurba_marseille","lat":43.32452,"lon":5.39121,"is_reserved":false,"is_disabled":false,"rental_uris":{"android":"levelo://app?vid=94bbf571-4919-4cea-8c50-79e346f7dc11","ios":"levelo://app?vid=94bbf571-4919-4cea-8c50-79e346f7dc11"},"vehicle_type_id":"4","last_reported":1743826320,"current_range_meters":15200,"station_id":"","pricing_plan_id":"cebpf4jnsgd1na2vs0mg"},{"bike_id":"8412eed9-779b-4a94-8f1c-70341bfc0bfb","system_id":"levelo_inurba_marseille","lat":43.2841,"lon":5.37515,"is_reserved":false,"is_disabled":false,"rental_uris":{"android":"levelo://app?vid=8412eed9-779b-4a94-8f1c-70341bfc0bfb","ios":"levelo://app?vid=8412eed9-779b-4a94-8f1c-70341bfc0bfb"},"vehicle_type_id":"4","last_reported":1743826320,"current_range_meters":15200,"station_id":"ce4bh412rcd13ifvqds0","pricing_plan_id":"cebpf4jnsgd1na2vs0mg"},{"bike_id":"5db41e2d-ff7e-4151-89d5-fa79751341d3","system_id":"levelo_inurba_marseille","lat":43.309335,"lon":5.401364,"is_reserved":false,"is_disabled":false,"rental_uris":{"android":"levelo://app?vid=5db41e2d-ff7e-4151-89d5-fa79751341d3","ios":"levelo://app?vid=5db41e2d-ff7e-4151-89d5-fa79751341d3"},"vehicle_type_id":"4","last_reported":1743826320,"current_range_meters":15200,"station_id":"ce4bgvp2rcd13ifvqct0","pricing_plan_id":"cebpf4jnsgd1na2vs0mg"},{"bike_id":"a6303451-5b45-435c-bf0e-748f94cc010d","system_id":"levelo_inurba_marseille","lat":43.231945,"lon":5.35546,"is_reserved":false,"is_disabled":false,"rental_uris":{"android":"levelo://app?vid=a6303451-5b45-435c-bf0e-748f94cc010d","ios":"levelo://app?vid=a6303451-5b45-435c-bf0e-748f94cc010d"},"vehicle_type_id":"4","last_reported":1743826320,"current_range_meters":16000,"station_id":"ce4bhu92rcd13ifvqi70","pricing_plan_id":"cebpf4jnsgd1na2vs0mg"},{"bike_id":"86ec9ea2-3a3f-46e8-838f-c1e25defe5a1","system_id":"levelo_inurba_marseille","lat":43.29565,"lon":5.39978,"is_reserved":false,"is_disabled":false,"rental_uris":{"android":"levelo://app?vid=86ec9ea2-3a3f-46e8-838f-c1e25defe5a1","ios":"levelo://app?vid=86ec9ea2-3a3f-46e8-838f-c1e25defe5a1"},"vehicle_type_id":"4","last_reported":1743826320,"current_range_meters":16000,"station_id":"ce4bh312rcd13ifvqdj0","pricing_plan_id":"cebpf4jnsgd1na2vs0mg"},{"bike_id":"6840c31b-ff24-4826-8023-51fa05a7b83b","system_id":"levelo_inurba_marseille","lat":43.27059,"lon":5.40284,"is_reserved":false,"is_disabled":false,"rental_uris":{"android":"levelo://app?vid=6840c31b-ff24-4826-8023-51fa05a7b83b","ios":"levelo://app?vid=6840c31b-ff24-4826-8023-51fa05a7b83b"},"vehicle_type_id":"4","last_reported":1743826320,"current_range_meters":16000,"station_id":"ce4bhk92rcd13ifvqgc0","pricing_plan_id":"cebpf4jnsgd1na2vs0mg"},{"bike_id":"fcb07a14-84a8-4133-81bd-0f4c923d4172","system_id":"levelo_inurba_marseille","lat":43.31159,"lon":5.38757,"is_reserved":false,"is_disabled":false,"rental_uris":{"android":"levelo://app?vid=fcb07a14-84a8-4133-81bd-0f4c923d4172","ios":"levelo://app?vid=fcb07a14-84a8-4133-81bd-0f4c923d4172"},"vehicle_type_id":"4","last_reported":1743826320,"current_range_meters":16000,"station_id":"ce4bgv12rcd13ifvqcp0","pricing_plan_id":"cebpf4jnsgd1na2vs0mg"},{"bike_id":"20b252e5-00ba-43de-9011-ac387e05a2a8","system_id":"levelo_inurba_marseille","lat":43.29038,"lon":5.39959,"is_reserved":false,"is_disabled":false,"rental_uris":{"android":"levelo://app?vid=20b252e5-00ba-43de-9011-ac387e05a2a8","ios":"levelo://app?vid=20b252e5-00ba-43de-9011-ac387e05a2a8"},"vehicle_type_id":"4","last_reported":1743826320,"current_range_meters":16000,"station_id":"ce4bh392rcd13ifvqdm0","pricing_plan_id":"cebpf4jnsgd1na2vs0mg"},{"bike_id":"e233e9f3-159d-4e9b-8016-dce27a8077ec","system_id":"levelo_inurba_marseille","lat":43.29868,"lon":5.3976,"is_reserved":false,"is_disabled":false,"rental_uris":{"android":"levelo://app?vid=e233e9f3-159d-4e9b-8016-dce27a8077ec","ios":"levelo://app?vid=e233e9f3-159d-4e9b-8016-dce27a8077ec"},"vehicle_type_id":"4","last_reported":1743826320,"current_range_meters":16000,"station_id":"ce4bh0h2rcd13ifvqd50","pricing_plan_id":"cebpf4jnsgd1na2vs0mg"},{"bike_id":"36317d50-6103-4b9f-8256-955471ca70b1","system_id":"levelo_inurba_marseille","lat":43.30648,"lon":5.36881,"is_reserved":false,"is_disabled":false,"rental_uris":{"android":"levelo://app?vid=36317d50-6103-4b9f-8256-955471ca70b1","ios":"levelo://app?vid=36317d50-6103-4b9f-8256-955471ca70b1"},"vehicle_type_id":"4","last_reported":1743826320,"current_range_meters":16000,"station_id":"","pricing_plan_id":"cebpf4jnsgd1na2vs0mg"},{"bike_id":"47d5c92f-a526-4b2f-b92f-5a0d982037e0","system_id":"levelo_inurba_marseille","lat":43.23189,"lon":5.35586,"is_reserved":false,"is_disabled":false,"rental_uris":{"android":"levelo://app?vid=47d5c92f-a526-4b2f-b92f-5a0d982037e0","ios":"levelo://app?vid=47d5c92f-a526-4b2f-b92f-5a0d982037e0"},"vehicle_type_id":"4","last_reported":1743826320,"current_range_meters":16000,"station_id":"ce4bhu92rcd13ifvqi70","pricing_plan_id":"cebpf4jnsgd1na2vs0mg"},{"bike_id":"c9b6cf5c-01e8-4fcb-a4fb-c1012941b6ec","system_id":"levelo_inurba_marseille","lat":43.241629,"lon":5.363957,"is_reserved":false,"is_disabled":false,"rental_uris":{"android":"levelo://app?vid=c9b6cf5c-01e8-4fcb-a4fb-c1012941b6ec","ios":"levelo://app?vid=c9b6cf5c-01e8-4fcb-a4fb-c1012941b6ec"},"vehicle_type_id":"4","last_reported":1743826320,"current_range_meters":16000,"station_id":"cpo36qri1sfpv3e86is0","pricing_plan_id":"cebpf4jnsgd1na2vs0mg"},{"bike_id":"765cac73-64fd-4da6-8940-bbaf2ea4b494","system_id":"levelo_inurba_marseille","lat":43.289415,"lon":5.396305,"is_reserved":false,"is_disabled":false,"rental_uris":{"android":"levelo://app?vid=765cac73-64fd-4da6-8940-bbaf2ea4b494","ios":"levelo://app?vid=765cac73-64fd-4da6-8940-bbaf2ea4b494"},"vehicle_type_id":"4","last_reported":1743826320,"current_range_meters":16400,"station_id":"ce4bh3h2rcd13ifvqdn0","pricing_plan_id":"cebpf4jnsgd1na2vs0mg"},{"bike_id":"933ae856-3202-459e-8d65-8f27293835bd","system_id":"levelo_inurba_marseille","lat":43.29887,"lon":5.4368,"is_reserved":false,"is_disabled":false,"rental_uris":{"android":"levelo://app?vid=933ae856-3202-459e-8d65-8f27293835bd","ios":"levelo://app?vid=933ae856-3202-459e-8d65-8f27293835bd"},"vehicle_type_id":"4","last_reported":1743826320,"current_range_meters":16400,"station_id":"ce4bhpp2rcd13ifvqhfg","pricing_plan_id":"cebpf4jnsgd1na2vs0mg"},{"bike_id":"44d637cb-864f-409d-add6-6713a128c125","system_id":"levelo_inurba_marseille","lat":43.230651,"lon":5.35488,"is_reserved":false,"is_disabled":false,"rental_uris":{"android":"levelo://app?vid=44d637cb-864f-409d-add6-6713a128c125","ios":"levelo://app?vid=44d637cb-864f-409d-add6-6713a128c125"},"vehicle_type_id":"4","last_reported":1743826320,"current_range_meters":16400,"station_id":"cpo3342slgdg3j2ifvpg","pricing_plan_id":"cebpf4jnsgd1na2vs0mg"},{"bike_id":"5d7af46d-730d-42a3-966b-230c0e445ac8","system_id":"levelo_inurba_marseille","lat":43.322875,"lon":5.382559,"is_reserved":false,"is_disabled":false,"rental_uris":{"android":"levelo://app?vid=5d7af46d-730d-42a3-966b-230c0e445ac8","ios":"levelo://app?vid=5d7af46d-730d-42a3-966b-230c0e445ac8"},"vehicle_type_id":"4","last_reported":1743826320,"current_range_meters":16400,"station_id":"ce4bhr12rcd13ifvqhqg","pricing_plan_id":"cebpf4jnsgd1na2vs0mg"},{"bike_id":"ec69afed-7960-4351-b531-d8c33447618f","system_id":"levelo_inurba_marseille","lat":43.31988,"lon":5.3815,"is_reserved":false,"is_disabled":true,"rental_uris":{"android":"levelo://app?vid=ec69afed-7960-4351-b531-d8c33447618f","ios":"levelo://app?vid=ec69afed-7960-4351-b531-d8c33447618f"},"vehicle_type_id":"4","last_reported":1743826320,"current_range_meters":16400,"station_id":"ce4bhr12rcd13ifvqhpg","pricing_plan_id":"cebpf4jnsgd1na2vs0mg"},{"bike_id":"2278dac9-2172-4e75-aa6a-1c86b92e2ee4","system_id":"levelo_inurba_marseille","lat":43.28696,"lon":5.37391,"is_reserved":false,"is_disabled":false,"rental_uris":{"android":"levelo://app?vid=2278dac9-2172-4e75-aa6a-1c86b92e2ee4","ios":"levelo://app?vid=2278dac9-2172-4e75-aa6a-1c86b92e2ee4"},"vehicle_type_id":"4","last_reported":1743826320,"current_range_meters":16400,"station_id":"ce4bh3p2rcd13ifvqdq0","pricing_plan_id":"cebpf4jnsgd1na2vs0mg"},{"bike_id":"4c28b220-45bf-4fb0-9edf-04055d0e670a","system_id":"levelo_inurba_marseille","lat":43.25578,"lon":5.3827,"is_reserved":false,"is_disabled":false,"rental_uris":{"android":"levelo://app?vid=4c28b220-45bf-4fb0-9edf-04055d0e670a","ios":"levelo://app?vid=4c28b220-45bf-4fb0-9edf-04055d0e670a"},"vehicle_type_id":"4","last_reported":1743826320,"current_range_meters":16400,"station_id":"ce4bhih2rcd13ifvqfs0","pricing_plan_id":"cebpf4jnsgd1na2vs0mg"},{"bike_id":"35be927c-526a-4cfc-a741-c2e7451c94d4","system_id":"levelo_inurba_marseille","lat":43.27922,"lon":5.38706,"is_reserved":false,"is_disabled":false,"rental_uris":{"android":"levelo://app?vid=35be927c-526a-4cfc-a741-c2e7451c94d4","ios":"levelo://app?vid=35be927c-526a-4cfc-a741-c2e7451c94d4"},"vehicle_type_id":"4","last_reported":1743826320,"current_range_meters":16400,"station_id":"ce4bhg12rcd13ifvqf80","pricing_plan_id":"cebpf4jnsgd1na2vs0mg"},{"bike_id":"a611ad77-223c-4d7d-a6da-1b42c4d245f9","system_id":"levelo_inurba_marseille","lat":43.2995,"lon":5.41331,"is_reserved":false,"is_disabled":false,"rental_uris":{"android":"levelo://app?vid=a611ad77-223c-4d7d-a6da-1b42c4d245f9","ios":"levelo://app?vid=a611ad77-223c-4d7d-a6da-1b42c4d245f9"},"vehicle_type_id":"4","last_reported":1743826320,"current_range_meters":16400,"station_id":"ce4bhp12rcd13ifvqh9g","pricing_plan_id":"cebpf4jnsgd1na2vs0mg"},{"bike_id":"8ee8a071-ee3c-4e6e-b1b2-0e8120beb7f4","system_id":"levelo_inurba_marseille","lat":43.25952,"lon":5.4091,"is_reserved":false,"is_disabled":false,"rental_uris":{"android":"levelo://app?vid=8ee8a071-ee3c-4e6e-b1b2-0e8120beb7f4","ios":"levelo://app?vid=8ee8a071-ee3c-4e6e-b1b2-0e8120beb7f4"},"vehicle_type_id":"4","last_reported":1743826320,"current_range_meters":16800,"station_id":"ce4bhm92rcd13ifvqglg","pricing_plan_id":"cebpf4jnsgd1na2vs0mg"},{"bike_id":"65f37ce6-0181-4877-8938-e5bab611c301","system_id":"levelo_inurba_marseille","lat":43.29865,"lon":5.36313,"is_reserved":false,"is_disabled":true,"rental_uris":{"android":"levelo://app?vid=65f37ce6-0181-4877-8938-e5bab611c301","ios":"levelo://app?vid=65f37ce6-0181-4877-8938-e5bab611c301"},"vehicle_type_id":"4","last_reported":1743826320,"current_range_meters":16800,"station_id":"ce4bgpp2rcd13ifvqc3g","pricing_plan_id":"cebpf4jnsgd1na2vs0mg"},{"bike_id":"87908f94-d8aa-4a33-8565-205213af20b1","system_id":"levelo_inurba_marseille","lat":43.32122,"lon":5.3681,"is_reserved":false,"is_disabled":false,"rental_uris":{"android":"levelo://app?vid=87908f94-d8aa-4a33-8565-205213af20b1","ios":"levelo://app?vid=87908f94-d8aa-4a33-8565-205213af20b1"},"vehicle_type_id":"4","last_reported":1743826320,"current_range_meters":16800,"station_id":"ce4bhrh2rcd13ifvqhug","pricing_plan_id":"cebpf4jnsgd1na2vs0mg"},{"bike_id":"7e5adb93-50e0-46c9-bfef-5ef89b40e5a6","system_id":"levelo_inurba_marseille","lat":43.292966,"lon":5.371813,"is_reserved":false,"is_disabled":true,"rental_uris":{"android":"levelo://app?vid=7e5adb93-50e0-46c9-bfef-5ef89b40e5a6","ios":"levelo://app?vid=7e5adb93-50e0-46c9-bfef-5ef89b40e5a6"},"vehicle_type_id":"4","last_reported":1743826320,"current_range_meters":16800,"station_id":"ce4bgh92rcd13ifvqb40","pricing_plan_id":"cebpf4jnsgd1na2vs0mg"},{"bike_id":"6082a6d8-29f3-4441-bd82-d0f95ead75d7","system_id":"levelo_inurba_marseille","lat":43.231877,"lon":5.355593,"is_reserved":false,"is_disabled":false,"rental_uris":{"android":"levelo://app?vid=6082a6d8-29f3-4441-bd82-d0f95ead75d7","ios":"levelo://app?vid=6082a6d8-29f3-4441-bd82-d0f95ead75d7"},"vehicle_type_id":"4","last_reported":1743826320,"current_range_meters":16800,"station_id":"ce4bhu92rcd13ifvqi70","pricing_plan_id":"cebpf4jnsgd1na2vs0mg"},{"bike_id":"d580ed98-ee5a-4f23-aaa6-6a212d4f343b","system_id":"levelo_inurba_marseille","lat":43.31172,"lon":5.38715,"is_reserved":false,"is_disabled":false,"rental_uris":{"android":"levelo://app?vid=d580ed98-ee5a-4f23-aaa6-6a212d4f343b","ios":"levelo://app?vid=d580ed98-ee5a-4f23-aaa6-6a212d4f343b"},"vehicle_type_id":"4","last_reported":1743826320,"current_range_meters":16800,"station_id":"ce4bgv12rcd13ifvqcp0","pricing_plan_id":"cebpf4jnsgd1na2vs0mg"},{"bike_id":"c547245c-fae7-4b6a-9789-d571c3bed53e","system_id":"levelo_inurba_marseille","lat":43.23191,"lon":5.39989,"is_reserved":false,"is_disabled":false,"rental_uris":{"android":"levelo://app?vid=c547245c-fae7-4b6a-9789-d571c3bed53e","ios":"levelo://app?vid=c547245c-fae7-4b6a-9789-d571c3bed53e"},"vehicle_type_id":"4","last_reported":1743826320,"current_range_meters":16800,"station_id":"ce4bhn12rcd13ifvqgqg","pricing_plan_id":"cebpf4jnsgd1na2vs0mg"},{"bike_id":"4a3de4dc-b9de-436c-adfc-4dbbdf7bf001","system_id":"levelo_inurba_marseille","lat":43.25127,"lon":5.40356,"is_reserved":false,"is_disabled":false,"rental_uris":{"android":"levelo://app?vid=4a3de4dc-b9de-436c-adfc-4dbbdf7bf001","ios":"levelo://app?vid=4a3de4dc-b9de-436c-adfc-4dbbdf7bf001"},"vehicle_type_id":"4","last_reported":1743826320,"current_range_meters":16800,"station_id":"ce4bhlh2rcd13ifvqgig","pricing_plan_id":"cebpf4jnsgd1na2vs0mg"},{"bike_id":"735e7a9d-ddc2-4dfd-a962-98d8f86bf24a","system_id":"levelo_inurba_marseille","lat":43.306,"lon":5.39346,"is_reserved":false,"is_disabled":true,"rental_uris":{"android":"levelo://app?vid=735e7a9d-ddc2-4dfd-a962-98d8f86bf24a","ios":"levelo://app?vid=735e7a9d-ddc2-4dfd-a962-98d8f86bf24a"},"vehicle_type_id":"4","last_reported":1743826320,"current_range_meters":16800,"station_id":"ce4bh0p2rcd13ifvqd80","pricing_plan_id":"cebpf4jnsgd1na2vs0mg"},{"bike_id":"b61b8f68-6977-4a20-b9e9-2f91bc6a591a","system_id":"levelo_inurba_marseille","lat":43.282537,"lon":5.372373,"is_reserved":false,"is_disabled":false,"rental_uris":{"android":"levelo://app?vid=b61b8f68-6977-4a20-b9e9-2f91bc6a591a","ios":"levelo://app?vid=b61b8f68-6977-4a20-b9e9-2f91bc6a591a"},"vehicle_type_id":"4","last_reported":1743826320,"current_range_meters":16800,"station_id":"","pricing_plan_id":"cebpf4jnsgd1na2vs0mg"},{"bike_id":"767778be-b45c-4e36-b245-9fd70511378d","system_id":"levelo_inurba_marseille","lat":43.23193,"lon":5.35554,"is_reserved":false,"is_disabled":false,"rental_uris":{"android":"levelo://app?vid=767778be-b45c-4e36-b245-9fd70511378d","ios":"levelo://app?vid=767778be-b45c-4e36-b245-9fd70511378d"},"vehicle_type_id":"4","last_reported":1743826320,"current_range_meters":16800,"station_id":"ce4bhu92rcd13ifvqi70","pricing_plan_id":"cebpf4jnsgd1na2vs0mg"},{"bike_id":"78866eb4-e4f8-4233-8032-726a392d2e7b","system_id":"levelo_inurba_marseille","lat":43.30657,"lon":5.40083,"is_reserved":false,"is_disabled":false,"rental_uris":{"android":"levelo://app?vid=78866eb4-e4f8-4233-8032-726a392d2e7b","ios":"levelo://app?vid=78866eb4-e4f8-4233-8032-726a392d2e7b"},"vehicle_type_id":"4","last_reported":1743826320,"current_range_meters":17200,"station_id":"ce4bh112rcd13ifvqda0","pricing_plan_id":"cebpf4jnsgd1na2vs0mg"},{"bike_id":"b2d1bb10-ca33-47e4-9b72-1f865765dc0d","system_id":"levelo_inurba_marseille","lat":43.25113,"lon":5.40331,"is_reserved":false,"is_disabled":false,"rental_uris":{"android":"levelo://app?vid=b2d1bb10-ca33-47e4-9b72-1f865765dc0d","ios":"levelo://app?vid=b2d1bb10-ca33-47e4-9b72-1f865765dc0d"},"vehicle_type_id":"4","last_reported":1743826320,"current_range_meters":17200,"station_id":"ce4bhlh2rcd13ifvqgig","pricing_plan_id":"cebpf4jnsgd1na2vs0mg"},{"bike_id":"cbcd6962-34cc-46d8-8983-fb10fb40e453","system_id":"levelo_inurba_marseille","lat":43.29637,"lon":5.40613,"is_reserved":false,"is_disabled":false,"rental_uris":{"android":"levelo://app?vid=cbcd6962-34cc-46d8-8983-fb10fb40e453","ios":"levelo://app?vid=cbcd6962-34cc-46d8-8983-fb10fb40e453"},"vehicle_type_id":"4","last_reported":1743826320,"current_range_meters":17200,"station_id":"ce4bh0h2rcd13ifvqd60","pricing_plan_id":"cebpf4jnsgd1na2vs0mg"},{"bike_id":"78721373-728b-4b1d-ab0b-9ecf839ce243","system_id":"levelo_inurba_marseille","lat":43.28667,"lon":5.36349,"is_reserved":false,"is_disabled":false,"rental_uris":{"android":"levelo://app?vid=78721373-728b-4b1d-ab0b-9ecf839ce243","ios":"levelo://app?vid=78721373-728b-4b1d-ab0b-9ecf839ce243"},"vehicle_type_id":"4","last_reported":1743826320,"current_range_meters":17200,"station_id":"ce4bhah2rcd13ifvqej0","pricing_plan_id":"cebpf4jnsgd1na2vs0mg"},{"bike_id":"cb309927-adc0-4af1-a41f-46fe02f10b0b","system_id":"levelo_inurba_marseille","lat":43.28726,"lon":5.40004,"is_reserved":false,"is_disabled":false,"rental_uris":{"android":"levelo://app?vid=cb309927-adc0-4af1-a41f-46fe02f10b0b","ios":"levelo://app?vid=cb309927-adc0-4af1-a41f-46fe02f10b0b"},"vehicle_type_id":"4","last_reported":1743826320,"current_range_meters":17200,"station_id":"ce4bho92rcd13ifvqh3g","pricing_plan_id":"cebpf4jnsgd1na2vs0mg"},{"bike_id":"8fe1097a-5424-4481-bc57-836ff4c5702e","system_id":"levelo_inurba_marseille","lat":43.319955,"lon":5.38148,"is_reserved":false,"is_disabled":false,"rental_uris":{"android":"levelo://app?vid=8fe1097a-5424-4481-bc57-836ff4c5702e","ios":"levelo://app?vid=8fe1097a-5424-4481-bc57-836ff4c5702e"},"vehicle_type_id":"4","last_reported":1743826320,"current_range_meters":17200,"station_id":"ce4bhr12rcd13ifvqhpg","pricing_plan_id":"cebpf4jnsgd1na2vs0mg"},{"bike_id":"406a7bca-4ceb-466d-a160-87b7d554f857","system_id":"levelo_inurba_marseille","lat":43.3107,"lon":5.42454,"is_reserved":false,"is_disabled":false,"rental_uris":{"android":"levelo://app?vid=406a7bca-4ceb-466d-a160-87b7d554f857","ios":"levelo://app?vid=406a7bca-4ceb-466d-a160-87b7d554f857"},"vehicle_type_id":"4","last_reported":1743826320,"current_range_meters":17200,"station_id":"ce4bhp92rcd13ifvqhag","pricing_plan_id":"cebpf4jnsgd1na2vs0mg"},{"bike_id":"0a8949ee-dc81-47e3-8702-308c5e3a5098","system_id":"levelo_inurba_marseille","lat":43.3169,"lon":5.37778,"is_reserved":false,"is_disabled":false,"rental_uris":{"android":"levelo://app?vid=0a8949ee-dc81-47e3-8702-308c5e3a5098","ios":"levelo://app?vid=0a8949ee-dc81-47e3-8702-308c5e3a5098"},"vehicle_type_id":"4","last_reported":1743826320,"current_range_meters":17200,"station_id":"ce4bgth2rcd13ifvqch0","pricing_plan_id":"cebpf4jnsgd1na2vs0mg"},{"bike_id":"8c55ab12-c75f-4c11-8841-4207039ae30c","system_id":"levelo_inurba_marseille","lat":43.292643,"lon":5.384377,"is_reserved":false,"is_disabled":true,"rental_uris":{"android":"levelo://app?vid=8c55ab12-c75f-4c11-8841-4207039ae30c","ios":"levelo://app?vid=8c55ab12-c75f-4c11-8841-4207039ae30c"},"vehicle_type_id":"4","last_reported":1743826320,"current_range_meters":17200,"station_id":"ce4bh692rcd13ifvqea0","pricing_plan_id":"cebpf4jnsgd1na2vs0mg"},{"bike_id":"638792ac-2425-4a46-9c1a-3640bf2c73a6","system_id":"levelo_inurba_marseille","lat":43.31064,"lon":5.38347,"is_reserved":false,"is_disabled":false,"rental_uris":{"android":"levelo://app?vid=638792ac-2425-4a46-9c1a-3640bf2c73a6","ios":"levelo://app?vid=638792ac-2425-4a46-9c1a-3640bf2c73a6"},"vehicle_type_id":"4","last_reported":1743826320,"current_range_meters":17600,"station_id":"ce4bgv92rcd13ifvqcr0","pricing_plan_id":"cebpf4jnsgd1na2vs0mg"},{"bike_id":"d40436bc-a917-47da-a93b-8c4c56a63210","system_id":"levelo_inurba_marseille","lat":43.31695,"lon":5.40481,"is_reserved":false,"is_disabled":false,"rental_uris":{"android":"levelo://app?vid=d40436bc-a917-47da-a93b-8c4c56a63210","ios":"levelo://app?vid=d40436bc-a917-47da-a93b-8c4c56a63210"},"vehicle_type_id":"4","last_reported":1743826320,"current_range_meters":17600,"station_id":"ce4bh012rcd13ifvqd00","pricing_plan_id":"cebpf4jnsgd1na2vs0mg"},{"bike_id":"e60b96fd-4f71-4447-bca1-6271368ebd58","system_id":"levelo_inurba_marseille","lat":43.28617,"lon":5.35113,"is_reserved":false,"is_disabled":false,"rental_uris":{"android":"levelo://app?vid=e60b96fd-4f71-4447-bca1-6271368ebd58","ios":"levelo://app?vid=e60b96fd-4f71-4447-bca1-6271368ebd58"},