{"last_updated":1728299339,"ttl":60,"version":"2.2","data":{"bikes":[{"bike_id":"0d508f0d-9263-4fa2-a44b-9b938311e149","system_id":"levelo_inurba_marseille","lat":43.267548,"lon":5.394129,"is_reserved":false,"is_disabled":false,"rental_uris":{"android":"levelo://app?vid=0d508f0d-9263-4fa2-a44b-9b938311e149","ios":"levelo://app?vid=0d508f0d-9263-4fa2-a44b-9b938311e149"},"vehicle_type_id":"4","last_reported":1728299339,"current_range_meters":24400,"station_id":"ce4bhhp2rcd13ifvqfm0","pricing_plan_id":"cebpf4jnsgd1na2vs0mg"},{"bike_id":"8b512217-37f2-4e63-a4a4-63e9412b1fdc","system_id":"levelo_inurba_marseille","lat":43.27492,"lon":5.42451,"is_reserved":false,"is_disabled":false,"rental_uris":{"android":"levelo://app?vid=8b512217-37f2-4e63-a4a4-63e9412b1fdc","ios":"levelo://app?vid=8b512217-37f2-4e63-a4a4-63e9412b1fdc"},"vehicle_type_id":"4","last_reported":1728299339,"current_range_meters":20800,"station_id":"ce4bhn92rcd13ifvqgrg","pricing_plan_id":"cebpf4jnsgd1na2vs0mg"},{"bike_id":"601e0a35-ef0a-4c9d-bad9-539b9b5f5dd5","system_id":"levelo_inurba_marseille","lat":43.23149,"lon":5.4372,"is_reserved":false,"is_disabled":false,"rental_uris":{"android":"levelo://app?vid=601e0a35-ef0a-4c9d-bad9-539b9b5f5dd5","ios":"levelo://app?vid=601e0a35-ef0a-4c9d-bad9-539b9b5f5dd5"},"vehicle_type_id":"4","last_reported":1728299339,"current_range_meters":24800,"station_id":"ce4bhmp2rcd13ifvqgog","pricing_plan_id":"cebpf4jnsgd1na2vs0mg"},{"bike_id":"9840128e-20cc-4d85-941b-d961e61c1c08","system_id":"levelo_inurba_marseille","lat":43.23139,"lon":5.4373,"is_reserved":false,"is_disabled":false,"rental_uris":{"android":"levelo://app?vid=9840128e-20cc-4d85-941b-d961e61c1c08","ios":"levelo://app?vid=9840128e-20cc-4d85-941b-d961e61c1c08"},"vehicle_type_id":"4","last_reported":1728299339,"current_range_meters":8000,"station_id":"ce4bhmp2rcd13ifvqgog","pricing_plan_id":"cebpf4jnsgd1na2vs0mg"},{"bike_id":"2142b046-b73d-4374-bcc5-24589c4a9346","system_id":"levelo_inurba_marseille","lat":43.31112,"lon":5.37776,"is_reserved":false,"is_disabled":false,"rental_uris":{"android":"levelo://app?vid=2142b046-b73d-4374-bcc5-24589c4a9346","ios":"levelo://app?vid=2142b046-b73d-4374-bcc5-24589c4a9346"},"vehicle_type_id":"4","last_reported":1728299339,"current_range_meters":38800,"station_id":"ce4bgt92rcd13ifvqcg0","pricing_plan_id":"cebpf4jnsgd1na2vs0mg"},{"bike_id":"8a874caf-3db6-4bc3-b3d8-4f7a2a032123","system_id":"levelo_inurba_marseille","lat":43.22926,"lon":5.35367,"is_reserved":false,"is_disabled":false,"rental_uris":{"android":"levelo://app?vid=8a874caf-3db6-4bc3-b3d8-4f7a2a032123","ios":"levelo://app?vid=8a874caf-3db6-4bc3-b3d8-4f7a2a032123"},"vehicle_type_id":"4","last_reported":1728299339,"current_range_meters":25600,"station_id":"cpo3532slgdg3j2ikp40","pricing_plan_id":"cebpf4jnsgd1na2vs0mg"},{"bike_id":"fe8f07d6-03f5-4faf-ac3d-f08c94ea367f","system_id":"levelo_inurba_marseille","lat":43.2999,"lon":5.38486,"is_reserved":false,"is_disabled":false,"rental_uris":{"android":"levelo://app?vid=fe8f07d6-03f5-4faf-ac3d-f08c94ea367f","ios":"levelo://app?vid=fe8f07d6-03f5-4faf-ac3d-f08c94ea367f"},"vehicle_type_id":"4","last_reported":1728299339,"current_range_meters":25200,"station_id":"ce4bgj92rcd13ifvqbd0","pricing_plan_id":"cebpf4jnsgd1na2vs0mg"},{"bike_id":"3edccbad-c604-40df-acb2-6e9d91b67298","system_id":"levelo_inurba_marseille","lat":43.23058,"lon":5.35492,"is_reserved":false,"is_disabled":false,"rental_uris":{"android":"levelo://app?vid=3edccbad-c604-40df-acb2-6e9d91b67298","ios":"levelo://app?vid=3edccbad-c604-40df-acb2-6e9d91b67298"},"vehicle_type_id":"4","last_reported":1728299339,"current_range_meters":21600,"station_id":"cpo3342slgdg3j2ifvpg","pricing_plan_id":"cebpf4jnsgd1na2vs0mg"},{"bike_id":"7196b3fb-c3d1-4d14-83ac-d558d62e86f8","system_id":"levelo_inurba_marseille","lat":43.29432,"lon":5.39753,"is_reserved":false,"is_disabled":false,"rental_uris":{"android":"levelo://app?vid=7196b3fb-c3d1-4d14-83ac-d558d62e86f8","ios":"levelo://app?vid=7196b3fb-c3d1-4d14-83ac-d558d62e86f8"},"vehicle_type_id":"4","last_reported":1728299339,"current_range_meters":10000,"station_id":"ce4bh3h2rcd13ifvqdo0","pricing_plan_id":"cebpf4jnsgd1na2vs0mg"},{"bike_id":"3a6ea14f-fa67-4c29-a0ff-b1bb5abfd496","system_id":"levelo_inurba_marseille","lat":43.27071,"lon":5.42281,"is_reserved":false,"is_disabled":false,"rental_uris":{"android":"levelo://app?vid=3a6ea14f-fa67-4c29-a0ff-b1bb5abfd496","ios":"levelo://app?vid=3a6ea14f-fa67-4c29-a0ff-b1bb5abfd496"},"vehicle_type_id":"4","last_reported":1728299339,"current_range_meters":36800,"station_id":"ce4bhk92rcd13ifvqgb0","pricing_plan_id":"cebpf4jnsgd1na2vs0mg"},{"bike_id":"9b90015d-afd1-4ef9-a9ac-a8694f237c16","system_id":"levelo_inurba_marseille","lat":43.2315,"lon":5.43714,"is_reserved":false,"is_disabled":false,"rental_uris":{"android":"levelo://app?vid=9b90015d-afd1-4ef9-a9ac-a8694f237c16","ios":"levelo://app?vid=9b90015d-afd1-4ef9-a9ac-a8694f237c16"},"vehicle_type_id":"4","last_reported":1728299339,"current_range_meters":16400,"station_id":"ce4bhmp2rcd13ifvqgog","pricing_plan_id":"cebpf4jnsgd1na2vs0mg"},{"bike_id":"c18074f0-15bc-4e96-a4f4-893c783a5723","system_id":"levelo_inurba_marseille","lat":43.32366,"lon":5.38882,"is_reserved":false,"is_disabled":false,"rental_uris":{"android":"levelo://app?vid=c18074f0-15bc-4e96-a4f4-893c783a5723","ios":"levelo://app?vid=c18074f0-15bc-4e96-a4f4-893c783a5723"},"vehicle_type_id":"4","last_reported":1728299339,"current_range_meters":26800,"station_id":"ce4bhqp2rcd13ifvqhog","pricing_plan_id":"cebpf4jnsgd1na2vs0mg"},{"bike_id":"0c79aab6-040b-4bde-9e28-12201a8a5e7b","system_id":"levelo_inurba_marseille","lat":43.25562,"lon":5.38276,"is_reserved":false,"is_disabled":false,"rental_uris":{"android":"levelo://app?vid=0c79aab6-040b-4bde-9e28-12201a8a5e7b","ios":"levelo://app?vid=0c79aab6-040b-4bde-9e28-12201a8a5e7b"},"vehicle_type_id":"4","last_reported":1728299339,"current_range_meters":39200,"station_id":"ce4bhih2rcd13ifvqfs0","pricing_plan_id":"cebpf4jnsgd1na2vs0mg"},{"bike_id":"86313f9f-cf4e-4057-983c-925022962793","system_id":"levelo_inurba_marseille","lat":43.29024,"lon":5.38644,"is_reserved":false,"is_disabled":false,"rental_uris":{"android":"levelo://app?vid=86313f9f-cf4e-4057-983c-925022962793","ios":"levelo://app?vid=86313f9f-cf4e-4057-983c-925022962793"},"vehicle_type_id":"4","last_reported":1728299339,"current_range_meters":22800,"station_id":"ce4bh4p2rcd13ifvqe0g","pricing_plan_id":"cebpf4jnsgd1na2vs0mg"},{"bike_id":"7c3acb4c-8811-42c8-98ab-05cf388495cd","system_id":"levelo_inurba_marseille","lat":43.25928,"lon":5.40907,"is_reserved":false,"is_disabled":false,"rental_uris":{"android":"levelo://app?vid=7c3acb4c-8811-42c8-98ab-05cf388495cd","ios":"levelo://app?vid=7c3acb4c-8811-42c8-98ab-05cf388495cd"},"vehicle_type_id":"4","last_reported":1728299339,"current_range_meters":27600,"station_id":"ce4bhm92rcd13ifvqglg","pricing_plan_id":"cebpf4jnsgd1na2vs0mg"},{"bike_id":"182c9312-1c0f-460c-8f28-44e0e2bc6c77","system_id":"levelo_inurba_marseille","lat":43.26059,"lon":5.39398,"is_reserved":false,"is_disabled":false,"rental_uris":{"android":"levelo://app?vid=182c9312-1c0f-460c-8f28-44e0e2bc6c77","ios":"levelo://app?vid=182c9312-1c0f-460c-8f28-44e0e2bc6c77"},"vehicle_type_id":"4","last_reported":1728299339,"current_range_meters":31200,"station_id":"ce4bhh92rcd13ifvqfj0","pricing_plan_id":"cebpf4jnsgd1na2vs0mg"},{"bike_id":"5e9d7e93-cc10-46a5-8cff-fd474c9718c1","system_id":"levelo_inurba_marseille","lat":43.29886,"lon":5.397414,"is_reserved":false,"is_disabled":false,"rental_uris":{"android":"levelo://app?vid=5e9d7e93-cc10-46a5-8cff-fd474c9718c1","ios":"levelo://app?vid=5e9d7e93-cc10-46a5-8cff-fd474c9718c1"},"vehicle_type_id":"4","last_reported":1728299339,"current_range_meters":22000,"station_id":"ce4bh0h2rcd13ifvqd50","pricing_plan_id":"cebpf4jnsgd1na2vs0mg"},{"bike_id":"2d7375d9-bbde-4e7d-a7bc-a5afb61e7f9e","system_id":"levelo_inurba_marseille","lat":43.30318,"lon":5.36891,"is_reserved":false,"is_disabled":false,"rental_uris":{"android":"levelo://app?vid=2d7375d9-bbde-4e7d-a7bc-a5afb61e7f9e","ios":"levelo://app?vid=2d7375d9-bbde-4e7d-a7bc-a5afb61e7f9e"},"vehicle_type_id":"4","last_reported":1728299339,"current_range_meters":39200,"station_id":"ce4bgqh2rcd13ifvqc5g","pricing_plan_id":"cebpf4jnsgd1na2vs0mg"},{"bike_id":"81b07a05-4c57-4e76-99d6-5f6e3acbb201","system_id":"levelo_inurba_marseille","lat":43.23059,"lon":5.35491,"is_reserved":false,"is_disabled":false,"rental_uris":{"android":"levelo://app?vid=81b07a05-4c57-4e76-99d6-5f6e3acbb201","ios":"levelo://app?vid=81b07a05-4c57-4e76-99d6-5f6e3acbb201"},"vehicle_type_id":"4","last_reported":1728299339,"current_range_meters":12800,"station_id":"cpo3342slgdg3j2ifvpg","pricing_plan_id":"cebpf4jnsgd1na2vs0mg"},{"bike_id":"e60bbbd0-387d-4477-9954-d38aa9bd46bf","system_id":"levelo_inurba_marseille","lat":43.27062,"lon":5.38811,"is_reserved":false,"is_disabled":false,"rental_uris":{"android":"levelo://app?vid=e60bbbd0-387d-4477-9954-d38aa9bd46bf","ios":"levelo://app?vid=e60bbbd0-387d-4477-9954-d38aa9bd46bf"},"vehicle_type_id":"4","last_reported":1728299339,"current_range_meters":17200,"station_id":"ce4bhg92rcd13ifvqf90","pricing_plan_id":"cebpf4jnsgd1na2vs0mg"},{"bike_id":"7b5acb30-7728-4d2f-b8de-cc88114cf385","system_id":"levelo_inurba_marseille","lat":43.23144,"lon":5.43719,"is_reserved":false,"is_disabled":false,"rental_uris":{"android":"levelo://app?vid=7b5acb30-7728-4d2f-b8de-cc88114cf385","ios":"levelo://app?vid=7b5acb30-7728-4d2f-b8de-cc88114cf385"},"vehicle_type_id":"4","last_reported":1728299339,"current_range_meters":38800,"station_id":"ce4bhmp2rcd13ifvqgog","pricing_plan_id":"cebpf4jnsgd1na2vs0mg"},{"bike_id":"a4151266-2341-448e-8021-d577af6eeb9d","system_id":"levelo_inurba_marseille","lat":43.32538,"lon":5.41429,"is_reserved":false,"is_disabled":false,"rental_uris":{"android":"levelo://app?vid=a4151266-2341-448e-8021-d577af6eeb9d","ios":"levelo://app?vid=a4151266-2341-448e-8021-d577af6eeb9d"},"vehicle_type_id":"4","last_reported":1728299339,"current_range_meters":12000,"station_id":"ce4bhq12rcd13ifvqhhg","pricing_plan_id":"cebpf4jnsgd1na2vs0mg"},{"bike_id":"e2200a0d-12da-4459-b8f5-161f17ffb2d2","system_id":"levelo_inurba_marseille","lat":43.31346,"lon":5.36725,"is_reserved":false,"is_disabled":false,"rental_uris":{"android":"levelo://app?vid=e2200a0d-12da-4459-b8f5-161f17ffb2d2","ios":"levelo://app?vid=e2200a0d-12da-4459-b8f5-161f17ffb2d2"},"vehicle_type_id":"4","last_reported":1728299339,"current_range_meters":34800,"station_id":"ce4bgr92rcd13ifvqc6g","pricing_plan_id":"cebpf4jnsgd1na2vs0mg"},{"bike_id":"3df5753f-615c-4b1b-899c-1486b5ccf3a8","system_id":"levelo_inurba_marseille","lat":43.26497,"lon":5.39544,"is_reserved":false,"is_disabled":false,"rental_uris":{"android":"levelo://app?vid=3df5753f-615c-4b1b-899c-1486b5ccf3a8","ios":"levelo://app?vid=3df5753f-615c-4b1b-899c-1486b5ccf3a8"},"vehicle_type_id":"4","last_reported":1728299339,"current_range_meters":30000,"station_id":"ce4bhi12rcd13ifvqfq0","pricing_plan_id":"cebpf4jnsgd1na2vs0mg"},{"bike_id":"e85b8fe6-3a03-4705-8c17-f0f4db68016b","system_id":"levelo_inurba_marseille","lat":43.28468,"lon":5.38412,"is_reserved":false,"is_disabled":false,"rental_uris":{"android":"levelo://app?vid=e85b8fe6-3a03-4705-8c17-f0f4db68016b","ios":"levelo://app?vid=e85b8fe6-3a03-4705-8c17-f0f4db68016b"},"vehicle_type_id":"4","last_reported":1728299339,"current_range_meters":28000,"station_id":"ce4bh512rcd13ifvqe3g","pricing_plan_id":"cebpf4jnsgd1na2vs0mg"},{"bike_id":"5a0d86f2-3182-4ef6-8880-ce4c48473664","system_id":"levelo_inurba_marseille","lat":43.28435,"lon":5.392,"is_reserved":false,"is_disabled":false,"rental_uris":{"android":"levelo://app?vid=5a0d86f2-3182-4ef6-8880-ce4c48473664","ios":"levelo://app?vid=5a0d86f2-3182-4ef6-8880-ce4c48473664"},"vehicle_type_id":"4","last_reported":1728299339,"current_range_meters":3200,"station_id":"ce4bhoh2rcd13ifvqh5g","pricing_plan_id":"cebpf4jnsgd1na2vs0mg"},{"bike_id":"48a43036-d79d-45c7-808a-09eeaeb71c88","system_id":"levelo_inurba_marseille","lat":43.30917,"lon":5.36852,"is_reserved":false,"is_disabled":false,"rental_uris":{"android":"levelo://app?vid=48a43036-d79d-45c7-808a-09eeaeb71c88","ios":"levelo://app?vid=48a43036-d79d-45c7-808a-09eeaeb71c88"},"vehicle_type_id":"4","last_reported":1728299339,"current_range_meters":4000,"station_id":"ce4bgn92rcd13ifvqbvg","pricing_plan_id":"cebpf4jnsgd1na2vs0mg"},{"bike_id":"ac567f4d-8b14-4660-96a6-526b62c1e4c6","system_id":"levelo_inurba_marseille","lat":43.29564,"lon":5.37511,"is_reserved":false,"is_disabled":false,"rental_uris":{"android":"levelo://app?vid=ac567f4d-8b14-4660-96a6-526b62c1e4c6","ios":"levelo://app?vid=ac567f4d-8b14-4660-96a6-526b62c1e4c6"},"vehicle_type_id":"4","last_reported":1728299339,"current_range_meters":36000,"station_id":"ce4bgh92rcd13ifvqb50","pricing_plan_id":"cebpf4jnsgd1na2vs0mg"},{"bike_id":"6168e484-1def-487a-b835-dbac92a5473a","system_id":"levelo_inurba_marseille","lat":43.29972,"lon":5.38496,"is_reserved":false,"is_disabled":false,"rental_uris":{"android":"levelo://app?vid=6168e484-1def-487a-b835-dbac92a5473a","ios":"levelo://app?vid=6168e484-1def-487a-b835-dbac92a5473a"},"vehicle_type_id":"4","last_reported":1728299339,"current_range_meters":34000,"station_id":"ce4bgj92rcd13ifvqbd0","pricing_plan_id":"cebpf4jnsgd1na2vs0mg"},{"bike_id":"cd9e4eb8-5771-4c50-84c5-9df45347298d","system_id":"levelo_inurba_marseille","lat":43.33723,"lon":5.39195,"is_reserved":false,"is_disabled":false,"rental_uris":{"android":"levelo://app?vid=cd9e4eb8-5771-4c50-84c5-9df45347298d","ios":"levelo://app?vid=cd9e4eb8-5771-4c50-84c5-9df45347298d"},"vehicle_type_id":"4","last_reported":1728299339,"current_range_meters":2000,"station_id":"ce4bhr92rcd13ifvqhsg","pricing_plan_id":"cebpf4jnsgd1na2vs0mg"},{"bike_id":"aa186e27-30c9-4aa8-95eb-8e7116549a7a","system_id":"levelo_inurba_marseille","lat":43.29983,"lon":5.38479,"is_reserved":false,"is_disabled":false,"rental_uris":{"android":"levelo://app?vid=aa186e27-30c9-4aa8-95eb-8e7116549a7a","ios":"levelo://app?vid=aa186e27-30c9-4aa8-95eb-8e7116549a7a"},"vehicle_type_id":"4","last_reported":1728299339,"current_range_meters":38800,"station_id":"ce4bgj92rcd13ifvqbd0","pricing_plan_id":"cebpf4jnsgd1na2vs0mg"},{"bike_id":"09a8df38-2005-47ba-b4d7-e1712ed29f76","system_id":"levelo_inurba_marseille","lat":43.27921,"lon":5.39579,"is_reserved":false,"is_disabled":false,"rental_uris":{"android":"levelo://app?vid=09a8df38-2005-47ba-b4d7-e1712ed29f76","ios":"levelo://app?vid=09a8df38-2005-47ba-b4d7-e1712ed29f76"},"vehicle_type_id":"4","last_reported":1728299339,"current_range_meters":27600,"station_id":"ce4bhf92rcd13ifvqf40","pricing_plan_id":"cebpf4jnsgd1na2vs0mg"},{"bike_id":"460f5fa7-3baf-4274-a643-79557919b3d2","system_id":"levelo_inurba_marseille","lat":43.2997,"lon":5.38507,"is_reserved":false,"is_disabled":false,"rental_uris":{"android":"levelo://app?vid=460f5fa7-3baf-4274-a643-79557919b3d2","ios":"levelo://app?vid=460f5fa7-3baf-4274-a643-79557919b3d2"},"vehicle_type_id":"4","last_reported":1728299339,"current_range_meters":19200,"station_id":"ce4bh392rcd13ifvqdl0","pricing_plan_id":"cebpf4jnsgd1na2vs0mg"},{"bike_id":"4f1d8ba1-6005-4a21-8dbd-3de465e057df","system_id":"levelo_inurba_marseille","lat":43.25115,"lon":5.40319,"is_reserved":false,"is_disabled":false,"rental_uris":{"android":"levelo://app?vid=4f1d8ba1-6005-4a21-8dbd-3de465e057df","ios":"levelo://app?vid=4f1d8ba1-6005-4a21-8dbd-3de465e057df"},"vehicle_type_id":"4","last_reported":1728299339,"current_range_meters":6000,"station_id":"ce4bhlh2rcd13ifvqgig","pricing_plan_id":"cebpf4jnsgd1na2vs0mg"},{"bike_id":"35db5aab-a536-4286-87d7-90ec43783f24","system_id":"levelo_inurba_marseille","lat":43.23193,"lon":5.35557,"is_reserved":false,"is_disabled":false,"rental_uris":{"android":"levelo://app?vid=35db5aab-a536-4286-87d7-90ec43783f24","ios":"levelo://app?vid=35db5aab-a536-4286-87d7-90ec43783f24"},"vehicle_type_id":"4","last_reported":1728299339,"current_range_meters":36800,"station_id":"ce4bhu92rcd13ifvqi70","pricing_plan_id":"cebpf4jnsgd1na2vs0mg"},{"bike_id":"ebc68af3-23ce-404b-a4b5-db141d7d342d","system_id":"levelo_inurba_marseille","lat":43.28153,"lon":5.42648,"is_reserved":false,"is_disabled":false,"rental_uris":{"android":"levelo://app?vid=ebc68af3-23ce-404b-a4b5-db141d7d342d","ios":"levelo://app?vid=ebc68af3-23ce-404b-a4b5-db141d7d342d"},"vehicle_type_id":"4","last_reported":1728299339,"current_range_meters":14800,"station_id":"ce4bhnh2rcd13ifvqgug","pricing_plan_id":"cebpf4jnsgd1na2vs0mg"},{"bike_id":"41bc48d6-a67a-42cc-8be8-eab52bf3ec1c","system_id":"levelo_inurba_marseille","lat":43.31485,"lon":5.37294,"is_reserved":false,"is_disabled":false,"rental_uris":{"android":"levelo://app?vid=41bc48d6-a67a-42cc-8be8-eab52bf3ec1c","ios":"levelo://app?vid=41bc48d6-a67a-42cc-8be8-eab52bf3ec1c"},"vehicle_type_id":"4","last_reported":1728299339,"current_range_meters":38800,"station_id":"ce4bgt12rcd13ifvqcd0","pricing_plan_id":"cebpf4jnsgd1na2vs0mg"},{"bike_id":"62dfd99c-f976-4937-b2d0-5b50f5ae699f","system_id":"levelo_inurba_marseille","lat":43.24166,"lon":5.36405,"is_reserved":false,"is_disabled":false,"rental_uris":{"android":"levelo://app?vid=62dfd99c-f976-4937-b2d0-5b50f5ae699f","ios":"levelo://app?vid=62dfd99c-f976-4937-b2d0-5b50f5ae699f"},"vehicle_type_id":"4","last_reported":1728299339,"current_range_meters":10000,"station_id":"cpo36qri1sfpv3e86is0","pricing_plan_id":"cebpf4jnsgd1na2vs0mg"},{"bike_id":"bd71ac38-b357-44ce-b924-fab47904b6a5","system_id":"levelo_inurba_marseille","lat":43.23968,"lon":5.36629,"is_reserved":false,"is_disabled":false,"rental_uris":{"android":"levelo://app?vid=bd71ac38-b357-44ce-b924-fab47904b6a5","ios":"levelo://app?vid=bd71ac38-b357-44ce-b924-fab47904b6a5"},"vehicle_type_id":"4","last_reported":1728299339,"current_range_meters":32400,"station_id":"ce4bhi12rcd13ifvqfp0","pricing_plan_id":"cebpf4jnsgd1na2vs0mg"},{"bike_id":"47e561d7-7e93-4a3c-986e-19fedce4e7ba","system_id":"levelo_inurba_marseille","lat":43.28356,"lon":5.38102,"is_reserved":false,"is_disabled":false,"rental_uris":{"android":"levelo://app?vid=47e561d7-7e93-4a3c-986e-19fedce4e7ba","ios":"levelo://app?vid=47e561d7-7e93-4a3c-986e-19fedce4e7ba"},"vehicle_type_id":"4","last_reported":1728299339,"current_range_meters":17200,"station_id":"ce4bh412rcd13ifvqdr0","pricing_plan_id":"cebpf4jnsgd1na2vs0mg"},{"bike_id":"6be301f0-216c-4e13-b3a1-2848f6fc8e62","system_id":"levelo_inurba_marseille","lat":43.30882,"lon":5.39657,"is_reserved":false,"is_disabled":false,"rental_uris":{"android":"levelo://app?vid=6be301f0-216c-4e13-b3a1-2848f6fc8e62","ios":"levelo://app?vid=6be301f0-216c-4e13-b3a1-2848f6fc8e62"},"vehicle_type_id":"4","last_reported":1728299339,"current_range_meters":27600,"station_id":"ce4bh012rcd13ifvqcv0","pricing_plan_id":"cebpf4jnsgd1na2vs0mg"},{"bike_id":"3c324bf8-86dd-4109-b29b-58f28634f135","system_id":"levelo_inurba_marseille","lat":43.2603,"lon":5.37545,"is_reserved":false,"is_disabled":false,"rental_uris":{"android":"levelo://app?vid=3c324bf8-86dd-4109-b29b-58f28634f135","ios":"levelo://app?vid=3c324bf8-86dd-4109-b29b-58f28634f135"},"vehicle_type_id":"4","last_reported":1728299339,"current_range_meters":38800,"station_id":"ce4bhgh2rcd13ifvqfa0","pricing_plan_id":"cebpf4jnsgd1na2vs0mg"},{"bike_id":"ae15bf0e-081e-4272-b73c-ff1d32656f13","system_id":"levelo_inurba_marseille","lat":43.2455,"lon":5.39525,"is_reserved":false,"is_disabled":false,"rental_uris":{"android":"levelo://app?vid=ae15bf0e-081e-4272-b73c-ff1d32656f13","ios":"levelo://app?vid=ae15bf0e-081e-4272-b73c-ff1d32656f13"},"vehicle_type_id":"4","last_reported":1728299339,"current_range_meters":38800,"station_id":"ce4bhlp2rcd13ifvqgjg","pricing_plan_id":"cebpf4jnsgd1na2vs0mg"},{"bike_id":"a7d39e11-88db-47a1-b559-47b761427f0e","system_id":"levelo_inurba_marseille","lat":43.25933,"lon":5.40915,"is_reserved":false,"is_disabled":false,"rental_uris":{"android":"levelo://app?vid=a7d39e11-88db-47a1-b559-47b761427f0e","ios":"levelo://app?vid=a7d39e11-88db-47a1-b559-47b761427f0e"},"vehicle_type_id":"4","last_reported":1728299339,"current_range_meters":33600,"station_id":"ce4bhm92rcd13ifvqglg","pricing_plan_id":"cebpf4jnsgd1na2vs0mg"},{"bike_id":"6ecc3250-1b8f-4fe4-9af2-4af6d50ffd76","system_id":"levelo_inurba_marseille","lat":43.2593,"lon":5.40911,"is_reserved":false,"is_disabled":false,"rental_uris":{"android":"levelo://app?vid=6ecc3250-1b8f-4fe4-9af2-4af6d50ffd76","ios":"levelo://app?vid=6ecc3250-1b8f-4fe4-9af2-4af6d50ffd76"},"vehicle_type_id":"4","last_reported":1728299339,"current_range_meters":14400,"station_id":"ce4bhm92rcd13ifvqglg","pricing_plan_id":"cebpf4jnsgd1na2vs0mg"},{"bike_id":"baba7691-81ff-4c7d-90d9-c89eba9696cb","system_id":"levelo_inurba_marseille","lat":43.25928,"lon":5.40918,"is_reserved":false,"is_disabled":false,"rental_uris":{"android":"levelo://app?vid=baba7691-81ff-4c7d-90d9-c89eba9696cb","ios":"levelo://app?vid=baba7691-81ff-4c7d-90d9-c89eba9696cb"},"vehicle_type_id":"4","last_reported":1728299339,"current_range_meters":27600,"station_id":"ce4bhm92rcd13ifvqglg","pricing_plan_id":"cebpf4jnsgd1na2vs0mg"},{"bike_id":"b7792212-086e-408c-bfd6-97418e84521b","system_id":"levelo_inurba_marseille","lat":43.29793,"lon":5.38099,"is_reserved":false,"is_disabled":false,"rental_uris":{"android":"levelo://app?vid=b7792212-086e-408c-bfd6-97418e84521b","ios":"levelo://app?vid=b7792212-086e-408c-bfd6-97418e84521b"},"vehicle_type_id":"4","last_reported":1728299339,"current_range_meters":20800,"station_id":"ce4bgip2rcd13ifvqbb0","pricing_plan_id":"cebpf4jnsgd1na2vs0mg"},{"bike_id":"b1a42782-3ee6-4e5c-aa06-ed242166d1ed","system_id":"levelo_inurba_marseille","lat":43.3211,"lon":5.3677,"is_reserved":false,"is_disabled":false,"rental_uris":{"android":"levelo://app?vid=b1a42782-3ee6-4e5c-aa06-ed242166d1ed","ios":"levelo://app?vid=b1a42782-3ee6-4e5c-aa06-ed242166d1ed"},"vehicle_type_id":"4","last_reported":1728299339,"current_range_meters":32800,"station_id":"ce4bhrh2rcd13ifvqhug","pricing_plan_id":"cebpf4jnsgd1na2vs0mg"},{"bike_id":"fec885cd-387f-4f71-9e64-7a12f33aa81b","system_id":"levelo_inurba_marseille","lat":43.24384,"lon":5.37049,"is_reserved":false,"is_disabled":false,"rental_uris":{"android":"levelo://app?vid=fec885cd-387f-4f71-9e64-7a12f33aa81b","ios":"levelo://app?vid=fec885cd-387f-4f71-9e64-7a12f33aa81b"},"vehicle_type_id":"4","last_reported":1728299339,"current_range_meters":25200,"station_id":"ce4bhhh2rcd13ifvqfk0","pricing_plan_id":"cebpf4jnsgd1na2vs0mg"},{"bike_id":"a2faaec4-27d0-46ad-9911-1471f51c6ba4","system_id":"levelo_inurba_marseille","lat":43.296755,"lon":5.372836,"is_reserved":false,"is_disabled":false,"rental_uris":{"android":"levelo://app?vid=a2faaec4-27d0-46ad-9911-1471f51c6ba4","ios":"levelo://app?vid=a2faaec4-27d0-46ad-9911-1471f51c6ba4"},"vehicle_type_id":"4","last_reported":1728299339,"current_range_meters":38000,"station_id":"ce4bgk12rcd13ifvqbj0","pricing_plan_id":"cebpf4jnsgd1na2vs0mg"},{"bike_id":"c93b1da1-edd2-49e3-a11b-9a2f82bab027","system_id":"levelo_inurba_marseille","lat":43.27811,"lon":5.40713,"is_reserved":false,"is_disabled":false,"rental_uris":{"android":"levelo://app?vid=c93b1da1-edd2-49e3-a11b-9a2f82bab027","ios":"levelo://app?vid=c93b1da1-edd2-49e3-a11b-9a2f82bab027"},"vehicle_type_id":"4","last_reported":1728299339,"current_range_meters":27200,"station_id":"ce4bhnh2rcd13ifvqgtg","pricing_plan_id":"cebpf4jnsgd1na2vs0mg"},{"bike_id":"4af55307-045f-4c66-a045-a91d88bb4c16","system_id":"levelo_inurba_marseille","lat":43.22926,"lon":5.35372,"is_reserved":false,"is_disabled":false,"rental_uris":{"android":"levelo://app?vid=4af55307-045f-4c66-a045-a91d88bb4c16","ios":"levelo://app?vid=4af55307-045f-4c66-a045-a91d88bb4c16"},"vehicle_type_id":"4","last_reported":1728299339,"current_range_meters":27200,"station_id":"cpo3532slgdg3j2ikp40","pricing_plan_id":"cebpf4jnsgd1na2vs0mg"},{"bike_id":"fa902769-4735-4ee3-8c64-aeb9d697025e","system_id":"levelo_inurba_marseille","lat":43.30528,"lon":5.36709,"is_reserved":false,"is_disabled":false,"rental_uris":{"android":"levelo://app?vid=fa902769-4735-4ee3-8c64-aeb9d697025e","ios":"levelo://app?vid=fa902769-4735-4ee3-8c64-aeb9d697025e"},"vehicle_type_id":"4","last_reported":1728299339,"current_range_meters":16000,"station_id":"ce4bgrp2rcd13ifvqc9g","pricing_plan_id":"cebpf4jnsgd1na2vs0mg"},{"bike_id":"47f24471-cb36-41dc-a027-65abaeb21a41","system_id":"levelo_inurba_marseille","lat":43.30467,"lon":5.37917,"is_reserved":false,"is_disabled":false,"rental_uris":{"android":"levelo://app?vid=47f24471-cb36-41dc-a027-65abaeb21a41","ios":"levelo://app?vid=47f24471-cb36-41dc-a027-65abaeb21a41"},"vehicle_type_id":"4","last_reported":1728299339,"current_range_meters":40000,"station_id":"ce4bgup2rcd13ifvqcn0","pricing_plan_id":"cebpf4jnsgd1na2vs0mg"},{"bike_id":"47efe985-66e3-4fb1-a00d-60851f779f19","system_id":"levelo_inurba_marseille","lat":43.3255,"lon":5.41446,"is_reserved":false,"is_disabled":false,"rental_uris":{"android":"levelo://app?vid=47efe985-66e3-4fb1-a00d-60851f779f19","ios":"levelo://app?vid=47efe985-66e3-4fb1-a00d-60851f779f19"},"vehicle_type_id":"4","last_reported":1728299339,"current_range_meters":30400,"station_id":"ce4bhq12rcd13ifvqhhg","pricing_plan_id":"cebpf4jnsgd1na2vs0mg"},{"bike_id":"6482b1fb-67cb-4384-a7c9-6c0a7b56e3b4","system_id":"levelo_inurba_marseille","lat":43.28846,"lon":5.43323,"is_reserved":false,"is_disabled":false,"rental_uris":{"android":"levelo://app?vid=6482b1fb-67cb-4384-a7c9-6c0a7b56e3b4","ios":"levelo://app?vid=6482b1fb-67cb-4384-a7c9-6c0a7b56e3b4"},"vehicle_type_id":"4","last_reported":1728299339,"current_range_meters":6400,"station_id":"","pricing_plan_id":"cebpf4jnsgd1na2vs0mg"},{"bike_id":"719955ee-364a-41c0-b643-1eb77b936064","system_id":"levelo_inurba_marseille","lat":43.28437,"lon":5.39195,"is_reserved":false,"is_disabled":false,"rental_uris":{"android":"levelo://app?vid=719955ee-364a-41c0-b643-1eb77b936064","ios":"levelo://app?vid=719955ee-364a-41c0-b643-1eb77b936064"},"vehicle_type_id":"4","last_reported":1728299339,"current_range_meters":5600,"station_id":"ce4bhoh2rcd13ifvqh5g","pricing_plan_id":"cebpf4jnsgd1na2vs0mg"},{"bike_id":"1e592842-3390-46e6-95ec-f120a36922c9","system_id":"levelo_inurba_marseille","lat":43.23151,"lon":5.43704,"is_reserved":false,"is_disabled":false,"rental_uris":{"android":"levelo://app?vid=1e592842-3390-46e6-95ec-f120a36922c9","ios":"levelo://app?vid=1e592842-3390-46e6-95ec-f120a36922c9"},"vehicle_type_id":"4","last_reported":1728299339,"current_range_meters":17200,"station_id":"ce4bhmp2rcd13ifvqgog","pricing_plan_id":"cebpf4jnsgd1na2vs0mg"},{"bike_id":"4abe87e2-b907-44e2-a516-85f259396143","system_id":"levelo_inurba_marseille","lat":43.29932,"lon":5.36557,"is_reserved":false,"is_disabled":false,"rental_uris":{"android":"levelo://app?vid=4abe87e2-b907-44e2-a516-85f259396143","ios":"levelo://app?vid=4abe87e2-b907-44e2-a516-85f259396143"},"vehicle_type_id":"4","last_reported":1728299339,"current_range_meters":15200,"station_id":"ce4bgm92rcd13ifvqbr0","pricing_plan_id":"cebpf4jnsgd1na2vs0mg"},{"bike_id":"97ef281f-c717-429c-a078-d6a368902950","system_id":"levelo_inurba_marseille","lat":43.24166,"lon":5.36393,"is_reserved":false,"is_disabled":false,"rental_uris":{"android":"levelo://app?vid=97ef281f-c717-429c-a078-d6a368902950","ios":"levelo://app?vid=97ef281f-c717-429c-a078-d6a368902950"},"vehicle_type_id":"4","last_reported":1728299339,"current_range_meters":20000,"station_id":"cpo36qri1sfpv3e86is0","pricing_plan_id":"cebpf4jnsgd1na2vs0mg"},{"bike_id":"5f73188d-7748-44ad-af33-a5e6f56c85c5","system_id":"levelo_inurba_marseille","lat":43.27943,"lon":5.41047,"is_reserved":false,"is_disabled":false,"rental_uris":{"android":"levelo://app?vid=5f73188d-7748-44ad-af33-a5e6f56c85c5","ios":"levelo://app?vid=5f73188d-7748-44ad-af33-a5e6f56c85c5"},"vehicle_type_id":"4","last_reported":1728299339,"current_range_meters":25200,"station_id":"ce4bhnp2rcd13ifvqh0g","pricing_plan_id":"cebpf4jnsgd1na2vs0mg"},{"bike_id":"c12c46a4-bd86-493d-803e-5d507cd7924b","system_id":"levelo_inurba_marseille","lat":43.23201,"lon":5.35549,"is_reserved":false,"is_disabled":false,"rental_uris":{"android":"levelo://app?vid=c12c46a4-bd86-493d-803e-5d507cd7924b","ios":"levelo://app?vid=c12c46a4-bd86-493d-803e-5d507cd7924b"},"vehicle_type_id":"4","last_reported":1728299339,"current_range_meters":30800,"station_id":"ce4bhu92rcd13ifvqi70","pricing_plan_id":"cebpf4jnsgd1na2vs0mg"},{"bike_id":"0be7a09f-f262-46bd-8042-2d62ed5113c8","system_id":"levelo_inurba_marseille","lat":43.29784,"lon":5.38259,"is_reserved":false,"is_disabled":false,"rental_uris":{"android":"levelo://app?vid=0be7a09f-f262-46bd-8042-2d62ed5113c8","ios":"levelo://app?vid=0be7a09f-f262-46bd-8042-2d62ed5113c8"},"vehicle_type_id":"4","last_reported":1728299339,"current_range_meters":31200,"station_id":"ce4bgip2rcd13ifvqbb0","pricing_plan_id":"cebpf4jnsgd1na2vs0mg"},{"bike_id":"e0e6b6e8-a26e-4255-b71a-75c0752c9d62","system_id":"levelo_inurba_marseille","lat":43.24648,"lon":5.38893,"is_reserved":false,"is_disabled":false,"rental_uris":{"android":"levelo://app?vid=e0e6b6e8-a26e-4255-b71a-75c0752c9d62","ios":"levelo://app?vid=e0e6b6e8-a26e-4255-b71a-75c0752c9d62"},"vehicle_type_id":"4","last_reported":1728299339,"current_range_meters":38800,"station_id":"ce4bhg12rcd13ifvqf60","pricing_plan_id":"cebpf4jnsgd1na2vs0mg"},{"bike_id":"0d8c132e-6028-490d-b78f-9ee244fd1c97","system_id":"levelo_inurba_marseille","lat":43.25501,"lon":5.37648,"is_reserved":false,"is_disabled":false,"rental_uris":{"android":"levelo://app?vid=0d8c132e-6028-490d-b78f-9ee244fd1c97","ios":"levelo://app?vid=0d8c132e-6028-490d-b78f-9ee244fd1c97"},"vehicle_type_id":"4","last_reported":1728299339,"current_range_meters":39200,"station_id":"ce4bhh12rcd13ifvqff0","pricing_plan_id":"cebpf4jnsgd1na2vs0mg"},{"bike_id":"85a8b07e-682b-4725-800e-b0749654fba5","system_id":"levelo_inurba_marseille","lat":43.24168,"lon":5.36393,"is_reserved":false,"is_disabled":false,"rental_uris":{"android":"levelo://app?vid=85a8b07e-682b-4725-800e-b0749654fba5","ios":"levelo://app?vid=85a8b07e-682b-4725-800e-b0749654fba5"},"vehicle_type_id":"4","last_reported":1728299339,"current_range_meters":24400,"station_id":"cpo36qri1sfpv3e86is0","pricing_plan_id":"cebpf4jnsgd1na2vs0mg"},{"bike_id":"742b0a39-2ee6-4a7f-970b-979e89ae43ed","system_id":"levelo_inurba_marseille","lat":43.30898,"lon":5.37438,"is_reserved":false,"is_disabled":false,"rental_uris":{"android":"levelo://app?vid=742b0a39-2ee6-4a7f-970b-979e89ae43ed","ios":"levelo://app?vid=742b0a39-2ee6-4a7f-970b-979e89ae43ed"},"vehicle_type_id":"4","last_reported":1728299339,"current_range_meters":17200,"station_id":"","pricing_plan_id":"cebpf4jnsgd1na2vs0mg"},{"bike_id":"cade8849-a4d0-44a4-beeb-6bbb265c9e11","system_id":"levelo_inurba_marseille","lat":43.304993,"lon":5.367289,"is_reserved":false,"is_disabled":false,"rental_uris":{"android":"levelo://app?vid=cade8849-a4d0-44a4-beeb-6bbb265c9e11","ios":"levelo://app?vid=cade8849-a4d0-44a4-beeb-6bbb265c9e11"},"vehicle_type_id":"4","last_reported":1728299339,"current_range_meters":38400,"station_id":"ce4bgrp2rcd13ifvqc9g","pricing_plan_id":"cebpf4jnsgd1na2vs0mg"},{"bike_id":"ee52c5fc-0476-41c1-b9a6-776649879017","system_id":"levelo_inurba_marseille","lat":43.23154,"lon":5.43702,"is_reserved":false,"is_disabled":false,"rental_uris":{"android":"levelo://app?vid=ee52c5fc-0476-41c1-b9a6-776649879017","ios":"levelo://app?vid=ee52c5fc-0476-41c1-b9a6-776649879017"},"vehicle_type_id":"4","last_reported":1728299339,"current_range_meters":27200,"station_id":"ce4bhmp2rcd13ifvqgog","pricing_plan_id":"cebpf4jnsgd1na2vs0mg"},{"bike_id":"28ba4a67-47bc-41cd-bb61-28b6c3f65a07","system_id":"levelo_inurba_marseille","lat":43.30598,"lon":5.39363,"is_reserved":false,"is_disabled":false,"rental_uris":{"android":"levelo://app?vid=28ba4a67-47bc-41cd-bb61-28b6c3f65a07","ios":"levelo://app?vid=28ba4a67-47bc-41cd-bb61-28b6c3f65a07"},"vehicle_type_id":"4","last_reported":1728299339,"current_range_meters":28000,"station_id":"ce4bh0p2rcd13ifvqd80","pricing_plan_id":"cebpf4jnsgd1na2vs0mg"},{"bike_id":"47cf5dd1-85eb-40dc-9cda-ce6305623b64","system_id":"levelo_inurba_marseille","lat":43.29875,"lon":5.38913,"is_reserved":false,"is_disabled":false,"rental_uris":{"android":"levelo://app?vid=47cf5dd1-85eb-40dc-9cda-ce6305623b64","ios":"levelo://app?vid=47cf5dd1-85eb-40dc-9cda-ce6305623b64"},"vehicle_type_id":"4","last_reported":1728299339,"current_range_meters":33200,"station_id":"ce4bh392rcd13ifvqdl0","pricing_plan_id":"cebpf4jnsgd1na2vs0mg"},{"bike_id":"b19994eb-18a8-4c7b-bd0a-042774bc9864","system_id":"levelo_inurba_marseille","lat":43.30464,"lon":5.37909,"is_reserved":false,"is_disabled":false,"rental_uris":{"android":"levelo://app?vid=b19994eb-18a8-4c7b-bd0a-042774bc9864","ios":"levelo://app?vid=b19994eb-18a8-4c7b-bd0a-042774bc9864"},"vehicle_type_id":"4","last_reported":1728299339,"current_range_meters":30800,"station_id":"ce4bgup2rcd13ifvqcn0","pricing_plan_id":"cebpf4jnsgd1na2vs0mg"},{"bike_id":"05ddab4b-2219-453e-b9f6-9211ae63c830","system_id":"levelo_inurba_marseille","lat":43.24165,"lon":5.36396,"is_reserved":false,"is_disabled":false,"rental_uris":{"android":"levelo://app?vid=05ddab4b-2219-453e-b9f6-9211ae63c830","ios":"levelo://app?vid=05ddab4b-2219-453e-b9f6-9211ae63c830"},"vehicle_type_id":"4","last_reported":1728299339,"current_range_meters":28000,"station_id":"cpo36qri1sfpv3e86is0","pricing_plan_id":"cebpf4jnsgd1na2vs0mg"},{"bike_id":"5b2960aa-d543-4709-980e-21c0519129b2","system_id":"levelo_inurba_marseille","lat":43.31117,"lon":5.3777,"is_reserved":false,"is_disabled":false,"rental_uris":{"android":"levelo://app?vid=5b2960aa-d543-4709-980e-21c0519129b2","ios":"levelo://app?vid=5b2960aa-d543-4709-980e-21c0519129b2"},"vehicle_type_id":"4","last_reported":1728299339,"current_range_meters":38000,"station_id":"ce4bgt92rcd13ifvqcg0","pricing_plan_id":"cebpf4jnsgd1na2vs0mg"},{"bike_id":"155a2030-3f41-4eeb-88a1-e3243c64bd51","system_id":"levelo_inurba_marseille","lat":43.29976,"lon":5.38489,"is_reserved":false,"is_disabled":false,"rental_uris":{"android":"levelo://app?vid=155a2030-3f41-4eeb-88a1-e3243c64bd51","ios":"levelo://app?vid=155a2030-3f41-4eeb-88a1-e3243c64bd51"},"vehicle_type_id":"4","last_reported":1728299339,"current_range_meters":34000,"station_id":"ce4bgj92rcd13ifvqbd0","pricing_plan_id":"cebpf4jnsgd1na2vs0mg"},{"bike_id":"cd35eee6-03f0-48eb-87d3-b95e88b2c311","system_id":"levelo_inurba_marseille","lat":43.23148,"lon":5.43715,"is_reserved":false,"is_disabled":false,"rental_uris":{"android":"levelo://app?vid=cd35eee6-03f0-48eb-87d3-b95e88b2c311","ios":"levelo://app?vid=cd35eee6-03f0-48eb-87d3-b95e88b2c311"},"vehicle_type_id":"4","last_reported":1728299339,"current_range_meters":38800,"station_id":"ce4bhmp2rcd13ifvqgog","pricing_plan_id":"cebpf4jnsgd1na2vs0mg"},{"bike_id":"d0ca1193-12e8-4ac2-9a60-4ae6e0040151","system_id":"levelo_inurba_marseille","lat":43.22931,"lon":5.35377,"is_reserved":false,"is_disabled":false,"rental_uris":{"android":"levelo://app?vid=d0ca1193-12e8-4ac2-9a60-4ae6e0040151","ios":"levelo://app?vid=d0ca1193-12e8-4ac2-9a60-4ae6e0040151"},"vehicle_type_id":"4","last_reported":1728299339,"current_range_meters":24000,"station_id":"cpo3532slgdg3j2ikp40","pricing_plan_id":"cebpf4jnsgd1na2vs0mg"},{"bike_id":"2557af00-c03e-42bb-8bb5-4007fd210a1c","system_id":"levelo_inurba_marseille","lat":43.23152,"lon":5.43701,"is_reserved":false,"is_disabled":false,"rental_uris":{"android":"levelo://app?vid=2557af00-c03e-42bb-8bb5-4007fd210a1c","ios":"levelo://app?vid=2557af00-c03e-42bb-8bb5-4007fd210a1c"},"vehicle_type_id":"4","last_reported":1728299339,"current_range_meters":12000,"station_id":"ce4bhmp2rcd13ifvqgog","pricing_plan_id":"cebpf4jnsgd1na2vs0mg"},{"bike_id":"90be245c-016a-48b1-a6b9-91aaecc104ba","system_id":"levelo_inurba_marseille","lat":43.264876,"lon":5.395442,"is_reserved":false,"is_disabled":false,"rental_uris":{"android":"levelo://app?vid=90be245c-016a-48b1-a6b9-91aaecc104ba","ios":"levelo://app?vid=90be245c-016a-48b1-a6b9-91aaecc104ba"},"vehicle_type_id":"4","last_reported":1728299339,"current_range_meters":14800,"station_id":"ce4bhi12rcd13ifvqfq0","pricing_plan_id":"cebpf4jnsgd1na2vs0mg"},{"bike_id":"5426ecb5-4d2e-4c65-a5e5-6fa42a39b860","system_id":"levelo_inurba_marseille","lat":43.23056,"lon":5.35492,"is_reserved":false,"is_disabled":false,"rental_uris":{"android":"levelo://app?vid=5426ecb5-4d2e-4c65-a5e5-6fa42a39b860","ios":"levelo://app?vid=5426ecb5-4d2e-4c65-a5e5-6fa42a39b860"},"vehicle_type_id":"4","last_reported":1728299339,"current_range_meters":9600,"station_id":"cpo3342slgdg3j2ifvpg","pricing_plan_id":"cebpf4jnsgd1na2vs0mg"},{"bike_id":"7bac8860-d535-489b-ae83-376b080a86fd","system_id":"levelo_inurba_marseille","lat":43.29928,"lon":5.37469,"is_reserved":false,"is_disabled":false,"rental_uris":{"android":"levelo://app?vid=7bac8860-d535-489b-ae83-376b080a86fd","ios":"levelo://app?vid=7bac8860-d535-489b-ae83-376b080a86fd"},"vehicle_type_id":"4","last_reported":1728299339,"current_range_meters":17200,"station_id":"ce4bgjh2rcd13ifvqbg0","pricing_plan_id":"cebpf4jnsgd1na2vs0mg"},{"bike_id":"5fd97b48-8eeb-44e8-bc7a-e8fa9d0cf5b6","system_id":"levelo_inurba_marseille","lat":43.307249,"lon":5.397043,"is_reserved":false,"is_disabled":false,"rental_uris":{"android":"levelo://app?vid=5fd97b48-8eeb-44e8-bc7a-e8fa9d0cf5b6","ios":"levelo://app?vid=5fd97b48-8eeb-44e8-bc7a-e8fa9d0cf5b6"},"vehicle_type_id":"4","last_reported":1728299339,"current_range_meters":10000,"station_id":"","pricing_plan_id":"cebpf4jnsgd1na2vs0mg"},{"bike_id":"c8a9b141-db7b-47d0-9367-e8aeade551b5","system_id":"levelo_inurba_marseille","lat":43.258203,"lon":5.394397,"is_reserved":false,"is_disabled":false,"rental_uris":{"android":"levelo://app?vid=c8a9b141-db7b-47d0-9367-e8aeade551b5","ios":"levelo://app?vid=c8a9b141-db7b-47d0-9367-e8aeade551b5"},"vehicle_type_id":"4","last_reported":1728299339,"current_range_meters":25600,"station_id":"ce4bhip2rcd13ifvqft0","pricing_plan_id":"cebpf4jnsgd1na2vs0mg"},{"bike_id":"632f8478-394d-460e-ae9d-0a149a8f3737","system_id":"levelo_inurba_marseille","lat":43.29562,"lon":5.37539,"is_reserved":false,"is_disabled":false,"rental_uris":{"android":"levelo://app?vid=632f8478-394d-460e-ae9d-0a149a8f3737","ios":"levelo://app?vid=632f8478-394d-460e-ae9d-0a149a8f3737"},"vehicle_type_id":"4","last_reported":1728299339,"current_range_meters":17600,"station_id":"ce4bgh92rcd13ifvqb50","pricing_plan_id":"cebpf4jnsgd1na2vs0mg"},{"bike_id":"4c10d3e5-bc5b-419f-b14c-a3992f2bcfc9","system_id":"levelo_inurba_marseille","lat":43.30364,"lon":5.41869,"is_reserved":false,"is_disabled":false,"rental_uris":{"android":"levelo://app?vid=4c10d3e5-bc5b-419f-b14c-a3992f2bcfc9","ios":"levelo://app?vid=4c10d3e5-bc5b-419f-b14c-a3992f2bcfc9"},"vehicle_type_id":"4","last_reported":1728299339,"current_range_meters":31200,"station_id":"ce4bhop2rcd13ifvqh7g","pricing_plan_id":"cebpf4jnsgd1na2vs0mg"},{"bike_id":"0f28e17d-6977-4349-818c-dd1d2aa585dd","system_id":"levelo_inurba_marseille","lat":43.295731,"lon":5.375304,"is_reserved":false,"is_disabled":false,"rental_uris":{"android":"levelo://app?vid=0f28e17d-6977-4349-818c-dd1d2aa585dd","ios":"levelo://app?vid=0f28e17d-6977-4349-818c-dd1d2aa585dd"},"vehicle_type_id":"4","last_reported":1728299339,"current_range_meters":37600,"station_id":"ce4bgh92rcd13ifvqb50","pricing_plan_id":"cebpf4jnsgd1na2vs0mg"},{"bike_id":"fd4ea170-66bd-4514-bac0-2817003662ff","system_id":"levelo_inurba_marseille","lat":43.337444,"lon":5.374475,"is_reserved":false,"is_disabled":false,"rental_uris":{"android":"levelo://app?vid=fd4ea170-66bd-4514-bac0-2817003662ff","ios":"levelo://app?vid=fd4ea170-66bd-4514-bac0-2817003662ff"},"vehicle_type_id":"4","last_reported":1728299339,"current_range_meters":22000,"station_id":"","pricing_plan_id":"cebpf4jnsgd1na2vs0mg"},{"bike_id":"12bccb3b-8da7-4a19-93a2-2e7f6819408f","system_id":"levelo_inurba_marseille","lat":43.33763,"lon":5.37442,"is_reserved":false,"is_disabled":false,"rental_uris":{"android":"levelo://app?vid=12bccb3b-8da7-4a19-93a2-2e7f6819408f","ios":"levelo://app?vid=12bccb3b-8da7-4a19-93a2-2e7f6819408f"},"vehicle_type_id":"4","last_reported":1728299339,"current_range_meters":38800,"station_id":"","pricing_plan_id":"cebpf4jnsgd1na2vs0mg"},{"bike_id":"e8f38f77-6572-42be-9296-0cbe6e7cb972","system_id":"levelo_inurba_marseille","lat":43.23054,"lon":5.35492,"is_reserved":false,"is_disabled":false,"rental_uris":{"android":"levelo://app?vid=e8f38f77-6572-42be-9296-0cbe6e7cb972","ios":"levelo://app?vid=e8f38f77-6572-42be-9296-0cbe6e7cb972"},"vehicle_type_id":"4","last_reported":1728299339,"current_range_meters":36800,"station_id":"cpo3342slgdg3j2ifvpg","pricing_plan_id":"cebpf4jnsgd1na2vs0mg"},{"bike_id":"d1587e36-779f-4b89-b805-f4efb2df75bb","system_id":"levelo_inurba_marseille","lat":43.25826,"lon":5.39436,"is_reserved":false,"is_disabled":false,"rental_uris":{"android":"levelo://app?vid=d1587e36-779f-4b89-b805-f4efb2df75bb","ios":"levelo://app?vid=d1587e36-779f-4b89-b805-f4efb2df75bb"},"vehicle_type_id":"4","last_reported":1728299339,"current_range_meters":28400,"station_id":"ce4bhip2rcd13ifvqft0","pricing_plan_id":"cebpf4jnsgd1na2vs0mg"},{"bike_id":"6655e182-da2e-472b-9339-8613bad7dacd","system_id":"levelo_inurba_marseille","lat":43.27053,"lon":5.36334,"is_reserved":false,"is_disabled":false,"rental_uris":{"android":"levelo://app?vid=6655e182-da2e-472b-9339-8613bad7dacd","ios":"levelo://app?vid=6655e182-da2e-472b-9339-8613bad7dacd"},"vehicle_type_id":"4","last_reported":1728299339,"current_range_meters":30000,"station_id":"ce4bhah2rcd13ifvqei0","pricing_plan_id":"cebpf4jnsgd1na2vs0mg"},{"bike_id":"f8df4726-4ee0-47a3-9ccd-0c8b0d96b43b","system_id":"levelo_inurba_marseille","lat":43.27492,"lon":5.42455,"is_reserved":false,"is_disabled":false,"rental_uris":{"android":"levelo://app?vid=f8df4726-4ee0-47a3-9ccd-0c8b0d96b43b","ios":"levelo://app?vid=f8df4726-4ee0-47a3-9ccd-0c8b0d96b43b"},"vehicle_type_id":"4","last_reported":1728299339,"current_range_meters":3600,"station_id":"ce4bhn92rcd13ifvqgrg","pricing_plan_id":"cebpf4jnsgd1na2vs0mg"},{"bike_id":"b3576681-ace2-4183-b12d-e87c0c5a344d","system_id":"levelo_inurba_marseille","lat":43.25499,"lon":5.37646,"is_reserved":false,"is_disabled":false,"rental_uris":{"android":"levelo://app?vid=b3576681-ace2-4183-b12d-e87c0c5a344d","ios":"levelo://app?vid=b3576681-ace2-4183-b12d-e87c0c5a344d"},"vehicle_type_id":"4","last_reported":1728299339,"current_range_meters":36800,"station_id":"ce4bhh12rcd13ifvqff0","pricing_plan_id":"cebpf4jnsgd1na2vs0mg"},{"bike_id":"1dad735d-481e-47ff-8bf7-942577eed167","system_id":"levelo_inurba_marseille","lat":43.23151,"lon":5.43706,"is_reserved":false,"is_disabled":false,"rental_uris":{"android":"levelo://app?vid=1dad735d-481e-47ff-8bf7-942577eed167","ios":"levelo://app?vid=1dad735d-481e-47ff-8bf7-942577eed167"},"vehicle_type_id":"4","last_reported":1728299339,"current_range_meters":20000,"station_id":"ce4bhmp2rcd13ifvqgog","pricing_plan_id":"cebpf4jnsgd1na2vs0mg"},{"bike_id":"c91f7103-63c0-4e88-ad9d-c5194f82620f","system_id":"levelo_inurba_marseille","lat":43.28427,"lon":5.4108,"is_reserved":false,"is_disabled":false,"rental_uris":{"android":"levelo://app?vid=c91f7103-63c0-4e88-ad9d-c5194f82620f","ios":"levelo://app?vid=c91f7103-63c0-4e88-ad9d-c5194f82620f"},"vehicle_type_id":"4","last_reported":1728299339,"current_range_meters":36800,"station_id":"","pricing_plan_id":"cebpf4jnsgd1na2vs0mg"},{"bike_id":"490889b1-cee9-4892-9db5-299333956c90","system_id":"levelo_inurba_marseille","lat":43.34145,"lon":5.40915,"is_reserved":false,"is_disabled":false,"rental_uris":{"android":"levelo://app?vid=490889b1-cee9-4892-9db5-299333956c90","ios":"levelo://app?vid=490889b1-cee9-4892-9db5-299333956c90"},"vehicle_type_id":"4","last_reported":1728299339,"current_range_meters":39200,"station_id":"ce4bhqh2rcd13ifvqhlg","pricing_plan_id":"cebpf4jnsgd1na2vs0mg"},{"bike_id":"ea30e775-8466-430d-96e1-a121d270f1bd","system_id":"levelo_inurba_marseille","lat":43.24642,"lon":5.38888,"is_reserved":false,"is_disabled":false,"rental_uris":{"android":"levelo://app?vid=ea30e775-8466-430d-96e1-a121d270f1bd","ios":"levelo://app?vid=ea30e775-8466-430d-96e1-a121d270f1bd"},"vehicle_type_id":"4","last_reported":1728299339,"current_range_meters":36800,"station_id":"ce4bhg12rcd13ifvqf60","pricing_plan_id":"cebpf4jnsgd1na2vs0mg"},{"bike_id":"4378a0dd-7ddd-4246-9294-1e2af02e0700","system_id":"levelo_inurba_marseille","lat":43.23192,"lon":5.35545,"is_reserved":false,"is_disabled":false,"rental_uris":{"android":"levelo://app?vid=4378a0dd-7ddd-4246-9294-1e2af02e0700","ios":"levelo://app?vid=4378a0dd-7ddd-4246-9294-1e2af02e0700"},"vehicle_type_id":"4","last_reported":1728299339,"current_range_meters":6000,"station_id":"ce4bhu92rcd13ifvqi70","pricing_plan_id":"cebpf4jnsgd1na2vs0mg"},{"bike_id":"594a551f-028c-4b5b-8770-f76d6722f290","system_id":"levelo_inurba_marseille","lat":43.33606,"lon":5.41024,"is_reserved":false,"is_disabled":false,"rental_uris":{"android":"levelo://app?vid=594a551f-028c-4b5b-8770-f76d6722f290","ios":"levelo://app?vid=594a551f-028c-4b5b-8770-f76d6722f290"},"vehicle_type_id":"4","last_reported":1728299339,"current_range_meters":8400,"station_id":"ce4bhqh2rcd13ifvqhmg","pricing_plan_id":"cebpf4jnsgd1na2vs0mg"},{"bike_id":"1fbb66fa-7e57-4df8-9848-092ef367157f","system_id":"levelo_inurba_marseille","lat":43.25931,"lon":5.40913,"is_reserved":false,"is_disabled":false,"rental_uris":{"android":"levelo://app?vid=1fbb66fa-7e57-4df8-9848-092ef367157f","ios":"levelo://app?vid=1fbb66fa-7e57-4df8-9848-092ef367157f"},"vehicle_type_id":"4","last_reported":1728299339,"current_range_meters":19200,"station_id":"ce4bhm92rcd13ifvqglg","pricing_plan_id":"cebpf4jnsgd1na2vs0mg"},{"bike_id":"42d15a18-60a2-4a83-b713-12e79302f026","system_id":"levelo_inurba_marseille","lat":43.25817,"lon":5.3943,"is_reserved":false,"is_disabled":false,"rental_uris":{"android":"levelo://app?vid=42d15a18-60a2-4a83-b713-12e79302f026","ios":"levelo://app?vid=42d15a18-60a2-4a83-b713-12e79302f026"},"vehicle_type_id":"4","last_reported":1728299339,"current_range_meters":39200,"station_id":"ce4bhip2rcd13ifvqft0","pricing_plan_id":"cebpf4jnsgd1na2vs0mg"},{"bike_id":"c93f4112-5b69-477e-81b3-55a618735bfe","system_id":"levelo_inurba_marseille","lat":43.29916,"lon":5.37474,"is_reserved":false,"is_disabled":false,"rental_uris":{"android":"levelo://app?vid=c93f4112-5b69-477e-81b3-55a618735bfe","ios":"levelo://app?vid=c93f4112-5b69-477e-81b3-55a618735bfe"},"vehicle_type_id":"4","last_reported":1728299339,"current_range_meters":24000,"station_id":"ce4bgjh2rcd13ifvqbg0","pricing_plan_id":"cebpf4jnsgd1na2vs0mg"},{"bike_id":"93d45870-2e1c-4ed1-9664-7b219a4ed443","system_id":"levelo_inurba_marseille","lat":43.22931,"lon":5.35382,"is_reserved":false,"is_disabled":false,"rental_uris":{"android":"levelo://app?vid=93d45870-2e1c-4ed1-9664-7b219a4ed443","ios":"levelo://app?vid=93d45870-2e1c-4ed1-9664-7b219a4ed443"},"vehicle_type_id":"4","last_reported":1728299339,"current_range_meters":36800,"station_id":"cpo3532slgdg3j2ikp40","pricing_plan_id":"cebpf4jnsgd1na2vs0mg"},{"bike_id":"554a0d78-56a7-4c3c-abde-8467eb551556","system_id":"levelo_inurba_marseille","lat":43.29728,"lon":5.37689,"is_reserved":false,"is_disabled":false,"rental_uris":{"android":"levelo://app?vid=554a0d78-56a7-4c3c-abde-8467eb551556","ios":"levelo://app?vid=554a0d78-56a7-4c3c-abde-8467eb551556"},"vehicle_type_id":"4","last_reported":1728299339,"current_range_meters":38400,"station_id":"ce4bgkh2rcd13ifvqbl0","pricing_plan_id":"cebpf4jnsgd1na2vs0mg"},{"bike_id":"6e512044-ef12-457b-bcca-26bd86c5618a","system_id":"levelo_inurba_marseille","lat":43.23061,"lon":5.3549,"is_reserved":false,"is_disabled":false,"rental_uris":{"android":"levelo://app?vid=6e512044-ef12-457b-bcca-26bd86c5618a","ios":"levelo://app?vid=6e512044-ef12-457b-bcca-26bd86c5618a"},"vehicle_type_id":"4","last_reported":1728299339,"current_range_meters":36800,"station_id":"cpo3342slgdg3j2ifvpg","pricing_plan_id":"cebpf4jnsgd1na2vs0mg"},{"bike_id":"84cf3b36-9c65-4590-9b0a-0c434de3a2c7","system_id":"levelo_inurba_marseille","lat":43.295593,"lon":5.375153,"is_reserved":false,"is_disabled":false,"rental_uris":{"android":"levelo://app?vid=84cf3b36-9c65-4590-9b0a-0c434de3a2c7","ios":"levelo://app?vid=84cf3b36-9c65-4590-9b0a-0c434de3a2c7"},"vehicle_type_id":"4","last_reported":1728299339,"current_range_meters":30400,"station_id":"ce4bha92rcd13ifvqeh0","pricing_plan_id":"cebpf4jnsgd1na2vs0mg"},{"bike_id":"3f82fe54-bf2c-458b-9b60-5079dcf252bd","system_id":"levelo_inurba_marseille","lat":43.27058,"lon":5.40259,"is_reserved":false,"is_disabled":false,"rental_uris":{"android":"levelo://app?vid=3f82fe54-bf2c-458b-9b60-5079dcf252bd","ios":"levelo://app?vid=3f82fe54-bf2c-458b-9b60-5079dcf252bd"},"vehicle_type_id":"4","last_reported":1728299339,"current_range_meters":10800,"station_id":"ce4bhk92rcd13ifvqgc0","pricing_plan_id":"cebpf4jnsgd1na2vs0mg"},{"bike_id":"2775781b-d30f-4f5b-a24a-c4830ad4c08f","system_id":"levelo_inurba_marseille","lat":43.2587,"lon":5.399,"is_reserved":false,"is_disabled":false,"rental_uris":{"android":"levelo://app?vid=2775781b-d30f-4f5b-a24a-c4830ad4c08f","ios":"levelo://app?vid=2775781b-d30f-4f5b-a24a-c4830ad4c08f"},"vehicle_type_id":"4","last_reported":1728299339,"current_range_meters":38800,"station_id":"ce4bhl92rcd13ifvqghg","pricing_plan_id":"cebpf4jnsgd1na2vs0mg"},{"bike_id":"270b90ca-7521-4165-af49-e1c727e5fa34","system_id":"levelo_inurba_marseille","lat":43.24165,"lon":5.36395,"is_reserved":false,"is_disabled":false,"rental_uris":{"android":"levelo://app?vid=270b90ca-7521-4165-af49-e1c727e5fa34","ios":"levelo://app?vid=270b90ca-7521-4165-af49-e1c727e5fa34"},"vehicle_type_id":"4","last_reported":1728299339,"current_range_meters":28800,"station_id":"cpo36qri1sfpv3e86is0","pricing_plan_id":"cebpf4jnsgd1na2vs0mg"},{"bike_id":"c1888b84-49e8-46a0-9251-a184dc8878ed","system_id":"levelo_inurba_marseille","lat":43.295736,"lon":5.375208,"is_reserved":false,"is_disabled":false,"rental_uris":{"android":"levelo://app?vid=c1888b84-49e8-46a0-9251-a184dc8878ed","ios":"levelo://app?vid=c1888b84-49e8-46a0-9251-a184dc8878ed"},"vehicle_type_id":"4","last_reported":1728299339,"current_range_meters":4400,"station_id":"ce4bgph2rcd13ifvqc2g","pricing_plan_id":"cebpf4jnsgd1na2vs0mg"},{"bike_id":"b6f8d372-e2ef-4ee3-b5b2-9ead9728fe6d","system_id":"levelo_inurba_marseille","lat":43.27915,"lon":5.39579,"is_reserved":false,"is_disabled":false,"rental_uris":{"android":"levelo://app?vid=b6f8d372-e2ef-4ee3-b5b2-9ead9728fe6d","ios":"levelo://app?vid=b6f8d372-e2ef-4ee3-b5b2-9ead9728fe6d"},"vehicle_type_id":"4","last_reported":1728299339,"current_range_meters":28000,"station_id":"ce4bhf92rcd13ifvqf40","pricing_plan_id":"cebpf4jnsgd1na2vs0mg"},{"bike_id":"824e294a-c810-4688-b9ec-efc7382fd889","system_id":"levelo_inurba_marseille","lat":43.31085,"lon":5.42428,"is_reserved":false,"is_disabled":false,"rental_uris":{"android":"levelo://app?vid=824e294a-c810-4688-b9ec-efc7382fd889","ios":"levelo://app?vid=824e294a-c810-4688-b9ec-efc7382fd889"},"vehicle_type_id":"4","last_reported":1728299339,"current_range_meters":25600,"station_id":"ce4bhp92rcd13ifvqhag","pricing_plan_id":"cebpf4jnsgd1na2vs0mg"},{"bike_id":"68fb737a-e737-47ae-8299-1bc61af6129e","system_id":"levelo_inurba_marseille","lat":43.30542,"lon":5.36714,"is_reserved":false,"is_disabled":false,"rental_uris":{"android":"levelo://app?vid=68fb737a-e737-47ae-8299-1bc61af6129e","ios":"levelo://app?vid=68fb737a-e737-47ae-8299-1bc61af6129e"},"vehicle_type_id":"4","last_reported":1728299339,"current_range_meters":15200,"station_id":"ce4bgrp2rcd13ifvqc9g","pricing_plan_id":"cebpf4jnsgd1na2vs0mg"},{"bike_id":"c183db99-7e6e-4bad-b9dd-a229d8abc351","system_id":"levelo_inurba_marseille","lat":43.25822,"lon":5.39436,"is_reserved":false,"is_disabled":false,"rental_uris":{"android":"levelo://app?vid=c183db99-7e6e-4bad-b9dd-a229d8abc351","ios":"levelo://app?vid=c183db99-7e6e-4bad-b9dd-a229d8abc351"},"vehicle_type_id":"4","last_reported":1728299339,"current_range_meters":12400,"station_id":"ce4bhip2rcd13ifvqft0","pricing_plan_id":"cebpf4jnsgd1na2vs0mg"},{"bike_id":"febb7358-6a56-42e2-9c21-684ff62411a8","system_id":"levelo_inurba_marseille","lat":43.29524,"lon":5.39037,"is_reserved":false,"is_disabled":false,"rental_uris":{"android":"levelo://app?vid=febb7358-6a56-42e2-9c21-684ff62411a8","ios":"levelo://app?vid=febb7358-6a56-42e2-9c21-684ff62411a8"},"vehicle_type_id":"4","last_reported":1728299339,"current_range_meters":6000,"station_id":"ce4bh3p2rcd13ifvqdp0","pricing_plan_id":"cebpf4jnsgd1na2vs0mg"},{"bike_id":"06df9c32-b397-475a-bac7-73b993f21e18","system_id":"levelo_inurba_marseille","lat":43.26554,"lon":5.37285,"is_reserved":false,"is_disabled":false,"rental_uris":{"android":"levelo://app?vid=06df9c32-b397-475a-bac7-73b993f21e18","ios":"levelo://app?vid=06df9c32-b397-475a-bac7-73b993f21e18"},"vehicle_type_id":"4","last_reported":1728299339,"current_range_meters":28400,"station_id":"ce4bhg12rcd13ifvqf70","pricing_plan_id":"cebpf4jnsgd1na2vs0mg"},{"bike_id":"413f5d1b-8471-48f7-a728-52f65fd2cacc","system_id":"levelo_inurba_marseille","lat":43.29372,"lon":5.37863,"is_reserved":false,"is_disabled":false,"rental_uris":{"android":"levelo://app?vid=413f5d1b-8471-48f7-a728-52f65fd2cacc","ios":"levelo://app?vid=413f5d1b-8471-48f7-a728-52f65fd2cacc"},"vehicle_type_id":"4","last_reported":1728299339,"current_range_meters":37600,"station_id":"ce4bgjh2rcd13ifvqbf0","pricing_plan_id":"cebpf4jnsgd1na2vs0mg"},{"bike_id":"85081b74-3c48-4b75-b6b6-b181683e784a","system_id":"levelo_inurba_marseille","lat":43.25723,"lon":5.41114,"is_reserved":false,"is_disabled":false,"rental_uris":{"android":"levelo://app?vid=85081b74-3c48-4b75-b6b6-b181683e784a","ios":"levelo://app?vid=85081b74-3c48-4b75-b6b6-b181683e784a"},"vehicle_type_id":"4","last_reported":1728299339,"current_range_meters":34800,"station_id":"ce4bhkp2rcd13ifvqgd0","pricing_plan_id":"cebpf4jnsgd1na2vs0mg"},{"bike_id":"ca150432-5632-417f-a220-d6e10e3598a2","system_id":"levelo_inurba_marseille","lat":43.29893,"lon":5.43668,"is_reserved":false,"is_disabled":false,"rental_uris":{"android":"levelo://app?vid=ca150432-5632-417f-a220-d6e10e3598a2","ios":"levelo://app?vid=ca150432-5632-417f-a220-d6e10e3598a2"},"vehicle_type_id":"4","last_reported":1728299339,"current_range_meters":39200,"station_id":"ce4bhpp2rcd13ifvqhfg","pricing_plan_id":"cebpf4jnsgd1na2vs0mg"},{"bike_id":"e209dd5c-0d10-4561-adda-dad860e62fd5","system_id":"levelo_inurba_marseille","lat":43.305428,"lon":5.367095,"is_reserved":false,"is_disabled":false,"rental_uris":{"android":"levelo://app?vid=e209dd5c-0d10-4561-adda-dad860e62fd5","ios":"levelo://app?vid=e209dd5c-0d10-4561-adda-dad860e62fd5"},"vehicle_type_id":"4","last_reported":1728299339,"current_range_meters":39200,"station_id":"ce4bgrp2rcd13ifvqc9g","pricing_plan_id":"cebpf4jnsgd1na2vs0mg"},{"bike_id":"16333a68-6e7d-4387-bc22-9d119bedfd62","system_id":"levelo_inurba_marseille","lat":43.29781,"lon":5.39348,"is_reserved":false,"is_disabled":false,"rental_uris":{"android":"levelo://app?vid=16333a68-6e7d-4387-bc22-9d119bedfd62","ios":"levelo://app?vid=16333a68-6e7d-4387-bc22-9d119bedfd62"},"vehicle_type_id":"4","last_reported":1728299339,"current_range_meters":32000,"station_id":"chh1huq6cuj3fo74tm60","pricing_plan_id":"cebpf4jnsgd1na2vs0mg"},{"bike_id":"936a8948-8dc5-434d-a27f-6806576a3879","system_id":"levelo_inurba_marseille","lat":43.301912,"lon":5.366265,"is_reserved":false,"is_disabled":false,"rental_uris":{"android":"levelo://app?vid=936a8948-8dc5-434d-a27f-6806576a3879","ios":"levelo://app?vid=936a8948-8dc5-434d-a27f-6806576a3879"},"vehicle_type_id":"4","last_reported":1728299339,"current_range_meters":27600,"station_id":"ce4bgrh2rcd13ifvqc8g","pricing_plan_id":"cebpf4jnsgd1na2vs0mg"},{"bike_id":"bdc73fde-37ad-4ede-a6cb-0992eb4b4fbf","system_id":"levelo_inurba_marseille","lat":43.28421,"lon":5.34987,"is_reserved":false,"is_disabled":false,"rental_uris":{"android":"levelo://app?vid=bdc73fde-37ad-4ede-a6cb-0992eb4b4fbf","ios":"levelo://app?vid=bdc73fde-37ad-4ede-a6cb-0992eb4b4fbf"},"vehicle_type_id":"4","last_reported":1728299339,"current_range_meters":18800,"station_id":"ce4bhbh2rcd13ifvqepg","pricing_plan_id":"cebpf4jnsgd1na2vs0mg"},{"bike_id":"de7b61ce-9a77-48b8-b281-c8a3b04be6be","system_id":"levelo_inurba_marseille","lat":43.29604,"lon":5.36891,"is_reserved":false,"is_disabled":false,"rental_uris":{"android":"levelo://app?vid=de7b61ce-9a77-48b8-b281-c8a3b04be6be","ios":"levelo://app?vid=de7b61ce-9a77-48b8-b281-c8a3b04be6be"},"vehicle_type_id":"4","last_reported":1728299339,"current_range_meters":20000,"station_id":"","pricing_plan_id":"cebpf4jnsgd1na2vs0mg"},{"bike_id":"c2eafa11-ad6c-4f3b-b6e4-6e6fc5d9785c","system_id":"levelo_inurba_marseille","lat":43.29895,"lon":5.43665,"is_reserved":false,"is_disabled":false,"rental_uris":{"android":"levelo://app?vid=c2eafa11-ad6c-4f3b-b6e4-6e6fc5d9785c","ios":"levelo://app?vid=c2eafa11-ad6c-4f3b-b6e4-6e6fc5d9785c"},"vehicle_type_id":"4","last_reported":1728299339,"current_range_meters":40000,"station_id":"ce4bhpp2rcd13ifvqhfg","pricing_plan_id":"cebpf4jnsgd1na2vs0mg"},{"bike_id":"dd60268c-f835-42e9-aa29-a3351a371bfa","system_id":"levelo_inurba_marseille","lat":43.30784,"lon":5.3766,"is_reserved":false,"is_disabled":false,"rental_uris":{"android":"levelo://app?vid=dd60268c-f835-42e9-aa29-a3351a371bfa","ios":"levelo://app?vid=dd60268c-f835-42e9-aa29-a3351a371bfa"},"vehicle_type_id":"4","last_reported":1728299339,"current_range_meters":8800,"station_id":"ce4bgv92rcd13ifvqcq0","pricing_plan_id":"cebpf4jnsgd1na2vs0mg"},{"bike_id":"dae6e222-d23b-42cd-850e-25e8d8cce9fd","system_id":"levelo_inurba_marseille","lat":43.30142,"lon":5.37419,"is_reserved":false,"is_disabled":false,"rental_uris":{"android":"levelo://app?vid=dae6e222-d23b-42cd-850e-25e8d8cce9fd","ios":"levelo://app?vid=dae6e222-d23b-42cd-850e-25e8d8cce9fd"},"vehicle_type_id":"4","last_reported":1728299339,"current_range_meters":28400,"station_id":"ce4bgs92rcd13ifvqcc0","pricing_plan_id":"cebpf4jnsgd1na2vs0mg"},{"bike_id":"6a231eb1-bb55-429a-9a26-8ab1386b6a0b","system_id":"levelo_inurba_marseille","lat":43.25115,"lon":5.40327,"is_reserved":false,"is_disabled":false,"rental_uris":{"android":"levelo://app?vid=6a231eb1-bb55-429a-9a26-8ab1386b6a0b","ios":"levelo://app?vid=6a231eb1-bb55-429a-9a26-8ab1386b6a0b"},"vehicle_type_id":"4","last_reported":1728299339,"current_range_meters":37600,"station_id":"ce4bhlh2rcd13ifvqgig","pricing_plan_id":"cebpf4jnsgd1na2vs0mg"},{"bike_id":"d6a904eb-96a5-4bea-a586-e8aaeedf5f4c","system_id":"levelo_inurba_marseille","lat":43.25723,"lon":5.41111,"is_reserved":false,"is_disabled":false,"rental_uris":{"android":"levelo://app?vid=d6a904eb-96a5-4bea-a586-e8aaeedf5f4c","ios":"levelo://app?vid=d6a904eb-96a5-4bea-a586-e8aaeedf5f4c"},"vehicle_type_id":"4","last_reported":1728299339,"current_range_meters":36000,"station_id":"ce4bhkp2rcd13ifvqgd0","pricing_plan_id":"cebpf4jnsgd1na2vs0mg"},{"bike_id":"f6849e98-e59e-4bc2-8e5a-02bcbb272aa6","system_id":"levelo_inurba_marseille","lat":43.33757,"lon":5.37459,"is_reserved":false,"is_disabled":false,"rental_uris":{"android":"levelo://app?vid=f6849e98-e59e-4bc2-8e5a-02bcbb272aa6","ios":"levelo://app?vid=f6849e98-e59e-4bc2-8e5a-02bcbb272aa6"},"vehicle_type_id":"4","last_reported":1728299339,"current_range_meters":38400,"station_id":"","pricing_plan_id":"cebpf4jnsgd1na2vs0mg"},{"bike_id":"f7612392-4f4b-453b-a64c-499de3c2600f","system_id":"levelo_inurba_marseille","lat":43.24163,"lon":5.36391,"is_reserved":false,"is_disabled":false,"rental_uris":{"android":"levelo://app?vid=f7612392-4f4b-453b-a64c-499de3c2600f","ios":"levelo://app?vid=f7612392-4f4b-453b-a64c-499de3c2600f"},"vehicle_type_id":"4","last_reported":1728299339,"current_range_meters":36800,"station_id":"cpo36qri1sfpv3e86is0","pricing_plan_id":"cebpf4jnsgd1na2vs0mg"},{"bike_id":"b4da9d8b-9301-478c-9f01-3fa9f5b15d66","system_id":"levelo_inurba_marseille","lat":43.33599,"lon":5.41026,"is_reserved":false,"is_disabled":false,"rental_uris":{"android":"levelo://app?vid=b4da9d8b-9301-478c-9f01-3fa9f5b15d66","ios":"levelo://app?vid=b4da9d8b-9301-478c-9f01-3fa9f5b15d66"},"vehicle_type_id":"4","last_reported":1728299339,"current_range_meters":36400,"station_id":"ce4bhqh2rcd13ifvqhmg","pricing_plan_id":"cebpf4jnsgd1na2vs0mg"},{"bike_id":"d564790b-0852-4675-98f3-130b2123dbf4","system_id":"levelo_inurba_marseille","lat":43.2558,"lon":5.38233,"is_reserved":false,"is_disabled":false,"rental_uris":{"android":"levelo://app?vid=d564790b-0852-4675-98f3-130b2123dbf4","ios":"levelo://app?vid=d564790b-0852-4675-98f3-130b2123dbf4"},"vehicle_type_id":"4","last_reported":1728299339,"current_range_meters":39200,"station_id":"ce4bhih2rcd13ifvqfs0","pricing_plan_id":"cebpf4jnsgd1na2vs0mg"},{"bike_id":"f759cb75-8a44-4b6d-9b74-85704648991c","system_id":"levelo_inurba_marseille","lat":43.2979,"lon":5.39349,"is_reserved":false,"is_disabled":false,"rental_uris":{"android":"levelo://app?vid=f759cb75-8a44-4b6d-9b74-85704648991c","ios":"levelo://app?vid=f759cb75-8a44-4b6d-9b74-85704648991c"},"vehicle_type_id":"4","last_reported":1728299339,"current_range_meters":36000,"station_id":"chh1huq6cuj3fo74tm60","pricing_plan_id":"cebpf4jnsgd1na2vs0mg"},{"bike_id":"acc4a158-79c4-46ea-892f-f92f49cbf36e","system_id":"levelo_inurba_marseille","lat":43.29847,"lon":5.36287,"is_reserved":false,"is_disabled":false,"rental_uris":{"android":"levelo://app?vid=acc4a158-79c4-46ea-892f-f92f49cbf36e","ios":"levelo://app?vid=acc4a158-79c4-46ea-892f-f92f49cbf36e"},"vehicle_type_id":"4","last_reported":1728299339,"current_range_meters":39200,"station_id":"ce4bgpp2rcd13ifvqc3g","pricing_plan_id":"cebpf4jnsgd1na2vs0mg"},{"bike_id":"0fae0579-21a9-437c-87f5-9c07357a6f20","system_id":"levelo_inurba_marseille","lat":43.25932,"lon":5.40915,"is_reserved":false,"is_disabled":false,"rental_uris":{"android":"levelo://app?vid=0fae0579-21a9-437c-87f5-9c07357a6f20","ios":"levelo://app?vid=0fae0579-21a9-437c-87f5-9c07357a6f20"},"vehicle_type_id":"4","last_reported":1728299339,"current_range_meters":22400,"station_id":"ce4bhm92rcd13ifvqglg","pricing_plan_id":"cebpf4jnsgd1na2vs0mg"},{"bike_id":"66a81085-1a96-4f65-934a-3195a2059afa","system_id":"levelo_inurba_marseille","lat":43.24648,"lon":5.38907,"is_reserved":false,"is_disabled":false,"rental_uris":{"android":"levelo://app?vid=66a81085-1a96-4f65-934a-3195a2059afa","ios":"levelo://app?vid=66a81085-1a96-4f65-934a-3195a2059afa"},"vehicle_type_id":"4","last_reported":1728299339,"current_range_meters":38800,"station_id":"ce4bhg12rcd13ifvqf60","pricing_plan_id":"cebpf4jnsgd1na2vs0mg"},{"bike_id":"ab1618e0-2572-41ef-8dd5-92073ee89692","system_id":"levelo_inurba_marseille","lat":43.2707,"lon":5.4228,"is_reserved":false,"is_disabled":false,"rental_uris":{"android":"levelo://app?vid=ab1618e0-2572-41ef-8dd5-92073ee89692","ios":"levelo://app?vid=ab1618e0-2572-41ef-8dd5-92073ee89692"},"vehicle_type_id":"4","last_reported":1728299339,"current_range_meters":12000,"station_id":"ce4bhk92rcd13ifvqgb0","pricing_plan_id":"cebpf4jnsgd1na2vs0mg"},{"bike_id":"6e97b550-061f-429f-98b0-3a51c87570a0","system_id":"levelo_inurba_marseille","lat":43.25502,"lon":5.37651,"is_reserved":false,"is_disabled":false,"rental_uris":{"android":"levelo://app?vid=6e97b550-061f-429f-98b0-3a51c87570a0","ios":"levelo://app?vid=6e97b550-061f-429f-98b0-3a51c87570a0"},"vehicle_type_id":"4","last_reported":1728299339,"current_range_meters":15200,"station_id":"ce4bhh12rcd13ifvqff0","pricing_plan_id":"cebpf4jnsgd1na2vs0mg"},{"bike_id":"a7361360-d862-4c7a-b0d9-8d00592290fe","system_id":"levelo_inurba_marseille","lat":43.25119,"lon":5.40314,"is_reserved":false,"is_disabled":false,"rental_uris":{"android":"levelo://app?vid=a7361360-d862-4c7a-b0d9-8d00592290fe","ios":"levelo://app?vid=a7361360-d862-4c7a-b0d9-8d00592290fe"},"vehicle_type_id":"4","last_reported":1728299339,"current_range_meters":38400,"station_id":"ce4bhlh2rcd13ifvqgig","pricing_plan_id":"cebpf4jnsgd1na2vs0mg"},{"bike_id":"2bdb65cd-1e63-4874-80ab-bd72b908164f","system_id":"levelo_inurba_marseille","lat":43.2315,"lon":5.43695,"is_reserved":false,"is_disabled":false,"rental_uris":{"android":"levelo://app?vid=2bdb65cd-1e63-4874-80ab-bd72b908164f","ios":"levelo://app?vid=2bdb65cd-1e63-4874-80ab-bd72b908164f"},"vehicle_type_id":"4","last_reported":1728299339,"current_range_meters":25600,"station_id":"ce4bhmp2rcd13ifvqgog","pricing_plan_id":"cebpf4jnsgd1na2vs0mg"},{"bike_id":"8f62120d-5b25-46f2-acd9-640d5e037c32","system_id":"levelo_inurba_marseille","lat":43.30085,"lon":5.39077,"is_reserved":false,"is_disabled":false,"rental_uris":{"android":"levelo://app?vid=8f62120d-5b25-46f2-acd9-640d5e037c32","ios":"levelo://app?vid=8f62120d-5b25-46f2-acd9-640d5e037c32"},"vehicle_type_id":"4","last_reported":1728299339,"current_range_meters":23200,"station_id":"ce4bh192rcd13ifvqdb0","pricing_plan_id":"cebpf4jnsgd1na2vs0mg"},{"bike_id":"1e237901-05a1-4ed2-aaa3-55fc1e1edbcf","system_id":"levelo_inurba_marseille","lat":43.24387,"lon":5.37057,"is_reserved":false,"is_disabled":false,"rental_uris":{"android":"levelo://app?vid=1e237901-05a1-4ed2-aaa3-55fc1e1edbcf","ios":"levelo://app?vid=1e237901-05a1-4ed2-aaa3-55fc1e1edbcf"},"vehicle_type_id":"4","last_reported":1728299339,"current_range_meters":20800,"station_id":"ce4bhhh2rcd13ifvqfk0","pricing_plan_id":"cebpf4jnsgd1na2vs0mg"},{"bike_id":"025b2914-5a55-4831-9515-ed51afbb3e15","system_id":"levelo_inurba_marseille","lat":43.23149,"lon":5.43704,"is_reserved":false,"is_disabled":false,"rental_uris":{"android":"levelo://app?vid=025b2914-5a55-4831-9515-ed51afbb3e15","ios":"levelo://app?vid=025b2914-5a55-4831-9515-ed51afbb3e15"},"vehicle_type_id":"4","last_reported":1728299339,"current_range_meters":18000,"station_id":"ce4bhmp2rcd13ifvqgog","pricing_plan_id":"cebpf4jnsgd1na2vs0mg"},{"bike_id":"ecda3db5-2c3a-4a73-9aee-9fb22e75ff4c","system_id":"levelo_inurba_marseille","lat":43.26681,"lon":5.38271,"is_reserved":false,"is_disabled":false,"rental_uris":{"android":"levelo://app?vid=ecda3db5-2c3a-4a73-9aee-9fb22e75ff4c","ios":"levelo://app?vid=ecda3db5-2c3a-4a73-9aee-9fb22e75ff4c"},"vehicle_type_id":"4","last_reported":1728299339,"current_range_meters":29600,"station_id":"ce4bhg92rcd13ifvqf90","pricing_plan_id":"cebpf4jnsgd1na2vs0mg"},{"bike_id":"dfc1dadc-2591-4122-bbe3-55d28b54b058","system_id":"levelo_inurba_marseille","lat":43.26056,"lon":5.394,"is_reserved":false,"is_disabled":false,"rental_uris":{"android":"levelo://app?vid=dfc1dadc-2591-4122-bbe3-55d28b54b058","ios":"levelo://app?vid=dfc1dadc-2591-4122-bbe3-55d28b54b058"},"vehicle_type_id":"4","last_reported":1728299339,"current_range_meters":3200,"station_id":"ce4bhh92rcd13ifvqfj0","pricing_plan_id":"cebpf4jnsgd1na2vs0mg"},{"bike_id":"cd17963f-af06-4c50-aaf6-6898bb230635","system_id":"levelo_inurba_marseille","lat":43.27559,"lon":5.38434,"is_reserved":false,"is_disabled":false,"rental_uris":{"android":"levelo://app?vid=cd17963f-af06-4c50-aaf6-6898bb230635","ios":"levelo://app?vid=cd17963f-af06-4c50-aaf6-6898bb230635"},"vehicle_type_id":"4","last_reported":1728299339,"current_range_meters":3200,"station_id":"ce4bhh92rcd13ifvqfi0","pricing_plan_id":"cebpf4jnsgd1na2vs0mg"},{"bike_id":"c1f8a92a-e891-440c-9b38-80f0fe354bd5","system_id":"levelo_inurba_marseille","lat":43.29027,"lon":5.38133,"is_reserved":false,"is_disabled":false,"rental_uris":{"android":"levelo://app?vid=c1f8a92a-e891-440c-9b38-80f0fe354bd5","ios":"levelo://app?vid=c1f8a92a-e891-440c-9b38-80f0fe354bd5"},"vehicle_type_id":"4","last_reported":1728299339,"current_range_meters":21600,"station_id":"ce4bh4p2rcd13ifvqe1g","pricing_plan_id":"cebpf4jnsgd1na2vs0mg"},{"bike_id":"bb70342a-99e3-4e75-9d45-d46903e1b71a","system_id":"levelo_inurba_marseille","lat":43.28613,"lon":5.35106,"is_reserved":false,"is_disabled":false,"rental_uris":{"android":"levelo://app?vid=bb70342a-99e3-4e75-9d45-d46903e1b71a","ios":"levelo://app?vid=bb70342a-99e3-4e75-9d45-d46903e1b71a"},"vehicle_type_id":"4","last_reported":1728299339,"current_range_meters":11200,"station_id":"ce4bhch2rcd13ifvqeug","pricing_plan_id":"cebpf4jnsgd1na2vs0mg"},{"bike_id":"b39da536-923e-4bb1-b061-745f4f2c25c1","system_id":"levelo_inurba_marseille","lat":43.24797,"lon":5.37458,"is_reserved":false,"is_disabled":false,"rental_uris":{"android":"levelo://app?vid=b39da536-923e-4bb1-b061-745f4f2c25c1","ios":"levelo://app?vid=b39da536-923e-4bb1-b061-745f4f2c25c1"},"vehicle_type_id":"4","last_reported":1728299339,"current_range_meters":25600,"station_id":"ce4bhgh2rcd13ifvqfb0","pricing_plan_id":"cebpf4jnsgd1na2vs0mg"},{"bike_id":"c6edcb6c-5445-4d2a-8504-fe6688b69318","system_id":"levelo_inurba_marseille","lat":43.31117,"lon":5.3777,"is_reserved":false,"is_disabled":false,"rental_uris":{"android":"levelo://app?vid=c6edcb6c-5445-4d2a-8504-fe6688b69318","ios":"levelo://app?vid=c6edcb6c-5445-4d2a-8504-fe6688b69318"},"vehicle_type_id":"4","last_reported":1728299339,"current_range_meters":9600,"station_id":"ce4bgt92rcd13ifvqcg0","pricing_plan_id":"cebpf4jnsgd1na2vs0mg"},{"bike_id":"13b0039f-a583-46cf-9deb-910985564f65","system_id":"levelo_inurba_marseille","lat":43.29552,"lon":5.42281,"is_reserved":false,"is_disabled":false,"rental_uris":{"android":"levelo://app?vid=13b0039f-a583-46cf-9deb-910985564f65","ios":"levelo://app?vid=13b0039f-a583-46cf-9deb-910985564f65"},"vehicle_type_id":"4","last_reported":1728299339,"current_range_meters":39200,"station_id":"ce4bhph2rcd13ifvqhdg","pricing_plan_id":"cebpf4jnsgd1na2vs0mg"},{"bike_id":"436385bf-85b3-406d-bf9f-fdbb328155ca","system_id":"levelo_inurba_marseille","lat":43.29787,"lon":5.39337,"is_reserved":false,"is_disabled":false,"rental_uris":{"android":"levelo://app?vid=436385bf-85b3-406d-bf9f-fdbb328155ca","ios":"levelo://app?vid=436385bf-85b3-406d-bf9f-fdbb328155ca"},"vehicle_type_id":"4","last_reported":1728299339,"current_range_meters":2000,"station_id":"chh1huq6cuj3fo74tm60","pricing_plan_id":"cebpf4jnsgd1na2vs0mg"},{"bike_id":"035169f9-3688-40e7-b630-6e0665ca7977","system_id":"levelo_inurba_marseille","lat":43.27811,"lon":5.40715,"is_reserved":false,"is_disabled":false,"rental_uris":{"android":"levelo://app?vid=035169f9-3688-40e7-b630-6e0665ca7977","ios":"levelo://app?vid=035169f9-3688-40e7-b630-6e0665ca7977"},"vehicle_type_id":"4","last_reported":1728299339,"current_range_meters":30000,"station_id":"ce4bhnh2rcd13ifvqgtg","pricing_plan_id":"cebpf4jnsgd1na2vs0mg"},{"bike_id":"c5fc066f-dc85-4fe1-b2a1-f82ce162f80e","system_id":"levelo_inurba_marseille","lat":43.297424,"lon":5.368898,"is_reserved":false,"is_disabled":false,"rental_uris":{"android":"levelo://app?vid=c5fc066f-dc85-4fe1-b2a1-f82ce162f80e","ios":"levelo://app?vid=c5fc066f-dc85-4fe1-b2a1-f82ce162f80e"},"vehicle_type_id":"4","last_reported":1728299339,"current_range_meters":5600,"station_id":"","pricing_plan_id":"cebpf4jnsgd1na2vs0mg"},{"bike_id":"271949df-b061-4edf-a109-ac910b3f5558","system_id":"levelo_inurba_marseille","lat":43.29633,"lon":5.37148,"is_reserved":false,"is_disabled":false,"rental_uris":{"android":"levelo://app?vid=271949df-b061-4edf-a109-ac910b3f5558","ios":"levelo://app?vid=271949df-b061-4edf-a109-ac910b3f5558"},"vehicle_type_id":"4","last_reported":1728299339,"current_range_meters":38400,"station_id":"ce4bgnh2rcd13ifvqc0g","pricing_plan_id":"cebpf4jnsgd1na2vs0mg"},{"bike_id":"c5d05b8d-17f0-475d-a6d8-f2bc26c12031","system_id":"levelo_inurba_marseille","lat":43.25823,"lon":5.39434,"is_reserved":false,"is_disabled":false,"rental_uris":{"android":"levelo://app?vid=c5d05b8d-17f0-475d-a6d8-f2bc26c12031","ios":"levelo://app?vid=c5d05b8d-17f0-475d-a6d8-f2bc26c12031"},"vehicle_type_id":"4","last_reported":1728299339,"current_range_meters":8000,"station_id":"ce4bhip2rcd13ifvqft0","pricing_plan_id":"cebpf4jnsgd1na2vs0mg"},{"bike_id":"19ab3180-048d-4d8a-b271-16960f370501","system_id":"levelo_inurba_marseille","lat":43.33763,"lon":5.37442,"is_reserved":false,"is_disabled":false,"rental_uris":{"android":"levelo://app?vid=19ab3180-048d-4d8a-b271-16960f370501","ios":"levelo://app?vid=19ab3180-048d-4d8a-b271-16960f370501"},"vehicle_type_id":"4","last_reported":1728299339,"current_range_meters":21600,"station_id":"","pricing_plan_id":"cebpf4jnsgd1na2vs0mg"},{"bike_id":"0f1bce6a-0c0c-4e8e-b75d-9b44f69348cc","system_id":"levelo_inurba_marseille","lat":43.26553,"lon":5.37284,"is_reserved":false,"is_disabled":false,"rental_uris":{"android":"levelo://app?vid=0f1bce6a-0c0c-4e8e-b75d-9b44f69348cc","ios":"levelo://app?vid=0f1bce6a-0c0c-4e8e-b75d-9b44f69348cc"},"vehicle_type_id":"4","last_reported":1728299339,"current_range_meters":14400,"station_id":"ce4bhg12rcd13ifvqf70","pricing_plan_id":"cebpf4jnsgd1na2vs0mg"},{"bike_id":"55117765-1d1d-455d-817b-5680f40ee21c","system_id":"levelo_inurba_marseille","lat":43.29302,"lon":5.37468,"is_reserved":false,"is_disabled":false,"rental_uris":{"android":"levelo://app?vid=55117765-1d1d-455d-817b-5680f40ee21c","ios":"levelo://app?vid=55117765-1d1d-455d-817b-5680f40ee21c"},"vehicle_type_id":"4","last_reported":1728299339,"current_range_meters":2800,"station_id":"ce4bgi12rcd13ifvqb70","pricing_plan_id":"cebpf4jnsgd1na2vs0mg"},{"bike_id":"7993bb79-9c2f-4cbb-b5f6-bcccde2a646a","system_id":"levelo_inurba_marseille","lat":43.30311,"lon":5.39203,"is_reserved":false,"is_disabled":false,"rental_uris":{"android":"levelo://app?vid=7993bb79-9c2f-4cbb-b5f6-bcccde2a646a","ios":"levelo://app?vid=7993bb79-9c2f-4cbb-b5f6-bcccde2a646a"},"vehicle_type_id":"4","last_reported":1728299339,"current_range_meters":4400,"station_id":"ce4bgkh2rcd13ifvqbk0","pricing_plan_id":"cebpf4jnsgd1na2vs0mg"},{"bike_id":"84080404-1350-4f53-8fed-274990644de2","system_id":"levelo_inurba_marseille","lat":43.30589,"lon":5.39355,"is_reserved":false,"is_disabled":false,"rental_uris":{"android":"levelo://app?vid=84080404-1350-4f53-8fed-274990644de2","ios":"levelo://app?vid=84080404-1350-4f53-8fed-274990644de2"},"vehicle_type_id":"4","last_reported":1728299339,"current_range_meters":28400,"station_id":"ce4bh0p2rcd13ifvqd80","pricing_plan_id":"cebpf4jnsgd1na2vs0mg"},{"bike_id":"d29f1e3b-190e-4ecc-9ca4-77c1ae246ba2","system_id":"levelo_inurba_marseille","lat":43.27812,"lon":5.40707,"is_reserved":false,"is_disabled":false,"rental_uris":{"android":"levelo://app?vid=d29f1e3b-190e-4ecc-9ca4-77c1ae246ba2","ios":"levelo://app?vid=d29f1e3b-190e-4ecc-9ca4-77c1ae246ba2"},"vehicle_type_id":"4","last_reported":1728299339,"current_range_meters":11200,"station_id":"ce4bhnh2rcd13ifvqgtg","pricing_plan_id":"cebpf4jnsgd1na2vs0mg"},{"bike_id":"7a174cbb-0aac-4140-86f0-3bdbc01ff1c2","system_id":"levelo_inurba_marseille","lat":43.24076,"lon":5.37758,"is_reserved":false,"is_disabled":false,"rental_uris":{"android":"levelo://app?vid=7a174cbb-0aac-4140-86f0-3bdbc01ff1c2","ios":"levelo://app?vid=7a174cbb-0aac-4140-86f0-3bdbc01ff1c2"},"vehicle_type_id":"4","last_reported":1728299339,"current_range_meters":3600,"station_id":"ce4bhnp2rcd13ifvqgvg","pricing_plan_id":"cebpf4jnsgd1na2vs0mg"},{"bike_id":"df313d8f-2534-47c6-9711-162efe19e090","system_id":"levelo_inurba_marseille","lat":43.27923,"lon":5.39585,"is_reserved":false,"is_disabled":false,"rental_uris":{"android":"levelo://app?vid=df313d8f-2534-47c6-9711-162efe19e090","ios":"levelo://app?vid=df313d8f-2534-47c6-9711-162efe19e090"},"vehicle_type_id":"4","last_reported":1728299339,"current_range_meters":6000,"station_id":"ce4bhf92rcd13ifvqf40","pricing_plan_id":"cebpf4jnsgd1na2vs0mg"},{"bike_id":"179fbacd-2083-4cca-9d57-14f0e8e6a688","system_id":"levelo_inurba_marseille","lat":43.30939,"lon":5.40138,"is_reserved":false,"is_disabled":false,"rental_uris":{"android":"levelo://app?vid=179fbacd-2083-4cca-9d57-14f0e8e6a688","ios":"levelo://app?vid=179fbacd-2083-4cca-9d57-14f0e8e6a688"},"vehicle_type_id":"4","last_reported":1728299339,"current_range_meters":10800,"station_id":"ce4bgvp2rcd13ifvqct0","pricing_plan_id":"cebpf4jnsgd1na2vs0mg"},{"bike_id":"e8efbb23-bc30-484e-b44a-ed9a0b01cb9d","system_id":"levelo_inurba_marseille","lat":43.25001,"lon":5.38923,"is_reserved":false,"is_disabled":false,"rental_uris":{"android":"levelo://app?vid=e8efbb23-bc30-484e-b44a-ed9a0b01cb9d","ios":"levelo://app?vid=e8efbb23-bc30-484e-b44a-ed9a0b01cb9d"},"vehicle_type_id":"4","last_reported":1728299339,"current_range_meters":26000,"station_id":"ce4bhgp2rcd13ifvqfd0","pricing_plan_id":"cebpf4jnsgd1na2vs0mg"},{"bike_id":"d7a24e7d-6848-454a-a842-81f792e2ac5f","system_id":"levelo_inurba_marseille","lat":43.3138,"lon":5.38507,"is_reserved":false,"is_disabled":false,"rental_uris":{"android":"levelo://app?vid=d7a24e7d-6848-454a-a842-81f792e2ac5f","ios":"levelo://app?vid=d7a24e7d-6848-454a-a842-81f792e2ac5f"},"vehicle_type_id":"4","last_reported":1728299339,"current_range_meters":32000,"station_id":"ce4bgup2rcd13ifvqcn0","pricing_plan_id":"cebpf4jnsgd1na2vs0mg"},{"bike_id":"384d5afe-b8e8-422c-a1c0-283478c4da5a","system_id":"levelo_inurba_marseille","lat":43.32356,"lon":5.38884,"is_reserved":false,"is_disabled":false,"rental_uris":{"android":"levelo://app?vid=384d5afe-b8e8-422c-a1c0-283478c4da5a","ios":"levelo://app?vid=384d5afe-b8e8-422c-a1c0-283478c4da5a"},"vehicle_type_id":"4","last_reported":1728299339,"current_range_meters":2800,"station_id":"ce4bhqp2rcd13ifvqhog","pricing_plan_id":"cebpf4jnsgd1na2vs0mg"},{"bike_id":"f5996751-c764-4791-831e-46a34b8508b1","system_id":"levelo_inurba_marseille","lat":43.29101,"lon":5.38138,"is_reserved":false,"is_disabled":false,"rental_uris":{"android":"levelo://app?vid=f5996751-c764-4791-831e-46a34b8508b1","ios":"levelo://app?vid=f5996751-c764-4791-831e-46a34b8508b1"},"vehicle_type_id":"4","last_reported":1728299339,"current_range_meters":34800,"station_id":"ce4bh512rcd13ifvqe2g","pricing_plan_id":"cebpf4jnsgd1na2vs0mg"},{"bike_id":"4e0c83a2-b0c3-4894-8559-e509681998d3","system_id":"levelo_inurba_marseille","lat":43.31116,"lon":5.38318,"is_reserved":false,"is_disabled":false,"rental_uris":{"android":"levelo://app?vid=4e0c83a2-b0c3-4894-8559-e509681998d3","ios":"levelo://app?vid=4e0c83a2-b0c3-4894-8559-e509681998d3"},"vehicle_type_id":"4","last_reported":1728299339,"current_range_meters":3200,"station_id":"","pricing_plan_id":"cebpf4jnsgd1na2vs0mg"},{"bike_id":"d4f85512-eff9-43d3-a907-7a6acb590310","system_id":"levelo_inurba_marseille","lat":43.30537,"lon":5.36538,"is_reserved":false,"is_disabled":false,"rental_uris":{"android":"levelo://app?vid=d4f85512-eff9-43d3-a907-7a6acb590310","ios":"levelo://app?vid=d4f85512-eff9-43d3-a907-7a6acb590310"},"vehicle_type_id":"4","last_reported":1728299339,"current_range_meters":38800,"station_id":"ce4bgs12rcd13ifvqcag","pricing_plan_id":"cebpf4jnsgd1na2vs0mg"},{"bike_id":"51af9d46-9cc4-4658-8b8a-b93c8a56e63e","system_id":"levelo_inurba_marseille","lat":43.29955,"lon":5.41322,"is_reserved":false,"is_disabled":false,"rental_uris":{"android":"levelo://app?vid=51af9d46-9cc4-4658-8b8a-b93c8a56e63e","ios":"levelo://app?vid=51af9d46-9cc4-4658-8b8a-b93c8a56e63e"},"vehicle_type_id":"4","last_reported":1728299339,"current_range_meters":26800,"station_id":"ce4bhp12rcd13ifvqh9g","pricing_plan_id":"cebpf4jnsgd1na2vs0mg"},{"bike_id":"96187375-27cf-476f-b0df-40c900959d5d","system_id":"levelo_inurba_marseille","lat":43.24077,"lon":5.37748,"is_reserved":false,"is_disabled":false,"rental_uris":{"android":"levelo://app?vid=96187375-27cf-476f-b0df-40c900959d5d","ios":"levelo://app?vid=96187375-27cf-476f-b0df-40c900959d5d"},"vehicle_type_id":"4","last_reported":1728299339,"current_range_meters":36000,"station_id":"ce4bhnp2rcd13ifvqgvg","pricing_plan_id":"cebpf4jnsgd1na2vs0mg"},{"bike_id":"20f629ed-bd3f-471d-90f0-ea992c265d21","system_id":"levelo_inurba_marseille","lat":43.34142,"lon":5.40911,"is_reserved":false,"is_disabled":false,"rental_uris":{"android":"levelo://app?vid=20f629ed-bd3f-471d-90f0-ea992c265d21","ios":"levelo://app?vid=20f629ed-bd3f-471d-90f0-ea992c265d21"},"vehicle_type_id":"4","last_reported":1728299339,"current_range_meters":6400,"station_id":"ce4bhqh2rcd13ifvqhlg","pricing_plan_id":"cebpf4jnsgd1na2vs0mg"},{"bike_id":"e3579194-22b9-4934-a293-675db565e621","system_id":"levelo_inurba_marseille","lat":43.2315,"lon":5.43718,"is_reserved":false,"is_disabled":false,"rental_uris":{"android":"levelo://app?vid=e3579194-22b9-4934-a293-675db565e621","ios":"levelo://app?vid=e3579194-22b9-4934-a293-675db565e621"},"vehicle_type_id":"4","last_reported":1728299339,"current_range_meters":37600,"station_id":"ce4bhmp2rcd13ifvqgog","pricing_plan_id":"cebpf4jnsgd1na2vs0mg"},{"bike_id":"5443a14c-5c29-4256-8218-8bf5b24edd74","system_id":"levelo_inurba_marseille","lat":43.31527,"lon":5.38037,"is_reserved":false,"is_disabled":false,"rental_uris":{"android":"levelo://app?vid=5443a14c-5c29-4256-8218-8bf5b24edd74","ios":"levelo://app?vid=5443a14c-5c29-4256-8218-8bf5b24edd74"},"vehicle_type_id":"4","last_reported":1728299339,"current_range_meters":38000,"station_id":"ce4bhsp2rcd13ifvqi50","pricing_plan_id":"cebpf4jnsgd1na2vs0mg"},{"bike_id":"c190b4a1-ea1d-47e2-b2e8-eefa3099f9cc","system_id":"levelo_inurba_marseille","lat":43.23191,"lon":5.35556,"is_reserved":false,"is_disabled":false,"rental_uris":{"android":"levelo://app?vid=c190b4a1-ea1d-47e2-b2e8-eefa3099f9cc","ios":"levelo://app?vid=c190b4a1-ea1d-47e2-b2e8-eefa3099f9cc"},"vehicle_type_id":"4","last_reported":1728299339,"current_range_meters":39200,"station_id":"ce4bhu92rcd13ifvqi70","pricing_plan_id":"cebpf4jnsgd1na2vs0mg"},{"bike_id":"7e599760-b082-4670-ab6e-65b82433b691","system_id":"levelo_inurba_marseille","lat":43.29091,"lon":5.3814,"is_reserved":false,"is_disabled":false,"rental_uris":{"android":"levelo://app?vid=7e599760-b082-4670-ab6e-65b82433b691","ios":"levelo://app?vid=7e599760-b082-4670-ab6e-65b82433b691"},"vehicle_type_id":"4","last_reported":1728299339,"current_range_meters":14000,"station_id":"ce4bh512rcd13ifvqe2g","pricing_plan_id":"cebpf4jnsgd1na2vs0mg"},{"bike_id":"fc1b4e09-7fa0-4c4b-aa87-b45e4bbb8eb9","system_id":"levelo_inurba_marseille","lat":43.29808,"lon":5.38103,"is_reserved":false,"is_disabled":false,"rental_uris":{"android":"levelo://app?vid=fc1b4e09-7fa0-4c4b-aa87-b45e4bbb8eb9","ios":"levelo://app?vid=fc1b4e09-7fa0-4c4b-aa87-b45e4bbb8eb9"},"vehicle_type_id":"4","last_reported":1728299339,"current_range_meters":9200,"station_id":"ce4bgip2rcd13ifvqbb0","pricing_plan_id":"cebpf4jnsgd1na2vs0mg"},{"bike_id":"9803f1a9-f386-4cd5-82ea-b6bb5d8e42db","system_id":"levelo_inurba_marseille","lat":43.26948,"lon":5.38627,"is_reserved":false,"is_disabled":false,"rental_uris":{"android":"levelo://app?vid=9803f1a9-f386-4cd5-82ea-b6bb5d8e42db","ios":"levelo://app?vid=9803f1a9-f386-4cd5-82ea-b6bb5d8e42db"},"vehicle_type_id":"4","last_reported":1728299339,"current_range_meters":39200,"station_id":"ce4bhh92rcd13ifvqfh0","pricing_plan_id":"cebpf4jnsgd1na2vs0mg"},{"bike_id":"f8f76ece-43e6-44a9-b368-d97ca628cdcf","system_id":"levelo_inurba_marseille","lat":43.23145,"lon":5.43717,"is_reserved":false,"is_disabled":false,"rental_uris":{"android":"levelo://app?vid=f8f76ece-43e6-44a9-b368-d97ca628cdcf","ios":"levelo://app?vid=f8f76ece-43e6-44a9-b368-d97ca628cdcf"},"vehicle_type_id":"4","last_reported":1728299339,"current_range_meters":39200,"station_id":"ce4bhmp2rcd13ifvqgog","pricing_plan_id":"cebpf4jnsgd1na2vs0mg"},{"bike_id":"d6b32d74-fbd7-4e59-92a4-6fa8ed2ae041","system_id":"levelo_inurba_marseille","lat":43.25116,"lon":5.40311,"is_reserved":false,"is_disabled":false,"rental_uris":{"android":"levelo://app?vid=d6b32d74-fbd7-4e59-92a4-6fa8ed2ae041","ios":"levelo://app?vid=d6b32d74-fbd7-4e59-92a4-6fa8ed2ae041"},"vehicle_type_id":"4","last_reported":1728299339,"current_range_meters":25200,"station_id":"ce4bhlh2rcd13ifvqgig","pricing_plan_id":"cebpf4jnsgd1na2vs0mg"},{"bike_id":"f1a587de-a4d9-42a8-8fe6-d4518f6dd1b0","system_id":"levelo_inurba_marseille","lat":43.23063,"lon":5.35493,"is_reserved":false,"is_disabled":false,"rental_uris":{"android":"levelo://app?vid=f1a587de-a4d9-42a8-8fe6-d4518f6dd1b0","ios":"levelo://app?vid=f1a587de-a4d9-42a8-8fe6-d4518f6dd1b0"},"vehicle_type_id":"4","last_reported":1728299339,"current_range_meters":12800,"station_id":"cpo3342slgdg3j2ifvpg","pricing_plan_id":"cebpf4jnsgd1na2vs0mg"},{"bike_id":"6b4618ac-bf15-42bd-b8ce-f62f3e28352b","system_id":"levelo_inurba_marseille","lat":43.23192,"lon":5.35542,"is_reserved":false,"is_disabled":false,"rental_uris":{"android":"levelo://app?vid=6b4618ac-bf15-42bd-b8ce-f62f3e28352b","ios":"levelo://app?vid=6b4618ac-bf15-42bd-b8ce-f62f3e28352b"},"vehicle_type_id":"4","last_reported":1728299339,"current_range_meters":34000,"station_id":"ce4bhu92rcd13ifvqi70","pricing_plan_id":"cebpf4jnsgd1na2vs0mg"},{"bike_id":"65eeedd2-0269-4c2e-91ff-32237a79af84","system_id":"levelo_inurba_marseille","lat":43.27811,"lon":5.40712,"is_reserved":false,"is_disabled":false,"rental_uris":{"android":"levelo://app?vid=65eeedd2-0269-4c2e-91ff-32237a79af84","ios":"levelo://app?vid=65eeedd2-0269-4c2e-91ff-32237a79af84"},"vehicle_type_id":"4","last_reported":1728299339,"current_range_meters":7200,"station_id":"ce4bhnh2rcd13ifvqgtg","pricing_plan_id":"cebpf4jnsgd1na2vs0mg"},{"bike_id":"a49eaf76-607e-407c-85d8-153589115262","system_id":"levelo_inurba_marseille","lat":43.25938,"lon":5.40902,"is_reserved":false,"is_disabled":false,"rental_uris":{"android":"levelo://app?vid=a49eaf76-607e-407c-85d8-153589115262","ios":"levelo://app?vid=a49eaf76-607e-407c-85d8-153589115262"},"vehicle_type_id":"4","last_reported":1728299339,"current_range_meters":36400,"station_id":"ce4bhm92rcd13ifvqglg","pricing_plan_id":"cebpf4jnsgd1na2vs0mg"},{"bike_id":"4ce1e1e0-b5f3-427c-87ec-0322da4dad60","system_id":"levelo_inurba_marseille","lat":43.29581,"lon":5.36741,"is_reserved":false,"is_disabled":false,"rental_uris":{"android":"levelo://app?vid=4ce1e1e0-b5f3-427c-87ec-0322da4dad60","ios":"levelo://app?vid=4ce1e1e0-b5f3-427c-87ec-0322da4dad60"},"vehicle_type_id":"4","last_reported":1728299339,"current_range_meters":36400,"station_id":"ce4bgph2rcd13ifvqc2g","pricing_plan_id":"cebpf4jnsgd1na2vs0mg"},{"bike_id":"e1981508-8176-4aae-a242-53630f7b837d","system_id":"levelo_inurba_marseille","lat":43.32657,"lon":5.40992,"is_reserved":false,"is_disabled":false,"rental_uris":{"android":"levelo://app?vid=e1981508-8176-4aae-a242-53630f7b837d","ios":"levelo://app?vid=e1981508-8176-4aae-a242-53630f7b837d"},"vehicle_type_id":"4","last_reported":1728299339,"current_range_meters":38000,"station_id":"ce4bhpp2rcd13ifvqhgg","pricing_plan_id":"cebpf4jnsgd1na2vs0mg"},{"bike_id":"03452e9b-ead9-48c8-85f0-ac906de515e7","system_id":"levelo_inurba_marseille","lat":43.26055,"lon":5.39402,"is_reserved":false,"is_disabled":false,"rental_uris":{"android":"levelo://app?vid=03452e9b-ead9-48c8-85f0-ac906de515e7","ios":"levelo://app?vid=03452e9b-ead9-48c8-85f0-ac906de515e7"},"vehicle_type_id":"4","last_reported":1728299339,"current_range_meters":39200,"station_id":"ce4bhh92rcd13ifvqfj0","pricing_plan_id":"cebpf4jnsgd1na2vs0mg"},{"bike_id":"1d152269-c2fa-4900-bfa9-f20a095e29df","system_id":"levelo_inurba_marseille","lat":43.25723,"lon":5.41103,"is_reserved":false,"is_disabled":false,"rental_uris":{"android":"levelo://app?vid=1d152269-c2fa-4900-bfa9-f20a095e29df","ios":"levelo://app?vid=1d152269-c2fa-4900-bfa9-f20a095e29df"},"vehicle_type_id":"4","last_reported":1728299339,"current_range_meters":36400,"station_id":"ce4bhkp2rcd13ifvqgd0","pricing_plan_id":"cebpf4jnsgd1na2vs0mg"},{"bike_id":"25fca34d-d1d1-4912-9ad1-ead795e3fa9a","system_id":"levelo_inurba_marseille","lat":43.3089,"lon":5.37303,"is_reserved":false,"is_disabled":false,"rental_uris":{"android":"levelo://app?vid=25fca34d-d1d1-4912-9ad1-ead795e3fa9a","ios":"levelo://app?vid=25fca34d-d1d1-4912-9ad1-ead795e3fa9a"},"vehicle_type_id":"4","last_reported":1728299339,"current_range_meters":36400,"station_id":"","pricing_plan_id":"cebpf4jnsgd1na2vs0mg"},{"bike_id":"ce4bf0e6-ea68-4292-917b-e82898a7b261","system_id":"levelo_inurba_marseille","lat":43.28436,"lon":5.39185,"is_reserved":false,"is_disabled":false,"rental_uris":{"android":"levelo://app?vid=ce4bf0e6-ea68-4292-917b-e82898a7b261","ios":"levelo://app?vid=ce4bf0e6-ea68-4292-917b-e82898a7b261"},"vehicle_type_id":"4","last_reported":1728299339,"current_range_meters":10000,"station_id":"ce4bhoh2rcd13ifvqh5g","pricing_plan_id":"cebpf4jnsgd1na2vs0mg"},{"bike_id":"ceae7ede-a81e-41c8-b671-3d168e17e516","system_id":"levelo_inurba_marseille","lat":43.24397,"lon":5.37057,"is_reserved":false,"is_disabled":false,"rental_uris":{"android":"levelo://app?vid=ceae7ede-a81e-41c8-b671-3d168e17e516","ios":"levelo://app?vid=ceae7ede-a81e-41c8-b671-3d168e17e516"},"vehicle_type_id":"4","last_reported":1728299339,"current_range_meters":39200,"station_id":"ce4bhhh2rcd13ifvqfk0","pricing_plan_id":"cebpf4jnsgd1na2vs0mg"},{"bike_id":"c642d335-c64f-4b9c-8da8-5d081ad3838d","system_id":"levelo_inurba_marseille","lat":43.23963,"lon":5.36629,"is_reserved":false,"is_disabled":false,"rental_uris":{"android":"levelo://app?vid=c642d335-c64f-4b9c-8da8-5d081ad3838d","ios":"levelo://app?vid=c642d335-c64f-4b9c-8da8-5d081ad3838d"},"vehicle_type_id":"4","last_reported":1728299339,"current_range_meters":24400,"station_id":"ce4bhi12rcd13ifvqfp0","pricing_plan_id":"cebpf4jnsgd1na2vs0mg"},{"bike_id":"926380f0-4ec2-45d5-8c58-de39b75f601e","system_id":"levelo_inurba_marseille","lat":43.23064,"lon":5.3549,"is_reserved":false,"is_disabled":false,"rental_uris":{"android":"levelo://app?vid=926380f0-4ec2-45d5-8c58-de39b75f601e","ios":"levelo://app?vid=926380f0-4ec2-45d5-8c58-de39b75f601e"},"vehicle_type_id":"4","last_reported":1728299339,"current_range_meters":16800,"station_id":"cpo3342slgdg3j2ifvpg","pricing_plan_id":"cebpf4jnsgd1na2vs0mg"},{"bike_id":"713f15d9-f6c7-4c5e-a8ae-244cc841649d","system_id":"levelo_inurba_marseille","lat":43.299744,"lon":5.384737,"is_reserved":false,"is_disabled":false,"rental_uris":{"android":"levelo://app?vid=713f15d9-f6c7-4c5e-a8ae-244cc841649d","ios":"levelo://app?vid=713f15d9-f6c7-4c5e-a8ae-244cc841649d"},"vehicle_type_id":"4","last_reported":1728299339,"current_range_meters":18800,"station_id":"ce4bgj92rcd13ifvqbd0","pricing_plan_id":"cebpf4jnsgd1na2vs0mg"},{"bike_id":"114dbd04-f02e-4a0e-8ca1-55f348020f86","system_id":"levelo_inurba_marseille","lat":43.30908,"lon":5.36849,"is_reserved":false,"is_disabled":false,"rental_uris":{"android":"levelo://app?vid=114dbd04-f02e-4a0e-8ca1-55f348020f86","ios":"levelo://app?vid=114dbd04-f02e-4a0e-8ca1-55f348020f86"},"vehicle_type_id":"4","last_reported":1728299339,"current_range_meters":38800,"station_id":"ce4bgn92rcd13ifvqbvg","pricing_plan_id":"cebpf4jnsgd1na2vs0mg"},{"bike_id":"a485b0d4-2721-435c-b41c-eed272d33850","system_id":"levelo_inurba_marseille","lat":43.25935,"lon":5.40906,"is_reserved":false,"is_disabled":false,"rental_uris":{"android":"levelo://app?vid=a485b0d4-2721-435c-b41c-eed272d33850","ios":"levelo://app?vid=a485b0d4-2721-435c-b41c-eed272d33850"},"vehicle_type_id":"4","last_reported":1728299339,"current_range_meters":22400,"station_id":"ce4bhm92rcd13ifvqglg","pricing_plan_id":"cebpf4jnsgd1na2vs0mg"},{"bike_id":"f283baec-7b1e-448a-bc13-1ac5556b74b6","system_id":"levelo_inurba_marseille","lat":43.27991,"lon":5.40006,"is_reserved":false,"is_disabled":false,"rental_uris":{"android":"levelo://app?vid=f283baec-7b1e-448a-bc13-1ac5556b74b6","ios":"levelo://app?vid=f283baec-7b1e-448a-bc13-1ac5556b74b6"},"vehicle_type_id":"4","last_reported":1728299339,"current_range_meters":37600,"station_id":"ce4bho92rcd13ifvqh4g","pricing_plan_id":"cebpf4jnsgd1na2vs0mg"},{"bike_id":"a4b7b8f9-323a-432a-9fb6-70d4a341a501","system_id":"levelo_inurba_marseille","lat":43.29203,"lon":5.39317,"is_reserved":false,"is_disabled":false,"rental_uris":{"android":"levelo://app?vid=a4b7b8f9-323a-432a-9fb6-70d4a341a501","ios":"levelo://app?vid=a4b7b8f9-323a-432a-9fb6-70d4a341a501"},"vehicle_type_id":"4","last_reported":1728299339,"current_range_meters":27600,"station_id":"ce4bh192rcd13ifvqdd0","pricing_plan_id":"cebpf4jnsgd1na2vs0mg"},{"bike_id":"ab6e6edb-0739-4561-acb1-ffa3c039975c","system_id":"levelo_inurba_marseille","lat":43.26034,"lon":5.37548,"is_reserved":false,"is_disabled":false,"rental_uris":{"android":"levelo://app?vid=ab6e6edb-0739-4561-acb1-ffa3c039975c","ios":"levelo://app?vid=ab6e6edb-0739-4561-acb1-ffa3c039975c"},"vehicle_type_id":"4","last_reported":1728299339,"current_range_meters":25600,"station_id":"ce4bhgh2rcd13ifvqfa0","pricing_plan_id":"cebpf4jnsgd1na2vs0mg"},{"bike_id":"1d958f04-ac0b-401b-a018-002b32dfa8cc","system_id":"levelo_inurba_marseille","lat":43.31236,"lon":5.36863,"is_reserved":false,"is_disabled":false,"rental_uris":{"android":"levelo://app?vid=1d958f04-ac0b-401b-a018-002b32dfa8cc","ios":"levelo://app?vid=1d958f04-ac0b-401b-a018-002b32dfa8cc"},"vehicle_type_id":"4","last_reported":1728299339,"current_range_meters":38000,"station_id":"ce4bgl92rcd13ifvqbq0","pricing_plan_id":"cebpf4jnsgd1na2vs0mg"},{"bike_id":"cf103bc3-846c-4937-9f52-3983e21f817e","system_id":"levelo_inurba_marseille","lat":43.27941,"lon":5.41049,"is_reserved":false,"is_disabled":false,"rental_uris":{"android":"levelo://app?vid=cf103bc3-846c-4937-9f52-3983e21f817e","ios":"levelo://app?vid=cf103bc3-846c-4937-9f52-3983e21f817e"},"vehicle_type_id":"4","last_reported":1728299339,"current_range_meters":31200,"station_id":"ce4bhnp2rcd13ifvqh0g","pricing_plan_id":"cebpf4jnsgd1na2vs0mg"},{"bike_id":"fd4613ce-70f2-45f6-9694-1c55872e4e7b","system_id":"levelo_inurba_marseille","lat":43.29196,"lon":5.35798,"is_reserved":false,"is_disabled":false,"rental_uris":{"android":"levelo://app?vid=fd4613ce-70f2-45f6-9694-1c55872e4e7b","ios":"levelo://app?vid=fd4613ce-70f2-45f6-9694-1c55872e4e7b"},"vehicle_type_id":"4","last_reported":1728299339,"current_range_meters":38400,"station_id":"ce4bhb12rcd13ifvqel0","pricing_plan_id":"cebpf4jnsgd1na2vs0mg"},{"bike_id":"0cca2aff-6a66-4652-b057-085e1406401f","system_id":"levelo_inurba_marseille","lat":43.29622,"lon":5.37174,"is_reserved":false,"is_disabled":false,"rental_uris":{"android":"levelo://app?vid=0cca2aff-6a66-4652-b057-085e1406401f","ios":"levelo://app?vid=0cca2aff-6a66-4652-b057-085e1406401f"},"vehicle_type_id":"4","last_reported":1728299339,"current_range_meters":8400,"station_id":"ce4bgnh2rcd13ifvqc0g","pricing_plan_id":"cebpf4jnsgd1na2vs0mg"},{"bike_id":"c190a9a9-0323-461b-a302-949e348e93c5","system_id":"levelo_inurba_marseille","lat":43.26682,"lon":5.38259,"is_reserved":false,"is_disabled":false,"rental_uris":{"android":"levelo://app?vid=c190a9a9-0323-461b-a302-949e348e93c5","ios":"levelo://app?vid=c190a9a9-0323-461b-a302-949e348e93c5"},"vehicle_type_id":"4","last_reported":1728299339,"current_range_meters":38400,"station_id":"ce4bhg92rcd13ifvqf90","pricing_plan_id":"cebpf4jnsgd1na2vs0mg"},{"bike_id":"d9a32709-5023-4ea9-929c-081e43a80ac6","system_id":"levelo_inurba_marseille","lat":43.30142,"lon":5.37423,"is_reserved":false,"is_disabled":false,"rental_uris":{"android":"levelo://app?vid=d9a32709-5023-4ea9-929c-081e43a80ac6","ios":"levelo://app?vid=d9a32709-5023-4ea9-929c-081e43a80ac6"},"vehicle_type_id":"4","last_reported":1728299339,"current_range_meters":37600,"station_id":"ce4bgs92rcd13ifvqcc0","pricing_plan_id":"cebpf4jnsgd1na2vs0mg"},{"bike_id":"01f815c0-210b-4a10-980b-5d97ccc9da16","system_id":"levelo_inurba_marseille","lat":43.2925,"lon":5.40902,"is_reserved":false,"is_disabled":false,"rental_uris":{"android":"levelo://app?vid=01f815c0-210b-4a10-980b-5d97ccc9da16","ios":"levelo://app?vid=01f815c0-210b-4a10-980b-5d97ccc9da16"},"vehicle_type_id":"4","last_reported":1728299339,"current_range_meters":16800,"station_id":"ce4bh192rcd13ifvqdc0","pricing_plan_id":"cebpf4jnsgd1na2vs0mg"},{"bike_id":"5790fc04-5122-40c2-bb4f-ff0994be96ba","system_id":"levelo_inurba_marseille","lat":43.25499,"lon":5.37643,"is_reserved":false,"is_disabled":false,"rental_uris":{"android":"levelo://app?vid=5790fc04-5122-40c2-bb4f-ff0994be96ba","ios":"levelo://app?vid=5790fc04-5122-40c2-bb4f-ff0994be96ba"},"vehicle_type_id":"4","last_reported":1728299339,"current_range_meters":39200,"station_id":"ce4bhh12rcd13ifvqff0","pricing_plan_id":"cebpf4jnsgd1na2vs0mg"},{"bike_id":"56b6fd59-75e4-4531-8391-9ea094f65b50","system_id":"levelo_inurba_marseille","lat":43.25931,"lon":5.40906,"is_reserved":false,"is_disabled":false,"rental_uris":{"android":"levelo://app?vid=56b6fd59-75e4-4531-8391-9ea094f65b50","ios":"levelo://app?vid=56b6fd59-75e4-4531-8391-9ea094f65b50"},"vehicle_type_id":"4","last_reported":1728299339,"current_range_meters":24000,"station_id":"ce4bhm92rcd13ifvqglg","pricing_plan_id":"cebpf4jnsgd1na2vs0mg"},{"bike_id":"fae76d5c-337e-4038-9275-ab11b0c5dd91","system_id":"levelo_inurba_marseille","lat":43.29707,"lon":5.37695,"is_reserved":false,"is_disabled":false,"rental_uris":{"android":"levelo://app?vid=fae76d5c-337e-4038-9275-ab11b0c5dd91","ios":"levelo://app?vid=fae76d5c-337e-4038-9275-ab11b0c5dd91"},"vehicle_type_id":"4","last_reported":1728299339,"current_range_meters":23200,"station_id":"ce4bgkh2rcd13ifvqbl0","pricing_plan_id":"cebpf4jnsgd1na2vs0mg"},{"bike_id":"c7ccc41e-a0a0-40ee-b7dc-86e99a5fb199","system_id":"levelo_inurba_marseille","lat":43.30893,"lon":5.3719,"is_reserved":false,"is_disabled":false,"rental_uris":{"android":"levelo://app?vid=c7ccc41e-a0a0-40ee-b7dc-86e99a5fb199","ios":"levelo://app?vid=c7ccc41e-a0a0-40ee-b7dc-86e99a5fb199"},"vehicle_type_id":"4","last_reported":1728299339,"current_range_meters":10800,"station_id":"ce4bguh2rcd13ifvqckg","pricing_plan_id":"cebpf4jnsgd1na2vs0mg"},{"bike_id":"f50edce6-f6a7-4079-8726-286f5c0771f0","system_id":"levelo_inurba_marseille","lat":43.27499,"lon":5.42451,"is_reserved":false,"is_disabled":false,"rental_uris":{"android":"levelo://app?vid=f50edce6-f6a7-4079-8726-286f5c0771f0","ios":"levelo://app?vid=f50edce6-f6a7-4079-8726-286f5c0771f0"},"vehicle_type_id":"4","last_reported":1728299339,"current_range_meters":19200,"station_id":"ce4bhn92rcd13ifvqgrg","pricing_plan_id":"cebpf4jnsgd1na2vs0mg"},{"bike_id":"475e0eb9-a4d5-4b17-a1bf-e8dd8e446492","system_id":"levelo_inurba_marseille","lat":43.2978,"lon":5.38109,"is_reserved":false,"is_disabled":false,"rental_uris":{"android":"levelo://app?vid=475e0eb9-a4d5-4b17-a1bf-e8dd8e446492","ios":"levelo://app?vid=475e0eb9-a4d5-4b17-a1bf-e8dd8e446492"},"vehicle_type_id":"4","last_reported":1728299339,"current_range_meters":7200,"station_id":"ce4bgip2rcd13ifvqbb0","pricing_plan_id":"cebpf4jnsgd1na2vs0mg"},{"bike_id":"6dc4ec66-1d84-438f-91c7-395abf99b5f3","system_id":"levelo_inurba_marseille","lat":43.29623,"lon":5.37168,"is_reserved":false,"is_disabled":false,"rental_uris":{"android":"levelo://app?vid=6dc4ec66-1d84-438f-91c7-395abf99b5f3","ios":"levelo://app?vid=6dc4ec66-1d84-438f-91c7-395abf99b5f3"},"vehicle_type_id":"4","last_reported":1728299339,"current_range_meters":30000,"station_id":"ce4bgnh2rcd13ifvqc0g","pricing_plan_id":"cebpf4jnsgd1na2vs0mg"},{"bike_id":"3dee1b2a-ef99-48c5-b0e9-db6ea2626874","system_id":"levelo_inurba_marseille","lat":43.25867,"lon":5.39896,"is_reserved":false,"is_disabled":false,"rental_uris":{"android":"levelo://app?vid=3dee1b2a-ef99-48c5-b0e9-db6ea2626874","ios":"levelo://app?vid=3dee1b2a-ef99-48c5-b0e9-db6ea2626874"},"vehicle_type_id":"4","last_reported":1728299339,"current_range_meters":37600,"station_id":"ce4bhl92rcd13ifvqghg","pricing_plan_id":"cebpf4jnsgd1na2vs0mg"},{"bike_id":"82bee928-3863-41c9-8154-fac35cc61f1e","system_id":"levelo_inurba_marseille","lat":43.29805,"lon":5.38103,"is_reserved":false,"is_disabled":false,"rental_uris":{"android":"levelo://app?vid=82bee928-3863-41c9-8154-fac35cc61f1e","ios":"levelo://app?vid=82bee928-3863-41c9-8154-fac35cc61f1e"},"vehicle_type_id":"4","last_reported":1728299339,"current_range_meters":24000,"station_id":"ce4bgip2rcd13ifvqbb0","pricing_plan_id":"cebpf4jnsgd1na2vs0mg"},{"bike_id":"ece2ae8d-291d-4a92-bd1a-3d100390293f","system_id":"levelo_inurba_marseille","lat":43.27912,"lon":5.39579,"is_reserved":false,"is_disabled":false,"rental_uris":{"android":"levelo://app?vid=ece2ae8d-291d-4a92-bd1a-3d100390293f","ios":"levelo://app?vid=ece2ae8d-291d-4a92-bd1a-3d100390293f"},"vehicle_type_id":"4","last_reported":1728299339,"current_range_meters":33200,"station_id":"ce4bhf92rcd13ifvqf40","pricing_plan_id":"cebpf4jnsgd1na2vs0mg"},