{"last_updated":1737864645,"ttl":60,"version":"2.2","data":{"bikes":[{"bike_id":"a121da0c-7488-4ce0-b19f-d3662404076f","system_id":"levelo_inurba_marseille","lat":43.30186,"lon":5.38071,"is_reserved":false,"is_disabled":false,"rental_uris":{"android":"levelo://app?vid=a121da0c-7488-4ce0-b19f-d3662404076f","ios":"levelo://app?vid=a121da0c-7488-4ce0-b19f-d3662404076f"},"vehicle_type_id":"4","last_reported":1737864645,"current_range_meters":38800,"station_id":"ce4bgjp2rcd13ifvqbh0","pricing_plan_id":"cebpf4jnsgd1na2vs0mg"},{"bike_id":"03c64e80-5e01-4332-bc90-93a2fb6ac145","system_id":"levelo_inurba_marseille","lat":43.22926,"lon":5.35376,"is_reserved":false,"is_disabled":false,"rental_uris":{"android":"levelo://app?vid=03c64e80-5e01-4332-bc90-93a2fb6ac145","ios":"levelo://app?vid=03c64e80-5e01-4332-bc90-93a2fb6ac145"},"vehicle_type_id":"4","last_reported":1737864645,"current_range_meters":38000,"station_id":"cpo3532slgdg3j2ikp40","pricing_plan_id":"cebpf4jnsgd1na2vs0mg"},{"bike_id":"e0631ea5-40c7-4183-acca-178540a0a644","system_id":"levelo_inurba_marseille","lat":43.33603,"lon":5.4101,"is_reserved":false,"is_disabled":false,"rental_uris":{"android":"levelo://app?vid=e0631ea5-40c7-4183-acca-178540a0a644","ios":"levelo://app?vid=e0631ea5-40c7-4183-acca-178540a0a644"},"vehicle_type_id":"4","last_reported":1737864645,"current_range_meters":30000,"station_id":"ce4bhqh2rcd13ifvqhmg","pricing_plan_id":"cebpf4jnsgd1na2vs0mg"},{"bike_id":"7cb17210-e6bd-4f16-9d5a-6665c44a1097","system_id":"levelo_inurba_marseille","lat":43.2605,"lon":5.39391,"is_reserved":false,"is_disabled":false,"rental_uris":{"android":"levelo://app?vid=7cb17210-e6bd-4f16-9d5a-6665c44a1097","ios":"levelo://app?vid=7cb17210-e6bd-4f16-9d5a-6665c44a1097"},"vehicle_type_id":"4","last_reported":1737864645,"current_range_meters":6800,"station_id":"ce4bhh92rcd13ifvqfj0","pricing_plan_id":"cebpf4jnsgd1na2vs0mg"},{"bike_id":"22fdda07-29f7-4097-aa7c-457566d3caba","system_id":"levelo_inurba_marseille","lat":43.25082,"lon":5.39525,"is_reserved":false,"is_disabled":false,"rental_uris":{"android":"levelo://app?vid=22fdda07-29f7-4097-aa7c-457566d3caba","ios":"levelo://app?vid=22fdda07-29f7-4097-aa7c-457566d3caba"},"vehicle_type_id":"4","last_reported":1737864645,"current_range_meters":27600,"station_id":"ce4bhm12rcd13ifvqgkg","pricing_plan_id":"cebpf4jnsgd1na2vs0mg"},{"bike_id":"0f37f612-bab0-4811-95c1-da64c54e0705","system_id":"levelo_inurba_marseille","lat":43.27986,"lon":5.41668,"is_reserved":false,"is_disabled":false,"rental_uris":{"android":"levelo://app?vid=0f37f612-bab0-4811-95c1-da64c54e0705","ios":"levelo://app?vid=0f37f612-bab0-4811-95c1-da64c54e0705"},"vehicle_type_id":"4","last_reported":1737864645,"current_range_meters":38800,"station_id":"ce4bho12rcd13ifvqh1g","pricing_plan_id":"cebpf4jnsgd1na2vs0mg"},{"bike_id":"51883345-3458-45dd-9e33-3e08e918469e","system_id":"levelo_inurba_marseille","lat":43.29183,"lon":5.39317,"is_reserved":false,"is_disabled":false,"rental_uris":{"android":"levelo://app?vid=51883345-3458-45dd-9e33-3e08e918469e","ios":"levelo://app?vid=51883345-3458-45dd-9e33-3e08e918469e"},"vehicle_type_id":"4","last_reported":1737864645,"current_range_meters":16800,"station_id":"ce4bh192rcd13ifvqdd0","pricing_plan_id":"cebpf4jnsgd1na2vs0mg"},{"bike_id":"b037c3ae-8195-465d-9526-617a49374658","system_id":"levelo_inurba_marseille","lat":43.30433,"lon":5.41266,"is_reserved":false,"is_disabled":false,"rental_uris":{"android":"levelo://app?vid=b037c3ae-8195-465d-9526-617a49374658","ios":"levelo://app?vid=b037c3ae-8195-465d-9526-617a49374658"},"vehicle_type_id":"4","last_reported":1737864645,"current_range_meters":28000,"station_id":"ce4bhop2rcd13ifvqh8g","pricing_plan_id":"cebpf4jnsgd1na2vs0mg"},{"bike_id":"58d9e3df-28a3-4560-b2cd-4d33fefbd544","system_id":"levelo_inurba_marseille","lat":43.28342,"lon":5.381,"is_reserved":false,"is_disabled":true,"rental_uris":{"android":"levelo://app?vid=58d9e3df-28a3-4560-b2cd-4d33fefbd544","ios":"levelo://app?vid=58d9e3df-28a3-4560-b2cd-4d33fefbd544"},"vehicle_type_id":"4","last_reported":1737864645,"current_range_meters":18800,"station_id":"ce4bh412rcd13ifvqdr0","pricing_plan_id":"cebpf4jnsgd1na2vs0mg"},{"bike_id":"fafedfd2-2b54-4a5f-91cb-fc447c431bbe","system_id":"levelo_inurba_marseille","lat":43.28661,"lon":5.36359,"is_reserved":false,"is_disabled":true,"rental_uris":{"android":"levelo://app?vid=fafedfd2-2b54-4a5f-91cb-fc447c431bbe","ios":"levelo://app?vid=fafedfd2-2b54-4a5f-91cb-fc447c431bbe"},"vehicle_type_id":"4","last_reported":1737864645,"current_range_meters":0,"station_id":"ce4bhah2rcd13ifvqej0","pricing_plan_id":"cebpf4jnsgd1na2vs0mg"},{"bike_id":"78c3ab73-ff06-4ea5-9a71-dde4bb0ad4cd","system_id":"levelo_inurba_marseille","lat":43.310669,"lon":5.383518,"is_reserved":false,"is_disabled":false,"rental_uris":{"android":"levelo://app?vid=78c3ab73-ff06-4ea5-9a71-dde4bb0ad4cd","ios":"levelo://app?vid=78c3ab73-ff06-4ea5-9a71-dde4bb0ad4cd"},"vehicle_type_id":"4","last_reported":1737864645,"current_range_meters":38000,"station_id":"ce4bgv92rcd13ifvqcr0","pricing_plan_id":"cebpf4jnsgd1na2vs0mg"},{"bike_id":"6c59d583-dfeb-4bdd-85b1-7b2ff5275f42","system_id":"levelo_inurba_marseille","lat":43.30161,"lon":5.37413,"is_reserved":false,"is_disabled":true,"rental_uris":{"android":"levelo://app?vid=6c59d583-dfeb-4bdd-85b1-7b2ff5275f42","ios":"levelo://app?vid=6c59d583-dfeb-4bdd-85b1-7b2ff5275f42"},"vehicle_type_id":"4","last_reported":1737864645,"current_range_meters":37600,"station_id":"ce4bgs92rcd13ifvqcc0","pricing_plan_id":"cebpf4jnsgd1na2vs0mg"},{"bike_id":"1db90dda-92c4-4b8c-8416-3a8f9149ea7f","system_id":"levelo_inurba_marseille","lat":43.30133,"lon":5.3988,"is_reserved":false,"is_disabled":false,"rental_uris":{"android":"levelo://app?vid=1db90dda-92c4-4b8c-8416-3a8f9149ea7f","ios":"levelo://app?vid=1db90dda-92c4-4b8c-8416-3a8f9149ea7f"},"vehicle_type_id":"4","last_reported":1737864645,"current_range_meters":29600,"station_id":"ce4bh0h2rcd13ifvqd40","pricing_plan_id":"cebpf4jnsgd1na2vs0mg"},{"bike_id":"ab709eb0-616b-4c13-8e18-a8dc7e291259","system_id":"levelo_inurba_marseille","lat":43.32489,"lon":5.36563,"is_reserved":false,"is_disabled":false,"rental_uris":{"android":"levelo://app?vid=ab709eb0-616b-4c13-8e18-a8dc7e291259","ios":"levelo://app?vid=ab709eb0-616b-4c13-8e18-a8dc7e291259"},"vehicle_type_id":"4","last_reported":1737864645,"current_range_meters":35200,"station_id":"ce4bhs12rcd13ifvqhvg","pricing_plan_id":"cebpf4jnsgd1na2vs0mg"},{"bike_id":"2cf0555b-4d06-49d0-8682-a633ec82492e","system_id":"levelo_inurba_marseille","lat":43.29557,"lon":5.42289,"is_reserved":false,"is_disabled":false,"rental_uris":{"android":"levelo://app?vid=2cf0555b-4d06-49d0-8682-a633ec82492e","ios":"levelo://app?vid=2cf0555b-4d06-49d0-8682-a633ec82492e"},"vehicle_type_id":"4","last_reported":1737864645,"current_range_meters":11600,"station_id":"ce4bhph2rcd13ifvqhdg","pricing_plan_id":"cebpf4jnsgd1na2vs0mg"},{"bike_id":"6d5c9c01-68b5-4687-9a38-1d9f1ee10405","system_id":"levelo_inurba_marseille","lat":43.30526,"lon":5.36534,"is_reserved":false,"is_disabled":false,"rental_uris":{"android":"levelo://app?vid=6d5c9c01-68b5-4687-9a38-1d9f1ee10405","ios":"levelo://app?vid=6d5c9c01-68b5-4687-9a38-1d9f1ee10405"},"vehicle_type_id":"4","last_reported":1737864645,"current_range_meters":35600,"station_id":"ce4bgs12rcd13ifvqcag","pricing_plan_id":"cebpf4jnsgd1na2vs0mg"},{"bike_id":"7fbd5742-a825-4385-8b7c-1a35575a76ca","system_id":"levelo_inurba_marseille","lat":43.33605,"lon":5.41021,"is_reserved":false,"is_disabled":false,"rental_uris":{"android":"levelo://app?vid=7fbd5742-a825-4385-8b7c-1a35575a76ca","ios":"levelo://app?vid=7fbd5742-a825-4385-8b7c-1a35575a76ca"},"vehicle_type_id":"4","last_reported":1737864645,"current_range_meters":37600,"station_id":"ce4bhqh2rcd13ifvqhmg","pricing_plan_id":"cebpf4jnsgd1na2vs0mg"},{"bike_id":"aca72e04-9577-428c-9e99-b11a608f86f8","system_id":"levelo_inurba_marseille","lat":43.251184,"lon":5.403266,"is_reserved":false,"is_disabled":false,"rental_uris":{"android":"levelo://app?vid=aca72e04-9577-428c-9e99-b11a608f86f8","ios":"levelo://app?vid=aca72e04-9577-428c-9e99-b11a608f86f8"},"vehicle_type_id":"4","last_reported":1737864645,"current_range_meters":38400,"station_id":"ce4bhlh2rcd13ifvqgig","pricing_plan_id":"cebpf4jnsgd1na2vs0mg"},{"bike_id":"ef3c86d5-dce6-4cc8-8627-e1629e6716fe","system_id":"levelo_inurba_marseille","lat":43.29973,"lon":5.38488,"is_reserved":false,"is_disabled":false,"rental_uris":{"android":"levelo://app?vid=ef3c86d5-dce6-4cc8-8627-e1629e6716fe","ios":"levelo://app?vid=ef3c86d5-dce6-4cc8-8627-e1629e6716fe"},"vehicle_type_id":"4","last_reported":1737864645,"current_range_meters":38000,"station_id":"ce4bgj92rcd13ifvqbd0","pricing_plan_id":"cebpf4jnsgd1na2vs0mg"},{"bike_id":"457dbd0e-8f95-45e9-8ae6-40b39a5ca596","system_id":"levelo_inurba_marseille","lat":43.23195,"lon":5.355404,"is_reserved":false,"is_disabled":false,"rental_uris":{"android":"levelo://app?vid=457dbd0e-8f95-45e9-8ae6-40b39a5ca596","ios":"levelo://app?vid=457dbd0e-8f95-45e9-8ae6-40b39a5ca596"},"vehicle_type_id":"4","last_reported":1737864645,"current_range_meters":37600,"station_id":"ce4bhu92rcd13ifvqi70","pricing_plan_id":"cebpf4jnsgd1na2vs0mg"},{"bike_id":"3ef0d460-2db4-4f78-907d-90001fd7ddac","system_id":"levelo_inurba_marseille","lat":43.24537,"lon":5.39532,"is_reserved":false,"is_disabled":false,"rental_uris":{"android":"levelo://app?vid=3ef0d460-2db4-4f78-907d-90001fd7ddac","ios":"levelo://app?vid=3ef0d460-2db4-4f78-907d-90001fd7ddac"},"vehicle_type_id":"4","last_reported":1737864645,"current_range_meters":8400,"station_id":"ce4bhlp2rcd13ifvqgjg","pricing_plan_id":"cebpf4jnsgd1na2vs0mg"},{"bike_id":"e052512e-d0fe-4bbe-8fcb-e38e187d8be4","system_id":"levelo_inurba_marseille","lat":43.23951,"lon":5.36645,"is_reserved":false,"is_disabled":false,"rental_uris":{"android":"levelo://app?vid=e052512e-d0fe-4bbe-8fcb-e38e187d8be4","ios":"levelo://app?vid=e052512e-d0fe-4bbe-8fcb-e38e187d8be4"},"vehicle_type_id":"4","last_reported":1737864645,"current_range_meters":36400,"station_id":"ce4bhi12rcd13ifvqfp0","pricing_plan_id":"cebpf4jnsgd1na2vs0mg"},{"bike_id":"b059518b-cf2e-465f-b01b-867541f3ad91","system_id":"levelo_inurba_marseille","lat":43.240733,"lon":5.377491,"is_reserved":false,"is_disabled":false,"rental_uris":{"android":"levelo://app?vid=b059518b-cf2e-465f-b01b-867541f3ad91","ios":"levelo://app?vid=b059518b-cf2e-465f-b01b-867541f3ad91"},"vehicle_type_id":"4","last_reported":1737864645,"current_range_meters":39200,"station_id":"ce4bhnp2rcd13ifvqgvg","pricing_plan_id":"cebpf4jnsgd1na2vs0mg"},{"bike_id":"a6dc20d9-e9e2-4ffa-bcaa-1071aee1ce96","system_id":"levelo_inurba_marseille","lat":43.28691,"lon":5.37403,"is_reserved":false,"is_disabled":false,"rental_uris":{"android":"levelo://app?vid=a6dc20d9-e9e2-4ffa-bcaa-1071aee1ce96","ios":"levelo://app?vid=a6dc20d9-e9e2-4ffa-bcaa-1071aee1ce96"},"vehicle_type_id":"4","last_reported":1737864645,"current_range_meters":32800,"station_id":"ce4bh3p2rcd13ifvqdq0","pricing_plan_id":"cebpf4jnsgd1na2vs0mg"},{"bike_id":"4e4a5c41-6ed2-435b-9c6a-dbaeecb8e0b1","system_id":"levelo_inurba_marseille","lat":43.29874,"lon":5.43635,"is_reserved":false,"is_disabled":false,"rental_uris":{"android":"levelo://app?vid=4e4a5c41-6ed2-435b-9c6a-dbaeecb8e0b1","ios":"levelo://app?vid=4e4a5c41-6ed2-435b-9c6a-dbaeecb8e0b1"},"vehicle_type_id":"4","last_reported":1737864645,"current_range_meters":17600,"station_id":"ce4bhpp2rcd13ifvqhfg","pricing_plan_id":"cebpf4jnsgd1na2vs0mg"},{"bike_id":"d06b6dd8-7b26-4e14-8483-8f8817ba9baf","system_id":"levelo_inurba_marseille","lat":43.320369,"lon":5.41562,"is_reserved":false,"is_disabled":false,"rental_uris":{"android":"levelo://app?vid=d06b6dd8-7b26-4e14-8483-8f8817ba9baf","ios":"levelo://app?vid=d06b6dd8-7b26-4e14-8483-8f8817ba9baf"},"vehicle_type_id":"4","last_reported":1737864645,"current_range_meters":38000,"station_id":"ce4bhq92rcd13ifvqhkg","pricing_plan_id":"cebpf4jnsgd1na2vs0mg"},{"bike_id":"210624a0-0160-4ca7-abdb-10185ab00b32","system_id":"levelo_inurba_marseille","lat":43.31709,"lon":5.37782,"is_reserved":false,"is_disabled":false,"rental_uris":{"android":"levelo://app?vid=210624a0-0160-4ca7-abdb-10185ab00b32","ios":"levelo://app?vid=210624a0-0160-4ca7-abdb-10185ab00b32"},"vehicle_type_id":"4","last_reported":1737864645,"current_range_meters":39200,"station_id":"ce4bgth2rcd13ifvqch0","pricing_plan_id":"cebpf4jnsgd1na2vs0mg"},{"bike_id":"b757d78d-72f4-4553-b390-90a4fcec6a5c","system_id":"levelo_inurba_marseille","lat":43.29068,"lon":5.3996,"is_reserved":false,"is_disabled":false,"rental_uris":{"android":"levelo://app?vid=b757d78d-72f4-4553-b390-90a4fcec6a5c","ios":"levelo://app?vid=b757d78d-72f4-4553-b390-90a4fcec6a5c"},"vehicle_type_id":"4","last_reported":1737864645,"current_range_meters":38800,"station_id":"ce4bh392rcd13ifvqdm0","pricing_plan_id":"cebpf4jnsgd1na2vs0mg"},{"bike_id":"7e83737e-17a3-4dc8-b275-b52a496072fd","system_id":"levelo_inurba_marseille","lat":43.25504,"lon":5.3766,"is_reserved":false,"is_disabled":false,"rental_uris":{"android":"levelo://app?vid=7e83737e-17a3-4dc8-b275-b52a496072fd","ios":"levelo://app?vid=7e83737e-17a3-4dc8-b275-b52a496072fd"},"vehicle_type_id":"4","last_reported":1737864645,"current_range_meters":38400,"station_id":"ce4bhh12rcd13ifvqff0","pricing_plan_id":"cebpf4jnsgd1na2vs0mg"},{"bike_id":"411f3113-f35c-40e4-a1c2-a823432303b4","system_id":"levelo_inurba_marseille","lat":43.26225,"lon":5.3741,"is_reserved":false,"is_disabled":false,"rental_uris":{"android":"levelo://app?vid=411f3113-f35c-40e4-a1c2-a823432303b4","ios":"levelo://app?vid=411f3113-f35c-40e4-a1c2-a823432303b4"},"vehicle_type_id":"4","last_reported":1737864645,"current_range_meters":38800,"station_id":"","pricing_plan_id":"cebpf4jnsgd1na2vs0mg"},{"bike_id":"57f05a0b-f0fb-46ee-8268-2701b15cfa8d","system_id":"levelo_inurba_marseille","lat":43.30324,"lon":5.4044,"is_reserved":false,"is_disabled":false,"rental_uris":{"android":"levelo://app?vid=57f05a0b-f0fb-46ee-8268-2701b15cfa8d","ios":"levelo://app?vid=57f05a0b-f0fb-46ee-8268-2701b15cfa8d"},"vehicle_type_id":"4","last_reported":1737864645,"current_range_meters":26000,"station_id":"ce4bh012rcd13ifvqd10","pricing_plan_id":"cebpf4jnsgd1na2vs0mg"},{"bike_id":"38cf3c29-8323-4caf-a8eb-ca8be8404bbb","system_id":"levelo_inurba_marseille","lat":43.30907,"lon":5.36859,"is_reserved":false,"is_disabled":false,"rental_uris":{"android":"levelo://app?vid=38cf3c29-8323-4caf-a8eb-ca8be8404bbb","ios":"levelo://app?vid=38cf3c29-8323-4caf-a8eb-ca8be8404bbb"},"vehicle_type_id":"4","last_reported":1737864645,"current_range_meters":38000,"station_id":"ce4bgn92rcd13ifvqbvg","pricing_plan_id":"cebpf4jnsgd1na2vs0mg"},{"bike_id":"e9b18d33-2c32-4c0b-bac5-aee7380b5154","system_id":"levelo_inurba_marseille","lat":43.25086,"lon":5.39517,"is_reserved":false,"is_disabled":false,"rental_uris":{"android":"levelo://app?vid=e9b18d33-2c32-4c0b-bac5-aee7380b5154","ios":"levelo://app?vid=e9b18d33-2c32-4c0b-bac5-aee7380b5154"},"vehicle_type_id":"4","last_reported":1737864645,"current_range_meters":36000,"station_id":"ce4bhm12rcd13ifvqgkg","pricing_plan_id":"cebpf4jnsgd1na2vs0mg"},{"bike_id":"1edc3a9d-b073-4200-8435-21288127161e","system_id":"levelo_inurba_marseille","lat":43.31356,"lon":5.36615,"is_reserved":false,"is_disabled":false,"rental_uris":{"android":"levelo://app?vid=1edc3a9d-b073-4200-8435-21288127161e","ios":"levelo://app?vid=1edc3a9d-b073-4200-8435-21288127161e"},"vehicle_type_id":"4","last_reported":1737864645,"current_range_meters":17200,"station_id":"","pricing_plan_id":"cebpf4jnsgd1na2vs0mg"},{"bike_id":"bb9df935-971d-48fe-841d-0dade0ac91aa","system_id":"levelo_inurba_marseille","lat":43.29537,"lon":5.38545,"is_reserved":false,"is_disabled":true,"rental_uris":{"android":"levelo://app?vid=bb9df935-971d-48fe-841d-0dade0ac91aa","ios":"levelo://app?vid=bb9df935-971d-48fe-841d-0dade0ac91aa"},"vehicle_type_id":"4","last_reported":1737864645,"current_range_meters":32800,"station_id":"ce4bgih2rcd13ifvqba0","pricing_plan_id":"cebpf4jnsgd1na2vs0mg"},{"bike_id":"174cab35-e1dc-4ebb-8798-43784e3fa9e2","system_id":"levelo_inurba_marseille","lat":43.257158,"lon":5.411189,"is_reserved":false,"is_disabled":false,"rental_uris":{"android":"levelo://app?vid=174cab35-e1dc-4ebb-8798-43784e3fa9e2","ios":"levelo://app?vid=174cab35-e1dc-4ebb-8798-43784e3fa9e2"},"vehicle_type_id":"4","last_reported":1737864645,"current_range_meters":38400,"station_id":"ce4bhkp2rcd13ifvqgd0","pricing_plan_id":"cebpf4jnsgd1na2vs0mg"},{"bike_id":"b8c7ac08-94bb-4c1a-be59-442ad905fc87","system_id":"levelo_inurba_marseille","lat":43.29277,"lon":5.3658,"is_reserved":false,"is_disabled":false,"rental_uris":{"android":"levelo://app?vid=b8c7ac08-94bb-4c1a-be59-442ad905fc87","ios":"levelo://app?vid=b8c7ac08-94bb-4c1a-be59-442ad905fc87"},"vehicle_type_id":"4","last_reported":1737864645,"current_range_meters":31200,"station_id":"","pricing_plan_id":"cebpf4jnsgd1na2vs0mg"},{"bike_id":"50ec5238-6e67-46cf-b206-0c6c3c9dc0b0","system_id":"levelo_inurba_marseille","lat":43.28045,"lon":5.36941,"is_reserved":false,"is_disabled":false,"rental_uris":{"android":"levelo://app?vid=50ec5238-6e67-46cf-b206-0c6c3c9dc0b0","ios":"levelo://app?vid=50ec5238-6e67-46cf-b206-0c6c3c9dc0b0"},"vehicle_type_id":"4","last_reported":1737864645,"current_range_meters":32800,"station_id":"ce4bha12rcd13ifvqef0","pricing_plan_id":"cebpf4jnsgd1na2vs0mg"},{"bike_id":"e91982ef-9eef-4b87-824e-c21fd294199b","system_id":"levelo_inurba_marseille","lat":43.29558,"lon":5.42294,"is_reserved":false,"is_disabled":false,"rental_uris":{"android":"levelo://app?vid=e91982ef-9eef-4b87-824e-c21fd294199b","ios":"levelo://app?vid=e91982ef-9eef-4b87-824e-c21fd294199b"},"vehicle_type_id":"4","last_reported":1737864645,"current_range_meters":9600,"station_id":"ce4bhph2rcd13ifvqhdg","pricing_plan_id":"cebpf4jnsgd1na2vs0mg"},{"bike_id":"06d13d29-eb19-461d-abbd-d6a2089df510","system_id":"levelo_inurba_marseille","lat":43.28606,"lon":5.35113,"is_reserved":false,"is_disabled":false,"rental_uris":{"android":"levelo://app?vid=06d13d29-eb19-461d-abbd-d6a2089df510","ios":"levelo://app?vid=06d13d29-eb19-461d-abbd-d6a2089df510"},"vehicle_type_id":"4","last_reported":1737864645,"current_range_meters":34800,"station_id":"ce4bhch2rcd13ifvqeug","pricing_plan_id":"cebpf4jnsgd1na2vs0mg"},{"bike_id":"d97b23ac-1532-416d-97a4-ebdf3acd4687","system_id":"levelo_inurba_marseille","lat":43.28425,"lon":5.34992,"is_reserved":false,"is_disabled":false,"rental_uris":{"android":"levelo://app?vid=d97b23ac-1532-416d-97a4-ebdf3acd4687","ios":"levelo://app?vid=d97b23ac-1532-416d-97a4-ebdf3acd4687"},"vehicle_type_id":"4","last_reported":1737864645,"current_range_meters":22400,"station_id":"ce4bhbh2rcd13ifvqepg","pricing_plan_id":"cebpf4jnsgd1na2vs0mg"},{"bike_id":"2b1f2c73-a648-48ba-86a5-fada76619153","system_id":"levelo_inurba_marseille","lat":43.313273,"lon":5.397004,"is_reserved":false,"is_disabled":false,"rental_uris":{"android":"levelo://app?vid=2b1f2c73-a648-48ba-86a5-fada76619153","ios":"levelo://app?vid=2b1f2c73-a648-48ba-86a5-fada76619153"},"vehicle_type_id":"4","last_reported":1737864645,"current_range_meters":38800,"station_id":"ce4bgvp2rcd13ifvqcu0","pricing_plan_id":"cebpf4jnsgd1na2vs0mg"},{"bike_id":"dbfb05f1-e2ae-448f-a38f-4d10344356fe","system_id":"levelo_inurba_marseille","lat":43.27072,"lon":5.42273,"is_reserved":false,"is_disabled":false,"rental_uris":{"android":"levelo://app?vid=dbfb05f1-e2ae-448f-a38f-4d10344356fe","ios":"levelo://app?vid=dbfb05f1-e2ae-448f-a38f-4d10344356fe"},"vehicle_type_id":"4","last_reported":1737864645,"current_range_meters":38000,"station_id":"ce4bhk92rcd13ifvqgb0","pricing_plan_id":"cebpf4jnsgd1na2vs0mg"},{"bike_id":"2e3ff8ed-3443-4c7b-8de2-de9de90c7912","system_id":"levelo_inurba_marseille","lat":43.3247,"lon":5.3656,"is_reserved":false,"is_disabled":false,"rental_uris":{"android":"levelo://app?vid=2e3ff8ed-3443-4c7b-8de2-de9de90c7912","ios":"levelo://app?vid=2e3ff8ed-3443-4c7b-8de2-de9de90c7912"},"vehicle_type_id":"4","last_reported":1737864645,"current_range_meters":38800,"station_id":"ce4bhs12rcd13ifvqhvg","pricing_plan_id":"cebpf4jnsgd1na2vs0mg"},{"bike_id":"1b5250e4-2470-4d40-86ca-5191077c26d9","system_id":"levelo_inurba_marseille","lat":43.27069,"lon":5.42299,"is_reserved":false,"is_disabled":false,"rental_uris":{"android":"levelo://app?vid=1b5250e4-2470-4d40-86ca-5191077c26d9","ios":"levelo://app?vid=1b5250e4-2470-4d40-86ca-5191077c26d9"},"vehicle_type_id":"4","last_reported":1737864645,"current_range_meters":38800,"station_id":"ce4bhk92rcd13ifvqgb0","pricing_plan_id":"cebpf4jnsgd1na2vs0mg"},{"bike_id":"e3fe036a-9bec-4711-b1f2-14527a87ccbc","system_id":"levelo_inurba_marseille","lat":43.28726,"lon":5.40004,"is_reserved":false,"is_disabled":true,"rental_uris":{"android":"levelo://app?vid=e3fe036a-9bec-4711-b1f2-14527a87ccbc","ios":"levelo://app?vid=e3fe036a-9bec-4711-b1f2-14527a87ccbc"},"vehicle_type_id":"4","last_reported":1737864645,"current_range_meters":2000,"station_id":"ce4bho92rcd13ifvqh3g","pricing_plan_id":"cebpf4jnsgd1na2vs0mg"},{"bike_id":"0a88549e-fc5c-4053-ac8d-7650113271ee","system_id":"levelo_inurba_marseille","lat":43.290346,"lon":5.399909,"is_reserved":false,"is_disabled":false,"rental_uris":{"android":"levelo://app?vid=0a88549e-fc5c-4053-ac8d-7650113271ee","ios":"levelo://app?vid=0a88549e-fc5c-4053-ac8d-7650113271ee"},"vehicle_type_id":"4","last_reported":1737864645,"current_range_meters":38800,"station_id":"ce4bh392rcd13ifvqdm0","pricing_plan_id":"cebpf4jnsgd1na2vs0mg"},{"bike_id":"f65b11a0-052a-4806-a010-349cfeb1cc3d","system_id":"levelo_inurba_marseille","lat":43.2998,"lon":5.38495,"is_reserved":false,"is_disabled":false,"rental_uris":{"android":"levelo://app?vid=f65b11a0-052a-4806-a010-349cfeb1cc3d","ios":"levelo://app?vid=f65b11a0-052a-4806-a010-349cfeb1cc3d"},"vehicle_type_id":"4","last_reported":1737864645,"current_range_meters":26800,"station_id":"ce4bgj92rcd13ifvqbd0","pricing_plan_id":"cebpf4jnsgd1na2vs0mg"},{"bike_id":"2e3b956b-5871-4e8c-b43d-eaf14d88ac34","system_id":"levelo_inurba_marseille","lat":43.29441,"lon":5.39761,"is_reserved":false,"is_disabled":false,"rental_uris":{"android":"levelo://app?vid=2e3b956b-5871-4e8c-b43d-eaf14d88ac34","ios":"levelo://app?vid=2e3b956b-5871-4e8c-b43d-eaf14d88ac34"},"vehicle_type_id":"4","last_reported":1737864645,"current_range_meters":39200,"station_id":"ce4bh3h2rcd13ifvqdo0","pricing_plan_id":"cebpf4jnsgd1na2vs0mg"},{"bike_id":"2581265e-461e-4093-96e3-176dcfa2ce51","system_id":"levelo_inurba_marseille","lat":43.24642,"lon":5.389,"is_reserved":false,"is_disabled":false,"rental_uris":{"android":"levelo://app?vid=2581265e-461e-4093-96e3-176dcfa2ce51","ios":"levelo://app?vid=2581265e-461e-4093-96e3-176dcfa2ce51"},"vehicle_type_id":"4","last_reported":1737864645,"current_range_meters":38800,"station_id":"ce4bhg12rcd13ifvqf60","pricing_plan_id":"cebpf4jnsgd1na2vs0mg"},{"bike_id":"c0e635c8-e6f3-4193-9644-78b3ef59aa41","system_id":"levelo_inurba_marseille","lat":43.29822,"lon":5.39761,"is_reserved":false,"is_disabled":false,"rental_uris":{"android":"levelo://app?vid=c0e635c8-e6f3-4193-9644-78b3ef59aa41","ios":"levelo://app?vid=c0e635c8-e6f3-4193-9644-78b3ef59aa41"},"vehicle_type_id":"4","last_reported":1737864645,"current_range_meters":2800,"station_id":"","pricing_plan_id":"cebpf4jnsgd1na2vs0mg"},{"bike_id":"0661c734-5d2c-4ad3-b72b-0375e796cecb","system_id":"levelo_inurba_marseille","lat":43.25007,"lon":5.38936,"is_reserved":false,"is_disabled":false,"rental_uris":{"android":"levelo://app?vid=0661c734-5d2c-4ad3-b72b-0375e796cecb","ios":"levelo://app?vid=0661c734-5d2c-4ad3-b72b-0375e796cecb"},"vehicle_type_id":"4","last_reported":1737864645,"current_range_meters":32400,"station_id":"ce4bhgp2rcd13ifvqfd0","pricing_plan_id":"cebpf4jnsgd1na2vs0mg"},{"bike_id":"909a1c2e-107c-48f7-aae9-c2b5d9ac6e94","system_id":"levelo_inurba_marseille","lat":43.30913,"lon":5.36853,"is_reserved":false,"is_disabled":false,"rental_uris":{"android":"levelo://app?vid=909a1c2e-107c-48f7-aae9-c2b5d9ac6e94","ios":"levelo://app?vid=909a1c2e-107c-48f7-aae9-c2b5d9ac6e94"},"vehicle_type_id":"4","last_reported":1737864645,"current_range_meters":4800,"station_id":"ce4bgn92rcd13ifvqbvg","pricing_plan_id":"cebpf4jnsgd1na2vs0mg"},{"bike_id":"c176ffd0-139f-4069-b255-f8a185e67f3e","system_id":"levelo_inurba_marseille","lat":43.28724,"lon":5.3609,"is_reserved":false,"is_disabled":false,"rental_uris":{"android":"levelo://app?vid=c176ffd0-139f-4069-b255-f8a185e67f3e","ios":"levelo://app?vid=c176ffd0-139f-4069-b255-f8a185e67f3e"},"vehicle_type_id":"4","last_reported":1737864645,"current_range_meters":39200,"station_id":"cki0cbj6b192h4jlfktg","pricing_plan_id":"cebpf4jnsgd1na2vs0mg"},{"bike_id":"70405257-63dd-471c-8cac-4167f6851d7a","system_id":"levelo_inurba_marseille","lat":43.25963,"lon":5.41656,"is_reserved":false,"is_disabled":false,"rental_uris":{"android":"levelo://app?vid=70405257-63dd-471c-8cac-4167f6851d7a","ios":"levelo://app?vid=70405257-63dd-471c-8cac-4167f6851d7a"},"vehicle_type_id":"4","last_reported":1737864645,"current_range_meters":38800,"station_id":"ce4bhkp2rcd13ifvqgd0","pricing_plan_id":"cebpf4jnsgd1na2vs0mg"},{"bike_id":"bf1de264-7d0f-4bf2-abd7-e92ebb405fc5","system_id":"levelo_inurba_marseille","lat":43.25869,"lon":5.3991,"is_reserved":false,"is_disabled":false,"rental_uris":{"android":"levelo://app?vid=bf1de264-7d0f-4bf2-abd7-e92ebb405fc5","ios":"levelo://app?vid=bf1de264-7d0f-4bf2-abd7-e92ebb405fc5"},"vehicle_type_id":"4","last_reported":1737864645,"current_range_meters":38800,"station_id":"ce4bhl92rcd13ifvqghg","pricing_plan_id":"cebpf4jnsgd1na2vs0mg"},{"bike_id":"5a504fe4-0ab6-4eed-b9ef-e27131441d67","system_id":"levelo_inurba_marseille","lat":43.303287,"lon":5.378588,"is_reserved":false,"is_disabled":false,"rental_uris":{"android":"levelo://app?vid=5a504fe4-0ab6-4eed-b9ef-e27131441d67","ios":"levelo://app?vid=5a504fe4-0ab6-4eed-b9ef-e27131441d67"},"vehicle_type_id":"4","last_reported":1737864645,"current_range_meters":30000,"station_id":"","pricing_plan_id":"cebpf4jnsgd1na2vs0mg"},{"bike_id":"04c2d628-0f76-46dd-91a9-8f6b5bda8730","system_id":"levelo_inurba_marseille","lat":43.30591,"lon":5.39343,"is_reserved":false,"is_disabled":false,"rental_uris":{"android":"levelo://app?vid=04c2d628-0f76-46dd-91a9-8f6b5bda8730","ios":"levelo://app?vid=04c2d628-0f76-46dd-91a9-8f6b5bda8730"},"vehicle_type_id":"4","last_reported":1737864645,"current_range_meters":20800,"station_id":"ce4bh0p2rcd13ifvqd80","pricing_plan_id":"cebpf4jnsgd1na2vs0mg"},{"bike_id":"778ee3fe-b113-4ac4-ad8c-35223cec1742","system_id":"levelo_inurba_marseille","lat":43.28727,"lon":5.36082,"is_reserved":false,"is_disabled":false,"rental_uris":{"android":"levelo://app?vid=778ee3fe-b113-4ac4-ad8c-35223cec1742","ios":"levelo://app?vid=778ee3fe-b113-4ac4-ad8c-35223cec1742"},"vehicle_type_id":"4","last_reported":1737864645,"current_range_meters":32000,"station_id":"cki0cbj6b192h4jlfktg","pricing_plan_id":"cebpf4jnsgd1na2vs0mg"},{"bike_id":"29537b6d-60f6-4053-b601-105bf13a2e3a","system_id":"levelo_inurba_marseille","lat":43.284761,"lon":5.384369,"is_reserved":false,"is_disabled":true,"rental_uris":{"android":"levelo://app?vid=29537b6d-60f6-4053-b601-105bf13a2e3a","ios":"levelo://app?vid=29537b6d-60f6-4053-b601-105bf13a2e3a"},"vehicle_type_id":"4","last_reported":1737864645,"current_range_meters":4400,"station_id":"ce4bh512rcd13ifvqe3g","pricing_plan_id":"cebpf4jnsgd1na2vs0mg"},{"bike_id":"35b78161-24a7-41ef-86ce-b70b5bfc892e","system_id":"levelo_inurba_marseille","lat":43.30135,"lon":5.39858,"is_reserved":false,"is_disabled":false,"rental_uris":{"android":"levelo://app?vid=35b78161-24a7-41ef-86ce-b70b5bfc892e","ios":"levelo://app?vid=35b78161-24a7-41ef-86ce-b70b5bfc892e"},"vehicle_type_id":"4","last_reported":1737864645,"current_range_meters":19200,"station_id":"ce4bh0h2rcd13ifvqd40","pricing_plan_id":"cebpf4jnsgd1na2vs0mg"},{"bike_id":"6c5aa130-b043-47a3-a9ec-d065c037c31b","system_id":"levelo_inurba_marseille","lat":43.30802,"lon":5.37628,"is_reserved":false,"is_disabled":false,"rental_uris":{"android":"levelo://app?vid=6c5aa130-b043-47a3-a9ec-d065c037c31b","ios":"levelo://app?vid=6c5aa130-b043-47a3-a9ec-d065c037c31b"},"vehicle_type_id":"4","last_reported":1737864645,"current_range_meters":28000,"station_id":"ce4bgv92rcd13ifvqcq0","pricing_plan_id":"cebpf4jnsgd1na2vs0mg"},{"bike_id":"7ce755d3-97f5-4800-ba81-7f3e210c7cea","system_id":"levelo_inurba_marseille","lat":43.23957,"lon":5.36646,"is_reserved":false,"is_disabled":false,"rental_uris":{"android":"levelo://app?vid=7ce755d3-97f5-4800-ba81-7f3e210c7cea","ios":"levelo://app?vid=7ce755d3-97f5-4800-ba81-7f3e210c7cea"},"vehicle_type_id":"4","last_reported":1737864645,"current_range_meters":25200,"station_id":"ce4bhi12rcd13ifvqfp0","pricing_plan_id":"cebpf4jnsgd1na2vs0mg"},{"bike_id":"c54f5b2e-f783-418a-8119-a38c5ea2c0aa","system_id":"levelo_inurba_marseille","lat":43.29009,"lon":5.35617,"is_reserved":false,"is_disabled":true,"rental_uris":{"android":"levelo://app?vid=c54f5b2e-f783-418a-8119-a38c5ea2c0aa","ios":"levelo://app?vid=c54f5b2e-f783-418a-8119-a38c5ea2c0aa"},"vehicle_type_id":"4","last_reported":1737864645,"current_range_meters":7200,"station_id":"ce4bhb92rcd13ifvqen0","pricing_plan_id":"cebpf4jnsgd1na2vs0mg"},{"bike_id":"9838cc78-2b53-49d3-ae13-82df62c4fd64","system_id":"levelo_inurba_marseille","lat":43.28411,"lon":5.40933,"is_reserved":false,"is_disabled":true,"rental_uris":{"android":"levelo://app?vid=9838cc78-2b53-49d3-ae13-82df62c4fd64","ios":"levelo://app?vid=9838cc78-2b53-49d3-ae13-82df62c4fd64"},"vehicle_type_id":"4","last_reported":1737864645,"current_range_meters":0,"station_id":"","pricing_plan_id":"cebpf4jnsgd1na2vs0mg"},{"bike_id":"cd2c3e6b-4e99-4030-8f38-99ce34b03608","system_id":"levelo_inurba_marseille","lat":43.26552,"lon":5.39004,"is_reserved":false,"is_disabled":false,"rental_uris":{"android":"levelo://app?vid=cd2c3e6b-4e99-4030-8f38-99ce34b03608","ios":"levelo://app?vid=cd2c3e6b-4e99-4030-8f38-99ce34b03608"},"vehicle_type_id":"4","last_reported":1737864645,"current_range_meters":38000,"station_id":"ce4bhe12rcd13ifvqf30","pricing_plan_id":"cebpf4jnsgd1na2vs0mg"},{"bike_id":"ed69befa-4549-4f35-91ae-78c504ed0c5e","system_id":"levelo_inurba_marseille","lat":43.31314,"lon":5.3971,"is_reserved":false,"is_disabled":false,"rental_uris":{"android":"levelo://app?vid=ed69befa-4549-4f35-91ae-78c504ed0c5e","ios":"levelo://app?vid=ed69befa-4549-4f35-91ae-78c504ed0c5e"},"vehicle_type_id":"4","last_reported":1737864645,"current_range_meters":20000,"station_id":"ce4bgvp2rcd13ifvqcu0","pricing_plan_id":"cebpf4jnsgd1na2vs0mg"},{"bike_id":"1a12ccc4-119d-4583-9cd0-f3b08fa41a49","system_id":"levelo_inurba_marseille","lat":43.24068,"lon":5.37759,"is_reserved":false,"is_disabled":false,"rental_uris":{"android":"levelo://app?vid=1a12ccc4-119d-4583-9cd0-f3b08fa41a49","ios":"levelo://app?vid=1a12ccc4-119d-4583-9cd0-f3b08fa41a49"},"vehicle_type_id":"4","last_reported":1737864645,"current_range_meters":38800,"station_id":"ce4bhnp2rcd13ifvqgvg","pricing_plan_id":"cebpf4jnsgd1na2vs0mg"},{"bike_id":"b14dc2f6-1c8e-41c3-bb9c-209a240d5277","system_id":"levelo_inurba_marseille","lat":43.325444,"lon":5.414524,"is_reserved":false,"is_disabled":false,"rental_uris":{"android":"levelo://app?vid=b14dc2f6-1c8e-41c3-bb9c-209a240d5277","ios":"levelo://app?vid=b14dc2f6-1c8e-41c3-bb9c-209a240d5277"},"vehicle_type_id":"4","last_reported":1737864645,"current_range_meters":39200,"station_id":"ce4bhq12rcd13ifvqhhg","pricing_plan_id":"cebpf4jnsgd1na2vs0mg"},{"bike_id":"bf096a89-ee72-4f37-85bd-7b3cf9f0cb41","system_id":"levelo_inurba_marseille","lat":43.337345,"lon":5.391902,"is_reserved":false,"is_disabled":false,"rental_uris":{"android":"levelo://app?vid=bf096a89-ee72-4f37-85bd-7b3cf9f0cb41","ios":"levelo://app?vid=bf096a89-ee72-4f37-85bd-7b3cf9f0cb41"},"vehicle_type_id":"4","last_reported":1737864645,"current_range_meters":28800,"station_id":"ce4bhr92rcd13ifvqhsg","pricing_plan_id":"cebpf4jnsgd1na2vs0mg"},{"bike_id":"f0f42544-104f-4439-9c78-bb57f092128f","system_id":"levelo_inurba_marseille","lat":43.27072,"lon":5.42276,"is_reserved":false,"is_disabled":false,"rental_uris":{"android":"levelo://app?vid=f0f42544-104f-4439-9c78-bb57f092128f","ios":"levelo://app?vid=f0f42544-104f-4439-9c78-bb57f092128f"},"vehicle_type_id":"4","last_reported":1737864645,"current_range_meters":38000,"station_id":"ce4bhk92rcd13ifvqgb0","pricing_plan_id":"cebpf4jnsgd1na2vs0mg"},{"bike_id":"c2378bb1-796c-4edf-bf87-198266dfa5e8","system_id":"levelo_inurba_marseille","lat":43.23197,"lon":5.35537,"is_reserved":false,"is_disabled":false,"rental_uris":{"android":"levelo://app?vid=c2378bb1-796c-4edf-bf87-198266dfa5e8","ios":"levelo://app?vid=c2378bb1-796c-4edf-bf87-198266dfa5e8"},"vehicle_type_id":"4","last_reported":1737864645,"current_range_meters":38800,"station_id":"ce4bhu92rcd13ifvqi70","pricing_plan_id":"cebpf4jnsgd1na2vs0mg"},{"bike_id":"6e1ebe6a-17c5-4c22-84b3-8899c0132ab7","system_id":"levelo_inurba_marseille","lat":43.29108,"lon":5.35925,"is_reserved":false,"is_disabled":false,"rental_uris":{"android":"levelo://app?vid=6e1ebe6a-17c5-4c22-84b3-8899c0132ab7","ios":"levelo://app?vid=6e1ebe6a-17c5-4c22-84b3-8899c0132ab7"},"vehicle_type_id":"4","last_reported":1737864645,"current_range_meters":38800,"station_id":"ce4bha92rcd13ifvqeg0","pricing_plan_id":"cebpf4jnsgd1na2vs0mg"},{"bike_id":"d69cf1fa-59ad-4f44-a9fb-82fbbe1b6b05","system_id":"levelo_inurba_marseille","lat":43.30796,"lon":5.43536,"is_reserved":false,"is_disabled":false,"rental_uris":{"android":"levelo://app?vid=d69cf1fa-59ad-4f44-a9fb-82fbbe1b6b05","ios":"levelo://app?vid=d69cf1fa-59ad-4f44-a9fb-82fbbe1b6b05"},"vehicle_type_id":"4","last_reported":1737864645,"current_range_meters":26000,"station_id":"ce4bhph2rcd13ifvqheg","pricing_plan_id":"cebpf4jnsgd1na2vs0mg"},{"bike_id":"1b2330ff-24a0-4a0c-af40-d05f1321d720","system_id":"levelo_inurba_marseille","lat":43.2865,"lon":5.3636,"is_reserved":false,"is_disabled":false,"rental_uris":{"android":"levelo://app?vid=1b2330ff-24a0-4a0c-af40-d05f1321d720","ios":"levelo://app?vid=1b2330ff-24a0-4a0c-af40-d05f1321d720"},"vehicle_type_id":"4","last_reported":1737864645,"current_range_meters":38800,"station_id":"ce4bhah2rcd13ifvqej0","pricing_plan_id":"cebpf4jnsgd1na2vs0mg"},{"bike_id":"64f8b113-6460-4f0d-bf5f-6a6938afa43a","system_id":"levelo_inurba_marseille","lat":43.34148,"lon":5.40906,"is_reserved":false,"is_disabled":false,"rental_uris":{"android":"levelo://app?vid=64f8b113-6460-4f0d-bf5f-6a6938afa43a","ios":"levelo://app?vid=64f8b113-6460-4f0d-bf5f-6a6938afa43a"},"vehicle_type_id":"4","last_reported":1737864645,"current_range_meters":10000,"station_id":"ce4bhqh2rcd13ifvqhlg","pricing_plan_id":"cebpf4jnsgd1na2vs0mg"},{"bike_id":"2e0a8b86-b457-48a0-8577-213b01080398","system_id":"levelo_inurba_marseille","lat":43.23209,"lon":5.35558,"is_reserved":false,"is_disabled":false,"rental_uris":{"android":"levelo://app?vid=2e0a8b86-b457-48a0-8577-213b01080398","ios":"levelo://app?vid=2e0a8b86-b457-48a0-8577-213b01080398"},"vehicle_type_id":"4","last_reported":1737864645,"current_range_meters":38800,"station_id":"ce4bhu92rcd13ifvqi70","pricing_plan_id":"cebpf4jnsgd1na2vs0mg"},{"bike_id":"a7cf4467-440c-4bb8-a849-e8f193507576","system_id":"levelo_inurba_marseille","lat":43.2972,"lon":5.37628,"is_reserved":false,"is_disabled":false,"rental_uris":{"android":"levelo://app?vid=a7cf4467-440c-4bb8-a849-e8f193507576","ios":"levelo://app?vid=a7cf4467-440c-4bb8-a849-e8f193507576"},"vehicle_type_id":"4","last_reported":1737864645,"current_range_meters":29600,"station_id":"ce4bgkh2rcd13ifvqbl0","pricing_plan_id":"cebpf4jnsgd1na2vs0mg"},{"bike_id":"8bea530b-bc04-4ef2-9ef7-27c8d8dd6f29","system_id":"levelo_inurba_marseille","lat":43.30657,"lon":5.40054,"is_reserved":false,"is_disabled":false,"rental_uris":{"android":"levelo://app?vid=8bea530b-bc04-4ef2-9ef7-27c8d8dd6f29","ios":"levelo://app?vid=8bea530b-bc04-4ef2-9ef7-27c8d8dd6f29"},"vehicle_type_id":"4","last_reported":1737864645,"current_range_meters":12800,"station_id":"ce4bh112rcd13ifvqda0","pricing_plan_id":"cebpf4jnsgd1na2vs0mg"},{"bike_id":"f8e492eb-dc36-4051-8252-2795c1e60d93","system_id":"levelo_inurba_marseille","lat":43.2956,"lon":5.4229,"is_reserved":false,"is_disabled":false,"rental_uris":{"android":"levelo://app?vid=f8e492eb-dc36-4051-8252-2795c1e60d93","ios":"levelo://app?vid=f8e492eb-dc36-4051-8252-2795c1e60d93"},"vehicle_type_id":"4","last_reported":1737864645,"current_range_meters":39200,"station_id":"ce4bhph2rcd13ifvqhdg","pricing_plan_id":"cebpf4jnsgd1na2vs0mg"},{"bike_id":"9244af08-6d39-49ee-ae9a-8d36c5b2f405","system_id":"levelo_inurba_marseille","lat":43.31177,"lon":5.387,"is_reserved":false,"is_disabled":false,"rental_uris":{"android":"levelo://app?vid=9244af08-6d39-49ee-ae9a-8d36c5b2f405","ios":"levelo://app?vid=9244af08-6d39-49ee-ae9a-8d36c5b2f405"},"vehicle_type_id":"4","last_reported":1737864645,"current_range_meters":39200,"station_id":"ce4bgv12rcd13ifvqcp0","pricing_plan_id":"cebpf4jnsgd1na2vs0mg"},{"bike_id":"87a5bed0-aef1-423b-bd85-fe44fdeeb863","system_id":"levelo_inurba_marseille","lat":43.3371,"lon":5.39195,"is_reserved":false,"is_disabled":false,"rental_uris":{"android":"levelo://app?vid=87a5bed0-aef1-423b-bd85-fe44fdeeb863","ios":"levelo://app?vid=87a5bed0-aef1-423b-bd85-fe44fdeeb863"},"vehicle_type_id":"4","last_reported":1737864645,"current_range_meters":36400,"station_id":"ce4bhr92rcd13ifvqhsg","pricing_plan_id":"cebpf4jnsgd1na2vs0mg"},{"bike_id":"bdec0346-331f-428d-ba08-cd71a7167114","system_id":"levelo_inurba_marseille","lat":43.26801,"lon":5.40256,"is_reserved":false,"is_disabled":false,"rental_uris":{"android":"levelo://app?vid=bdec0346-331f-428d-ba08-cd71a7167114","ios":"levelo://app?vid=bdec0346-331f-428d-ba08-cd71a7167114"},"vehicle_type_id":"4","last_reported":1737864645,"current_range_meters":38800,"station_id":"ce501612rcd8frsf0b60","pricing_plan_id":"cebpf4jnsgd1na2vs0mg"},{"bike_id":"770988d0-47fd-4d12-8823-5c1dca0d5dcb","system_id":"levelo_inurba_marseille","lat":43.27387,"lon":5.36267,"is_reserved":false,"is_disabled":false,"rental_uris":{"android":"levelo://app?vid=770988d0-47fd-4d12-8823-5c1dca0d5dcb","ios":"levelo://app?vid=770988d0-47fd-4d12-8823-5c1dca0d5dcb"},"vehicle_type_id":"4","last_reported":1737864645,"current_range_meters":38800,"station_id":"ce4bhbh2rcd13ifvqeo0","pricing_plan_id":"cebpf4jnsgd1na2vs0mg"},{"bike_id":"672498f6-2f09-4e5b-8f89-7143ebfb39c6","system_id":"levelo_inurba_marseille","lat":43.33017,"lon":5.3904,"is_reserved":false,"is_disabled":false,"rental_uris":{"android":"levelo://app?vid=672498f6-2f09-4e5b-8f89-7143ebfb39c6","ios":"levelo://app?vid=672498f6-2f09-4e5b-8f89-7143ebfb39c6"},"vehicle_type_id":"4","last_reported":1737864645,"current_range_meters":38800,"station_id":"ce4bhr92rcd13ifvqhrg","pricing_plan_id":"cebpf4jnsgd1na2vs0mg"},{"bike_id":"c9a44569-494e-4c0f-b049-f060ecec970b","system_id":"levelo_inurba_marseille","lat":43.310783,"lon":5.383672,"is_reserved":false,"is_disabled":false,"rental_uris":{"android":"levelo://app?vid=c9a44569-494e-4c0f-b049-f060ecec970b","ios":"levelo://app?vid=c9a44569-494e-4c0f-b049-f060ecec970b"},"vehicle_type_id":"4","last_reported":1737864645,"current_range_meters":24400,"station_id":"ce4bgv92rcd13ifvqcr0","pricing_plan_id":"cebpf4jnsgd1na2vs0mg"},{"bike_id":"71da579c-cda3-4821-8a44-f2f668c2dca9","system_id":"levelo_inurba_marseille","lat":43.24646,"lon":5.38905,"is_reserved":false,"is_disabled":false,"rental_uris":{"android":"levelo://app?vid=71da579c-cda3-4821-8a44-f2f668c2dca9","ios":"levelo://app?vid=71da579c-cda3-4821-8a44-f2f668c2dca9"},"vehicle_type_id":"4","last_reported":1737864645,"current_range_meters":38000,"station_id":"ce4bhg12rcd13ifvqf60","pricing_plan_id":"cebpf4jnsgd1na2vs0mg"},{"bike_id":"52c05cb5-7543-431a-aab0-32b0848dd50f","system_id":"levelo_inurba_marseille","lat":43.30436,"lon":5.38894,"is_reserved":false,"is_disabled":false,"rental_uris":{"android":"levelo://app?vid=52c05cb5-7543-431a-aab0-32b0848dd50f","ios":"levelo://app?vid=52c05cb5-7543-431a-aab0-32b0848dd50f"},"vehicle_type_id":"4","last_reported":1737864645,"current_range_meters":26000,"station_id":"ce4bgk12rcd13ifvqbi0","pricing_plan_id":"cebpf4jnsgd1na2vs0mg"},{"bike_id":"b19e8bc4-7ae9-48ad-8e23-42cea6281f05","system_id":"levelo_inurba_marseille","lat":43.28835,"lon":5.39316,"is_reserved":false,"is_disabled":false,"rental_uris":{"android":"levelo://app?vid=b19e8bc4-7ae9-48ad-8e23-42cea6281f05","ios":"levelo://app?vid=b19e8bc4-7ae9-48ad-8e23-42cea6281f05"},"vehicle_type_id":"4","last_reported":1737864645,"current_range_meters":38800,"station_id":"ce4bh2p2rcd13ifvqdi0","pricing_plan_id":"cebpf4jnsgd1na2vs0mg"},{"bike_id":"b2a6f4ce-e5e6-4b95-91b9-5cf515000dc6","system_id":"levelo_inurba_marseille","lat":43.312794,"lon":5.401759,"is_reserved":false,"is_disabled":true,"rental_uris":{"android":"levelo://app?vid=b2a6f4ce-e5e6-4b95-91b9-5cf515000dc6","ios":"levelo://app?vid=b2a6f4ce-e5e6-4b95-91b9-5cf515000dc6"},"vehicle_type_id":"4","last_reported":1737864645,"current_range_meters":24800,"station_id":"ce4bh092rcd13ifvqd30","pricing_plan_id":"cebpf4jnsgd1na2vs0mg"},{"bike_id":"024aaa43-98dc-4f3b-bcfc-6594e26f63d6","system_id":"levelo_inurba_marseille","lat":43.337302,"lon":5.391835,"is_reserved":false,"is_disabled":false,"rental_uris":{"android":"levelo://app?vid=024aaa43-98dc-4f3b-bcfc-6594e26f63d6","ios":"levelo://app?vid=024aaa43-98dc-4f3b-bcfc-6594e26f63d6"},"vehicle_type_id":"4","last_reported":1737864645,"current_range_meters":32400,"station_id":"ce4bhr92rcd13ifvqhsg","pricing_plan_id":"cebpf4jnsgd1na2vs0mg"},{"bike_id":"edf5dc1c-38cc-43bc-a1d1-b3d91c45401f","system_id":"levelo_inurba_marseille","lat":43.28718,"lon":5.39978,"is_reserved":false,"is_disabled":false,"rental_uris":{"android":"levelo://app?vid=edf5dc1c-38cc-43bc-a1d1-b3d91c45401f","ios":"levelo://app?vid=edf5dc1c-38cc-43bc-a1d1-b3d91c45401f"},"vehicle_type_id":"4","last_reported":1737864645,"current_range_meters":32800,"station_id":"ce4bho92rcd13ifvqh3g","pricing_plan_id":"cebpf4jnsgd1na2vs0mg"},{"bike_id":"64e9009f-c066-4018-b62f-9a29844a1d10","system_id":"levelo_inurba_marseille","lat":43.32048,"lon":5.41571,"is_reserved":false,"is_disabled":false,"rental_uris":{"android":"levelo://app?vid=64e9009f-c066-4018-b62f-9a29844a1d10","ios":"levelo://app?vid=64e9009f-c066-4018-b62f-9a29844a1d10"},"vehicle_type_id":"4","last_reported":1737864645,"current_range_meters":38800,"station_id":"ce4bhq92rcd13ifvqhkg","pricing_plan_id":"cebpf4jnsgd1na2vs0mg"},{"bike_id":"c959572c-6974-4ed4-8889-654758c49222","system_id":"levelo_inurba_marseille","lat":43.26563,"lon":5.39,"is_reserved":false,"is_disabled":true,"rental_uris":{"android":"levelo://app?vid=c959572c-6974-4ed4-8889-654758c49222","ios":"levelo://app?vid=c959572c-6974-4ed4-8889-654758c49222"},"vehicle_type_id":"4","last_reported":1737864645,"current_range_meters":0,"station_id":"ce4bhe12rcd13ifvqf30","pricing_plan_id":"cebpf4jnsgd1na2vs0mg"},{"bike_id":"824e2cca-49cc-42c1-b7ea-0b4aa7c8c9f9","system_id":"levelo_inurba_marseille","lat":43.23185,"lon":5.39983,"is_reserved":false,"is_disabled":false,"rental_uris":{"android":"levelo://app?vid=824e2cca-49cc-42c1-b7ea-0b4aa7c8c9f9","ios":"levelo://app?vid=824e2cca-49cc-42c1-b7ea-0b4aa7c8c9f9"},"vehicle_type_id":"4","last_reported":1737864645,"current_range_meters":29600,"station_id":"ce4bhn12rcd13ifvqgqg","pricing_plan_id":"cebpf4jnsgd1na2vs0mg"},{"bike_id":"3fdd7e70-3e83-43bd-b13e-16385dfa32fb","system_id":"levelo_inurba_marseille","lat":43.24541,"lon":5.3953,"is_reserved":false,"is_disabled":false,"rental_uris":{"android":"levelo://app?vid=3fdd7e70-3e83-43bd-b13e-16385dfa32fb","ios":"levelo://app?vid=3fdd7e70-3e83-43bd-b13e-16385dfa32fb"},"vehicle_type_id":"4","last_reported":1737864645,"current_range_meters":21600,"station_id":"ce4bhlp2rcd13ifvqgjg","pricing_plan_id":"cebpf4jnsgd1na2vs0mg"},{"bike_id":"e48b1c3e-5f51-468a-b447-73cfda432e35","system_id":"levelo_inurba_marseille","lat":43.290243,"lon":5.381435,"is_reserved":false,"is_disabled":true,"rental_uris":{"android":"levelo://app?vid=e48b1c3e-5f51-468a-b447-73cfda432e35","ios":"levelo://app?vid=e48b1c3e-5f51-468a-b447-73cfda432e35"},"vehicle_type_id":"4","last_reported":1737864645,"current_range_meters":28400,"station_id":"ce4bh4p2rcd13ifvqe1g","pricing_plan_id":"cebpf4jnsgd1na2vs0mg"},{"bike_id":"8b0b0648-de26-4ff9-8eff-79a8191695a5","system_id":"levelo_inurba_marseille","lat":43.31993,"lon":5.38155,"is_reserved":false,"is_disabled":false,"rental_uris":{"android":"levelo://app?vid=8b0b0648-de26-4ff9-8eff-79a8191695a5","ios":"levelo://app?vid=8b0b0648-de26-4ff9-8eff-79a8191695a5"},"vehicle_type_id":"4","last_reported":1737864645,"current_range_meters":20000,"station_id":"ce4bhr12rcd13ifvqhpg","pricing_plan_id":"cebpf4jnsgd1na2vs0mg"},{"bike_id":"a451b021-2934-4ce4-aa7d-57762872b66e","system_id":"levelo_inurba_marseille","lat":43.2586,"lon":5.39894,"is_reserved":false,"is_disabled":false,"rental_uris":{"android":"levelo://app?vid=a451b021-2934-4ce4-aa7d-57762872b66e","ios":"levelo://app?vid=a451b021-2934-4ce4-aa7d-57762872b66e"},"vehicle_type_id":"4","last_reported":1737864645,"current_range_meters":9200,"station_id":"ce4bhl92rcd13ifvqghg","pricing_plan_id":"cebpf4jnsgd1na2vs0mg"},{"bike_id":"84f17783-0d62-4fb3-8fee-847809ec88e9","system_id":"levelo_inurba_marseille","lat":43.29567,"lon":5.42287,"is_reserved":false,"is_disabled":false,"rental_uris":{"android":"levelo://app?vid=84f17783-0d62-4fb3-8fee-847809ec88e9","ios":"levelo://app?vid=84f17783-0d62-4fb3-8fee-847809ec88e9"},"vehicle_type_id":"4","last_reported":1737864645,"current_range_meters":35600,"station_id":"ce4bhph2rcd13ifvqhdg","pricing_plan_id":"cebpf4jnsgd1na2vs0mg"},{"bike_id":"1a24d055-9002-4801-94c4-0dfe6d206450","system_id":"levelo_inurba_marseille","lat":43.311778,"lon":5.387132,"is_reserved":false,"is_disabled":false,"rental_uris":{"android":"levelo://app?vid=1a24d055-9002-4801-94c4-0dfe6d206450","ios":"levelo://app?vid=1a24d055-9002-4801-94c4-0dfe6d206450"},"vehicle_type_id":"4","last_reported":1737864645,"current_range_meters":39200,"station_id":"ce4bgv12rcd13ifvqcp0","pricing_plan_id":"cebpf4jnsgd1na2vs0mg"},{"bike_id":"db318319-ded9-4fb4-b352-ca3129b34752","system_id":"levelo_inurba_marseille","lat":43.30451,"lon":5.3889,"is_reserved":false,"is_disabled":false,"rental_uris":{"android":"levelo://app?vid=db318319-ded9-4fb4-b352-ca3129b34752","ios":"levelo://app?vid=db318319-ded9-4fb4-b352-ca3129b34752"},"vehicle_type_id":"4","last_reported":1737864645,"current_range_meters":38800,"station_id":"ce4bgk12rcd13ifvqbi0","pricing_plan_id":"cebpf4jnsgd1na2vs0mg"},{"bike_id":"0efff2f7-79c7-4011-a6d4-0010e4d39997","system_id":"levelo_inurba_marseille","lat":43.314789,"lon":5.373009,"is_reserved":false,"is_disabled":false,"rental_uris":{"android":"levelo://app?vid=0efff2f7-79c7-4011-a6d4-0010e4d39997","ios":"levelo://app?vid=0efff2f7-79c7-4011-a6d4-0010e4d39997"},"vehicle_type_id":"4","last_reported":1737864645,"current_range_meters":38800,"station_id":"ce4bgt12rcd13ifvqcd0","pricing_plan_id":"cebpf4jnsgd1na2vs0mg"},{"bike_id":"fc1679a0-1b7f-4415-9222-9f2598fb5e4c","system_id":"levelo_inurba_marseille","lat":43.3017,"lon":5.38068,"is_reserved":false,"is_disabled":false,"rental_uris":{"android":"levelo://app?vid=fc1679a0-1b7f-4415-9222-9f2598fb5e4c","ios":"levelo://app?vid=fc1679a0-1b7f-4415-9222-9f2598fb5e4c"},"vehicle_type_id":"4","last_reported":1737864645,"current_range_meters":38800,"station_id":"ce4bgjp2rcd13ifvqbh0","pricing_plan_id":"cebpf4jnsgd1na2vs0mg"},{"bike_id":"2d0d2073-d710-414b-b25b-4383422beed0","system_id":"levelo_inurba_marseille","lat":43.27994,"lon":5.41663,"is_reserved":false,"is_disabled":false,"rental_uris":{"android":"levelo://app?vid=2d0d2073-d710-414b-b25b-4383422beed0","ios":"levelo://app?vid=2d0d2073-d710-414b-b25b-4383422beed0"},"vehicle_type_id":"4","last_reported":1737864645,"current_range_meters":38800,"station_id":"ce4bho12rcd13ifvqh1g","pricing_plan_id":"cebpf4jnsgd1na2vs0mg"},{"bike_id":"82a8e1dd-0685-4116-97f2-3ed088da1592","system_id":"levelo_inurba_marseille","lat":43.29796,"lon":5.37109,"is_reserved":false,"is_disabled":false,"rental_uris":{"android":"levelo://app?vid=82a8e1dd-0685-4116-97f2-3ed088da1592","ios":"levelo://app?vid=82a8e1dd-0685-4116-97f2-3ed088da1592"},"vehicle_type_id":"4","last_reported":1737864645,"current_range_meters":38800,"station_id":"ce4bgop2rcd13ifvqc1g","pricing_plan_id":"cebpf4jnsgd1na2vs0mg"},{"bike_id":"2601af1b-37fe-4e26-9cd2-57420bd2df9f","system_id":"levelo_inurba_marseille","lat":43.308061,"lon":5.376757,"is_reserved":false,"is_disabled":false,"rental_uris":{"android":"levelo://app?vid=2601af1b-37fe-4e26-9cd2-57420bd2df9f","ios":"levelo://app?vid=2601af1b-37fe-4e26-9cd2-57420bd2df9f"},"vehicle_type_id":"4","last_reported":1737864645,"current_range_meters":32800,"station_id":"ce4bgv92rcd13ifvqcq0","pricing_plan_id":"cebpf4jnsgd1na2vs0mg"},{"bike_id":"4a257c08-6880-4705-bffb-7e6480ca4435","system_id":"levelo_inurba_marseille","lat":43.30642,"lon":5.40067,"is_reserved":false,"is_disabled":false,"rental_uris":{"android":"levelo://app?vid=4a257c08-6880-4705-bffb-7e6480ca4435","ios":"levelo://app?vid=4a257c08-6880-4705-bffb-7e6480ca4435"},"vehicle_type_id":"4","last_reported":1737864645,"current_range_meters":16800,"station_id":"ce4bh112rcd13ifvqda0","pricing_plan_id":"cebpf4jnsgd1na2vs0mg"},{"bike_id":"e9bc701b-86ce-45d6-bb9e-c295f6ce732c","system_id":"levelo_inurba_marseille","lat":43.306548,"lon":5.40095,"is_reserved":false,"is_disabled":true,"rental_uris":{"android":"levelo://app?vid=e9bc701b-86ce-45d6-bb9e-c295f6ce732c","ios":"levelo://app?vid=e9bc701b-86ce-45d6-bb9e-c295f6ce732c"},"vehicle_type_id":"4","last_reported":1737864645,"current_range_meters":36800,"station_id":"ce4bh112rcd13ifvqda0","pricing_plan_id":"cebpf4jnsgd1na2vs0mg"},{"bike_id":"ebbb6dd1-ea2a-4b9e-a0fd-f2fc38df1042","system_id":"levelo_inurba_marseille","lat":43.25008,"lon":5.38942,"is_reserved":false,"is_disabled":true,"rental_uris":{"android":"levelo://app?vid=ebbb6dd1-ea2a-4b9e-a0fd-f2fc38df1042","ios":"levelo://app?vid=ebbb6dd1-ea2a-4b9e-a0fd-f2fc38df1042"},"vehicle_type_id":"4","last_reported":1737864645,"current_range_meters":0,"station_id":"ce4bhgp2rcd13ifvqfd0","pricing_plan_id":"cebpf4jnsgd1na2vs0mg"},{"bike_id":"3f674fb7-c980-4e11-a20f-dc83a4f4e339","system_id":"levelo_inurba_marseille","lat":43.27827,"lon":5.39205,"is_reserved":false,"is_disabled":false,"rental_uris":{"android":"levelo://app?vid=3f674fb7-c980-4e11-a20f-dc83a4f4e339","ios":"levelo://app?vid=3f674fb7-c980-4e11-a20f-dc83a4f4e339"},"vehicle_type_id":"4","last_reported":1737864645,"current_range_meters":18800,"station_id":"ce4bhjp2rcd13ifvqga0","pricing_plan_id":"cebpf4jnsgd1na2vs0mg"},{"bike_id":"af9af736-f227-4ac7-a05f-1b30b48a9306","system_id":"levelo_inurba_marseille","lat":43.2945,"lon":5.39748,"is_reserved":false,"is_disabled":false,"rental_uris":{"android":"levelo://app?vid=af9af736-f227-4ac7-a05f-1b30b48a9306","ios":"levelo://app?vid=af9af736-f227-4ac7-a05f-1b30b48a9306"},"vehicle_type_id":"4","last_reported":1737864645,"current_range_meters":38000,"station_id":"ce4bh3h2rcd13ifvqdo0","pricing_plan_id":"cebpf4jnsgd1na2vs0mg"},{"bike_id":"aa79eeae-881d-4184-bc93-3c3674e56dbc","system_id":"levelo_inurba_marseille","lat":43.29053,"lon":5.35913,"is_reserved":false,"is_disabled":false,"rental_uris":{"android":"levelo://app?vid=aa79eeae-881d-4184-bc93-3c3674e56dbc","ios":"levelo://app?vid=aa79eeae-881d-4184-bc93-3c3674e56dbc"},"vehicle_type_id":"4","last_reported":1737864645,"current_range_meters":23200,"station_id":"ce4bha92rcd13ifvqeg0","pricing_plan_id":"cebpf4jnsgd1na2vs0mg"},{"bike_id":"784d372f-471f-4ee2-b3ad-2636ed3dde27","system_id":"levelo_inurba_marseille","lat":43.278164,"lon":5.407245,"is_reserved":false,"is_disabled":false,"rental_uris":{"android":"levelo://app?vid=784d372f-471f-4ee2-b3ad-2636ed3dde27","ios":"levelo://app?vid=784d372f-471f-4ee2-b3ad-2636ed3dde27"},"vehicle_type_id":"4","last_reported":1737864645,"current_range_meters":38800,"station_id":"ce4bhnh2rcd13ifvqgtg","pricing_plan_id":"cebpf4jnsgd1na2vs0mg"},{"bike_id":"e1bf2d15-c874-4e34-b14f-c5ab0bffb7d6","system_id":"levelo_inurba_marseille","lat":43.29074,"lon":5.37165,"is_reserved":false,"is_disabled":false,"rental_uris":{"android":"levelo://app?vid=e1bf2d15-c874-4e34-b14f-c5ab0bffb7d6","ios":"levelo://app?vid=e1bf2d15-c874-4e34-b14f-c5ab0bffb7d6"},"vehicle_type_id":"4","last_reported":1737864645,"current_range_meters":38800,"station_id":"ce4bh5p2rcd13ifvqe4g","pricing_plan_id":"cebpf4jnsgd1na2vs0mg"},{"bike_id":"c2c5c9a7-9419-464f-8f78-5d990c40b229","system_id":"levelo_inurba_marseille","lat":43.298078,"lon":5.381084,"is_reserved":false,"is_disabled":false,"rental_uris":{"android":"levelo://app?vid=c2c5c9a7-9419-464f-8f78-5d990c40b229","ios":"levelo://app?vid=c2c5c9a7-9419-464f-8f78-5d990c40b229"},"vehicle_type_id":"4","last_reported":1737864645,"current_range_meters":5600,"station_id":"ce4bgip2rcd13ifvqbb0","pricing_plan_id":"cebpf4jnsgd1na2vs0mg"},{"bike_id":"0af52f93-e2ad-4e70-93eb-a6c272fbfbe2","system_id":"levelo_inurba_marseille","lat":43.31201,"lon":5.3684,"is_reserved":false,"is_disabled":false,"rental_uris":{"android":"levelo://app?vid=0af52f93-e2ad-4e70-93eb-a6c272fbfbe2","ios":"levelo://app?vid=0af52f93-e2ad-4e70-93eb-a6c272fbfbe2"},"vehicle_type_id":"4","last_reported":1737864645,"current_range_meters":38400,"station_id":"ce4bgl92rcd13ifvqbq0","pricing_plan_id":"cebpf4jnsgd1na2vs0mg"},{"bike_id":"ec2cf810-036a-47e1-b5e3-4da15476c7b0","system_id":"levelo_inurba_marseille","lat":43.293097,"lon":5.371713,"is_reserved":false,"is_disabled":true,"rental_uris":{"android":"levelo://app?vid=ec2cf810-036a-47e1-b5e3-4da15476c7b0","ios":"levelo://app?vid=ec2cf810-036a-47e1-b5e3-4da15476c7b0"},"vehicle_type_id":"4","last_reported":1737864645,"current_range_meters":0,"station_id":"ce4bgh92rcd13ifvqb40","pricing_plan_id":"cebpf4jnsgd1na2vs0mg"},{"bike_id":"1f8a4ae9-bb3e-4f7a-a04a-77c1e509ea2b","system_id":"levelo_inurba_marseille","lat":43.30423,"lon":5.39747,"is_reserved":false,"is_disabled":false,"rental_uris":{"android":"levelo://app?vid=1f8a4ae9-bb3e-4f7a-a04a-77c1e509ea2b","ios":"levelo://app?vid=1f8a4ae9-bb3e-4f7a-a04a-77c1e509ea2b"},"vehicle_type_id":"4","last_reported":1737864645,"current_range_meters":36400,"station_id":"ce4bh092rcd13ifvqd20","pricing_plan_id":"cebpf4jnsgd1na2vs0mg"},{"bike_id":"5d01d30a-8f08-4da7-ba9d-36f97507c308","system_id":"levelo_inurba_marseille","lat":43.23214,"lon":5.35528,"is_reserved":false,"is_disabled":false,"rental_uris":{"android":"levelo://app?vid=5d01d30a-8f08-4da7-ba9d-36f97507c308","ios":"levelo://app?vid=5d01d30a-8f08-4da7-ba9d-36f97507c308"},"vehicle_type_id":"4","last_reported":1737864645,"current_range_meters":26000,"station_id":"ce4bhu92rcd13ifvqi70","pricing_plan_id":"cebpf4jnsgd1na2vs0mg"},{"bike_id":"935563ec-5e91-42f3-8230-2b1ded57be4d","system_id":"levelo_inurba_marseille","lat":43.306429,"lon":5.400674,"is_reserved":false,"is_disabled":false,"rental_uris":{"android":"levelo://app?vid=935563ec-5e91-42f3-8230-2b1ded57be4d","ios":"levelo://app?vid=935563ec-5e91-42f3-8230-2b1ded57be4d"},"vehicle_type_id":"4","last_reported":1737864645,"current_range_meters":32800,"station_id":"ce4bh112rcd13ifvqda0","pricing_plan_id":"cebpf4jnsgd1na2vs0mg"},{"bike_id":"4625f464-1964-474d-8a7b-d61d4b3e03ae","system_id":"levelo_inurba_marseille","lat":43.29283,"lon":5.40134,"is_reserved":false,"is_disabled":false,"rental_uris":{"android":"levelo://app?vid=4625f464-1964-474d-8a7b-d61d4b3e03ae","ios":"levelo://app?vid=4625f464-1964-474d-8a7b-d61d4b3e03ae"},"vehicle_type_id":"4","last_reported":1737864645,"current_range_meters":38800,"station_id":"ce4bh312rcd13ifvqdk0","pricing_plan_id":"cebpf4jnsgd1na2vs0mg"},{"bike_id":"d54e7416-9133-47cb-bc55-3d590b1f98b8","system_id":"levelo_inurba_marseille","lat":43.28649,"lon":5.36354,"is_reserved":false,"is_disabled":true,"rental_uris":{"android":"levelo://app?vid=d54e7416-9133-47cb-bc55-3d590b1f98b8","ios":"levelo://app?vid=d54e7416-9133-47cb-bc55-3d590b1f98b8"},"vehicle_type_id":"4","last_reported":1737864645,"current_range_meters":0,"station_id":"ce4bhah2rcd13ifvqej0","pricing_plan_id":"cebpf4jnsgd1na2vs0mg"},{"bike_id":"70d2ca22-ee87-40ad-aedd-8067449d8dda","system_id":"levelo_inurba_marseille","lat":43.33602,"lon":5.41028,"is_reserved":false,"is_disabled":false,"rental_uris":{"android":"levelo://app?vid=70d2ca22-ee87-40ad-aedd-8067449d8dda","ios":"levelo://app?vid=70d2ca22-ee87-40ad-aedd-8067449d8dda"},"vehicle_type_id":"4","last_reported":1737864645,"current_range_meters":38800,"station_id":"ce4bhqh2rcd13ifvqhmg","pricing_plan_id":"cebpf4jnsgd1na2vs0mg"},{"bike_id":"8f418039-64b4-4f8b-9b93-bbb14214da89","system_id":"levelo_inurba_marseille","lat":43.317069,"lon":5.377749,"is_reserved":false,"is_disabled":false,"rental_uris":{"android":"levelo://app?vid=8f418039-64b4-4f8b-9b93-bbb14214da89","ios":"levelo://app?vid=8f418039-64b4-4f8b-9b93-bbb14214da89"},"vehicle_type_id":"4","last_reported":1737864645,"current_range_meters":12400,"station_id":"ce4bgth2rcd13ifvqch0","pricing_plan_id":"cebpf4jnsgd1na2vs0mg"},{"bike_id":"4ba17b62-67ad-47d4-ae06-50d84fbf1296","system_id":"levelo_inurba_marseille","lat":43.29908,"lon":5.43676,"is_reserved":false,"is_disabled":false,"rental_uris":{"android":"levelo://app?vid=4ba17b62-67ad-47d4-ae06-50d84fbf1296","ios":"levelo://app?vid=4ba17b62-67ad-47d4-ae06-50d84fbf1296"},"vehicle_type_id":"4","last_reported":1737864645,"current_range_meters":9600,"station_id":"ce4bhpp2rcd13ifvqhfg","pricing_plan_id":"cebpf4jnsgd1na2vs0mg"},{"bike_id":"4825b2e9-7cf4-4c22-a427-8fc6902fa6c1","system_id":"levelo_inurba_marseille","lat":43.31266,"lon":5.40157,"is_reserved":false,"is_disabled":false,"rental_uris":{"android":"levelo://app?vid=4825b2e9-7cf4-4c22-a427-8fc6902fa6c1","ios":"levelo://app?vid=4825b2e9-7cf4-4c22-a427-8fc6902fa6c1"},"vehicle_type_id":"4","last_reported":1737864645,"current_range_meters":38800,"station_id":"ce4bh092rcd13ifvqd30","pricing_plan_id":"cebpf4jnsgd1na2vs0mg"},{"bike_id":"dc59053b-2d22-4e00-9c20-d08cdec0fb62","system_id":"levelo_inurba_marseille","lat":43.27985,"lon":5.40033,"is_reserved":false,"is_disabled":false,"rental_uris":{"android":"levelo://app?vid=dc59053b-2d22-4e00-9c20-d08cdec0fb62","ios":"levelo://app?vid=dc59053b-2d22-4e00-9c20-d08cdec0fb62"},"vehicle_type_id":"4","last_reported":1737864645,"current_range_meters":27600,"station_id":"ce4bho92rcd13ifvqh4g","pricing_plan_id":"cebpf4jnsgd1na2vs0mg"},{"bike_id":"1c35c755-8b1c-439e-8798-f1a001a3969d","system_id":"levelo_inurba_marseille","lat":43.28107,"lon":5.37835,"is_reserved":false,"is_disabled":true,"rental_uris":{"android":"levelo://app?vid=1c35c755-8b1c-439e-8798-f1a001a3969d","ios":"levelo://app?vid=1c35c755-8b1c-439e-8798-f1a001a3969d"},"vehicle_type_id":"4","last_reported":1737864645,"current_range_meters":0,"station_id":"ce4bha12rcd13ifvqee0","pricing_plan_id":"cebpf4jnsgd1na2vs0mg"},{"bike_id":"da6325a6-fa9c-4160-8d02-87d8d9d8652c","system_id":"levelo_inurba_marseille","lat":43.30114,"lon":5.39861,"is_reserved":false,"is_disabled":false,"rental_uris":{"android":"levelo://app?vid=da6325a6-fa9c-4160-8d02-87d8d9d8652c","ios":"levelo://app?vid=da6325a6-fa9c-4160-8d02-87d8d9d8652c"},"vehicle_type_id":"4","last_reported":1737864645,"current_range_meters":39200,"station_id":"ce4bh0h2rcd13ifvqd40","pricing_plan_id":"cebpf4jnsgd1na2vs0mg"},{"bike_id":"884f4337-debb-4f4e-9ffb-854d7bf11416","system_id":"levelo_inurba_marseille","lat":43.317494,"lon":5.38975,"is_reserved":false,"is_disabled":false,"rental_uris":{"android":"levelo://app?vid=884f4337-debb-4f4e-9ffb-854d7bf11416","ios":"levelo://app?vid=884f4337-debb-4f4e-9ffb-854d7bf11416"},"vehicle_type_id":"4","last_reported":1737864645,"current_range_meters":38800,"station_id":"ce4bhqp2rcd13ifvqhng","pricing_plan_id":"cebpf4jnsgd1na2vs0mg"},{"bike_id":"0e9dcd6e-e0ea-4155-a2ad-846b0fe50ef0","system_id":"levelo_inurba_marseille","lat":43.30562,"lon":5.37232,"is_reserved":false,"is_disabled":false,"rental_uris":{"android":"levelo://app?vid=0e9dcd6e-e0ea-4155-a2ad-846b0fe50ef0","ios":"levelo://app?vid=0e9dcd6e-e0ea-4155-a2ad-846b0fe50ef0"},"vehicle_type_id":"4","last_reported":1737864645,"current_range_meters":38800,"station_id":"ce4bgqh2rcd13ifvqc4g","pricing_plan_id":"cebpf4jnsgd1na2vs0mg"},{"bike_id":"bb2bfad6-511f-4df1-b0b9-4fc7404c03d5","system_id":"levelo_inurba_marseille","lat":43.30929,"lon":5.40148,"is_reserved":false,"is_disabled":false,"rental_uris":{"android":"levelo://app?vid=bb2bfad6-511f-4df1-b0b9-4fc7404c03d5","ios":"levelo://app?vid=bb2bfad6-511f-4df1-b0b9-4fc7404c03d5"},"vehicle_type_id":"4","last_reported":1737864645,"current_range_meters":38800,"station_id":"ce4bgvp2rcd13ifvqct0","pricing_plan_id":"cebpf4jnsgd1na2vs0mg"},{"bike_id":"f449d01f-cde9-4e06-8134-443d9b565a07","system_id":"levelo_inurba_marseille","lat":43.31065,"lon":5.383492,"is_reserved":false,"is_disabled":false,"rental_uris":{"android":"levelo://app?vid=f449d01f-cde9-4e06-8134-443d9b565a07","ios":"levelo://app?vid=f449d01f-cde9-4e06-8134-443d9b565a07"},"vehicle_type_id":"4","last_reported":1737864645,"current_range_meters":33200,"station_id":"ce4bgv92rcd13ifvqcr0","pricing_plan_id":"cebpf4jnsgd1na2vs0mg"},{"bike_id":"b96c22ba-a4c6-4ca8-b881-a2a2972e9bc2","system_id":"levelo_inurba_marseille","lat":43.26024,"lon":5.37548,"is_reserved":false,"is_disabled":true,"rental_uris":{"android":"levelo://app?vid=b96c22ba-a4c6-4ca8-b881-a2a2972e9bc2","ios":"levelo://app?vid=b96c22ba-a4c6-4ca8-b881-a2a2972e9bc2"},"vehicle_type_id":"4","last_reported":1737864645,"current_range_meters":34000,"station_id":"ce4bhgh2rcd13ifvqfa0","pricing_plan_id":"cebpf4jnsgd1na2vs0mg"},{"bike_id":"f16107b1-8c98-48f3-9db6-7bd1964c9866","system_id":"levelo_inurba_marseille","lat":43.30948,"lon":5.40193,"is_reserved":false,"is_disabled":false,"rental_uris":{"android":"levelo://app?vid=f16107b1-8c98-48f3-9db6-7bd1964c9866","ios":"levelo://app?vid=f16107b1-8c98-48f3-9db6-7bd1964c9866"},"vehicle_type_id":"4","last_reported":1737864645,"current_range_meters":38800,"station_id":"ce4bgvp2rcd13ifvqct0","pricing_plan_id":"cebpf4jnsgd1na2vs0mg"},{"bike_id":"40ae2873-b324-431b-b810-3a049b44a9f2","system_id":"levelo_inurba_marseille","lat":43.30193,"lon":5.38076,"is_reserved":false,"is_disabled":false,"rental_uris":{"android":"levelo://app?vid=40ae2873-b324-431b-b810-3a049b44a9f2","ios":"levelo://app?vid=40ae2873-b324-431b-b810-3a049b44a9f2"},"vehicle_type_id":"4","last_reported":1737864645,"current_range_meters":17600,"station_id":"ce4bgjp2rcd13ifvqbh0","pricing_plan_id":"cebpf4jnsgd1na2vs0mg"},{"bike_id":"865e23ef-3d9d-4db8-b7c6-aa1e74e9f28a","system_id":"levelo_inurba_marseille","lat":43.28448,"lon":5.35896,"is_reserved":false,"is_disabled":false,"rental_uris":{"android":"levelo://app?vid=865e23ef-3d9d-4db8-b7c6-aa1e74e9f28a","ios":"levelo://app?vid=865e23ef-3d9d-4db8-b7c6-aa1e74e9f28a"},"vehicle_type_id":"4","last_reported":1737864645,"current_range_meters":19200,"station_id":"ce4bhah2rcd13ifvqei0","pricing_plan_id":"cebpf4jnsgd1na2vs0mg"},{"bike_id":"dcb50635-0e5e-4da9-b4df-329e73a63f8f","system_id":"levelo_inurba_marseille","lat":43.24417,"lon":5.39647,"is_reserved":false,"is_disabled":false,"rental_uris":{"android":"levelo://app?vid=dcb50635-0e5e-4da9-b4df-329e73a63f8f","ios":"levelo://app?vid=dcb50635-0e5e-4da9-b4df-329e73a63f8f"},"vehicle_type_id":"4","last_reported":1737864645,"current_range_meters":26000,"station_id":"","pricing_plan_id":"cebpf4jnsgd1na2vs0mg"},{"bike_id":"7b1fc891-bfdd-4808-ba77-486cb05d0e43","system_id":"levelo_inurba_marseille","lat":43.28676,"lon":5.36342,"is_reserved":false,"is_disabled":false,"rental_uris":{"android":"levelo://app?vid=7b1fc891-bfdd-4808-ba77-486cb05d0e43","ios":"levelo://app?vid=7b1fc891-bfdd-4808-ba77-486cb05d0e43"},"vehicle_type_id":"4","last_reported":1737864645,"current_range_meters":38800,"station_id":"ce4bhah2rcd13ifvqej0","pricing_plan_id":"cebpf4jnsgd1na2vs0mg"},{"bike_id":"1346ff93-9ddb-4093-aa5d-b6cb09dfef3c","system_id":"levelo_inurba_marseille","lat":43.28473,"lon":5.36815,"is_reserved":false,"is_disabled":true,"rental_uris":{"android":"levelo://app?vid=1346ff93-9ddb-4093-aa5d-b6cb09dfef3c","ios":"levelo://app?vid=1346ff93-9ddb-4093-aa5d-b6cb09dfef3c"},"vehicle_type_id":"4","last_reported":1737864645,"current_range_meters":0,"station_id":"","pricing_plan_id":"cebpf4jnsgd1na2vs0mg"},{"bike_id":"4a67430d-7113-4b31-85ee-acf59eb8b496","system_id":"levelo_inurba_marseille","lat":43.32647,"lon":5.40996,"is_reserved":false,"is_disabled":false,"rental_uris":{"android":"levelo://app?vid=4a67430d-7113-4b31-85ee-acf59eb8b496","ios":"levelo://app?vid=4a67430d-7113-4b31-85ee-acf59eb8b496"},"vehicle_type_id":"4","last_reported":1737864645,"current_range_meters":38000,"station_id":"ce4bhpp2rcd13ifvqhgg","pricing_plan_id":"cebpf4jnsgd1na2vs0mg"},{"bike_id":"61f48368-0924-4207-9b71-dc3cb5f9319e","system_id":"levelo_inurba_marseille","lat":43.28017,"lon":5.36946,"is_reserved":false,"is_disabled":false,"rental_uris":{"android":"levelo://app?vid=61f48368-0924-4207-9b71-dc3cb5f9319e","ios":"levelo://app?vid=61f48368-0924-4207-9b71-dc3cb5f9319e"},"vehicle_type_id":"4","last_reported":1737864645,"current_range_meters":38800,"station_id":"ce4bha12rcd13ifvqef0","pricing_plan_id":"cebpf4jnsgd1na2vs0mg"},{"bike_id":"cff6a491-5284-4b58-81b6-6f262d74c4a9","system_id":"levelo_inurba_marseille","lat":43.278086,"lon":5.407065,"is_reserved":false,"is_disabled":false,"rental_uris":{"android":"levelo://app?vid=cff6a491-5284-4b58-81b6-6f262d74c4a9","ios":"levelo://app?vid=cff6a491-5284-4b58-81b6-6f262d74c4a9"},"vehicle_type_id":"4","last_reported":1737864645,"current_range_meters":38800,"station_id":"ce4bhnh2rcd13ifvqgtg","pricing_plan_id":"cebpf4jnsgd1na2vs0mg"},{"bike_id":"d0b97dd4-6015-4f42-b5f6-8f3b6c506949","system_id":"levelo_inurba_marseille","lat":43.29577,"lon":5.42283,"is_reserved":false,"is_disabled":false,"rental_uris":{"android":"levelo://app?vid=d0b97dd4-6015-4f42-b5f6-8f3b6c506949","ios":"levelo://app?vid=d0b97dd4-6015-4f42-b5f6-8f3b6c506949"},"vehicle_type_id":"4","last_reported":1737864645,"current_range_meters":35600,"station_id":"ce4bhph2rcd13ifvqhdg","pricing_plan_id":"cebpf4jnsgd1na2vs0mg"},{"bike_id":"c6f247f0-a037-460a-90f0-2b0c901e9375","system_id":"levelo_inurba_marseille","lat":43.32121,"lon":5.36762,"is_reserved":false,"is_disabled":false,"rental_uris":{"android":"levelo://app?vid=c6f247f0-a037-460a-90f0-2b0c901e9375","ios":"levelo://app?vid=c6f247f0-a037-460a-90f0-2b0c901e9375"},"vehicle_type_id":"4","last_reported":1737864645,"current_range_meters":30000,"station_id":"ce4bhrh2rcd13ifvqhug","pricing_plan_id":"cebpf4jnsgd1na2vs0mg"},{"bike_id":"5658bf19-5e40-4edf-ac7a-3999a5207afd","system_id":"levelo_inurba_marseille","lat":43.23201,"lon":5.35545,"is_reserved":false,"is_disabled":false,"rental_uris":{"android":"levelo://app?vid=5658bf19-5e40-4edf-ac7a-3999a5207afd","ios":"levelo://app?vid=5658bf19-5e40-4edf-ac7a-3999a5207afd"},"vehicle_type_id":"4","last_reported":1737864645,"current_range_meters":4000,"station_id":"ce4bhu92rcd13ifvqi70","pricing_plan_id":"cebpf4jnsgd1na2vs0mg"},{"bike_id":"1151d094-62d0-4b8c-a4fe-c37bab531c81","system_id":"levelo_inurba_marseille","lat":43.302007,"lon":5.394719,"is_reserved":false,"is_disabled":false,"rental_uris":{"android":"levelo://app?vid=1151d094-62d0-4b8c-a4fe-c37bab531c81","ios":"levelo://app?vid=1151d094-62d0-4b8c-a4fe-c37bab531c81"},"vehicle_type_id":"4","last_reported":1737864645,"current_range_meters":10800,"station_id":"ce4bh0p2rcd13ifvqd70","pricing_plan_id":"cebpf4jnsgd1na2vs0mg"},{"bike_id":"35422ebd-a2cf-42b2-9801-6e7f91d03f6b","system_id":"levelo_inurba_marseille","lat":43.28413,"lon":5.34986,"is_reserved":false,"is_disabled":false,"rental_uris":{"android":"levelo://app?vid=35422ebd-a2cf-42b2-9801-6e7f91d03f6b","ios":"levelo://app?vid=35422ebd-a2cf-42b2-9801-6e7f91d03f6b"},"vehicle_type_id":"4","last_reported":1737864645,"current_range_meters":38000,"station_id":"ce4bhbh2rcd13ifvqepg","pricing_plan_id":"cebpf4jnsgd1na2vs0mg"},{"bike_id":"fd19a13b-1fee-4b51-b38e-cda34d7999a6","system_id":"levelo_inurba_marseille","lat":43.29437,"lon":5.39748,"is_reserved":false,"is_disabled":false,"rental_uris":{"android":"levelo://app?vid=fd19a13b-1fee-4b51-b38e-cda34d7999a6","ios":"levelo://app?vid=fd19a13b-1fee-4b51-b38e-cda34d7999a6"},"vehicle_type_id":"4","last_reported":1737864645,"current_range_meters":39200,"station_id":"ce4bh3h2rcd13ifvqdo0","pricing_plan_id":"cebpf4jnsgd1na2vs0mg"},{"bike_id":"66743e23-0594-4715-a08c-22434e1ddfd8","system_id":"levelo_inurba_marseille","lat":43.2802,"lon":5.41239,"is_reserved":false,"is_disabled":false,"rental_uris":{"android":"levelo://app?vid=66743e23-0594-4715-a08c-22434e1ddfd8","ios":"levelo://app?vid=66743e23-0594-4715-a08c-22434e1ddfd8"},"vehicle_type_id":"4","last_reported":1737864645,"current_range_meters":32400,"station_id":"","pricing_plan_id":"cebpf4jnsgd1na2vs0mg"},{"bike_id":"82268c69-bcd8-49fb-91ea-6277b4711aa7","system_id":"levelo_inurba_marseille","lat":43.25555,"lon":5.39802,"is_reserved":false,"is_disabled":false,"rental_uris":{"android":"levelo://app?vid=82268c69-bcd8-49fb-91ea-6277b4711aa7","ios":"levelo://app?vid=82268c69-bcd8-49fb-91ea-6277b4711aa7"},"vehicle_type_id":"4","last_reported":1737864645,"current_range_meters":30800,"station_id":"","pricing_plan_id":"cebpf4jnsgd1na2vs0mg"},{"bike_id":"911ffa65-ce22-4097-a294-93ab3f9fc0ac","system_id":"levelo_inurba_marseille","lat":43.25868,"lon":5.39905,"is_reserved":false,"is_disabled":false,"rental_uris":{"android":"levelo://app?vid=911ffa65-ce22-4097-a294-93ab3f9fc0ac","ios":"levelo://app?vid=911ffa65-ce22-4097-a294-93ab3f9fc0ac"},"vehicle_type_id":"4","last_reported":1737864645,"current_range_meters":26800,"station_id":"ce4bhl92rcd13ifvqghg","pricing_plan_id":"cebpf4jnsgd1na2vs0mg"},{"bike_id":"fc79826f-43c1-4702-aafc-d1a3c6212402","system_id":"levelo_inurba_marseille","lat":43.25812,"lon":5.39447,"is_reserved":false,"is_disabled":false,"rental_uris":{"android":"levelo://app?vid=fc79826f-43c1-4702-aafc-d1a3c6212402","ios":"levelo://app?vid=fc79826f-43c1-4702-aafc-d1a3c6212402"},"vehicle_type_id":"4","last_reported":1737864645,"current_range_meters":39200,"station_id":"ce4bhip2rcd13ifvqft0","pricing_plan_id":"cebpf4jnsgd1na2vs0mg"},{"bike_id":"a2478b4a-01c1-497a-8dc8-5c0cc65dd3fd","system_id":"levelo_inurba_marseille","lat":43.30354,"lon":5.41873,"is_reserved":false,"is_disabled":false,"rental_uris":{"android":"levelo://app?vid=a2478b4a-01c1-497a-8dc8-5c0cc65dd3fd","ios":"levelo://app?vid=a2478b4a-01c1-497a-8dc8-5c0cc65dd3fd"},"vehicle_type_id":"4","last_reported":1737864645,"current_range_meters":37600,"station_id":"ce4bhop2rcd13ifvqh7g","pricing_plan_id":"cebpf4jnsgd1na2vs0mg"},{"bike_id":"117461c4-b9ef-4345-be29-f58b7521ef7b","system_id":"levelo_inurba_marseille","lat":43.301326,"lon":5.398698,"is_reserved":false,"is_disabled":false,"rental_uris":{"android":"levelo://app?vid=117461c4-b9ef-4345-be29-f58b7521ef7b","ios":"levelo://app?vid=117461c4-b9ef-4345-be29-f58b7521ef7b"},"vehicle_type_id":"4","last_reported":1737864645,"current_range_meters":38000,"station_id":"ce4bh0h2rcd13ifvqd40","pricing_plan_id":"cebpf4jnsgd1na2vs0mg"},{"bike_id":"0d6b5fe0-b37b-4b5f-a572-54fef00b675a","system_id":"levelo_inurba_marseille","lat":43.31439,"lon":5.3758,"is_reserved":false,"is_disabled":false,"rental_uris":{"android":"levelo://app?vid=0d6b5fe0-b37b-4b5f-a572-54fef00b675a","ios":"levelo://app?vid=0d6b5fe0-b37b-4b5f-a572-54fef00b675a"},"vehicle_type_id":"4","last_reported":1737864645,"current_range_meters":19600,"station_id":"","pricing_plan_id":"cebpf4jnsgd1na2vs0mg"},{"bike_id":"c379aa4d-db37-4ead-836a-7233f4973a2c","system_id":"levelo_inurba_marseille","lat":43.313639,"lon":5.384951,"is_reserved":false,"is_disabled":false,"rental_uris":{"android":"levelo://app?vid=c379aa4d-db37-4ead-836a-7233f4973a2c","ios":"levelo://app?vid=c379aa4d-db37-4ead-836a-7233f4973a2c"},"vehicle_type_id":"4","last_reported":1737864645,"current_range_meters":38800,"station_id":"ce4bgt92rcd13ifvqcf0","pricing_plan_id":"cebpf4jnsgd1na2vs0mg"},{"bike_id":"37ee3cd7-6fb5-45ed-8ad2-846f48498ed5","system_id":"levelo_inurba_marseille","lat":43.308006,"lon":5.381636,"is_reserved":false,"is_disabled":false,"rental_uris":{"android":"levelo://app?vid=37ee3cd7-6fb5-45ed-8ad2-846f48498ed5","ios":"levelo://app?vid=37ee3cd7-6fb5-45ed-8ad2-846f48498ed5"},"vehicle_type_id":"4","last_reported":1737864645,"current_range_meters":22400,"station_id":"ce4bgt12rcd13ifvqce0","pricing_plan_id":"cebpf4jnsgd1na2vs0mg"},{"bike_id":"612cdb80-e2cc-4b64-a057-2821874f17be","system_id":"levelo_inurba_marseille","lat":43.32337,"lon":5.4064,"is_reserved":false,"is_disabled":false,"rental_uris":{"android":"levelo://app?vid=612cdb80-e2cc-4b64-a057-2821874f17be","ios":"levelo://app?vid=612cdb80-e2cc-4b64-a057-2821874f17be"},"vehicle_type_id":"4","last_reported":1737864645,"current_range_meters":39200,"station_id":"ce4bhq92rcd13ifvqhjg","pricing_plan_id":"cebpf4jnsgd1na2vs0mg"},{"bike_id":"14549f3c-9b93-4dce-b64e-10da7e275aeb","system_id":"levelo_inurba_marseille","lat":43.31518,"lon":5.37481,"is_reserved":false,"is_disabled":false,"rental_uris":{"android":"levelo://app?vid=14549f3c-9b93-4dce-b64e-10da7e275aeb","ios":"levelo://app?vid=14549f3c-9b93-4dce-b64e-10da7e275aeb"},"vehicle_type_id":"4","last_reported":1737864645,"current_range_meters":34800,"station_id":"","pricing_plan_id":"cebpf4jnsgd1na2vs0mg"},{"bike_id":"e84ea28d-d6c1-4a23-bfa5-fecf89bc2a9f","system_id":"levelo_inurba_marseille","lat":43.32476,"lon":5.3655,"is_reserved":false,"is_disabled":false,"rental_uris":{"android":"levelo://app?vid=e84ea28d-d6c1-4a23-bfa5-fecf89bc2a9f","ios":"levelo://app?vid=e84ea28d-d6c1-4a23-bfa5-fecf89bc2a9f"},"vehicle_type_id":"4","last_reported":1737864645,"current_range_meters":32800,"station_id":"ce4bhs12rcd13ifvqhvg","pricing_plan_id":"cebpf4jnsgd1na2vs0mg"},{"bike_id":"0b674fd5-64a5-4f5d-8528-bf11362983f2","system_id":"levelo_inurba_marseille","lat":43.3126,"lon":5.40165,"is_reserved":false,"is_disabled":false,"rental_uris":{"android":"levelo://app?vid=0b674fd5-64a5-4f5d-8528-bf11362983f2","ios":"levelo://app?vid=0b674fd5-64a5-4f5d-8528-bf11362983f2"},"vehicle_type_id":"4","last_reported":1737864645,"current_range_meters":38800,"station_id":"ce4bh092rcd13ifvqd30","pricing_plan_id":"cebpf4jnsgd1na2vs0mg"},{"bike_id":"57823e25-308b-4f11-a2b6-a7f52902c1c5","system_id":"levelo_inurba_marseille","lat":43.30796,"lon":5.38183,"is_reserved":false,"is_disabled":true,"rental_uris":{"android":"levelo://app?vid=57823e25-308b-4f11-a2b6-a7f52902c1c5","ios":"levelo://app?vid=57823e25-308b-4f11-a2b6-a7f52902c1c5"},"vehicle_type_id":"4","last_reported":1737864645,"current_range_meters":24800,"station_id":"ce4bgt12rcd13ifvqce0","pricing_plan_id":"cebpf4jnsgd1na2vs0mg"},{"bike_id":"ff68af14-5554-4f8d-a3de-4549d987f602","system_id":"levelo_inurba_marseille","lat":43.29928,"lon":5.43629,"is_reserved":false,"is_disabled":false,"rental_uris":{"android":"levelo://app?vid=ff68af14-5554-4f8d-a3de-4549d987f602","ios":"levelo://app?vid=ff68af14-5554-4f8d-a3de-4549d987f602"},"vehicle_type_id":"4","last_reported":1737864645,"current_range_meters":9200,"station_id":"ce4bhpp2rcd13ifvqhfg","pricing_plan_id":"cebpf4jnsgd1na2vs0mg"},{"bike_id":"06d30e2d-22f9-480d-ba83-2cb91870ed00","system_id":"levelo_inurba_marseille","lat":43.27182,"lon":5.40989,"is_reserved":false,"is_disabled":false,"rental_uris":{"android":"levelo://app?vid=06d30e2d-22f9-480d-ba83-2cb91870ed00","ios":"levelo://app?vid=06d30e2d-22f9-480d-ba83-2cb91870ed00"},"vehicle_type_id":"4","last_reported":1737864645,"current_range_meters":39200,"station_id":"ce4bhl12rcd13ifvqgf0","pricing_plan_id":"cebpf4jnsgd1na2vs0mg"},{"bike_id":"787fabc3-eb91-469a-81b6-44a6fdcc4a9b","system_id":"levelo_inurba_marseille","lat":43.23099,"lon":5.35468,"is_reserved":false,"is_disabled":false,"rental_uris":{"android":"levelo://app?vid=787fabc3-eb91-469a-81b6-44a6fdcc4a9b","ios":"levelo://app?vid=787fabc3-eb91-469a-81b6-44a6fdcc4a9b"},"vehicle_type_id":"4","last_reported":1737864645,"current_range_meters":38000,"station_id":"cpo3342slgdg3j2ifvpg","pricing_plan_id":"cebpf4jnsgd1na2vs0mg"},{"bike_id":"e78c1169-47c8-4567-972b-d01ea79ea5f0","system_id":"levelo_inurba_marseille","lat":43.32482,"lon":5.3655,"is_reserved":false,"is_disabled":false,"rental_uris":{"android":"levelo://app?vid=e78c1169-47c8-4567-972b-d01ea79ea5f0","ios":"levelo://app?vid=e78c1169-47c8-4567-972b-d01ea79ea5f0"},"vehicle_type_id":"4","last_reported":1737864645,"current_range_meters":15200,"station_id":"ce4bhs12rcd13ifvqhvg","pricing_plan_id":"cebpf4jnsgd1na2vs0mg"},{"bike_id":"e070d2f1-f177-4aac-a3dc-9c2e2d9171d2","system_id":"levelo_inurba_marseille","lat":43.2872,"lon":5.3795,"is_reserved":false,"is_disabled":false,"rental_uris":{"android":"levelo://app?vid=e070d2f1-f177-4aac-a3dc-9c2e2d9171d2","ios":"levelo://app?vid=e070d2f1-f177-4aac-a3dc-9c2e2d9171d2"},"vehicle_type_id":"4","last_reported":1737864645,"current_range_meters":38000,"station_id":"ce4bh9p2rcd13ifvqec0","pricing_plan_id":"cebpf4jnsgd1na2vs0mg"},{"bike_id":"1e328aaf-06e5-4767-a395-a9b21576497f","system_id":"levelo_inurba_marseille","lat":43.29757,"lon":5.37105,"is_reserved":false,"is_disabled":true,"rental_uris":{"android":"levelo://app?vid=1e328aaf-06e5-4767-a395-a9b21576497f","ios":"levelo://app?vid=1e328aaf-06e5-4767-a395-a9b21576497f"},"vehicle_type_id":"4","last_reported":1737864645,"current_range_meters":19600,"station_id":"ce4bgop2rcd13ifvqc1g","pricing_plan_id":"cebpf4jnsgd1na2vs0mg"},{"bike_id":"55291dee-d9e3-4b8f-b9dd-b7a0ba6508d6","system_id":"levelo_inurba_marseille","lat":43.30658,"lon":5.40065,"is_reserved":false,"is_disabled":false,"rental_uris":{"android":"levelo://app?vid=55291dee-d9e3-4b8f-b9dd-b7a0ba6508d6","ios":"levelo://app?vid=55291dee-d9e3-4b8f-b9dd-b7a0ba6508d6"},"vehicle_type_id":"4","last_reported":1737864645,"current_range_meters":38800,"station_id":"ce4bh112rcd13ifvqda0","pricing_plan_id":"cebpf4jnsgd1na2vs0mg"},{"bike_id":"7facede7-71a3-4129-a1f3-f8692190d63d","system_id":"levelo_inurba_marseille","lat":43.324884,"lon":5.365739,"is_reserved":false,"is_disabled":false,"rental_uris":{"android":"levelo://app?vid=7facede7-71a3-4129-a1f3-f8692190d63d","ios":"levelo://app?vid=7facede7-71a3-4129-a1f3-f8692190d63d"},"vehicle_type_id":"4","last_reported":1737864645,"current_range_meters":20800,"station_id":"ce4bhs12rcd13ifvqhvg","pricing_plan_id":"cebpf4jnsgd1na2vs0mg"},{"bike_id":"cea64179-3ad9-40de-84e3-34bd7618e03c","system_id":"levelo_inurba_marseille","lat":43.28721,"lon":5.3795,"is_reserved":false,"is_disabled":false,"rental_uris":{"android":"levelo://app?vid=cea64179-3ad9-40de-84e3-34bd7618e03c","ios":"levelo://app?vid=cea64179-3ad9-40de-84e3-34bd7618e03c"},"vehicle_type_id":"4","last_reported":1737864645,"current_range_meters":38800,"station_id":"ce4bh9p2rcd13ifvqec0","pricing_plan_id":"cebpf4jnsgd1na2vs0mg"},{"bike_id":"ea624404-124a-4128-9041-089ad79942c5","system_id":"levelo_inurba_marseille","lat":43.29571,"lon":5.42294,"is_reserved":false,"is_disabled":false,"rental_uris":{"android":"levelo://app?vid=ea624404-124a-4128-9041-089ad79942c5","ios":"levelo://app?vid=ea624404-124a-4128-9041-089ad79942c5"},"vehicle_type_id":"4","last_reported":1737864645,"current_range_meters":29600,"station_id":"ce4bhph2rcd13ifvqhdg","pricing_plan_id":"cebpf4jnsgd1na2vs0mg"},{"bike_id":"8fb2e95e-335b-4ed5-861e-cd6b93def9e1","system_id":"levelo_inurba_marseille","lat":43.29582,"lon":5.4066,"is_reserved":false,"is_disabled":false,"rental_uris":{"android":"levelo://app?vid=8fb2e95e-335b-4ed5-861e-cd6b93def9e1","ios":"levelo://app?vid=8fb2e95e-335b-4ed5-861e-cd6b93def9e1"},"vehicle_type_id":"4","last_reported":1737864645,"current_range_meters":22800,"station_id":"","pricing_plan_id":"cebpf4jnsgd1na2vs0mg"},{"bike_id":"662826ac-353a-4d90-b4d6-b01a8f2632b2","system_id":"levelo_inurba_marseille","lat":43.22931,"lon":5.35383,"is_reserved":false,"is_disabled":false,"rental_uris":{"android":"levelo://app?vid=662826ac-353a-4d90-b4d6-b01a8f2632b2","ios":"levelo://app?vid=662826ac-353a-4d90-b4d6-b01a8f2632b2"},"vehicle_type_id":"4","last_reported":1737864645,"current_range_meters":38000,"station_id":"cpo3532slgdg3j2ikp40","pricing_plan_id":"cebpf4jnsgd1na2vs0mg"},{"bike_id":"b6d9a352-2210-4ef1-baab-acccb23e62ac","system_id":"levelo_inurba_marseille","lat":43.286658,"lon":5.386274,"is_reserved":false,"is_disabled":false,"rental_uris":{"android":"levelo://app?vid=b6d9a352-2210-4ef1-baab-acccb23e62ac","ios":"levelo://app?vid=b6d9a352-2210-4ef1-baab-acccb23e62ac"},"vehicle_type_id":"4","last_reported":1737864645,"current_range_meters":24000,"station_id":"ce4bh492rcd13ifvqdug","pricing_plan_id":"cebpf4jnsgd1na2vs0mg"},{"bike_id":"efe51ebc-f13a-4840-9e3f-9cb391d372cd","system_id":"levelo_inurba_marseille","lat":43.31165,"lon":5.38723,"is_reserved":false,"is_disabled":false,"rental_uris":{"android":"levelo://app?vid=efe51ebc-f13a-4840-9e3f-9cb391d372cd","ios":"levelo://app?vid=efe51ebc-f13a-4840-9e3f-9cb391d372cd"},"vehicle_type_id":"4","last_reported":1737864645,"current_range_meters":7200,"station_id":"ce4bgv12rcd13ifvqcp0","pricing_plan_id":"cebpf4jnsgd1na2vs0mg"},{"bike_id":"a7fcc53e-6f14-41c5-8b6d-25ab86bedc5f","system_id":"levelo_inurba_marseille","lat":43.29012,"lon":5.38635,"is_reserved":false,"is_disabled":true,"rental_uris":{"android":"levelo://app?vid=a7fcc53e-6f14-41c5-8b6d-25ab86bedc5f","ios":"levelo://app?vid=a7fcc53e-6f14-41c5-8b6d-25ab86bedc5f"},"vehicle_type_id":"4","last_reported":1737864645,"current_range_meters":33200,"station_id":"ce4bh4p2rcd13ifvqe0g","pricing_plan_id":"cebpf4jnsgd1na2vs0mg"},{"bike_id":"5b225e1a-7ec3-4e10-afaa-1b5b22453005","system_id":"levelo_inurba_marseille","lat":43.303,"lon":5.369,"is_reserved":false,"is_disabled":false,"rental_uris":{"android":"levelo://app?vid=5b225e1a-7ec3-4e10-afaa-1b5b22453005","ios":"levelo://app?vid=5b225e1a-7ec3-4e10-afaa-1b5b22453005"},"vehicle_type_id":"4","last_reported":1737864645,"current_range_meters":38000,"station_id":"ce4bgqh2rcd13ifvqc5g","pricing_plan_id":"cebpf4jnsgd1na2vs0mg"},{"bike_id":"035327b0-1051-463a-856f-659dfccf59a0","system_id":"levelo_inurba_marseille","lat":43.30462,"lon":5.37901,"is_reserved":false,"is_disabled":false,"rental_uris":{"android":"levelo://app?vid=035327b0-1051-463a-856f-659dfccf59a0","ios":"levelo://app?vid=035327b0-1051-463a-856f-659dfccf59a0"},"vehicle_type_id":"4","last_reported":1737864645,"current_range_meters":24000,"station_id":"ce4bgup2rcd13ifvqcn0","pricing_plan_id":"cebpf4jnsgd1na2vs0mg"},{"bike_id":"309b9922-e652-42c4-96c9-60159fcb6615","system_id":"levelo_inurba_marseille","lat":43.29442,"lon":5.3973,"is_reserved":false,"is_disabled":false,"rental_uris":{"android":"levelo://app?vid=309b9922-e652-42c4-96c9-60159fcb6615","ios":"levelo://app?vid=309b9922-e652-42c4-96c9-60159fcb6615"},"vehicle_type_id":"4","last_reported":1737864645,"current_range_meters":25200,"station_id":"ce4bh3h2rcd13ifvqdo0","pricing_plan_id":"cebpf4jnsgd1na2vs0mg"},{"bike_id":"f8823a67-deb1-4984-83dc-34dfd5d968e4","system_id":"levelo_inurba_marseille","lat":43.28726,"lon":5.36089,"is_reserved":false,"is_disabled":false,"rental_uris":{"android":"levelo://app?vid=f8823a67-deb1-4984-83dc-34dfd5d968e4","ios":"levelo://app?vid=f8823a67-deb1-4984-83dc-34dfd5d968e4"},"vehicle_type_id":"4","last_reported":1737864645,"current_range_meters":39200,"station_id":"cki0cbj6b192h4jlfktg","pricing_plan_id":"cebpf4jnsgd1na2vs0mg"},{"bike_id":"72f6ab44-2997-48bd-b7e1-f733a92a6cc3","system_id":"levelo_inurba_marseille","lat":43.298,"lon":5.40404,"is_reserved":false,"is_disabled":false,"rental_uris":{"android":"levelo://app?vid=72f6ab44-2997-48bd-b7e1-f733a92a6cc3","ios":"levelo://app?vid=72f6ab44-2997-48bd-b7e1-f733a92a6cc3"},"vehicle_type_id":"4","last_reported":1737864645,"current_range_meters":38000,"station_id":"ce4bh112rcd13ifvqd90","pricing_plan_id":"cebpf4jnsgd1na2vs0mg"},{"bike_id":"5cb82ae0-e766-418d-b97d-9c52e6c2593d","system_id":"levelo_inurba_marseille","lat":43.27965,"lon":5.38723,"is_reserved":false,"is_disabled":false,"rental_uris":{"android":"levelo://app?vid=5cb82ae0-e766-418d-b97d-9c52e6c2593d","ios":"levelo://app?vid=5cb82ae0-e766-418d-b97d-9c52e6c2593d"},"vehicle_type_id":"4","last_reported":1737864645,"current_range_meters":37600,"station_id":"ce4bhg12rcd13ifvqf80","pricing_plan_id":"cebpf4jnsgd1na2vs0mg"},{"bike_id":"b1b74833-25c1-4e2a-a6db-4894c4b1a141","system_id":"levelo_inurba_marseille","lat":43.28439,"lon":5.3918,"is_reserved":false,"is_disabled":false,"rental_uris":{"android":"levelo://app?vid=b1b74833-25c1-4e2a-a6db-4894c4b1a141","ios":"levelo://app?vid=b1b74833-25c1-4e2a-a6db-4894c4b1a141"},"vehicle_type_id":"4","last_reported":1737864645,"current_range_meters":27600,"station_id":"ce4bhoh2rcd13ifvqh5g","pricing_plan_id":"cebpf4jnsgd1na2vs0mg"},{"bike_id":"b216d2b8-1056-415d-b47a-14b35e174f87","system_id":"levelo_inurba_marseille","lat":43.268082,"lon":5.40261,"is_reserved":false,"is_disabled":false,"rental_uris":{"android":"levelo://app?vid=b216d2b8-1056-415d-b47a-14b35e174f87","ios":"levelo://app?vid=b216d2b8-1056-415d-b47a-14b35e174f87"},"vehicle_type_id":"4","last_reported":1737864645,"current_range_meters":20000,"station_id":"ce501612rcd8frsf0b60","pricing_plan_id":"cebpf4jnsgd1na2vs0mg"},{"bike_id":"03deefff-87ac-4b19-8932-093032a2512e","system_id":"levelo_inurba_marseille","lat":43.32283,"lon":5.38289,"is_reserved":false,"is_disabled":false,"rental_uris":{"android":"levelo://app?vid=03deefff-87ac-4b19-8932-093032a2512e","ios":"levelo://app?vid=03deefff-87ac-4b19-8932-093032a2512e"},"vehicle_type_id":"4","last_reported":1737864645,"current_range_meters":32000,"station_id":"ce4bhr12rcd13ifvqhqg","pricing_plan_id":"cebpf4jnsgd1na2vs0mg"},{"bike_id":"5db2dc59-df58-4ac2-bd64-2c2bbb203222","system_id":"levelo_inurba_marseille","lat":43.31115,"lon":5.37764,"is_reserved":false,"is_disabled":false,"rental_uris":{"android":"levelo://app?vid=5db2dc59-df58-4ac2-bd64-2c2bbb203222","ios":"levelo://app?vid=5db2dc59-df58-4ac2-bd64-2c2bbb203222"},"vehicle_type_id":"4","last_reported":1737864645,"current_range_meters":27200,"station_id":"ce4bgt92rcd13ifvqcg0","pricing_plan_id":"cebpf4jnsgd1na2vs0mg"},{"bike_id":"06db7b38-d368-4168-a3af-68cb37ab41ea","system_id":"levelo_inurba_marseille","lat":43.316921,"lon":5.404681,"is_reserved":false,"is_disabled":false,"rental_uris":{"android":"levelo://app?vid=06db7b38-d368-4168-a3af-68cb37ab41ea","ios":"levelo://app?vid=06db7b38-d368-4168-a3af-68cb37ab41ea"},"vehicle_type_id":"4","last_reported":1737864645,"current_range_meters":38800,"station_id":"ce4bh012rcd13ifvqd00","pricing_plan_id":"cebpf4jnsgd1na2vs0mg"},{"bike_id":"1b8a9691-9200-448a-9cc4-888eebbd623d","system_id":"levelo_inurba_marseille","lat":43.30768,"lon":5.37648,"is_reserved":false,"is_disabled":false,"rental_uris":{"android":"levelo://app?vid=1b8a9691-9200-448a-9cc4-888eebbd623d","ios":"levelo://app?vid=1b8a9691-9200-448a-9cc4-888eebbd623d"},"vehicle_type_id":"4","last_reported":1737864645,"current_range_meters":24800,"station_id":"ce4bgv92rcd13ifvqcq0","pricing_plan_id":"cebpf4jnsgd1na2vs0mg"},{"bike_id":"5acd6d4c-ef87-4c68-b129-dd7f9a07b39b","system_id":"levelo_inurba_marseille","lat":43.3267,"lon":5.40983,"is_reserved":false,"is_disabled":false,"rental_uris":{"android":"levelo://app?vid=5acd6d4c-ef87-4c68-b129-dd7f9a07b39b","ios":"levelo://app?vid=5acd6d4c-ef87-4c68-b129-dd7f9a07b39b"},"vehicle_type_id":"4","last_reported":1737864645,"current_range_meters":39200,"station_id":"ce4bhpp2rcd13ifvqhgg","pricing_plan_id":"cebpf4jnsgd1na2vs0mg"},{"bike_id":"5af189d1-b812-4412-8e66-fc1316975d36","system_id":"levelo_inurba_marseille","lat":43.28463,"lon":5.35881,"is_reserved":false,"is_disabled":false,"rental_uris":{"android":"levelo://app?vid=5af189d1-b812-4412-8e66-fc1316975d36","ios":"levelo://app?vid=5af189d1-b812-4412-8e66-fc1316975d36"},"vehicle_type_id":"4","last_reported":1737864645,"current_range_meters":30000,"station_id":"ce4bhah2rcd13ifvqei0","pricing_plan_id":"cebpf4jnsgd1na2vs0mg"},{"bike_id":"b9aa5fda-4857-403c-a677-b03e371c4b3e","system_id":"levelo_inurba_marseille","lat":43.28645,"lon":5.36344,"is_reserved":false,"is_disabled":false,"rental_uris":{"android":"levelo://app?vid=b9aa5fda-4857-403c-a677-b03e371c4b3e","ios":"levelo://app?vid=b9aa5fda-4857-403c-a677-b03e371c4b3e"},"vehicle_type_id":"4","last_reported":1737864645,"current_range_meters":24400,"station_id":"ce4bhah2rcd13ifvqej0","pricing_plan_id":"cebpf4jnsgd1na2vs0mg"},{"bike_id":"e7965682-cb07-492d-a8dc-957cdc5a4b6e","system_id":"levelo_inurba_marseille","lat":43.29986,"lon":5.38555,"is_reserved":false,"is_disabled":true,"rental_uris":{"android":"levelo://app?vid=e7965682-cb07-492d-a8dc-957cdc5a4b6e","ios":"levelo://app?vid=e7965682-cb07-492d-a8dc-957cdc5a4b6e"},"vehicle_type_id":"4","last_reported":1737864645,"current_range_meters":9600,"station_id":"ce4bgj92rcd13ifvqbd0","pricing_plan_id":"cebpf4jnsgd1na2vs0mg"},{"bike_id":"b13c0285-a5fa-4bec-b9fc-897f90742c91","system_id":"levelo_inurba_marseille","lat":43.28269,"lon":5.35071,"is_reserved":false,"is_disabled":false,"rental_uris":{"android":"levelo://app?vid=b13c0285-a5fa-4bec-b9fc-897f90742c91","ios":"levelo://app?vid=b13c0285-a5fa-4bec-b9fc-897f90742c91"},"vehicle_type_id":"4","last_reported":1737864645,"current_range_meters":3600,"station_id":"ce4bhbp2rcd13ifvqerg","pricing_plan_id":"cebpf4jnsgd1na2vs0mg"},{"bike_id":"6a9e34c1-9f2c-44ed-af34-4f040d9ae6f3","system_id":"levelo_inurba_marseille","lat":43.29558,"lon":5.42288,"is_reserved":false,"is_disabled":false,"rental_uris":{"android":"levelo://app?vid=6a9e34c1-9f2c-44ed-af34-4f040d9ae6f3","ios":"levelo://app?vid=6a9e34c1-9f2c-44ed-af34-4f040d9ae6f3"},"vehicle_type_id":"4","last_reported":1737864645,"current_range_meters":19600,"station_id":"ce4bhph2rcd13ifvqhdg","pricing_plan_id":"cebpf4jnsgd1na2vs0mg"},{"bike_id":"06c3e76e-c1e9-4491-a816-69dfa242b750","system_id":"levelo_inurba_marseille","lat":43.3,"lon":5.41288,"is_reserved":false,"is_disabled":false,"rental_uris":{"android":"levelo://app?vid=06c3e76e-c1e9-4491-a816-69dfa242b750","ios":"levelo://app?vid=06c3e76e-c1e9-4491-a816-69dfa242b750"},"vehicle_type_id":"4","last_reported":1737864645,"current_range_meters":38400,"station_id":"ce4bhp12rcd13ifvqh9g","pricing_plan_id":"cebpf4jnsgd1na2vs0mg"},{"bike_id":"52f72469-6923-4291-a0da-0208134ef5f3","system_id":"levelo_inurba_marseille","lat":43.28671,"lon":5.36368,"is_reserved":false,"is_disabled":false,"rental_uris":{"android":"levelo://app?vid=52f72469-6923-4291-a0da-0208134ef5f3","ios":"levelo://app?vid=52f72469-6923-4291-a0da-0208134ef5f3"},"vehicle_type_id":"4","last_reported":1737864645,"current_range_meters":11200,"station_id":"ce4bhah2rcd13ifvqej0","pricing_plan_id":"cebpf4jnsgd1na2vs0mg"},{"bike_id":"e7b63a5d-2827-4f63-83cd-321e7b17d5d6","system_id":"levelo_inurba_marseille","lat":43.31357,"lon":5.38499,"is_reserved":false,"is_disabled":false,"rental_uris":{"android":"levelo://app?vid=e7b63a5d-2827-4f63-83cd-321e7b17d5d6","ios":"levelo://app?vid=e7b63a5d-2827-4f63-83cd-321e7b17d5d6"},"vehicle_type_id":"4","last_reported":1737864645,"current_range_meters":36400,"station_id":"ce4bgt92rcd13ifvqcf0","pricing_plan_id":"cebpf4jnsgd1na2vs0mg"},{"bike_id":"26d3de6a-b7db-4cd7-885c-9cb71bb28aa5","system_id":"levelo_inurba_marseille","lat":43.27381,"lon":5.36279,"is_reserved":false,"is_disabled":false,"rental_uris":{"android":"levelo://app?vid=26d3de6a-b7db-4cd7-885c-9cb71bb28aa5","ios":"levelo://app?vid=26d3de6a-b7db-4cd7-885c-9cb71bb28aa5"},"vehicle_type_id":"4","last_reported":1737864645,"current_range_meters":37600,"station_id":"ce4bhbh2rcd13ifvqeo0","pricing_plan_id":"cebpf4jnsgd1na2vs0mg"},{"bike_id":"ff8fb19f-3745-4a02-8c12-50b768fdb4f0","system_id":"levelo_inurba_marseille","lat":43.24821,"lon":5.37448,"is_reserved":false,"is_disabled":false,"rental_uris":{"android":"levelo://app?vid=ff8fb19f-3745-4a02-8c12-50b768fdb4f0","ios":"levelo://app?vid=ff8fb19f-3745-4a02-8c12-50b768fdb4f0"},"vehicle_type_id":"4","last_reported":1737864645,"current_range_meters":38800,"station_id":"ce4bhgh2rcd13ifvqfb0","pricing_plan_id":"cebpf4jnsgd1na2vs0mg"},{"bike_id":"7c78a755-c7f5-4f07-a96b-621451d47948","system_id":"levelo_inurba_marseille","lat":43.2991,"lon":5.43665,"is_reserved":false,"is_disabled":false,"rental_uris":{"android":"levelo://app?vid=7c78a755-c7f5-4f07-a96b-621451d47948","ios":"levelo://app?vid=7c78a755-c7f5-4f07-a96b-621451d47948"},"vehicle_type_id":"4","last_reported":1737864645,"current_range_meters":33200,"station_id":"ce4bhpp2rcd13ifvqhfg","pricing_plan_id":"cebpf4jnsgd1na2vs0mg"},{"bike_id":"0272ba76-6ca2-48a1-97dc-d2ada6643830","system_id":"levelo_inurba_marseille","lat":43.3016,"lon":5.37426,"is_reserved":false,"is_disabled":false,"rental_uris":{"android":"levelo://app?vid=0272ba76-6ca2-48a1-97dc-d2ada6643830","ios":"levelo://app?vid=0272ba76-6ca2-48a1-97dc-d2ada6643830"},"vehicle_type_id":"4","last_reported":1737864645,"current_range_meters":38800,"station_id":"ce4bgs92rcd13ifvqcc0","pricing_plan_id":"cebpf4jnsgd1na2vs0mg"},{"bike_id":"57ad42fa-33f6-4179-8625-f01851334107","system_id":"levelo_inurba_marseille","lat":43.27937,"lon":5.41042,"is_reserved":false,"is_disabled":false,"rental_uris":{"android":"levelo://app?vid=57ad42fa-33f6-4179-8625-f01851334107","ios":"levelo://app?vid=57ad42fa-33f6-4179-8625-f01851334107"},"vehicle_type_id":"4","last_reported":1737864645,"current_range_meters":33600,"station_id":"ce4bhnp2rcd13ifvqh0g","pricing_plan_id":"cebpf4jnsgd1na2vs0mg"},{"bike_id":"8f34d3ee-cda0-4a61-8840-ab738242ba25","system_id":"levelo_inurba_marseille","lat":43.29972,"lon":5.37164,"is_reserved":false,"is_disabled":false,"rental_uris":{"android":"levelo://app?vid=8f34d3ee-cda0-4a61-8840-ab738242ba25","ios":"levelo://app?vid=8f34d3ee-cda0-4a61-8840-ab738242ba25"},"vehicle_type_id":"4","last_reported":1737864645,"current_range_meters":38800,"station_id":"ce4bgr92rcd13ifvqc7g","pricing_plan_id":"cebpf4jnsgd1na2vs0mg"},{"bike_id":"1bb882a2-3fe5-4f5c-9c66-739ebe7116d9","system_id":"levelo_inurba_marseille","lat":43.31271,"lon":5.40163,"is_reserved":false,"is_disabled":false,"rental_uris":{"android":"levelo://app?vid=1bb882a2-3fe5-4f5c-9c66-739ebe7116d9","ios":"levelo://app?vid=1bb882a2-3fe5-4f5c-9c66-739ebe7116d9"},"vehicle_type_id":"4","last_reported":1737864645,"current_range_meters":8400,"station_id":"ce4bh092rcd13ifvqd30","pricing_plan_id":"cebpf4jnsgd1na2vs0mg"},{"bike_id":"e4f34db4-be4b-445b-91b7-c3d5ebc6530c","system_id":"levelo_inurba_marseille","lat":43.31265,"lon":5.4015,"is_reserved":false,"is_disabled":false,"rental_uris":{"android":"levelo://app?vid=e4f34db4-be4b-445b-91b7-c3d5ebc6530c","ios":"levelo://app?vid=e4f34db4-be4b-445b-91b7-c3d5ebc6530c"},"vehicle_type_id":"4","last_reported":1737864645,"current_range_meters":38800,"station_id":"ce4bh092rcd13ifvqd30","pricing_plan_id":"cebpf4jnsgd1na2vs0mg"},{"bike_id":"4a09c4f3-d9c4-40c7-8011-9d24bc2ef389","system_id":"levelo_inurba_marseille","lat":43.23962,"lon":5.36635,"is_reserved":false,"is_disabled":false,"rental_uris":{"android":"levelo://app?vid=4a09c4f3-d9c4-40c7-8011-9d24bc2ef389","ios":"levelo://app?vid=4a09c4f3-d9c4-40c7-8011-9d24bc2ef389"},"vehicle_type_id":"4","last_reported":1737864645,"current_range_meters":26000,"station_id":"ce4bhi12rcd13ifvqfp0","pricing_plan_id":"cebpf4jnsgd1na2vs0mg"},{"bike_id":"a48a4fa8-387b-4ecc-bc7a-c3f07822bf47","system_id":"levelo_inurba_marseille","lat":43.270536,"lon":5.392144,"is_reserved":false,"is_disabled":true,"rental_uris":{"android":"levelo://app?vid=a48a4fa8-387b-4ecc-bc7a-c3f07822bf47","ios":"levelo://app?vid=a48a4fa8-387b-4ecc-bc7a-c3f07822bf47"},"vehicle_type_id":"4","last_reported":1737864645,"current_range_meters":0,"station_id":"","pricing_plan_id":"cebpf4jnsgd1na2vs0mg"},{"bike_id":"fd38b4b0-f42b-4d68-b90d-cf0284d0f76e","system_id":"levelo_inurba_marseille","lat":43.24066,"lon":5.37745,"is_reserved":false,"is_disabled":false,"rental_uris":{"android":"levelo://app?vid=fd38b4b0-f42b-4d68-b90d-cf0284d0f76e","ios":"levelo://app?vid=fd38b4b0-f42b-4d68-b90d-cf0284d0f76e"},"vehicle_type_id":"4","last_reported":1737864645,"current_range_meters":8000,"station_id":"ce4bhnp2rcd13ifvqgvg","pricing_plan_id":"cebpf4jnsgd1na2vs0mg"},{"bike_id":"6173c577-2f12-488f-868f-2d9a9e7d8962","system_id":"levelo_inurba_marseille","lat":43.28635,"lon":5.35073,"is_reserved":false,"is_disabled":false,"rental_uris":{"android":"levelo://app?vid=6173c577-2f12-488f-868f-2d9a9e7d8962","ios":"levelo://app?vid=6173c577-2f12-488f-868f-2d9a9e7d8962"},"vehicle_type_id":"4","last_reported":1737864645,"current_range_meters":31200,"station_id":"ce4bhch2rcd13ifvqeug","pricing_plan_id":"cebpf4jnsgd1na2vs0mg"},{"bike_id":"c50406bb-7e91-45b8-907e-ea15e34e94d4","system_id":"levelo_inurba_marseille","lat":43.30887,"lon":5.37185,"is_reserved":false,"is_disabled":false,"rental_uris":{"android":"levelo://app?vid=c50406bb-7e91-45b8-907e-ea15e34e94d4","ios":"levelo://app?vid=c50406bb-7e91-45b8-907e-ea15e34e94d4"},"vehicle_type_id":"4","last_reported":1737864645,"current_range_meters":19200,"station_id":"ce4bguh2rcd13ifvqckg","pricing_plan_id":"cebpf4jnsgd1na2vs0mg"},{"bike_id":"8fd0082a-8558-471d-bd5c-8f2bb03de120","system_id":"levelo_inurba_marseille","lat":43.28735,"lon":5.3999,"is_reserved":false,"is_disabled":true,"rental_uris":{"android":"levelo://app?vid=8fd0082a-8558-471d-bd5c-8f2bb03de120","ios":"levelo://app?vid=8fd0082a-8558-471d-bd5c-8f2bb03de120"},"vehicle_type_id":"4","last_reported":1737864645,"current_range_meters":28000,"station_id":"ce4bho92rcd13ifvqh3g","pricing_plan_id":"cebpf4jnsgd1na2vs0mg"},{"bike_id":"d366cae2-82ff-4e64-9fca-0a14d02521b6","system_id":"levelo_inurba_marseille","lat":43.31065,"lon":5.38351,"is_reserved":false,"is_disabled":false,"rental_uris":{"android":"levelo://app?vid=d366cae2-82ff-4e64-9fca-0a14d02521b6","ios":"levelo://app?vid=d366cae2-82ff-4e64-9fca-0a14d02521b6"},"vehicle_type_id":"4","last_reported":1737864645,"current_range_meters":38800,"station_id":"ce4bgv92rcd13ifvqcr0","pricing_plan_id":"cebpf4jnsgd1na2vs0mg"},{"bike_id":"0654c2c2-6ca0-425f-91f8-86895167019a","system_id":"levelo_inurba_marseille","lat":43.26787,"lon":5.40273,"is_reserved":false,"is_disabled":false,"rental_uris":{"android":"levelo://app?vid=0654c2c2-6ca0-425f-91f8-86895167019a","ios":"levelo://app?vid=0654c2c2-6ca0-425f-91f8-86895167019a"},"vehicle_type_id":"4","last_reported":1737864645,"current_range_meters":35200,"station_id":"ce501612rcd8frsf0b60","pricing_plan_id":"cebpf4jnsgd1na2vs0mg"},{"bike_id":"9c09af66-30f1-488d-910d-a8a905d02871","system_id":"levelo_inurba_marseille","lat":43.29348,"lon":5.37946,"is_reserved":false,"is_disabled":true,"rental_uris":{"android":"levelo://app?vid=9c09af66-30f1-488d-910d-a8a905d02871","ios":"levelo://app?vid=9c09af66-30f1-488d-910d-a8a905d02871"},"vehicle_type_id":"4","last_reported":1737864645,"current_range_meters":0,"station_id":"","pricing_plan_id":"cebpf4jnsgd1na2vs0mg"},{"bike_id":"e0c46f48-76be-42d2-b247-939c8e1109b6","system_id":"levelo_inurba_marseille","lat":43.24997,"lon":5.3894,"is_reserved":false,"is_disabled":false,"rental_uris":{"android":"levelo://app?vid=e0c46f48-76be-42d2-b247-939c8e1109b6","ios":"levelo://app?vid=e0c46f48-76be-42d2-b247-939c8e1109b6"},"vehicle_type_id":"4","last_reported":1737864645,"current_range_meters":29600,"station_id":"ce4bhgp2rcd13ifvqfd0","pricing_plan_id":"cebpf4jnsgd1na2vs0mg"},{"bike_id":"0a6d523a-da92-4243-9b7d-cd9517b48aab","system_id":"levelo_inurba_marseille","lat":43.28942,"lon":5.3962,"is_reserved":false,"is_disabled":false,"rental_uris":{"android":"levelo://app?vid=0a6d523a-da92-4243-9b7d-cd9517b48aab","ios":"levelo://app?vid=0a6d523a-da92-4243-9b7d-cd9517b48aab"},"vehicle_type_id":"4","last_reported":1737864645,"current_range_meters":39200,"station_id":"ce4bh3h2rcd13ifvqdn0","pricing_plan_id":"cebpf4jnsgd1na2vs0mg"},