{"last_updated":1729257460,"ttl":60,"version":"2.2","data":{"bikes":[{"bike_id":"87bc5034-8ec1-430c-a2a1-73a16169275f","system_id":"levelo_inurba_marseille","lat":43.29711,"lon":5.3769,"is_reserved":false,"is_disabled":false,"rental_uris":{"android":"levelo://app?vid=87bc5034-8ec1-430c-a2a1-73a16169275f","ios":"levelo://app?vid=87bc5034-8ec1-430c-a2a1-73a16169275f"},"vehicle_type_id":"4","last_reported":1729257461,"current_range_meters":24800,"station_id":"ce4bgkh2rcd13ifvqbl0","pricing_plan_id":"cebpf4jnsgd1na2vs0mg"},{"bike_id":"7c215bb1-a727-4569-986d-c8f6cf1e676e","system_id":"levelo_inurba_marseille","lat":43.31712,"lon":5.43706,"is_reserved":false,"is_disabled":false,"rental_uris":{"android":"levelo://app?vid=7c215bb1-a727-4569-986d-c8f6cf1e676e","ios":"levelo://app?vid=7c215bb1-a727-4569-986d-c8f6cf1e676e"},"vehicle_type_id":"4","last_reported":1729257461,"current_range_meters":32400,"station_id":"ce4bhp92rcd13ifvqhcg","pricing_plan_id":"cebpf4jnsgd1na2vs0mg"},{"bike_id":"0bd29515-40d3-4b3d-a1be-6c5884ab24e6","system_id":"levelo_inurba_marseille","lat":43.32287,"lon":5.3827,"is_reserved":false,"is_disabled":false,"rental_uris":{"android":"levelo://app?vid=0bd29515-40d3-4b3d-a1be-6c5884ab24e6","ios":"levelo://app?vid=0bd29515-40d3-4b3d-a1be-6c5884ab24e6"},"vehicle_type_id":"4","last_reported":1729257461,"current_range_meters":22800,"station_id":"ce4bhr12rcd13ifvqhqg","pricing_plan_id":"cebpf4jnsgd1na2vs0mg"},{"bike_id":"676ec6c4-6b42-43e0-81fe-327782965da5","system_id":"levelo_inurba_marseille","lat":43.33765,"lon":5.37484,"is_reserved":false,"is_disabled":false,"rental_uris":{"android":"levelo://app?vid=676ec6c4-6b42-43e0-81fe-327782965da5","ios":"levelo://app?vid=676ec6c4-6b42-43e0-81fe-327782965da5"},"vehicle_type_id":"4","last_reported":1729257461,"current_range_meters":18000,"station_id":"","pricing_plan_id":"cebpf4jnsgd1na2vs0mg"},{"bike_id":"966f251d-4412-4e77-82b7-c125675614ef","system_id":"levelo_inurba_marseille","lat":43.337444,"lon":5.374475,"is_reserved":false,"is_disabled":false,"rental_uris":{"android":"levelo://app?vid=966f251d-4412-4e77-82b7-c125675614ef","ios":"levelo://app?vid=966f251d-4412-4e77-82b7-c125675614ef"},"vehicle_type_id":"4","last_reported":1729257461,"current_range_meters":8000,"station_id":"","pricing_plan_id":"cebpf4jnsgd1na2vs0mg"},{"bike_id":"c27cf383-7e73-4c9d-bbe8-221b8bc0a31c","system_id":"levelo_inurba_marseille","lat":43.27062,"lon":5.40255,"is_reserved":false,"is_disabled":false,"rental_uris":{"android":"levelo://app?vid=c27cf383-7e73-4c9d-bbe8-221b8bc0a31c","ios":"levelo://app?vid=c27cf383-7e73-4c9d-bbe8-221b8bc0a31c"},"vehicle_type_id":"4","last_reported":1729257461,"current_range_meters":16400,"station_id":"ce4bhk92rcd13ifvqgc0","pricing_plan_id":"cebpf4jnsgd1na2vs0mg"},{"bike_id":"60511756-1e81-4687-933b-ab4aa4e97ab5","system_id":"levelo_inurba_marseille","lat":43.29026,"lon":5.38642,"is_reserved":false,"is_disabled":false,"rental_uris":{"android":"levelo://app?vid=60511756-1e81-4687-933b-ab4aa4e97ab5","ios":"levelo://app?vid=60511756-1e81-4687-933b-ab4aa4e97ab5"},"vehicle_type_id":"4","last_reported":1729257461,"current_range_meters":38800,"station_id":"ce4bh4p2rcd13ifvqe0g","pricing_plan_id":"cebpf4jnsgd1na2vs0mg"},{"bike_id":"45e0b442-af29-4887-831b-5ca39b28fbc1","system_id":"levelo_inurba_marseille","lat":43.23963,"lon":5.36644,"is_reserved":false,"is_disabled":false,"rental_uris":{"android":"levelo://app?vid=45e0b442-af29-4887-831b-5ca39b28fbc1","ios":"levelo://app?vid=45e0b442-af29-4887-831b-5ca39b28fbc1"},"vehicle_type_id":"4","last_reported":1729257461,"current_range_meters":17600,"station_id":"ce4bhi12rcd13ifvqfp0","pricing_plan_id":"cebpf4jnsgd1na2vs0mg"},{"bike_id":"25668d1a-6b94-4045-a721-d94eb38e1ae7","system_id":"levelo_inurba_marseille","lat":43.27372,"lon":5.3625,"is_reserved":false,"is_disabled":false,"rental_uris":{"android":"levelo://app?vid=25668d1a-6b94-4045-a721-d94eb38e1ae7","ios":"levelo://app?vid=25668d1a-6b94-4045-a721-d94eb38e1ae7"},"vehicle_type_id":"4","last_reported":1729257461,"current_range_meters":40000,"station_id":"ce4bhbh2rcd13ifvqeo0","pricing_plan_id":"cebpf4jnsgd1na2vs0mg"},{"bike_id":"3df93ef8-ec56-4fa2-bbc3-8060ee159878","system_id":"levelo_inurba_marseille","lat":43.29261,"lon":5.40918,"is_reserved":false,"is_disabled":false,"rental_uris":{"android":"levelo://app?vid=3df93ef8-ec56-4fa2-bbc3-8060ee159878","ios":"levelo://app?vid=3df93ef8-ec56-4fa2-bbc3-8060ee159878"},"vehicle_type_id":"4","last_reported":1729257461,"current_range_meters":32000,"station_id":"ce4bh192rcd13ifvqdc0","pricing_plan_id":"cebpf4jnsgd1na2vs0mg"},{"bike_id":"dccf0f04-4e67-4c53-a7b2-6636b5a9de32","system_id":"levelo_inurba_marseille","lat":43.28139,"lon":5.42647,"is_reserved":false,"is_disabled":false,"rental_uris":{"android":"levelo://app?vid=dccf0f04-4e67-4c53-a7b2-6636b5a9de32","ios":"levelo://app?vid=dccf0f04-4e67-4c53-a7b2-6636b5a9de32"},"vehicle_type_id":"4","last_reported":1729257461,"current_range_meters":12000,"station_id":"ce4bhnh2rcd13ifvqgug","pricing_plan_id":"cebpf4jnsgd1na2vs0mg"},{"bike_id":"42b6425e-d1e2-4ddd-a986-869c159acb73","system_id":"levelo_inurba_marseille","lat":43.299647,"lon":5.384952,"is_reserved":false,"is_disabled":false,"rental_uris":{"android":"levelo://app?vid=42b6425e-d1e2-4ddd-a986-869c159acb73","ios":"levelo://app?vid=42b6425e-d1e2-4ddd-a986-869c159acb73"},"vehicle_type_id":"4","last_reported":1729257461,"current_range_meters":13600,"station_id":"ce4bhb92rcd13ifvqen0","pricing_plan_id":"cebpf4jnsgd1na2vs0mg"},{"bike_id":"0e9ad9af-e89b-412e-a7df-344fe8f113f7","system_id":"levelo_inurba_marseille","lat":43.25006,"lon":5.38925,"is_reserved":false,"is_disabled":false,"rental_uris":{"android":"levelo://app?vid=0e9ad9af-e89b-412e-a7df-344fe8f113f7","ios":"levelo://app?vid=0e9ad9af-e89b-412e-a7df-344fe8f113f7"},"vehicle_type_id":"4","last_reported":1729257461,"current_range_meters":40000,"station_id":"ce4bhgp2rcd13ifvqfd0","pricing_plan_id":"cebpf4jnsgd1na2vs0mg"},{"bike_id":"1381b8ef-3208-4478-b691-a40224ee4ba2","system_id":"levelo_inurba_marseille","lat":43.23149,"lon":5.43719,"is_reserved":false,"is_disabled":false,"rental_uris":{"android":"levelo://app?vid=1381b8ef-3208-4478-b691-a40224ee4ba2","ios":"levelo://app?vid=1381b8ef-3208-4478-b691-a40224ee4ba2"},"vehicle_type_id":"4","last_reported":1729257461,"current_range_meters":17200,"station_id":"ce4bhmp2rcd13ifvqgog","pricing_plan_id":"cebpf4jnsgd1na2vs0mg"},{"bike_id":"d5e1f619-4080-437e-b285-a378a74f9fbb","system_id":"levelo_inurba_marseille","lat":43.28338,"lon":5.38109,"is_reserved":false,"is_disabled":false,"rental_uris":{"android":"levelo://app?vid=d5e1f619-4080-437e-b285-a378a74f9fbb","ios":"levelo://app?vid=d5e1f619-4080-437e-b285-a378a74f9fbb"},"vehicle_type_id":"4","last_reported":1729257461,"current_range_meters":26000,"station_id":"ce4bh412rcd13ifvqdr0","pricing_plan_id":"cebpf4jnsgd1na2vs0mg"},{"bike_id":"ef00c94a-e76e-4e00-bfec-e40b8a260288","system_id":"levelo_inurba_marseille","lat":43.25498,"lon":5.37644,"is_reserved":false,"is_disabled":false,"rental_uris":{"android":"levelo://app?vid=ef00c94a-e76e-4e00-bfec-e40b8a260288","ios":"levelo://app?vid=ef00c94a-e76e-4e00-bfec-e40b8a260288"},"vehicle_type_id":"4","last_reported":1729257461,"current_range_meters":40000,"station_id":"ce4bhh12rcd13ifvqff0","pricing_plan_id":"cebpf4jnsgd1na2vs0mg"},{"bike_id":"10c14240-d5f6-4a02-adbd-802f8a74ca30","system_id":"levelo_inurba_marseille","lat":43.25586,"lon":5.3824,"is_reserved":false,"is_disabled":false,"rental_uris":{"android":"levelo://app?vid=10c14240-d5f6-4a02-adbd-802f8a74ca30","ios":"levelo://app?vid=10c14240-d5f6-4a02-adbd-802f8a74ca30"},"vehicle_type_id":"4","last_reported":1729257461,"current_range_meters":18800,"station_id":"ce4bhgp2rcd13ifvqfd0","pricing_plan_id":"cebpf4jnsgd1na2vs0mg"},{"bike_id":"ab0a1ff0-9f1e-4bf7-b3cd-abf65dc62249","system_id":"levelo_inurba_marseille","lat":43.2694,"lon":5.40249,"is_reserved":false,"is_disabled":false,"rental_uris":{"android":"levelo://app?vid=ab0a1ff0-9f1e-4bf7-b3cd-abf65dc62249","ios":"levelo://app?vid=ab0a1ff0-9f1e-4bf7-b3cd-abf65dc62249"},"vehicle_type_id":"4","last_reported":1729257461,"current_range_meters":29600,"station_id":"cjm6bp8fraef2m0cb0m0","pricing_plan_id":"cebpf4jnsgd1na2vs0mg"},{"bike_id":"88ed0f9f-e90c-4cb7-aed8-4122cf81bf11","system_id":"levelo_inurba_marseille","lat":43.26033,"lon":5.37553,"is_reserved":false,"is_disabled":false,"rental_uris":{"android":"levelo://app?vid=88ed0f9f-e90c-4cb7-aed8-4122cf81bf11","ios":"levelo://app?vid=88ed0f9f-e90c-4cb7-aed8-4122cf81bf11"},"vehicle_type_id":"4","last_reported":1729257461,"current_range_meters":38800,"station_id":"ce4bhgh2rcd13ifvqfa0","pricing_plan_id":"cebpf4jnsgd1na2vs0mg"},{"bike_id":"4ae2c184-8c50-452d-87fb-8f7bf4f540f3","system_id":"levelo_inurba_marseille","lat":43.24652,"lon":5.38898,"is_reserved":false,"is_disabled":false,"rental_uris":{"android":"levelo://app?vid=4ae2c184-8c50-452d-87fb-8f7bf4f540f3","ios":"levelo://app?vid=4ae2c184-8c50-452d-87fb-8f7bf4f540f3"},"vehicle_type_id":"4","last_reported":1729257461,"current_range_meters":40000,"station_id":"ce4bhg12rcd13ifvqf60","pricing_plan_id":"cebpf4jnsgd1na2vs0mg"},{"bike_id":"0e8275b9-6ed0-44f2-8fab-6b763bc6596c","system_id":"levelo_inurba_marseille","lat":43.301399,"lon":5.387809,"is_reserved":false,"is_disabled":false,"rental_uris":{"android":"levelo://app?vid=0e8275b9-6ed0-44f2-8fab-6b763bc6596c","ios":"levelo://app?vid=0e8275b9-6ed0-44f2-8fab-6b763bc6596c"},"vehicle_type_id":"4","last_reported":1729257461,"current_range_meters":35600,"station_id":"ce4bghh2rcd13ifvqb60","pricing_plan_id":"cebpf4jnsgd1na2vs0mg"},{"bike_id":"d0fae496-82f2-4fb9-80de-d49c86b5fd33","system_id":"levelo_inurba_marseille","lat":43.24549,"lon":5.39526,"is_reserved":false,"is_disabled":false,"rental_uris":{"android":"levelo://app?vid=d0fae496-82f2-4fb9-80de-d49c86b5fd33","ios":"levelo://app?vid=d0fae496-82f2-4fb9-80de-d49c86b5fd33"},"vehicle_type_id":"4","last_reported":1729257461,"current_range_meters":30800,"station_id":"ce4bhlp2rcd13ifvqgjg","pricing_plan_id":"cebpf4jnsgd1na2vs0mg"},{"bike_id":"5a732ab1-9f99-4405-ae29-97b36bb89447","system_id":"levelo_inurba_marseille","lat":43.268036,"lon":5.382474,"is_reserved":false,"is_disabled":false,"rental_uris":{"android":"levelo://app?vid=5a732ab1-9f99-4405-ae29-97b36bb89447","ios":"levelo://app?vid=5a732ab1-9f99-4405-ae29-97b36bb89447"},"vehicle_type_id":"4","last_reported":1729257461,"current_range_meters":34800,"station_id":"ce4bhg92rcd13ifvqf90","pricing_plan_id":"cebpf4jnsgd1na2vs0mg"},{"bike_id":"5591f93d-66e8-40d2-a38e-f1e627b6ecf9","system_id":"levelo_inurba_marseille","lat":43.26213,"lon":5.37445,"is_reserved":false,"is_disabled":false,"rental_uris":{"android":"levelo://app?vid=5591f93d-66e8-40d2-a38e-f1e627b6ecf9","ios":"levelo://app?vid=5591f93d-66e8-40d2-a38e-f1e627b6ecf9"},"vehicle_type_id":"4","last_reported":1729257461,"current_range_meters":34800,"station_id":"ce4bhgp2rcd13ifvqfc0","pricing_plan_id":"cebpf4jnsgd1na2vs0mg"},{"bike_id":"876fcfe1-2b2c-4406-ad2e-1aaf09655655","system_id":"levelo_inurba_marseille","lat":43.25114,"lon":5.40323,"is_reserved":false,"is_disabled":false,"rental_uris":{"android":"levelo://app?vid=876fcfe1-2b2c-4406-ad2e-1aaf09655655","ios":"levelo://app?vid=876fcfe1-2b2c-4406-ad2e-1aaf09655655"},"vehicle_type_id":"4","last_reported":1729257461,"current_range_meters":38800,"station_id":"ce4bhlh2rcd13ifvqgig","pricing_plan_id":"cebpf4jnsgd1na2vs0mg"},{"bike_id":"2f4d40f2-8a71-42ab-b06b-27e39fde1509","system_id":"levelo_inurba_marseille","lat":43.25582,"lon":5.3823,"is_reserved":false,"is_disabled":false,"rental_uris":{"android":"levelo://app?vid=2f4d40f2-8a71-42ab-b06b-27e39fde1509","ios":"levelo://app?vid=2f4d40f2-8a71-42ab-b06b-27e39fde1509"},"vehicle_type_id":"4","last_reported":1729257461,"current_range_meters":7200,"station_id":"ce4bhih2rcd13ifvqfs0","pricing_plan_id":"cebpf4jnsgd1na2vs0mg"},{"bike_id":"5bdd134b-7ea6-40ee-aae3-e29fd0f285d7","system_id":"levelo_inurba_marseille","lat":43.24393,"lon":5.37055,"is_reserved":false,"is_disabled":false,"rental_uris":{"android":"levelo://app?vid=5bdd134b-7ea6-40ee-aae3-e29fd0f285d7","ios":"levelo://app?vid=5bdd134b-7ea6-40ee-aae3-e29fd0f285d7"},"vehicle_type_id":"4","last_reported":1729257461,"current_range_meters":32000,"station_id":"ce4bhhh2rcd13ifvqfk0","pricing_plan_id":"cebpf4jnsgd1na2vs0mg"},{"bike_id":"8a852c4a-76a6-45cb-ba8f-5f4f5c23071a","system_id":"levelo_inurba_marseille","lat":43.28459,"lon":5.35884,"is_reserved":false,"is_disabled":false,"rental_uris":{"android":"levelo://app?vid=8a852c4a-76a6-45cb-ba8f-5f4f5c23071a","ios":"levelo://app?vid=8a852c4a-76a6-45cb-ba8f-5f4f5c23071a"},"vehicle_type_id":"4","last_reported":1729257461,"current_range_meters":38800,"station_id":"ce4bhah2rcd13ifvqei0","pricing_plan_id":"cebpf4jnsgd1na2vs0mg"},{"bike_id":"d5d87b96-496a-454b-9e81-b0e5a09c72cf","system_id":"levelo_inurba_marseille","lat":43.28613,"lon":5.37061,"is_reserved":false,"is_disabled":false,"rental_uris":{"android":"levelo://app?vid=d5d87b96-496a-454b-9e81-b0e5a09c72cf","ios":"levelo://app?vid=d5d87b96-496a-454b-9e81-b0e5a09c72cf"},"vehicle_type_id":"4","last_reported":1729257461,"current_range_meters":37600,"station_id":"ce4bht12rcd13ifvqi60","pricing_plan_id":"cebpf4jnsgd1na2vs0mg"},{"bike_id":"c664c061-e4f3-4e88-a3b3-53b8afa76dc4","system_id":"levelo_inurba_marseille","lat":43.32477,"lon":5.3656,"is_reserved":false,"is_disabled":false,"rental_uris":{"android":"levelo://app?vid=c664c061-e4f3-4e88-a3b3-53b8afa76dc4","ios":"levelo://app?vid=c664c061-e4f3-4e88-a3b3-53b8afa76dc4"},"vehicle_type_id":"4","last_reported":1729257461,"current_range_meters":11600,"station_id":"ce4bhs12rcd13ifvqhvg","pricing_plan_id":"cebpf4jnsgd1na2vs0mg"},{"bike_id":"14845f0c-a4df-470f-a3f1-887d6e70b442","system_id":"levelo_inurba_marseille","lat":43.25994,"lon":5.37568,"is_reserved":false,"is_disabled":false,"rental_uris":{"android":"levelo://app?vid=14845f0c-a4df-470f-a3f1-887d6e70b442","ios":"levelo://app?vid=14845f0c-a4df-470f-a3f1-887d6e70b442"},"vehicle_type_id":"4","last_reported":1729257461,"current_range_meters":30400,"station_id":"ce4bhbp2rcd13ifvqerg","pricing_plan_id":"cebpf4jnsgd1na2vs0mg"},{"bike_id":"1c44f12d-e32a-4add-9a94-e963d4402475","system_id":"levelo_inurba_marseille","lat":43.29186,"lon":5.35799,"is_reserved":false,"is_disabled":false,"rental_uris":{"android":"levelo://app?vid=1c44f12d-e32a-4add-9a94-e963d4402475","ios":"levelo://app?vid=1c44f12d-e32a-4add-9a94-e963d4402475"},"vehicle_type_id":"4","last_reported":1729257461,"current_range_meters":24000,"station_id":"ce4bhb12rcd13ifvqel0","pricing_plan_id":"cebpf4jnsgd1na2vs0mg"},{"bike_id":"c746da30-0175-4c63-8cc4-f4d0284e8127","system_id":"levelo_inurba_marseille","lat":43.23965,"lon":5.36635,"is_reserved":false,"is_disabled":false,"rental_uris":{"android":"levelo://app?vid=c746da30-0175-4c63-8cc4-f4d0284e8127","ios":"levelo://app?vid=c746da30-0175-4c63-8cc4-f4d0284e8127"},"vehicle_type_id":"4","last_reported":1729257461,"current_range_meters":22000,"station_id":"ce4bhi12rcd13ifvqfp0","pricing_plan_id":"cebpf4jnsgd1na2vs0mg"},{"bike_id":"c0dbf1a3-a16b-47cc-b294-315090b8ba5b","system_id":"levelo_inurba_marseille","lat":43.25501,"lon":5.37659,"is_reserved":false,"is_disabled":false,"rental_uris":{"android":"levelo://app?vid=c0dbf1a3-a16b-47cc-b294-315090b8ba5b","ios":"levelo://app?vid=c0dbf1a3-a16b-47cc-b294-315090b8ba5b"},"vehicle_type_id":"4","last_reported":1729257461,"current_range_meters":30800,"station_id":"ce4bhh12rcd13ifvqff0","pricing_plan_id":"cebpf4jnsgd1na2vs0mg"},{"bike_id":"5522834b-7a9a-42bc-b94c-73d63867fec7","system_id":"levelo_inurba_marseille","lat":43.26193,"lon":5.37909,"is_reserved":false,"is_disabled":false,"rental_uris":{"android":"levelo://app?vid=5522834b-7a9a-42bc-b94c-73d63867fec7","ios":"levelo://app?vid=5522834b-7a9a-42bc-b94c-73d63867fec7"},"vehicle_type_id":"4","last_reported":1729257461,"current_range_meters":17600,"station_id":"ce4bhjp2rcd13ifvqg90","pricing_plan_id":"cebpf4jnsgd1na2vs0mg"},{"bike_id":"84bd4613-315d-4003-a7de-04ca64361464","system_id":"levelo_inurba_marseille","lat":43.25121,"lon":5.40313,"is_reserved":false,"is_disabled":false,"rental_uris":{"android":"levelo://app?vid=84bd4613-315d-4003-a7de-04ca64361464","ios":"levelo://app?vid=84bd4613-315d-4003-a7de-04ca64361464"},"vehicle_type_id":"4","last_reported":1729257461,"current_range_meters":12000,"station_id":"ce4bhlh2rcd13ifvqgig","pricing_plan_id":"cebpf4jnsgd1na2vs0mg"},{"bike_id":"8a0e4bab-e3f6-4f71-a313-e0ce2ef24838","system_id":"levelo_inurba_marseille","lat":43.27321,"lon":5.39068,"is_reserved":false,"is_disabled":false,"rental_uris":{"android":"levelo://app?vid=8a0e4bab-e3f6-4f71-a313-e0ce2ef24838","ios":"levelo://app?vid=8a0e4bab-e3f6-4f71-a313-e0ce2ef24838"},"vehicle_type_id":"4","last_reported":1729257461,"current_range_meters":3600,"station_id":"ce4bhgp2rcd13ifvqfe0","pricing_plan_id":"cebpf4jnsgd1na2vs0mg"},{"bike_id":"6b7c65c8-2620-406b-9377-2ca6fb33b7b1","system_id":"levelo_inurba_marseille","lat":43.26215,"lon":5.37443,"is_reserved":false,"is_disabled":false,"rental_uris":{"android":"levelo://app?vid=6b7c65c8-2620-406b-9377-2ca6fb33b7b1","ios":"levelo://app?vid=6b7c65c8-2620-406b-9377-2ca6fb33b7b1"},"vehicle_type_id":"4","last_reported":1729257461,"current_range_meters":38800,"station_id":"ce4bhgp2rcd13ifvqfc0","pricing_plan_id":"cebpf4jnsgd1na2vs0mg"},{"bike_id":"905c4802-a8ad-4e49-a834-a206c64bbad9","system_id":"levelo_inurba_marseille","lat":43.26679,"lon":5.38269,"is_reserved":false,"is_disabled":false,"rental_uris":{"android":"levelo://app?vid=905c4802-a8ad-4e49-a834-a206c64bbad9","ios":"levelo://app?vid=905c4802-a8ad-4e49-a834-a206c64bbad9"},"vehicle_type_id":"4","last_reported":1729257461,"current_range_meters":39200,"station_id":"ce4bhg92rcd13ifvqf90","pricing_plan_id":"cebpf4jnsgd1na2vs0mg"},{"bike_id":"0b0719e6-c919-4c9d-ae90-bec7ea479140","system_id":"levelo_inurba_marseille","lat":43.29006,"lon":5.35604,"is_reserved":false,"is_disabled":false,"rental_uris":{"android":"levelo://app?vid=0b0719e6-c919-4c9d-ae90-bec7ea479140","ios":"levelo://app?vid=0b0719e6-c919-4c9d-ae90-bec7ea479140"},"vehicle_type_id":"4","last_reported":1729257461,"current_range_meters":19200,"station_id":"ce4bhb92rcd13ifvqen0","pricing_plan_id":"cebpf4jnsgd1na2vs0mg"},{"bike_id":"889b9bb3-8963-4f08-8cc0-fd064c95f10f","system_id":"levelo_inurba_marseille","lat":43.27809,"lon":5.40716,"is_reserved":false,"is_disabled":false,"rental_uris":{"android":"levelo://app?vid=889b9bb3-8963-4f08-8cc0-fd064c95f10f","ios":"levelo://app?vid=889b9bb3-8963-4f08-8cc0-fd064c95f10f"},"vehicle_type_id":"4","last_reported":1729257461,"current_range_meters":9200,"station_id":"ce4bhnh2rcd13ifvqgtg","pricing_plan_id":"cebpf4jnsgd1na2vs0mg"},{"bike_id":"0ddc322e-fbac-48b6-8675-ce3e09f84a7a","system_id":"levelo_inurba_marseille","lat":43.30609,"lon":5.37224,"is_reserved":false,"is_disabled":false,"rental_uris":{"android":"levelo://app?vid=0ddc322e-fbac-48b6-8675-ce3e09f84a7a","ios":"levelo://app?vid=0ddc322e-fbac-48b6-8675-ce3e09f84a7a"},"vehicle_type_id":"4","last_reported":1729257461,"current_range_meters":38800,"station_id":"ce4bgqh2rcd13ifvqc4g","pricing_plan_id":"cebpf4jnsgd1na2vs0mg"},{"bike_id":"01dec81f-c775-4c10-a2f3-ad987891192a","system_id":"levelo_inurba_marseille","lat":43.24663,"lon":5.38164,"is_reserved":false,"is_disabled":false,"rental_uris":{"android":"levelo://app?vid=01dec81f-c775-4c10-a2f3-ad987891192a","ios":"levelo://app?vid=01dec81f-c775-4c10-a2f3-ad987891192a"},"vehicle_type_id":"4","last_reported":1729257461,"current_range_meters":37600,"station_id":"ce4bhih2rcd13ifvqfr0","pricing_plan_id":"cebpf4jnsgd1na2vs0mg"},{"bike_id":"3d25a5c4-f5e1-4f07-92fa-a13793063fcd","system_id":"levelo_inurba_marseille","lat":43.30237,"lon":5.40037,"is_reserved":false,"is_disabled":false,"rental_uris":{"android":"levelo://app?vid=3d25a5c4-f5e1-4f07-92fa-a13793063fcd","ios":"levelo://app?vid=3d25a5c4-f5e1-4f07-92fa-a13793063fcd"},"vehicle_type_id":"4","last_reported":1729257461,"current_range_meters":22400,"station_id":"ce4bgvh2rcd13ifvqcs0","pricing_plan_id":"cebpf4jnsgd1na2vs0mg"},{"bike_id":"3cc9ca15-d23c-4891-9216-c134fa816eb8","system_id":"levelo_inurba_marseille","lat":43.2418,"lon":5.39721,"is_reserved":false,"is_disabled":false,"rental_uris":{"android":"levelo://app?vid=3cc9ca15-d23c-4891-9216-c134fa816eb8","ios":"levelo://app?vid=3cc9ca15-d23c-4891-9216-c134fa816eb8"},"vehicle_type_id":"4","last_reported":1729257461,"current_range_meters":28000,"station_id":"ce4bhn12rcd13ifvqgpg","pricing_plan_id":"cebpf4jnsgd1na2vs0mg"},{"bike_id":"299dfc52-ccaa-46a8-85e5-ed1f38c31e59","system_id":"levelo_inurba_marseille","lat":43.2418,"lon":5.39728,"is_reserved":false,"is_disabled":false,"rental_uris":{"android":"levelo://app?vid=299dfc52-ccaa-46a8-85e5-ed1f38c31e59","ios":"levelo://app?vid=299dfc52-ccaa-46a8-85e5-ed1f38c31e59"},"vehicle_type_id":"4","last_reported":1729257461,"current_range_meters":18800,"station_id":"ce4bhn12rcd13ifvqgpg","pricing_plan_id":"cebpf4jnsgd1na2vs0mg"},{"bike_id":"9f6beb1a-ed9c-4ea6-b54e-f0bd9b1d38da","system_id":"levelo_inurba_marseille","lat":43.29578,"lon":5.3752,"is_reserved":false,"is_disabled":false,"rental_uris":{"android":"levelo://app?vid=9f6beb1a-ed9c-4ea6-b54e-f0bd9b1d38da","ios":"levelo://app?vid=9f6beb1a-ed9c-4ea6-b54e-f0bd9b1d38da"},"vehicle_type_id":"4","last_reported":1729257461,"current_range_meters":9200,"station_id":"ce4bgh92rcd13ifvqb50","pricing_plan_id":"cebpf4jnsgd1na2vs0mg"},{"bike_id":"4e470822-c79b-4a6c-a286-6c1cf0bb6035","system_id":"levelo_inurba_marseille","lat":43.28705,"lon":5.37379,"is_reserved":false,"is_disabled":false,"rental_uris":{"android":"levelo://app?vid=4e470822-c79b-4a6c-a286-6c1cf0bb6035","ios":"levelo://app?vid=4e470822-c79b-4a6c-a286-6c1cf0bb6035"},"vehicle_type_id":"4","last_reported":1729257461,"current_range_meters":38800,"station_id":"ce4bh3p2rcd13ifvqdq0","pricing_plan_id":"cebpf4jnsgd1na2vs0mg"},{"bike_id":"3701d96b-43ac-4ec1-8adb-9f359e59cfac","system_id":"levelo_inurba_marseille","lat":43.3361,"lon":5.41029,"is_reserved":false,"is_disabled":false,"rental_uris":{"android":"levelo://app?vid=3701d96b-43ac-4ec1-8adb-9f359e59cfac","ios":"levelo://app?vid=3701d96b-43ac-4ec1-8adb-9f359e59cfac"},"vehicle_type_id":"4","last_reported":1729257461,"current_range_meters":39200,"station_id":"ce4bhq92rcd13ifvqhkg","pricing_plan_id":"cebpf4jnsgd1na2vs0mg"},{"bike_id":"5f2161ea-adb6-4137-98cf-73c6d22230eb","system_id":"levelo_inurba_marseille","lat":43.30279,"lon":5.37727,"is_reserved":false,"is_disabled":false,"rental_uris":{"android":"levelo://app?vid=5f2161ea-adb6-4137-98cf-73c6d22230eb","ios":"levelo://app?vid=5f2161ea-adb6-4137-98cf-73c6d22230eb"},"vehicle_type_id":"4","last_reported":1729257461,"current_range_meters":8000,"station_id":"ce4bguh2rcd13ifvqcj0","pricing_plan_id":"cebpf4jnsgd1na2vs0mg"},{"bike_id":"3d7546d0-4dba-4212-88c9-dfe9a2032237","system_id":"levelo_inurba_marseille","lat":43.24165,"lon":5.36399,"is_reserved":false,"is_disabled":false,"rental_uris":{"android":"levelo://app?vid=3d7546d0-4dba-4212-88c9-dfe9a2032237","ios":"levelo://app?vid=3d7546d0-4dba-4212-88c9-dfe9a2032237"},"vehicle_type_id":"4","last_reported":1729257461,"current_range_meters":38000,"station_id":"cpo36qri1sfpv3e86is0","pricing_plan_id":"cebpf4jnsgd1na2vs0mg"},{"bike_id":"007f1dfd-0d2c-426c-a157-0f8331696688","system_id":"levelo_inurba_marseille","lat":43.23192,"lon":5.35547,"is_reserved":false,"is_disabled":false,"rental_uris":{"android":"levelo://app?vid=007f1dfd-0d2c-426c-a157-0f8331696688","ios":"levelo://app?vid=007f1dfd-0d2c-426c-a157-0f8331696688"},"vehicle_type_id":"4","last_reported":1729257461,"current_range_meters":8000,"station_id":"ce4bhu92rcd13ifvqi70","pricing_plan_id":"cebpf4jnsgd1na2vs0mg"},{"bike_id":"4a7be492-19b6-48b1-b7c2-11aa7a381c9e","system_id":"levelo_inurba_marseille","lat":43.28752,"lon":5.35227,"is_reserved":false,"is_disabled":false,"rental_uris":{"android":"levelo://app?vid=4a7be492-19b6-48b1-b7c2-11aa7a381c9e","ios":"levelo://app?vid=4a7be492-19b6-48b1-b7c2-11aa7a381c9e"},"vehicle_type_id":"4","last_reported":1729257461,"current_range_meters":38800,"station_id":"","pricing_plan_id":"cebpf4jnsgd1na2vs0mg"},{"bike_id":"25573e2f-a445-4919-a85f-8daef7637352","system_id":"levelo_inurba_marseille","lat":43.30802,"lon":5.43524,"is_reserved":false,"is_disabled":false,"rental_uris":{"android":"levelo://app?vid=25573e2f-a445-4919-a85f-8daef7637352","ios":"levelo://app?vid=25573e2f-a445-4919-a85f-8daef7637352"},"vehicle_type_id":"4","last_reported":1729257461,"current_range_meters":33200,"station_id":"ce4bhph2rcd13ifvqheg","pricing_plan_id":"cebpf4jnsgd1na2vs0mg"},{"bike_id":"ceba77e4-817d-4911-8717-9b4015e9cd05","system_id":"levelo_inurba_marseille","lat":43.23146,"lon":5.43723,"is_reserved":false,"is_disabled":false,"rental_uris":{"android":"levelo://app?vid=ceba77e4-817d-4911-8717-9b4015e9cd05","ios":"levelo://app?vid=ceba77e4-817d-4911-8717-9b4015e9cd05"},"vehicle_type_id":"4","last_reported":1729257461,"current_range_meters":24800,"station_id":"ce4bhmp2rcd13ifvqgog","pricing_plan_id":"cebpf4jnsgd1na2vs0mg"},{"bike_id":"a3ad335d-c228-4c50-896b-292b04f4e2eb","system_id":"levelo_inurba_marseille","lat":43.32661,"lon":5.40992,"is_reserved":false,"is_disabled":false,"rental_uris":{"android":"levelo://app?vid=a3ad335d-c228-4c50-896b-292b04f4e2eb","ios":"levelo://app?vid=a3ad335d-c228-4c50-896b-292b04f4e2eb"},"vehicle_type_id":"4","last_reported":1729257461,"current_range_meters":38000,"station_id":"ce4bhpp2rcd13ifvqhgg","pricing_plan_id":"cebpf4jnsgd1na2vs0mg"},{"bike_id":"90b7df2b-2805-4913-a745-07d80216980c","system_id":"levelo_inurba_marseille","lat":43.30801,"lon":5.43519,"is_reserved":false,"is_disabled":false,"rental_uris":{"android":"levelo://app?vid=90b7df2b-2805-4913-a745-07d80216980c","ios":"levelo://app?vid=90b7df2b-2805-4913-a745-07d80216980c"},"vehicle_type_id":"4","last_reported":1729257461,"current_range_meters":11600,"station_id":"ce4bhph2rcd13ifvqheg","pricing_plan_id":"cebpf4jnsgd1na2vs0mg"},{"bike_id":"32ce68a3-3fc7-4257-974f-ab657619c295","system_id":"levelo_inurba_marseille","lat":43.33753,"lon":5.3746,"is_reserved":false,"is_disabled":false,"rental_uris":{"android":"levelo://app?vid=32ce68a3-3fc7-4257-974f-ab657619c295","ios":"levelo://app?vid=32ce68a3-3fc7-4257-974f-ab657619c295"},"vehicle_type_id":"4","last_reported":1729257461,"current_range_meters":10000,"station_id":"","pricing_plan_id":"cebpf4jnsgd1na2vs0mg"},{"bike_id":"e16104e8-1c66-49d2-85a0-75e556dae417","system_id":"levelo_inurba_marseille","lat":43.25497,"lon":5.37645,"is_reserved":false,"is_disabled":false,"rental_uris":{"android":"levelo://app?vid=e16104e8-1c66-49d2-85a0-75e556dae417","ios":"levelo://app?vid=e16104e8-1c66-49d2-85a0-75e556dae417"},"vehicle_type_id":"4","last_reported":1729257461,"current_range_meters":29600,"station_id":"ce4bhh12rcd13ifvqff0","pricing_plan_id":"cebpf4jnsgd1na2vs0mg"},{"bike_id":"41ac35ca-d016-4c4f-be71-ad61b183c3fd","system_id":"levelo_inurba_marseille","lat":43.25005,"lon":5.38925,"is_reserved":false,"is_disabled":false,"rental_uris":{"android":"levelo://app?vid=41ac35ca-d016-4c4f-be71-ad61b183c3fd","ios":"levelo://app?vid=41ac35ca-d016-4c4f-be71-ad61b183c3fd"},"vehicle_type_id":"4","last_reported":1729257461,"current_range_meters":26000,"station_id":"ce4bhgp2rcd13ifvqfd0","pricing_plan_id":"cebpf4jnsgd1na2vs0mg"},{"bike_id":"555ff3cf-777b-4ff4-b149-9575fc002950","system_id":"levelo_inurba_marseille","lat":43.24182,"lon":5.39721,"is_reserved":false,"is_disabled":false,"rental_uris":{"android":"levelo://app?vid=555ff3cf-777b-4ff4-b149-9575fc002950","ios":"levelo://app?vid=555ff3cf-777b-4ff4-b149-9575fc002950"},"vehicle_type_id":"4","last_reported":1729257461,"current_range_meters":32400,"station_id":"ce4bhn12rcd13ifvqgpg","pricing_plan_id":"cebpf4jnsgd1na2vs0mg"},{"bike_id":"b64362e2-b043-4f67-8e42-f68524e828ed","system_id":"levelo_inurba_marseille","lat":43.24176,"lon":5.39702,"is_reserved":false,"is_disabled":false,"rental_uris":{"android":"levelo://app?vid=b64362e2-b043-4f67-8e42-f68524e828ed","ios":"levelo://app?vid=b64362e2-b043-4f67-8e42-f68524e828ed"},"vehicle_type_id":"4","last_reported":1729257461,"current_range_meters":25200,"station_id":"ce4bhn12rcd13ifvqgpg","pricing_plan_id":"cebpf4jnsgd1na2vs0mg"},{"bike_id":"fa7bbdc9-afbe-404d-8676-647037cc76a9","system_id":"levelo_inurba_marseille","lat":43.23196,"lon":5.35548,"is_reserved":false,"is_disabled":false,"rental_uris":{"android":"levelo://app?vid=fa7bbdc9-afbe-404d-8676-647037cc76a9","ios":"levelo://app?vid=fa7bbdc9-afbe-404d-8676-647037cc76a9"},"vehicle_type_id":"4","last_reported":1729257461,"current_range_meters":28800,"station_id":"ce4bhu92rcd13ifvqi70","pricing_plan_id":"cebpf4jnsgd1na2vs0mg"},{"bike_id":"f6766bde-b93b-497a-a107-23f4fc2b7d21","system_id":"levelo_inurba_marseille","lat":43.31364,"lon":5.38487,"is_reserved":false,"is_disabled":false,"rental_uris":{"android":"levelo://app?vid=f6766bde-b93b-497a-a107-23f4fc2b7d21","ios":"levelo://app?vid=f6766bde-b93b-497a-a107-23f4fc2b7d21"},"vehicle_type_id":"4","last_reported":1729257461,"current_range_meters":18800,"station_id":"ce4bgt92rcd13ifvqcf0","pricing_plan_id":"cebpf4jnsgd1na2vs0mg"},{"bike_id":"ae72d7e7-44c5-4936-b652-a590a2ba24a2","system_id":"levelo_inurba_marseille","lat":43.28039,"lon":5.36942,"is_reserved":false,"is_disabled":false,"rental_uris":{"android":"levelo://app?vid=ae72d7e7-44c5-4936-b652-a590a2ba24a2","ios":"levelo://app?vid=ae72d7e7-44c5-4936-b652-a590a2ba24a2"},"vehicle_type_id":"4","last_reported":1729257461,"current_range_meters":36000,"station_id":"ce4bha12rcd13ifvqef0","pricing_plan_id":"cebpf4jnsgd1na2vs0mg"},{"bike_id":"f8d2e239-573b-4f9d-8955-e6720aa9663e","system_id":"levelo_inurba_marseille","lat":43.24647,"lon":5.38897,"is_reserved":false,"is_disabled":false,"rental_uris":{"android":"levelo://app?vid=f8d2e239-573b-4f9d-8955-e6720aa9663e","ios":"levelo://app?vid=f8d2e239-573b-4f9d-8955-e6720aa9663e"},"vehicle_type_id":"4","last_reported":1729257461,"current_range_meters":31200,"station_id":"ce4bhg12rcd13ifvqf60","pricing_plan_id":"cebpf4jnsgd1na2vs0mg"},{"bike_id":"d88aeb6e-c2cc-4a3f-be09-bedf13f1d5fa","system_id":"levelo_inurba_marseille","lat":43.31994,"lon":5.38165,"is_reserved":false,"is_disabled":false,"rental_uris":{"android":"levelo://app?vid=d88aeb6e-c2cc-4a3f-be09-bedf13f1d5fa","ios":"levelo://app?vid=d88aeb6e-c2cc-4a3f-be09-bedf13f1d5fa"},"vehicle_type_id":"4","last_reported":1729257461,"current_range_meters":32000,"station_id":"ce4bhr12rcd13ifvqhpg","pricing_plan_id":"cebpf4jnsgd1na2vs0mg"},{"bike_id":"8c1ec6cb-2291-4814-837b-be8625c706f3","system_id":"levelo_inurba_marseille","lat":43.23189,"lon":5.35535,"is_reserved":false,"is_disabled":false,"rental_uris":{"android":"levelo://app?vid=8c1ec6cb-2291-4814-837b-be8625c706f3","ios":"levelo://app?vid=8c1ec6cb-2291-4814-837b-be8625c706f3"},"vehicle_type_id":"4","last_reported":1729257461,"current_range_meters":32400,"station_id":"ce4bhu92rcd13ifvqi70","pricing_plan_id":"cebpf4jnsgd1na2vs0mg"},{"bike_id":"e05a8545-65f7-4cf3-8739-ba534517b4f3","system_id":"levelo_inurba_marseille","lat":43.27374,"lon":5.36251,"is_reserved":false,"is_disabled":false,"rental_uris":{"android":"levelo://app?vid=e05a8545-65f7-4cf3-8739-ba534517b4f3","ios":"levelo://app?vid=e05a8545-65f7-4cf3-8739-ba534517b4f3"},"vehicle_type_id":"4","last_reported":1729257461,"current_range_meters":29600,"station_id":"","pricing_plan_id":"cebpf4jnsgd1na2vs0mg"},{"bike_id":"c86d1537-d527-4f2d-bdcd-410c5541f1da","system_id":"levelo_inurba_marseille","lat":43.24998,"lon":5.38936,"is_reserved":false,"is_disabled":false,"rental_uris":{"android":"levelo://app?vid=c86d1537-d527-4f2d-bdcd-410c5541f1da","ios":"levelo://app?vid=c86d1537-d527-4f2d-bdcd-410c5541f1da"},"vehicle_type_id":"4","last_reported":1729257461,"current_range_meters":4800,"station_id":"ce4bhgp2rcd13ifvqfd0","pricing_plan_id":"cebpf4jnsgd1na2vs0mg"},{"bike_id":"e828a4fb-5838-48f2-b979-4f6f6d3eb5dc","system_id":"levelo_inurba_marseille","lat":43.32049,"lon":5.41551,"is_reserved":false,"is_disabled":false,"rental_uris":{"android":"levelo://app?vid=e828a4fb-5838-48f2-b979-4f6f6d3eb5dc","ios":"levelo://app?vid=e828a4fb-5838-48f2-b979-4f6f6d3eb5dc"},"vehicle_type_id":"4","last_reported":1729257461,"current_range_meters":22800,"station_id":"ce4bhq92rcd13ifvqhkg","pricing_plan_id":"cebpf4jnsgd1na2vs0mg"},{"bike_id":"7b0bd6b6-fbcc-4b92-8a6e-5fc2ad745a06","system_id":"levelo_inurba_marseille","lat":43.28469,"lon":5.38416,"is_reserved":false,"is_disabled":false,"rental_uris":{"android":"levelo://app?vid=7b0bd6b6-fbcc-4b92-8a6e-5fc2ad745a06","ios":"levelo://app?vid=7b0bd6b6-fbcc-4b92-8a6e-5fc2ad745a06"},"vehicle_type_id":"4","last_reported":1729257461,"current_range_meters":39200,"station_id":"ce4bh512rcd13ifvqe3g","pricing_plan_id":"cebpf4jnsgd1na2vs0mg"},{"bike_id":"c89c2319-61a9-47ef-9229-e31c9eaab143","system_id":"levelo_inurba_marseille","lat":43.23192,"lon":5.35542,"is_reserved":false,"is_disabled":false,"rental_uris":{"android":"levelo://app?vid=c89c2319-61a9-47ef-9229-e31c9eaab143","ios":"levelo://app?vid=c89c2319-61a9-47ef-9229-e31c9eaab143"},"vehicle_type_id":"4","last_reported":1729257461,"current_range_meters":36400,"station_id":"ce4bhu92rcd13ifvqi70","pricing_plan_id":"cebpf4jnsgd1na2vs0mg"},{"bike_id":"ba9bd7c4-d1e3-4f57-8f18-78d353422ae9","system_id":"levelo_inurba_marseille","lat":43.23069,"lon":5.35486,"is_reserved":false,"is_disabled":false,"rental_uris":{"android":"levelo://app?vid=ba9bd7c4-d1e3-4f57-8f18-78d353422ae9","ios":"levelo://app?vid=ba9bd7c4-d1e3-4f57-8f18-78d353422ae9"},"vehicle_type_id":"4","last_reported":1729257461,"current_range_meters":32400,"station_id":"cpo3342slgdg3j2ifvpg","pricing_plan_id":"cebpf4jnsgd1na2vs0mg"},{"bike_id":"28686c53-92a3-4a05-b046-ead9679de291","system_id":"levelo_inurba_marseille","lat":43.29251,"lon":5.40907,"is_reserved":false,"is_disabled":false,"rental_uris":{"android":"levelo://app?vid=28686c53-92a3-4a05-b046-ead9679de291","ios":"levelo://app?vid=28686c53-92a3-4a05-b046-ead9679de291"},"vehicle_type_id":"4","last_reported":1729257461,"current_range_meters":38000,"station_id":"ce4bh192rcd13ifvqdc0","pricing_plan_id":"cebpf4jnsgd1na2vs0mg"},{"bike_id":"577452e1-011f-4403-92bc-6f12ac4d3520","system_id":"levelo_inurba_marseille","lat":43.3189,"lon":5.40736,"is_reserved":false,"is_disabled":false,"rental_uris":{"android":"levelo://app?vid=577452e1-011f-4403-92bc-6f12ac4d3520","ios":"levelo://app?vid=577452e1-011f-4403-92bc-6f12ac4d3520"},"vehicle_type_id":"4","last_reported":1729257461,"current_range_meters":16800,"station_id":"ce4bhq12rcd13ifvqhig","pricing_plan_id":"cebpf4jnsgd1na2vs0mg"},{"bike_id":"a14cfc8d-fbbd-40b0-aa99-e624d97946a6","system_id":"levelo_inurba_marseille","lat":43.308037,"lon":5.435209,"is_reserved":false,"is_disabled":false,"rental_uris":{"android":"levelo://app?vid=a14cfc8d-fbbd-40b0-aa99-e624d97946a6","ios":"levelo://app?vid=a14cfc8d-fbbd-40b0-aa99-e624d97946a6"},"vehicle_type_id":"4","last_reported":1729257461,"current_range_meters":28000,"station_id":"ce4bhph2rcd13ifvqheg","pricing_plan_id":"cebpf4jnsgd1na2vs0mg"},{"bike_id":"c28e7529-b2b3-4295-9393-92bde8fe9fe4","system_id":"levelo_inurba_marseille","lat":43.26793,"lon":5.39411,"is_reserved":false,"is_disabled":false,"rental_uris":{"android":"levelo://app?vid=c28e7529-b2b3-4295-9393-92bde8fe9fe4","ios":"levelo://app?vid=c28e7529-b2b3-4295-9393-92bde8fe9fe4"},"vehicle_type_id":"4","last_reported":1729257461,"current_range_meters":14400,"station_id":"ce4bhh12rcd13ifvqfg0","pricing_plan_id":"cebpf4jnsgd1na2vs0mg"},{"bike_id":"874494de-7452-4f47-9fec-c5ec79478035","system_id":"levelo_inurba_marseille","lat":43.23963,"lon":5.36635,"is_reserved":false,"is_disabled":false,"rental_uris":{"android":"levelo://app?vid=874494de-7452-4f47-9fec-c5ec79478035","ios":"levelo://app?vid=874494de-7452-4f47-9fec-c5ec79478035"},"vehicle_type_id":"4","last_reported":1729257461,"current_range_meters":24000,"station_id":"ce4bhi12rcd13ifvqfp0","pricing_plan_id":"cebpf4jnsgd1na2vs0mg"},{"bike_id":"8b33911e-5d42-46bd-b00d-c1d5ce72f577","system_id":"levelo_inurba_marseille","lat":43.23193,"lon":5.39989,"is_reserved":false,"is_disabled":false,"rental_uris":{"android":"levelo://app?vid=8b33911e-5d42-46bd-b00d-c1d5ce72f577","ios":"levelo://app?vid=8b33911e-5d42-46bd-b00d-c1d5ce72f577"},"vehicle_type_id":"4","last_reported":1729257461,"current_range_meters":38800,"station_id":"ce4bhn12rcd13ifvqgqg","pricing_plan_id":"cebpf4jnsgd1na2vs0mg"},{"bike_id":"48e43605-1fe9-488b-95a3-7f68fd2540a1","system_id":"levelo_inurba_marseille","lat":43.27976,"lon":5.38732,"is_reserved":false,"is_disabled":false,"rental_uris":{"android":"levelo://app?vid=48e43605-1fe9-488b-95a3-7f68fd2540a1","ios":"levelo://app?vid=48e43605-1fe9-488b-95a3-7f68fd2540a1"},"vehicle_type_id":"4","last_reported":1729257461,"current_range_meters":23200,"station_id":"ce4bhg12rcd13ifvqf80","pricing_plan_id":"cebpf4jnsgd1na2vs0mg"},{"bike_id":"1331865f-2dbc-4b20-8cfd-695802647ecd","system_id":"levelo_inurba_marseille","lat":43.29555,"lon":5.42291,"is_reserved":false,"is_disabled":false,"rental_uris":{"android":"levelo://app?vid=1331865f-2dbc-4b20-8cfd-695802647ecd","ios":"levelo://app?vid=1331865f-2dbc-4b20-8cfd-695802647ecd"},"vehicle_type_id":"4","last_reported":1729257461,"current_range_meters":26800,"station_id":"ce4bhph2rcd13ifvqhdg","pricing_plan_id":"cebpf4jnsgd1na2vs0mg"},{"bike_id":"0994d7f0-fa2e-480f-b967-2b1e1b476b78","system_id":"levelo_inurba_marseille","lat":43.2319,"lon":5.35555,"is_reserved":false,"is_disabled":false,"rental_uris":{"android":"levelo://app?vid=0994d7f0-fa2e-480f-b967-2b1e1b476b78","ios":"levelo://app?vid=0994d7f0-fa2e-480f-b967-2b1e1b476b78"},"vehicle_type_id":"4","last_reported":1729257461,"current_range_meters":8800,"station_id":"ce4bhu92rcd13ifvqi70","pricing_plan_id":"cebpf4jnsgd1na2vs0mg"},{"bike_id":"669b90da-5ebb-4038-b040-981e1f70258b","system_id":"levelo_inurba_marseille","lat":43.23155,"lon":5.43699,"is_reserved":false,"is_disabled":false,"rental_uris":{"android":"levelo://app?vid=669b90da-5ebb-4038-b040-981e1f70258b","ios":"levelo://app?vid=669b90da-5ebb-4038-b040-981e1f70258b"},"vehicle_type_id":"4","last_reported":1729257461,"current_range_meters":8000,"station_id":"ce4bhmp2rcd13ifvqgog","pricing_plan_id":"cebpf4jnsgd1na2vs0mg"},{"bike_id":"66ccc46d-618e-4760-b09c-27382152bdab","system_id":"levelo_inurba_marseille","lat":43.23195,"lon":5.35537,"is_reserved":false,"is_disabled":false,"rental_uris":{"android":"levelo://app?vid=66ccc46d-618e-4760-b09c-27382152bdab","ios":"levelo://app?vid=66ccc46d-618e-4760-b09c-27382152bdab"},"vehicle_type_id":"4","last_reported":1729257461,"current_range_meters":28000,"station_id":"ce4bhu92rcd13ifvqi70","pricing_plan_id":"cebpf4jnsgd1na2vs0mg"},{"bike_id":"839dccd1-11e3-4f72-9fc0-a0ad98128473","system_id":"levelo_inurba_marseille","lat":43.28849,"lon":5.35851,"is_reserved":false,"is_disabled":false,"rental_uris":{"android":"levelo://app?vid=839dccd1-11e3-4f72-9fc0-a0ad98128473","ios":"levelo://app?vid=839dccd1-11e3-4f72-9fc0-a0ad98128473"},"vehicle_type_id":"4","last_reported":1729257461,"current_range_meters":16400,"station_id":"ce4bhb12rcd13ifvqem0","pricing_plan_id":"cebpf4jnsgd1na2vs0mg"},{"bike_id":"09c76d52-8673-4a5c-ae19-d57a9db0901e","system_id":"levelo_inurba_marseille","lat":43.26211,"lon":5.37446,"is_reserved":false,"is_disabled":false,"rental_uris":{"android":"levelo://app?vid=09c76d52-8673-4a5c-ae19-d57a9db0901e","ios":"levelo://app?vid=09c76d52-8673-4a5c-ae19-d57a9db0901e"},"vehicle_type_id":"4","last_reported":1729257461,"current_range_meters":35600,"station_id":"ce4bhgp2rcd13ifvqfc0","pricing_plan_id":"cebpf4jnsgd1na2vs0mg"},{"bike_id":"aeb6ef8e-cab2-4479-b567-0b2741ce6261","system_id":"levelo_inurba_marseille","lat":43.28422,"lon":5.34989,"is_reserved":false,"is_disabled":false,"rental_uris":{"android":"levelo://app?vid=aeb6ef8e-cab2-4479-b567-0b2741ce6261","ios":"levelo://app?vid=aeb6ef8e-cab2-4479-b567-0b2741ce6261"},"vehicle_type_id":"4","last_reported":1729257461,"current_range_meters":14400,"station_id":"ce4bhbh2rcd13ifvqepg","pricing_plan_id":"cebpf4jnsgd1na2vs0mg"},{"bike_id":"703e34c8-cc07-4150-9017-1617b4fc437e","system_id":"levelo_inurba_marseille","lat":43.30906,"lon":5.36835,"is_reserved":false,"is_disabled":false,"rental_uris":{"android":"levelo://app?vid=703e34c8-cc07-4150-9017-1617b4fc437e","ios":"levelo://app?vid=703e34c8-cc07-4150-9017-1617b4fc437e"},"vehicle_type_id":"4","last_reported":1729257461,"current_range_meters":18000,"station_id":"ce4bgn92rcd13ifvqbvg","pricing_plan_id":"cebpf4jnsgd1na2vs0mg"},{"bike_id":"e9e06989-753d-4795-b8db-5902cb11facd","system_id":"levelo_inurba_marseille","lat":43.29175,"lon":5.37132,"is_reserved":false,"is_disabled":false,"rental_uris":{"android":"levelo://app?vid=e9e06989-753d-4795-b8db-5902cb11facd","ios":"levelo://app?vid=e9e06989-753d-4795-b8db-5902cb11facd"},"vehicle_type_id":"4","last_reported":1729257461,"current_range_meters":4000,"station_id":"ce4bha92rcd13ifvqeh0","pricing_plan_id":"cebpf4jnsgd1na2vs0mg"},{"bike_id":"fc262b45-2b88-4d3d-8020-e7c946d1fec3","system_id":"levelo_inurba_marseille","lat":43.32111,"lon":5.36778,"is_reserved":false,"is_disabled":false,"rental_uris":{"android":"levelo://app?vid=fc262b45-2b88-4d3d-8020-e7c946d1fec3","ios":"levelo://app?vid=fc262b45-2b88-4d3d-8020-e7c946d1fec3"},"vehicle_type_id":"4","last_reported":1729257461,"current_range_meters":38000,"station_id":"ce4bhrh2rcd13ifvqhug","pricing_plan_id":"cebpf4jnsgd1na2vs0mg"},{"bike_id":"9e859611-47ca-4117-adfb-4d4f3dae9457","system_id":"levelo_inurba_marseille","lat":43.29576,"lon":5.36732,"is_reserved":false,"is_disabled":false,"rental_uris":{"android":"levelo://app?vid=9e859611-47ca-4117-adfb-4d4f3dae9457","ios":"levelo://app?vid=9e859611-47ca-4117-adfb-4d4f3dae9457"},"vehicle_type_id":"4","last_reported":1729257461,"current_range_meters":28800,"station_id":"ce4bgph2rcd13ifvqc2g","pricing_plan_id":"cebpf4jnsgd1na2vs0mg"},{"bike_id":"2a8d8e0d-09f4-4ada-9e2b-a6718972e982","system_id":"levelo_inurba_marseille","lat":43.2315,"lon":5.43705,"is_reserved":false,"is_disabled":false,"rental_uris":{"android":"levelo://app?vid=2a8d8e0d-09f4-4ada-9e2b-a6718972e982","ios":"levelo://app?vid=2a8d8e0d-09f4-4ada-9e2b-a6718972e982"},"vehicle_type_id":"4","last_reported":1729257461,"current_range_meters":19600,"station_id":"ce4bhmp2rcd13ifvqgog","pricing_plan_id":"cebpf4jnsgd1na2vs0mg"},{"bike_id":"626c9f37-1f6b-4efd-aaa2-93828f3b4f42","system_id":"levelo_inurba_marseille","lat":43.26028,"lon":5.37551,"is_reserved":false,"is_disabled":false,"rental_uris":{"android":"levelo://app?vid=626c9f37-1f6b-4efd-aaa2-93828f3b4f42","ios":"levelo://app?vid=626c9f37-1f6b-4efd-aaa2-93828f3b4f42"},"vehicle_type_id":"4","last_reported":1729257461,"current_range_meters":28000,"station_id":"ce4bhgh2rcd13ifvqfa0","pricing_plan_id":"cebpf4jnsgd1na2vs0mg"},{"bike_id":"907d90e2-7e08-4846-bbc2-01977b54a9bd","system_id":"levelo_inurba_marseille","lat":43.24167,"lon":5.36392,"is_reserved":false,"is_disabled":false,"rental_uris":{"android":"levelo://app?vid=907d90e2-7e08-4846-bbc2-01977b54a9bd","ios":"levelo://app?vid=907d90e2-7e08-4846-bbc2-01977b54a9bd"},"vehicle_type_id":"4","last_reported":1729257461,"current_range_meters":17600,"station_id":"cpo36qri1sfpv3e86is0","pricing_plan_id":"cebpf4jnsgd1na2vs0mg"},{"bike_id":"8538416e-149d-41d2-bd58-9e180507c311","system_id":"levelo_inurba_marseille","lat":43.29569,"lon":5.37524,"is_reserved":false,"is_disabled":false,"rental_uris":{"android":"levelo://app?vid=8538416e-149d-41d2-bd58-9e180507c311","ios":"levelo://app?vid=8538416e-149d-41d2-bd58-9e180507c311"},"vehicle_type_id":"4","last_reported":1729257461,"current_range_meters":35200,"station_id":"ce4bgh92rcd13ifvqb50","pricing_plan_id":"cebpf4jnsgd1na2vs0mg"},{"bike_id":"073a638e-cf82-41bd-a103-c861bafaf13e","system_id":"levelo_inurba_marseille","lat":43.29813,"lon":5.36201,"is_reserved":false,"is_disabled":false,"rental_uris":{"android":"levelo://app?vid=073a638e-cf82-41bd-a103-c861bafaf13e","ios":"levelo://app?vid=073a638e-cf82-41bd-a103-c861bafaf13e"},"vehicle_type_id":"4","last_reported":1729257461,"current_range_meters":24400,"station_id":"ce4bgpp2rcd13ifvqc3g","pricing_plan_id":"cebpf4jnsgd1na2vs0mg"},{"bike_id":"46b9d997-f8a2-4011-9958-a986ffb43361","system_id":"levelo_inurba_marseille","lat":43.32107,"lon":5.36775,"is_reserved":false,"is_disabled":false,"rental_uris":{"android":"levelo://app?vid=46b9d997-f8a2-4011-9958-a986ffb43361","ios":"levelo://app?vid=46b9d997-f8a2-4011-9958-a986ffb43361"},"vehicle_type_id":"4","last_reported":1729257461,"current_range_meters":30800,"station_id":"ce4bhrh2rcd13ifvqhug","pricing_plan_id":"cebpf4jnsgd1na2vs0mg"},{"bike_id":"d5453104-4e26-49cc-8e26-384ccaaff964","system_id":"levelo_inurba_marseille","lat":43.26564,"lon":5.37284,"is_reserved":false,"is_disabled":false,"rental_uris":{"android":"levelo://app?vid=d5453104-4e26-49cc-8e26-384ccaaff964","ios":"levelo://app?vid=d5453104-4e26-49cc-8e26-384ccaaff964"},"vehicle_type_id":"4","last_reported":1729257461,"current_range_meters":30400,"station_id":"ce4bhg12rcd13ifvqf70","pricing_plan_id":"cebpf4jnsgd1na2vs0mg"},{"bike_id":"8df6c084-fe99-4d5c-8252-c116cfc63170","system_id":"levelo_inurba_marseille","lat":43.33771,"lon":5.37452,"is_reserved":false,"is_disabled":false,"rental_uris":{"android":"levelo://app?vid=8df6c084-fe99-4d5c-8252-c116cfc63170","ios":"levelo://app?vid=8df6c084-fe99-4d5c-8252-c116cfc63170"},"vehicle_type_id":"4","last_reported":1729257461,"current_range_meters":32400,"station_id":"","pricing_plan_id":"cebpf4jnsgd1na2vs0mg"},{"bike_id":"60128d33-42a0-43d1-97fd-6ec6070aec46","system_id":"levelo_inurba_marseille","lat":43.28407,"lon":5.37515,"is_reserved":false,"is_disabled":false,"rental_uris":{"android":"levelo://app?vid=60128d33-42a0-43d1-97fd-6ec6070aec46","ios":"levelo://app?vid=60128d33-42a0-43d1-97fd-6ec6070aec46"},"vehicle_type_id":"4","last_reported":1729257461,"current_range_meters":6000,"station_id":"ce4bh412rcd13ifvqds0","pricing_plan_id":"cebpf4jnsgd1na2vs0mg"},{"bike_id":"646e2cf2-8282-4589-a194-12e4d373c2b1","system_id":"levelo_inurba_marseille","lat":43.23192,"lon":5.35558,"is_reserved":false,"is_disabled":false,"rental_uris":{"android":"levelo://app?vid=646e2cf2-8282-4589-a194-12e4d373c2b1","ios":"levelo://app?vid=646e2cf2-8282-4589-a194-12e4d373c2b1"},"vehicle_type_id":"4","last_reported":1729257461,"current_range_meters":38800,"station_id":"ce4bhu92rcd13ifvqi70","pricing_plan_id":"cebpf4jnsgd1na2vs0mg"},{"bike_id":"0a404db4-0369-4a66-b63d-3e7d87a65eb3","system_id":"levelo_inurba_marseille","lat":43.29192,"lon":5.39329,"is_reserved":false,"is_disabled":false,"rental_uris":{"android":"levelo://app?vid=0a404db4-0369-4a66-b63d-3e7d87a65eb3","ios":"levelo://app?vid=0a404db4-0369-4a66-b63d-3e7d87a65eb3"},"vehicle_type_id":"4","last_reported":1729257461,"current_range_meters":39200,"station_id":"ce4bh192rcd13ifvqdd0","pricing_plan_id":"cebpf4jnsgd1na2vs0mg"},{"bike_id":"94dad7f8-6585-4b37-b691-74420d23ef13","system_id":"levelo_inurba_marseille","lat":43.30802,"lon":5.43522,"is_reserved":false,"is_disabled":false,"rental_uris":{"android":"levelo://app?vid=94dad7f8-6585-4b37-b691-74420d23ef13","ios":"levelo://app?vid=94dad7f8-6585-4b37-b691-74420d23ef13"},"vehicle_type_id":"4","last_reported":1729257461,"current_range_meters":36400,"station_id":"ce4bhph2rcd13ifvqheg","pricing_plan_id":"cebpf4jnsgd1na2vs0mg"},{"bike_id":"b5d4c69d-6d44-49a5-943a-595d61804931","system_id":"levelo_inurba_marseille","lat":43.30276,"lon":5.37705,"is_reserved":false,"is_disabled":false,"rental_uris":{"android":"levelo://app?vid=b5d4c69d-6d44-49a5-943a-595d61804931","ios":"levelo://app?vid=b5d4c69d-6d44-49a5-943a-595d61804931"},"vehicle_type_id":"4","last_reported":1729257461,"current_range_meters":28800,"station_id":"ce4bguh2rcd13ifvqcj0","pricing_plan_id":"cebpf4jnsgd1na2vs0mg"},{"bike_id":"4562e9bb-7c1e-4e0e-95e1-858d0f8d86d1","system_id":"levelo_inurba_marseille","lat":43.23194,"lon":5.35551,"is_reserved":false,"is_disabled":false,"rental_uris":{"android":"levelo://app?vid=4562e9bb-7c1e-4e0e-95e1-858d0f8d86d1","ios":"levelo://app?vid=4562e9bb-7c1e-4e0e-95e1-858d0f8d86d1"},"vehicle_type_id":"4","last_reported":1729257461,"current_range_meters":34000,"station_id":"ce4bhu92rcd13ifvqi70","pricing_plan_id":"cebpf4jnsgd1na2vs0mg"},{"bike_id":"3bfa9c42-4152-4ec6-99d3-f1112205c95d","system_id":"levelo_inurba_marseille","lat":43.3188,"lon":5.40728,"is_reserved":false,"is_disabled":false,"rental_uris":{"android":"levelo://app?vid=3bfa9c42-4152-4ec6-99d3-f1112205c95d","ios":"levelo://app?vid=3bfa9c42-4152-4ec6-99d3-f1112205c95d"},"vehicle_type_id":"4","last_reported":1729257461,"current_range_meters":19600,"station_id":"ce4bhq12rcd13ifvqhig","pricing_plan_id":"cebpf4jnsgd1na2vs0mg"},{"bike_id":"6837ac97-30a8-4145-8047-b6d6df61ac48","system_id":"levelo_inurba_marseille","lat":43.23185,"lon":5.39993,"is_reserved":false,"is_disabled":false,"rental_uris":{"android":"levelo://app?vid=6837ac97-30a8-4145-8047-b6d6df61ac48","ios":"levelo://app?vid=6837ac97-30a8-4145-8047-b6d6df61ac48"},"vehicle_type_id":"4","last_reported":1729257461,"current_range_meters":38800,"station_id":"ce4bhn12rcd13ifvqgqg","pricing_plan_id":"cebpf4jnsgd1na2vs0mg"},{"bike_id":"2140b6a3-5118-4150-823e-9225aeb56201","system_id":"levelo_inurba_marseille","lat":43.23198,"lon":5.35547,"is_reserved":false,"is_disabled":false,"rental_uris":{"android":"levelo://app?vid=2140b6a3-5118-4150-823e-9225aeb56201","ios":"levelo://app?vid=2140b6a3-5118-4150-823e-9225aeb56201"},"vehicle_type_id":"4","last_reported":1729257461,"current_range_meters":31200,"station_id":"ce4bhu92rcd13ifvqi70","pricing_plan_id":"cebpf4jnsgd1na2vs0mg"},{"bike_id":"50223d13-23b2-4f5e-b5c6-2e91dbd2a6f8","system_id":"levelo_inurba_marseille","lat":43.23179,"lon":5.39998,"is_reserved":false,"is_disabled":false,"rental_uris":{"android":"levelo://app?vid=50223d13-23b2-4f5e-b5c6-2e91dbd2a6f8","ios":"levelo://app?vid=50223d13-23b2-4f5e-b5c6-2e91dbd2a6f8"},"vehicle_type_id":"4","last_reported":1729257461,"current_range_meters":32400,"station_id":"ce4bhn12rcd13ifvqgqg","pricing_plan_id":"cebpf4jnsgd1na2vs0mg"},{"bike_id":"6a9e1746-a888-4b78-ae76-98c73bdca7e9","system_id":"levelo_inurba_marseille","lat":43.27841,"lon":5.39199,"is_reserved":false,"is_disabled":false,"rental_uris":{"android":"levelo://app?vid=6a9e1746-a888-4b78-ae76-98c73bdca7e9","ios":"levelo://app?vid=6a9e1746-a888-4b78-ae76-98c73bdca7e9"},"vehicle_type_id":"4","last_reported":1729257461,"current_range_meters":35200,"station_id":"ce4bhjp2rcd13ifvqga0","pricing_plan_id":"cebpf4jnsgd1na2vs0mg"},{"bike_id":"c2965f2e-ac09-4a1a-bb73-8100a7092567","system_id":"levelo_inurba_marseille","lat":43.276761,"lon":5.388884,"is_reserved":false,"is_disabled":false,"rental_uris":{"android":"levelo://app?vid=c2965f2e-ac09-4a1a-bb73-8100a7092567","ios":"levelo://app?vid=c2965f2e-ac09-4a1a-bb73-8100a7092567"},"vehicle_type_id":"4","last_reported":1729257461,"current_range_meters":10800,"station_id":"ce4bhi12rcd13ifvqfo0","pricing_plan_id":"cebpf4jnsgd1na2vs0mg"},{"bike_id":"47f3cceb-4881-4dbb-86b5-9a7687b5fee0","system_id":"levelo_inurba_marseille","lat":43.25493,"lon":5.3765,"is_reserved":false,"is_disabled":false,"rental_uris":{"android":"levelo://app?vid=47f3cceb-4881-4dbb-86b5-9a7687b5fee0","ios":"levelo://app?vid=47f3cceb-4881-4dbb-86b5-9a7687b5fee0"},"vehicle_type_id":"4","last_reported":1729257461,"current_range_meters":18800,"station_id":"ce4bhh12rcd13ifvqff0","pricing_plan_id":"cebpf4jnsgd1na2vs0mg"},{"bike_id":"9290fe6b-6916-48ab-9a64-8ac73f0de96e","system_id":"levelo_inurba_marseille","lat":43.231587,"lon":5.43709,"is_reserved":false,"is_disabled":false,"rental_uris":{"android":"levelo://app?vid=9290fe6b-6916-48ab-9a64-8ac73f0de96e","ios":"levelo://app?vid=9290fe6b-6916-48ab-9a64-8ac73f0de96e"},"vehicle_type_id":"4","last_reported":1729257461,"current_range_meters":2000,"station_id":"ce4bhmp2rcd13ifvqgog","pricing_plan_id":"cebpf4jnsgd1na2vs0mg"},{"bike_id":"73571360-6624-497e-ae84-61a3fbd766b0","system_id":"levelo_inurba_marseille","lat":43.255,"lon":5.37653,"is_reserved":false,"is_disabled":false,"rental_uris":{"android":"levelo://app?vid=73571360-6624-497e-ae84-61a3fbd766b0","ios":"levelo://app?vid=73571360-6624-497e-ae84-61a3fbd766b0"},"vehicle_type_id":"4","last_reported":1729257461,"current_range_meters":40000,"station_id":"ce4bhh12rcd13ifvqff0","pricing_plan_id":"cebpf4jnsgd1na2vs0mg"},{"bike_id":"971eba59-4e62-4d7b-b54f-d65aedbb6c3a","system_id":"levelo_inurba_marseille","lat":43.30908,"lon":5.36847,"is_reserved":false,"is_disabled":false,"rental_uris":{"android":"levelo://app?vid=971eba59-4e62-4d7b-b54f-d65aedbb6c3a","ios":"levelo://app?vid=971eba59-4e62-4d7b-b54f-d65aedbb6c3a"},"vehicle_type_id":"4","last_reported":1729257461,"current_range_meters":2800,"station_id":"ce4bgn92rcd13ifvqbvg","pricing_plan_id":"cebpf4jnsgd1na2vs0mg"},{"bike_id":"fa9433b4-083f-47af-bd7b-c30153b643c4","system_id":"levelo_inurba_marseille","lat":43.2808,"lon":5.39656,"is_reserved":false,"is_disabled":false,"rental_uris":{"android":"levelo://app?vid=fa9433b4-083f-47af-bd7b-c30153b643c4","ios":"levelo://app?vid=fa9433b4-083f-47af-bd7b-c30153b643c4"},"vehicle_type_id":"4","last_reported":1729257461,"current_range_meters":26800,"station_id":"ce4bho12rcd13ifvqh2g","pricing_plan_id":"cebpf4jnsgd1na2vs0mg"},{"bike_id":"b551810b-0b02-4958-8d62-633d5617f61a","system_id":"levelo_inurba_marseille","lat":43.28846,"lon":5.39299,"is_reserved":false,"is_disabled":false,"rental_uris":{"android":"levelo://app?vid=b551810b-0b02-4958-8d62-633d5617f61a","ios":"levelo://app?vid=b551810b-0b02-4958-8d62-633d5617f61a"},"vehicle_type_id":"4","last_reported":1729257461,"current_range_meters":33600,"station_id":"ce4bh2p2rcd13ifvqdi0","pricing_plan_id":"cebpf4jnsgd1na2vs0mg"},{"bike_id":"0baa62fe-67c6-4c8d-92ad-9bfedf0ce495","system_id":"levelo_inurba_marseille","lat":43.29783,"lon":5.37098,"is_reserved":false,"is_disabled":false,"rental_uris":{"android":"levelo://app?vid=0baa62fe-67c6-4c8d-92ad-9bfedf0ce495","ios":"levelo://app?vid=0baa62fe-67c6-4c8d-92ad-9bfedf0ce495"},"vehicle_type_id":"4","last_reported":1729257461,"current_range_meters":16000,"station_id":"ce4bgop2rcd13ifvqc1g","pricing_plan_id":"cebpf4jnsgd1na2vs0mg"},{"bike_id":"4c636b45-8c2f-44f2-bdf0-48b6638d5aee","system_id":"levelo_inurba_marseille","lat":43.29307,"lon":5.37172,"is_reserved":false,"is_disabled":false,"rental_uris":{"android":"levelo://app?vid=4c636b45-8c2f-44f2-bdf0-48b6638d5aee","ios":"levelo://app?vid=4c636b45-8c2f-44f2-bdf0-48b6638d5aee"},"vehicle_type_id":"4","last_reported":1729257461,"current_range_meters":6400,"station_id":"ce4bgh92rcd13ifvqb40","pricing_plan_id":"cebpf4jnsgd1na2vs0mg"},{"bike_id":"175755d7-0c67-48b4-8af6-3d11fd590c37","system_id":"levelo_inurba_marseille","lat":43.2396,"lon":5.36633,"is_reserved":false,"is_disabled":false,"rental_uris":{"android":"levelo://app?vid=175755d7-0c67-48b4-8af6-3d11fd590c37","ios":"levelo://app?vid=175755d7-0c67-48b4-8af6-3d11fd590c37"},"vehicle_type_id":"4","last_reported":1729257461,"current_range_meters":32800,"station_id":"ce4bhi12rcd13ifvqfp0","pricing_plan_id":"cebpf4jnsgd1na2vs0mg"},{"bike_id":"7772d39f-5e28-445c-af91-069b0cf63793","system_id":"levelo_inurba_marseille","lat":43.33765,"lon":5.37438,"is_reserved":false,"is_disabled":false,"rental_uris":{"android":"levelo://app?vid=7772d39f-5e28-445c-af91-069b0cf63793","ios":"levelo://app?vid=7772d39f-5e28-445c-af91-069b0cf63793"},"vehicle_type_id":"4","last_reported":1729257461,"current_range_meters":13600,"station_id":"","pricing_plan_id":"cebpf4jnsgd1na2vs0mg"},{"bike_id":"e0ab6bb6-c6b9-4385-b41c-27bea5d9c0cb","system_id":"levelo_inurba_marseille","lat":43.33038,"lon":5.39035,"is_reserved":false,"is_disabled":false,"rental_uris":{"android":"levelo://app?vid=e0ab6bb6-c6b9-4385-b41c-27bea5d9c0cb","ios":"levelo://app?vid=e0ab6bb6-c6b9-4385-b41c-27bea5d9c0cb"},"vehicle_type_id":"4","last_reported":1729257461,"current_range_meters":22800,"station_id":"ce4bhr92rcd13ifvqhrg","pricing_plan_id":"cebpf4jnsgd1na2vs0mg"},{"bike_id":"3213665e-989c-4d22-9f5a-31c8522597dd","system_id":"levelo_inurba_marseille","lat":43.296,"lon":5.36142,"is_reserved":false,"is_disabled":false,"rental_uris":{"android":"levelo://app?vid=3213665e-989c-4d22-9f5a-31c8522597dd","ios":"levelo://app?vid=3213665e-989c-4d22-9f5a-31c8522597dd"},"vehicle_type_id":"4","last_reported":1729257461,"current_range_meters":24000,"station_id":"","pricing_plan_id":"cebpf4jnsgd1na2vs0mg"},{"bike_id":"cddb2538-acdb-46a5-bc95-6e0a8d74ef0c","system_id":"levelo_inurba_marseille","lat":43.30797,"lon":5.43526,"is_reserved":false,"is_disabled":false,"rental_uris":{"android":"levelo://app?vid=cddb2538-acdb-46a5-bc95-6e0a8d74ef0c","ios":"levelo://app?vid=cddb2538-acdb-46a5-bc95-6e0a8d74ef0c"},"vehicle_type_id":"4","last_reported":1729257461,"current_range_meters":31200,"station_id":"ce4bhph2rcd13ifvqheg","pricing_plan_id":"cebpf4jnsgd1na2vs0mg"},{"bike_id":"5653c41d-512f-4219-acc0-d7b88a107bf5","system_id":"levelo_inurba_marseille","lat":43.29075,"lon":5.37168,"is_reserved":false,"is_disabled":false,"rental_uris":{"android":"levelo://app?vid=5653c41d-512f-4219-acc0-d7b88a107bf5","ios":"levelo://app?vid=5653c41d-512f-4219-acc0-d7b88a107bf5"},"vehicle_type_id":"4","last_reported":1729257461,"current_range_meters":19600,"station_id":"ce4bh5p2rcd13ifvqe4g","pricing_plan_id":"cebpf4jnsgd1na2vs0mg"},{"bike_id":"1641b826-604a-4181-8231-dca386f637a6","system_id":"levelo_inurba_marseille","lat":43.23194,"lon":5.35549,"is_reserved":false,"is_disabled":false,"rental_uris":{"android":"levelo://app?vid=1641b826-604a-4181-8231-dca386f637a6","ios":"levelo://app?vid=1641b826-604a-4181-8231-dca386f637a6"},"vehicle_type_id":"4","last_reported":1729257461,"current_range_meters":29600,"station_id":"ce4bhu92rcd13ifvqi70","pricing_plan_id":"cebpf4jnsgd1na2vs0mg"},{"bike_id":"89211ee2-076f-4df3-92bd-cd8885f2e76d","system_id":"levelo_inurba_marseille","lat":43.23194,"lon":5.35556,"is_reserved":false,"is_disabled":false,"rental_uris":{"android":"levelo://app?vid=89211ee2-076f-4df3-92bd-cd8885f2e76d","ios":"levelo://app?vid=89211ee2-076f-4df3-92bd-cd8885f2e76d"},"vehicle_type_id":"4","last_reported":1729257461,"current_range_meters":28000,"station_id":"ce4bhu92rcd13ifvqi70","pricing_plan_id":"cebpf4jnsgd1na2vs0mg"},{"bike_id":"ad7b4d6b-0664-4d0e-891e-2962f31c57b3","system_id":"levelo_inurba_marseille","lat":43.23149,"lon":5.43706,"is_reserved":false,"is_disabled":false,"rental_uris":{"android":"levelo://app?vid=ad7b4d6b-0664-4d0e-891e-2962f31c57b3","ios":"levelo://app?vid=ad7b4d6b-0664-4d0e-891e-2962f31c57b3"},"vehicle_type_id":"4","last_reported":1729257461,"current_range_meters":23200,"station_id":"ce4bhmp2rcd13ifvqgog","pricing_plan_id":"cebpf4jnsgd1na2vs0mg"},{"bike_id":"f47d9324-2df4-4dd2-9565-15813cd6dd7c","system_id":"levelo_inurba_marseille","lat":43.25719,"lon":5.41115,"is_reserved":false,"is_disabled":false,"rental_uris":{"android":"levelo://app?vid=f47d9324-2df4-4dd2-9565-15813cd6dd7c","ios":"levelo://app?vid=f47d9324-2df4-4dd2-9565-15813cd6dd7c"},"vehicle_type_id":"4","last_reported":1729257461,"current_range_meters":24400,"station_id":"ce4bhkp2rcd13ifvqgd0","pricing_plan_id":"cebpf4jnsgd1na2vs0mg"},{"bike_id":"4bde2823-0805-4d23-a761-2d98917883db","system_id":"levelo_inurba_marseille","lat":43.24214,"lon":5.36734,"is_reserved":false,"is_disabled":false,"rental_uris":{"android":"levelo://app?vid=4bde2823-0805-4d23-a761-2d98917883db","ios":"levelo://app?vid=4bde2823-0805-4d23-a761-2d98917883db"},"vehicle_type_id":"4","last_reported":1729257461,"current_range_meters":28000,"station_id":"","pricing_plan_id":"cebpf4jnsgd1na2vs0mg"},{"bike_id":"a86b556c-7223-4336-8b72-80aea664563e","system_id":"levelo_inurba_marseille","lat":43.29006,"lon":5.35609,"is_reserved":false,"is_disabled":false,"rental_uris":{"android":"levelo://app?vid=a86b556c-7223-4336-8b72-80aea664563e","ios":"levelo://app?vid=a86b556c-7223-4336-8b72-80aea664563e"},"vehicle_type_id":"4","last_reported":1729257461,"current_range_meters":11200,"station_id":"ce4bhb92rcd13ifvqen0","pricing_plan_id":"cebpf4jnsgd1na2vs0mg"},{"bike_id":"5e71651e-3f89-45a8-aa11-bf64ca86ed10","system_id":"levelo_inurba_marseille","lat":43.24388,"lon":5.3706,"is_reserved":false,"is_disabled":false,"rental_uris":{"android":"levelo://app?vid=5e71651e-3f89-45a8-aa11-bf64ca86ed10","ios":"levelo://app?vid=5e71651e-3f89-45a8-aa11-bf64ca86ed10"},"vehicle_type_id":"4","last_reported":1729257461,"current_range_meters":11600,"station_id":"ce4bhhh2rcd13ifvqfk0","pricing_plan_id":"cebpf4jnsgd1na2vs0mg"},{"bike_id":"458722ae-46f7-4ec2-9679-058bc30a6a1a","system_id":"levelo_inurba_marseille","lat":43.31078,"lon":5.38352,"is_reserved":false,"is_disabled":false,"rental_uris":{"android":"levelo://app?vid=458722ae-46f7-4ec2-9679-058bc30a6a1a","ios":"levelo://app?vid=458722ae-46f7-4ec2-9679-058bc30a6a1a"},"vehicle_type_id":"4","last_reported":1729257461,"current_range_meters":36400,"station_id":"ce4bgv92rcd13ifvqcr0","pricing_plan_id":"cebpf4jnsgd1na2vs0mg"},{"bike_id":"8c62d553-638b-425f-82c4-bbd6e2b6ef62","system_id":"levelo_inurba_marseille","lat":43.32657,"lon":5.41,"is_reserved":false,"is_disabled":false,"rental_uris":{"android":"levelo://app?vid=8c62d553-638b-425f-82c4-bbd6e2b6ef62","ios":"levelo://app?vid=8c62d553-638b-425f-82c4-bbd6e2b6ef62"},"vehicle_type_id":"4","last_reported":1729257461,"current_range_meters":39200,"station_id":"ce4bhpp2rcd13ifvqhgg","pricing_plan_id":"cebpf4jnsgd1na2vs0mg"},{"bike_id":"9bdb5919-d96d-4b16-9f22-31bf96471670","system_id":"levelo_inurba_marseille","lat":43.26678,"lon":5.38271,"is_reserved":false,"is_disabled":false,"rental_uris":{"android":"levelo://app?vid=9bdb5919-d96d-4b16-9f22-31bf96471670","ios":"levelo://app?vid=9bdb5919-d96d-4b16-9f22-31bf96471670"},"vehicle_type_id":"4","last_reported":1729257461,"current_range_meters":32000,"station_id":"ce4bhg92rcd13ifvqf90","pricing_plan_id":"cebpf4jnsgd1na2vs0mg"},{"bike_id":"422d485a-ee3c-4fc3-b2c4-fc8dab31d119","system_id":"levelo_inurba_marseille","lat":43.23964,"lon":5.36625,"is_reserved":false,"is_disabled":false,"rental_uris":{"android":"levelo://app?vid=422d485a-ee3c-4fc3-b2c4-fc8dab31d119","ios":"levelo://app?vid=422d485a-ee3c-4fc3-b2c4-fc8dab31d119"},"vehicle_type_id":"4","last_reported":1729257461,"current_range_meters":14400,"station_id":"ce4bhi12rcd13ifvqfp0","pricing_plan_id":"cebpf4jnsgd1na2vs0mg"},{"bike_id":"5f62226e-954e-464a-a10e-f7884ebb4df2","system_id":"levelo_inurba_marseille","lat":43.275384,"lon":5.360138,"is_reserved":false,"is_disabled":false,"rental_uris":{"android":"levelo://app?vid=5f62226e-954e-464a-a10e-f7884ebb4df2","ios":"levelo://app?vid=5f62226e-954e-464a-a10e-f7884ebb4df2"},"vehicle_type_id":"4","last_reported":1729257461,"current_range_meters":38400,"station_id":"","pricing_plan_id":"cebpf4jnsgd1na2vs0mg"},{"bike_id":"87440bd7-4730-412f-b52f-03b263c3d6ba","system_id":"levelo_inurba_marseille","lat":43.23199,"lon":5.35554,"is_reserved":false,"is_disabled":false,"rental_uris":{"android":"levelo://app?vid=87440bd7-4730-412f-b52f-03b263c3d6ba","ios":"levelo://app?vid=87440bd7-4730-412f-b52f-03b263c3d6ba"},"vehicle_type_id":"4","last_reported":1729257461,"current_range_meters":12800,"station_id":"ce4bhu92rcd13ifvqi70","pricing_plan_id":"cebpf4jnsgd1na2vs0mg"},{"bike_id":"58fb6de6-93c0-4205-bd0e-54d2df3de072","system_id":"levelo_inurba_marseille","lat":43.25871,"lon":5.39892,"is_reserved":false,"is_disabled":false,"rental_uris":{"android":"levelo://app?vid=58fb6de6-93c0-4205-bd0e-54d2df3de072","ios":"levelo://app?vid=58fb6de6-93c0-4205-bd0e-54d2df3de072"},"vehicle_type_id":"4","last_reported":1729257461,"current_range_meters":12000,"station_id":"ce4bhl92rcd13ifvqghg","pricing_plan_id":"cebpf4jnsgd1na2vs0mg"},{"bike_id":"e4b6002c-8616-4dca-b50d-2837e4de9454","system_id":"levelo_inurba_marseille","lat":43.29935,"lon":5.36547,"is_reserved":false,"is_disabled":false,"rental_uris":{"android":"levelo://app?vid=e4b6002c-8616-4dca-b50d-2837e4de9454","ios":"levelo://app?vid=e4b6002c-8616-4dca-b50d-2837e4de9454"},"vehicle_type_id":"4","last_reported":1729257461,"current_range_meters":20000,"station_id":"ce4bgm92rcd13ifvqbr0","pricing_plan_id":"cebpf4jnsgd1na2vs0mg"},{"bike_id":"4c8dca80-8b42-4428-a771-8ffe7b6dee59","system_id":"levelo_inurba_marseille","lat":43.28929,"lon":5.38391,"is_reserved":false,"is_disabled":false,"rental_uris":{"android":"levelo://app?vid=4c8dca80-8b42-4428-a771-8ffe7b6dee59","ios":"levelo://app?vid=4c8dca80-8b42-4428-a771-8ffe7b6dee59"},"vehicle_type_id":"4","last_reported":1729257461,"current_range_meters":10800,"station_id":"ce4bh612rcd13ifvqe6g","pricing_plan_id":"cebpf4jnsgd1na2vs0mg"},{"bike_id":"55274776-0578-437d-96e1-71bb753559be","system_id":"levelo_inurba_marseille","lat":43.31116,"lon":5.37761,"is_reserved":false,"is_disabled":false,"rental_uris":{"android":"levelo://app?vid=55274776-0578-437d-96e1-71bb753559be","ios":"levelo://app?vid=55274776-0578-437d-96e1-71bb753559be"},"vehicle_type_id":"4","last_reported":1729257461,"current_range_meters":10000,"station_id":"ce4bgt92rcd13ifvqcg0","pricing_plan_id":"cebpf4jnsgd1na2vs0mg"},{"bike_id":"172b1c03-1c4f-4132-967c-3b7b528d1f62","system_id":"levelo_inurba_marseille","lat":43.23963,"lon":5.36624,"is_reserved":false,"is_disabled":false,"rental_uris":{"android":"levelo://app?vid=172b1c03-1c4f-4132-967c-3b7b528d1f62","ios":"levelo://app?vid=172b1c03-1c4f-4132-967c-3b7b528d1f62"},"vehicle_type_id":"4","last_reported":1729257461,"current_range_meters":15200,"station_id":"ce4bhi12rcd13ifvqfp0","pricing_plan_id":"cebpf4jnsgd1na2vs0mg"},{"bike_id":"daf22788-def4-401e-9d10-679937a56cc8","system_id":"levelo_inurba_marseille","lat":43.29979,"lon":5.37175,"is_reserved":false,"is_disabled":false,"rental_uris":{"android":"levelo://app?vid=daf22788-def4-401e-9d10-679937a56cc8","ios":"levelo://app?vid=daf22788-def4-401e-9d10-679937a56cc8"},"vehicle_type_id":"4","last_reported":1729257461,"current_range_meters":24400,"station_id":"ce4bgr92rcd13ifvqc7g","pricing_plan_id":"cebpf4jnsgd1na2vs0mg"},{"bike_id":"1b1a444a-1a66-4302-8189-a77ce483f46d","system_id":"levelo_inurba_marseille","lat":43.26214,"lon":5.37449,"is_reserved":false,"is_disabled":false,"rental_uris":{"android":"levelo://app?vid=1b1a444a-1a66-4302-8189-a77ce483f46d","ios":"levelo://app?vid=1b1a444a-1a66-4302-8189-a77ce483f46d"},"vehicle_type_id":"4","last_reported":1729257461,"current_range_meters":36400,"station_id":"ce4bhgp2rcd13ifvqfc0","pricing_plan_id":"cebpf4jnsgd1na2vs0mg"},{"bike_id":"bfa5318d-ecfa-48fc-91c1-e760644a8593","system_id":"levelo_inurba_marseille","lat":43.231498,"lon":5.437151,"is_reserved":false,"is_disabled":false,"rental_uris":{"android":"levelo://app?vid=bfa5318d-ecfa-48fc-91c1-e760644a8593","ios":"levelo://app?vid=bfa5318d-ecfa-48fc-91c1-e760644a8593"},"vehicle_type_id":"4","last_reported":1729257461,"current_range_meters":11200,"station_id":"","pricing_plan_id":"cebpf4jnsgd1na2vs0mg"},{"bike_id":"5dea50a4-1d92-4427-a32b-1890395130ff","system_id":"levelo_inurba_marseille","lat":43.27365,"lon":5.3625,"is_reserved":false,"is_disabled":false,"rental_uris":{"android":"levelo://app?vid=5dea50a4-1d92-4427-a32b-1890395130ff","ios":"levelo://app?vid=5dea50a4-1d92-4427-a32b-1890395130ff"},"vehicle_type_id":"4","last_reported":1729257461,"current_range_meters":38800,"station_id":"ce4bhbh2rcd13ifvqeo0","pricing_plan_id":"cebpf4jnsgd1na2vs0mg"},{"bike_id":"c23403d1-a246-4cd7-93d3-bac0d8d33665","system_id":"levelo_inurba_marseille","lat":43.26681,"lon":5.38271,"is_reserved":false,"is_disabled":false,"rental_uris":{"android":"levelo://app?vid=c23403d1-a246-4cd7-93d3-bac0d8d33665","ios":"levelo://app?vid=c23403d1-a246-4cd7-93d3-bac0d8d33665"},"vehicle_type_id":"4","last_reported":1729257461,"current_range_meters":36000,"station_id":"ce4bhg92rcd13ifvqf90","pricing_plan_id":"cebpf4jnsgd1na2vs0mg"},{"bike_id":"12eb7c25-2837-4428-9baf-9b5273dc9452","system_id":"levelo_inurba_marseille","lat":43.22932,"lon":5.35375,"is_reserved":false,"is_disabled":false,"rental_uris":{"android":"levelo://app?vid=12eb7c25-2837-4428-9baf-9b5273dc9452","ios":"levelo://app?vid=12eb7c25-2837-4428-9baf-9b5273dc9452"},"vehicle_type_id":"4","last_reported":1729257461,"current_range_meters":30800,"station_id":"cpo3532slgdg3j2ikp40","pricing_plan_id":"cebpf4jnsgd1na2vs0mg"},{"bike_id":"3eb94793-5e4b-4475-a63f-e9d65cc83553","system_id":"levelo_inurba_marseille","lat":43.282654,"lon":5.350713,"is_reserved":false,"is_disabled":false,"rental_uris":{"android":"levelo://app?vid=3eb94793-5e4b-4475-a63f-e9d65cc83553","ios":"levelo://app?vid=3eb94793-5e4b-4475-a63f-e9d65cc83553"},"vehicle_type_id":"4","last_reported":1729257461,"current_range_meters":16400,"station_id":"ce4bhbp2rcd13ifvqerg","pricing_plan_id":"cebpf4jnsgd1na2vs0mg"},{"bike_id":"f8f532ce-e3df-4c92-8504-d4da193c2226","system_id":"levelo_inurba_marseille","lat":43.28616,"lon":5.35102,"is_reserved":false,"is_disabled":false,"rental_uris":{"android":"levelo://app?vid=f8f532ce-e3df-4c92-8504-d4da193c2226","ios":"levelo://app?vid=f8f532ce-e3df-4c92-8504-d4da193c2226"},"vehicle_type_id":"4","last_reported":1729257461,"current_range_meters":26000,"station_id":"ce4bhch2rcd13ifvqeug","pricing_plan_id":"cebpf4jnsgd1na2vs0mg"},{"bike_id":"16d207ce-9e3c-4178-9c62-1e57e228dd1a","system_id":"levelo_inurba_marseille","lat":43.2993,"lon":5.38078,"is_reserved":false,"is_disabled":false,"rental_uris":{"android":"levelo://app?vid=16d207ce-9e3c-4178-9c62-1e57e228dd1a","ios":"levelo://app?vid=16d207ce-9e3c-4178-9c62-1e57e228dd1a"},"vehicle_type_id":"4","last_reported":1729257461,"current_range_meters":28000,"station_id":"ce4bgph2rcd13ifvqc2g","pricing_plan_id":"cebpf4jnsgd1na2vs0mg"},{"bike_id":"38e46808-5ff9-43c9-bbe8-fefe6ece3407","system_id":"levelo_inurba_marseille","lat":43.28409,"lon":5.34983,"is_reserved":false,"is_disabled":false,"rental_uris":{"android":"levelo://app?vid=38e46808-5ff9-43c9-bbe8-fefe6ece3407","ios":"levelo://app?vid=38e46808-5ff9-43c9-bbe8-fefe6ece3407"},"vehicle_type_id":"4","last_reported":1729257461,"current_range_meters":20000,"station_id":"ce4bhbh2rcd13ifvqepg","pricing_plan_id":"cebpf4jnsgd1na2vs0mg"},{"bike_id":"dfd6590b-6fda-42d0-b919-0be5fb4511c6","system_id":"levelo_inurba_marseille","lat":43.28941,"lon":5.39629,"is_reserved":false,"is_disabled":false,"rental_uris":{"android":"levelo://app?vid=dfd6590b-6fda-42d0-b919-0be5fb4511c6","ios":"levelo://app?vid=dfd6590b-6fda-42d0-b919-0be5fb4511c6"},"vehicle_type_id":"4","last_reported":1729257461,"current_range_meters":10800,"station_id":"ce4bh3h2rcd13ifvqdn0","pricing_plan_id":"cebpf4jnsgd1na2vs0mg"},{"bike_id":"a0d1f48f-4d8d-4385-8400-04795ef1f250","system_id":"levelo_inurba_marseille","lat":43.26559,"lon":5.37285,"is_reserved":false,"is_disabled":false,"rental_uris":{"android":"levelo://app?vid=a0d1f48f-4d8d-4385-8400-04795ef1f250","ios":"levelo://app?vid=a0d1f48f-4d8d-4385-8400-04795ef1f250"},"vehicle_type_id":"4","last_reported":1729257461,"current_range_meters":38400,"station_id":"ce4bhg12rcd13ifvqf70","pricing_plan_id":"cebpf4jnsgd1na2vs0mg"},{"bike_id":"932b005e-8a48-490e-801e-fc8cf86ac879","system_id":"levelo_inurba_marseille","lat":43.26789,"lon":5.39411,"is_reserved":false,"is_disabled":false,"rental_uris":{"android":"levelo://app?vid=932b005e-8a48-490e-801e-fc8cf86ac879","ios":"levelo://app?vid=932b005e-8a48-490e-801e-fc8cf86ac879"},"vehicle_type_id":"4","last_reported":1729257461,"current_range_meters":38800,"station_id":"ce4bhh12rcd13ifvqfg0","pricing_plan_id":"cebpf4jnsgd1na2vs0mg"},{"bike_id":"c1bac344-f615-434e-9ccd-d75b4faa0ca2","system_id":"levelo_inurba_marseille","lat":43.29419,"lon":5.38624,"is_reserved":false,"is_disabled":false,"rental_uris":{"android":"levelo://app?vid=c1bac344-f615-434e-9ccd-d75b4faa0ca2","ios":"levelo://app?vid=c1bac344-f615-434e-9ccd-d75b4faa0ca2"},"vehicle_type_id":"4","last_reported":1729257461,"current_range_meters":26800,"station_id":"ce4bh2h2rcd13ifvqdh0","pricing_plan_id":"cebpf4jnsgd1na2vs0mg"},{"bike_id":"a9295dde-ceb4-4ca6-940b-7dd28fc752be","system_id":"levelo_inurba_marseille","lat":43.32482,"lon":5.36556,"is_reserved":false,"is_disabled":false,"rental_uris":{"android":"levelo://app?vid=a9295dde-ceb4-4ca6-940b-7dd28fc752be","ios":"levelo://app?vid=a9295dde-ceb4-4ca6-940b-7dd28fc752be"},"vehicle_type_id":"4","last_reported":1729257461,"current_range_meters":22800,"station_id":"ce4bhs12rcd13ifvqhvg","pricing_plan_id":"cebpf4jnsgd1na2vs0mg"},{"bike_id":"9217c477-c508-4527-8d8d-f4b42982126a","system_id":"levelo_inurba_marseille","lat":43.2315,"lon":5.43701,"is_reserved":false,"is_disabled":false,"rental_uris":{"android":"levelo://app?vid=9217c477-c508-4527-8d8d-f4b42982126a","ios":"levelo://app?vid=9217c477-c508-4527-8d8d-f4b42982126a"},"vehicle_type_id":"4","last_reported":1729257461,"current_range_meters":8000,"station_id":"ce4bhmp2rcd13ifvqgog","pricing_plan_id":"cebpf4jnsgd1na2vs0mg"},{"bike_id":"292b9425-1372-40d4-bf0a-fe57aa779a41","system_id":"levelo_inurba_marseille","lat":43.23058,"lon":5.35496,"is_reserved":false,"is_disabled":false,"rental_uris":{"android":"levelo://app?vid=292b9425-1372-40d4-bf0a-fe57aa779a41","ios":"levelo://app?vid=292b9425-1372-40d4-bf0a-fe57aa779a41"},"vehicle_type_id":"4","last_reported":1729257461,"current_range_meters":17600,"station_id":"cpo3342slgdg3j2ifvpg","pricing_plan_id":"cebpf4jnsgd1na2vs0mg"},{"bike_id":"3ed38786-470d-411a-80d4-a7d4d45bb2a0","system_id":"levelo_inurba_marseille","lat":43.26562,"lon":5.37277,"is_reserved":false,"is_disabled":false,"rental_uris":{"android":"levelo://app?vid=3ed38786-470d-411a-80d4-a7d4d45bb2a0","ios":"levelo://app?vid=3ed38786-470d-411a-80d4-a7d4d45bb2a0"},"vehicle_type_id":"4","last_reported":1729257461,"current_range_meters":34000,"station_id":"ce4bhg12rcd13ifvqf70","pricing_plan_id":"cebpf4jnsgd1na2vs0mg"},{"bike_id":"e21dedd4-a317-466e-9cad-fd939c9abdee","system_id":"levelo_inurba_marseille","lat":43.29801,"lon":5.38106,"is_reserved":false,"is_disabled":false,"rental_uris":{"android":"levelo://app?vid=e21dedd4-a317-466e-9cad-fd939c9abdee","ios":"levelo://app?vid=e21dedd4-a317-466e-9cad-fd939c9abdee"},"vehicle_type_id":"4","last_reported":1729257461,"current_range_meters":18000,"station_id":"ce4bgip2rcd13ifvqbb0","pricing_plan_id":"cebpf4jnsgd1na2vs0mg"},{"bike_id":"a5c9600e-0f0c-45f8-9425-80e04d71cbec","system_id":"levelo_inurba_marseille","lat":43.23153,"lon":5.43703,"is_reserved":false,"is_disabled":false,"rental_uris":{"android":"levelo://app?vid=a5c9600e-0f0c-45f8-9425-80e04d71cbec","ios":"levelo://app?vid=a5c9600e-0f0c-45f8-9425-80e04d71cbec"},"vehicle_type_id":"4","last_reported":1729257461,"current_range_meters":37600,"station_id":"ce4bhmp2rcd13ifvqgog","pricing_plan_id":"cebpf4jnsgd1na2vs0mg"},{"bike_id":"ce69f5a3-381f-4fe0-85a4-5e734388eafa","system_id":"levelo_inurba_marseille","lat":43.27816,"lon":5.40716,"is_reserved":false,"is_disabled":false,"rental_uris":{"android":"levelo://app?vid=ce69f5a3-381f-4fe0-85a4-5e734388eafa","ios":"levelo://app?vid=ce69f5a3-381f-4fe0-85a4-5e734388eafa"},"vehicle_type_id":"4","last_reported":1729257461,"current_range_meters":30000,"station_id":"ce4bhnh2rcd13ifvqgtg","pricing_plan_id":"cebpf4jnsgd1na2vs0mg"},{"bike_id":"7f90a848-4efc-4218-8da2-ff5a4fe85586","system_id":"levelo_inurba_marseille","lat":43.30278,"lon":5.37701,"is_reserved":false,"is_disabled":false,"rental_uris":{"android":"levelo://app?vid=7f90a848-4efc-4218-8da2-ff5a4fe85586","ios":"levelo://app?vid=7f90a848-4efc-4218-8da2-ff5a4fe85586"},"vehicle_type_id":"4","last_reported":1729257461,"current_range_meters":37600,"station_id":"ce4bguh2rcd13ifvqcj0","pricing_plan_id":"cebpf4jnsgd1na2vs0mg"},{"bike_id":"1eb12444-d932-4405-8e91-badbc3dba50e","system_id":"levelo_inurba_marseille","lat":43.30152,"lon":5.38071,"is_reserved":false,"is_disabled":false,"rental_uris":{"android":"levelo://app?vid=1eb12444-d932-4405-8e91-badbc3dba50e","ios":"levelo://app?vid=1eb12444-d932-4405-8e91-badbc3dba50e"},"vehicle_type_id":"4","last_reported":1729257461,"current_range_meters":30000,"station_id":"ce4bgjp2rcd13ifvqbh0","pricing_plan_id":"cebpf4jnsgd1na2vs0mg"},{"bike_id":"b930c546-2181-4082-b616-72daa0962436","system_id":"levelo_inurba_marseille","lat":43.23153,"lon":5.43702,"is_reserved":false,"is_disabled":false,"rental_uris":{"android":"levelo://app?vid=b930c546-2181-4082-b616-72daa0962436","ios":"levelo://app?vid=b930c546-2181-4082-b616-72daa0962436"},"vehicle_type_id":"4","last_reported":1729257461,"current_range_meters":8400,"station_id":"ce4bhmp2rcd13ifvqgog","pricing_plan_id":"cebpf4jnsgd1na2vs0mg"},{"bike_id":"c0873e4a-4832-4e0e-99e7-f5c10f7a06a9","system_id":"levelo_inurba_marseille","lat":43.28656,"lon":5.36351,"is_reserved":false,"is_disabled":false,"rental_uris":{"android":"levelo://app?vid=c0873e4a-4832-4e0e-99e7-f5c10f7a06a9","ios":"levelo://app?vid=c0873e4a-4832-4e0e-99e7-f5c10f7a06a9"},"vehicle_type_id":"4","last_reported":1729257461,"current_range_meters":17600,"station_id":"ce4bhah2rcd13ifvqej0","pricing_plan_id":"cebpf4jnsgd1na2vs0mg"},{"bike_id":"7285a840-93ae-4e5e-af65-a86c1d2a9611","system_id":"levelo_inurba_marseille","lat":43.28614,"lon":5.35104,"is_reserved":false,"is_disabled":false,"rental_uris":{"android":"levelo://app?vid=7285a840-93ae-4e5e-af65-a86c1d2a9611","ios":"levelo://app?vid=7285a840-93ae-4e5e-af65-a86c1d2a9611"},"vehicle_type_id":"4","last_reported":1729257461,"current_range_meters":33600,"station_id":"ce4bhch2rcd13ifvqeug","pricing_plan_id":"cebpf4jnsgd1na2vs0mg"},{"bike_id":"8468bfd4-f98a-4356-abed-0419722fa035","system_id":"levelo_inurba_marseille","lat":43.322858,"lon":5.38288,"is_reserved":false,"is_disabled":false,"rental_uris":{"android":"levelo://app?vid=8468bfd4-f98a-4356-abed-0419722fa035","ios":"levelo://app?vid=8468bfd4-f98a-4356-abed-0419722fa035"},"vehicle_type_id":"4","last_reported":1729257461,"current_range_meters":22000,"station_id":"ce4bhr12rcd13ifvqhqg","pricing_plan_id":"cebpf4jnsgd1na2vs0mg"},{"bike_id":"e3ca7803-aaa7-4ddf-8937-86afb5d1cee8","system_id":"levelo_inurba_marseille","lat":43.3171,"lon":5.437,"is_reserved":false,"is_disabled":false,"rental_uris":{"android":"levelo://app?vid=e3ca7803-aaa7-4ddf-8937-86afb5d1cee8","ios":"levelo://app?vid=e3ca7803-aaa7-4ddf-8937-86afb5d1cee8"},"vehicle_type_id":"4","last_reported":1729257461,"current_range_meters":38800,"station_id":"ce4bhp92rcd13ifvqhcg","pricing_plan_id":"cebpf4jnsgd1na2vs0mg"},{"bike_id":"87a62a5a-6731-4ae0-88c0-85b276181ce1","system_id":"levelo_inurba_marseille","lat":43.337444,"lon":5.374475,"is_reserved":false,"is_disabled":false,"rental_uris":{"android":"levelo://app?vid=87a62a5a-6731-4ae0-88c0-85b276181ce1","ios":"levelo://app?vid=87a62a5a-6731-4ae0-88c0-85b276181ce1"},"vehicle_type_id":"4","last_reported":1729257461,"current_range_meters":30400,"station_id":"","pricing_plan_id":"cebpf4jnsgd1na2vs0mg"},{"bike_id":"e21595e1-b1b9-462e-a301-60868bfc4062","system_id":"levelo_inurba_marseille","lat":43.25866,"lon":5.39896,"is_reserved":false,"is_disabled":false,"rental_uris":{"android":"levelo://app?vid=e21595e1-b1b9-462e-a301-60868bfc4062","ios":"levelo://app?vid=e21595e1-b1b9-462e-a301-60868bfc4062"},"vehicle_type_id":"4","last_reported":1729257461,"current_range_meters":38800,"station_id":"ce4bhl92rcd13ifvqghg","pricing_plan_id":"cebpf4jnsgd1na2vs0mg"},{"bike_id":"edc89d12-ada6-45aa-821f-e718eaede657","system_id":"levelo_inurba_marseille","lat":43.29889,"lon":5.38897,"is_reserved":false,"is_disabled":false,"rental_uris":{"android":"levelo://app?vid=edc89d12-ada6-45aa-821f-e718eaede657","ios":"levelo://app?vid=edc89d12-ada6-45aa-821f-e718eaede657"},"vehicle_type_id":"4","last_reported":1729257461,"current_range_meters":17600,"station_id":"ce4bh392rcd13ifvqdl0","pricing_plan_id":"cebpf4jnsgd1na2vs0mg"},{"bike_id":"c16e903c-fc46-4f61-85df-8813be6861dc","system_id":"levelo_inurba_marseille","lat":43.25121,"lon":5.40315,"is_reserved":false,"is_disabled":false,"rental_uris":{"android":"levelo://app?vid=c16e903c-fc46-4f61-85df-8813be6861dc","ios":"levelo://app?vid=c16e903c-fc46-4f61-85df-8813be6861dc"},"vehicle_type_id":"4","last_reported":1729257461,"current_range_meters":9200,"station_id":"ce4bhlh2rcd13ifvqgig","pricing_plan_id":"cebpf4jnsgd1na2vs0mg"},{"bike_id":"19389fe6-838b-410a-886d-e2d15f6134b7","system_id":"levelo_inurba_marseille","lat":43.29792,"lon":5.36831,"is_reserved":false,"is_disabled":false,"rental_uris":{"android":"levelo://app?vid=19389fe6-838b-410a-886d-e2d15f6134b7","ios":"levelo://app?vid=19389fe6-838b-410a-886d-e2d15f6134b7"},"vehicle_type_id":"4","last_reported":1729257461,"current_range_meters":6800,"station_id":"","pricing_plan_id":"cebpf4jnsgd1na2vs0mg"},{"bike_id":"3664398f-378f-46f2-bd12-30042ad8db9d","system_id":"levelo_inurba_marseille","lat":43.23187,"lon":5.39978,"is_reserved":false,"is_disabled":false,"rental_uris":{"android":"levelo://app?vid=3664398f-378f-46f2-bd12-30042ad8db9d","ios":"levelo://app?vid=3664398f-378f-46f2-bd12-30042ad8db9d"},"vehicle_type_id":"4","last_reported":1729257461,"current_range_meters":29600,"station_id":"ce4bhn12rcd13ifvqgqg","pricing_plan_id":"cebpf4jnsgd1na2vs0mg"},{"bike_id":"278a0d3f-a1b1-470f-b41b-b2f0186f37a5","system_id":"levelo_inurba_marseille","lat":43.29602,"lon":5.38101,"is_reserved":false,"is_disabled":false,"rental_uris":{"android":"levelo://app?vid=278a0d3f-a1b1-470f-b41b-b2f0186f37a5","ios":"levelo://app?vid=278a0d3f-a1b1-470f-b41b-b2f0186f37a5"},"vehicle_type_id":"4","last_reported":1729257461,"current_range_meters":6800,"station_id":"ce4bgl12rcd13ifvqbo0","pricing_plan_id":"cebpf4jnsgd1na2vs0mg"},{"bike_id":"27e6ac53-ead2-4e1e-9a25-a9bb397e852a","system_id":"levelo_inurba_marseille","lat":43.29619,"lon":5.37721,"is_reserved":false,"is_disabled":false,"rental_uris":{"android":"levelo://app?vid=27e6ac53-ead2-4e1e-9a25-a9bb397e852a","ios":"levelo://app?vid=27e6ac53-ead2-4e1e-9a25-a9bb397e852a"},"vehicle_type_id":"4","last_reported":1729257461,"current_range_meters":28800,"station_id":"ce4bgi92rcd13ifvqb90","pricing_plan_id":"cebpf4jnsgd1na2vs0mg"},{"bike_id":"a9d80141-cb04-4f88-bcc5-9763572e3517","system_id":"levelo_inurba_marseille","lat":43.23194,"lon":5.35546,"is_reserved":false,"is_disabled":false,"rental_uris":{"android":"levelo://app?vid=a9d80141-cb04-4f88-bcc5-9763572e3517","ios":"levelo://app?vid=a9d80141-cb04-4f88-bcc5-9763572e3517"},"vehicle_type_id":"4","last_reported":1729257461,"current_range_meters":28400,"station_id":"ce4bhu92rcd13ifvqi70","pricing_plan_id":"cebpf4jnsgd1na2vs0mg"},{"bike_id":"4547ea70-2bc3-4f73-84f4-0de8304592ee","system_id":"levelo_inurba_marseille","lat":43.29573,"lon":5.37518,"is_reserved":false,"is_disabled":false,"rental_uris":{"android":"levelo://app?vid=4547ea70-2bc3-4f73-84f4-0de8304592ee","ios":"levelo://app?vid=4547ea70-2bc3-4f73-84f4-0de8304592ee"},"vehicle_type_id":"4","last_reported":1729257461,"current_range_meters":23200,"station_id":"ce4bgh92rcd13ifvqb50","pricing_plan_id":"cebpf4jnsgd1na2vs0mg"},{"bike_id":"3ab31a18-af13-40ac-ae62-308000937349","system_id":"levelo_inurba_marseille","lat":43.25493,"lon":5.37643,"is_reserved":false,"is_disabled":false,"rental_uris":{"android":"levelo://app?vid=3ab31a18-af13-40ac-ae62-308000937349","ios":"levelo://app?vid=3ab31a18-af13-40ac-ae62-308000937349"},"vehicle_type_id":"4","last_reported":1729257461,"current_range_meters":32400,"station_id":"ce4bhh12rcd13ifvqff0","pricing_plan_id":"cebpf4jnsgd1na2vs0mg"},{"bike_id":"a5b93e1e-1bd8-425a-87ad-d52d6457317a","system_id":"levelo_inurba_marseille","lat":43.26785,"lon":5.39416,"is_reserved":false,"is_disabled":false,"rental_uris":{"android":"levelo://app?vid=a5b93e1e-1bd8-425a-87ad-d52d6457317a","ios":"levelo://app?vid=a5b93e1e-1bd8-425a-87ad-d52d6457317a"},"vehicle_type_id":"4","last_reported":1729257461,"current_range_meters":22400,"station_id":"ce4bhh12rcd13ifvqfg0","pricing_plan_id":"cebpf4jnsgd1na2vs0mg"},{"bike_id":"d7e2a574-d234-4ea8-a4ee-fe4b60b7ca12","system_id":"levelo_inurba_marseille","lat":43.26199,"lon":5.37933,"is_reserved":false,"is_disabled":false,"rental_uris":{"android":"levelo://app?vid=d7e2a574-d234-4ea8-a4ee-fe4b60b7ca12","ios":"levelo://app?vid=d7e2a574-d234-4ea8-a4ee-fe4b60b7ca12"},"vehicle_type_id":"4","last_reported":1729257461,"current_range_meters":38000,"station_id":"ce4bhjp2rcd13ifvqg90","pricing_plan_id":"cebpf4jnsgd1na2vs0mg"},{"bike_id":"c407de0a-6430-4469-980c-96f24d34328b","system_id":"levelo_inurba_marseille","lat":43.2848,"lon":5.38545,"is_reserved":false,"is_disabled":false,"rental_uris":{"android":"levelo://app?vid=c407de0a-6430-4469-980c-96f24d34328b","ios":"levelo://app?vid=c407de0a-6430-4469-980c-96f24d34328b"},"vehicle_type_id":"4","last_reported":1729257461,"current_range_meters":14400,"station_id":"ce4bh8p2rcd13ifvqeb0","pricing_plan_id":"cebpf4jnsgd1na2vs0mg"},{"bike_id":"92ed6ea8-0488-443c-ab33-71b715b608a1","system_id":"levelo_inurba_marseille","lat":43.23964,"lon":5.36628,"is_reserved":false,"is_disabled":false,"rental_uris":{"android":"levelo://app?vid=92ed6ea8-0488-443c-ab33-71b715b608a1","ios":"levelo://app?vid=92ed6ea8-0488-443c-ab33-71b715b608a1"},"vehicle_type_id":"4","last_reported":1729257461,"current_range_meters":6000,"station_id":"ce4bhi12rcd13ifvqfp0","pricing_plan_id":"cebpf4jnsgd1na2vs0mg"},{"bike_id":"fd495570-0604-40fb-9f36-3e2dfe8010cf","system_id":"levelo_inurba_marseille","lat":43.25498,"lon":5.3765,"is_reserved":false,"is_disabled":false,"rental_uris":{"android":"levelo://app?vid=fd495570-0604-40fb-9f36-3e2dfe8010cf","ios":"levelo://app?vid=fd495570-0604-40fb-9f36-3e2dfe8010cf"},"vehicle_type_id":"4","last_reported":1729257461,"current_range_meters":40000,"station_id":"ce4bhh12rcd13ifvqff0","pricing_plan_id":"cebpf4jnsgd1na2vs0mg"},{"bike_id":"f5bad1df-68a4-42a0-8ba4-f8bd0211eb2d","system_id":"levelo_inurba_marseille","lat":43.3372,"lon":5.39178,"is_reserved":false,"is_disabled":false,"rental_uris":{"android":"levelo://app?vid=f5bad1df-68a4-42a0-8ba4-f8bd0211eb2d","ios":"levelo://app?vid=f5bad1df-68a4-42a0-8ba4-f8bd0211eb2d"},"vehicle_type_id":"4","last_reported":1729257461,"current_range_meters":34800,"station_id":"ce4bhr92rcd13ifvqhsg","pricing_plan_id":"cebpf4jnsgd1na2vs0mg"},{"bike_id":"be1fe035-6bd5-4573-b09a-3cf590588e60","system_id":"levelo_inurba_marseille","lat":43.26938,"lon":5.38918,"is_reserved":false,"is_disabled":false,"rental_uris":{"android":"levelo://app?vid=be1fe035-6bd5-4573-b09a-3cf590588e60","ios":"levelo://app?vid=be1fe035-6bd5-4573-b09a-3cf590588e60"},"vehicle_type_id":"4","last_reported":1729257461,"current_range_meters":17600,"station_id":"ce4bhhh2rcd13ifvqfl0","pricing_plan_id":"cebpf4jnsgd1na2vs0mg"},{"bike_id":"d41309ab-1a1f-4395-acaa-455483c3f8e1","system_id":"levelo_inurba_marseille","lat":43.23199,"lon":5.35558,"is_reserved":false,"is_disabled":false,"rental_uris":{"android":"levelo://app?vid=d41309ab-1a1f-4395-acaa-455483c3f8e1","ios":"levelo://app?vid=d41309ab-1a1f-4395-acaa-455483c3f8e1"},"vehicle_type_id":"4","last_reported":1729257461,"current_range_meters":30800,"station_id":"ce4bhu92rcd13ifvqi70","pricing_plan_id":"cebpf4jnsgd1na2vs0mg"},{"bike_id":"4d10104a-dde3-457b-97c2-39bb81969051","system_id":"levelo_inurba_marseille","lat":43.32046,"lon":5.41534,"is_reserved":false,"is_disabled":false,"rental_uris":{"android":"levelo://app?vid=4d10104a-dde3-457b-97c2-39bb81969051","ios":"levelo://app?vid=4d10104a-dde3-457b-97c2-39bb81969051"},"vehicle_type_id":"4","last_reported":1729257461,"current_range_meters":38800,"station_id":"ce4bhq92rcd13ifvqhkg","pricing_plan_id":"cebpf4jnsgd1na2vs0mg"},{"bike_id":"757fc679-bb53-4cc4-bd7a-d9023144609c","system_id":"levelo_inurba_marseille","lat":43.240569,"lon":5.377778,"is_reserved":false,"is_disabled":false,"rental_uris":{"android":"levelo://app?vid=757fc679-bb53-4cc4-bd7a-d9023144609c","ios":"levelo://app?vid=757fc679-bb53-4cc4-bd7a-d9023144609c"},"vehicle_type_id":"4","last_reported":1729257461,"current_range_meters":28400,"station_id":"ce4bhnp2rcd13ifvqgvg","pricing_plan_id":"cebpf4jnsgd1na2vs0mg"},{"bike_id":"b5aff8d7-ba3a-4f86-93cd-a66ab415c01a","system_id":"levelo_inurba_marseille","lat":43.31713,"lon":5.40472,"is_reserved":false,"is_disabled":false,"rental_uris":{"android":"levelo://app?vid=b5aff8d7-ba3a-4f86-93cd-a66ab415c01a","ios":"levelo://app?vid=b5aff8d7-ba3a-4f86-93cd-a66ab415c01a"},"vehicle_type_id":"4","last_reported":1729257461,"current_range_meters":36800,"station_id":"ce4bh012rcd13ifvqd00","pricing_plan_id":"cebpf4jnsgd1na2vs0mg"},{"bike_id":"0bd1fde8-ec48-47a1-9f1f-3e68b8c187f8","system_id":"levelo_inurba_marseille","lat":43.32541,"lon":5.41439,"is_reserved":false,"is_disabled":false,"rental_uris":{"android":"levelo://app?vid=0bd1fde8-ec48-47a1-9f1f-3e68b8c187f8","ios":"levelo://app?vid=0bd1fde8-ec48-47a1-9f1f-3e68b8c187f8"},"vehicle_type_id":"4","last_reported":1729257461,"current_range_meters":21600,"station_id":"ce4bhq12rcd13ifvqhhg","pricing_plan_id":"cebpf4jnsgd1na2vs0mg"},{"bike_id":"1e80b5e8-39e5-4ce2-85ab-9c118e374bfd","system_id":"levelo_inurba_marseille","lat":43.29983,"lon":5.37175,"is_reserved":false,"is_disabled":false,"rental_uris":{"android":"levelo://app?vid=1e80b5e8-39e5-4ce2-85ab-9c118e374bfd","ios":"levelo://app?vid=1e80b5e8-39e5-4ce2-85ab-9c118e374bfd"},"vehicle_type_id":"4","last_reported":1729257461,"current_range_meters":11600,"station_id":"ce4bgr92rcd13ifvqc7g","pricing_plan_id":"cebpf4jnsgd1na2vs0mg"},{"bike_id":"555bd8b4-1098-467f-84d2-16ac54d7f841","system_id":"levelo_inurba_marseille","lat":43.3015,"lon":5.38786,"is_reserved":false,"is_disabled":false,"rental_uris":{"android":"levelo://app?vid=555bd8b4-1098-467f-84d2-16ac54d7f841","ios":"levelo://app?vid=555bd8b4-1098-467f-84d2-16ac54d7f841"},"vehicle_type_id":"4","last_reported":1729257461,"current_range_meters":30400,"station_id":"ce4bghh2rcd13ifvqb60","pricing_plan_id":"cebpf4jnsgd1na2vs0mg"},{"bike_id":"30e534a4-be84-4d68-8a27-03119b573fb6","system_id":"levelo_inurba_marseille","lat":43.31341,"lon":5.36738,"is_reserved":false,"is_disabled":false,"rental_uris":{"android":"levelo://app?vid=30e534a4-be84-4d68-8a27-03119b573fb6","ios":"levelo://app?vid=30e534a4-be84-4d68-8a27-03119b573fb6"},"vehicle_type_id":"4","last_reported":1729257461,"current_range_meters":19200,"station_id":"ce4bgr92rcd13ifvqc6g","pricing_plan_id":"cebpf4jnsgd1na2vs0mg"},{"bike_id":"34b33da9-cbb5-428b-84d8-cf962d47390a","system_id":"levelo_inurba_marseille","lat":43.29896,"lon":5.43668,"is_reserved":false,"is_disabled":false,"rental_uris":{"android":"levelo://app?vid=34b33da9-cbb5-428b-84d8-cf962d47390a","ios":"levelo://app?vid=34b33da9-cbb5-428b-84d8-cf962d47390a"},"vehicle_type_id":"4","last_reported":1729257461,"current_range_meters":13600,"station_id":"ce4bhpp2rcd13ifvqhfg","pricing_plan_id":"cebpf4jnsgd1na2vs0mg"},{"bike_id":"77ce44e9-c1ae-4068-800d-299c8cf59d8f","system_id":"levelo_inurba_marseille","lat":43.23147,"lon":5.43713,"is_reserved":false,"is_disabled":false,"rental_uris":{"android":"levelo://app?vid=77ce44e9-c1ae-4068-800d-299c8cf59d8f","ios":"levelo://app?vid=77ce44e9-c1ae-4068-800d-299c8cf59d8f"},"vehicle_type_id":"4","last_reported":1729257461,"current_range_meters":24000,"station_id":"ce4bhmp2rcd13ifvqgog","pricing_plan_id":"cebpf4jnsgd1na2vs0mg"},{"bike_id":"7b04fa11-36c2-431b-abe5-59c96299bafd","system_id":"levelo_inurba_marseille","lat":43.28572,"lon":5.39496,"is_reserved":false,"is_disabled":false,"rental_uris":{"android":"levelo://app?vid=7b04fa11-36c2-431b-abe5-59c96299bafd","ios":"levelo://app?vid=7b04fa11-36c2-431b-abe5-59c96299bafd"},"vehicle_type_id":"4","last_reported":1729257461,"current_range_meters":30400,"station_id":"ce4bh292rcd13ifvqdg0","pricing_plan_id":"cebpf4jnsgd1na2vs0mg"},{"bike_id":"9af8fbfe-4f52-4631-9930-e569be6e4929","system_id":"levelo_inurba_marseille","lat":43.28271,"lon":5.35055,"is_reserved":false,"is_disabled":false,"rental_uris":{"android":"levelo://app?vid=9af8fbfe-4f52-4631-9930-e569be6e4929","ios":"levelo://app?vid=9af8fbfe-4f52-4631-9930-e569be6e4929"},"vehicle_type_id":"4","last_reported":1729257461,"current_range_meters":19200,"station_id":"ce4bhbp2rcd13ifvqerg","pricing_plan_id":"cebpf4jnsgd1na2vs0mg"},{"bike_id":"ca5dc5b3-80d3-488d-a10e-366187243bb5","system_id":"levelo_inurba_marseille","lat":43.29964,"lon":5.38495,"is_reserved":false,"is_disabled":false,"rental_uris":{"android":"levelo://app?vid=ca5dc5b3-80d3-488d-a10e-366187243bb5","ios":"levelo://app?vid=ca5dc5b3-80d3-488d-a10e-366187243bb5"},"vehicle_type_id":"4","last_reported":1729257461,"current_range_meters":30000,"station_id":"ce4bgj92rcd13ifvqbd0","pricing_plan_id":"cebpf4jnsgd1na2vs0mg"},{"bike_id":"6bd44ad0-0ae6-405f-b2e3-1a45f7daeee0","system_id":"levelo_inurba_marseille","lat":43.30644,"lon":5.40102,"is_reserved":false,"is_disabled":false,"rental_uris":{"android":"levelo://app?vid=6bd44ad0-0ae6-405f-b2e3-1a45f7daeee0","ios":"levelo://app?vid=6bd44ad0-0ae6-405f-b2e3-1a45f7daeee0"},"vehicle_type_id":"4","last_reported":1729257461,"current_range_meters":24800,"station_id":"ce4bh112rcd13ifvqda0","pricing_plan_id":"cebpf4jnsgd1na2vs0mg"},{"bike_id":"58265c5e-9a54-4e99-b1e7-73fa00fcfeba","system_id":"levelo_inurba_marseille","lat":43.27324,"lon":5.3907,"is_reserved":false,"is_disabled":false,"rental_uris":{"android":"levelo://app?vid=58265c5e-9a54-4e99-b1e7-73fa00fcfeba","ios":"levelo://app?vid=58265c5e-9a54-4e99-b1e7-73fa00fcfeba"},"vehicle_type_id":"4","last_reported":1729257461,"current_range_meters":36800,"station_id":"ce4bhgp2rcd13ifvqfe0","pricing_plan_id":"cebpf4jnsgd1na2vs0mg"},{"bike_id":"b0a3ba2e-0340-4197-9f07-f1dfc745f1c5","system_id":"levelo_inurba_marseille","lat":43.23964,"lon":5.36629,"is_reserved":false,"is_disabled":false,"rental_uris":{"android":"levelo://app?vid=b0a3ba2e-0340-4197-9f07-f1dfc745f1c5","ios":"levelo://app?vid=b0a3ba2e-0340-4197-9f07-f1dfc745f1c5"},"vehicle_type_id":"4","last_reported":1729257461,"current_range_meters":22800,"station_id":"ce4bhi12rcd13ifvqfp0","pricing_plan_id":"cebpf4jnsgd1na2vs0mg"},{"bike_id":"20a7cc4c-8cf9-4286-99b0-89129c6c6b3a","system_id":"levelo_inurba_marseille","lat":43.32364,"lon":5.38885,"is_reserved":false,"is_disabled":false,"rental_uris":{"android":"levelo://app?vid=20a7cc4c-8cf9-4286-99b0-89129c6c6b3a","ios":"levelo://app?vid=20a7cc4c-8cf9-4286-99b0-89129c6c6b3a"},"vehicle_type_id":"4","last_reported":1729257461,"current_range_meters":30000,"station_id":"ce4bhqp2rcd13ifvqhog","pricing_plan_id":"cebpf4jnsgd1na2vs0mg"},{"bike_id":"77d7377d-ef6f-44a6-91fa-808bf79a8c0e","system_id":"levelo_inurba_marseille","lat":43.30214,"lon":5.39465,"is_reserved":false,"is_disabled":false,"rental_uris":{"android":"levelo://app?vid=77d7377d-ef6f-44a6-91fa-808bf79a8c0e","ios":"levelo://app?vid=77d7377d-ef6f-44a6-91fa-808bf79a8c0e"},"vehicle_type_id":"4","last_reported":1729257461,"current_range_meters":28400,"station_id":"ce4bh0p2rcd13ifvqd70","pricing_plan_id":"cebpf4jnsgd1na2vs0mg"},{"bike_id":"a08e0b6c-2b85-4d6b-b0f5-a948fa4286de","system_id":"levelo_inurba_marseille","lat":43.2315,"lon":5.43716,"is_reserved":false,"is_disabled":false,"rental_uris":{"android":"levelo://app?vid=a08e0b6c-2b85-4d6b-b0f5-a948fa4286de","ios":"levelo://app?vid=a08e0b6c-2b85-4d6b-b0f5-a948fa4286de"},"vehicle_type_id":"4","last_reported":1729257461,"current_range_meters":6800,"station_id":"ce4bhmp2rcd13ifvqgog","pricing_plan_id":"cebpf4jnsgd1na2vs0mg"},{"bike_id":"2da2516f-4b57-4227-9a62-63e923e24041","system_id":"levelo_inurba_marseille","lat":43.25001,"lon":5.38923,"is_reserved":false,"is_disabled":false,"rental_uris":{"android":"levelo://app?vid=2da2516f-4b57-4227-9a62-63e923e24041","ios":"levelo://app?vid=2da2516f-4b57-4227-9a62-63e923e24041"},"vehicle_type_id":"4","last_reported":1729257461,"current_range_meters":22800,"station_id":"ce4bhgp2rcd13ifvqfd0","pricing_plan_id":"cebpf4jnsgd1na2vs0mg"},{"bike_id":"f93454e1-a669-4c63-a4ca-b572042c7971","system_id":"levelo_inurba_marseille","lat":43.23194,"lon":5.35554,"is_reserved":false,"is_disabled":false,"rental_uris":{"android":"levelo://app?vid=f93454e1-a669-4c63-a4ca-b572042c7971","ios":"levelo://app?vid=f93454e1-a669-4c63-a4ca-b572042c7971"},"vehicle_type_id":"4","last_reported":1729257461,"current_range_meters":8400,"station_id":"ce4bhu92rcd13ifvqi70","pricing_plan_id":"cebpf4jnsgd1na2vs0mg"},{"bike_id":"9feebf6a-cf06-4283-9475-cface9a88761","system_id":"levelo_inurba_marseille","lat":43.30801,"lon":5.43519,"is_reserved":false,"is_disabled":false,"rental_uris":{"android":"levelo://app?vid=9feebf6a-cf06-4283-9475-cface9a88761","ios":"levelo://app?vid=9feebf6a-cf06-4283-9475-cface9a88761"},"vehicle_type_id":"4","last_reported":1729257461,"current_range_meters":33200,"station_id":"ce4bhph2rcd13ifvqheg","pricing_plan_id":"cebpf4jnsgd1na2vs0mg"},{"bike_id":"b1e38fa3-bc04-46dc-9334-d58520cc8bec","system_id":"levelo_inurba_marseille","lat":43.27677,"lon":5.42471,"is_reserved":false,"is_disabled":false,"rental_uris":{"android":"levelo://app?vid=b1e38fa3-bc04-46dc-9334-d58520cc8bec","ios":"levelo://app?vid=b1e38fa3-bc04-46dc-9334-d58520cc8bec"},"vehicle_type_id":"4","last_reported":1729257461,"current_range_meters":27600,"station_id":"","pricing_plan_id":"cebpf4jnsgd1na2vs0mg"},{"bike_id":"22b37876-70ac-4ba0-9001-79de88a5c4f9","system_id":"levelo_inurba_marseille","lat":43.3377,"lon":5.37434,"is_reserved":false,"is_disabled":false,"rental_uris":{"android":"levelo://app?vid=22b37876-70ac-4ba0-9001-79de88a5c4f9","ios":"levelo://app?vid=22b37876-70ac-4ba0-9001-79de88a5c4f9"},"vehicle_type_id":"4","last_reported":1729257461,"current_range_meters":34000,"station_id":"","pricing_plan_id":"cebpf4jnsgd1na2vs0mg"},{"bike_id":"83c11b4e-f32a-4c9e-8d14-598508c6fac3","system_id":"levelo_inurba_marseille","lat":43.262,"lon":5.37931,"is_reserved":false,"is_disabled":false,"rental_uris":{"android":"levelo://app?vid=83c11b4e-f32a-4c9e-8d14-598508c6fac3","ios":"levelo://app?vid=83c11b4e-f32a-4c9e-8d14-598508c6fac3"},"vehicle_type_id":"4","last_reported":1729257461,"current_range_meters":36400,"station_id":"ce4bhjp2rcd13ifvqg90","pricing_plan_id":"cebpf4jnsgd1na2vs0mg"},{"bike_id":"39068896-e977-406b-b93b-fbf469426a3a","system_id":"levelo_inurba_marseille","lat":43.30141,"lon":5.37418,"is_reserved":false,"is_disabled":false,"rental_uris":{"android":"levelo://app?vid=39068896-e977-406b-b93b-fbf469426a3a","ios":"levelo://app?vid=39068896-e977-406b-b93b-fbf469426a3a"},"vehicle_type_id":"4","last_reported":1729257461,"current_range_meters":38800,"station_id":"ce4bgs92rcd13ifvqcc0","pricing_plan_id":"cebpf4jnsgd1na2vs0mg"},{"bike_id":"8bddebcf-9bd8-4960-b212-f469bf9df7d9","system_id":"levelo_inurba_marseille","lat":43.2827,"lon":5.35054,"is_reserved":false,"is_disabled":false,"rental_uris":{"android":"levelo://app?vid=8bddebcf-9bd8-4960-b212-f469bf9df7d9","ios":"levelo://app?vid=8bddebcf-9bd8-4960-b212-f469bf9df7d9"},"vehicle_type_id":"4","last_reported":1729257461,"current_range_meters":17200,"station_id":"ce4bhbp2rcd13ifvqerg","pricing_plan_id":"cebpf4jnsgd1na2vs0mg"},{"bike_id":"e64a1e24-8bad-4813-a740-3e7a96d573a2","system_id":"levelo_inurba_marseille","lat":43.32045,"lon":5.41555,"is_reserved":false,"is_disabled":false,"rental_uris":{"android":"levelo://app?vid=e64a1e24-8bad-4813-a740-3e7a96d573a2","ios":"levelo://app?vid=e64a1e24-8bad-4813-a740-3e7a96d573a2"},"vehicle_type_id":"4","last_reported":1729257461,"current_range_meters":39200,"station_id":"ce4bhq92rcd13ifvqhkg","pricing_plan_id":"cebpf4jnsgd1na2vs0mg"},{"bike_id":"f69af24b-a2f7-42cd-ba75-d2efae660907","system_id":"levelo_inurba_marseille","lat":43.31084,"lon":5.4243,"is_reserved":false,"is_disabled":false,"rental_uris":{"android":"levelo://app?vid=f69af24b-a2f7-42cd-ba75-d2efae660907","ios":"levelo://app?vid=f69af24b-a2f7-42cd-ba75-d2efae660907"},"vehicle_type_id":"4","last_reported":1729257461,"current_range_meters":33600,"station_id":"ce4bhp92rcd13ifvqhag","pricing_plan_id":"cebpf4jnsgd1na2vs0mg"},