{"last_updated":1703624766,"ttl":30,"version":"2.2","data":{"bikes":[{"bike_id":"4d184978-cfa5-4f87-b1d9-52b08a676b96","system_id":"levelo_inurba_marseille","lat":43.312239,"lon":5.368562,"is_reserved":false,"is_disabled":false,"rental_uris":{"android":"levelo://app?vid=4d184978-cfa5-4f87-b1d9-52b08a676b96","ios":"levelo://app?vid=4d184978-cfa5-4f87-b1d9-52b08a676b96"},"vehicle_type_id":"4","last_reported":1703624766,"current_range_meters":15200,"station_id":"ce4bgl92rcd13ifvqbq0","pricing_plan_id":"free"},{"bike_id":"918d1ee6-ccef-43f1-a78b-6eb4343b5867","system_id":"levelo_inurba_marseille","lat":43.312239,"lon":5.368562,"is_reserved":false,"is_disabled":false,"rental_uris":{"android":"levelo://app?vid=918d1ee6-ccef-43f1-a78b-6eb4343b5867","ios":"levelo://app?vid=918d1ee6-ccef-43f1-a78b-6eb4343b5867"},"vehicle_type_id":"4","last_reported":1703624766,"current_range_meters":7200,"station_id":"ce4bgl92rcd13ifvqbq0","pricing_plan_id":"free"},{"bike_id":"359a5d7c-9e6a-470e-bb1c-233de3183714","system_id":"levelo_inurba_marseille","lat":43.312239,"lon":5.368562,"is_reserved":false,"is_disabled":false,"rental_uris":{"android":"levelo://app?vid=359a5d7c-9e6a-470e-bb1c-233de3183714","ios":"levelo://app?vid=359a5d7c-9e6a-470e-bb1c-233de3183714"},"vehicle_type_id":"4","last_reported":1703624766,"current_range_meters":26000,"station_id":"ce4bgl92rcd13ifvqbq0","pricing_plan_id":"free"},{"bike_id":"e075fba3-6aba-4538-a7e2-5aaeb94b9f46","system_id":"levelo_inurba_marseille","lat":43.312239,"lon":5.368562,"is_reserved":false,"is_disabled":false,"rental_uris":{"android":"levelo://app?vid=e075fba3-6aba-4538-a7e2-5aaeb94b9f46","ios":"levelo://app?vid=e075fba3-6aba-4538-a7e2-5aaeb94b9f46"},"vehicle_type_id":"4","last_reported":1703624766,"current_range_meters":20400,"station_id":"ce4bgl92rcd13ifvqbq0","pricing_plan_id":"free"},{"bike_id":"6e8b4e0b-d05f-4880-b05e-452bd7cfbc74","system_id":"levelo_inurba_marseille","lat":43.314811,"lon":5.373103,"is_reserved":false,"is_disabled":false,"rental_uris":{"android":"levelo://app?vid=6e8b4e0b-d05f-4880-b05e-452bd7cfbc74","ios":"levelo://app?vid=6e8b4e0b-d05f-4880-b05e-452bd7cfbc74"},"vehicle_type_id":"4","last_reported":1703624766,"current_range_meters":29600,"station_id":"ce4bgt12rcd13ifvqcd0","pricing_plan_id":"free"},{"bike_id":"97502ab0-b074-477a-8e64-8e12ca35fa4b","system_id":"levelo_inurba_marseille","lat":43.314811,"lon":5.373104,"is_reserved":false,"is_disabled":false,"rental_uris":{"android":"levelo://app?vid=97502ab0-b074-477a-8e64-8e12ca35fa4b","ios":"levelo://app?vid=97502ab0-b074-477a-8e64-8e12ca35fa4b"},"vehicle_type_id":"4","last_reported":1703624766,"current_range_meters":15600,"station_id":"ce4bgt12rcd13ifvqcd0","pricing_plan_id":"free"},{"bike_id":"98fc8f36-009c-49c0-bde9-eaacf0237add","system_id":"levelo_inurba_marseille","lat":43.314929,"lon":5.373936,"is_reserved":false,"is_disabled":false,"rental_uris":{"android":"levelo://app?vid=98fc8f36-009c-49c0-bde9-eaacf0237add","ios":"levelo://app?vid=98fc8f36-009c-49c0-bde9-eaacf0237add"},"vehicle_type_id":"4","last_reported":1703624766,"current_range_meters":24400,"station_id":"","pricing_plan_id":"free"},{"bike_id":"437be774-9347-4f56-865e-861017296255","system_id":"levelo_inurba_marseille","lat":43.318964,"lon":5.36877,"is_reserved":false,"is_disabled":false,"rental_uris":{"android":"levelo://app?vid=437be774-9347-4f56-865e-861017296255","ios":"levelo://app?vid=437be774-9347-4f56-865e-861017296255"},"vehicle_type_id":"4","last_reported":1703624766,"current_range_meters":10800,"station_id":"","pricing_plan_id":"free"},{"bike_id":"c4cb81b7-6d0d-45d5-8da7-44198d207549","system_id":"levelo_inurba_marseille","lat":43.305368,"lon":5.367343,"is_reserved":false,"is_disabled":false,"rental_uris":{"android":"levelo://app?vid=c4cb81b7-6d0d-45d5-8da7-44198d207549","ios":"levelo://app?vid=c4cb81b7-6d0d-45d5-8da7-44198d207549"},"vehicle_type_id":"4","last_reported":1703624766,"current_range_meters":13200,"station_id":"ce4bgrp2rcd13ifvqc9g","pricing_plan_id":"free"},{"bike_id":"803374b6-a3bf-4797-b2c8-07d03e199f35","system_id":"levelo_inurba_marseille","lat":43.305989,"lon":5.37225,"is_reserved":false,"is_disabled":false,"rental_uris":{"android":"levelo://app?vid=803374b6-a3bf-4797-b2c8-07d03e199f35","ios":"levelo://app?vid=803374b6-a3bf-4797-b2c8-07d03e199f35"},"vehicle_type_id":"4","last_reported":1703624766,"current_range_meters":27200,"station_id":"ce4bgqh2rcd13ifvqc4g","pricing_plan_id":"free"},{"bike_id":"60136220-8031-455a-8bb5-e4b5de34d648","system_id":"levelo_inurba_marseille","lat":43.305989,"lon":5.37225,"is_reserved":false,"is_disabled":false,"rental_uris":{"android":"levelo://app?vid=60136220-8031-455a-8bb5-e4b5de34d648","ios":"levelo://app?vid=60136220-8031-455a-8bb5-e4b5de34d648"},"vehicle_type_id":"4","last_reported":1703624766,"current_range_meters":30000,"station_id":"ce4bgqh2rcd13ifvqc4g","pricing_plan_id":"free"},{"bike_id":"de5a5de1-5fe5-42e3-9c3f-34e8b3df6b65","system_id":"levelo_inurba_marseille","lat":43.311177,"lon":5.377663,"is_reserved":false,"is_disabled":false,"rental_uris":{"android":"levelo://app?vid=de5a5de1-5fe5-42e3-9c3f-34e8b3df6b65","ios":"levelo://app?vid=de5a5de1-5fe5-42e3-9c3f-34e8b3df6b65"},"vehicle_type_id":"4","last_reported":1703624766,"current_range_meters":17600,"station_id":"ce4bgt92rcd13ifvqcg0","pricing_plan_id":"free"},{"bike_id":"52785944-f7ec-4d44-853a-c685a49aa2ff","system_id":"levelo_inurba_marseille","lat":43.311125,"lon":5.377624,"is_reserved":false,"is_disabled":false,"rental_uris":{"android":"levelo://app?vid=52785944-f7ec-4d44-853a-c685a49aa2ff","ios":"levelo://app?vid=52785944-f7ec-4d44-853a-c685a49aa2ff"},"vehicle_type_id":"4","last_reported":1703624766,"current_range_meters":30000,"station_id":"ce4bgt92rcd13ifvqcg0","pricing_plan_id":"free"},{"bike_id":"4d253966-2b1d-4f80-a6e0-281d872c687a","system_id":"levelo_inurba_marseille","lat":43.316923,"lon":5.377163,"is_reserved":false,"is_disabled":false,"rental_uris":{"android":"levelo://app?vid=4d253966-2b1d-4f80-a6e0-281d872c687a","ios":"levelo://app?vid=4d253966-2b1d-4f80-a6e0-281d872c687a"},"vehicle_type_id":"4","last_reported":1703624766,"current_range_meters":20400,"station_id":"ce4bgth2rcd13ifvqch0","pricing_plan_id":"free"},{"bike_id":"e8f88ded-13b6-489c-a6f9-afa444ec13d3","system_id":"levelo_inurba_marseille","lat":43.307945,"lon":5.376487,"is_reserved":false,"is_disabled":false,"rental_uris":{"android":"levelo://app?vid=e8f88ded-13b6-489c-a6f9-afa444ec13d3","ios":"levelo://app?vid=e8f88ded-13b6-489c-a6f9-afa444ec13d3"},"vehicle_type_id":"4","last_reported":1703624766,"current_range_meters":19200,"station_id":"ce4bgv92rcd13ifvqcq0","pricing_plan_id":"free"},{"bike_id":"f5485fb3-6908-4a19-9802-f3271733bbef","system_id":"levelo_inurba_marseille","lat":43.307945,"lon":5.376487,"is_reserved":false,"is_disabled":false,"rental_uris":{"android":"levelo://app?vid=f5485fb3-6908-4a19-9802-f3271733bbef","ios":"levelo://app?vid=f5485fb3-6908-4a19-9802-f3271733bbef"},"vehicle_type_id":"4","last_reported":1703624766,"current_range_meters":25200,"station_id":"ce4bgv92rcd13ifvqcq0","pricing_plan_id":"free"},{"bike_id":"2e6e535e-52f0-4fe4-8204-6f3fbd323108","system_id":"levelo_inurba_marseille","lat":43.317075,"lon":5.377367,"is_reserved":false,"is_disabled":false,"rental_uris":{"android":"levelo://app?vid=2e6e535e-52f0-4fe4-8204-6f3fbd323108","ios":"levelo://app?vid=2e6e535e-52f0-4fe4-8204-6f3fbd323108"},"vehicle_type_id":"4","last_reported":1703624766,"current_range_meters":30000,"station_id":"ce4bgth2rcd13ifvqch0","pricing_plan_id":"free"},{"bike_id":"45aa06a4-6207-41c0-90de-ff3c39911319","system_id":"levelo_inurba_marseille","lat":43.31528,"lon":5.38029,"is_reserved":false,"is_disabled":false,"rental_uris":{"android":"levelo://app?vid=45aa06a4-6207-41c0-90de-ff3c39911319","ios":"levelo://app?vid=45aa06a4-6207-41c0-90de-ff3c39911319"},"vehicle_type_id":"4","last_reported":1703624766,"current_range_meters":28000,"station_id":"ce4bhsp2rcd13ifvqi50","pricing_plan_id":"free"},{"bike_id":"57561aad-df5e-4abf-ac10-b65e331240f3","system_id":"levelo_inurba_marseille","lat":43.301939,"lon":5.366286,"is_reserved":false,"is_disabled":false,"rental_uris":{"android":"levelo://app?vid=57561aad-df5e-4abf-ac10-b65e331240f3","ios":"levelo://app?vid=57561aad-df5e-4abf-ac10-b65e331240f3"},"vehicle_type_id":"4","last_reported":1703624766,"current_range_meters":28000,"station_id":"ce4bgrh2rcd13ifvqc8g","pricing_plan_id":"free"},{"bike_id":"1ed2f288-9b66-4d9e-9b05-7b5b6d8f3e20","system_id":"levelo_inurba_marseille","lat":43.308012,"lon":5.381511,"is_reserved":false,"is_disabled":false,"rental_uris":{"android":"levelo://app?vid=1ed2f288-9b66-4d9e-9b05-7b5b6d8f3e20","ios":"levelo://app?vid=1ed2f288-9b66-4d9e-9b05-7b5b6d8f3e20"},"vehicle_type_id":"4","last_reported":1703624766,"current_range_meters":16000,"station_id":"ce4bgt12rcd13ifvqce0","pricing_plan_id":"free"},{"bike_id":"3bb90613-2b0e-45be-b77d-90bebdb949f6","system_id":"levelo_inurba_marseille","lat":43.308012,"lon":5.381511,"is_reserved":false,"is_disabled":false,"rental_uris":{"android":"levelo://app?vid=3bb90613-2b0e-45be-b77d-90bebdb949f6","ios":"levelo://app?vid=3bb90613-2b0e-45be-b77d-90bebdb949f6"},"vehicle_type_id":"4","last_reported":1703624766,"current_range_meters":30400,"station_id":"ce4bgt12rcd13ifvqce0","pricing_plan_id":"free"},{"bike_id":"b188ea05-75d2-48e4-9a1d-c00cacf47457","system_id":"levelo_inurba_marseille","lat":43.32356,"lon":5.374,"is_reserved":false,"is_disabled":false,"rental_uris":{"android":"levelo://app?vid=b188ea05-75d2-48e4-9a1d-c00cacf47457","ios":"levelo://app?vid=b188ea05-75d2-48e4-9a1d-c00cacf47457"},"vehicle_type_id":"4","last_reported":1703624766,"current_range_meters":26000,"station_id":"","pricing_plan_id":"free"},{"bike_id":"f5c0e4d6-16bd-47eb-ba92-aa201d0984ce","system_id":"levelo_inurba_marseille","lat":43.324771,"lon":5.36557,"is_reserved":false,"is_disabled":false,"rental_uris":{"android":"levelo://app?vid=f5c0e4d6-16bd-47eb-ba92-aa201d0984ce","ios":"levelo://app?vid=f5c0e4d6-16bd-47eb-ba92-aa201d0984ce"},"vehicle_type_id":"4","last_reported":1703624766,"current_range_meters":28000,"station_id":"ce4bhs12rcd13ifvqhvg","pricing_plan_id":"free"},{"bike_id":"e101af2c-c501-4e28-8d72-12ad3a8d21a2","system_id":"levelo_inurba_marseille","lat":43.324771,"lon":5.36557,"is_reserved":false,"is_disabled":false,"rental_uris":{"android":"levelo://app?vid=e101af2c-c501-4e28-8d72-12ad3a8d21a2","ios":"levelo://app?vid=e101af2c-c501-4e28-8d72-12ad3a8d21a2"},"vehicle_type_id":"4","last_reported":1703624766,"current_range_meters":22000,"station_id":"ce4bhs12rcd13ifvqhvg","pricing_plan_id":"free"},{"bike_id":"a4c9db62-e396-4539-993a-7a0850c8f675","system_id":"levelo_inurba_marseille","lat":43.3029,"lon":5.37703,"is_reserved":false,"is_disabled":false,"rental_uris":{"android":"levelo://app?vid=a4c9db62-e396-4539-993a-7a0850c8f675","ios":"levelo://app?vid=a4c9db62-e396-4539-993a-7a0850c8f675"},"vehicle_type_id":"4","last_reported":1703624766,"current_range_meters":29200,"station_id":"ce4bguh2rcd13ifvqcj0","pricing_plan_id":"free"},{"bike_id":"3a70ba87-d511-4aaf-b0ab-bf41a847d3c0","system_id":"levelo_inurba_marseille","lat":43.30282,"lon":5.37702,"is_reserved":false,"is_disabled":false,"rental_uris":{"android":"levelo://app?vid=3a70ba87-d511-4aaf-b0ab-bf41a847d3c0","ios":"levelo://app?vid=3a70ba87-d511-4aaf-b0ab-bf41a847d3c0"},"vehicle_type_id":"4","last_reported":1703624766,"current_range_meters":24400,"station_id":"ce4bguh2rcd13ifvqcj0","pricing_plan_id":"free"},{"bike_id":"95525115-9f09-4501-8b32-ef3e7cd3b83f","system_id":"levelo_inurba_marseille","lat":43.302784,"lon":5.377158,"is_reserved":false,"is_disabled":false,"rental_uris":{"android":"levelo://app?vid=95525115-9f09-4501-8b32-ef3e7cd3b83f","ios":"levelo://app?vid=95525115-9f09-4501-8b32-ef3e7cd3b83f"},"vehicle_type_id":"4","last_reported":1703624766,"current_range_meters":8800,"station_id":"ce4bguh2rcd13ifvqcj0","pricing_plan_id":"free"},{"bike_id":"422f048e-8e72-4fee-b565-b5e05701ac60","system_id":"levelo_inurba_marseille","lat":43.301453,"lon":5.37416,"is_reserved":false,"is_disabled":false,"rental_uris":{"android":"levelo://app?vid=422f048e-8e72-4fee-b565-b5e05701ac60","ios":"levelo://app?vid=422f048e-8e72-4fee-b565-b5e05701ac60"},"vehicle_type_id":"4","last_reported":1703624766,"current_range_meters":12000,"station_id":"","pricing_plan_id":"free"},{"bike_id":"06a3d9f6-400b-4eee-93b3-92d7c0d966d0","system_id":"levelo_inurba_marseille","lat":43.30143,"lon":5.37413,"is_reserved":false,"is_disabled":false,"rental_uris":{"android":"levelo://app?vid=06a3d9f6-400b-4eee-93b3-92d7c0d966d0","ios":"levelo://app?vid=06a3d9f6-400b-4eee-93b3-92d7c0d966d0"},"vehicle_type_id":"4","last_reported":1703624766,"current_range_meters":16400,"station_id":"ce4bgs92rcd13ifvqcc0","pricing_plan_id":"free"},{"bike_id":"c22649f3-1265-440c-a8ba-dd05dfaee232","system_id":"levelo_inurba_marseille","lat":43.301429,"lon":5.37413,"is_reserved":false,"is_disabled":false,"rental_uris":{"android":"levelo://app?vid=c22649f3-1265-440c-a8ba-dd05dfaee232","ios":"levelo://app?vid=c22649f3-1265-440c-a8ba-dd05dfaee232"},"vehicle_type_id":"4","last_reported":1703624766,"current_range_meters":4800,"station_id":"ce4bgs92rcd13ifvqcc0","pricing_plan_id":"free"},{"bike_id":"00918877-1345-4713-9b5a-28e9738e66ab","system_id":"levelo_inurba_marseille","lat":43.319935,"lon":5.381699,"is_reserved":false,"is_disabled":false,"rental_uris":{"android":"levelo://app?vid=00918877-1345-4713-9b5a-28e9738e66ab","ios":"levelo://app?vid=00918877-1345-4713-9b5a-28e9738e66ab"},"vehicle_type_id":"4","last_reported":1703624766,"current_range_meters":2800,"station_id":"ce4bhr12rcd13ifvqhpg","pricing_plan_id":"free"},{"bike_id":"8aba050a-8811-4086-b8e8-4572cc6fcac0","system_id":"levelo_inurba_marseille","lat":43.319935,"lon":5.381699,"is_reserved":false,"is_disabled":false,"rental_uris":{"android":"levelo://app?vid=8aba050a-8811-4086-b8e8-4572cc6fcac0","ios":"levelo://app?vid=8aba050a-8811-4086-b8e8-4572cc6fcac0"},"vehicle_type_id":"4","last_reported":1703624766,"current_range_meters":21200,"station_id":"ce4bhr12rcd13ifvqhpg","pricing_plan_id":"free"},{"bike_id":"d50a7df1-7e74-446f-b9f4-2754cff05bd9","system_id":"levelo_inurba_marseille","lat":43.319935,"lon":5.381699,"is_reserved":false,"is_disabled":false,"rental_uris":{"android":"levelo://app?vid=d50a7df1-7e74-446f-b9f4-2754cff05bd9","ios":"levelo://app?vid=d50a7df1-7e74-446f-b9f4-2754cff05bd9"},"vehicle_type_id":"4","last_reported":1703624766,"current_range_meters":8800,"station_id":"ce4bhr12rcd13ifvqhpg","pricing_plan_id":"free"},{"bike_id":"a971f3b5-927e-4921-a296-cc0107e3d66d","system_id":"levelo_inurba_marseille","lat":43.313571,"lon":5.384829,"is_reserved":false,"is_disabled":false,"rental_uris":{"android":"levelo://app?vid=a971f3b5-927e-4921-a296-cc0107e3d66d","ios":"levelo://app?vid=a971f3b5-927e-4921-a296-cc0107e3d66d"},"vehicle_type_id":"4","last_reported":1703624766,"current_range_meters":31200,"station_id":"ce4bgt92rcd13ifvqcf0","pricing_plan_id":"free"},{"bike_id":"6cbe41e0-a59b-4cff-9900-47d7c2362d3e","system_id":"levelo_inurba_marseille","lat":43.313571,"lon":5.384829,"is_reserved":false,"is_disabled":false,"rental_uris":{"android":"levelo://app?vid=6cbe41e0-a59b-4cff-9900-47d7c2362d3e","ios":"levelo://app?vid=6cbe41e0-a59b-4cff-9900-47d7c2362d3e"},"vehicle_type_id":"4","last_reported":1703624766,"current_range_meters":25600,"station_id":"ce4bgt92rcd13ifvqcf0","pricing_plan_id":"free"},{"bike_id":"5c521df4-606b-455d-8167-e197a1f393bb","system_id":"levelo_inurba_marseille","lat":43.300583,"lon":5.37454,"is_reserved":false,"is_disabled":false,"rental_uris":{"android":"levelo://app?vid=5c521df4-606b-455d-8167-e197a1f393bb","ios":"levelo://app?vid=5c521df4-606b-455d-8167-e197a1f393bb"},"vehicle_type_id":"4","last_reported":1703624766,"current_range_meters":6400,"station_id":"","pricing_plan_id":"free"},{"bike_id":"6e33b6f2-797c-4e8c-8af1-3add54dba90a","system_id":"levelo_inurba_marseille","lat":43.298444,"lon":5.362951,"is_reserved":false,"is_disabled":false,"rental_uris":{"android":"levelo://app?vid=6e33b6f2-797c-4e8c-8af1-3add54dba90a","ios":"levelo://app?vid=6e33b6f2-797c-4e8c-8af1-3add54dba90a"},"vehicle_type_id":"4","last_reported":1703624766,"current_range_meters":18800,"station_id":"ce4bgpp2rcd13ifvqc3g","pricing_plan_id":"free"},{"bike_id":"3acfe0ca-90c0-4b18-82ab-c6179280234f","system_id":"levelo_inurba_marseille","lat":43.305364,"lon":5.384119,"is_reserved":false,"is_disabled":false,"rental_uris":{"android":"levelo://app?vid=3acfe0ca-90c0-4b18-82ab-c6179280234f","ios":"levelo://app?vid=3acfe0ca-90c0-4b18-82ab-c6179280234f"},"vehicle_type_id":"4","last_reported":1703624766,"current_range_meters":15600,"station_id":"ce4bgg92rcd13ifvqb30","pricing_plan_id":"free"},{"bike_id":"ec4dca59-cf4e-404e-8d6a-68d75787d7a6","system_id":"levelo_inurba_marseille","lat":43.311722,"lon":5.387247,"is_reserved":false,"is_disabled":false,"rental_uris":{"android":"levelo://app?vid=ec4dca59-cf4e-404e-8d6a-68d75787d7a6","ios":"levelo://app?vid=ec4dca59-cf4e-404e-8d6a-68d75787d7a6"},"vehicle_type_id":"4","last_reported":1703624766,"current_range_meters":2400,"station_id":"ce4bgv12rcd13ifvqcp0","pricing_plan_id":"free"},{"bike_id":"b49e7f7f-0e70-4f51-8fce-4b42ee16ac2d","system_id":"levelo_inurba_marseille","lat":43.299243,"lon":5.374807,"is_reserved":false,"is_disabled":false,"rental_uris":{"android":"levelo://app?vid=b49e7f7f-0e70-4f51-8fce-4b42ee16ac2d","ios":"levelo://app?vid=b49e7f7f-0e70-4f51-8fce-4b42ee16ac2d"},"vehicle_type_id":"4","last_reported":1703624766,"current_range_meters":30000,"station_id":"ce4bgjh2rcd13ifvqbg0","pricing_plan_id":"free"},{"bike_id":"c067068f-18e2-4ef4-a110-689e734887ae","system_id":"levelo_inurba_marseille","lat":43.311722,"lon":5.387247,"is_reserved":false,"is_disabled":false,"rental_uris":{"android":"levelo://app?vid=c067068f-18e2-4ef4-a110-689e734887ae","ios":"levelo://app?vid=c067068f-18e2-4ef4-a110-689e734887ae"},"vehicle_type_id":"4","last_reported":1703624766,"current_range_meters":10400,"station_id":"ce4bgv12rcd13ifvqcp0","pricing_plan_id":"free"},{"bike_id":"4a9cf41c-fbde-449c-87bb-4cb7c143a9bb","system_id":"levelo_inurba_marseille","lat":43.31162,"lon":5.38715,"is_reserved":false,"is_disabled":false,"rental_uris":{"android":"levelo://app?vid=4a9cf41c-fbde-449c-87bb-4cb7c143a9bb","ios":"levelo://app?vid=4a9cf41c-fbde-449c-87bb-4cb7c143a9bb"},"vehicle_type_id":"4","last_reported":1703624766,"current_range_meters":14800,"station_id":"ce4bgv12rcd13ifvqcp0","pricing_plan_id":"free"},{"bike_id":"7019a909-056c-4aa8-890a-f10a41f5bc20","system_id":"levelo_inurba_marseille","lat":43.311673,"lon":5.387167,"is_reserved":false,"is_disabled":false,"rental_uris":{"android":"levelo://app?vid=7019a909-056c-4aa8-890a-f10a41f5bc20","ios":"levelo://app?vid=7019a909-056c-4aa8-890a-f10a41f5bc20"},"vehicle_type_id":"4","last_reported":1703624766,"current_range_meters":12000,"station_id":"ce4bgv12rcd13ifvqcp0","pricing_plan_id":"free"},{"bike_id":"654b0907-4525-436c-b567-f723da50a393","system_id":"levelo_inurba_marseille","lat":43.311692,"lon":5.38719,"is_reserved":false,"is_disabled":false,"rental_uris":{"android":"levelo://app?vid=654b0907-4525-436c-b567-f723da50a393","ios":"levelo://app?vid=654b0907-4525-436c-b567-f723da50a393"},"vehicle_type_id":"4","last_reported":1703624766,"current_range_meters":21200,"station_id":"ce4bgv12rcd13ifvqcp0","pricing_plan_id":"free"},{"bike_id":"352408a6-4fbb-447e-9619-ecd20c963fce","system_id":"levelo_inurba_marseille","lat":43.31165,"lon":5.38723,"is_reserved":false,"is_disabled":false,"rental_uris":{"android":"levelo://app?vid=352408a6-4fbb-447e-9619-ecd20c963fce","ios":"levelo://app?vid=352408a6-4fbb-447e-9619-ecd20c963fce"},"vehicle_type_id":"4","last_reported":1703624766,"current_range_meters":24000,"station_id":"ce4bgv12rcd13ifvqcp0","pricing_plan_id":"free"},{"bike_id":"247b6e4f-62f7-4cfb-9c57-8f0d14286b5f","system_id":"levelo_inurba_marseille","lat":43.297794,"lon":5.370888,"is_reserved":false,"is_disabled":false,"rental_uris":{"android":"levelo://app?vid=247b6e4f-62f7-4cfb-9c57-8f0d14286b5f","ios":"levelo://app?vid=247b6e4f-62f7-4cfb-9c57-8f0d14286b5f"},"vehicle_type_id":"4","last_reported":1703624766,"current_range_meters":20000,"station_id":"ce4bgop2rcd13ifvqc1g","pricing_plan_id":"free"},{"bike_id":"683afb18-3f5c-44e8-ae0e-d43bcb11b0e8","system_id":"levelo_inurba_marseille","lat":43.297794,"lon":5.370888,"is_reserved":false,"is_disabled":false,"rental_uris":{"android":"levelo://app?vid=683afb18-3f5c-44e8-ae0e-d43bcb11b0e8","ios":"levelo://app?vid=683afb18-3f5c-44e8-ae0e-d43bcb11b0e8"},"vehicle_type_id":"4","last_reported":1703624766,"current_range_meters":9600,"station_id":"ce4bgop2rcd13ifvqc1g","pricing_plan_id":"free"},{"bike_id":"9f5a96a2-0db8-4b1c-8450-c51d03940f00","system_id":"levelo_inurba_marseille","lat":43.322872,"lon":5.382756,"is_reserved":false,"is_disabled":false,"rental_uris":{"android":"levelo://app?vid=9f5a96a2-0db8-4b1c-8450-c51d03940f00","ios":"levelo://app?vid=9f5a96a2-0db8-4b1c-8450-c51d03940f00"},"vehicle_type_id":"4","last_reported":1703624766,"current_range_meters":29200,"station_id":"ce4bhr12rcd13ifvqhqg","pricing_plan_id":"free"},{"bike_id":"1cecd7ec-d453-43c5-a38d-0ee14477aaf1","system_id":"levelo_inurba_marseille","lat":43.32286,"lon":5.38274,"is_reserved":false,"is_disabled":false,"rental_uris":{"android":"levelo://app?vid=1cecd7ec-d453-43c5-a38d-0ee14477aaf1","ios":"levelo://app?vid=1cecd7ec-d453-43c5-a38d-0ee14477aaf1"},"vehicle_type_id":"4","last_reported":1703624766,"current_range_meters":28800,"station_id":"ce4bhr12rcd13ifvqhqg","pricing_plan_id":"free"},{"bike_id":"7b35961e-ce26-4a19-be21-bf42fab4fce9","system_id":"levelo_inurba_marseille","lat":43.3229,"lon":5.38282,"is_reserved":false,"is_disabled":false,"rental_uris":{"android":"levelo://app?vid=7b35961e-ce26-4a19-be21-bf42fab4fce9","ios":"levelo://app?vid=7b35961e-ce26-4a19-be21-bf42fab4fce9"},"vehicle_type_id":"4","last_reported":1703624766,"current_range_meters":29200,"station_id":"ce4bhr12rcd13ifvqhqg","pricing_plan_id":"free"},{"bike_id":"5c89eee7-6e83-42b4-bd81-efdcf68f6666","system_id":"levelo_inurba_marseille","lat":43.32824,"lon":5.366707,"is_reserved":false,"is_disabled":false,"rental_uris":{"android":"levelo://app?vid=5c89eee7-6e83-42b4-bd81-efdcf68f6666","ios":"levelo://app?vid=5c89eee7-6e83-42b4-bd81-efdcf68f6666"},"vehicle_type_id":"4","last_reported":1703624766,"current_range_meters":28800,"station_id":"ce4bhs92rcd13ifvqi0g","pricing_plan_id":"free"},{"bike_id":"51714c4a-3132-4951-88ec-80e85fa125e8","system_id":"levelo_inurba_marseille","lat":43.328264,"lon":5.366796,"is_reserved":false,"is_disabled":false,"rental_uris":{"android":"levelo://app?vid=51714c4a-3132-4951-88ec-80e85fa125e8","ios":"levelo://app?vid=51714c4a-3132-4951-88ec-80e85fa125e8"},"vehicle_type_id":"4","last_reported":1703624766,"current_range_meters":26800,"station_id":"ce4bhs92rcd13ifvqi0g","pricing_plan_id":"free"},{"bike_id":"5fed18d1-7f81-4167-a351-7c4be7bb7921","system_id":"levelo_inurba_marseille","lat":43.328267,"lon":5.366755,"is_reserved":false,"is_disabled":false,"rental_uris":{"android":"levelo://app?vid=5fed18d1-7f81-4167-a351-7c4be7bb7921","ios":"levelo://app?vid=5fed18d1-7f81-4167-a351-7c4be7bb7921"},"vehicle_type_id":"4","last_reported":1703624766,"current_range_meters":24000,"station_id":"ce4bhs92rcd13ifvqi0g","pricing_plan_id":"free"},{"bike_id":"be72c8fa-57ca-4b39-a06f-106528121e53","system_id":"levelo_inurba_marseille","lat":43.328371,"lon":5.366909,"is_reserved":false,"is_disabled":false,"rental_uris":{"android":"levelo://app?vid=be72c8fa-57ca-4b39-a06f-106528121e53","ios":"levelo://app?vid=be72c8fa-57ca-4b39-a06f-106528121e53"},"vehicle_type_id":"4","last_reported":1703624766,"current_range_meters":6800,"station_id":"ce4bhs92rcd13ifvqi0g","pricing_plan_id":"free"},{"bike_id":"b33e79d7-85bd-413c-801b-bcd1df69d847","system_id":"levelo_inurba_marseille","lat":43.328371,"lon":5.366909,"is_reserved":false,"is_disabled":false,"rental_uris":{"android":"levelo://app?vid=b33e79d7-85bd-413c-801b-bcd1df69d847","ios":"levelo://app?vid=b33e79d7-85bd-413c-801b-bcd1df69d847"},"vehicle_type_id":"4","last_reported":1703624766,"current_range_meters":24800,"station_id":"ce4bhs92rcd13ifvqi0g","pricing_plan_id":"free"},{"bike_id":"a448ca86-2b35-41e1-89c4-32a99bab0563","system_id":"levelo_inurba_marseille","lat":43.328371,"lon":5.366912,"is_reserved":false,"is_disabled":false,"rental_uris":{"android":"levelo://app?vid=a448ca86-2b35-41e1-89c4-32a99bab0563","ios":"levelo://app?vid=a448ca86-2b35-41e1-89c4-32a99bab0563"},"vehicle_type_id":"4","last_reported":1703624766,"current_range_meters":30800,"station_id":"ce4bhs92rcd13ifvqi0g","pricing_plan_id":"free"},{"bike_id":"6f67326a-1664-406f-9978-902e013e2357","system_id":"levelo_inurba_marseille","lat":43.328371,"lon":5.366909,"is_reserved":false,"is_disabled":false,"rental_uris":{"android":"levelo://app?vid=6f67326a-1664-406f-9978-902e013e2357","ios":"levelo://app?vid=6f67326a-1664-406f-9978-902e013e2357"},"vehicle_type_id":"4","last_reported":1703624766,"current_range_meters":30400,"station_id":"ce4bhs92rcd13ifvqi0g","pricing_plan_id":"free"},{"bike_id":"de708f00-7118-4d7c-9021-d7dcbd798473","system_id":"levelo_inurba_marseille","lat":43.328371,"lon":5.366909,"is_reserved":false,"is_disabled":false,"rental_uris":{"android":"levelo://app?vid=de708f00-7118-4d7c-9021-d7dcbd798473","ios":"levelo://app?vid=de708f00-7118-4d7c-9021-d7dcbd798473"},"vehicle_type_id":"4","last_reported":1703624766,"current_range_meters":23600,"station_id":"ce4bhs92rcd13ifvqi0g","pricing_plan_id":"free"},{"bike_id":"904f83aa-e9ab-401d-84c1-9edfed82b884","system_id":"levelo_inurba_marseille","lat":43.328371,"lon":5.366909,"is_reserved":false,"is_disabled":false,"rental_uris":{"android":"levelo://app?vid=904f83aa-e9ab-401d-84c1-9edfed82b884","ios":"levelo://app?vid=904f83aa-e9ab-401d-84c1-9edfed82b884"},"vehicle_type_id":"4","last_reported":1703624766,"current_range_meters":17600,"station_id":"ce4bhs92rcd13ifvqi0g","pricing_plan_id":"free"},{"bike_id":"ea7074d7-b7c9-4941-82c2-dff391bae9cb","system_id":"levelo_inurba_marseille","lat":43.328371,"lon":5.366909,"is_reserved":false,"is_disabled":false,"rental_uris":{"android":"levelo://app?vid=ea7074d7-b7c9-4941-82c2-dff391bae9cb","ios":"levelo://app?vid=ea7074d7-b7c9-4941-82c2-dff391bae9cb"},"vehicle_type_id":"4","last_reported":1703624766,"current_range_meters":22800,"station_id":"ce4bhs92rcd13ifvqi0g","pricing_plan_id":"free"},{"bike_id":"430a28e0-d2ae-422f-b320-7b6fbc50b585","system_id":"levelo_inurba_marseille","lat":43.297163,"lon":5.365866,"is_reserved":false,"is_disabled":false,"rental_uris":{"android":"levelo://app?vid=430a28e0-d2ae-422f-b320-7b6fbc50b585","ios":"levelo://app?vid=430a28e0-d2ae-422f-b320-7b6fbc50b585"},"vehicle_type_id":"4","last_reported":1703624766,"current_range_meters":24000,"station_id":"ce4bgn12rcd13ifvqbt0","pricing_plan_id":"free"},{"bike_id":"1d297be8-dae3-43f1-ad40-8bbce2b15693","system_id":"levelo_inurba_marseille","lat":43.297163,"lon":5.365866,"is_reserved":false,"is_disabled":false,"rental_uris":{"android":"levelo://app?vid=1d297be8-dae3-43f1-ad40-8bbce2b15693","ios":"levelo://app?vid=1d297be8-dae3-43f1-ad40-8bbce2b15693"},"vehicle_type_id":"4","last_reported":1703624766,"current_range_meters":15600,"station_id":"ce4bgn12rcd13ifvqbt0","pricing_plan_id":"free"},{"bike_id":"0f98ad1f-98c5-4216-be21-1053c941867e","system_id":"levelo_inurba_marseille","lat":43.2968,"lon":5.37291,"is_reserved":false,"is_disabled":false,"rental_uris":{"android":"levelo://app?vid=0f98ad1f-98c5-4216-be21-1053c941867e","ios":"levelo://app?vid=0f98ad1f-98c5-4216-be21-1053c941867e"},"vehicle_type_id":"4","last_reported":1703624766,"current_range_meters":23200,"station_id":"ce4bgk12rcd13ifvqbj0","pricing_plan_id":"free"},{"bike_id":"921b424d-ad0d-4c7a-9d74-66e3a49bfa19","system_id":"levelo_inurba_marseille","lat":43.32934,"lon":5.36612,"is_reserved":false,"is_disabled":false,"rental_uris":{"android":"levelo://app?vid=921b424d-ad0d-4c7a-9d74-66e3a49bfa19","ios":"levelo://app?vid=921b424d-ad0d-4c7a-9d74-66e3a49bfa19"},"vehicle_type_id":"4","last_reported":1703624766,"current_range_meters":20000,"station_id":"","pricing_plan_id":"free"},{"bike_id":"5df20435-a963-4a82-812e-bed677a27a9b","system_id":"levelo_inurba_marseille","lat":43.296131,"lon":5.370773,"is_reserved":false,"is_disabled":false,"rental_uris":{"android":"levelo://app?vid=5df20435-a963-4a82-812e-bed677a27a9b","ios":"levelo://app?vid=5df20435-a963-4a82-812e-bed677a27a9b"},"vehicle_type_id":"4","last_reported":1703624766,"current_range_meters":30000,"station_id":"ce4bgnh2rcd13ifvqc0g","pricing_plan_id":"free"},{"bike_id":"d87b0f0f-011f-4d50-a572-b27e4b980b9d","system_id":"levelo_inurba_marseille","lat":43.29573,"lon":5.367355,"is_reserved":false,"is_disabled":false,"rental_uris":{"android":"levelo://app?vid=d87b0f0f-011f-4d50-a572-b27e4b980b9d","ios":"levelo://app?vid=d87b0f0f-011f-4d50-a572-b27e4b980b9d"},"vehicle_type_id":"4","last_reported":1703624766,"current_range_meters":30000,"station_id":"ce4bgph2rcd13ifvqc2g","pricing_plan_id":"free"},{"bike_id":"b83c8fd4-a17a-4b11-9bb1-c71fbbfa6596","system_id":"levelo_inurba_marseille","lat":43.29614,"lon":5.372842,"is_reserved":false,"is_disabled":false,"rental_uris":{"android":"levelo://app?vid=b83c8fd4-a17a-4b11-9bb1-c71fbbfa6596","ios":"levelo://app?vid=b83c8fd4-a17a-4b11-9bb1-c71fbbfa6596"},"vehicle_type_id":"4","last_reported":1703624766,"current_range_meters":22000,"station_id":"","pricing_plan_id":"free"},{"bike_id":"4d1d5718-f756-46f4-b611-329bef63a55c","system_id":"levelo_inurba_marseille","lat":43.299028,"lon":5.381509,"is_reserved":false,"is_disabled":false,"rental_uris":{"android":"levelo://app?vid=4d1d5718-f756-46f4-b611-329bef63a55c","ios":"levelo://app?vid=4d1d5718-f756-46f4-b611-329bef63a55c"},"vehicle_type_id":"4","last_reported":1703624766,"current_range_meters":8800,"station_id":"ce4bgj12rcd13ifvqbc0","pricing_plan_id":"free"},{"bike_id":"11a450a5-1df3-45ed-90fc-ffc21ef858f6","system_id":"levelo_inurba_marseille","lat":43.30431,"lon":5.387707,"is_reserved":false,"is_disabled":false,"rental_uris":{"android":"levelo://app?vid=11a450a5-1df3-45ed-90fc-ffc21ef858f6","ios":"levelo://app?vid=11a450a5-1df3-45ed-90fc-ffc21ef858f6"},"vehicle_type_id":"4","last_reported":1703624766,"current_range_meters":20400,"station_id":"","pricing_plan_id":"free"},{"bike_id":"14ab3560-2354-4f11-9358-4e47520a0c26","system_id":"levelo_inurba_marseille","lat":43.317557,"lon":5.390173,"is_reserved":false,"is_disabled":false,"rental_uris":{"android":"levelo://app?vid=14ab3560-2354-4f11-9358-4e47520a0c26","ios":"levelo://app?vid=14ab3560-2354-4f11-9358-4e47520a0c26"},"vehicle_type_id":"4","last_reported":1703624766,"current_range_meters":17200,"station_id":"ce4bhqp2rcd13ifvqhng","pricing_plan_id":"free"},{"bike_id":"d28b5595-c291-460b-b4be-bc10253cff55","system_id":"levelo_inurba_marseille","lat":43.317557,"lon":5.390173,"is_reserved":false,"is_disabled":false,"rental_uris":{"android":"levelo://app?vid=d28b5595-c291-460b-b4be-bc10253cff55","ios":"levelo://app?vid=d28b5595-c291-460b-b4be-bc10253cff55"},"vehicle_type_id":"4","last_reported":1703624766,"current_range_meters":24000,"station_id":"ce4bhqp2rcd13ifvqhng","pricing_plan_id":"free"},{"bike_id":"6630e8ed-1566-484d-9bc5-1cd9908d4453","system_id":"levelo_inurba_marseille","lat":43.317557,"lon":5.390173,"is_reserved":false,"is_disabled":false,"rental_uris":{"android":"levelo://app?vid=6630e8ed-1566-484d-9bc5-1cd9908d4453","ios":"levelo://app?vid=6630e8ed-1566-484d-9bc5-1cd9908d4453"},"vehicle_type_id":"4","last_reported":1703624766,"current_range_meters":31600,"station_id":"ce4bhqp2rcd13ifvqhng","pricing_plan_id":"free"},{"bike_id":"f192d185-78e6-4e96-a92a-a2efd4bee7fc","system_id":"levelo_inurba_marseille","lat":43.317557,"lon":5.390173,"is_reserved":false,"is_disabled":false,"rental_uris":{"android":"levelo://app?vid=f192d185-78e6-4e96-a92a-a2efd4bee7fc","ios":"levelo://app?vid=f192d185-78e6-4e96-a92a-a2efd4bee7fc"},"vehicle_type_id":"4","last_reported":1703624766,"current_range_meters":19600,"station_id":"ce4bhqp2rcd13ifvqhng","pricing_plan_id":"free"},{"bike_id":"02b31deb-8d27-47bf-bbf0-4ae52b237d44","system_id":"levelo_inurba_marseille","lat":43.317557,"lon":5.390173,"is_reserved":false,"is_disabled":false,"rental_uris":{"android":"levelo://app?vid=02b31deb-8d27-47bf-bbf0-4ae52b237d44","ios":"levelo://app?vid=02b31deb-8d27-47bf-bbf0-4ae52b237d44"},"vehicle_type_id":"4","last_reported":1703624766,"current_range_meters":18400,"station_id":"ce4bhqp2rcd13ifvqhng","pricing_plan_id":"free"},{"bike_id":"ff426d69-3ef6-40ef-8b42-661de9da731d","system_id":"levelo_inurba_marseille","lat":43.304278,"lon":5.388868,"is_reserved":false,"is_disabled":false,"rental_uris":{"android":"levelo://app?vid=ff426d69-3ef6-40ef-8b42-661de9da731d","ios":"levelo://app?vid=ff426d69-3ef6-40ef-8b42-661de9da731d"},"vehicle_type_id":"4","last_reported":1703624766,"current_range_meters":22000,"station_id":"ce4bgk12rcd13ifvqbi0","pricing_plan_id":"free"},{"bike_id":"1497aaed-d225-48a3-8b9f-7d3c6fa53228","system_id":"levelo_inurba_marseille","lat":43.304274,"lon":5.388873,"is_reserved":false,"is_disabled":false,"rental_uris":{"android":"levelo://app?vid=1497aaed-d225-48a3-8b9f-7d3c6fa53228","ios":"levelo://app?vid=1497aaed-d225-48a3-8b9f-7d3c6fa53228"},"vehicle_type_id":"4","last_reported":1703624766,"current_range_meters":30400,"station_id":"ce4bgk12rcd13ifvqbi0","pricing_plan_id":"free"},{"bike_id":"4f04956c-f64f-4e1b-a719-e99d12eeddb8","system_id":"levelo_inurba_marseille","lat":43.304274,"lon":5.388873,"is_reserved":false,"is_disabled":false,"rental_uris":{"android":"levelo://app?vid=4f04956c-f64f-4e1b-a719-e99d12eeddb8","ios":"levelo://app?vid=4f04956c-f64f-4e1b-a719-e99d12eeddb8"},"vehicle_type_id":"4","last_reported":1703624766,"current_range_meters":25600,"station_id":"ce4bgk12rcd13ifvqbi0","pricing_plan_id":"free"},{"bike_id":"2077e012-98e7-4f30-8b29-2aebe5ce2912","system_id":"levelo_inurba_marseille","lat":43.298037,"lon":5.381066,"is_reserved":false,"is_disabled":false,"rental_uris":{"android":"levelo://app?vid=2077e012-98e7-4f30-8b29-2aebe5ce2912","ios":"levelo://app?vid=2077e012-98e7-4f30-8b29-2aebe5ce2912"},"vehicle_type_id":"4","last_reported":1703624766,"current_range_meters":20000,"station_id":"ce4bgip2rcd13ifvqbb0","pricing_plan_id":"free"},{"bike_id":"e6da0a99-d7fe-4856-9e30-6432af97af28","system_id":"levelo_inurba_marseille","lat":43.296277,"lon":5.377108,"is_reserved":false,"is_disabled":false,"rental_uris":{"android":"levelo://app?vid=e6da0a99-d7fe-4856-9e30-6432af97af28","ios":"levelo://app?vid=e6da0a99-d7fe-4856-9e30-6432af97af28"},"vehicle_type_id":"4","last_reported":1703624766,"current_range_meters":11200,"station_id":"ce4bgi92rcd13ifvqb90","pricing_plan_id":"free"},{"bike_id":"965abfcb-fd42-4bff-9315-20117dd90139","system_id":"levelo_inurba_marseille","lat":43.299724,"lon":5.384848,"is_reserved":false,"is_disabled":false,"rental_uris":{"android":"levelo://app?vid=965abfcb-fd42-4bff-9315-20117dd90139","ios":"levelo://app?vid=965abfcb-fd42-4bff-9315-20117dd90139"},"vehicle_type_id":"4","last_reported":1703624766,"current_range_meters":23600,"station_id":"ce4bgj92rcd13ifvqbd0","pricing_plan_id":"free"},{"bike_id":"cefab4c2-b13f-4d1b-ad20-c1b5a8e7312a","system_id":"levelo_inurba_marseille","lat":43.299724,"lon":5.384848,"is_reserved":false,"is_disabled":false,"rental_uris":{"android":"levelo://app?vid=cefab4c2-b13f-4d1b-ad20-c1b5a8e7312a","ios":"levelo://app?vid=cefab4c2-b13f-4d1b-ad20-c1b5a8e7312a"},"vehicle_type_id":"4","last_reported":1703624766,"current_range_meters":21200,"station_id":"ce4bgj92rcd13ifvqbd0","pricing_plan_id":"free"},{"bike_id":"b28037bb-a9f5-4150-8758-7d7f6f529dac","system_id":"levelo_inurba_marseille","lat":43.32367,"lon":5.388836,"is_reserved":false,"is_disabled":false,"rental_uris":{"android":"levelo://app?vid=b28037bb-a9f5-4150-8758-7d7f6f529dac","ios":"levelo://app?vid=b28037bb-a9f5-4150-8758-7d7f6f529dac"},"vehicle_type_id":"4","last_reported":1703624766,"current_range_meters":12000,"station_id":"ce4bhqp2rcd13ifvqhog","pricing_plan_id":"free"},{"bike_id":"ba60a7fd-b6ae-4676-b1e3-1e3a495e619d","system_id":"levelo_inurba_marseille","lat":43.32367,"lon":5.388836,"is_reserved":false,"is_disabled":false,"rental_uris":{"android":"levelo://app?vid=ba60a7fd-b6ae-4676-b1e3-1e3a495e619d","ios":"levelo://app?vid=ba60a7fd-b6ae-4676-b1e3-1e3a495e619d"},"vehicle_type_id":"4","last_reported":1703624766,"current_range_meters":15600,"station_id":"ce4bhqp2rcd13ifvqhog","pricing_plan_id":"free"},{"bike_id":"1f490a88-c0c6-4e08-9853-b79b8ffa03a6","system_id":"levelo_inurba_marseille","lat":43.32367,"lon":5.388836,"is_reserved":false,"is_disabled":false,"rental_uris":{"android":"levelo://app?vid=1f490a88-c0c6-4e08-9853-b79b8ffa03a6","ios":"levelo://app?vid=1f490a88-c0c6-4e08-9853-b79b8ffa03a6"},"vehicle_type_id":"4","last_reported":1703624766,"current_range_meters":17600,"station_id":"ce4bhqp2rcd13ifvqhog","pricing_plan_id":"free"},{"bike_id":"47a940c6-b7d9-4d89-8aca-1e0e957f8164","system_id":"levelo_inurba_marseille","lat":43.32367,"lon":5.388836,"is_reserved":false,"is_disabled":false,"rental_uris":{"android":"levelo://app?vid=47a940c6-b7d9-4d89-8aca-1e0e957f8164","ios":"levelo://app?vid=47a940c6-b7d9-4d89-8aca-1e0e957f8164"},"vehicle_type_id":"4","last_reported":1703624766,"current_range_meters":24000,"station_id":"ce4bhqp2rcd13ifvqhog","pricing_plan_id":"free"},{"bike_id":"6229a11e-67ff-4128-994f-a106996e1234","system_id":"levelo_inurba_marseille","lat":43.32367,"lon":5.388836,"is_reserved":false,"is_disabled":false,"rental_uris":{"android":"levelo://app?vid=6229a11e-67ff-4128-994f-a106996e1234","ios":"levelo://app?vid=6229a11e-67ff-4128-994f-a106996e1234"},"vehicle_type_id":"4","last_reported":1703624766,"current_range_meters":7200,"station_id":"ce4bhqp2rcd13ifvqhog","pricing_plan_id":"free"},{"bike_id":"0aeff03b-c088-4633-a9b9-ca0ac8a59c2c","system_id":"levelo_inurba_marseille","lat":43.32375,"lon":5.38878,"is_reserved":false,"is_disabled":false,"rental_uris":{"android":"levelo://app?vid=0aeff03b-c088-4633-a9b9-ca0ac8a59c2c","ios":"levelo://app?vid=0aeff03b-c088-4633-a9b9-ca0ac8a59c2c"},"vehicle_type_id":"4","last_reported":1703624766,"current_range_meters":4400,"station_id":"ce4bhqp2rcd13ifvqhog","pricing_plan_id":"free"},{"bike_id":"6551e854-74b0-43c3-add1-c67c17684e52","system_id":"levelo_inurba_marseille","lat":43.29601,"lon":5.381084,"is_reserved":false,"is_disabled":false,"rental_uris":{"android":"levelo://app?vid=6551e854-74b0-43c3-add1-c67c17684e52","ios":"levelo://app?vid=6551e854-74b0-43c3-add1-c67c17684e52"},"vehicle_type_id":"4","last_reported":1703624766,"current_range_meters":18800,"station_id":"ce4bgl12rcd13ifvqbo0","pricing_plan_id":"free"},{"bike_id":"743e5348-3370-4500-9620-24474e1c431c","system_id":"levelo_inurba_marseille","lat":43.29602,"lon":5.381084,"is_reserved":false,"is_disabled":false,"rental_uris":{"android":"levelo://app?vid=743e5348-3370-4500-9620-24474e1c431c","ios":"levelo://app?vid=743e5348-3370-4500-9620-24474e1c431c"},"vehicle_type_id":"4","last_reported":1703624766,"current_range_meters":18400,"station_id":"ce4bgl12rcd13ifvqbo0","pricing_plan_id":"free"},{"bike_id":"07c2a101-4d07-470d-b92a-3de9ba80b0a0","system_id":"levelo_inurba_marseille","lat":43.305994,"lon":5.393687,"is_reserved":false,"is_disabled":false,"rental_uris":{"android":"levelo://app?vid=07c2a101-4d07-470d-b92a-3de9ba80b0a0","ios":"levelo://app?vid=07c2a101-4d07-470d-b92a-3de9ba80b0a0"},"vehicle_type_id":"4","last_reported":1703624766,"current_range_meters":30400,"station_id":"ce4bh0p2rcd13ifvqd80","pricing_plan_id":"free"},{"bike_id":"fb8c4b4e-8ccb-47fa-b726-da11ccbbdbfb","system_id":"levelo_inurba_marseille","lat":43.293009,"lon":5.374584,"is_reserved":false,"is_disabled":false,"rental_uris":{"android":"levelo://app?vid=fb8c4b4e-8ccb-47fa-b726-da11ccbbdbfb","ios":"levelo://app?vid=fb8c4b4e-8ccb-47fa-b726-da11ccbbdbfb"},"vehicle_type_id":"4","last_reported":1703624766,"current_range_meters":15200,"station_id":"ce4bgi12rcd13ifvqb70","pricing_plan_id":"free"},{"bike_id":"8b06a0ff-0759-4c0e-a0f6-c28d63cd18a3","system_id":"levelo_inurba_marseille","lat":43.302992,"lon":5.392136,"is_reserved":false,"is_disabled":false,"rental_uris":{"android":"levelo://app?vid=8b06a0ff-0759-4c0e-a0f6-c28d63cd18a3","ios":"levelo://app?vid=8b06a0ff-0759-4c0e-a0f6-c28d63cd18a3"},"vehicle_type_id":"4","last_reported":1703624766,"current_range_meters":26400,"station_id":"ce4bgkh2rcd13ifvqbk0","pricing_plan_id":"free"},{"bike_id":"436db56a-94cb-49ca-a488-c8d2f3352a9d","system_id":"levelo_inurba_marseille","lat":43.303002,"lon":5.392142,"is_reserved":false,"is_disabled":false,"rental_uris":{"android":"levelo://app?vid=436db56a-94cb-49ca-a488-c8d2f3352a9d","ios":"levelo://app?vid=436db56a-94cb-49ca-a488-c8d2f3352a9d"},"vehicle_type_id":"4","last_reported":1703624766,"current_range_meters":16000,"station_id":"ce4bgkh2rcd13ifvqbk0","pricing_plan_id":"free"},{"bike_id":"8a3dedcb-a47f-4b5b-952c-beb123a987f0","system_id":"levelo_inurba_marseille","lat":43.292311,"lon":5.360731,"is_reserved":false,"is_disabled":false,"rental_uris":{"android":"levelo://app?vid=8a3dedcb-a47f-4b5b-952c-beb123a987f0","ios":"levelo://app?vid=8a3dedcb-a47f-4b5b-952c-beb123a987f0"},"vehicle_type_id":"4","last_reported":1703624766,"current_range_meters":30400,"station_id":"ce4bhbh2rcd13ifvqeqg","pricing_plan_id":"free"},{"bike_id":"ab21644d-9424-410a-ac57-5021452a1250","system_id":"levelo_inurba_marseille","lat":43.300852,"lon":5.390859,"is_reserved":false,"is_disabled":false,"rental_uris":{"android":"levelo://app?vid=ab21644d-9424-410a-ac57-5021452a1250","ios":"levelo://app?vid=ab21644d-9424-410a-ac57-5021452a1250"},"vehicle_type_id":"4","last_reported":1703624766,"current_range_meters":28000,"station_id":"ce4bh192rcd13ifvqdb0","pricing_plan_id":"free"},{"bike_id":"b87a0815-bf06-4fbd-b835-05212e5025d5","system_id":"levelo_inurba_marseille","lat":43.291994,"lon":5.357886,"is_reserved":false,"is_disabled":false,"rental_uris":{"android":"levelo://app?vid=b87a0815-bf06-4fbd-b835-05212e5025d5","ios":"levelo://app?vid=b87a0815-bf06-4fbd-b835-05212e5025d5"},"vehicle_type_id":"4","last_reported":1703624766,"current_range_meters":22800,"station_id":"ce4bhb12rcd13ifvqel0","pricing_plan_id":"free"},{"bike_id":"f8ad87fb-faf9-4310-8434-bc415fdf4816","system_id":"levelo_inurba_marseille","lat":43.298666,"lon":5.389069,"is_reserved":false,"is_disabled":false,"rental_uris":{"android":"levelo://app?vid=f8ad87fb-faf9-4310-8434-bc415fdf4816","ios":"levelo://app?vid=f8ad87fb-faf9-4310-8434-bc415fdf4816"},"vehicle_type_id":"4","last_reported":1703624766,"current_range_meters":21200,"station_id":"","pricing_plan_id":"free"},{"bike_id":"dce5a95d-3708-473f-b69d-a5b6db17ba84","system_id":"levelo_inurba_marseille","lat":43.309047,"lon":5.396551,"is_reserved":false,"is_disabled":false,"rental_uris":{"android":"levelo://app?vid=dce5a95d-3708-473f-b69d-a5b6db17ba84","ios":"levelo://app?vid=dce5a95d-3708-473f-b69d-a5b6db17ba84"},"vehicle_type_id":"4","last_reported":1703624766,"current_range_meters":7600,"station_id":"ce4bh012rcd13ifvqcv0","pricing_plan_id":"free"},{"bike_id":"c45e1210-13e4-4afa-9226-9ab93dc1e814","system_id":"levelo_inurba_marseille","lat":43.30883,"lon":5.3964,"is_reserved":false,"is_disabled":false,"rental_uris":{"android":"levelo://app?vid=c45e1210-13e4-4afa-9226-9ab93dc1e814","ios":"levelo://app?vid=c45e1210-13e4-4afa-9226-9ab93dc1e814"},"vehicle_type_id":"4","last_reported":1703624766,"current_range_meters":28000,"station_id":"ce4bh012rcd13ifvqcv0","pricing_plan_id":"free"},{"bike_id":"94113dfe-1841-4eb4-a206-dfb275cb371b","system_id":"levelo_inurba_marseille","lat":43.309047,"lon":5.396551,"is_reserved":false,"is_disabled":false,"rental_uris":{"android":"levelo://app?vid=94113dfe-1841-4eb4-a206-dfb275cb371b","ios":"levelo://app?vid=94113dfe-1841-4eb4-a206-dfb275cb371b"},"vehicle_type_id":"4","last_reported":1703624766,"current_range_meters":29200,"station_id":"ce4bh012rcd13ifvqcv0","pricing_plan_id":"free"},{"bike_id":"83da56ef-c98e-4a29-9845-cefd5b085f83","system_id":"levelo_inurba_marseille","lat":43.309038,"lon":5.396546,"is_reserved":false,"is_disabled":false,"rental_uris":{"android":"levelo://app?vid=83da56ef-c98e-4a29-9845-cefd5b085f83","ios":"levelo://app?vid=83da56ef-c98e-4a29-9845-cefd5b085f83"},"vehicle_type_id":"4","last_reported":1703624766,"current_range_meters":31600,"station_id":"ce4bh012rcd13ifvqcv0","pricing_plan_id":"free"},{"bike_id":"37aa2ace-07a4-4393-888a-98e42e1ffc78","system_id":"levelo_inurba_marseille","lat":43.29529,"lon":5.385581,"is_reserved":false,"is_disabled":false,"rental_uris":{"android":"levelo://app?vid=37aa2ace-07a4-4393-888a-98e42e1ffc78","ios":"levelo://app?vid=37aa2ace-07a4-4393-888a-98e42e1ffc78"},"vehicle_type_id":"4","last_reported":1703624766,"current_range_meters":32000,"station_id":"ce4bgih2rcd13ifvqba0","pricing_plan_id":"free"},{"bike_id":"b406cc4a-93b3-4ffc-a76d-1a0bc4b380d7","system_id":"levelo_inurba_marseille","lat":43.29529,"lon":5.385581,"is_reserved":false,"is_disabled":false,"rental_uris":{"android":"levelo://app?vid=b406cc4a-93b3-4ffc-a76d-1a0bc4b380d7","ios":"levelo://app?vid=b406cc4a-93b3-4ffc-a76d-1a0bc4b380d7"},"vehicle_type_id":"4","last_reported":1703624766,"current_range_meters":6800,"station_id":"ce4bgih2rcd13ifvqba0","pricing_plan_id":"free"},{"bike_id":"0aa5d323-407a-4d75-a8e9-b77fe5e8bf6e","system_id":"levelo_inurba_marseille","lat":43.29529,"lon":5.385581,"is_reserved":false,"is_disabled":false,"rental_uris":{"android":"levelo://app?vid=0aa5d323-407a-4d75-a8e9-b77fe5e8bf6e","ios":"levelo://app?vid=0aa5d323-407a-4d75-a8e9-b77fe5e8bf6e"},"vehicle_type_id":"4","last_reported":1703624766,"current_range_meters":14400,"station_id":"ce4bgih2rcd13ifvqba0","pricing_plan_id":"free"},{"bike_id":"68a42997-214c-41a9-800a-6cbf7a5d980e","system_id":"levelo_inurba_marseille","lat":43.29529,"lon":5.385581,"is_reserved":false,"is_disabled":false,"rental_uris":{"android":"levelo://app?vid=68a42997-214c-41a9-800a-6cbf7a5d980e","ios":"levelo://app?vid=68a42997-214c-41a9-800a-6cbf7a5d980e"},"vehicle_type_id":"4","last_reported":1703624766,"current_range_meters":26400,"station_id":"ce4bgih2rcd13ifvqba0","pricing_plan_id":"free"},{"bike_id":"7cc2ae08-16ed-4643-83b3-4bb950f32f6b","system_id":"levelo_inurba_marseille","lat":43.290631,"lon":5.359244,"is_reserved":false,"is_disabled":false,"rental_uris":{"android":"levelo://app?vid=7cc2ae08-16ed-4643-83b3-4bb950f32f6b","ios":"levelo://app?vid=7cc2ae08-16ed-4643-83b3-4bb950f32f6b"},"vehicle_type_id":"4","last_reported":1703624766,"current_range_meters":0,"station_id":"ce4bha92rcd13ifvqeg0","pricing_plan_id":"free"},{"bike_id":"e8993941-c0bb-4dd1-8dc2-1ed268351c26","system_id":"levelo_inurba_marseille","lat":43.290631,"lon":5.359244,"is_reserved":false,"is_disabled":false,"rental_uris":{"android":"levelo://app?vid=e8993941-c0bb-4dd1-8dc2-1ed268351c26","ios":"levelo://app?vid=e8993941-c0bb-4dd1-8dc2-1ed268351c26"},"vehicle_type_id":"4","last_reported":1703624766,"current_range_meters":22800,"station_id":"ce4bha92rcd13ifvqeg0","pricing_plan_id":"free"},{"bike_id":"ddd31c5c-2bae-4674-a7f4-60adc2595562","system_id":"levelo_inurba_marseille","lat":43.290631,"lon":5.359244,"is_reserved":false,"is_disabled":false,"rental_uris":{"android":"levelo://app?vid=ddd31c5c-2bae-4674-a7f4-60adc2595562","ios":"levelo://app?vid=ddd31c5c-2bae-4674-a7f4-60adc2595562"},"vehicle_type_id":"4","last_reported":1703624766,"current_range_meters":2000,"station_id":"ce4bha92rcd13ifvqeg0","pricing_plan_id":"free"},{"bike_id":"7b658bd7-6970-416c-a2e0-582a64c26e91","system_id":"levelo_inurba_marseille","lat":43.294162,"lon":5.386292,"is_reserved":false,"is_disabled":false,"rental_uris":{"android":"levelo://app?vid=7b658bd7-6970-416c-a2e0-582a64c26e91","ios":"levelo://app?vid=7b658bd7-6970-416c-a2e0-582a64c26e91"},"vehicle_type_id":"4","last_reported":1703624766,"current_range_meters":20000,"station_id":"ce4bh2h2rcd13ifvqdh0","pricing_plan_id":"free"},{"bike_id":"ecc91262-6b83-4e17-9e93-c5e7e2e5acad","system_id":"levelo_inurba_marseille","lat":43.294153,"lon":5.386305,"is_reserved":false,"is_disabled":false,"rental_uris":{"android":"levelo://app?vid=ecc91262-6b83-4e17-9e93-c5e7e2e5acad","ios":"levelo://app?vid=ecc91262-6b83-4e17-9e93-c5e7e2e5acad"},"vehicle_type_id":"4","last_reported":1703624766,"current_range_meters":18800,"station_id":"ce4bh2h2rcd13ifvqdh0","pricing_plan_id":"free"},{"bike_id":"1893ae1d-fbd1-4c03-b9c9-7c193238d720","system_id":"levelo_inurba_marseille","lat":43.294153,"lon":5.386305,"is_reserved":false,"is_disabled":false,"rental_uris":{"android":"levelo://app?vid=1893ae1d-fbd1-4c03-b9c9-7c193238d720","ios":"levelo://app?vid=1893ae1d-fbd1-4c03-b9c9-7c193238d720"},"vehicle_type_id":"4","last_reported":1703624766,"current_range_meters":19600,"station_id":"ce4bh2h2rcd13ifvqdh0","pricing_plan_id":"free"},{"bike_id":"969f8abe-d420-421c-b2fa-ee439fdacf59","system_id":"levelo_inurba_marseille","lat":43.29419,"lon":5.386263,"is_reserved":false,"is_disabled":false,"rental_uris":{"android":"levelo://app?vid=969f8abe-d420-421c-b2fa-ee439fdacf59","ios":"levelo://app?vid=969f8abe-d420-421c-b2fa-ee439fdacf59"},"vehicle_type_id":"4","last_reported":1703624766,"current_range_meters":17600,"station_id":"ce4bh2h2rcd13ifvqdh0","pricing_plan_id":"free"},{"bike_id":"0f144bd9-439e-4617-804a-80cc23b6197b","system_id":"levelo_inurba_marseille","lat":43.294162,"lon":5.386292,"is_reserved":false,"is_disabled":false,"rental_uris":{"android":"levelo://app?vid=0f144bd9-439e-4617-804a-80cc23b6197b","ios":"levelo://app?vid=0f144bd9-439e-4617-804a-80cc23b6197b"},"vehicle_type_id":"4","last_reported":1703624766,"current_range_meters":22000,"station_id":"ce4bh2h2rcd13ifvqdh0","pricing_plan_id":"free"},{"bike_id":"71491795-2e11-4105-bf15-61ad3e4c7e20","system_id":"levelo_inurba_marseille","lat":43.294162,"lon":5.386292,"is_reserved":false,"is_disabled":false,"rental_uris":{"android":"levelo://app?vid=71491795-2e11-4105-bf15-61ad3e4c7e20","ios":"levelo://app?vid=71491795-2e11-4105-bf15-61ad3e4c7e20"},"vehicle_type_id":"4","last_reported":1703624766,"current_range_meters":19200,"station_id":"ce4bh2h2rcd13ifvqdh0","pricing_plan_id":"free"},{"bike_id":"85af4906-901f-4d27-8ec8-47d171f17d56","system_id":"levelo_inurba_marseille","lat":43.294162,"lon":5.386292,"is_reserved":false,"is_disabled":false,"rental_uris":{"android":"levelo://app?vid=85af4906-901f-4d27-8ec8-47d171f17d56","ios":"levelo://app?vid=85af4906-901f-4d27-8ec8-47d171f17d56"},"vehicle_type_id":"4","last_reported":1703624766,"current_range_meters":24000,"station_id":"ce4bh2h2rcd13ifvqdh0","pricing_plan_id":"free"},{"bike_id":"9d70b7f5-6e57-42b1-b79c-a82c59f17725","system_id":"levelo_inurba_marseille","lat":43.289468,"lon":5.363719,"is_reserved":false,"is_disabled":false,"rental_uris":{"android":"levelo://app?vid=9d70b7f5-6e57-42b1-b79c-a82c59f17725","ios":"levelo://app?vid=9d70b7f5-6e57-42b1-b79c-a82c59f17725"},"vehicle_type_id":"4","last_reported":1703624766,"current_range_meters":23600,"station_id":"ce4bhc92rcd13ifvqetg","pricing_plan_id":"free"},{"bike_id":"8fc6dc51-1558-4258-8a5f-ce0063fbbaa3","system_id":"levelo_inurba_marseille","lat":43.289468,"lon":5.363719,"is_reserved":false,"is_disabled":false,"rental_uris":{"android":"levelo://app?vid=8fc6dc51-1558-4258-8a5f-ce0063fbbaa3","ios":"levelo://app?vid=8fc6dc51-1558-4258-8a5f-ce0063fbbaa3"},"vehicle_type_id":"4","last_reported":1703624766,"current_range_meters":30800,"station_id":"ce4bhc92rcd13ifvqetg","pricing_plan_id":"free"},{"bike_id":"fa3ad582-9349-499b-b664-707251d97918","system_id":"levelo_inurba_marseille","lat":43.292644,"lon":5.384257,"is_reserved":false,"is_disabled":false,"rental_uris":{"android":"levelo://app?vid=fa3ad582-9349-499b-b664-707251d97918","ios":"levelo://app?vid=fa3ad582-9349-499b-b664-707251d97918"},"vehicle_type_id":"4","last_reported":1703624766,"current_range_meters":20000,"station_id":"ce4bh692rcd13ifvqea0","pricing_plan_id":"free"},{"bike_id":"bec9edc9-b5e6-4817-8787-3ad385a017ff","system_id":"levelo_inurba_marseille","lat":43.292642,"lon":5.384254,"is_reserved":false,"is_disabled":false,"rental_uris":{"android":"levelo://app?vid=bec9edc9-b5e6-4817-8787-3ad385a017ff","ios":"levelo://app?vid=bec9edc9-b5e6-4817-8787-3ad385a017ff"},"vehicle_type_id":"4","last_reported":1703624766,"current_range_meters":18000,"station_id":"ce4bh692rcd13ifvqea0","pricing_plan_id":"free"},{"bike_id":"0dda4a22-55bc-45f0-8202-33fa5a1ee938","system_id":"levelo_inurba_marseille","lat":43.292642,"lon":5.384254,"is_reserved":false,"is_disabled":false,"rental_uris":{"android":"levelo://app?vid=0dda4a22-55bc-45f0-8202-33fa5a1ee938","ios":"levelo://app?vid=0dda4a22-55bc-45f0-8202-33fa5a1ee938"},"vehicle_type_id":"4","last_reported":1703624766,"current_range_meters":23200,"station_id":"ce4bh692rcd13ifvqea0","pricing_plan_id":"free"},{"bike_id":"ec7aea00-d5f6-4c21-9062-df408de665be","system_id":"levelo_inurba_marseille","lat":43.292642,"lon":5.384254,"is_reserved":false,"is_disabled":false,"rental_uris":{"android":"levelo://app?vid=ec7aea00-d5f6-4c21-9062-df408de665be","ios":"levelo://app?vid=ec7aea00-d5f6-4c21-9062-df408de665be"},"vehicle_type_id":"4","last_reported":1703624766,"current_range_meters":31200,"station_id":"ce4bh692rcd13ifvqea0","pricing_plan_id":"free"},{"bike_id":"657c9649-6edb-4e95-b7ab-2b55e4b387a3","system_id":"levelo_inurba_marseille","lat":43.292642,"lon":5.384254,"is_reserved":false,"is_disabled":false,"rental_uris":{"android":"levelo://app?vid=657c9649-6edb-4e95-b7ab-2b55e4b387a3","ios":"levelo://app?vid=657c9649-6edb-4e95-b7ab-2b55e4b387a3"},"vehicle_type_id":"4","last_reported":1703624766,"current_range_meters":30400,"station_id":"ce4bh692rcd13ifvqea0","pricing_plan_id":"free"},{"bike_id":"359259f2-c50b-4af8-a0d3-566decac7845","system_id":"levelo_inurba_marseille","lat":43.292642,"lon":5.384254,"is_reserved":false,"is_disabled":false,"rental_uris":{"android":"levelo://app?vid=359259f2-c50b-4af8-a0d3-566decac7845","ios":"levelo://app?vid=359259f2-c50b-4af8-a0d3-566decac7845"},"vehicle_type_id":"4","last_reported":1703624766,"current_range_meters":18800,"station_id":"ce4bh692rcd13ifvqea0","pricing_plan_id":"free"},{"bike_id":"e16edb4c-d80e-4ff6-9859-07a195252293","system_id":"levelo_inurba_marseille","lat":43.290103,"lon":5.356114,"is_reserved":false,"is_disabled":false,"rental_uris":{"android":"levelo://app?vid=e16edb4c-d80e-4ff6-9859-07a195252293","ios":"levelo://app?vid=e16edb4c-d80e-4ff6-9859-07a195252293"},"vehicle_type_id":"4","last_reported":1703624766,"current_range_meters":26800,"station_id":"ce4bhb92rcd13ifvqen0","pricing_plan_id":"free"},{"bike_id":"0de3588b-1d6a-4120-a720-2f33bb6786eb","system_id":"levelo_inurba_marseille","lat":43.290104,"lon":5.356111,"is_reserved":false,"is_disabled":false,"rental_uris":{"android":"levelo://app?vid=0de3588b-1d6a-4120-a720-2f33bb6786eb","ios":"levelo://app?vid=0de3588b-1d6a-4120-a720-2f33bb6786eb"},"vehicle_type_id":"4","last_reported":1703624766,"current_range_meters":28000,"station_id":"ce4bhb92rcd13ifvqen0","pricing_plan_id":"free"},{"bike_id":"ef5b654c-940d-43de-b312-92a910923c21","system_id":"levelo_inurba_marseille","lat":43.29784,"lon":5.39347,"is_reserved":false,"is_disabled":false,"rental_uris":{"android":"levelo://app?vid=ef5b654c-940d-43de-b312-92a910923c21","ios":"levelo://app?vid=ef5b654c-940d-43de-b312-92a910923c21"},"vehicle_type_id":"4","last_reported":1703624766,"current_range_meters":8000,"station_id":"chh1huq6cuj3fo74tm60","pricing_plan_id":"free"},{"bike_id":"5d94fdb3-fca3-4009-9e79-b425b7366543","system_id":"levelo_inurba_marseille","lat":43.295169,"lon":5.390426,"is_reserved":false,"is_disabled":false,"rental_uris":{"android":"levelo://app?vid=5d94fdb3-fca3-4009-9e79-b425b7366543","ios":"levelo://app?vid=5d94fdb3-fca3-4009-9e79-b425b7366543"},"vehicle_type_id":"4","last_reported":1703624766,"current_range_meters":27600,"station_id":"ce4bh3p2rcd13ifvqdp0","pricing_plan_id":"free"},{"bike_id":"79cb188f-f44d-4894-b8d8-ba585adda99c","system_id":"levelo_inurba_marseille","lat":43.330442,"lon":5.389148,"is_reserved":false,"is_disabled":false,"rental_uris":{"android":"levelo://app?vid=79cb188f-f44d-4894-b8d8-ba585adda99c","ios":"levelo://app?vid=79cb188f-f44d-4894-b8d8-ba585adda99c"},"vehicle_type_id":"4","last_reported":1703624766,"current_range_meters":0,"station_id":"ce4bhr92rcd13ifvqhrg","pricing_plan_id":"free"},{"bike_id":"495faf64-a935-4c6e-b77f-2b296d14493a","system_id":"levelo_inurba_marseille","lat":43.331017,"lon":5.389194,"is_reserved":false,"is_disabled":false,"rental_uris":{"android":"levelo://app?vid=495faf64-a935-4c6e-b77f-2b296d14493a","ios":"levelo://app?vid=495faf64-a935-4c6e-b77f-2b296d14493a"},"vehicle_type_id":"4","last_reported":1703624766,"current_range_meters":19600,"station_id":"","pricing_plan_id":"free"},{"bike_id":"f3c63c7b-09e2-4734-8986-14ad4d133994","system_id":"levelo_inurba_marseille","lat":43.33018,"lon":5.39043,"is_reserved":false,"is_disabled":false,"rental_uris":{"android":"levelo://app?vid=f3c63c7b-09e2-4734-8986-14ad4d133994","ios":"levelo://app?vid=f3c63c7b-09e2-4734-8986-14ad4d133994"},"vehicle_type_id":"4","last_reported":1703624766,"current_range_meters":10000,"station_id":"","pricing_plan_id":"free"},{"bike_id":"18ec1453-63e5-4b22-a54e-20e51e1a0d8d","system_id":"levelo_inurba_marseille","lat":43.33019,"lon":5.39043,"is_reserved":false,"is_disabled":false,"rental_uris":{"android":"levelo://app?vid=18ec1453-63e5-4b22-a54e-20e51e1a0d8d","ios":"levelo://app?vid=18ec1453-63e5-4b22-a54e-20e51e1a0d8d"},"vehicle_type_id":"4","last_reported":1703624766,"current_range_meters":19200,"station_id":"","pricing_plan_id":"free"},{"bike_id":"d40c84ca-6ac7-43a3-a05e-0754c369c109","system_id":"levelo_inurba_marseille","lat":43.295169,"lon":5.390426,"is_reserved":false,"is_disabled":false,"rental_uris":{"android":"levelo://app?vid=d40c84ca-6ac7-43a3-a05e-0754c369c109","ios":"levelo://app?vid=d40c84ca-6ac7-43a3-a05e-0754c369c109"},"vehicle_type_id":"4","last_reported":1703624766,"current_range_meters":18000,"station_id":"ce4bh3p2rcd13ifvqdp0","pricing_plan_id":"free"},{"bike_id":"dc0ccc7c-ba1b-4cde-b242-23dbe62099b9","system_id":"levelo_inurba_marseille","lat":43.295169,"lon":5.390426,"is_reserved":false,"is_disabled":false,"rental_uris":{"android":"levelo://app?vid=dc0ccc7c-ba1b-4cde-b242-23dbe62099b9","ios":"levelo://app?vid=dc0ccc7c-ba1b-4cde-b242-23dbe62099b9"},"vehicle_type_id":"4","last_reported":1703624766,"current_range_meters":30800,"station_id":"ce4bh3p2rcd13ifvqdp0","pricing_plan_id":"free"},{"bike_id":"5c01749a-d7f3-41a4-a204-aac196e1cae0","system_id":"levelo_inurba_marseille","lat":43.295169,"lon":5.390426,"is_reserved":false,"is_disabled":false,"rental_uris":{"android":"levelo://app?vid=5c01749a-d7f3-41a4-a204-aac196e1cae0","ios":"levelo://app?vid=5c01749a-d7f3-41a4-a204-aac196e1cae0"},"vehicle_type_id":"4","last_reported":1703624766,"current_range_meters":11600,"station_id":"ce4bh3p2rcd13ifvqdp0","pricing_plan_id":"free"},{"bike_id":"01eec893-cb22-47ea-ba6f-18aee64380c7","system_id":"levelo_inurba_marseille","lat":43.330332,"lon":5.390889,"is_reserved":false,"is_disabled":false,"rental_uris":{"android":"levelo://app?vid=01eec893-cb22-47ea-ba6f-18aee64380c7","ios":"levelo://app?vid=01eec893-cb22-47ea-ba6f-18aee64380c7"},"vehicle_type_id":"4","last_reported":1703624766,"current_range_meters":8000,"station_id":"","pricing_plan_id":"free"},{"bike_id":"7a543b19-90cd-4a87-b80d-37f423d89307","system_id":"levelo_inurba_marseille","lat":43.330352,"lon":5.391269,"is_reserved":false,"is_disabled":false,"rental_uris":{"android":"levelo://app?vid=7a543b19-90cd-4a87-b80d-37f423d89307","ios":"levelo://app?vid=7a543b19-90cd-4a87-b80d-37f423d89307"},"vehicle_type_id":"4","last_reported":1703624766,"current_range_meters":7200,"station_id":"","pricing_plan_id":"free"},{"bike_id":"cd5fd400-a29e-4902-962a-4d43e6e03f56","system_id":"levelo_inurba_marseille","lat":43.28856,"lon":5.358371,"is_reserved":false,"is_disabled":false,"rental_uris":{"android":"levelo://app?vid=cd5fd400-a29e-4902-962a-4d43e6e03f56","ios":"levelo://app?vid=cd5fd400-a29e-4902-962a-4d43e6e03f56"},"vehicle_type_id":"4","last_reported":1703624766,"current_range_meters":0,"station_id":"ce4bhb12rcd13ifvqem0","pricing_plan_id":"free"},{"bike_id":"eb72e6e2-2555-4c83-9a0b-0b7f6df4c805","system_id":"levelo_inurba_marseille","lat":43.312609,"lon":5.401662,"is_reserved":false,"is_disabled":false,"rental_uris":{"android":"levelo://app?vid=eb72e6e2-2555-4c83-9a0b-0b7f6df4c805","ios":"levelo://app?vid=eb72e6e2-2555-4c83-9a0b-0b7f6df4c805"},"vehicle_type_id":"4","last_reported":1703624766,"current_range_meters":22000,"station_id":"ce4bh092rcd13ifvqd30","pricing_plan_id":"free"},{"bike_id":"6ea70d67-ec7b-4741-9252-48c7c0a9c6bd","system_id":"levelo_inurba_marseille","lat":43.312609,"lon":5.401662,"is_reserved":false,"is_disabled":false,"rental_uris":{"android":"levelo://app?vid=6ea70d67-ec7b-4741-9252-48c7c0a9c6bd","ios":"levelo://app?vid=6ea70d67-ec7b-4741-9252-48c7c0a9c6bd"},"vehicle_type_id":"4","last_reported":1703624766,"current_range_meters":18800,"station_id":"ce4bh092rcd13ifvqd30","pricing_plan_id":"free"},{"bike_id":"e80f0ed0-6a4e-405a-8da1-244c0c09f819","system_id":"levelo_inurba_marseille","lat":43.312609,"lon":5.401662,"is_reserved":false,"is_disabled":false,"rental_uris":{"android":"levelo://app?vid=e80f0ed0-6a4e-405a-8da1-244c0c09f819","ios":"levelo://app?vid=e80f0ed0-6a4e-405a-8da1-244c0c09f819"},"vehicle_type_id":"4","last_reported":1703624766,"current_range_meters":22000,"station_id":"ce4bh092rcd13ifvqd30","pricing_plan_id":"free"},{"bike_id":"b8ad220d-c11d-4378-a8cf-420aaf9df86f","system_id":"levelo_inurba_marseille","lat":43.337455,"lon":5.37456,"is_reserved":false,"is_disabled":false,"rental_uris":{"android":"levelo://app?vid=b8ad220d-c11d-4378-a8cf-420aaf9df86f","ios":"levelo://app?vid=b8ad220d-c11d-4378-a8cf-420aaf9df86f"},"vehicle_type_id":"4","last_reported":1703624766,"current_range_meters":31200,"station_id":"","pricing_plan_id":"free"},{"bike_id":"ebfe6fb4-dca5-4644-983c-b19c6f78c74e","system_id":"levelo_inurba_marseille","lat":43.312609,"lon":5.401662,"is_reserved":false,"is_disabled":false,"rental_uris":{"android":"levelo://app?vid=ebfe6fb4-dca5-4644-983c-b19c6f78c74e","ios":"levelo://app?vid=ebfe6fb4-dca5-4644-983c-b19c6f78c74e"},"vehicle_type_id":"4","last_reported":1703624766,"current_range_meters":17600,"station_id":"ce4bh092rcd13ifvqd30","pricing_plan_id":"free"},{"bike_id":"690eccad-9069-43a9-a974-0f635be67caa","system_id":"levelo_inurba_marseille","lat":43.309371,"lon":5.401449,"is_reserved":false,"is_disabled":false,"rental_uris":{"android":"levelo://app?vid=690eccad-9069-43a9-a974-0f635be67caa","ios":"levelo://app?vid=690eccad-9069-43a9-a974-0f635be67caa"},"vehicle_type_id":"4","last_reported":1703624766,"current_range_meters":22400,"station_id":"ce4bgvp2rcd13ifvqct0","pricing_plan_id":"free"},{"bike_id":"0b9b8d34-1aff-441e-9561-28bd1154a355","system_id":"levelo_inurba_marseille","lat":43.312609,"lon":5.401662,"is_reserved":false,"is_disabled":false,"rental_uris":{"android":"levelo://app?vid=0b9b8d34-1aff-441e-9561-28bd1154a355","ios":"levelo://app?vid=0b9b8d34-1aff-441e-9561-28bd1154a355"},"vehicle_type_id":"4","last_reported":1703624766,"current_range_meters":20800,"station_id":"ce4bh092rcd13ifvqd30","pricing_plan_id":"free"},{"bike_id":"f9d09c26-936d-4f22-b7c5-2b95cbb8da91","system_id":"levelo_inurba_marseille","lat":43.312609,"lon":5.401662,"is_reserved":false,"is_disabled":false,"rental_uris":{"android":"levelo://app?vid=f9d09c26-936d-4f22-b7c5-2b95cbb8da91","ios":"levelo://app?vid=f9d09c26-936d-4f22-b7c5-2b95cbb8da91"},"vehicle_type_id":"4","last_reported":1703624766,"current_range_meters":15200,"station_id":"ce4bh092rcd13ifvqd30","pricing_plan_id":"free"},{"bike_id":"bfea4373-68d7-4ffc-884c-d7e273317940","system_id":"levelo_inurba_marseille","lat":43.30937,"lon":5.40146,"is_reserved":false,"is_disabled":false,"rental_uris":{"android":"levelo://app?vid=bfea4373-68d7-4ffc-884c-d7e273317940","ios":"levelo://app?vid=bfea4373-68d7-4ffc-884c-d7e273317940"},"vehicle_type_id":"4","last_reported":1703624766,"current_range_meters":22800,"station_id":"ce4bgvp2rcd13ifvqct0","pricing_plan_id":"free"},{"bike_id":"ab67d1f4-6ff9-4d42-828d-b35f207922bf","system_id":"levelo_inurba_marseille","lat":43.309371,"lon":5.401449,"is_reserved":false,"is_disabled":false,"rental_uris":{"android":"levelo://app?vid=ab67d1f4-6ff9-4d42-828d-b35f207922bf","ios":"levelo://app?vid=ab67d1f4-6ff9-4d42-828d-b35f207922bf"},"vehicle_type_id":"4","last_reported":1703624766,"current_range_meters":12800,"station_id":"ce4bgvp2rcd13ifvqct0","pricing_plan_id":"free"},{"bike_id":"bb4dd9e4-f8da-46b7-80c4-0498655b61f0","system_id":"levelo_inurba_marseille","lat":43.33761,"lon":5.37443,"is_reserved":false,"is_disabled":false,"rental_uris":{"android":"levelo://app?vid=bb4dd9e4-f8da-46b7-80c4-0498655b61f0","ios":"levelo://app?vid=bb4dd9e4-f8da-46b7-80c4-0498655b61f0"},"vehicle_type_id":"4","last_reported":1703624766,"current_range_meters":29200,"station_id":"","pricing_plan_id":"free"},{"bike_id":"990249c1-31d5-4323-86fa-d90df9a357b6","system_id":"levelo_inurba_marseille","lat":43.299028,"lon":5.381509,"is_reserved":false,"is_disabled":false,"rental_uris":{"android":"levelo://app?vid=990249c1-31d5-4323-86fa-d90df9a357b6","ios":"levelo://app?vid=990249c1-31d5-4323-86fa-d90df9a357b6"},"vehicle_type_id":"4","last_reported":1703624766,"current_range_meters":26800,"station_id":"ce4bgj12rcd13ifvqbc0","pricing_plan_id":"free"},{"bike_id":"be7018ef-6800-4949-bbff-57f6f7ea3f65","system_id":"levelo_inurba_marseille","lat":43.30642,"lon":5.401031,"is_reserved":false,"is_disabled":false,"rental_uris":{"android":"levelo://app?vid=be7018ef-6800-4949-bbff-57f6f7ea3f65","ios":"levelo://app?vid=be7018ef-6800-4949-bbff-57f6f7ea3f65"},"vehicle_type_id":"4","last_reported":1703624766,"current_range_meters":32000,"station_id":"ce4bh112rcd13ifvqda0","pricing_plan_id":"free"},{"bike_id":"088eacfa-022a-45c3-be1f-39a115813f60","system_id":"levelo_inurba_marseille","lat":43.306412,"lon":5.401035,"is_reserved":false,"is_disabled":false,"rental_uris":{"android":"levelo://app?vid=088eacfa-022a-45c3-be1f-39a115813f60","ios":"levelo://app?vid=088eacfa-022a-45c3-be1f-39a115813f60"},"vehicle_type_id":"4","last_reported":1703624766,"current_range_meters":31200,"station_id":"ce4bh112rcd13ifvqda0","pricing_plan_id":"free"},{"bike_id":"e8333dc6-0a00-4918-9bf4-210e7c543756","system_id":"levelo_inurba_marseille","lat":43.306412,"lon":5.401035,"is_reserved":false,"is_disabled":false,"rental_uris":{"android":"levelo://app?vid=e8333dc6-0a00-4918-9bf4-210e7c543756","ios":"levelo://app?vid=e8333dc6-0a00-4918-9bf4-210e7c543756"},"vehicle_type_id":"4","last_reported":1703624766,"current_range_meters":31200,"station_id":"ce4bh112rcd13ifvqda0","pricing_plan_id":"free"},{"bike_id":"190ce0f2-3c90-4d3d-94a0-eb4e6b273154","system_id":"levelo_inurba_marseille","lat":43.306412,"lon":5.401035,"is_reserved":false,"is_disabled":false,"rental_uris":{"android":"levelo://app?vid=190ce0f2-3c90-4d3d-94a0-eb4e6b273154","ios":"levelo://app?vid=190ce0f2-3c90-4d3d-94a0-eb4e6b273154"},"vehicle_type_id":"4","last_reported":1703624766,"current_range_meters":26000,"station_id":"ce4bh112rcd13ifvqda0","pricing_plan_id":"free"},{"bike_id":"8fbbbffa-7bee-4afd-8bd1-ac1734e61144","system_id":"levelo_inurba_marseille","lat":43.30642,"lon":5.401031,"is_reserved":false,"is_disabled":false,"rental_uris":{"android":"levelo://app?vid=8fbbbffa-7bee-4afd-8bd1-ac1734e61144","ios":"levelo://app?vid=8fbbbffa-7bee-4afd-8bd1-ac1734e61144"},"vehicle_type_id":"4","last_reported":1703624766,"current_range_meters":10400,"station_id":"ce4bh112rcd13ifvqda0","pricing_plan_id":"free"},{"bike_id":"395b4c6b-2846-48f8-adf3-a7b6e4defa20","system_id":"levelo_inurba_marseille","lat":43.28727,"lon":5.36078,"is_reserved":false,"is_disabled":false,"rental_uris":{"android":"levelo://app?vid=395b4c6b-2846-48f8-adf3-a7b6e4defa20","ios":"levelo://app?vid=395b4c6b-2846-48f8-adf3-a7b6e4defa20"},"vehicle_type_id":"4","last_reported":1703624766,"current_range_meters":27600,"station_id":"cki0cbj6b192h4jlfktg","pricing_plan_id":"free"},{"bike_id":"aa743935-8558-45a1-aa4e-06dd50e5fa89","system_id":"levelo_inurba_marseille","lat":43.28727,"lon":5.36078,"is_reserved":false,"is_disabled":false,"rental_uris":{"android":"levelo://app?vid=aa743935-8558-45a1-aa4e-06dd50e5fa89","ios":"levelo://app?vid=aa743935-8558-45a1-aa4e-06dd50e5fa89"},"vehicle_type_id":"4","last_reported":1703624766,"current_range_meters":29200,"station_id":"cki0cbj6b192h4jlfktg","pricing_plan_id":"free"},{"bike_id":"f5430d8c-dbc0-4e31-a003-95dde548e7cc","system_id":"levelo_inurba_marseille","lat":43.298681,"lon":5.397225,"is_reserved":false,"is_disabled":false,"rental_uris":{"android":"levelo://app?vid=f5430d8c-dbc0-4e31-a003-95dde548e7cc","ios":"levelo://app?vid=f5430d8c-dbc0-4e31-a003-95dde548e7cc"},"vehicle_type_id":"4","last_reported":1703624766,"current_range_meters":28800,"station_id":"ce4bh0h2rcd13ifvqd50","pricing_plan_id":"free"},{"bike_id":"91720a86-83e3-4909-9469-824364526d66","system_id":"levelo_inurba_marseille","lat":43.298681,"lon":5.397225,"is_reserved":false,"is_disabled":false,"rental_uris":{"android":"levelo://app?vid=91720a86-83e3-4909-9469-824364526d66","ios":"levelo://app?vid=91720a86-83e3-4909-9469-824364526d66"},"vehicle_type_id":"4","last_reported":1703624766,"current_range_meters":13600,"station_id":"ce4bh0h2rcd13ifvqd50","pricing_plan_id":"free"},{"bike_id":"2c1d02d6-b2e4-4752-a57c-527c51f22245","system_id":"levelo_inurba_marseille","lat":43.28706,"lon":5.3739,"is_reserved":false,"is_disabled":false,"rental_uris":{"android":"levelo://app?vid=2c1d02d6-b2e4-4752-a57c-527c51f22245","ios":"levelo://app?vid=2c1d02d6-b2e4-4752-a57c-527c51f22245"},"vehicle_type_id":"4","last_reported":1703624766,"current_range_meters":25200,"station_id":"ce4bh3p2rcd13ifvqdq0","pricing_plan_id":"free"},{"bike_id":"c9c9bda5-31b6-4788-b7e2-a35eab64ee2b","system_id":"levelo_inurba_marseille","lat":43.28701,"lon":5.37381,"is_reserved":false,"is_disabled":false,"rental_uris":{"android":"levelo://app?vid=c9c9bda5-31b6-4788-b7e2-a35eab64ee2b","ios":"levelo://app?vid=c9c9bda5-31b6-4788-b7e2-a35eab64ee2b"},"vehicle_type_id":"4","last_reported":1703624766,"current_range_meters":24400,"station_id":"ce4bh3p2rcd13ifvqdq0","pricing_plan_id":"free"},{"bike_id":"da6d1014-d40b-41c6-b6be-eaf39045ec85","system_id":"levelo_inurba_marseille","lat":43.298681,"lon":5.397225,"is_reserved":false,"is_disabled":false,"rental_uris":{"android":"levelo://app?vid=da6d1014-d40b-41c6-b6be-eaf39045ec85","ios":"levelo://app?vid=da6d1014-d40b-41c6-b6be-eaf39045ec85"},"vehicle_type_id":"4","last_reported":1703624766,"current_range_meters":18800,"station_id":"ce4bh0h2rcd13ifvqd50","pricing_plan_id":"free"},{"bike_id":"275fdfee-288e-4212-a014-534cf82dd9f7","system_id":"levelo_inurba_marseille","lat":43.298681,"lon":5.397225,"is_reserved":false,"is_disabled":false,"rental_uris":{"android":"levelo://app?vid=275fdfee-288e-4212-a014-534cf82dd9f7","ios":"levelo://app?vid=275fdfee-288e-4212-a014-534cf82dd9f7"},"vehicle_type_id":"4","last_reported":1703624766,"current_range_meters":14400,"station_id":"ce4bh0h2rcd13ifvqd50","pricing_plan_id":"free"},{"bike_id":"b41e0663-479e-4700-bf61-c7a7db7233a4","system_id":"levelo_inurba_marseille","lat":43.298681,"lon":5.397225,"is_reserved":false,"is_disabled":false,"rental_uris":{"android":"levelo://app?vid=b41e0663-479e-4700-bf61-c7a7db7233a4","ios":"levelo://app?vid=b41e0663-479e-4700-bf61-c7a7db7233a4"},"vehicle_type_id":"4","last_reported":1703624766,"current_range_meters":25200,"station_id":"ce4bh0h2rcd13ifvqd50","pricing_plan_id":"free"},{"bike_id":"1ab4fa49-483c-469f-9950-c0384b039391","system_id":"levelo_inurba_marseille","lat":43.302759,"lon":5.400793,"is_reserved":false,"is_disabled":false,"rental_uris":{"android":"levelo://app?vid=1ab4fa49-483c-469f-9950-c0384b039391","ios":"levelo://app?vid=1ab4fa49-483c-469f-9950-c0384b039391"},"vehicle_type_id":"4","last_reported":1703624766,"current_range_meters":29200,"station_id":"ce4bgvh2rcd13ifvqcs0","pricing_plan_id":"free"},{"bike_id":"a01141fb-6390-4660-b19d-ea3abbe2ea9e","system_id":"levelo_inurba_marseille","lat":43.289307,"lon":5.38406,"is_reserved":false,"is_disabled":false,"rental_uris":{"android":"levelo://app?vid=a01141fb-6390-4660-b19d-ea3abbe2ea9e","ios":"levelo://app?vid=a01141fb-6390-4660-b19d-ea3abbe2ea9e"},"vehicle_type_id":"4","last_reported":1703624766,"current_range_meters":24800,"station_id":"ce4bh612rcd13ifvqe6g","pricing_plan_id":"free"},{"bike_id":"9486134a-8d8e-4019-b85a-607fbb40525e","system_id":"levelo_inurba_marseille","lat":43.290345,"lon":5.38646,"is_reserved":false,"is_disabled":false,"rental_uris":{"android":"levelo://app?vid=9486134a-8d8e-4019-b85a-607fbb40525e","ios":"levelo://app?vid=9486134a-8d8e-4019-b85a-607fbb40525e"},"vehicle_type_id":"4","last_reported":1703624766,"current_range_meters":27200,"station_id":"ce4bh4p2rcd13ifvqe0g","pricing_plan_id":"free"},{"bike_id":"12703eaf-0a70-4a02-ab86-0f50d41f1df9","system_id":"levelo_inurba_marseille","lat":43.29508,"lon":5.39419,"is_reserved":false,"is_disabled":false,"rental_uris":{"android":"levelo://app?vid=12703eaf-0a70-4a02-ab86-0f50d41f1df9","ios":"levelo://app?vid=12703eaf-0a70-4a02-ab86-0f50d41f1df9"},"vehicle_type_id":"4","last_reported":1703624766,"current_range_meters":14400,"station_id":"ce4bh292rcd13ifvqdf0","pricing_plan_id":"free"},{"bike_id":"24d1fe63-dc56-4b92-97ac-6dd140861387","system_id":"levelo_inurba_marseille","lat":43.289307,"lon":5.38406,"is_reserved":false,"is_disabled":false,"rental_uris":{"android":"levelo://app?vid=24d1fe63-dc56-4b92-97ac-6dd140861387","ios":"levelo://app?vid=24d1fe63-dc56-4b92-97ac-6dd140861387"},"vehicle_type_id":"4","last_reported":1703624766,"current_range_meters":28800,"station_id":"ce4bh612rcd13ifvqe6g","pricing_plan_id":"free"},{"bike_id":"a58925da-6d6d-44bc-8238-945d6019fcc5","system_id":"levelo_inurba_marseille","lat":43.302759,"lon":5.400793,"is_reserved":false,"is_disabled":false,"rental_uris":{"android":"levelo://app?vid=a58925da-6d6d-44bc-8238-945d6019fcc5","ios":"levelo://app?vid=a58925da-6d6d-44bc-8238-945d6019fcc5"},"vehicle_type_id":"4","last_reported":1703624766,"current_range_meters":29600,"station_id":"ce4bgvh2rcd13ifvqcs0","pricing_plan_id":"free"},{"bike_id":"333b5726-0773-495a-9bd8-4b9bd3346647","system_id":"levelo_inurba_marseille","lat":43.302759,"lon":5.400793,"is_reserved":false,"is_disabled":false,"rental_uris":{"android":"levelo://app?vid=333b5726-0773-495a-9bd8-4b9bd3346647","ios":"levelo://app?vid=333b5726-0773-495a-9bd8-4b9bd3346647"},"vehicle_type_id":"4","last_reported":1703624766,"current_range_meters":28400,"station_id":"ce4bgvh2rcd13ifvqcs0","pricing_plan_id":"free"},{"bike_id":"1bafe52b-de01-4b2b-ba84-f729c4d660ef","system_id":"levelo_inurba_marseille","lat":43.286039,"lon":5.370679,"is_reserved":false,"is_disabled":false,"rental_uris":{"android":"levelo://app?vid=1bafe52b-de01-4b2b-ba84-f729c4d660ef","ios":"levelo://app?vid=1bafe52b-de01-4b2b-ba84-f729c4d660ef"},"vehicle_type_id":"4","last_reported":1703624766,"current_range_meters":17200,"station_id":"ce4bht12rcd13ifvqi60","pricing_plan_id":"free"},{"bike_id":"7260845c-a0df-4ce3-b635-e91590bb4f9a","system_id":"levelo_inurba_marseille","lat":43.286078,"lon":5.370683,"is_reserved":false,"is_disabled":false,"rental_uris":{"android":"levelo://app?vid=7260845c-a0df-4ce3-b635-e91590bb4f9a","ios":"levelo://app?vid=7260845c-a0df-4ce3-b635-e91590bb4f9a"},"vehicle_type_id":"4","last_reported":1703624766,"current_range_meters":18800,"station_id":"ce4bht12rcd13ifvqi60","pricing_plan_id":"free"},{"bike_id":"e42f2d48-1eac-4ea9-97da-9a200b97c493","system_id":"levelo_inurba_marseille","lat":43.286036,"lon":5.370649,"is_reserved":false,"is_disabled":false,"rental_uris":{"android":"levelo://app?vid=e42f2d48-1eac-4ea9-97da-9a200b97c493","ios":"levelo://app?vid=e42f2d48-1eac-4ea9-97da-9a200b97c493"},"vehicle_type_id":"4","last_reported":1703624766,"current_range_meters":22800,"station_id":"ce4bht12rcd13ifvqi60","pricing_plan_id":"free"},{"bike_id":"7ea986fb-6672-45c4-84dd-e98b256020a6","system_id":"levelo_inurba_marseille","lat":43.287184,"lon":5.37937,"is_reserved":false,"is_disabled":false,"rental_uris":{"android":"levelo://app?vid=7ea986fb-6672-45c4-84dd-e98b256020a6","ios":"levelo://app?vid=7ea986fb-6672-45c4-84dd-e98b256020a6"},"vehicle_type_id":"4","last_reported":1703624766,"current_range_meters":21200,"station_id":"ce4bh9p2rcd13ifvqec0","pricing_plan_id":"free"},{"bike_id":"aee3dddd-7cae-4b2c-a7c5-555bcdd84dde","system_id":"levelo_inurba_marseille","lat":43.287185,"lon":5.379373,"is_reserved":false,"is_disabled":false,"rental_uris":{"android":"levelo://app?vid=aee3dddd-7cae-4b2c-a7c5-555bcdd84dde","ios":"levelo://app?vid=aee3dddd-7cae-4b2c-a7c5-555bcdd84dde"},"vehicle_type_id":"4","last_reported":1703624766,"current_range_meters":18400,"station_id":"ce4bh9p2rcd13ifvqec0","pricing_plan_id":"free"},{"bike_id":"47b716f5-8e75-4c4d-ad26-d15ea90f5f09","system_id":"levelo_inurba_marseille","lat":43.287185,"lon":5.379373,"is_reserved":false,"is_disabled":false,"rental_uris":{"android":"levelo://app?vid=47b716f5-8e75-4c4d-ad26-d15ea90f5f09","ios":"levelo://app?vid=47b716f5-8e75-4c4d-ad26-d15ea90f5f09"},"vehicle_type_id":"4","last_reported":1703624766,"current_range_meters":24000,"station_id":"ce4bh9p2rcd13ifvqec0","pricing_plan_id":"free"},{"bike_id":"83142d7a-eeb3-4c4d-a5cc-7db26924a151","system_id":"levelo_inurba_marseille","lat":43.316828,"lon":5.404723,"is_reserved":false,"is_disabled":false,"rental_uris":{"android":"levelo://app?vid=83142d7a-eeb3-4c4d-a5cc-7db26924a151","ios":"levelo://app?vid=83142d7a-eeb3-4c4d-a5cc-7db26924a151"},"vehicle_type_id":"4","last_reported":1703624766,"current_range_meters":11600,"station_id":"ce4bh012rcd13ifvqd00","pricing_plan_id":"free"},{"bike_id":"5e1bdd99-1080-461e-96f0-736c094f9758","system_id":"levelo_inurba_marseille","lat":43.29197,"lon":5.39323,"is_reserved":false,"is_disabled":false,"rental_uris":{"android":"levelo://app?vid=5e1bdd99-1080-461e-96f0-736c094f9758","ios":"levelo://app?vid=5e1bdd99-1080-461e-96f0-736c094f9758"},"vehicle_type_id":"4","last_reported":1703624766,"current_range_meters":5200,"station_id":"ce4bh192rcd13ifvqdd0","pricing_plan_id":"free"},{"bike_id":"fa7570f2-256e-4948-b3fc-55402630ffd7","system_id":"levelo_inurba_marseille","lat":43.291994,"lon":5.392907,"is_reserved":false,"is_disabled":false,"rental_uris":{"android":"levelo://app?vid=fa7570f2-256e-4948-b3fc-55402630ffd7","ios":"levelo://app?vid=fa7570f2-256e-4948-b3fc-55402630ffd7"},"vehicle_type_id":"4","last_reported":1703624766,"current_range_meters":0,"station_id":"ce4bh192rcd13ifvqdd0","pricing_plan_id":"free"},{"bike_id":"6eaa031f-1c12-4e13-8c29-868e6eafb553","system_id":"levelo_inurba_marseille","lat":43.29196,"lon":5.393283,"is_reserved":false,"is_disabled":false,"rental_uris":{"android":"levelo://app?vid=6eaa031f-1c12-4e13-8c29-868e6eafb553","ios":"levelo://app?vid=6eaa031f-1c12-4e13-8c29-868e6eafb553"},"vehicle_type_id":"4","last_reported":1703624766,"current_range_meters":26800,"station_id":"ce4bh192rcd13ifvqdd0","pricing_plan_id":"free"},{"bike_id":"bf5587c6-0562-49c6-a59c-ea8ae5c66a61","system_id":"levelo_inurba_marseille","lat":43.29198,"lon":5.39339,"is_reserved":false,"is_disabled":false,"rental_uris":{"android":"levelo://app?vid=bf5587c6-0562-49c6-a59c-ea8ae5c66a61","ios":"levelo://app?vid=bf5587c6-0562-49c6-a59c-ea8ae5c66a61"},"vehicle_type_id":"4","last_reported":1703624766,"current_range_meters":7600,"station_id":"ce4bh192rcd13ifvqdd0","pricing_plan_id":"free"},{"bike_id":"e2adfa7c-882e-48a1-9ee4-b36e6186ebbf","system_id":"levelo_inurba_marseille","lat":43.330912,"lon":5.396935,"is_reserved":false,"is_disabled":false,"rental_uris":{"android":"levelo://app?vid=e2adfa7c-882e-48a1-9ee4-b36e6186ebbf","ios":"levelo://app?vid=e2adfa7c-882e-48a1-9ee4-b36e6186ebbf"},"vehicle_type_id":"4","last_reported":1703624766,"current_range_meters":1600,"station_id":"","pricing_plan_id":"free"},{"bike_id":"9ce87c1a-4838-42e1-9d17-c131e2149896","system_id":"levelo_inurba_marseille","lat":43.284538,"lon":5.358657,"is_reserved":false,"is_disabled":false,"rental_uris":{"android":"levelo://app?vid=9ce87c1a-4838-42e1-9d17-c131e2149896","ios":"levelo://app?vid=9ce87c1a-4838-42e1-9d17-c131e2149896"},"vehicle_type_id":"4","last_reported":1703624766,"current_range_meters":25200,"station_id":"ce4bhah2rcd13ifvqei0","pricing_plan_id":"free"},{"bike_id":"a2f6f781-7f40-4eb5-a11d-1f7c6a276d53","system_id":"levelo_inurba_marseille","lat":43.284538,"lon":5.358657,"is_reserved":false,"is_disabled":false,"rental_uris":{"android":"levelo://app?vid=a2f6f781-7f40-4eb5-a11d-1f7c6a276d53","ios":"levelo://app?vid=a2f6f781-7f40-4eb5-a11d-1f7c6a276d53"},"vehicle_type_id":"4","last_reported":1703624766,"current_range_meters":26000,"station_id":"ce4bhah2rcd13ifvqei0","pricing_plan_id":"free"},{"bike_id":"ee34b0cb-3b36-4a75-b0a7-d9f1e13f004d","system_id":"levelo_inurba_marseille","lat":43.284575,"lon":5.358925,"is_reserved":false,"is_disabled":false,"rental_uris":{"android":"levelo://app?vid=ee34b0cb-3b36-4a75-b0a7-d9f1e13f004d","ios":"levelo://app?vid=ee34b0cb-3b36-4a75-b0a7-d9f1e13f004d"},"vehicle_type_id":"4","last_reported":1703624766,"current_range_meters":7600,"station_id":"ce4bhah2rcd13ifvqei0","pricing_plan_id":"free"},{"bike_id":"ec5235d9-7d6f-4082-8172-2e3bfe7b18e3","system_id":"levelo_inurba_marseille","lat":43.284538,"lon":5.358657,"is_reserved":false,"is_disabled":false,"rental_uris":{"android":"levelo://app?vid=ec5235d9-7d6f-4082-8172-2e3bfe7b18e3","ios":"levelo://app?vid=ec5235d9-7d6f-4082-8172-2e3bfe7b18e3"},"vehicle_type_id":"4","last_reported":1703624766,"current_range_meters":10800,"station_id":"ce4bhah2rcd13ifvqei0","pricing_plan_id":"free"},{"bike_id":"4cd86e13-8bfc-45f2-9ab8-42e6de13b38c","system_id":"levelo_inurba_marseille","lat":43.294314,"lon":5.397498,"is_reserved":false,"is_disabled":false,"rental_uris":{"android":"levelo://app?vid=4cd86e13-8bfc-45f2-9ab8-42e6de13b38c","ios":"levelo://app?vid=4cd86e13-8bfc-45f2-9ab8-42e6de13b38c"},"vehicle_type_id":"4","last_reported":1703624766,"current_range_meters":23600,"station_id":"ce4bh3h2rcd13ifvqdo0","pricing_plan_id":"free"},{"bike_id":"3ab71d57-f31d-4921-8d19-d8aa06494a99","system_id":"levelo_inurba_marseille","lat":43.284543,"lon":5.35889,"is_reserved":false,"is_disabled":false,"rental_uris":{"android":"levelo://app?vid=3ab71d57-f31d-4921-8d19-d8aa06494a99","ios":"levelo://app?vid=3ab71d57-f31d-4921-8d19-d8aa06494a99"},"vehicle_type_id":"4","last_reported":1703624766,"current_range_meters":11600,"station_id":"ce4bhah2rcd13ifvqei0","pricing_plan_id":"free"},{"bike_id":"af5398c9-a830-4575-9907-dc9ba8c9dda4","system_id":"levelo_inurba_marseille","lat":43.294314,"lon":5.397498,"is_reserved":false,"is_disabled":false,"rental_uris":{"android":"levelo://app?vid=af5398c9-a830-4575-9907-dc9ba8c9dda4","ios":"levelo://app?vid=af5398c9-a830-4575-9907-dc9ba8c9dda4"},"vehicle_type_id":"4","last_reported":1703624766,"current_range_meters":28000,"station_id":"ce4bh3h2rcd13ifvqdo0","pricing_plan_id":"free"},{"bike_id":"c86c4793-eed0-4e4e-bbbc-20b81090da54","system_id":"levelo_inurba_marseille","lat":43.294314,"lon":5.397498,"is_reserved":false,"is_disabled":false,"rental_uris":{"android":"levelo://app?vid=c86c4793-eed0-4e4e-bbbc-20b81090da54","ios":"levelo://app?vid=c86c4793-eed0-4e4e-bbbc-20b81090da54"},"vehicle_type_id":"4","last_reported":1703624766,"current_range_meters":26400,"station_id":"ce4bh3h2rcd13ifvqdo0","pricing_plan_id":"free"},{"bike_id":"51e17138-6637-4300-b9a2-aa8c98496572","system_id":"levelo_inurba_marseille","lat":43.285856,"lon":5.350771,"is_reserved":false,"is_disabled":false,"rental_uris":{"android":"levelo://app?vid=51e17138-6637-4300-b9a2-aa8c98496572","ios":"levelo://app?vid=51e17138-6637-4300-b9a2-aa8c98496572"},"vehicle_type_id":"4","last_reported":1703624766,"current_range_meters":21600,"station_id":"ce4bhch2rcd13ifvqeug","pricing_plan_id":"free"},{"bike_id":"16b3cce2-cf5a-4dee-a946-e4486b8806b1","system_id":"levelo_inurba_marseille","lat":43.283998,"lon":5.375062,"is_reserved":false,"is_disabled":false,"rental_uris":{"android":"levelo://app?vid=16b3cce2-cf5a-4dee-a946-e4486b8806b1","ios":"levelo://app?vid=16b3cce2-cf5a-4dee-a946-e4486b8806b1"},"vehicle_type_id":"4","last_reported":1703624766,"current_range_meters":21200,"station_id":"ce4bh412rcd13ifvqds0","pricing_plan_id":"free"},{"bike_id":"96b2ffa9-ebc1-4a7c-8400-482a164dc524","system_id":"levelo_inurba_marseille","lat":43.283998,"lon":5.375062,"is_reserved":false,"is_disabled":false,"rental_uris":{"android":"levelo://app?vid=96b2ffa9-ebc1-4a7c-8400-482a164dc524","ios":"levelo://app?vid=96b2ffa9-ebc1-4a7c-8400-482a164dc524"},"vehicle_type_id":"4","last_reported":1703624766,"current_range_meters":0,"station_id":"ce4bh412rcd13ifvqds0","pricing_plan_id":"free"},{"bike_id":"b3c74a90-056c-47f9-bf2e-21253b84e506","system_id":"levelo_inurba_marseille","lat":43.283998,"lon":5.375062,"is_reserved":false,"is_disabled":false,"rental_uris":{"android":"levelo://app?vid=b3c74a90-056c-47f9-bf2e-21253b84e506","ios":"levelo://app?vid=b3c74a90-056c-47f9-bf2e-21253b84e506"},"vehicle_type_id":"4","last_reported":1703624766,"current_range_meters":22400,"station_id":"ce4bh412rcd13ifvqds0","pricing_plan_id":"free"},{"bike_id":"9fc83a59-6d18-4958-b15e-f5582f950c8d","system_id":"levelo_inurba_marseille","lat":43.283998,"lon":5.375062,"is_reserved":false,"is_disabled":false,"rental_uris":{"android":"levelo://app?vid=9fc83a59-6d18-4958-b15e-f5582f950c8d","ios":"levelo://app?vid=9fc83a59-6d18-4958-b15e-f5582f950c8d"},"vehicle_type_id":"4","last_reported":1703624766,"current_range_meters":24000,"station_id":"ce4bh412rcd13ifvqds0","pricing_plan_id":"free"},{"bike_id":"7b3b3815-9f14-4d83-aa9b-dba5ead3db3b","system_id":"levelo_inurba_marseille","lat":43.286595,"lon":5.386795,"is_reserved":false,"is_disabled":false,"rental_uris":{"android":"levelo://app?vid=7b3b3815-9f14-4d83-aa9b-dba5ead3db3b","ios":"levelo://app?vid=7b3b3815-9f14-4d83-aa9b-dba5ead3db3b"},"vehicle_type_id":"4","last_reported":1703624766,"current_range_meters":22800,"station_id":"ce4bh492rcd13ifvqdug","pricing_plan_id":"free"},{"bike_id":"769019c4-eb9e-4a31-95b4-3ef192cc753f","system_id":"levelo_inurba_marseille","lat":43.28741,"lon":5.38986,"is_reserved":false,"is_disabled":false,"rental_uris":{"android":"levelo://app?vid=769019c4-eb9e-4a31-95b4-3ef192cc753f","ios":"levelo://app?vid=769019c4-eb9e-4a31-95b4-3ef192cc753f"},"vehicle_type_id":"4","last_reported":1703624766,"current_range_meters":5600,"station_id":"","pricing_plan_id":"free"},{"bike_id":"e107b5dc-24d4-4e5d-af4c-db0591488b7e","system_id":"levelo_inurba_marseille","lat":43.284787,"lon":5.384116,"is_reserved":false,"is_disabled":false,"rental_uris":{"android":"levelo://app?vid=e107b5dc-24d4-4e5d-af4c-db0591488b7e","ios":"levelo://app?vid=e107b5dc-24d4-4e5d-af4c-db0591488b7e"},"vehicle_type_id":"4","last_reported":1703624766,"current_range_meters":24000,"station_id":"ce4bh512rcd13ifvqe3g","pricing_plan_id":"free"},{"bike_id":"6785c669-7e9f-4db7-a773-6efaf3dc4d52","system_id":"levelo_inurba_marseille","lat":43.284793,"lon":5.384119,"is_reserved":false,"is_disabled":false,"rental_uris":{"android":"levelo://app?vid=6785c669-7e9f-4db7-a773-6efaf3dc4d52","ios":"levelo://app?vid=6785c669-7e9f-4db7-a773-6efaf3dc4d52"},"vehicle_type_id":"4","last_reported":1703624766,"current_range_meters":25200,"station_id":"ce4bh512rcd13ifvqe3g","pricing_plan_id":"free"},{"bike_id":"eeeeebb2-8d21-4cd5-bcf3-8046880814cd","system_id":"levelo_inurba_marseille","lat":43.323464,"lon":5.406297,"is_reserved":false,"is_disabled":false,"rental_uris":{"android":"levelo://app?vid=eeeeebb2-8d21-4cd5-bcf3-8046880814cd","ios":"levelo://app?vid=eeeeebb2-8d21-4cd5-bcf3-8046880814cd"},"vehicle_type_id":"4","last_reported":1703624766,"current_range_meters":30000,"station_id":"ce4bhq92rcd13ifvqhjg","pricing_plan_id":"free"},{"bike_id":"d6139828-260f-4232-b2f0-da8e95bc6f94","system_id":"levelo_inurba_marseille","lat":43.284787,"lon":5.384116,"is_reserved":false,"is_disabled":false,"rental_uris":{"android":"levelo://app?vid=d6139828-260f-4232-b2f0-da8e95bc6f94","ios":"levelo://app?vid=d6139828-260f-4232-b2f0-da8e95bc6f94"},"vehicle_type_id":"4","last_reported":1703624766,"current_range_meters":20400,"station_id":"ce4bh512rcd13ifvqe3g","pricing_plan_id":"free"},{"bike_id":"b122a54b-9bb8-4a7b-8c92-8097a869d9b1","system_id":"levelo_inurba_marseille","lat":43.288501,"lon":5.393087,"is_reserved":false,"is_disabled":false,"rental_uris":{"android":"levelo://app?vid=b122a54b-9bb8-4a7b-8c92-8097a869d9b1","ios":"levelo://app?vid=b122a54b-9bb8-4a7b-8c92-8097a869d9b1"},"vehicle_type_id":"4","last_reported":1703624766,"current_range_meters":27600,"station_id":"ce4bh2p2rcd13ifvqdi0","pricing_plan_id":"free"},{"bike_id":"be22db94-b5fb-453b-8390-fde104cd249a","system_id":"levelo_inurba_marseille","lat":43.288501,"lon":5.393087,"is_reserved":false,"is_disabled":false,"rental_uris":{"android":"levelo://app?vid=be22db94-b5fb-453b-8390-fde104cd249a","ios":"levelo://app?vid=be22db94-b5fb-453b-8390-fde104cd249a"},"vehicle_type_id":"4","last_reported":1703624766,"current_range_meters":21200,"station_id":"ce4bh2p2rcd13ifvqdi0","pricing_plan_id":"free"},{"bike_id":"4476b173-b352-4806-b932-9d2d5df4c516","system_id":"levelo_inurba_marseille","lat":43.288501,"lon":5.393087,"is_reserved":false,"is_disabled":false,"rental_uris":{"android":"levelo://app?vid=4476b173-b352-4806-b932-9d2d5df4c516","ios":"levelo://app?vid=4476b173-b352-4806-b932-9d2d5df4c516"},"vehicle_type_id":"4","last_reported":1703624766,"current_range_meters":6400,"station_id":"ce4bh2p2rcd13ifvqdi0","pricing_plan_id":"free"},{"bike_id":"e0b68692-8b72-46fb-ac41-394761fb3425","system_id":"levelo_inurba_marseille","lat":43.283494,"lon":5.380945,"is_reserved":false,"is_disabled":false,"rental_uris":{"android":"levelo://app?vid=e0b68692-8b72-46fb-ac41-394761fb3425","ios":"levelo://app?vid=e0b68692-8b72-46fb-ac41-394761fb3425"},"vehicle_type_id":"4","last_reported":1703624766,"current_range_meters":31600,"station_id":"ce4bh412rcd13ifvqdr0","pricing_plan_id":"free"},{"bike_id":"8902e230-9f4b-427f-9057-c3638d029476","system_id":"levelo_inurba_marseille","lat":43.283494,"lon":5.380945,"is_reserved":false,"is_disabled":false,"rental_uris":{"android":"levelo://app?vid=8902e230-9f4b-427f-9057-c3638d029476","ios":"levelo://app?vid=8902e230-9f4b-427f-9057-c3638d029476"},"vehicle_type_id":"4","last_reported":1703624766,"current_range_meters":23600,"station_id":"ce4bh412rcd13ifvqdr0","pricing_plan_id":"free"},{"bike_id":"f13ec3b6-4233-4299-8051-736bcb56f9bc","system_id":"levelo_inurba_marseille","lat":43.283498,"lon":5.380948,"is_reserved":false,"is_disabled":false,"rental_uris":{"android":"levelo://app?vid=f13ec3b6-4233-4299-8051-736bcb56f9bc","ios":"levelo://app?vid=f13ec3b6-4233-4299-8051-736bcb56f9bc"},"vehicle_type_id":"4","last_reported":1703624766,"current_range_meters":16000,"station_id":"ce4bh412rcd13ifvqdr0","pricing_plan_id":"free"},{"bike_id":"bd70cfc0-cbcf-4770-8b6c-efb9dbd68efa","system_id":"levelo_inurba_marseille","lat":43.283498,"lon":5.380948,"is_reserved":false,"is_disabled":false,"rental_uris":{"android":"levelo://app?vid=bd70cfc0-cbcf-4770-8b6c-efb9dbd68efa","ios":"levelo://app?vid=bd70cfc0-cbcf-4770-8b6c-efb9dbd68efa"},"vehicle_type_id":"4","last_reported":1703624766,"current_range_meters":23200,"station_id":"ce4bh412rcd13ifvqdr0","pricing_plan_id":"free"},{"bike_id":"ddedd4db-7bba-4397-8ccb-787f9d9ddabe","system_id":"levelo_inurba_marseille","lat":43.283498,"lon":5.380948,"is_reserved":false,"is_disabled":false,"rental_uris":{"android":"levelo://app?vid=ddedd4db-7bba-4397-8ccb-787f9d9ddabe","ios":"levelo://app?vid=ddedd4db-7bba-4397-8ccb-787f9d9ddabe"},"vehicle_type_id":"4","last_reported":1703624766,"current_range_meters":14400,"station_id":"ce4bh412rcd13ifvqdr0","pricing_plan_id":"free"},{"bike_id":"8752f406-7ee5-452b-aa39-8aaf354476cc","system_id":"levelo_inurba_marseille","lat":43.283498,"lon":5.380948,"is_reserved":false,"is_disabled":false,"rental_uris":{"android":"levelo://app?vid=8752f406-7ee5-452b-aa39-8aaf354476cc","ios":"levelo://app?vid=8752f406-7ee5-452b-aa39-8aaf354476cc"},"vehicle_type_id":"4","last_reported":1703624766,"current_range_meters":16000,"station_id":"ce4bh412rcd13ifvqdr0","pricing_plan_id":"free"},{"bike_id":"c17cf6bd-767b-4bd0-8d7e-872b5c64c3a6","system_id":"levelo_inurba_marseille","lat":43.283498,"lon":5.380948,"is_reserved":false,"is_disabled":false,"rental_uris":{"android":"levelo://app?vid=c17cf6bd-767b-4bd0-8d7e-872b5c64c3a6","ios":"levelo://app?vid=c17cf6bd-767b-4bd0-8d7e-872b5c64c3a6"},"vehicle_type_id":"4","last_reported":1703624766,"current_range_meters":17600,"station_id":"ce4bh412rcd13ifvqdr0","pricing_plan_id":"free"},{"bike_id":"e485450b-2736-4f4c-b94b-0da5a69b88aa","system_id":"levelo_inurba_marseille","lat":43.33385,"lon":5.39822,"is_reserved":false,"is_disabled":false,"rental_uris":{"android":"levelo://app?vid=e485450b-2736-4f4c-b94b-0da5a69b88aa","ios":"levelo://app?vid=e485450b-2736-4f4c-b94b-0da5a69b88aa"},"vehicle_type_id":"4","last_reported":1703624766,"current_range_meters":21200,"station_id":"","pricing_plan_id":"free"},{"bike_id":"96f08949-9741-46b9-b3c5-0056fdb3c07d","system_id":"levelo_inurba_marseille","lat":43.283494,"lon":5.380945,"is_reserved":false,"is_disabled":false,"rental_uris":{"android":"levelo://app?vid=96f08949-9741-46b9-b3c5-0056fdb3c07d","ios":"levelo://app?vid=96f08949-9741-46b9-b3c5-0056fdb3c07d"},"vehicle_type_id":"4","last_reported":1703624766,"current_range_meters":17600,"station_id":"ce4bh412rcd13ifvqdr0","pricing_plan_id":"free"},{"bike_id":"af981f2c-aaee-4441-8c42-99a12e0aa8fc","system_id":"levelo_inurba_marseille","lat":43.289363,"lon":5.396322,"is_reserved":false,"is_disabled":false,"rental_uris":{"android":"levelo://app?vid=af981f2c-aaee-4441-8c42-99a12e0aa8fc","ios":"levelo://app?vid=af981f2c-aaee-4441-8c42-99a12e0aa8fc"},"vehicle_type_id":"4","last_reported":1703624766,"current_range_meters":27600,"station_id":"ce4bh3h2rcd13ifvqdn0","pricing_plan_id":"free"},{"bike_id":"465ea278-bc3d-478d-a9fb-62e82d4632b0","system_id":"levelo_inurba_marseille","lat":43.292724,"lon":5.401131,"is_reserved":false,"is_disabled":false,"rental_uris":{"android":"levelo://app?vid=465ea278-bc3d-478d-a9fb-62e82d4632b0","ios":"levelo://app?vid=465ea278-bc3d-478d-a9fb-62e82d4632b0"},"vehicle_type_id":"4","last_reported":1703624766,"current_range_meters":16400,"station_id":"ce4bh312rcd13ifvqdk0","pricing_plan_id":"free"},{"bike_id":"05e21038-43d4-4321-9df9-18e24c1eb79d","system_id":"levelo_inurba_marseille","lat":43.282744,"lon":5.350533,"is_reserved":false,"is_disabled":false,"rental_uris":{"android":"levelo://app?vid=05e21038-43d4-4321-9df9-18e24c1eb79d","ios":"levelo://app?vid=05e21038-43d4-4321-9df9-18e24c1eb79d"},"vehicle_type_id":"4","last_reported":1703624766,"current_range_meters":16000,"station_id":"ce4bhbp2rcd13ifvqerg","pricing_plan_id":"free"},{"bike_id":"033bfc72-c744-4a2d-84d9-2cad9455fece","system_id":"levelo_inurba_marseille","lat":43.28371,"lon":5.38629,"is_reserved":false,"is_disabled":false,"rental_uris":{"android":"levelo://app?vid=033bfc72-c744-4a2d-84d9-2cad9455fece","ios":"levelo://app?vid=033bfc72-c744-4a2d-84d9-2cad9455fece"},"vehicle_type_id":"4","last_reported":1703624766,"current_range_meters":21200,"station_id":"ce4bh492rcd13ifvqdvg","pricing_plan_id":"free"},{"bike_id":"787fc710-c520-40d9-ae3d-3491dbbb263b","system_id":"levelo_inurba_marseille","lat":43.283502,"lon":5.386471,"is_reserved":false,"is_disabled":false,"rental_uris":{"android":"levelo://app?vid=787fc710-c520-40d9-ae3d-3491dbbb263b","ios":"levelo://app?vid=787fc710-c520-40d9-ae3d-3491dbbb263b"},"vehicle_type_id":"4","last_reported":1703624766,"current_range_meters":19200,"station_id":"ce4bh492rcd13ifvqdvg","pricing_plan_id":"free"},{"bike_id":"ccc034cc-109e-4698-90c9-6cf535e482fc","system_id":"levelo_inurba_marseille","lat":43.283502,"lon":5.386471,"is_reserved":false,"is_disabled":false,"rental_uris":{"android":"levelo://app?vid=ccc034cc-109e-4698-90c9-6cf535e482fc","ios":"levelo://app?vid=ccc034cc-109e-4698-90c9-6cf535e482fc"},"vehicle_type_id":"4","last_reported":1703624766,"current_range_meters":15600,"station_id":"ce4bh492rcd13ifvqdvg","pricing_plan_id":"free"},{"bike_id":"ba3e5f0f-ed4a-48cc-8a92-f35f9f83ccbc","system_id":"levelo_inurba_marseille","lat":43.283502,"lon":5.386471,"is_reserved":false,"is_disabled":false,"rental_uris":{"android":"levelo://app?vid=ba3e5f0f-ed4a-48cc-8a92-f35f9f83ccbc","ios":"levelo://app?vid=ba3e5f0f-ed4a-48cc-8a92-f35f9f83ccbc"},"vehicle_type_id":"4","last_reported":1703624766,"current_range_meters":16400,"station_id":"ce4bh492rcd13ifvqdvg","pricing_plan_id":"free"},{"bike_id":"d32da828-8310-4c2f-9593-fdcc8392e945","system_id":"levelo_inurba_marseille","lat":43.283502,"lon":5.386471,"is_reserved":false,"is_disabled":false,"rental_uris":{"android":"levelo://app?vid=d32da828-8310-4c2f-9593-fdcc8392e945","ios":"levelo://app?vid=d32da828-8310-4c2f-9593-fdcc8392e945"},"vehicle_type_id":"4","last_reported":1703624766,"current_range_meters":23600,"station_id":"ce4bh492rcd13ifvqdvg","pricing_plan_id":"free"},{"bike_id":"1a95d4de-1fa3-4c2b-8aed-0dc809aa8770","system_id":"levelo_inurba_marseille","lat":43.28039,"lon":5.369297,"is_reserved":false,"is_disabled":false,"rental_uris":{"android":"levelo://app?vid=1a95d4de-1fa3-4c2b-8aed-0dc809aa8770","ios":"levelo://app?vid=1a95d4de-1fa3-4c2b-8aed-0dc809aa8770"},"vehicle_type_id":"4","last_reported":1703624766,"current_range_meters":20800,"station_id":"ce4bha12rcd13ifvqef0","pricing_plan_id":"free"},{"bike_id":"337d00b3-b0fc-4383-9cf2-2d7637365eb9","system_id":"levelo_inurba_marseille","lat":43.283502,"lon":5.386471,"is_reserved":false,"is_disabled":false,"rental_uris":{"android":"levelo://app?vid=337d00b3-b0fc-4383-9cf2-2d7637365eb9","ios":"levelo://app?vid=337d00b3-b0fc-4383-9cf2-2d7637365eb9"},"vehicle_type_id":"4","last_reported":1703624766,"current_range_meters":24400,"station_id":"ce4bh492rcd13ifvqdvg","pricing_plan_id":"free"},{"bike_id":"24e2c243-d810-4cb0-bf16-4757ab160c8b","system_id":"levelo_inurba_marseille","lat":43.28039,"lon":5.369297,"is_reserved":false,"is_disabled":false,"rental_uris":{"android":"levelo://app?vid=24e2c243-d810-4cb0-bf16-4757ab160c8b","ios":"levelo://app?vid=24e2c243-d810-4cb0-bf16-4757ab160c8b"},"vehicle_type_id":"4","last_reported":1703624766,"current_range_meters":32000,"station_id":"ce4bha12rcd13ifvqef0","pricing_plan_id":"free"},{"bike_id":"21cdddc6-61d7-4c4d-8e98-9b6c2f0d4480","system_id":"levelo_inurba_marseille","lat":43.280382,"lon":5.369291,"is_reserved":false,"is_disabled":false,"rental_uris":{"android":"levelo://app?vid=21cdddc6-61d7-4c4d-8e98-9b6c2f0d4480","ios":"levelo://app?vid=21cdddc6-61d7-4c4d-8e98-9b6c2f0d4480"},"vehicle_type_id":"4","last_reported":1703624766,"current_range_meters":24000,"station_id":"ce4bha12rcd13ifvqef0","pricing_plan_id":"free"},{"bike_id":"f399473e-2f7b-40fe-8f80-2166bc8fdbb7","system_id":"levelo_inurba_marseille","lat":43.280382,"lon":5.369291,"is_reserved":false,"is_disabled":false,"rental_uris":{"android":"levelo://app?vid=f399473e-2f7b-40fe-8f80-2166bc8fdbb7","ios":"levelo://app?vid=f399473e-2f7b-40fe-8f80-2166bc8fdbb7"},"vehicle_type_id":"4","last_reported":1703624766,"current_range_meters":24400,"station_id":"ce4bha12rcd13ifvqef0","pricing_plan_id":"free"},{"bike_id":"874247a8-b851-4752-bb55-16e8eebdc42c","system_id":"levelo_inurba_marseille","lat":43.280382,"lon":5.369291,"is_reserved":false,"is_disabled":false,"rental_uris":{"android":"levelo://app?vid=874247a8-b851-4752-bb55-16e8eebdc42c","ios":"levelo://app?vid=874247a8-b851-4752-bb55-16e8eebdc42c"},