{"last_updated":1761322369,"ttl":60,"version":"2.2","data":{"bikes":[{"bike_id":"60ee768e-a80f-4185-bb91-1d0a89831466","system_id":"levelo_inurba_marseille","lat":43.27069,"lon":5.38317,"is_reserved":false,"is_disabled":false,"rental_uris":{"android":"levelo://app?vid=60ee768e-a80f-4185-bb91-1d0a89831466","ios":"levelo://app?vid=60ee768e-a80f-4185-bb91-1d0a89831466"},"vehicle_type_id":"4","last_reported":1761322369,"current_range_meters":2800,"station_id":"st_d3n2fo6cfp8s73cte1j0","pricing_plan_id":"cebpf4jnsgd1na2vs0mg"},{"bike_id":"23e71379-02ef-40f7-82e3-64b07e6101c5","system_id":"levelo_inurba_marseille","lat":43.28444,"lon":5.39201,"is_reserved":false,"is_disabled":false,"rental_uris":{"android":"levelo://app?vid=23e71379-02ef-40f7-82e3-64b07e6101c5","ios":"levelo://app?vid=23e71379-02ef-40f7-82e3-64b07e6101c5"},"vehicle_type_id":"4","last_reported":1761322369,"current_range_meters":2800,"station_id":"ce4bhoh2rcd13ifvqh5g","pricing_plan_id":"cebpf4jnsgd1na2vs0mg"},{"bike_id":"3ce5ed25-4b6c-4418-9ca2-d8fde5460991","system_id":"levelo_inurba_marseille","lat":43.27313,"lon":5.39072,"is_reserved":false,"is_disabled":false,"rental_uris":{"android":"levelo://app?vid=3ce5ed25-4b6c-4418-9ca2-d8fde5460991","ios":"levelo://app?vid=3ce5ed25-4b6c-4418-9ca2-d8fde5460991"},"vehicle_type_id":"4","last_reported":1761322369,"current_range_meters":2800,"station_id":"ce4bhgp2rcd13ifvqfe0","pricing_plan_id":"cebpf4jnsgd1na2vs0mg"},{"bike_id":"f78c935c-6a41-4535-b38f-2f6760732e88","system_id":"levelo_inurba_marseille","lat":43.284634,"lon":5.35883,"is_reserved":false,"is_disabled":false,"rental_uris":{"android":"levelo://app?vid=f78c935c-6a41-4535-b38f-2f6760732e88","ios":"levelo://app?vid=f78c935c-6a41-4535-b38f-2f6760732e88"},"vehicle_type_id":"4","last_reported":1761322369,"current_range_meters":3200,"station_id":"ce4bhah2rcd13ifvqei0","pricing_plan_id":"cebpf4jnsgd1na2vs0mg"},{"bike_id":"4b60dd46-ba01-4912-ae90-f3944d0fc6d3","system_id":"levelo_inurba_marseille","lat":43.28443,"lon":5.39194,"is_reserved":false,"is_disabled":false,"rental_uris":{"android":"levelo://app?vid=4b60dd46-ba01-4912-ae90-f3944d0fc6d3","ios":"levelo://app?vid=4b60dd46-ba01-4912-ae90-f3944d0fc6d3"},"vehicle_type_id":"4","last_reported":1761322369,"current_range_meters":3200,"station_id":"ce4bhoh2rcd13ifvqh5g","pricing_plan_id":"cebpf4jnsgd1na2vs0mg"},{"bike_id":"9e0d7c6f-e5a1-44b6-ab7d-749cd2c1c1f9","system_id":"levelo_inurba_marseille","lat":43.29538,"lon":5.39379,"is_reserved":false,"is_disabled":false,"rental_uris":{"android":"levelo://app?vid=9e0d7c6f-e5a1-44b6-ab7d-749cd2c1c1f9","ios":"levelo://app?vid=9e0d7c6f-e5a1-44b6-ab7d-749cd2c1c1f9"},"vehicle_type_id":"4","last_reported":1761322369,"current_range_meters":3200,"station_id":"ce4bh292rcd13ifvqdf0","pricing_plan_id":"cebpf4jnsgd1na2vs0mg"},{"bike_id":"d42fe656-4e35-4105-997c-fc7bca56d5e0","system_id":"levelo_inurba_marseille","lat":43.28721,"lon":5.36095,"is_reserved":false,"is_disabled":false,"rental_uris":{"android":"levelo://app?vid=d42fe656-4e35-4105-997c-fc7bca56d5e0","ios":"levelo://app?vid=d42fe656-4e35-4105-997c-fc7bca56d5e0"},"vehicle_type_id":"4","last_reported":1761322369,"current_range_meters":3200,"station_id":"","pricing_plan_id":"cebpf4jnsgd1na2vs0mg"},{"bike_id":"0ec44f39-07a8-44b4-8c5c-ca6297e65041","system_id":"levelo_inurba_marseille","lat":43.28946,"lon":5.36391,"is_reserved":false,"is_disabled":false,"rental_uris":{"android":"levelo://app?vid=0ec44f39-07a8-44b4-8c5c-ca6297e65041","ios":"levelo://app?vid=0ec44f39-07a8-44b4-8c5c-ca6297e65041"},"vehicle_type_id":"4","last_reported":1761322369,"current_range_meters":3600,"station_id":"ce4bhc92rcd13ifvqetg","pricing_plan_id":"cebpf4jnsgd1na2vs0mg"},{"bike_id":"fcfcfa5e-4990-40cc-bfaa-c8fd6a77fdca","system_id":"levelo_inurba_marseille","lat":43.33607,"lon":5.41039,"is_reserved":false,"is_disabled":false,"rental_uris":{"android":"levelo://app?vid=fcfcfa5e-4990-40cc-bfaa-c8fd6a77fdca","ios":"levelo://app?vid=fcfcfa5e-4990-40cc-bfaa-c8fd6a77fdca"},"vehicle_type_id":"4","last_reported":1761322369,"current_range_meters":3600,"station_id":"ce4bhqh2rcd13ifvqhmg","pricing_plan_id":"cebpf4jnsgd1na2vs0mg"},{"bike_id":"ebe1a80e-cf59-4f8b-a331-dffd2c030982","system_id":"levelo_inurba_marseille","lat":43.24078,"lon":5.37763,"is_reserved":false,"is_disabled":false,"rental_uris":{"android":"levelo://app?vid=ebe1a80e-cf59-4f8b-a331-dffd2c030982","ios":"levelo://app?vid=ebe1a80e-cf59-4f8b-a331-dffd2c030982"},"vehicle_type_id":"4","last_reported":1761322369,"current_range_meters":3600,"station_id":"ce4bhnp2rcd13ifvqgvg","pricing_plan_id":"cebpf4jnsgd1na2vs0mg"},{"bike_id":"37d01fc8-4b4d-4652-a489-1254eb9d4c80","system_id":"levelo_inurba_marseille","lat":43.34076,"lon":5.40411,"is_reserved":false,"is_disabled":false,"rental_uris":{"android":"levelo://app?vid=37d01fc8-4b4d-4652-a489-1254eb9d4c80","ios":"levelo://app?vid=37d01fc8-4b4d-4652-a489-1254eb9d4c80"},"vehicle_type_id":"4","last_reported":1761322369,"current_range_meters":3600,"station_id":"","pricing_plan_id":"cebpf4jnsgd1na2vs0mg"},{"bike_id":"84a66216-c092-48c6-abc3-ea26dc670bf3","system_id":"levelo_inurba_marseille","lat":43.30258,"lon":5.40081,"is_reserved":false,"is_disabled":false,"rental_uris":{"android":"levelo://app?vid=84a66216-c092-48c6-abc3-ea26dc670bf3","ios":"levelo://app?vid=84a66216-c092-48c6-abc3-ea26dc670bf3"},"vehicle_type_id":"4","last_reported":1761322369,"current_range_meters":3600,"station_id":"ce4bgvh2rcd13ifvqcs0","pricing_plan_id":"cebpf4jnsgd1na2vs0mg"},{"bike_id":"ac095db3-f4d6-43ef-8d32-fb124f87001d","system_id":"levelo_inurba_marseille","lat":43.299635,"lon":5.384987,"is_reserved":false,"is_disabled":false,"rental_uris":{"android":"levelo://app?vid=ac095db3-f4d6-43ef-8d32-fb124f87001d","ios":"levelo://app?vid=ac095db3-f4d6-43ef-8d32-fb124f87001d"},"vehicle_type_id":"4","last_reported":1761322369,"current_range_meters":4000,"station_id":"ce4bgj92rcd13ifvqbd0","pricing_plan_id":"cebpf4jnsgd1na2vs0mg"},{"bike_id":"9a7374a4-fdac-4f60-824f-0b3c1d7b907c","system_id":"levelo_inurba_marseille","lat":43.229276,"lon":5.353726,"is_reserved":false,"is_disabled":false,"rental_uris":{"android":"levelo://app?vid=9a7374a4-fdac-4f60-824f-0b3c1d7b907c","ios":"levelo://app?vid=9a7374a4-fdac-4f60-824f-0b3c1d7b907c"},"vehicle_type_id":"4","last_reported":1761322369,"current_range_meters":4000,"station_id":"","pricing_plan_id":"cebpf4jnsgd1na2vs0mg"},{"bike_id":"e967d68c-5082-45b2-9ee9-8013ca906393","system_id":"levelo_inurba_marseille","lat":43.30219,"lon":5.39479,"is_reserved":false,"is_disabled":false,"rental_uris":{"android":"levelo://app?vid=e967d68c-5082-45b2-9ee9-8013ca906393","ios":"levelo://app?vid=e967d68c-5082-45b2-9ee9-8013ca906393"},"vehicle_type_id":"4","last_reported":1761322369,"current_range_meters":4000,"station_id":"ce4bh0p2rcd13ifvqd70","pricing_plan_id":"cebpf4jnsgd1na2vs0mg"},{"bike_id":"f02ecd3e-a956-45ab-9500-3a5d8dee4b0b","system_id":"levelo_inurba_marseille","lat":43.2923,"lon":5.36061,"is_reserved":false,"is_disabled":false,"rental_uris":{"android":"levelo://app?vid=f02ecd3e-a956-45ab-9500-3a5d8dee4b0b","ios":"levelo://app?vid=f02ecd3e-a956-45ab-9500-3a5d8dee4b0b"},"vehicle_type_id":"4","last_reported":1761322369,"current_range_meters":4000,"station_id":"ce4bhbh2rcd13ifvqeqg","pricing_plan_id":"cebpf4jnsgd1na2vs0mg"},{"bike_id":"ac27a30b-36eb-4b60-90c9-d0d3a251cedc","system_id":"levelo_inurba_marseille","lat":43.28617,"lon":5.35108,"is_reserved":false,"is_disabled":false,"rental_uris":{"android":"levelo://app?vid=ac27a30b-36eb-4b60-90c9-d0d3a251cedc","ios":"levelo://app?vid=ac27a30b-36eb-4b60-90c9-d0d3a251cedc"},"vehicle_type_id":"4","last_reported":1761322369,"current_range_meters":4400,"station_id":"ce4bhch2rcd13ifvqeug","pricing_plan_id":"cebpf4jnsgd1na2vs0mg"},{"bike_id":"a18e4175-cd31-43c1-8039-dcebbe81c6d9","system_id":"levelo_inurba_marseille","lat":43.28618,"lon":5.35106,"is_reserved":false,"is_disabled":false,"rental_uris":{"android":"levelo://app?vid=a18e4175-cd31-43c1-8039-dcebbe81c6d9","ios":"levelo://app?vid=a18e4175-cd31-43c1-8039-dcebbe81c6d9"},"vehicle_type_id":"4","last_reported":1761322369,"current_range_meters":4400,"station_id":"ce4bhch2rcd13ifvqeug","pricing_plan_id":"cebpf4jnsgd1na2vs0mg"},{"bike_id":"a9c1cf97-6ddd-4ae4-9982-d44b75108890","system_id":"levelo_inurba_marseille","lat":43.28048,"lon":5.36944,"is_reserved":false,"is_disabled":false,"rental_uris":{"android":"levelo://app?vid=a9c1cf97-6ddd-4ae4-9982-d44b75108890","ios":"levelo://app?vid=a9c1cf97-6ddd-4ae4-9982-d44b75108890"},"vehicle_type_id":"4","last_reported":1761322369,"current_range_meters":4400,"station_id":"ce4bha12rcd13ifvqef0","pricing_plan_id":"cebpf4jnsgd1na2vs0mg"},{"bike_id":"7546f470-e2c9-46ad-b638-733b3092a9dc","system_id":"levelo_inurba_marseille","lat":43.22531,"lon":5.34851,"is_reserved":false,"is_disabled":false,"rental_uris":{"android":"levelo://app?vid=7546f470-e2c9-46ad-b638-733b3092a9dc","ios":"levelo://app?vid=7546f470-e2c9-46ad-b638-733b3092a9dc"},"vehicle_type_id":"4","last_reported":1761322369,"current_range_meters":4400,"station_id":"","pricing_plan_id":"cebpf4jnsgd1na2vs0mg"},{"bike_id":"c5a77930-535c-465f-851e-66ae37a72374","system_id":"levelo_inurba_marseille","lat":43.29078,"lon":5.37166,"is_reserved":false,"is_disabled":false,"rental_uris":{"android":"levelo://app?vid=c5a77930-535c-465f-851e-66ae37a72374","ios":"levelo://app?vid=c5a77930-535c-465f-851e-66ae37a72374"},"vehicle_type_id":"4","last_reported":1761322369,"current_range_meters":4400,"station_id":"ce4bh5p2rcd13ifvqe4g","pricing_plan_id":"cebpf4jnsgd1na2vs0mg"},{"bike_id":"d9c334f9-53a5-4c53-9a4c-f723709a4f7a","system_id":"levelo_inurba_marseille","lat":43.30286,"lon":5.37689,"is_reserved":false,"is_disabled":false,"rental_uris":{"android":"levelo://app?vid=d9c334f9-53a5-4c53-9a4c-f723709a4f7a","ios":"levelo://app?vid=d9c334f9-53a5-4c53-9a4c-f723709a4f7a"},"vehicle_type_id":"4","last_reported":1761322369,"current_range_meters":4400,"station_id":"ce4bguh2rcd13ifvqcj0","pricing_plan_id":"cebpf4jnsgd1na2vs0mg"},{"bike_id":"c6192827-050c-4357-b852-c0a763f48551","system_id":"levelo_inurba_marseille","lat":43.3133,"lon":5.39694,"is_reserved":false,"is_disabled":false,"rental_uris":{"android":"levelo://app?vid=c6192827-050c-4357-b852-c0a763f48551","ios":"levelo://app?vid=c6192827-050c-4357-b852-c0a763f48551"},"vehicle_type_id":"4","last_reported":1761322369,"current_range_meters":4800,"station_id":"ce4bgvp2rcd13ifvqcu0","pricing_plan_id":"cebpf4jnsgd1na2vs0mg"},{"bike_id":"c2f6d99c-6741-4f97-adbe-292efb7eff82","system_id":"levelo_inurba_marseille","lat":43.212,"lon":5.35075,"is_reserved":false,"is_disabled":false,"rental_uris":{"android":"levelo://app?vid=c2f6d99c-6741-4f97-adbe-292efb7eff82","ios":"levelo://app?vid=c2f6d99c-6741-4f97-adbe-292efb7eff82"},"vehicle_type_id":"4","last_reported":1761322369,"current_range_meters":4800,"station_id":"","pricing_plan_id":"cebpf4jnsgd1na2vs0mg"},{"bike_id":"51ea134d-df94-4f50-84a6-099716824d0c","system_id":"levelo_inurba_marseille","lat":43.33705,"lon":5.362795,"is_reserved":false,"is_disabled":false,"rental_uris":{"android":"levelo://app?vid=51ea134d-df94-4f50-84a6-099716824d0c","ios":"levelo://app?vid=51ea134d-df94-4f50-84a6-099716824d0c"},"vehicle_type_id":"4","last_reported":1761322369,"current_range_meters":4800,"station_id":"","pricing_plan_id":"cebpf4jnsgd1na2vs0mg"},{"bike_id":"27b4ecaf-9a2a-4b64-8f23-13c0ef53db81","system_id":"levelo_inurba_marseille","lat":43.28441,"lon":5.39203,"is_reserved":false,"is_disabled":false,"rental_uris":{"android":"levelo://app?vid=27b4ecaf-9a2a-4b64-8f23-13c0ef53db81","ios":"levelo://app?vid=27b4ecaf-9a2a-4b64-8f23-13c0ef53db81"},"vehicle_type_id":"4","last_reported":1761322369,"current_range_meters":4800,"station_id":"ce4bhoh2rcd13ifvqh5g","pricing_plan_id":"cebpf4jnsgd1na2vs0mg"},{"bike_id":"74db962b-9581-43d2-9372-61351b602964","system_id":"levelo_inurba_marseille","lat":43.26936,"lon":5.38935,"is_reserved":false,"is_disabled":false,"rental_uris":{"android":"levelo://app?vid=74db962b-9581-43d2-9372-61351b602964","ios":"levelo://app?vid=74db962b-9581-43d2-9372-61351b602964"},"vehicle_type_id":"4","last_reported":1761322369,"current_range_meters":5600,"station_id":"ce4bhhh2rcd13ifvqfl0","pricing_plan_id":"cebpf4jnsgd1na2vs0mg"},{"bike_id":"2d94fef5-4464-4f6f-b35a-91fb778bc9e4","system_id":"levelo_inurba_marseille","lat":43.29894,"lon":5.436713,"is_reserved":false,"is_disabled":false,"rental_uris":{"android":"levelo://app?vid=2d94fef5-4464-4f6f-b35a-91fb778bc9e4","ios":"levelo://app?vid=2d94fef5-4464-4f6f-b35a-91fb778bc9e4"},"vehicle_type_id":"4","last_reported":1761322369,"current_range_meters":5600,"station_id":"ce4bhpp2rcd13ifvqhfg","pricing_plan_id":"cebpf4jnsgd1na2vs0mg"},{"bike_id":"6b620b4d-1e79-4b28-aabb-60a7232bfa41","system_id":"levelo_inurba_marseille","lat":43.28844,"lon":5.393096,"is_reserved":false,"is_disabled":false,"rental_uris":{"android":"levelo://app?vid=6b620b4d-1e79-4b28-aabb-60a7232bfa41","ios":"levelo://app?vid=6b620b4d-1e79-4b28-aabb-60a7232bfa41"},"vehicle_type_id":"4","last_reported":1761322369,"current_range_meters":5600,"station_id":"ce4bh2p2rcd13ifvqdi0","pricing_plan_id":"cebpf4jnsgd1na2vs0mg"},{"bike_id":"316e0718-e670-4e00-90c0-28a6cd44d492","system_id":"levelo_inurba_marseille","lat":43.29013,"lon":5.35614,"is_reserved":false,"is_disabled":false,"rental_uris":{"android":"levelo://app?vid=316e0718-e670-4e00-90c0-28a6cd44d492","ios":"levelo://app?vid=316e0718-e670-4e00-90c0-28a6cd44d492"},"vehicle_type_id":"4","last_reported":1761322369,"current_range_meters":5600,"station_id":"ce4bhb92rcd13ifvqen0","pricing_plan_id":"cebpf4jnsgd1na2vs0mg"},{"bike_id":"095e7edc-1d99-400b-9db6-bb799b9d3560","system_id":"levelo_inurba_marseille","lat":43.25822,"lon":5.39439,"is_reserved":false,"is_disabled":false,"rental_uris":{"android":"levelo://app?vid=095e7edc-1d99-400b-9db6-bb799b9d3560","ios":"levelo://app?vid=095e7edc-1d99-400b-9db6-bb799b9d3560"},"vehicle_type_id":"4","last_reported":1761322369,"current_range_meters":5600,"station_id":"ce4bhip2rcd13ifvqft0","pricing_plan_id":"cebpf4jnsgd1na2vs0mg"},{"bike_id":"98b619de-acb1-452c-b44c-caea39d380c1","system_id":"levelo_inurba_marseille","lat":43.21747,"lon":5.34604,"is_reserved":false,"is_disabled":false,"rental_uris":{"android":"levelo://app?vid=98b619de-acb1-452c-b44c-caea39d380c1","ios":"levelo://app?vid=98b619de-acb1-452c-b44c-caea39d380c1"},"vehicle_type_id":"4","last_reported":1761322369,"current_range_meters":6000,"station_id":"","pricing_plan_id":"cebpf4jnsgd1na2vs0mg"},{"bike_id":"f28e01f3-bdd4-4516-907e-96aa7dac2a79","system_id":"levelo_inurba_marseille","lat":43.290324,"lon":5.375405,"is_reserved":false,"is_disabled":true,"rental_uris":{"android":"levelo://app?vid=f28e01f3-bdd4-4516-907e-96aa7dac2a79","ios":"levelo://app?vid=f28e01f3-bdd4-4516-907e-96aa7dac2a79"},"vehicle_type_id":"4","last_reported":1761322369,"current_range_meters":6000,"station_id":"ce4bh692rcd13ifvqe90","pricing_plan_id":"cebpf4jnsgd1na2vs0mg"},{"bike_id":"ad9a8166-85b3-49b6-88c7-1c6bdf69b632","system_id":"levelo_inurba_marseille","lat":43.311107,"lon":5.377624,"is_reserved":false,"is_disabled":false,"rental_uris":{"android":"levelo://app?vid=ad9a8166-85b3-49b6-88c7-1c6bdf69b632","ios":"levelo://app?vid=ad9a8166-85b3-49b6-88c7-1c6bdf69b632"},"vehicle_type_id":"4","last_reported":1761322369,"current_range_meters":6000,"station_id":"","pricing_plan_id":"cebpf4jnsgd1na2vs0mg"},{"bike_id":"4713f671-2dda-48a3-bf79-6139d82dbc83","system_id":"levelo_inurba_marseille","lat":43.26566,"lon":5.40328,"is_reserved":false,"is_disabled":false,"rental_uris":{"android":"levelo://app?vid=4713f671-2dda-48a3-bf79-6139d82dbc83","ios":"levelo://app?vid=4713f671-2dda-48a3-bf79-6139d82dbc83"},"vehicle_type_id":"4","last_reported":1761322369,"current_range_meters":6000,"station_id":"ce4bhmp2rcd13ifvqgng","pricing_plan_id":"cebpf4jnsgd1na2vs0mg"},{"bike_id":"449c2c54-933e-4440-b494-72eff8c678b4","system_id":"levelo_inurba_marseille","lat":43.3237,"lon":5.38887,"is_reserved":false,"is_disabled":false,"rental_uris":{"android":"levelo://app?vid=449c2c54-933e-4440-b494-72eff8c678b4","ios":"levelo://app?vid=449c2c54-933e-4440-b494-72eff8c678b4"},"vehicle_type_id":"4","last_reported":1761322369,"current_range_meters":6000,"station_id":"ce4bhqp2rcd13ifvqhog","pricing_plan_id":"cebpf4jnsgd1na2vs0mg"},{"bike_id":"0274ef2d-df18-4eac-82e3-2db31bdc75f6","system_id":"levelo_inurba_marseille","lat":43.28611,"lon":5.35114,"is_reserved":false,"is_disabled":false,"rental_uris":{"android":"levelo://app?vid=0274ef2d-df18-4eac-82e3-2db31bdc75f6","ios":"levelo://app?vid=0274ef2d-df18-4eac-82e3-2db31bdc75f6"},"vehicle_type_id":"4","last_reported":1761322369,"current_range_meters":6000,"station_id":"ce4bhch2rcd13ifvqeug","pricing_plan_id":"cebpf4jnsgd1na2vs0mg"},{"bike_id":"4eae2ec4-8862-466e-a3d9-395cca4276d0","system_id":"levelo_inurba_marseille","lat":43.30387,"lon":5.37596,"is_reserved":false,"is_disabled":false,"rental_uris":{"android":"levelo://app?vid=4eae2ec4-8862-466e-a3d9-395cca4276d0","ios":"levelo://app?vid=4eae2ec4-8862-466e-a3d9-395cca4276d0"},"vehicle_type_id":"4","last_reported":1761322369,"current_range_meters":6000,"station_id":"","pricing_plan_id":"cebpf4jnsgd1na2vs0mg"},{"bike_id":"95cb3f5c-b633-498a-bad5-007b51863d0e","system_id":"levelo_inurba_marseille","lat":43.29271,"lon":5.40162,"is_reserved":false,"is_disabled":false,"rental_uris":{"android":"levelo://app?vid=95cb3f5c-b633-498a-bad5-007b51863d0e","ios":"levelo://app?vid=95cb3f5c-b633-498a-bad5-007b51863d0e"},"vehicle_type_id":"4","last_reported":1761322369,"current_range_meters":6000,"station_id":"ce4bh312rcd13ifvqdk0","pricing_plan_id":"cebpf4jnsgd1na2vs0mg"},{"bike_id":"c8c0fa58-a519-4343-9887-b0c694f93aef","system_id":"levelo_inurba_marseille","lat":43.28868,"lon":5.42513,"is_reserved":false,"is_disabled":false,"rental_uris":{"android":"levelo://app?vid=c8c0fa58-a519-4343-9887-b0c694f93aef","ios":"levelo://app?vid=c8c0fa58-a519-4343-9887-b0c694f93aef"},"vehicle_type_id":"4","last_reported":1761322369,"current_range_meters":6400,"station_id":"st_d3b462108ojc7389ooeg","pricing_plan_id":"cebpf4jnsgd1na2vs0mg"},{"bike_id":"18dd612f-5388-47f3-bed3-fb90f411442e","system_id":"levelo_inurba_marseille","lat":43.30636,"lon":5.40088,"is_reserved":false,"is_disabled":false,"rental_uris":{"android":"levelo://app?vid=18dd612f-5388-47f3-bed3-fb90f411442e","ios":"levelo://app?vid=18dd612f-5388-47f3-bed3-fb90f411442e"},"vehicle_type_id":"4","last_reported":1761322369,"current_range_meters":6400,"station_id":"ce4bh112rcd13ifvqda0","pricing_plan_id":"cebpf4jnsgd1na2vs0mg"},{"bike_id":"9dba4c40-19d6-4d8e-80be-1909598d6387","system_id":"levelo_inurba_marseille","lat":43.25579,"lon":5.38238,"is_reserved":false,"is_disabled":false,"rental_uris":{"android":"levelo://app?vid=9dba4c40-19d6-4d8e-80be-1909598d6387","ios":"levelo://app?vid=9dba4c40-19d6-4d8e-80be-1909598d6387"},"vehicle_type_id":"4","last_reported":1761322369,"current_range_meters":6400,"station_id":"ce4bhih2rcd13ifvqfs0","pricing_plan_id":"cebpf4jnsgd1na2vs0mg"},{"bike_id":"a0777fc4-1ed0-4be5-bcf7-5b1685f8d163","system_id":"levelo_inurba_marseille","lat":43.28427,"lon":5.34983,"is_reserved":false,"is_disabled":false,"rental_uris":{"android":"levelo://app?vid=a0777fc4-1ed0-4be5-bcf7-5b1685f8d163","ios":"levelo://app?vid=a0777fc4-1ed0-4be5-bcf7-5b1685f8d163"},"vehicle_type_id":"4","last_reported":1761322369,"current_range_meters":6400,"station_id":"ce4bhbh2rcd13ifvqepg","pricing_plan_id":"cebpf4jnsgd1na2vs0mg"},{"bike_id":"d07565f8-8640-481f-9900-e711e09bf336","system_id":"levelo_inurba_marseille","lat":43.286131,"lon":5.370653,"is_reserved":false,"is_disabled":false,"rental_uris":{"android":"levelo://app?vid=d07565f8-8640-481f-9900-e711e09bf336","ios":"levelo://app?vid=d07565f8-8640-481f-9900-e711e09bf336"},"vehicle_type_id":"4","last_reported":1761322369,"current_range_meters":6400,"station_id":"ce4bht12rcd13ifvqi60","pricing_plan_id":"cebpf4jnsgd1na2vs0mg"},{"bike_id":"9879eb10-54e3-4cb6-8a7a-d1e7fade50ab","system_id":"levelo_inurba_marseille","lat":43.29046,"lon":5.39972,"is_reserved":false,"is_disabled":false,"rental_uris":{"android":"levelo://app?vid=9879eb10-54e3-4cb6-8a7a-d1e7fade50ab","ios":"levelo://app?vid=9879eb10-54e3-4cb6-8a7a-d1e7fade50ab"},"vehicle_type_id":"4","last_reported":1761322369,"current_range_meters":6400,"station_id":"ce4bh392rcd13ifvqdm0","pricing_plan_id":"cebpf4jnsgd1na2vs0mg"},{"bike_id":"81cc145c-0f7e-4ea4-b1a3-bc450209306c","system_id":"levelo_inurba_marseille","lat":43.29287,"lon":5.40119,"is_reserved":false,"is_disabled":false,"rental_uris":{"android":"levelo://app?vid=81cc145c-0f7e-4ea4-b1a3-bc450209306c","ios":"levelo://app?vid=81cc145c-0f7e-4ea4-b1a3-bc450209306c"},"vehicle_type_id":"4","last_reported":1761322369,"current_range_meters":6800,"station_id":"ce4bh312rcd13ifvqdk0","pricing_plan_id":"cebpf4jnsgd1na2vs0mg"},{"bike_id":"3167c122-43fa-497a-bf85-d0a6522abe7a","system_id":"levelo_inurba_marseille","lat":43.32761,"lon":5.37513,"is_reserved":false,"is_disabled":false,"rental_uris":{"android":"levelo://app?vid=3167c122-43fa-497a-bf85-d0a6522abe7a","ios":"levelo://app?vid=3167c122-43fa-497a-bf85-d0a6522abe7a"},"vehicle_type_id":"4","last_reported":1761322369,"current_range_meters":6800,"station_id":"","pricing_plan_id":"cebpf4jnsgd1na2vs0mg"},{"bike_id":"fc0675a0-27af-412d-9f7b-bb7563693ca3","system_id":"levelo_inurba_marseille","lat":43.241836,"lon":5.397319,"is_reserved":false,"is_disabled":false,"rental_uris":{"android":"levelo://app?vid=fc0675a0-27af-412d-9f7b-bb7563693ca3","ios":"levelo://app?vid=fc0675a0-27af-412d-9f7b-bb7563693ca3"},"vehicle_type_id":"4","last_reported":1761322369,"current_range_meters":6800,"station_id":"ce4bhn12rcd13ifvqgpg","pricing_plan_id":"cebpf4jnsgd1na2vs0mg"},{"bike_id":"efa2b5ce-a180-45cb-b45e-30162dd0f067","system_id":"levelo_inurba_marseille","lat":43.29298,"lon":5.37461,"is_reserved":false,"is_disabled":false,"rental_uris":{"android":"levelo://app?vid=efa2b5ce-a180-45cb-b45e-30162dd0f067","ios":"levelo://app?vid=efa2b5ce-a180-45cb-b45e-30162dd0f067"},"vehicle_type_id":"4","last_reported":1761322369,"current_range_meters":6800,"station_id":"ce4bgi12rcd13ifvqb70","pricing_plan_id":"cebpf4jnsgd1na2vs0mg"},{"bike_id":"00fd3c6a-780c-49dc-9993-d4de69c9b57a","system_id":"levelo_inurba_marseille","lat":43.31077,"lon":5.37468,"is_reserved":false,"is_disabled":false,"rental_uris":{"android":"levelo://app?vid=00fd3c6a-780c-49dc-9993-d4de69c9b57a","ios":"levelo://app?vid=00fd3c6a-780c-49dc-9993-d4de69c9b57a"},"vehicle_type_id":"4","last_reported":1761322369,"current_range_meters":6800,"station_id":"","pricing_plan_id":"cebpf4jnsgd1na2vs0mg"},{"bike_id":"e743205a-4a47-43c4-bd9b-8a23c31a2623","system_id":"levelo_inurba_marseille","lat":43.29762,"lon":5.42777,"is_reserved":false,"is_disabled":false,"rental_uris":{"android":"levelo://app?vid=e743205a-4a47-43c4-bd9b-8a23c31a2623","ios":"levelo://app?vid=e743205a-4a47-43c4-bd9b-8a23c31a2623"},"vehicle_type_id":"4","last_reported":1761322369,"current_range_meters":6800,"station_id":"st_d3md5207bmas73dh9klg","pricing_plan_id":"cebpf4jnsgd1na2vs0mg"},{"bike_id":"2535a04c-5bc6-48fa-b181-3b019a5ce9cd","system_id":"levelo_inurba_marseille","lat":43.2756,"lon":5.38428,"is_reserved":false,"is_disabled":false,"rental_uris":{"android":"levelo://app?vid=2535a04c-5bc6-48fa-b181-3b019a5ce9cd","ios":"levelo://app?vid=2535a04c-5bc6-48fa-b181-3b019a5ce9cd"},"vehicle_type_id":"4","last_reported":1761322369,"current_range_meters":6800,"station_id":"ce4bhh92rcd13ifvqfi0","pricing_plan_id":"cebpf4jnsgd1na2vs0mg"},{"bike_id":"5df3bb81-4916-4427-8cd1-aaca61ad6031","system_id":"levelo_inurba_marseille","lat":43.29636,"lon":5.38096,"is_reserved":false,"is_disabled":false,"rental_uris":{"android":"levelo://app?vid=5df3bb81-4916-4427-8cd1-aaca61ad6031","ios":"levelo://app?vid=5df3bb81-4916-4427-8cd1-aaca61ad6031"},"vehicle_type_id":"4","last_reported":1761322369,"current_range_meters":6800,"station_id":"ce4bgl12rcd13ifvqbo0","pricing_plan_id":"cebpf4jnsgd1na2vs0mg"},{"bike_id":"cf593980-71a4-4006-850a-9745c90d7c3b","system_id":"levelo_inurba_marseille","lat":43.32102,"lon":5.36776,"is_reserved":false,"is_disabled":false,"rental_uris":{"android":"levelo://app?vid=cf593980-71a4-4006-850a-9745c90d7c3b","ios":"levelo://app?vid=cf593980-71a4-4006-850a-9745c90d7c3b"},"vehicle_type_id":"4","last_reported":1761322369,"current_range_meters":7200,"station_id":"ce4bhrh2rcd13ifvqhug","pricing_plan_id":"cebpf4jnsgd1na2vs0mg"},{"bike_id":"0aed955c-9513-4b50-a2ad-18963e437381","system_id":"levelo_inurba_marseille","lat":43.28488,"lon":5.38557,"is_reserved":false,"is_disabled":false,"rental_uris":{"android":"levelo://app?vid=0aed955c-9513-4b50-a2ad-18963e437381","ios":"levelo://app?vid=0aed955c-9513-4b50-a2ad-18963e437381"},"vehicle_type_id":"4","last_reported":1761322369,"current_range_meters":7200,"station_id":"ce4bh8p2rcd13ifvqeb0","pricing_plan_id":"cebpf4jnsgd1na2vs0mg"},{"bike_id":"13d8cfa0-088f-4b05-86d0-cafa2a898dca","system_id":"levelo_inurba_marseille","lat":43.27057,"lon":5.40263,"is_reserved":false,"is_disabled":false,"rental_uris":{"android":"levelo://app?vid=13d8cfa0-088f-4b05-86d0-cafa2a898dca","ios":"levelo://app?vid=13d8cfa0-088f-4b05-86d0-cafa2a898dca"},"vehicle_type_id":"4","last_reported":1761322369,"current_range_meters":7200,"station_id":"ce4bhk92rcd13ifvqgc0","pricing_plan_id":"cebpf4jnsgd1na2vs0mg"},{"bike_id":"32e7919e-26d8-4f7d-b229-086147816fa4","system_id":"levelo_inurba_marseille","lat":43.301286,"lon":5.38775,"is_reserved":false,"is_disabled":false,"rental_uris":{"android":"levelo://app?vid=32e7919e-26d8-4f7d-b229-086147816fa4","ios":"levelo://app?vid=32e7919e-26d8-4f7d-b229-086147816fa4"},"vehicle_type_id":"4","last_reported":1761322369,"current_range_meters":7200,"station_id":"","pricing_plan_id":"cebpf4jnsgd1na2vs0mg"},{"bike_id":"da7d1f7c-82f4-4335-85fc-7164ec0fc586","system_id":"levelo_inurba_marseille","lat":43.310474,"lon":5.369781,"is_reserved":false,"is_disabled":false,"rental_uris":{"android":"levelo://app?vid=da7d1f7c-82f4-4335-85fc-7164ec0fc586","ios":"levelo://app?vid=da7d1f7c-82f4-4335-85fc-7164ec0fc586"},"vehicle_type_id":"4","last_reported":1761322369,"current_range_meters":7200,"station_id":"ce4bgl92rcd13ifvqbq0","pricing_plan_id":"cebpf4jnsgd1na2vs0mg"},{"bike_id":"f7c3ce66-b5d4-4bb8-b2ca-c7e2fb7366f9","system_id":"levelo_inurba_marseille","lat":43.30433,"lon":5.39744,"is_reserved":false,"is_disabled":false,"rental_uris":{"android":"levelo://app?vid=f7c3ce66-b5d4-4bb8-b2ca-c7e2fb7366f9","ios":"levelo://app?vid=f7c3ce66-b5d4-4bb8-b2ca-c7e2fb7366f9"},"vehicle_type_id":"4","last_reported":1761322369,"current_range_meters":7200,"station_id":"ce4bh092rcd13ifvqd20","pricing_plan_id":"cebpf4jnsgd1na2vs0mg"},{"bike_id":"4b8ed14a-7a88-4fd8-8d2d-64a04fc009a6","system_id":"levelo_inurba_marseille","lat":43.28687,"lon":5.36361,"is_reserved":false,"is_disabled":false,"rental_uris":{"android":"levelo://app?vid=4b8ed14a-7a88-4fd8-8d2d-64a04fc009a6","ios":"levelo://app?vid=4b8ed14a-7a88-4fd8-8d2d-64a04fc009a6"},"vehicle_type_id":"4","last_reported":1761322369,"current_range_meters":7200,"station_id":"ce4bhah2rcd13ifvqej0","pricing_plan_id":"cebpf4jnsgd1na2vs0mg"},{"bike_id":"ed5592f6-738f-424e-b1c7-4090ab91b445","system_id":"levelo_inurba_marseille","lat":43.21192,"lon":5.35073,"is_reserved":false,"is_disabled":false,"rental_uris":{"android":"levelo://app?vid=ed5592f6-738f-424e-b1c7-4090ab91b445","ios":"levelo://app?vid=ed5592f6-738f-424e-b1c7-4090ab91b445"},"vehicle_type_id":"4","last_reported":1761322369,"current_range_meters":8000,"station_id":"st_cvj6sg6p6f1abm77japg","pricing_plan_id":"cebpf4jnsgd1na2vs0mg"},{"bike_id":"ec9665a2-32ab-42b2-9bdf-cf94d158a9c2","system_id":"levelo_inurba_marseille","lat":43.301186,"lon":5.370803,"is_reserved":false,"is_disabled":false,"rental_uris":{"android":"levelo://app?vid=ec9665a2-32ab-42b2-9bdf-cf94d158a9c2","ios":"levelo://app?vid=ec9665a2-32ab-42b2-9bdf-cf94d158a9c2"},"vehicle_type_id":"4","last_reported":1761322369,"current_range_meters":8000,"station_id":"","pricing_plan_id":"cebpf4jnsgd1na2vs0mg"},{"bike_id":"657ac893-6610-4593-ae96-338a440e0dce","system_id":"levelo_inurba_marseille","lat":43.29762,"lon":5.42781,"is_reserved":false,"is_disabled":false,"rental_uris":{"android":"levelo://app?vid=657ac893-6610-4593-ae96-338a440e0dce","ios":"levelo://app?vid=657ac893-6610-4593-ae96-338a440e0dce"},"vehicle_type_id":"4","last_reported":1761322369,"current_range_meters":8000,"station_id":"st_d3md5207bmas73dh9klg","pricing_plan_id":"cebpf4jnsgd1na2vs0mg"},{"bike_id":"cd98ff0b-12a9-4ef3-9e5c-83646a9581ec","system_id":"levelo_inurba_marseille","lat":43.273419,"lon":5.392726,"is_reserved":false,"is_disabled":false,"rental_uris":{"android":"levelo://app?vid=cd98ff0b-12a9-4ef3-9e5c-83646a9581ec","ios":"levelo://app?vid=cd98ff0b-12a9-4ef3-9e5c-83646a9581ec"},"vehicle_type_id":"4","last_reported":1761322369,"current_range_meters":8000,"station_id":"ce4bhnh2rcd13ifvqgtg","pricing_plan_id":"cebpf4jnsgd1na2vs0mg"},{"bike_id":"8ecb719e-e669-4539-b139-befb333be924","system_id":"levelo_inurba_marseille","lat":43.28943,"lon":5.36644,"is_reserved":false,"is_disabled":false,"rental_uris":{"android":"levelo://app?vid=8ecb719e-e669-4539-b139-befb333be924","ios":"levelo://app?vid=8ecb719e-e669-4539-b139-befb333be924"},"vehicle_type_id":"4","last_reported":1761322369,"current_range_meters":8400,"station_id":"ce4bhap2rcd13ifvqek0","pricing_plan_id":"cebpf4jnsgd1na2vs0mg"},{"bike_id":"62536606-4a76-4455-afe0-7f53d26354b8","system_id":"levelo_inurba_marseille","lat":43.281433,"lon":5.426476,"is_reserved":false,"is_disabled":false,"rental_uris":{"android":"levelo://app?vid=62536606-4a76-4455-afe0-7f53d26354b8","ios":"levelo://app?vid=62536606-4a76-4455-afe0-7f53d26354b8"},"vehicle_type_id":"4","last_reported":1761322369,"current_range_meters":8400,"station_id":"ce4bhnh2rcd13ifvqgug","pricing_plan_id":"cebpf4jnsgd1na2vs0mg"},{"bike_id":"2207f62b-1491-4de9-b57b-fc0d27cf6781","system_id":"levelo_inurba_marseille","lat":43.290108,"lon":5.356175,"is_reserved":false,"is_disabled":false,"rental_uris":{"android":"levelo://app?vid=2207f62b-1491-4de9-b57b-fc0d27cf6781","ios":"levelo://app?vid=2207f62b-1491-4de9-b57b-fc0d27cf6781"},"vehicle_type_id":"4","last_reported":1761322369,"current_range_meters":8400,"station_id":"","pricing_plan_id":"cebpf4jnsgd1na2vs0mg"},{"bike_id":"3930e88f-37af-4a47-bc5c-32ea36e2d300","system_id":"levelo_inurba_marseille","lat":43.310651,"lon":5.383553,"is_reserved":false,"is_disabled":false,"rental_uris":{"android":"levelo://app?vid=3930e88f-37af-4a47-bc5c-32ea36e2d300","ios":"levelo://app?vid=3930e88f-37af-4a47-bc5c-32ea36e2d300"},"vehicle_type_id":"4","last_reported":1761322369,"current_range_meters":8400,"station_id":"","pricing_plan_id":"cebpf4jnsgd1na2vs0mg"},{"bike_id":"0ad2b770-a3db-4129-9493-2c3143323920","system_id":"levelo_inurba_marseille","lat":43.28718,"lon":5.37929,"is_reserved":false,"is_disabled":false,"rental_uris":{"android":"levelo://app?vid=0ad2b770-a3db-4129-9493-2c3143323920","ios":"levelo://app?vid=0ad2b770-a3db-4129-9493-2c3143323920"},"vehicle_type_id":"4","last_reported":1761322369,"current_range_meters":8800,"station_id":"ce4bh9p2rcd13ifvqec0","pricing_plan_id":"cebpf4jnsgd1na2vs0mg"},{"bike_id":"e96035ce-3f75-42c7-bc07-32e4ba0bd41a","system_id":"levelo_inurba_marseille","lat":43.30488,"lon":5.36936,"is_reserved":false,"is_disabled":false,"rental_uris":{"android":"levelo://app?vid=e96035ce-3f75-42c7-bc07-32e4ba0bd41a","ios":"levelo://app?vid=e96035ce-3f75-42c7-bc07-32e4ba0bd41a"},"vehicle_type_id":"4","last_reported":1761322369,"current_range_meters":8800,"station_id":"","pricing_plan_id":"cebpf4jnsgd1na2vs0mg"},{"bike_id":"08aa120b-24f6-4c77-a11b-3ea859e33c9c","system_id":"levelo_inurba_marseille","lat":43.24077,"lon":5.37757,"is_reserved":false,"is_disabled":false,"rental_uris":{"android":"levelo://app?vid=08aa120b-24f6-4c77-a11b-3ea859e33c9c","ios":"levelo://app?vid=08aa120b-24f6-4c77-a11b-3ea859e33c9c"},"vehicle_type_id":"4","last_reported":1761322369,"current_range_meters":8800,"station_id":"ce4bhnp2rcd13ifvqgvg","pricing_plan_id":"cebpf4jnsgd1na2vs0mg"},{"bike_id":"d6f0f1e7-8f63-49de-ba16-0992917d887b","system_id":"levelo_inurba_marseille","lat":43.30655,"lon":5.40096,"is_reserved":false,"is_disabled":false,"rental_uris":{"android":"levelo://app?vid=d6f0f1e7-8f63-49de-ba16-0992917d887b","ios":"levelo://app?vid=d6f0f1e7-8f63-49de-ba16-0992917d887b"},"vehicle_type_id":"4","last_reported":1761322369,"current_range_meters":8800,"station_id":"ce4bh112rcd13ifvqda0","pricing_plan_id":"cebpf4jnsgd1na2vs0mg"},{"bike_id":"d4dcdc14-b4c3-4371-87d0-1c40217f9493","system_id":"levelo_inurba_marseille","lat":43.2509,"lon":5.39518,"is_reserved":false,"is_disabled":false,"rental_uris":{"android":"levelo://app?vid=d4dcdc14-b4c3-4371-87d0-1c40217f9493","ios":"levelo://app?vid=d4dcdc14-b4c3-4371-87d0-1c40217f9493"},"vehicle_type_id":"4","last_reported":1761322369,"current_range_meters":8800,"station_id":"ce4bhm12rcd13ifvqgkg","pricing_plan_id":"cebpf4jnsgd1na2vs0mg"},{"bike_id":"643aad37-9db8-4758-bbd2-441680bdefa0","system_id":"levelo_inurba_marseille","lat":43.28612,"lon":5.3707,"is_reserved":false,"is_disabled":false,"rental_uris":{"android":"levelo://app?vid=643aad37-9db8-4758-bbd2-441680bdefa0","ios":"levelo://app?vid=643aad37-9db8-4758-bbd2-441680bdefa0"},"vehicle_type_id":"4","last_reported":1761322369,"current_range_meters":8800,"station_id":"ce4bht12rcd13ifvqi60","pricing_plan_id":"cebpf4jnsgd1na2vs0mg"},{"bike_id":"4b39174c-5820-4cb8-8ed4-e74eb97f33a6","system_id":"levelo_inurba_marseille","lat":43.217464,"lon":5.346031,"is_reserved":false,"is_disabled":false,"rental_uris":{"android":"levelo://app?vid=4b39174c-5820-4cb8-8ed4-e74eb97f33a6","ios":"levelo://app?vid=4b39174c-5820-4cb8-8ed4-e74eb97f33a6"},"vehicle_type_id":"4","last_reported":1761322369,"current_range_meters":9200,"station_id":"","pricing_plan_id":"cebpf4jnsgd1na2vs0mg"},{"bike_id":"a67962ae-3599-4c86-a4d5-acc2df4ac1bb","system_id":"levelo_inurba_marseille","lat":43.27816,"lon":5.407304,"is_reserved":false,"is_disabled":false,"rental_uris":{"android":"levelo://app?vid=a67962ae-3599-4c86-a4d5-acc2df4ac1bb","ios":"levelo://app?vid=a67962ae-3599-4c86-a4d5-acc2df4ac1bb"},"vehicle_type_id":"4","last_reported":1761322369,"current_range_meters":9200,"station_id":"ce4bhnh2rcd13ifvqgtg","pricing_plan_id":"cebpf4jnsgd1na2vs0mg"},{"bike_id":"3e4783b6-28d8-4737-a4ef-6a1b0da02476","system_id":"levelo_inurba_marseille","lat":43.29445,"lon":5.4072,"is_reserved":false,"is_disabled":false,"rental_uris":{"android":"levelo://app?vid=3e4783b6-28d8-4737-a4ef-6a1b0da02476","ios":"levelo://app?vid=3e4783b6-28d8-4737-a4ef-6a1b0da02476"},"vehicle_type_id":"4","last_reported":1761322369,"current_range_meters":9200,"station_id":"","pricing_plan_id":"cebpf4jnsgd1na2vs0mg"},{"bike_id":"c26d9b94-47e3-4f46-ab07-3ad930a1a72c","system_id":"levelo_inurba_marseille","lat":43.29634,"lon":5.37784,"is_reserved":false,"is_disabled":false,"rental_uris":{"android":"levelo://app?vid=c26d9b94-47e3-4f46-ab07-3ad930a1a72c","ios":"levelo://app?vid=c26d9b94-47e3-4f46-ab07-3ad930a1a72c"},"vehicle_type_id":"4","last_reported":1761322369,"current_range_meters":9200,"station_id":"","pricing_plan_id":"cebpf4jnsgd1na2vs0mg"},{"bike_id":"7861f601-54fb-4b50-ac2c-7c5ee6c937de","system_id":"levelo_inurba_marseille","lat":43.29574,"lon":5.37519,"is_reserved":false,"is_disabled":false,"rental_uris":{"android":"levelo://app?vid=7861f601-54fb-4b50-ac2c-7c5ee6c937de","ios":"levelo://app?vid=7861f601-54fb-4b50-ac2c-7c5ee6c937de"},"vehicle_type_id":"4","last_reported":1761322369,"current_range_meters":9200,"station_id":"ce4bgh92rcd13ifvqb50","pricing_plan_id":"cebpf4jnsgd1na2vs0mg"},{"bike_id":"18df7d7e-5c22-4e8f-8de7-2f9e21f3521d","system_id":"levelo_inurba_marseille","lat":43.29579,"lon":5.39594,"is_reserved":false,"is_disabled":false,"rental_uris":{"android":"levelo://app?vid=18df7d7e-5c22-4e8f-8de7-2f9e21f3521d","ios":"levelo://app?vid=18df7d7e-5c22-4e8f-8de7-2f9e21f3521d"},"vehicle_type_id":"4","last_reported":1761322369,"current_range_meters":9200,"station_id":"","pricing_plan_id":"cebpf4jnsgd1na2vs0mg"},{"bike_id":"323bf2de-3bb4-4b4c-b330-b19ea807dbf5","system_id":"levelo_inurba_marseille","lat":43.329941,"lon":5.429534,"is_reserved":false,"is_disabled":false,"rental_uris":{"android":"levelo://app?vid=323bf2de-3bb4-4b4c-b330-b19ea807dbf5","ios":"levelo://app?vid=323bf2de-3bb4-4b4c-b330-b19ea807dbf5"},"vehicle_type_id":"4","last_reported":1761322369,"current_range_meters":9200,"station_id":"","pricing_plan_id":"cebpf4jnsgd1na2vs0mg"},{"bike_id":"c34801ed-ab10-437d-a7aa-0f128b1ccc35","system_id":"levelo_inurba_marseille","lat":43.29714,"lon":5.37698,"is_reserved":false,"is_disabled":false,"rental_uris":{"android":"levelo://app?vid=c34801ed-ab10-437d-a7aa-0f128b1ccc35","ios":"levelo://app?vid=c34801ed-ab10-437d-a7aa-0f128b1ccc35"},"vehicle_type_id":"4","last_reported":1761322369,"current_range_meters":9200,"station_id":"ce4bgkh2rcd13ifvqbl0","pricing_plan_id":"cebpf4jnsgd1na2vs0mg"},{"bike_id":"3ac34457-d7b5-4100-9940-49b81f814c2f","system_id":"levelo_inurba_marseille","lat":43.28357,"lon":5.38107,"is_reserved":false,"is_disabled":false,"rental_uris":{"android":"levelo://app?vid=3ac34457-d7b5-4100-9940-49b81f814c2f","ios":"levelo://app?vid=3ac34457-d7b5-4100-9940-49b81f814c2f"},"vehicle_type_id":"4","last_reported":1761322369,"current_range_meters":9200,"station_id":"ce4bh412rcd13ifvqdr0","pricing_plan_id":"cebpf4jnsgd1na2vs0mg"},{"bike_id":"9bf5ac85-9c12-42fa-88ba-afc5482cbb50","system_id":"levelo_inurba_marseille","lat":43.28668,"lon":5.36354,"is_reserved":false,"is_disabled":false,"rental_uris":{"android":"levelo://app?vid=9bf5ac85-9c12-42fa-88ba-afc5482cbb50","ios":"levelo://app?vid=9bf5ac85-9c12-42fa-88ba-afc5482cbb50"},"vehicle_type_id":"4","last_reported":1761322369,"current_range_meters":9200,"station_id":"ce4bhah2rcd13ifvqej0","pricing_plan_id":"cebpf4jnsgd1na2vs0mg"},{"bike_id":"b9ef03ae-4ee8-4b18-9d8d-3d03efc2eadf","system_id":"levelo_inurba_marseille","lat":43.33028,"lon":5.39045,"is_reserved":false,"is_disabled":false,"rental_uris":{"android":"levelo://app?vid=b9ef03ae-4ee8-4b18-9d8d-3d03efc2eadf","ios":"levelo://app?vid=b9ef03ae-4ee8-4b18-9d8d-3d03efc2eadf"},"vehicle_type_id":"4","last_reported":1761322369,"current_range_meters":9200,"station_id":"ce4bhr92rcd13ifvqhrg","pricing_plan_id":"cebpf4jnsgd1na2vs0mg"},{"bike_id":"01ee1a9f-2258-48bc-b287-12da689929ec","system_id":"levelo_inurba_marseille","lat":43.29263,"lon":5.38438,"is_reserved":false,"is_disabled":false,"rental_uris":{"android":"levelo://app?vid=01ee1a9f-2258-48bc-b287-12da689929ec","ios":"levelo://app?vid=01ee1a9f-2258-48bc-b287-12da689929ec"},"vehicle_type_id":"4","last_reported":1761322369,"current_range_meters":9200,"station_id":"ce4bh692rcd13ifvqea0","pricing_plan_id":"cebpf4jnsgd1na2vs0mg"},{"bike_id":"bf52d227-e2e6-4e46-bfde-44cbb96d7d45","system_id":"levelo_inurba_marseille","lat":43.211899,"lon":5.350798,"is_reserved":false,"is_disabled":false,"rental_uris":{"android":"levelo://app?vid=bf52d227-e2e6-4e46-bfde-44cbb96d7d45","ios":"levelo://app?vid=bf52d227-e2e6-4e46-bfde-44cbb96d7d45"},"vehicle_type_id":"4","last_reported":1761322369,"current_range_meters":9600,"station_id":"st_cvj6sg6p6f1abm77japg","pricing_plan_id":"cebpf4jnsgd1na2vs0mg"},{"bike_id":"22685e26-8737-40e0-bcf3-1bc4e6d72182","system_id":"levelo_inurba_marseille","lat":43.29592,"lon":5.38125,"is_reserved":false,"is_disabled":false,"rental_uris":{"android":"levelo://app?vid=22685e26-8737-40e0-bcf3-1bc4e6d72182","ios":"levelo://app?vid=22685e26-8737-40e0-bcf3-1bc4e6d72182"},"vehicle_type_id":"4","last_reported":1761322369,"current_range_meters":10000,"station_id":"ce4bgl12rcd13ifvqbo0","pricing_plan_id":"cebpf4jnsgd1na2vs0mg"},{"bike_id":"51bb883c-80c1-4f42-b04e-56293dce4a5e","system_id":"levelo_inurba_marseille","lat":43.24955,"lon":5.40489,"is_reserved":false,"is_disabled":false,"rental_uris":{"android":"levelo://app?vid=51bb883c-80c1-4f42-b04e-56293dce4a5e","ios":"levelo://app?vid=51bb883c-80c1-4f42-b04e-56293dce4a5e"},"vehicle_type_id":"4","last_reported":1761322369,"current_range_meters":10000,"station_id":"st_d2ngiaodas8pm72gd1h0","pricing_plan_id":"cebpf4jnsgd1na2vs0mg"},{"bike_id":"9881c788-42a8-46f5-8ccc-580a73583155","system_id":"levelo_inurba_marseille","lat":43.3206,"lon":5.40886,"is_reserved":false,"is_disabled":true,"rental_uris":{"android":"levelo://app?vid=9881c788-42a8-46f5-8ccc-580a73583155","ios":"levelo://app?vid=9881c788-42a8-46f5-8ccc-580a73583155"},"vehicle_type_id":"4","last_reported":1761322369,"current_range_meters":10000,"station_id":"","pricing_plan_id":"cebpf4jnsgd1na2vs0mg"},{"bike_id":"3ddea3de-8a83-45bf-ac20-24bf75b9b1c7","system_id":"levelo_inurba_marseille","lat":43.28673,"lon":5.3635,"is_reserved":false,"is_disabled":false,"rental_uris":{"android":"levelo://app?vid=3ddea3de-8a83-45bf-ac20-24bf75b9b1c7","ios":"levelo://app?vid=3ddea3de-8a83-45bf-ac20-24bf75b9b1c7"},"vehicle_type_id":"4","last_reported":1761322369,"current_range_meters":10800,"station_id":"ce4bhah2rcd13ifvqej0","pricing_plan_id":"cebpf4jnsgd1na2vs0mg"},{"bike_id":"ed1f71f1-9776-45c3-b8dc-63e2e3db0000","system_id":"levelo_inurba_marseille","lat":43.25587,"lon":5.38233,"is_reserved":false,"is_disabled":false,"rental_uris":{"android":"levelo://app?vid=ed1f71f1-9776-45c3-b8dc-63e2e3db0000","ios":"levelo://app?vid=ed1f71f1-9776-45c3-b8dc-63e2e3db0000"},"vehicle_type_id":"4","last_reported":1761322369,"current_range_meters":10800,"station_id":"ce4bhih2rcd13ifvqfs0","pricing_plan_id":"cebpf4jnsgd1na2vs0mg"},{"bike_id":"b9764ed2-f91a-421e-b54e-d7527bd8af22","system_id":"levelo_inurba_marseille","lat":43.29811,"lon":5.36588,"is_reserved":false,"is_disabled":false,"rental_uris":{"android":"levelo://app?vid=b9764ed2-f91a-421e-b54e-d7527bd8af22","ios":"levelo://app?vid=b9764ed2-f91a-421e-b54e-d7527bd8af22"},"vehicle_type_id":"4","last_reported":1761322369,"current_range_meters":10800,"station_id":"","pricing_plan_id":"cebpf4jnsgd1na2vs0mg"},{"bike_id":"7b584194-ee03-4a8f-b25f-0d195f62e513","system_id":"levelo_inurba_marseille","lat":43.295289,"lon":5.385403,"is_reserved":false,"is_disabled":false,"rental_uris":{"android":"levelo://app?vid=7b584194-ee03-4a8f-b25f-0d195f62e513","ios":"levelo://app?vid=7b584194-ee03-4a8f-b25f-0d195f62e513"},"vehicle_type_id":"4","last_reported":1761322369,"current_range_meters":10800,"station_id":"ce4bgih2rcd13ifvqba0","pricing_plan_id":"cebpf4jnsgd1na2vs0mg"},{"bike_id":"51af6e56-bfcf-4f78-a749-e2ba18ff826e","system_id":"levelo_inurba_marseille","lat":43.306242,"lon":5.365451,"is_reserved":false,"is_disabled":false,"rental_uris":{"android":"levelo://app?vid=51af6e56-bfcf-4f78-a749-e2ba18ff826e","ios":"levelo://app?vid=51af6e56-bfcf-4f78-a749-e2ba18ff826e"},"vehicle_type_id":"4","last_reported":1761322369,"current_range_meters":10800,"station_id":"","pricing_plan_id":"cebpf4jnsgd1na2vs0mg"},{"bike_id":"6e9d639c-59d9-44b5-a85a-412cc74e1321","system_id":"levelo_inurba_marseille","lat":43.29025,"lon":5.38127,"is_reserved":false,"is_disabled":false,"rental_uris":{"android":"levelo://app?vid=6e9d639c-59d9-44b5-a85a-412cc74e1321","ios":"levelo://app?vid=6e9d639c-59d9-44b5-a85a-412cc74e1321"},"vehicle_type_id":"4","last_reported":1761322369,"current_range_meters":10800,"station_id":"ce4bh4p2rcd13ifvqe1g","pricing_plan_id":"cebpf4jnsgd1na2vs0mg"},{"bike_id":"c12a786b-d447-4373-876a-58fc20f19148","system_id":"levelo_inurba_marseille","lat":43.29894,"lon":5.43656,"is_reserved":false,"is_disabled":false,"rental_uris":{"android":"levelo://app?vid=c12a786b-d447-4373-876a-58fc20f19148","ios":"levelo://app?vid=c12a786b-d447-4373-876a-58fc20f19148"},"vehicle_type_id":"4","last_reported":1761322369,"current_range_meters":10800,"station_id":"ce4bhpp2rcd13ifvqhfg","pricing_plan_id":"cebpf4jnsgd1na2vs0mg"},{"bike_id":"8bcacd78-80de-4026-af75-b37ebe3030fe","system_id":"levelo_inurba_marseille","lat":43.334756,"lon":5.404255,"is_reserved":false,"is_disabled":false,"rental_uris":{"android":"levelo://app?vid=8bcacd78-80de-4026-af75-b37ebe3030fe","ios":"levelo://app?vid=8bcacd78-80de-4026-af75-b37ebe3030fe"},"vehicle_type_id":"4","last_reported":1761322369,"current_range_meters":10800,"station_id":"","pricing_plan_id":"cebpf4jnsgd1na2vs0mg"},{"bike_id":"2842f5fd-7b05-4b47-909c-5ee54d7d3bc5","system_id":"levelo_inurba_marseille","lat":43.3244,"lon":5.42823,"is_reserved":false,"is_disabled":false,"rental_uris":{"android":"levelo://app?vid=2842f5fd-7b05-4b47-909c-5ee54d7d3bc5","ios":"levelo://app?vid=2842f5fd-7b05-4b47-909c-5ee54d7d3bc5"},"vehicle_type_id":"4","last_reported":1761322369,"current_range_meters":10800,"station_id":"","pricing_plan_id":"cebpf4jnsgd1na2vs0mg"},{"bike_id":"f81b1f63-1a4b-45cd-a383-2cc66db5e75c","system_id":"levelo_inurba_marseille","lat":43.28366,"lon":5.38095,"is_reserved":false,"is_disabled":false,"rental_uris":{"android":"levelo://app?vid=f81b1f63-1a4b-45cd-a383-2cc66db5e75c","ios":"levelo://app?vid=f81b1f63-1a4b-45cd-a383-2cc66db5e75c"},"vehicle_type_id":"4","last_reported":1761322369,"current_range_meters":10800,"station_id":"ce4bh412rcd13ifvqdr0","pricing_plan_id":"cebpf4jnsgd1na2vs0mg"},{"bike_id":"ede4415b-7eaa-4e6c-a9a6-84e9ec1c328d","system_id":"levelo_inurba_marseille","lat":43.30657,"lon":5.40094,"is_reserved":false,"is_disabled":false,"rental_uris":{"android":"levelo://app?vid=ede4415b-7eaa-4e6c-a9a6-84e9ec1c328d","ios":"levelo://app?vid=ede4415b-7eaa-4e6c-a9a6-84e9ec1c328d"},"vehicle_type_id":"4","last_reported":1761322369,"current_range_meters":10800,"station_id":"ce4bh112rcd13ifvqda0","pricing_plan_id":"cebpf4jnsgd1na2vs0mg"},{"bike_id":"d3cd6432-7c9e-457b-8cb5-53cf95916f4e","system_id":"levelo_inurba_marseille","lat":43.241613,"lon":5.364054,"is_reserved":false,"is_disabled":false,"rental_uris":{"android":"levelo://app?vid=d3cd6432-7c9e-457b-8cb5-53cf95916f4e","ios":"levelo://app?vid=d3cd6432-7c9e-457b-8cb5-53cf95916f4e"},"vehicle_type_id":"4","last_reported":1761322369,"current_range_meters":10800,"station_id":"ce4bhb12rcd13ifvqel0","pricing_plan_id":"cebpf4jnsgd1na2vs0mg"},{"bike_id":"41d1e9c8-193a-4e64-a1f0-b7037202749b","system_id":"levelo_inurba_marseille","lat":43.30154,"lon":5.374,"is_reserved":false,"is_disabled":true,"rental_uris":{"android":"levelo://app?vid=41d1e9c8-193a-4e64-a1f0-b7037202749b","ios":"levelo://app?vid=41d1e9c8-193a-4e64-a1f0-b7037202749b"},"vehicle_type_id":"4","last_reported":1761322369,"current_range_meters":10800,"station_id":"ce4bgs92rcd13ifvqcc0","pricing_plan_id":"cebpf4jnsgd1na2vs0mg"},{"bike_id":"11f85f26-b7d2-4f6c-b0b2-a88161abba04","system_id":"levelo_inurba_marseille","lat":43.28802,"lon":5.38866,"is_reserved":false,"is_disabled":false,"rental_uris":{"android":"levelo://app?vid=11f85f26-b7d2-4f6c-b0b2-a88161abba04","ios":"levelo://app?vid=11f85f26-b7d2-4f6c-b0b2-a88161abba04"},"vehicle_type_id":"4","last_reported":1761322369,"current_range_meters":10800,"station_id":"","pricing_plan_id":"cebpf4jnsgd1na2vs0mg"},{"bike_id":"c41e2305-3149-440c-9286-928b07dbd502","system_id":"levelo_inurba_marseille","lat":43.26226,"lon":5.40452,"is_reserved":false,"is_disabled":false,"rental_uris":{"android":"levelo://app?vid=c41e2305-3149-440c-9286-928b07dbd502","ios":"levelo://app?vid=c41e2305-3149-440c-9286-928b07dbd502"},"vehicle_type_id":"4","last_reported":1761322369,"current_range_meters":11200,"station_id":"ce4bhmh2rcd13ifvqgmg","pricing_plan_id":"cebpf4jnsgd1na2vs0mg"},{"bike_id":"9ead897e-4359-47fb-89ba-cae7100397db","system_id":"levelo_inurba_marseille","lat":43.273638,"lon":5.361764,"is_reserved":false,"is_disabled":false,"rental_uris":{"android":"levelo://app?vid=9ead897e-4359-47fb-89ba-cae7100397db","ios":"levelo://app?vid=9ead897e-4359-47fb-89ba-cae7100397db"},"vehicle_type_id":"4","last_reported":1761322369,"current_range_meters":11200,"station_id":"ce4bhch2rcd13ifvqeug","pricing_plan_id":"cebpf4jnsgd1na2vs0mg"},{"bike_id":"20004eb5-f97d-4b22-bbae-35b6d8aeb8bf","system_id":"levelo_inurba_marseille","lat":43.25578,"lon":5.38231,"is_reserved":false,"is_disabled":false,"rental_uris":{"android":"levelo://app?vid=20004eb5-f97d-4b22-bbae-35b6d8aeb8bf","ios":"levelo://app?vid=20004eb5-f97d-4b22-bbae-35b6d8aeb8bf"},"vehicle_type_id":"4","last_reported":1761322369,"current_range_meters":11200,"station_id":"ce4bhih2rcd13ifvqfs0","pricing_plan_id":"cebpf4jnsgd1na2vs0mg"},{"bike_id":"e53a3607-efda-4685-a5e3-bbe81ebfbcda","system_id":"levelo_inurba_marseille","lat":43.29863,"lon":5.39737,"is_reserved":false,"is_disabled":false,"rental_uris":{"android":"levelo://app?vid=e53a3607-efda-4685-a5e3-bbe81ebfbcda","ios":"levelo://app?vid=e53a3607-efda-4685-a5e3-bbe81ebfbcda"},"vehicle_type_id":"4","last_reported":1761322369,"current_range_meters":11200,"station_id":"ce4bh0h2rcd13ifvqd50","pricing_plan_id":"cebpf4jnsgd1na2vs0mg"},{"bike_id":"1e7b4865-9ff1-4058-a2f9-556511476e6d","system_id":"levelo_inurba_marseille","lat":43.29844,"lon":5.36264,"is_reserved":false,"is_disabled":false,"rental_uris":{"android":"levelo://app?vid=1e7b4865-9ff1-4058-a2f9-556511476e6d","ios":"levelo://app?vid=1e7b4865-9ff1-4058-a2f9-556511476e6d"},"vehicle_type_id":"4","last_reported":1761322369,"current_range_meters":11600,"station_id":"ce4bgpp2rcd13ifvqc3g","pricing_plan_id":"cebpf4jnsgd1na2vs0mg"},{"bike_id":"13687e81-1eef-4463-b1c8-01e016eec41c","system_id":"levelo_inurba_marseille","lat":43.30264,"lon":5.40075,"is_reserved":false,"is_disabled":false,"rental_uris":{"android":"levelo://app?vid=13687e81-1eef-4463-b1c8-01e016eec41c","ios":"levelo://app?vid=13687e81-1eef-4463-b1c8-01e016eec41c"},"vehicle_type_id":"4","last_reported":1761322369,"current_range_meters":11600,"station_id":"ce4bgvh2rcd13ifvqcs0","pricing_plan_id":"cebpf4jnsgd1na2vs0mg"},{"bike_id":"4c2f821f-4274-4494-bffe-521b28772974","system_id":"levelo_inurba_marseille","lat":43.28847,"lon":5.39301,"is_reserved":false,"is_disabled":false,"rental_uris":{"android":"levelo://app?vid=4c2f821f-4274-4494-bffe-521b28772974","ios":"levelo://app?vid=4c2f821f-4274-4494-bffe-521b28772974"},"vehicle_type_id":"4","last_reported":1761322369,"current_range_meters":11600,"station_id":"ce4bh2p2rcd13ifvqdi0","pricing_plan_id":"cebpf4jnsgd1na2vs0mg"},{"bike_id":"4e91e85a-29f1-4ba8-8b67-38e7bce57c51","system_id":"levelo_inurba_marseille","lat":43.28619,"lon":5.35107,"is_reserved":false,"is_disabled":false,"rental_uris":{"android":"levelo://app?vid=4e91e85a-29f1-4ba8-8b67-38e7bce57c51","ios":"levelo://app?vid=4e91e85a-29f1-4ba8-8b67-38e7bce57c51"},"vehicle_type_id":"4","last_reported":1761322369,"current_range_meters":11600,"station_id":"ce4bhch2rcd13ifvqeug","pricing_plan_id":"cebpf4jnsgd1na2vs0mg"},{"bike_id":"2e516aa3-da3f-4cd4-8d7a-1dc8bf5d8ddd","system_id":"levelo_inurba_marseille","lat":43.32105,"lon":5.36762,"is_reserved":false,"is_disabled":false,"rental_uris":{"android":"levelo://app?vid=2e516aa3-da3f-4cd4-8d7a-1dc8bf5d8ddd","ios":"levelo://app?vid=2e516aa3-da3f-4cd4-8d7a-1dc8bf5d8ddd"},"vehicle_type_id":"4","last_reported":1761322369,"current_range_meters":12000,"station_id":"ce4bhrh2rcd13ifvqhug","pricing_plan_id":"cebpf4jnsgd1na2vs0mg"},{"bike_id":"db94d1e3-d6ad-4bc0-b456-0d49f128a641","system_id":"levelo_inurba_marseille","lat":43.30217,"lon":5.37114,"is_reserved":false,"is_disabled":false,"rental_uris":{"android":"levelo://app?vid=db94d1e3-d6ad-4bc0-b456-0d49f128a641","ios":"levelo://app?vid=db94d1e3-d6ad-4bc0-b456-0d49f128a641"},"vehicle_type_id":"4","last_reported":1761322369,"current_range_meters":12000,"station_id":"","pricing_plan_id":"cebpf4jnsgd1na2vs0mg"},{"bike_id":"49205a8f-4198-4c0b-b7d7-97a9473705ce","system_id":"levelo_inurba_marseille","lat":43.32091,"lon":5.36812,"is_reserved":false,"is_disabled":false,"rental_uris":{"android":"levelo://app?vid=49205a8f-4198-4c0b-b7d7-97a9473705ce","ios":"levelo://app?vid=49205a8f-4198-4c0b-b7d7-97a9473705ce"},"vehicle_type_id":"4","last_reported":1761322369,"current_range_meters":12000,"station_id":"ce4bhrh2rcd13ifvqhug","pricing_plan_id":"cebpf4jnsgd1na2vs0mg"},{"bike_id":"96fca123-27a6-4404-a179-a1c95b496303","system_id":"levelo_inurba_marseille","lat":43.27495,"lon":5.42452,"is_reserved":false,"is_disabled":false,"rental_uris":{"android":"levelo://app?vid=96fca123-27a6-4404-a179-a1c95b496303","ios":"levelo://app?vid=96fca123-27a6-4404-a179-a1c95b496303"},"vehicle_type_id":"4","last_reported":1761322369,"current_range_meters":12000,"station_id":"ce4bhn92rcd13ifvqgrg","pricing_plan_id":"cebpf4jnsgd1na2vs0mg"},{"bike_id":"3ab510cf-47f2-48e8-a2ce-21bd0b6e2cd7","system_id":"levelo_inurba_marseille","lat":43.29857,"lon":5.40772,"is_reserved":false,"is_disabled":false,"rental_uris":{"android":"levelo://app?vid=3ab510cf-47f2-48e8-a2ce-21bd0b6e2cd7","ios":"levelo://app?vid=3ab510cf-47f2-48e8-a2ce-21bd0b6e2cd7"},"vehicle_type_id":"4","last_reported":1761322369,"current_range_meters":12000,"station_id":"","pricing_plan_id":"cebpf4jnsgd1na2vs0mg"},{"bike_id":"ccb140cc-61af-460c-9c74-9b118e13b00f","system_id":"levelo_inurba_marseille","lat":43.253342,"lon":5.421735,"is_reserved":false,"is_disabled":false,"rental_uris":{"android":"levelo://app?vid=ccb140cc-61af-460c-9c74-9b118e13b00f","ios":"levelo://app?vid=ccb140cc-61af-460c-9c74-9b118e13b00f"},"vehicle_type_id":"4","last_reported":1761322369,"current_range_meters":12400,"station_id":"st_d2m65c5bi1j21697t3ng","pricing_plan_id":"cebpf4jnsgd1na2vs0mg"},{"bike_id":"819d2aa3-ea2a-4a3f-8940-7863e6c8dc69","system_id":"levelo_inurba_marseille","lat":43.335909,"lon":5.409983,"is_reserved":false,"is_disabled":false,"rental_uris":{"android":"levelo://app?vid=819d2aa3-ea2a-4a3f-8940-7863e6c8dc69","ios":"levelo://app?vid=819d2aa3-ea2a-4a3f-8940-7863e6c8dc69"},"vehicle_type_id":"4","last_reported":1761322369,"current_range_meters":12400,"station_id":"ce4bhqh2rcd13ifvqhmg","pricing_plan_id":"cebpf4jnsgd1na2vs0mg"},{"bike_id":"e97b714e-f5cd-4f0a-9180-117be40830be","system_id":"levelo_inurba_marseille","lat":43.295316,"lon":5.3856,"is_reserved":false,"is_disabled":false,"rental_uris":{"android":"levelo://app?vid=e97b714e-f5cd-4f0a-9180-117be40830be","ios":"levelo://app?vid=e97b714e-f5cd-4f0a-9180-117be40830be"},"vehicle_type_id":"4","last_reported":1761322369,"current_range_meters":12400,"station_id":"ce4bgih2rcd13ifvqba0","pricing_plan_id":"cebpf4jnsgd1na2vs0mg"},{"bike_id":"9231c9f1-ec2a-4c29-b3ce-756342e2f952","system_id":"levelo_inurba_marseille","lat":43.24655,"lon":5.38901,"is_reserved":false,"is_disabled":false,"rental_uris":{"android":"levelo://app?vid=9231c9f1-ec2a-4c29-b3ce-756342e2f952","ios":"levelo://app?vid=9231c9f1-ec2a-4c29-b3ce-756342e2f952"},"vehicle_type_id":"4","last_reported":1761322369,"current_range_meters":12400,"station_id":"ce4bhg12rcd13ifvqf60","pricing_plan_id":"cebpf4jnsgd1na2vs0mg"},{"bike_id":"12d996b7-252f-4b4e-9910-cc541841d4fd","system_id":"levelo_inurba_marseille","lat":43.292817,"lon":5.401182,"is_reserved":false,"is_disabled":false,"rental_uris":{"android":"levelo://app?vid=12d996b7-252f-4b4e-9910-cc541841d4fd","ios":"levelo://app?vid=12d996b7-252f-4b4e-9910-cc541841d4fd"},"vehicle_type_id":"4","last_reported":1761322369,"current_range_meters":12400,"station_id":"ce4bh312rcd13ifvqdk0","pricing_plan_id":"cebpf4jnsgd1na2vs0mg"},{"bike_id":"5f9d2088-08e6-4925-aefd-e9e57e853252","system_id":"levelo_inurba_marseille","lat":43.2848,"lon":5.48389,"is_reserved":false,"is_disabled":false,"rental_uris":{"android":"levelo://app?vid=5f9d2088-08e6-4925-aefd-e9e57e853252","ios":"levelo://app?vid=5f9d2088-08e6-4925-aefd-e9e57e853252"},"vehicle_type_id":"4","last_reported":1761322369,"current_range_meters":12400,"station_id":"st_d3svhcjqgbts73a3dn0g","pricing_plan_id":"cebpf4jnsgd1na2vs0mg"},{"bike_id":"de4b8ab5-285e-474a-b521-72ccb626a9fe","system_id":"levelo_inurba_marseille","lat":43.32246,"lon":5.38357,"is_reserved":false,"is_disabled":false,"rental_uris":{"android":"levelo://app?vid=de4b8ab5-285e-474a-b521-72ccb626a9fe","ios":"levelo://app?vid=de4b8ab5-285e-474a-b521-72ccb626a9fe"},"vehicle_type_id":"4","last_reported":1761322369,"current_range_meters":12800,"station_id":"ce4bhr12rcd13ifvqhqg","pricing_plan_id":"cebpf4jnsgd1na2vs0mg"},{"bike_id":"f8c755d7-1bb8-4fcd-bb3f-74aeb49951cc","system_id":"levelo_inurba_marseille","lat":43.313732,"lon":5.379005,"is_reserved":false,"is_disabled":false,"rental_uris":{"android":"levelo://app?vid=f8c755d7-1bb8-4fcd-bb3f-74aeb49951cc","ios":"levelo://app?vid=f8c755d7-1bb8-4fcd-bb3f-74aeb49951cc"},"vehicle_type_id":"4","last_reported":1761322369,"current_range_meters":12800,"station_id":"","pricing_plan_id":"cebpf4jnsgd1na2vs0mg"},{"bike_id":"e2f012ea-0877-4cf7-ab66-613597b63948","system_id":"levelo_inurba_marseille","lat":43.279938,"lon":5.41659,"is_reserved":false,"is_disabled":false,"rental_uris":{"android":"levelo://app?vid=e2f012ea-0877-4cf7-ab66-613597b63948","ios":"levelo://app?vid=e2f012ea-0877-4cf7-ab66-613597b63948"},"vehicle_type_id":"4","last_reported":1761322369,"current_range_meters":12800,"station_id":"ce4bho12rcd13ifvqh1g","pricing_plan_id":"cebpf4jnsgd1na2vs0mg"},{"bike_id":"521d5065-97fe-4c20-a4ad-3813cce01063","system_id":"levelo_inurba_marseille","lat":43.2951,"lon":5.39396,"is_reserved":false,"is_disabled":false,"rental_uris":{"android":"levelo://app?vid=521d5065-97fe-4c20-a4ad-3813cce01063","ios":"levelo://app?vid=521d5065-97fe-4c20-a4ad-3813cce01063"},"vehicle_type_id":"4","last_reported":1761322369,"current_range_meters":13600,"station_id":"ce4bh292rcd13ifvqdf0","pricing_plan_id":"cebpf4jnsgd1na2vs0mg"},{"bike_id":"68913c84-342a-4ac5-9ffa-ea0a618c0522","system_id":"levelo_inurba_marseille","lat":43.212,"lon":5.35073,"is_reserved":false,"is_disabled":false,"rental_uris":{"android":"levelo://app?vid=68913c84-342a-4ac5-9ffa-ea0a618c0522","ios":"levelo://app?vid=68913c84-342a-4ac5-9ffa-ea0a618c0522"},"vehicle_type_id":"4","last_reported":1761322369,"current_range_meters":13600,"station_id":"st_cvj6sg6p6f1abm77japg","pricing_plan_id":"cebpf4jnsgd1na2vs0mg"},{"bike_id":"6b307c52-f33b-4885-85a6-9bac6592bb3d","system_id":"levelo_inurba_marseille","lat":43.21183,"lon":5.35094,"is_reserved":false,"is_disabled":false,"rental_uris":{"android":"levelo://app?vid=6b307c52-f33b-4885-85a6-9bac6592bb3d","ios":"levelo://app?vid=6b307c52-f33b-4885-85a6-9bac6592bb3d"},"vehicle_type_id":"4","last_reported":1761322369,"current_range_meters":13600,"station_id":"st_cvj6sg6p6f1abm77japg","pricing_plan_id":"cebpf4jnsgd1na2vs0mg"},{"bike_id":"fe3c883a-017e-412a-b4e9-cdd82024aab9","system_id":"levelo_inurba_marseille","lat":43.29527,"lon":5.39406,"is_reserved":false,"is_disabled":false,"rental_uris":{"android":"levelo://app?vid=fe3c883a-017e-412a-b4e9-cdd82024aab9","ios":"levelo://app?vid=fe3c883a-017e-412a-b4e9-cdd82024aab9"},"vehicle_type_id":"4","last_reported":1761322369,"current_range_meters":13600,"station_id":"ce4bh292rcd13ifvqdf0","pricing_plan_id":"cebpf4jnsgd1na2vs0mg"},{"bike_id":"dd944ec2-d002-4dba-a8ae-2c9bf2d202bc","system_id":"levelo_inurba_marseille","lat":43.28846,"lon":5.35854,"is_reserved":false,"is_disabled":false,"rental_uris":{"android":"levelo://app?vid=dd944ec2-d002-4dba-a8ae-2c9bf2d202bc","ios":"levelo://app?vid=dd944ec2-d002-4dba-a8ae-2c9bf2d202bc"},"vehicle_type_id":"4","last_reported":1761322369,"current_range_meters":13600,"station_id":"ce4bhb12rcd13ifvqem0","pricing_plan_id":"cebpf4jnsgd1na2vs0mg"},{"bike_id":"00da8a33-1256-41e8-b4eb-55a7549c59d5","system_id":"levelo_inurba_marseille","lat":43.31304,"lon":5.36904,"is_reserved":false,"is_disabled":false,"rental_uris":{"android":"levelo://app?vid=00da8a33-1256-41e8-b4eb-55a7549c59d5","ios":"levelo://app?vid=00da8a33-1256-41e8-b4eb-55a7549c59d5"},"vehicle_type_id":"4","last_reported":1761322369,"current_range_meters":14000,"station_id":"","pricing_plan_id":"cebpf4jnsgd1na2vs0mg"},{"bike_id":"725f18c0-2091-4f5a-9fa4-364daab670a9","system_id":"levelo_inurba_marseille","lat":43.29188,"lon":5.35808,"is_reserved":false,"is_disabled":false,"rental_uris":{"android":"levelo://app?vid=725f18c0-2091-4f5a-9fa4-364daab670a9","ios":"levelo://app?vid=725f18c0-2091-4f5a-9fa4-364daab670a9"},"vehicle_type_id":"4","last_reported":1761322369,"current_range_meters":14000,"station_id":"ce4bhb12rcd13ifvqel0","pricing_plan_id":"cebpf4jnsgd1na2vs0mg"},{"bike_id":"8be6a47c-9542-4fed-8109-f6d91a0f2b3f","system_id":"levelo_inurba_marseille","lat":43.2923,"lon":5.37152,"is_reserved":false,"is_disabled":false,"rental_uris":{"android":"levelo://app?vid=8be6a47c-9542-4fed-8109-f6d91a0f2b3f","ios":"levelo://app?vid=8be6a47c-9542-4fed-8109-f6d91a0f2b3f"},"vehicle_type_id":"4","last_reported":1761322369,"current_range_meters":14000,"station_id":"","pricing_plan_id":"cebpf4jnsgd1na2vs0mg"},{"bike_id":"30ea274c-9e75-4236-ae16-9c20aeabdf89","system_id":"levelo_inurba_marseille","lat":43.26575,"lon":5.39024,"is_reserved":false,"is_disabled":false,"rental_uris":{"android":"levelo://app?vid=30ea274c-9e75-4236-ae16-9c20aeabdf89","ios":"levelo://app?vid=30ea274c-9e75-4236-ae16-9c20aeabdf89"},"vehicle_type_id":"4","last_reported":1761322369,"current_range_meters":14000,"station_id":"ce4bhe12rcd13ifvqf30","pricing_plan_id":"cebpf4jnsgd1na2vs0mg"},{"bike_id":"b99e074d-2238-4159-87a4-08bbc2469f3e","system_id":"levelo_inurba_marseille","lat":43.30125,"lon":5.39848,"is_reserved":false,"is_disabled":false,"rental_uris":{"android":"levelo://app?vid=b99e074d-2238-4159-87a4-08bbc2469f3e","ios":"levelo://app?vid=b99e074d-2238-4159-87a4-08bbc2469f3e"},"vehicle_type_id":"4","last_reported":1761322369,"current_range_meters":14000,"station_id":"ce4bh0h2rcd13ifvqd40","pricing_plan_id":"cebpf4jnsgd1na2vs0mg"},{"bike_id":"18c99349-8bd2-4415-bcd7-f029cb256479","system_id":"levelo_inurba_marseille","lat":43.2928,"lon":5.40119,"is_reserved":false,"is_disabled":false,"rental_uris":{"android":"levelo://app?vid=18c99349-8bd2-4415-bcd7-f029cb256479","ios":"levelo://app?vid=18c99349-8bd2-4415-bcd7-f029cb256479"},"vehicle_type_id":"4","last_reported":1761322369,"current_range_meters":14400,"station_id":"ce4bh312rcd13ifvqdk0","pricing_plan_id":"cebpf4jnsgd1na2vs0mg"},{"bike_id":"249615da-bae2-4bb3-9506-b338b9fb85b7","system_id":"levelo_inurba_marseille","lat":43.29736,"lon":5.37676,"is_reserved":false,"is_disabled":true,"rental_uris":{"android":"levelo://app?vid=249615da-bae2-4bb3-9506-b338b9fb85b7","ios":"levelo://app?vid=249615da-bae2-4bb3-9506-b338b9fb85b7"},"vehicle_type_id":"4","last_reported":1761322369,"current_range_meters":14400,"station_id":"ce4bgkh2rcd13ifvqbl0","pricing_plan_id":"cebpf4jnsgd1na2vs0mg"},{"bike_id":"7b27770c-24e5-431b-b652-6f3d7adb196d","system_id":"levelo_inurba_marseille","lat":43.305573,"lon":5.365503,"is_reserved":false,"is_disabled":false,"rental_uris":{"android":"levelo://app?vid=7b27770c-24e5-431b-b652-6f3d7adb196d","ios":"levelo://app?vid=7b27770c-24e5-431b-b652-6f3d7adb196d"},"vehicle_type_id":"4","last_reported":1761322369,"current_range_meters":14400,"station_id":"ce4bgs12rcd13ifvqcag","pricing_plan_id":"cebpf4jnsgd1na2vs0mg"},{"bike_id":"73019415-679c-46df-bd2d-1b42534d9724","system_id":"levelo_inurba_marseille","lat":43.26423,"lon":5.37383,"is_reserved":false,"is_disabled":false,"rental_uris":{"android":"levelo://app?vid=73019415-679c-46df-bd2d-1b42534d9724","ios":"levelo://app?vid=73019415-679c-46df-bd2d-1b42534d9724"},"vehicle_type_id":"4","last_reported":1761322369,"current_range_meters":14400,"station_id":"","pricing_plan_id":"cebpf4jnsgd1na2vs0mg"},{"bike_id":"fef40594-8de0-44aa-a3c1-2116955da244","system_id":"levelo_inurba_marseille","lat":43.26186,"lon":5.41704,"is_reserved":false,"is_disabled":false,"rental_uris":{"android":"levelo://app?vid=fef40594-8de0-44aa-a3c1-2116955da244","ios":"levelo://app?vid=fef40594-8de0-44aa-a3c1-2116955da244"},"vehicle_type_id":"4","last_reported":1761322369,"current_range_meters":14400,"station_id":"","pricing_plan_id":"cebpf4jnsgd1na2vs0mg"},{"bike_id":"fab4d2e1-0c66-4288-aa4a-db93271db1d4","system_id":"levelo_inurba_marseille","lat":43.27814,"lon":5.40718,"is_reserved":false,"is_disabled":false,"rental_uris":{"android":"levelo://app?vid=fab4d2e1-0c66-4288-aa4a-db93271db1d4","ios":"levelo://app?vid=fab4d2e1-0c66-4288-aa4a-db93271db1d4"},"vehicle_type_id":"4","last_reported":1761322369,"current_range_meters":14400,"station_id":"ce4bhnh2rcd13ifvqgtg","pricing_plan_id":"cebpf4jnsgd1na2vs0mg"},{"bike_id":"1a888e0e-2f9b-4eb5-87fc-c707d8adca64","system_id":"levelo_inurba_marseille","lat":43.32298,"lon":5.38267,"is_reserved":false,"is_disabled":false,"rental_uris":{"android":"levelo://app?vid=1a888e0e-2f9b-4eb5-87fc-c707d8adca64","ios":"levelo://app?vid=1a888e0e-2f9b-4eb5-87fc-c707d8adca64"},"vehicle_type_id":"4","last_reported":1761322369,"current_range_meters":14800,"station_id":"ce4bhr12rcd13ifvqhqg","pricing_plan_id":"cebpf4jnsgd1na2vs0mg"},{"bike_id":"32ce9492-4637-4d6e-a292-cd351db28377","system_id":"levelo_inurba_marseille","lat":43.31162,"lon":5.37047,"is_reserved":false,"is_disabled":false,"rental_uris":{"android":"levelo://app?vid=32ce9492-4637-4d6e-a292-cd351db28377","ios":"levelo://app?vid=32ce9492-4637-4d6e-a292-cd351db28377"},"vehicle_type_id":"4","last_reported":1761322369,"current_range_meters":14800,"station_id":"","pricing_plan_id":"cebpf4jnsgd1na2vs0mg"},{"bike_id":"90c830ba-21ab-4a14-a1c7-0e8f65c0ef5d","system_id":"levelo_inurba_marseille","lat":43.2588,"lon":5.39911,"is_reserved":false,"is_disabled":false,"rental_uris":{"android":"levelo://app?vid=90c830ba-21ab-4a14-a1c7-0e8f65c0ef5d","ios":"levelo://app?vid=90c830ba-21ab-4a14-a1c7-0e8f65c0ef5d"},"vehicle_type_id":"4","last_reported":1761322369,"current_range_meters":14800,"station_id":"ce4bhl92rcd13ifvqghg","pricing_plan_id":"cebpf4jnsgd1na2vs0mg"},{"bike_id":"9852cd06-0abc-4de2-b73e-f48cd87d1888","system_id":"levelo_inurba_marseille","lat":43.26062,"lon":5.39397,"is_reserved":false,"is_disabled":false,"rental_uris":{"android":"levelo://app?vid=9852cd06-0abc-4de2-b73e-f48cd87d1888","ios":"levelo://app?vid=9852cd06-0abc-4de2-b73e-f48cd87d1888"},"vehicle_type_id":"4","last_reported":1761322369,"current_range_meters":14800,"station_id":"ce4bhh92rcd13ifvqfj0","pricing_plan_id":"cebpf4jnsgd1na2vs0mg"},{"bike_id":"8cb50cc1-70a1-4405-8289-bebe82f28aa2","system_id":"levelo_inurba_marseille","lat":43.25519,"lon":5.37655,"is_reserved":false,"is_disabled":false,"rental_uris":{"android":"levelo://app?vid=8cb50cc1-70a1-4405-8289-bebe82f28aa2","ios":"levelo://app?vid=8cb50cc1-70a1-4405-8289-bebe82f28aa2"},"vehicle_type_id":"4","last_reported":1761322369,"current_range_meters":14800,"station_id":"ce4bhh12rcd13ifvqff0","pricing_plan_id":"cebpf4jnsgd1na2vs0mg"},{"bike_id":"899a6ea8-ec5a-4832-a1d4-a416c63a7cff","system_id":"levelo_inurba_marseille","lat":43.29963,"lon":5.41323,"is_reserved":false,"is_disabled":false,"rental_uris":{"android":"levelo://app?vid=899a6ea8-ec5a-4832-a1d4-a416c63a7cff","ios":"levelo://app?vid=899a6ea8-ec5a-4832-a1d4-a416c63a7cff"},"vehicle_type_id":"4","last_reported":1761322369,"current_range_meters":14800,"station_id":"ce4bhp12rcd13ifvqh9g","pricing_plan_id":"cebpf4jnsgd1na2vs0mg"},{"bike_id":"2fa9561f-426f-405d-80bf-86af15a842a5","system_id":"levelo_inurba_marseille","lat":43.25341,"lon":5.42172,"is_reserved":false,"is_disabled":false,"rental_uris":{"android":"levelo://app?vid=2fa9561f-426f-405d-80bf-86af15a842a5","ios":"levelo://app?vid=2fa9561f-426f-405d-80bf-86af15a842a5"},"vehicle_type_id":"4","last_reported":1761322369,"current_range_meters":14800,"station_id":"st_d2m65c5bi1j21697t3ng","pricing_plan_id":"cebpf4jnsgd1na2vs0mg"},{"bike_id":"15d0f856-700a-4ee0-a105-a33bbeca77b7","system_id":"levelo_inurba_marseille","lat":43.28572,"lon":5.39502,"is_reserved":false,"is_disabled":false,"rental_uris":{"android":"levelo://app?vid=15d0f856-700a-4ee0-a105-a33bbeca77b7","ios":"levelo://app?vid=15d0f856-700a-4ee0-a105-a33bbeca77b7"},"vehicle_type_id":"4","last_reported":1761322369,"current_range_meters":15200,"station_id":"ce4bh292rcd13ifvqdg0","pricing_plan_id":"cebpf4jnsgd1na2vs0mg"},{"bike_id":"4f5c5045-2f2c-4ab7-ad8b-eeba1d52fe66","system_id":"levelo_inurba_marseille","lat":43.310766,"lon":5.374676,"is_reserved":false,"is_disabled":false,"rental_uris":{"android":"levelo://app?vid=4f5c5045-2f2c-4ab7-ad8b-eeba1d52fe66","ios":"levelo://app?vid=4f5c5045-2f2c-4ab7-ad8b-eeba1d52fe66"},"vehicle_type_id":"4","last_reported":1761322369,"current_range_meters":15200,"station_id":"","pricing_plan_id":"cebpf4jnsgd1na2vs0mg"},{"bike_id":"ff00e1a1-52b4-4a22-8d68-fcab423d4648","system_id":"levelo_inurba_marseille","lat":43.29526,"lon":5.39408,"is_reserved":false,"is_disabled":false,"rental_uris":{"android":"levelo://app?vid=ff00e1a1-52b4-4a22-8d68-fcab423d4648","ios":"levelo://app?vid=ff00e1a1-52b4-4a22-8d68-fcab423d4648"},"vehicle_type_id":"4","last_reported":1761322369,"current_range_meters":15200,"station_id":"ce4bh292rcd13ifvqdf0","pricing_plan_id":"cebpf4jnsgd1na2vs0mg"},{"bike_id":"8c4ade53-28b6-421a-8b0a-4b851571fed4","system_id":"levelo_inurba_marseille","lat":43.25342,"lon":5.42169,"is_reserved":false,"is_disabled":false,"rental_uris":{"android":"levelo://app?vid=8c4ade53-28b6-421a-8b0a-4b851571fed4","ios":"levelo://app?vid=8c4ade53-28b6-421a-8b0a-4b851571fed4"},"vehicle_type_id":"4","last_reported":1761322369,"current_range_meters":15200,"station_id":"st_d2m65c5bi1j21697t3ng","pricing_plan_id":"cebpf4jnsgd1na2vs0mg"},{"bike_id":"6b0d179f-3613-490d-9685-77529d6261f8","system_id":"levelo_inurba_marseille","lat":43.29039,"lon":5.37566,"is_reserved":false,"is_disabled":false,"rental_uris":{"android":"levelo://app?vid=6b0d179f-3613-490d-9685-77529d6261f8","ios":"levelo://app?vid=6b0d179f-3613-490d-9685-77529d6261f8"},"vehicle_type_id":"4","last_reported":1761322369,"current_range_meters":16000,"station_id":"ce4bh692rcd13ifvqe90","pricing_plan_id":"cebpf4jnsgd1na2vs0mg"},{"bike_id":"7d338237-38f1-4e08-b314-ed5b9664f816","system_id":"levelo_inurba_marseille","lat":43.29845,"lon":5.36267,"is_reserved":false,"is_disabled":false,"rental_uris":{"android":"levelo://app?vid=7d338237-38f1-4e08-b314-ed5b9664f816","ios":"levelo://app?vid=7d338237-38f1-4e08-b314-ed5b9664f816"},"vehicle_type_id":"4","last_reported":1761322369,"current_range_meters":16000,"station_id":"ce4bgpp2rcd13ifvqc3g","pricing_plan_id":"cebpf4jnsgd1na2vs0mg"},{"bike_id":"73edc1b3-46fe-45a3-a6d9-70825c49e591","system_id":"levelo_inurba_marseille","lat":43.29508,"lon":5.37819,"is_reserved":false,"is_disabled":false,"rental_uris":{"android":"levelo://app?vid=73edc1b3-46fe-45a3-a6d9-70825c49e591","ios":"levelo://app?vid=73edc1b3-46fe-45a3-a6d9-70825c49e591"},"vehicle_type_id":"4","last_reported":1761322369,"current_range_meters":16000,"station_id":"","pricing_plan_id":"cebpf4jnsgd1na2vs0mg"},{"bike_id":"b9c8ced1-4ad2-4529-8b78-c6503294316b","system_id":"levelo_inurba_marseille","lat":43.302179,"lon":5.394717,"is_reserved":false,"is_disabled":false,"rental_uris":{"android":"levelo://app?vid=b9c8ced1-4ad2-4529-8b78-c6503294316b","ios":"levelo://app?vid=b9c8ced1-4ad2-4529-8b78-c6503294316b"},"vehicle_type_id":"4","last_reported":1761322369,"current_range_meters":16000,"station_id":"","pricing_plan_id":"cebpf4jnsgd1na2vs0mg"},{"bike_id":"e63ec601-8e7f-4749-b287-23538301d6ab","system_id":"levelo_inurba_marseille","lat":43.30316,"lon":5.36892,"is_reserved":false,"is_disabled":false,"rental_uris":{"android":"levelo://app?vid=e63ec601-8e7f-4749-b287-23538301d6ab","ios":"levelo://app?vid=e63ec601-8e7f-4749-b287-23538301d6ab"},"vehicle_type_id":"4","last_reported":1761322369,"current_range_meters":16000,"station_id":"ce4bgqh2rcd13ifvqc5g","pricing_plan_id":"cebpf4jnsgd1na2vs0mg"},{"bike_id":"fb992e35-c109-4cb7-96c7-50faefdd00eb","system_id":"levelo_inurba_marseille","lat":43.33037,"lon":5.37298,"is_reserved":false,"is_disabled":false,"rental_uris":{"android":"levelo://app?vid=fb992e35-c109-4cb7-96c7-50faefdd00eb","ios":"levelo://app?vid=fb992e35-c109-4cb7-96c7-50faefdd00eb"},"vehicle_type_id":"4","last_reported":1761322369,"current_range_meters":16400,"station_id":"","pricing_plan_id":"cebpf4jnsgd1na2vs0mg"},{"bike_id":"fadca4ae-b2ac-4723-bdaf-a15096c40cfd","system_id":"levelo_inurba_marseille","lat":43.24386,"lon":5.37059,"is_reserved":false,"is_disabled":false,"rental_uris":{"android":"levelo://app?vid=fadca4ae-b2ac-4723-bdaf-a15096c40cfd","ios":"levelo://app?vid=fadca4ae-b2ac-4723-bdaf-a15096c40cfd"},"vehicle_type_id":"4","last_reported":1761322369,"current_range_meters":16400,"station_id":"ce4bhhh2rcd13ifvqfk0","pricing_plan_id":"cebpf4jnsgd1na2vs0mg"},{"bike_id":"c81e523c-a40c-4a9a-ac22-8ee19471f43b","system_id":"levelo_inurba_marseille","lat":43.30888,"lon":5.39641,"is_reserved":false,"is_disabled":false,"rental_uris":{"android":"levelo://app?vid=c81e523c-a40c-4a9a-ac22-8ee19471f43b","ios":"levelo://app?vid=c81e523c-a40c-4a9a-ac22-8ee19471f43b"},"vehicle_type_id":"4","last_reported":1761322369,"current_range_meters":16400,"station_id":"ce4bh012rcd13ifvqcv0","pricing_plan_id":"cebpf4jnsgd1na2vs0mg"},{"bike_id":"69599b97-b573-4868-ae16-9bda40c9248f","system_id":"levelo_inurba_marseille","lat":43.21188,"lon":5.35084,"is_reserved":false,"is_disabled":false,"rental_uris":{"android":"levelo://app?vid=69599b97-b573-4868-ae16-9bda40c9248f","ios":"levelo://app?vid=69599b97-b573-4868-ae16-9bda40c9248f"},"vehicle_type_id":"4","last_reported":1761322369,"current_range_meters":16400,"station_id":"st_cvj6sg6p6f1abm77japg","pricing_plan_id":"cebpf4jnsgd1na2vs0mg"},{"bike_id":"bd3eae83-a40a-4d6d-a7fe-88c9903d01a2","system_id":"levelo_inurba_marseille","lat":43.232056,"lon":5.355356,"is_reserved":false,"is_disabled":false,"rental_uris":{"android":"levelo://app?vid=bd3eae83-a40a-4d6d-a7fe-88c9903d01a2","ios":"levelo://app?vid=bd3eae83-a40a-4d6d-a7fe-88c9903d01a2"},"vehicle_type_id":"4","last_reported":1761322369,"current_range_meters":16400,"station_id":"ce4bhu92rcd13ifvqi70","pricing_plan_id":"cebpf4jnsgd1na2vs0mg"},{"bike_id":"417d2345-c4c6-4ccd-bc5c-2eafc961607b","system_id":"levelo_inurba_marseille","lat":43.25503,"lon":5.3767,"is_reserved":false,"is_disabled":false,"rental_uris":{"android":"levelo://app?vid=417d2345-c4c6-4ccd-bc5c-2eafc961607b","ios":"levelo://app?vid=417d2345-c4c6-4ccd-bc5c-2eafc961607b"},"vehicle_type_id":"4","last_reported":1761322369,"current_range_meters":16400,"station_id":"ce4bhh12rcd13ifvqff0","pricing_plan_id":"cebpf4jnsgd1na2vs0mg"},{"bike_id":"3e1e2031-45ed-4028-8c17-480731094448","system_id":"levelo_inurba_marseille","lat":43.28607,"lon":5.37072,"is_reserved":false,"is_disabled":false,"rental_uris":{"android":"levelo://app?vid=3e1e2031-45ed-4028-8c17-480731094448","ios":"levelo://app?vid=3e1e2031-45ed-4028-8c17-480731094448"},"vehicle_type_id":"4","last_reported":1761322369,"current_range_meters":16400,"station_id":"ce4bht12rcd13ifvqi60","pricing_plan_id":"cebpf4jnsgd1na2vs0mg"},{"bike_id":"75eebb0f-2447-4bf8-b846-45b5b359059b","system_id":"levelo_inurba_marseille","lat":43.33769,"lon":5.37496,"is_reserved":false,"is_disabled":false,"rental_uris":{"android":"levelo://app?vid=75eebb0f-2447-4bf8-b846-45b5b359059b","ios":"levelo://app?vid=75eebb0f-2447-4bf8-b846-45b5b359059b"},"vehicle_type_id":"4","last_reported":1761322369,"current_range_meters":16400,"station_id":"","pricing_plan_id":"cebpf4jnsgd1na2vs0mg"},{"bike_id":"749eeba0-ad61-46d1-903f-48ecbb37da93","system_id":"levelo_inurba_marseille","lat":43.28422,"lon":5.34973,"is_reserved":false,"is_disabled":false,"rental_uris":{"android":"levelo://app?vid=749eeba0-ad61-46d1-903f-48ecbb37da93","ios":"levelo://app?vid=749eeba0-ad61-46d1-903f-48ecbb37da93"},"vehicle_type_id":"4","last_reported":1761322369,"current_range_meters":16400,"station_id":"ce4bhbh2rcd13ifvqepg","pricing_plan_id":"cebpf4jnsgd1na2vs0mg"},{"bike_id":"a5ac6730-48ef-4390-991a-4b391408e9e5","system_id":"levelo_inurba_marseille","lat":43.286119,"lon":5.370563,"is_reserved":false,"is_disabled":false,"rental_uris":{"android":"levelo://app?vid=a5ac6730-48ef-4390-991a-4b391408e9e5","ios":"levelo://app?vid=a5ac6730-48ef-4390-991a-4b391408e9e5"},"vehicle_type_id":"4","last_reported":1761322369,"current_range_meters":16400,"station_id":"ce4bht12rcd13ifvqi60","pricing_plan_id":"cebpf4jnsgd1na2vs0mg"},{"bike_id":"aadbd845-2a71-4eef-8f22-930b38cc907c","system_id":"levelo_inurba_marseille","lat":43.293534,"lon":5.383495,"is_reserved":false,"is_disabled":false,"rental_uris":{"android":"levelo://app?vid=aadbd845-2a71-4eef-8f22-930b38cc907c","ios":"levelo://app?vid=aadbd845-2a71-4eef-8f22-930b38cc907c"},"vehicle_type_id":"4","last_reported":1761322369,"current_range_meters":16400,"station_id":"","pricing_plan_id":"cebpf4jnsgd1na2vs0mg"},{"bike_id":"8ccf9fe7-3042-4a01-9fb1-ac1dc7c7e621","system_id":"levelo_inurba_marseille","lat":43.30314,"lon":5.39207,"is_reserved":false,"is_disabled":false,"rental_uris":{"android":"levelo://app?vid=8ccf9fe7-3042-4a01-9fb1-ac1dc7c7e621","ios":"levelo://app?vid=8ccf9fe7-3042-4a01-9fb1-ac1dc7c7e621"},"vehicle_type_id":"4","last_reported":1761322369,"current_range_meters":16400,"station_id":"ce4bgkh2rcd13ifvqbk0","pricing_plan_id":"cebpf4jnsgd1na2vs0mg"},{"bike_id":"f5ab63cd-2117-4861-9126-fffb164e83e9","system_id":"levelo_inurba_marseille","lat":43.29575,"lon":5.3753,"is_reserved":false,"is_disabled":false,"rental_uris":{"android":"levelo://app?vid=f5ab63cd-2117-4861-9126-fffb164e83e9","ios":"levelo://app?vid=f5ab63cd-2117-4861-9126-fffb164e83e9"},"vehicle_type_id":"4","last_reported":1761322369,"current_range_meters":16800,"station_id":"ce4bgh92rcd13ifvqb50","pricing_plan_id":"cebpf4jnsgd1na2vs0mg"},{"bike_id":"5c0e1fad-1092-45f4-930f-73335d46d836","system_id":"levelo_inurba_marseille","lat":43.29787,"lon":5.38125,"is_reserved":false,"is_disabled":true,"rental_uris":{"android":"levelo://app?vid=5c0e1fad-1092-45f4-930f-73335d46d836","ios":"levelo://app?vid=5c0e1fad-1092-45f4-930f-73335d46d836"},"vehicle_type_id":"4","last_reported":1761322369,"current_range_meters":16800,"station_id":"ce4bgip2rcd13ifvqbb0","pricing_plan_id":"cebpf4jnsgd1na2vs0mg"},{"bike_id":"6861ce85-77a9-4d2e-a905-a525940c7a22","system_id":"levelo_inurba_marseille","lat":43.24673,"lon":5.38153,"is_reserved":false,"is_disabled":false,"rental_uris":{"android":"levelo://app?vid=6861ce85-77a9-4d2e-a905-a525940c7a22","ios":"levelo://app?vid=6861ce85-77a9-4d2e-a905-a525940c7a22"},"vehicle_type_id":"4","last_reported":1761322369,"current_range_meters":16800,"station_id":"ce4bhih2rcd13ifvqfr0","pricing_plan_id":"cebpf4jnsgd1na2vs0mg"},{"bike_id":"20e7e240-9806-4ddc-90fb-b6a2e820200a","system_id":"levelo_inurba_marseille","lat":43.30421,"lon":5.4128,"is_reserved":false,"is_disabled":false,"rental_uris":{"android":"levelo://app?vid=20e7e240-9806-4ddc-90fb-b6a2e820200a","ios":"levelo://app?vid=20e7e240-9806-4ddc-90fb-b6a2e820200a"},"vehicle_type_id":"4","last_reported":1761322369,"current_range_meters":16800,"station_id":"ce4bhop2rcd13ifvqh8g","pricing_plan_id":"cebpf4jnsgd1na2vs0mg"},{"bike_id":"2ff47830-7e6a-4642-8264-a2f4b08500d2","system_id":"levelo_inurba_marseille","lat":43.30796,"lon":5.40182,"is_reserved":false,"is_disabled":false,"rental_uris":{"android":"levelo://app?vid=2ff47830-7e6a-4642-8264-a2f4b08500d2","ios":"levelo://app?vid=2ff47830-7e6a-4642-8264-a2f4b08500d2"},"vehicle_type_id":"4","last_reported":1761322369,"current_range_meters":16800,"station_id":"","pricing_plan_id":"cebpf4jnsgd1na2vs0mg"},{"bike_id":"39cf7eea-63aa-4069-b905-5462ea0731d5","system_id":"levelo_inurba_marseille","lat":43.26704,"lon":5.39424,"is_reserved":false,"is_disabled":false,"rental_uris":{"android":"levelo://app?vid=39cf7eea-63aa-4069-b905-5462ea0731d5","ios":"levelo://app?vid=39cf7eea-63aa-4069-b905-5462ea0731d5"},"vehicle_type_id":"4","last_reported":1761322369,"current_range_meters":16800,"station_id":"","pricing_plan_id":"cebpf4jnsgd1na2vs0mg"},{"bike_id":"9d964ec4-c537-4f1d-b21c-451d3f46b1bf","system_id":"levelo_inurba_marseille","lat":43.2991,"lon":5.37875,"is_reserved":false,"is_disabled":false,"rental_uris":{"android":"levelo://app?vid=9d964ec4-c537-4f1d-b21c-451d3f46b1bf","ios":"levelo://app?vid=9d964ec4-c537-4f1d-b21c-451d3f46b1bf"},"vehicle_type_id":"4","last_reported":1761322369,"current_range_meters":16800,"station_id":"","pricing_plan_id":"cebpf4jnsgd1na2vs0mg"},{"bike_id":"9e34ab67-8a91-4df0-93b8-fabe3d377a94","system_id":"levelo_inurba_marseille","lat":43.29261,"lon":5.37628,"is_reserved":false,"is_disabled":false,"rental_uris":{"android":"levelo://app?vid=9e34ab67-8a91-4df0-93b8-fabe3d377a94","ios":"levelo://app?vid=9e34ab67-8a91-4df0-93b8-fabe3d377a94"},"vehicle_type_id":"4","last_reported":1761322369,"current_range_meters":16800,"station_id":"ce4bgi12rcd13ifvqb80","pricing_plan_id":"cebpf4jnsgd1na2vs0mg"},{"bike_id":"38827811-3372-44b0-8586-64776212ecb6","system_id":"levelo_inurba_marseille","lat":43.25092,"lon":5.39524,"is_reserved":false,"is_disabled":false,"rental_uris":{"android":"levelo://app?vid=38827811-3372-44b0-8586-64776212ecb6","ios":"levelo://app?vid=38827811-3372-44b0-8586-64776212ecb6"},"vehicle_type_id":"4","last_reported":1761322369,"current_range_meters":17200,"station_id":"ce4bhm12rcd13ifvqgkg","pricing_plan_id":"cebpf4jnsgd1na2vs0mg"},{"bike_id":"0cd5886a-163f-498f-873b-98a2a09901b5","system_id":"levelo_inurba_marseille","lat":43.29965,"lon":5.41325,"is_reserved":false,"is_disabled":false,"rental_uris":{"android":"levelo://app?vid=0cd5886a-163f-498f-873b-98a2a09901b5","ios":"levelo://app?vid=0cd5886a-163f-498f-873b-98a2a09901b5"},"vehicle_type_id":"4","last_reported":1761322369,"current_range_meters":17200,"station_id":"ce4bhp12rcd13ifvqh9g","pricing_plan_id":"cebpf4jnsgd1na2vs0mg"},{"bike_id":"7a613ac7-5f9c-4357-a3b5-71997d80d88b","system_id":"levelo_inurba_marseille","lat":43.30649,"lon":5.40082,"is_reserved":false,"is_disabled":true,"rental_uris":{"android":"levelo://app?vid=7a613ac7-5f9c-4357-a3b5-71997d80d88b","ios":"levelo://app?vid=7a613ac7-5f9c-4357-a3b5-71997d80d88b"},"vehicle_type_id":"4","last_reported":1761322369,"current_range_meters":17200,"station_id":"ce4bh112rcd13ifvqda0","pricing_plan_id":"cebpf4jnsgd1na2vs0mg"},{"bike_id":"e153598d-efe1-436f-908f-8368e9747c1b","system_id":"levelo_inurba_marseille","lat":43.288096,"lon":5.363688,"is_reserved":false,"is_disabled":false,"rental_uris":{"android":"levelo://app?vid=e153598d-efe1-436f-908f-8368e9747c1b","ios":"levelo://app?vid=e153598d-efe1-436f-908f-8368e9747c1b"},"vehicle_type_id":"4","last_reported":1761322369,"current_range_meters":17200,"station_id":"cki0cbj6b192h4jlfktg","pricing_plan_id":"cebpf4jnsgd1na2vs0mg"},{"bike_id":"f39bf465-505d-4aae-8ae9-efb431c4a0ff","system_id":"levelo_inurba_marseille","lat":43.2925,"lon":5.38439,"is_reserved":false,"is_disabled":false,"rental_uris":{"android":"levelo://app?vid=f39bf465-505d-4aae-8ae9-efb431c4a0ff","ios":"levelo://app?vid=f39bf465-505d-4aae-8ae9-efb431c4a0ff"},"vehicle_type_id":"4","last_reported":1761322369,"current_range_meters":17200,"station_id":"ce4bh692rcd13ifvqea0","pricing_plan_id":"cebpf4jnsgd1na2vs0mg"},{"bike_id":"ddf520e2-9a6c-4697-90ed-0af6771df0a8","system_id":"levelo_inurba_marseille","lat":43.24386,"lon":5.37059,"is_reserved":false,"is_disabled":false,"rental_uris":{"android":"levelo://app?vid=ddf520e2-9a6c-4697-90ed-0af6771df0a8","ios":"levelo://app?vid=ddf520e2-9a6c-4697-90ed-0af6771df0a8"},"vehicle_type_id":"4","last_reported":1761322369,"current_range_meters":17600,"station_id":"ce4bhhh2rcd13ifvqfk0","pricing_plan_id":"cebpf4jnsgd1na2vs0mg"},{"bike_id":"1f6908b7-99d5-4228-9820-dbb50137291c","system_id":"levelo_inurba_marseille","lat":43.28616,"lon":5.35101,"is_reserved":false,"is_disabled":false,"rental_uris":{"android":"levelo://app?vid=1f6908b7-99d5-4228-9820-dbb50137291c","ios":"levelo://app?vid=1f6908b7-99d5-4228-9820-dbb50137291c"},"vehicle_type_id":"4","last_reported":1761322369,"current_range_meters":17600,"station_id":"ce4bhch2rcd13ifvqeug","pricing_plan_id":"cebpf4jnsgd1na2vs0mg"},{"bike_id":"b6559af0-e31e-415b-92a3-0988f7fc43ef","system_id":"levelo_inurba_marseille","lat":43.284141,"lon":5.375172,"is_reserved":false,"is_disabled":true,"rental_uris":{"android":"levelo://app?vid=b6559af0-e31e-415b-92a3-0988f7fc43ef","ios":"levelo://app?vid=b6559af0-e31e-415b-92a3-0988f7fc43ef"},"vehicle_type_id":"4","last_reported":1761322369,"current_range_meters":17600,"station_id":"","pricing_plan_id":"cebpf4jnsgd1na2vs0mg"},{"bike_id":"85831b0c-ac03-4a31-ad4b-6acd383c62ca","system_id":"levelo_inurba_marseille","lat":43.277036,"lon":5.388217,"is_reserved":false,"is_disabled":false,"rental_uris":{"android":"levelo://app?vid=85831b0c-ac03-4a31-ad4b-6acd383c62ca","ios":"levelo://app?vid=85831b0c-ac03-4a31-ad4b-6acd383c62ca"},"vehicle_type_id":"4","last_reported":1761322369,"current_range_meters":17600,"station_id":"","pricing_plan_id":"cebpf4jnsgd1na2vs0mg"},{"bike_id":"fc89f734-81cc-4172-87b4-aeeb6b9ffa3a","system_id":"levelo_inurba_marseille","lat":43.29608,"lon":5.38122,"is_reserved":false,"is_disabled":false,"rental_uris":{"android":"levelo://app?vid=fc89f734-81cc-4172-87b4-aeeb6b9ffa3a","ios":"levelo://app?vid=fc89f734-81cc-4172-87b4-aeeb6b9ffa3a"},"vehicle_type_id":"4","last_reported":1761322369,"current_range_meters":17600,"station_id":"ce4bgl12rcd13ifvqbo0","pricing_plan_id":"cebpf4jnsgd1na2vs0mg"},{"bike_id":"6f9bf46d-a346-4ecc-8366-50ae45e523f3","system_id":"levelo_inurba_marseille","lat":43.28001,"lon":5.40016,"is_reserved":false,"is_disabled":false,"rental_uris":{"android":"levelo://app?vid=6f9bf46d-a346-4ecc-8366-50ae45e523f3","ios":"levelo://app?vid=6f9bf46d-a346-4ecc-8366-50ae45e523f3"},"vehicle_type_id":"4","last_reported":1761322369,"current_range_meters":17600,"station_id":"ce4bho92rcd13ifvqh4g","pricing_plan_id":"cebpf4jnsgd1na2vs0mg"},{"bike_id":"de51a0b7-c124-4921-9ee3-eb38986116ab","system_id":"levelo_inurba_marseille","lat":43.29712,"lon":5.37694,"is_reserved":false,"is_disabled":false,"rental_uris":{"android":"levelo://app?vid=de51a0b7-c124-4921-9ee3-eb38986116ab","ios":"levelo://app?vid=de51a0b7-c124-4921-9ee3-eb38986116ab"},"vehicle_type_id":"4","last_reported":1761322369,"current_range_meters":18000,"station_id":"ce4bgkh2rcd13ifvqbl0","pricing_plan_id":"cebpf4jnsgd1na2vs0mg"},{"bike_id":"386a9c87-6707-4c56-9410-3952ef242f20","system_id":"levelo_inurba_marseille","lat":43.240703,"lon":5.377816,"is_reserved":false,"is_disabled":false,"rental_uris":{"android":"levelo://app?vid=386a9c87-6707-4c56-9410-3952ef242f20","ios":"levelo://app?vid=386a9c87-6707-4c56-9410-3952ef242f20"},"vehicle_type_id":"4","last_reported":1761322369,"current_range_meters":18000,"station_id":"ce4bhnp2rcd13ifvqgvg","pricing_plan_id":"cebpf4jnsgd1na2vs0mg"},{"bike_id":"1d91d2c9-29d3-4c7d-a6a8-29c5c39d1cce","system_id":"levelo_inurba_marseille","lat":43.22933,"lon":5.35382,"is_reserved":false,"is_disabled":false,"rental_uris":{"android":"levelo://app?vid=1d91d2c9-29d3-4c7d-a6a8-29c5c39d1cce","ios":"levelo://app?vid=1d91d2c9-29d3-4c7d-a6a8-29c5c39d1cce"},"vehicle_type_id":"4","last_reported":1761322369,"current_range_meters":18000,"station_id":"","pricing_plan_id":"cebpf4jnsgd1na2vs0mg"},{"bike_id":"769482eb-677d-414c-ad42-0b3226290587","system_id":"levelo_inurba_marseille","lat":43.28718,"lon":5.37939,"is_reserved":false,"is_disabled":false,"rental_uris":{"android":"levelo://app?vid=769482eb-677d-414c-ad42-0b3226290587","ios":"levelo://app?vid=769482eb-677d-414c-ad42-0b3226290587"},"vehicle_type_id":"4","last_reported":1761322369,"current_range_meters":18000,"station_id":"ce4bh9p2rcd13ifvqec0","pricing_plan_id":"cebpf4jnsgd1na2vs0mg"},{"bike_id":"af71e82b-f887-4c40-8104-aabe81b03026","system_id":"levelo_inurba_marseille","lat":43.258071,"lon":5.410157,"is_reserved":false,"is_disabled":false,"rental_uris":{"android":"levelo://app?vid=af71e82b-f887-4c40-8104-aabe81b03026","ios":"levelo://app?vid=af71e82b-f887-4c40-8104-aabe81b03026"},"vehicle_type_id":"4","last_reported":1761322369,"current_range_meters":18000,"station_id":"ce4bhkp2rcd13ifvqgd0","pricing_plan_id":"cebpf4jnsgd1na2vs0mg"},{"bike_id":"1a67da03-1766-4fd1-9730-e0e5b38c9dfd","system_id":"levelo_inurba_marseille","lat":43.27832,"lon":5.39205,"is_reserved":false,"is_disabled":false,"rental_uris":{"android":"levelo://app?vid=1a67da03-1766-4fd1-9730-e0e5b38c9dfd","ios":"levelo://app?vid=1a67da03-1766-4fd1-9730-e0e5b38c9dfd"},"vehicle_type_id":"4","last_reported":1761322369,"current_range_meters":18000,"station_id":"ce4bhjp2rcd13ifvqga0","pricing_plan_id":"cebpf4jnsgd1na2vs0mg"},{"bike_id":"45d10f27-a3e0-470f-9577-5257a0c879a9","system_id":"levelo_inurba_marseille","lat":43.262235,"lon":5.37441,"is_reserved":false,"is_disabled":false,"rental_uris":{"android":"levelo://app?vid=45d10f27-a3e0-470f-9577-5257a0c879a9","ios":"levelo://app?vid=45d10f27-a3e0-470f-9577-5257a0c879a9"},"vehicle_type_id":"4","last_reported":1761322369,"current_range_meters":18000,"station_id":"ce4bhgp2rcd13ifvqfc0","pricing_plan_id":"cebpf4jnsgd1na2vs0mg"},{"bike_id":"d4f34596-cd96-4004-af96-068144e0795b","system_id":"levelo_inurba_marseille","lat":43.306764,"lon":5.42229,"is_reserved":false,"is_disabled":false,"rental_uris":{"android":"levelo://app?vid=d4f34596-cd96-4004-af96-068144e0795b","ios":"levelo://app?vid=d4f34596-cd96-4004-af96-068144e0795b"},"vehicle_type_id":"4","last_reported":1761322369,"current_range_meters":18000,"station_id":"","pricing_plan_id":"cebpf4jnsgd1na2vs0mg"},{"bike_id":"8e92164c-deff-4fbd-9f4e-43ff81933572","system_id":"levelo_inurba_marseille","lat":43.298385,"lon":5.420156,"is_reserved":false,"is_disabled":false,"rental_uris":{"android":"levelo://app?vid=8e92164c-deff-4fbd-9f4e-43ff81933572","ios":"levelo://app?vid=8e92164c-deff-4fbd-9f4e-43ff81933572"},"vehicle_type_id":"4","last_reported":1761322369,"current_range_meters":18000,"station_id":"","pricing_plan_id":"cebpf4jnsgd1na2vs0mg"},{"bike_id":"107d35c5-3471-41f1-acb6-e432d3cc6cc5","system_id":"levelo_inurba_marseille","lat":43.29539,"lon":5.38543,"is_reserved":false,"is_disabled":false,"rental_uris":{"android":"levelo://app?vid=107d35c5-3471-41f1-acb6-e432d3cc6cc5","ios":"levelo://app?vid=107d35c5-3471-41f1-acb6-e432d3cc6cc5"},"vehicle_type_id":"4","last_reported":1761322369,"current_range_meters":18800,"station_id":"ce4bgih2rcd13ifvqba0","pricing_plan_id":"cebpf4jnsgd1na2vs0mg"},{"bike_id":"bfaea6f8-ccc6-44a7-83a6-9d7d9a7e60cc","system_id":"levelo_inurba_marseille","lat":43.26322,"lon":5.3985,"is_reserved":false,"is_disabled":false,"rental_uris":{"android":"levelo://app?vid=bfaea6f8-ccc6-44a7-83a6-9d7d9a7e60cc","ios":"levelo://app?vid=bfaea6f8-ccc6-44a7-83a6-9d7d9a7e60cc"},"vehicle_type_id":"4","last_reported":1761322369,"current_range_meters":18800,"station_id":"","pricing_plan_id":"cebpf4jnsgd1na2vs0mg"},{"bike_id":"026d185a-0551-4eae-ae1c-2171a4ca93ca","system_id":"levelo_inurba_marseille","lat":43.28729,"lon":5.36085,"is_reserved":false,"is_disabled":false,"rental_uris":{"android":"levelo://app?vid=026d185a-0551-4eae-ae1c-2171a4ca93ca","ios":"levelo://app?vid=026d185a-0551-4eae-ae1c-2171a4ca93ca"},"vehicle_type_id":"4","last_reported":1761322369,"current_range_meters":18800,"station_id":"cki0cbj6b192h4jlfktg","pricing_plan_id":"cebpf4jnsgd1na2vs0mg"},{"bike_id":"4b9ea996-45d6-4c99-b9ff-af19c6118599","system_id":"levelo_inurba_marseille","lat":43.30547,"lon":5.36537,"is_reserved":false,"is_disabled":true,"rental_uris":{"android":"levelo://app?vid=4b9ea996-45d6-4c99-b9ff-af19c6118599","ios":"levelo://app?vid=4b9ea996-45d6-4c99-b9ff-af19c6118599"},"vehicle_type_id":"4","last_reported":1761322369,"current_range_meters":18800,"station_id":"ce4bgs12rcd13ifvqcag","pricing_plan_id":"cebpf4jnsgd1na2vs0mg"},{"bike_id":"bc805b80-3097-410f-b503-9e60f016e0de","system_id":"levelo_inurba_marseille","lat":43.27231,"lon":5.39211,"is_reserved":false,"is_disabled":true,"rental_uris":{"android":"levelo://app?vid=bc805b80-3097-410f-b503-9e60f016e0de","ios":"levelo://app?vid=bc805b80-3097-410f-b503-9e60f016e0de"},"vehicle_type_id":"4","last_reported":1761322369,"current_range_meters":18800,"station_id":"ce4bhhp2rcd13ifvqfm0","pricing_plan_id":"cebpf4jnsgd1na2vs0mg"},{"bike_id":"9bf43a48-3d9d-4d43-b2a9-4b2d8e5cf192","system_id":"levelo_inurba_marseille","lat":43.29854,"lon":5.36285,"is_reserved":false,"is_disabled":false,"rental_uris":{"android":"levelo://app?vid=9bf43a48-3d9d-4d43-b2a9-4b2d8e5cf192","ios":"levelo://app?vid=9bf43a48-3d9d-4d43-b2a9-4b2d8e5cf192"},"vehicle_type_id":"4","last_reported":1761322369,"current_range_meters":18800,"station_id":"ce4bgpp2rcd13ifvqc3g","pricing_plan_id":"cebpf4jnsgd1na2vs0mg"},{"bike_id":"e6d820d2-d7ca-47b7-bab9-816e6114978d","system_id":"levelo_inurba_marseille","lat":43.2866,"lon":5.36355,"is_reserved":false,"is_disabled":false,"rental_uris":{"android":"levelo://app?vid=e6d820d2-d7ca-47b7-bab9-816e6114978d","ios":"levelo://app?vid=e6d820d2-d7ca-47b7-bab9-816e6114978d"},"vehicle_type_id":"4","last_reported":1761322369,"current_range_meters":18800,"station_id":"ce4bhah2rcd13ifvqej0","pricing_plan_id":"cebpf4jnsgd1na2vs0mg"},{"bike_id":"9489737c-7c2c-4f83-bc76-e520af4d2990","system_id":"levelo_inurba_marseille","lat":43.32361,"lon":5.38857,"is_reserved":false,"is_disabled":false,"rental_uris":{"android":"levelo://app?vid=9489737c-7c2c-4f83-bc76-e520af4d2990","ios":"levelo://app?vid=9489737c-7c2c-4f83-bc76-e520af4d2990"},"vehicle_type_id":"4","last_reported":1761322369,"current_range_meters":18800,"station_id":"ce4bhqp2rcd13ifvqhog","pricing_plan_id":"cebpf4jnsgd1na2vs0mg"},{"bike_id":"54a5ed19-2fb7-4db5-9a2a-53eaa3ea23ea","system_id":"levelo_inurba_marseille","lat":43.298517,"lon":5.385359,"is_reserved":false,"is_disabled":false,"rental_uris":{"android":"levelo://app?vid=54a5ed19-2fb7-4db5-9a2a-53eaa3ea23ea","ios":"levelo://app?vid=54a5ed19-2fb7-4db5-9a2a-53eaa3ea23ea"},"vehicle_type_id":"4","last_reported":1761322369,"current_range_meters":18800,"station_id":"ce4bh692rcd13ifvqea0","pricing_plan_id":"cebpf4jnsgd1na2vs0mg"},{"bike_id":"3cfa595b-cff3-48e4-9ef0-78ef1b9568f9","system_id":"levelo_inurba_marseille","lat":43.29025,"lon":5.38133,"is_reserved":false,"is_disabled":true,"rental_uris":{"android":"levelo://app?vid=3cfa595b-cff3-48e4-9ef0-78ef1b9568f9","ios":"levelo://app?vid=3cfa595b-cff3-48e4-9ef0-78ef1b9568f9"},"vehicle_type_id":"4","last_reported":1761322369,"current_range_meters":19200,"station_id":"ce4bh4p2rcd13ifvqe1g","pricing_plan_id":"cebpf4jnsgd1na2vs0mg"},{"bike_id":"fbc51a66-9f5b-4793-bf47-376ff7c8c289","system_id":"levelo_inurba_marseille","lat":43.211931,"lon":5.35074,"is_reserved":false,"is_disabled":false,"rental_uris":{"android":"levelo://app?vid=fbc51a66-9f5b-4793-bf47-376ff7c8c289","ios":"levelo://app?vid=fbc51a66-9f5b-4793-bf47-376ff7c8c289"},"vehicle_type_id":"4","last_reported":1761322369,"current_range_meters":19200,"station_id":"st_cvj6sg6p6f1abm77japg","pricing_plan_id":"cebpf4jnsgd1na2vs0mg"},{"bike_id":"88fecbf6-176f-48a6-9614-e26bb6896994","system_id":"levelo_inurba_marseille","lat":43.29192,"lon":5.35814,"is_reserved":false,"is_disabled":false,"rental_uris":{"android":"levelo://app?vid=88fecbf6-176f-48a6-9614-e26bb6896994","ios":"levelo://app?vid=88fecbf6-176f-48a6-9614-e26bb6896994"},"vehicle_type_id":"4","last_reported":1761322369,"current_range_meters":19200,"station_id":"ce4bhb12rcd13ifvqel0","pricing_plan_id":"cebpf4jnsgd1na2vs0mg"},{"bike_id":"8c35a7e4-8378-4fdf-b42f-02e88b6199ca","system_id":"levelo_inurba_marseille","lat":43.321025,"lon":5.367744,"is_reserved":false,"is_disabled":false,"rental_uris":{"android":"levelo://app?vid=8c35a7e4-8378-4fdf-b42f-02e88b6199ca","ios":"levelo://app?vid=8c35a7e4-8378-4fdf-b42f-02e88b6199ca"},"vehicle_type_id":"4","last_reported":1761322369,"current_range_meters":19200,"station_id":"ce4bhrh2rcd13ifvqhug","pricing_plan_id":"cebpf4jnsgd1na2vs0mg"},{"bike_id":"1256bd6d-c774-45e5-b137-bd6d153a3a3b","system_id":"levelo_inurba_marseille","lat":43.29534,"lon":5.38548,"is_reserved":false,"is_disabled":false,"rental_uris":{"android":"levelo://app?vid=1256bd6d-c774-45e5-b137-bd6d153a3a3b","ios":"levelo://app?vid=1256bd6d-c774-45e5-b137-bd6d153a3a3b"},"vehicle_type_id":"4","last_reported":1761322369,"current_range_meters":19200,"station_id":"ce4bgih2rcd13ifvqba0","pricing_plan_id":"cebpf4jnsgd1na2vs0mg"},{"bike_id":"0b4f1478-c214-4276-a4f7-53e9aa84417e","system_id":"levelo_inurba_marseille","lat":43.2985,"lon":5.36287,"is_reserved":false,"is_disabled":false,"rental_uris":{"android":"levelo://app?vid=0b4f1478-c214-4276-a4f7-53e9aa84417e","ios":"levelo://app?vid=0b4f1478-c214-4276-a4f7-53e9aa84417e"},"vehicle_type_id":"4","last_reported":1761322369,"current_range_meters":19200,"station_id":"ce4bgpp2rcd13ifvqc3g","pricing_plan_id":"cebpf4jnsgd1na2vs0mg"},{"bike_id":"d9eb4b19-fa24-4941-a9f9-8184b6d9c31b","system_id":"levelo_inurba_marseille","lat":43.29574,"lon":5.39981,"is_reserved":false,"is_disabled":false,"rental_uris":{"android":"levelo://app?vid=d9eb4b19-fa24-4941-a9f9-8184b6d9c31b","ios":"levelo://app?vid=d9eb4b19-fa24-4941-a9f9-8184b6d9c31b"},"vehicle_type_id":"4","last_reported":1761322369,"current_range_meters":19600,"station_id":"ce4bh312rcd13ifvqdj0","pricing_plan_id":"cebpf4jnsgd1na2vs0mg"},{"bike_id":"3ea860b0-bcc7-4174-8003-dcebcf1c1d38","system_id":"levelo_inurba_marseille","lat":43.270601,"lon":5.402579,"is_reserved":false,"is_disabled":false,"rental_uris":{"android":"levelo://app?vid=3ea860b0-bcc7-4174-8003-dcebcf1c1d38","ios":"levelo://app?vid=3ea860b0-bcc7-4174-8003-dcebcf1c1d38"},"vehicle_type_id":"4","last_reported":1761322369,"current_range_meters":19600,"station_id":"ce4bhk92rcd13ifvqgc0","pricing_plan_id":"cebpf4jnsgd1na2vs0mg"},{"bike_id":"a48b489a-127e-4aab-97a2-25cf37e655c9","system_id":"levelo_inurba_marseille","lat":43.30964,"lon":5.40268,"is_reserved":false,"is_disabled":false,"rental_uris":{"android":"levelo://app?vid=a48b489a-127e-4aab-97a2-25cf37e655c9","ios":"levelo://app?vid=a48b489a-127e-4aab-97a2-25cf37e655c9"},"vehicle_type_id":"4","last_reported":1761322369,"current_range_meters":19600,"station_id":"","pricing_plan_id":"cebpf4jnsgd1na2vs0mg"},{"bike_id":"1be3dfe1-b1a7-40c3-87ed-e40e8f8fad25","system_id":"levelo_inurba_marseille","lat":43.28334,"lon":5.38108,"is_reserved":false,"is_disabled":false,"rental_uris":{"android":"levelo://app?vid=1be3dfe1-b1a7-40c3-87ed-e40e8f8fad25","ios":"levelo://app?vid=1be3dfe1-b1a7-40c3-87ed-e40e8f8fad25"},"vehicle_type_id":"4","last_reported":1761322369,"current_range_meters":19600,"station_id":"ce4bh412rcd13ifvqdr0","pricing_plan_id":"cebpf4jnsgd1na2vs0mg"},{"bike_id":"770b9891-d91e-466d-96d6-8ee93310baa6","system_id":"levelo_inurba_marseille","lat":43.28735,"lon":5.36056,"is_reserved":false,"is_disabled":false,"rental_uris":{"android":"levelo://app?vid=770b9891-d91e-466d-96d6-8ee93310baa6","ios":"levelo://app?vid=770b9891-d91e-466d-96d6-8ee93310baa6"},"vehicle_type_id":"4","last_reported":1761322369,"current_range_meters":19600,"station_id":"cki0cbj6b192h4jlfktg","pricing_plan_id":"cebpf4jnsgd1na2vs0mg"},{"bike_id":"11b6d79b-7214-45c5-8167-0e2383b15cda","system_id":"levelo_inurba_marseille","lat":43.24952,"lon":5.40488,"is_reserved":false,"is_disabled":false,"rental_uris":{"android":"levelo://app?vid=11b6d79b-7214-45c5-8167-0e2383b15cda","ios":"levelo://app?vid=11b6d79b-7214-45c5-8167-0e2383b15cda"},"vehicle_type_id":"4","last_reported":1761322369,"current_range_meters":19600,"station_id":"st_d2ngiaodas8pm72gd1h0","pricing_plan_id":"cebpf4jnsgd1na2vs0mg"},{"bike_id":"9da0dce3-d713-41d3-ba67-b269ccfd3358","system_id":"levelo_inurba_marseille","lat":43.26947,"lon":5.40259,"is_reserved":false,"is_disabled":false,"rental_uris":{"android":"levelo://app?vid=9da0dce3-d713-41d3-ba67-b269ccfd3358","ios":"levelo://app?vid=9da0dce3-d713-41d3-ba67-b269ccfd3358"},"vehicle_type_id":"4","last_reported":1761322369,"current_range_meters":19600,"station_id":"cjm6bp8fraef2m0cb0m0","pricing_plan_id":"cebpf4jnsgd1na2vs0mg"},{"bike_id":"647284df-6ae2-48d1-aba0-b8d5c09fdd8c","system_id":"levelo_inurba_marseille","lat":43.24968,"lon":5.40481,"is_reserved":false,"is_disabled":false,"rental_uris":{"android":"levelo://app?vid=647284df-6ae2-48d1-aba0-b8d5c09fdd8c","ios":"levelo://app?vid=647284df-6ae2-48d1-aba0-b8d5c09fdd8c"},