{"last_updated":1753318765,"ttl":60,"version":"2.2","data":{"bikes":[{"bike_id":"5cccb452-224d-486f-8f55-ab6f9fb0d289","system_id":"levelo_inurba_marseille","lat":43.30078,"lon":5.39757,"is_reserved":false,"is_disabled":false,"rental_uris":{"android":"levelo://app?vid=5cccb452-224d-486f-8f55-ab6f9fb0d289","ios":"levelo://app?vid=5cccb452-224d-486f-8f55-ab6f9fb0d289"},"vehicle_type_id":"4","last_reported":1753318765,"current_range_meters":2800,"station_id":"","pricing_plan_id":"cebpf4jnsgd1na2vs0mg"},{"bike_id":"69d5988a-95f5-4eba-a497-699b61bb4028","system_id":"levelo_inurba_marseille","lat":43.30136,"lon":5.37228,"is_reserved":false,"is_disabled":true,"rental_uris":{"android":"levelo://app?vid=69d5988a-95f5-4eba-a497-699b61bb4028","ios":"levelo://app?vid=69d5988a-95f5-4eba-a497-699b61bb4028"},"vehicle_type_id":"4","last_reported":1753318765,"current_range_meters":3200,"station_id":"","pricing_plan_id":"cebpf4jnsgd1na2vs0mg"},{"bike_id":"9519d768-2002-4376-a9db-961b8fa28132","system_id":"levelo_inurba_marseille","lat":43.30786,"lon":5.37646,"is_reserved":false,"is_disabled":false,"rental_uris":{"android":"levelo://app?vid=9519d768-2002-4376-a9db-961b8fa28132","ios":"levelo://app?vid=9519d768-2002-4376-a9db-961b8fa28132"},"vehicle_type_id":"4","last_reported":1753318765,"current_range_meters":3600,"station_id":"ce4bgv92rcd13ifvqcq0","pricing_plan_id":"cebpf4jnsgd1na2vs0mg"},{"bike_id":"61b040db-41e6-49b9-8d9f-e18d1a9b4989","system_id":"levelo_inurba_marseille","lat":43.29274,"lon":5.36843,"is_reserved":false,"is_disabled":false,"rental_uris":{"android":"levelo://app?vid=61b040db-41e6-49b9-8d9f-e18d1a9b4989","ios":"levelo://app?vid=61b040db-41e6-49b9-8d9f-e18d1a9b4989"},"vehicle_type_id":"4","last_reported":1753318765,"current_range_meters":3600,"station_id":"ce4bhbp2rcd13ifvqesg","pricing_plan_id":"cebpf4jnsgd1na2vs0mg"},{"bike_id":"3e672a12-a06c-421d-8d90-001874a4fd84","system_id":"levelo_inurba_marseille","lat":43.30201,"lon":5.39465,"is_reserved":false,"is_disabled":true,"rental_uris":{"android":"levelo://app?vid=3e672a12-a06c-421d-8d90-001874a4fd84","ios":"levelo://app?vid=3e672a12-a06c-421d-8d90-001874a4fd84"},"vehicle_type_id":"4","last_reported":1753318765,"current_range_meters":4000,"station_id":"ce4bh0p2rcd13ifvqd70","pricing_plan_id":"cebpf4jnsgd1na2vs0mg"},{"bike_id":"562938d1-4755-49a3-b8d1-d6f824158c23","system_id":"levelo_inurba_marseille","lat":43.28405,"lon":5.37499,"is_reserved":false,"is_disabled":false,"rental_uris":{"android":"levelo://app?vid=562938d1-4755-49a3-b8d1-d6f824158c23","ios":"levelo://app?vid=562938d1-4755-49a3-b8d1-d6f824158c23"},"vehicle_type_id":"4","last_reported":1753318765,"current_range_meters":4000,"station_id":"ce4bh412rcd13ifvqds0","pricing_plan_id":"cebpf4jnsgd1na2vs0mg"},{"bike_id":"83766871-d64f-4fc8-9d3b-2ceaf03b1036","system_id":"levelo_inurba_marseille","lat":43.21201,"lon":5.35068,"is_reserved":false,"is_disabled":false,"rental_uris":{"android":"levelo://app?vid=83766871-d64f-4fc8-9d3b-2ceaf03b1036","ios":"levelo://app?vid=83766871-d64f-4fc8-9d3b-2ceaf03b1036"},"vehicle_type_id":"4","last_reported":1753318765,"current_range_meters":4400,"station_id":"st_cvj6sg6p6f1abm77japg","pricing_plan_id":"cebpf4jnsgd1na2vs0mg"},{"bike_id":"4e91bbac-d63f-413b-bbdf-39ce78ad8f20","system_id":"levelo_inurba_marseille","lat":43.25731,"lon":5.41109,"is_reserved":false,"is_disabled":false,"rental_uris":{"android":"levelo://app?vid=4e91bbac-d63f-413b-bbdf-39ce78ad8f20","ios":"levelo://app?vid=4e91bbac-d63f-413b-bbdf-39ce78ad8f20"},"vehicle_type_id":"4","last_reported":1753318765,"current_range_meters":5600,"station_id":"ce4bhkp2rcd13ifvqgd0","pricing_plan_id":"cebpf4jnsgd1na2vs0mg"},{"bike_id":"ec0adf83-6184-4d63-a8bd-8a4c46331101","system_id":"levelo_inurba_marseille","lat":43.26077,"lon":5.39383,"is_reserved":false,"is_disabled":true,"rental_uris":{"android":"levelo://app?vid=ec0adf83-6184-4d63-a8bd-8a4c46331101","ios":"levelo://app?vid=ec0adf83-6184-4d63-a8bd-8a4c46331101"},"vehicle_type_id":"4","last_reported":1753318765,"current_range_meters":5600,"station_id":"ce4bhh92rcd13ifvqfj0","pricing_plan_id":"cebpf4jnsgd1na2vs0mg"},{"bike_id":"f4c51db7-c5ac-4b42-81f6-aba1dc8a7b23","system_id":"levelo_inurba_marseille","lat":43.28848,"lon":5.35864,"is_reserved":false,"is_disabled":false,"rental_uris":{"android":"levelo://app?vid=f4c51db7-c5ac-4b42-81f6-aba1dc8a7b23","ios":"levelo://app?vid=f4c51db7-c5ac-4b42-81f6-aba1dc8a7b23"},"vehicle_type_id":"4","last_reported":1753318765,"current_range_meters":6000,"station_id":"ce4bhb12rcd13ifvqem0","pricing_plan_id":"cebpf4jnsgd1na2vs0mg"},{"bike_id":"9588c437-0967-47ad-9596-48a2c37c9933","system_id":"levelo_inurba_marseille","lat":43.2797,"lon":5.40022,"is_reserved":false,"is_disabled":false,"rental_uris":{"android":"levelo://app?vid=9588c437-0967-47ad-9596-48a2c37c9933","ios":"levelo://app?vid=9588c437-0967-47ad-9596-48a2c37c9933"},"vehicle_type_id":"4","last_reported":1753318765,"current_range_meters":6000,"station_id":"ce4bho92rcd13ifvqh4g","pricing_plan_id":"cebpf4jnsgd1na2vs0mg"},{"bike_id":"be1e7bd7-2292-4277-82c8-43ced60568bf","system_id":"levelo_inurba_marseille","lat":43.30883,"lon":5.39646,"is_reserved":false,"is_disabled":false,"rental_uris":{"android":"levelo://app?vid=be1e7bd7-2292-4277-82c8-43ced60568bf","ios":"levelo://app?vid=be1e7bd7-2292-4277-82c8-43ced60568bf"},"vehicle_type_id":"4","last_reported":1753318765,"current_range_meters":6400,"station_id":"ce4bh012rcd13ifvqcv0","pricing_plan_id":"cebpf4jnsgd1na2vs0mg"},{"bike_id":"ad98429d-6f79-4a7d-b8ec-31305c2cacf2","system_id":"levelo_inurba_marseille","lat":43.29521,"lon":5.39407,"is_reserved":false,"is_disabled":false,"rental_uris":{"android":"levelo://app?vid=ad98429d-6f79-4a7d-b8ec-31305c2cacf2","ios":"levelo://app?vid=ad98429d-6f79-4a7d-b8ec-31305c2cacf2"},"vehicle_type_id":"4","last_reported":1753318765,"current_range_meters":6400,"station_id":"ce4bh292rcd13ifvqdf0","pricing_plan_id":"cebpf4jnsgd1na2vs0mg"},{"bike_id":"4361b381-371f-46aa-8973-9782051f3e79","system_id":"levelo_inurba_marseille","lat":43.3147,"lon":5.37312,"is_reserved":false,"is_disabled":false,"rental_uris":{"android":"levelo://app?vid=4361b381-371f-46aa-8973-9782051f3e79","ios":"levelo://app?vid=4361b381-371f-46aa-8973-9782051f3e79"},"vehicle_type_id":"4","last_reported":1753318765,"current_range_meters":6800,"station_id":"ce4bgt12rcd13ifvqcd0","pricing_plan_id":"cebpf4jnsgd1na2vs0mg"},{"bike_id":"d07f0755-aca6-4050-807e-9c5aaf0dd619","system_id":"levelo_inurba_marseille","lat":43.296823,"lon":5.372723,"is_reserved":false,"is_disabled":true,"rental_uris":{"android":"levelo://app?vid=d07f0755-aca6-4050-807e-9c5aaf0dd619","ios":"levelo://app?vid=d07f0755-aca6-4050-807e-9c5aaf0dd619"},"vehicle_type_id":"4","last_reported":1753318765,"current_range_meters":6800,"station_id":"ce4bgk12rcd13ifvqbj0","pricing_plan_id":"cebpf4jnsgd1na2vs0mg"},{"bike_id":"6664b110-6024-4d10-904c-70f0e732d65e","system_id":"levelo_inurba_marseille","lat":43.26214,"lon":5.37435,"is_reserved":false,"is_disabled":true,"rental_uris":{"android":"levelo://app?vid=6664b110-6024-4d10-904c-70f0e732d65e","ios":"levelo://app?vid=6664b110-6024-4d10-904c-70f0e732d65e"},"vehicle_type_id":"4","last_reported":1753318765,"current_range_meters":6800,"station_id":"ce4bhgp2rcd13ifvqfc0","pricing_plan_id":"cebpf4jnsgd1na2vs0mg"},{"bike_id":"9ae7d50c-a3ea-4136-8080-315c191e000a","system_id":"levelo_inurba_marseille","lat":43.287606,"lon":5.384204,"is_reserved":false,"is_disabled":false,"rental_uris":{"android":"levelo://app?vid=9ae7d50c-a3ea-4136-8080-315c191e000a","ios":"levelo://app?vid=9ae7d50c-a3ea-4136-8080-315c191e000a"},"vehicle_type_id":"4","last_reported":1753318765,"current_range_meters":6800,"station_id":"","pricing_plan_id":"cebpf4jnsgd1na2vs0mg"},{"bike_id":"cec54183-4175-4e4a-8f8a-f4fafb6e7dc0","system_id":"levelo_inurba_marseille","lat":43.27962,"lon":5.39006,"is_reserved":false,"is_disabled":false,"rental_uris":{"android":"levelo://app?vid=cec54183-4175-4e4a-8f8a-f4fafb6e7dc0","ios":"levelo://app?vid=cec54183-4175-4e4a-8f8a-f4fafb6e7dc0"},"vehicle_type_id":"4","last_reported":1753318765,"current_range_meters":6800,"station_id":"","pricing_plan_id":"cebpf4jnsgd1na2vs0mg"},{"bike_id":"adebf206-6cce-4bf4-b9e1-cecd55c92049","system_id":"levelo_inurba_marseille","lat":43.2952,"lon":5.3941,"is_reserved":false,"is_disabled":false,"rental_uris":{"android":"levelo://app?vid=adebf206-6cce-4bf4-b9e1-cecd55c92049","ios":"levelo://app?vid=adebf206-6cce-4bf4-b9e1-cecd55c92049"},"vehicle_type_id":"4","last_reported":1753318765,"current_range_meters":6800,"station_id":"ce4bh292rcd13ifvqdf0","pricing_plan_id":"cebpf4jnsgd1na2vs0mg"},{"bike_id":"7b742f2f-7a31-45ab-aaa2-318d488ffef8","system_id":"levelo_inurba_marseille","lat":43.292691,"lon":5.384387,"is_reserved":false,"is_disabled":false,"rental_uris":{"android":"levelo://app?vid=7b742f2f-7a31-45ab-aaa2-318d488ffef8","ios":"levelo://app?vid=7b742f2f-7a31-45ab-aaa2-318d488ffef8"},"vehicle_type_id":"4","last_reported":1753318765,"current_range_meters":6800,"station_id":"ce4bh692rcd13ifvqea0","pricing_plan_id":"cebpf4jnsgd1na2vs0mg"},{"bike_id":"3e9c0ebb-bc38-4567-abdc-11a839e94311","system_id":"levelo_inurba_marseille","lat":43.32476,"lon":5.36563,"is_reserved":false,"is_disabled":false,"rental_uris":{"android":"levelo://app?vid=3e9c0ebb-bc38-4567-abdc-11a839e94311","ios":"levelo://app?vid=3e9c0ebb-bc38-4567-abdc-11a839e94311"},"vehicle_type_id":"4","last_reported":1753318765,"current_range_meters":7200,"station_id":"ce4bhs12rcd13ifvqhvg","pricing_plan_id":"cebpf4jnsgd1na2vs0mg"},{"bike_id":"54870302-6a61-4238-b007-98c360ea8dac","system_id":"levelo_inurba_marseille","lat":43.30548,"lon":5.38418,"is_reserved":false,"is_disabled":false,"rental_uris":{"android":"levelo://app?vid=54870302-6a61-4238-b007-98c360ea8dac","ios":"levelo://app?vid=54870302-6a61-4238-b007-98c360ea8dac"},"vehicle_type_id":"4","last_reported":1753318765,"current_range_meters":7200,"station_id":"ce4bgg92rcd13ifvqb30","pricing_plan_id":"cebpf4jnsgd1na2vs0mg"},{"bike_id":"c8cbe188-8c80-4aac-881d-65feb870e521","system_id":"levelo_inurba_marseille","lat":43.33019,"lon":5.38044,"is_reserved":false,"is_disabled":false,"rental_uris":{"android":"levelo://app?vid=c8cbe188-8c80-4aac-881d-65feb870e521","ios":"levelo://app?vid=c8cbe188-8c80-4aac-881d-65feb870e521"},"vehicle_type_id":"4","last_reported":1753318765,"current_range_meters":7200,"station_id":"","pricing_plan_id":"cebpf4jnsgd1na2vs0mg"},{"bike_id":"e4761578-ae86-4dfa-b146-0428e5d8cca7","system_id":"levelo_inurba_marseille","lat":43.24177,"lon":5.3641,"is_reserved":false,"is_disabled":true,"rental_uris":{"android":"levelo://app?vid=e4761578-ae86-4dfa-b146-0428e5d8cca7","ios":"levelo://app?vid=e4761578-ae86-4dfa-b146-0428e5d8cca7"},"vehicle_type_id":"4","last_reported":1753318765,"current_range_meters":8000,"station_id":"cpo36qri1sfpv3e86is0","pricing_plan_id":"cebpf4jnsgd1na2vs0mg"},{"bike_id":"d26a4141-f76e-4ed9-9c35-1e6a340df9c7","system_id":"levelo_inurba_marseille","lat":43.30434,"lon":5.38912,"is_reserved":false,"is_disabled":false,"rental_uris":{"android":"levelo://app?vid=d26a4141-f76e-4ed9-9c35-1e6a340df9c7","ios":"levelo://app?vid=d26a4141-f76e-4ed9-9c35-1e6a340df9c7"},"vehicle_type_id":"4","last_reported":1753318765,"current_range_meters":8000,"station_id":"ce4bgk12rcd13ifvqbi0","pricing_plan_id":"cebpf4jnsgd1na2vs0mg"},{"bike_id":"a5f1f0d6-c678-45f4-9b29-96eaa29a3e36","system_id":"levelo_inurba_marseille","lat":43.251398,"lon":5.373412,"is_reserved":false,"is_disabled":true,"rental_uris":{"android":"levelo://app?vid=a5f1f0d6-c678-45f4-9b29-96eaa29a3e36","ios":"levelo://app?vid=a5f1f0d6-c678-45f4-9b29-96eaa29a3e36"},"vehicle_type_id":"4","last_reported":1753318765,"current_range_meters":8000,"station_id":"","pricing_plan_id":"cebpf4jnsgd1na2vs0mg"},{"bike_id":"c8b34952-825d-44b2-8c39-75d5985701d9","system_id":"levelo_inurba_marseille","lat":43.30245,"lon":5.40077,"is_reserved":false,"is_disabled":false,"rental_uris":{"android":"levelo://app?vid=c8b34952-825d-44b2-8c39-75d5985701d9","ios":"levelo://app?vid=c8b34952-825d-44b2-8c39-75d5985701d9"},"vehicle_type_id":"4","last_reported":1753318765,"current_range_meters":8400,"station_id":"ce4bgvh2rcd13ifvqcs0","pricing_plan_id":"cebpf4jnsgd1na2vs0mg"},{"bike_id":"93902f24-f8e2-4c06-9c98-4306399f8c55","system_id":"levelo_inurba_marseille","lat":43.308067,"lon":5.381513,"is_reserved":false,"is_disabled":false,"rental_uris":{"android":"levelo://app?vid=93902f24-f8e2-4c06-9c98-4306399f8c55","ios":"levelo://app?vid=93902f24-f8e2-4c06-9c98-4306399f8c55"},"vehicle_type_id":"4","last_reported":1753318765,"current_range_meters":8400,"station_id":"ce4bgt12rcd13ifvqce0","pricing_plan_id":"cebpf4jnsgd1na2vs0mg"},{"bike_id":"7d09b13c-ebc2-4748-a807-033d4cb42b76","system_id":"levelo_inurba_marseille","lat":43.28709,"lon":5.37403,"is_reserved":false,"is_disabled":false,"rental_uris":{"android":"levelo://app?vid=7d09b13c-ebc2-4748-a807-033d4cb42b76","ios":"levelo://app?vid=7d09b13c-ebc2-4748-a807-033d4cb42b76"},"vehicle_type_id":"4","last_reported":1753318765,"current_range_meters":8400,"station_id":"ce4bh3p2rcd13ifvqdq0","pricing_plan_id":"cebpf4jnsgd1na2vs0mg"},{"bike_id":"778edaec-857e-4d28-a0e6-80b81bf5c91c","system_id":"levelo_inurba_marseille","lat":43.30418,"lon":5.41279,"is_reserved":false,"is_disabled":false,"rental_uris":{"android":"levelo://app?vid=778edaec-857e-4d28-a0e6-80b81bf5c91c","ios":"levelo://app?vid=778edaec-857e-4d28-a0e6-80b81bf5c91c"},"vehicle_type_id":"4","last_reported":1753318765,"current_range_meters":8400,"station_id":"ce4bhop2rcd13ifvqh8g","pricing_plan_id":"cebpf4jnsgd1na2vs0mg"},{"bike_id":"c9dbd36b-479c-4a5c-b200-3aa7673340d9","system_id":"levelo_inurba_marseille","lat":43.241448,"lon":5.363743,"is_reserved":false,"is_disabled":true,"rental_uris":{"android":"levelo://app?vid=c9dbd36b-479c-4a5c-b200-3aa7673340d9","ios":"levelo://app?vid=c9dbd36b-479c-4a5c-b200-3aa7673340d9"},"vehicle_type_id":"4","last_reported":1753318765,"current_range_meters":8400,"station_id":"","pricing_plan_id":"cebpf4jnsgd1na2vs0mg"},{"bike_id":"141869e7-c231-4f40-b632-e539bdd2515a","system_id":"levelo_inurba_marseille","lat":43.28396,"lon":5.37519,"is_reserved":false,"is_disabled":false,"rental_uris":{"android":"levelo://app?vid=141869e7-c231-4f40-b632-e539bdd2515a","ios":"levelo://app?vid=141869e7-c231-4f40-b632-e539bdd2515a"},"vehicle_type_id":"4","last_reported":1753318765,"current_range_meters":8400,"station_id":"ce4bh412rcd13ifvqds0","pricing_plan_id":"cebpf4jnsgd1na2vs0mg"},{"bike_id":"8e98eab0-66ab-41cb-865f-913b58891b39","system_id":"levelo_inurba_marseille","lat":43.22499,"lon":5.34782,"is_reserved":false,"is_disabled":false,"rental_uris":{"android":"levelo://app?vid=8e98eab0-66ab-41cb-865f-913b58891b39","ios":"levelo://app?vid=8e98eab0-66ab-41cb-865f-913b58891b39"},"vehicle_type_id":"4","last_reported":1753318765,"current_range_meters":8400,"station_id":"st_cvj5dfep6f1abm77gieg","pricing_plan_id":"cebpf4jnsgd1na2vs0mg"},{"bike_id":"86a76b9d-5b5c-4ee0-a4e0-b77852d735bc","system_id":"levelo_inurba_marseille","lat":43.28666,"lon":5.36345,"is_reserved":false,"is_disabled":false,"rental_uris":{"android":"levelo://app?vid=86a76b9d-5b5c-4ee0-a4e0-b77852d735bc","ios":"levelo://app?vid=86a76b9d-5b5c-4ee0-a4e0-b77852d735bc"},"vehicle_type_id":"4","last_reported":1753318765,"current_range_meters":8400,"station_id":"ce4bhah2rcd13ifvqej0","pricing_plan_id":"cebpf4jnsgd1na2vs0mg"},{"bike_id":"aa5097b6-6968-4aec-b711-e7780938924b","system_id":"levelo_inurba_marseille","lat":43.32975,"lon":5.35899,"is_reserved":false,"is_disabled":false,"rental_uris":{"android":"levelo://app?vid=aa5097b6-6968-4aec-b711-e7780938924b","ios":"levelo://app?vid=aa5097b6-6968-4aec-b711-e7780938924b"},"vehicle_type_id":"4","last_reported":1753318765,"current_range_meters":8400,"station_id":"","pricing_plan_id":"cebpf4jnsgd1na2vs0mg"},{"bike_id":"da053e6a-15f2-492e-8bc1-42b1d66cc329","system_id":"levelo_inurba_marseille","lat":43.283,"lon":5.43275,"is_reserved":false,"is_disabled":false,"rental_uris":{"android":"levelo://app?vid=da053e6a-15f2-492e-8bc1-42b1d66cc329","ios":"levelo://app?vid=da053e6a-15f2-492e-8bc1-42b1d66cc329"},"vehicle_type_id":"4","last_reported":1753318765,"current_range_meters":9200,"station_id":"","pricing_plan_id":"cebpf4jnsgd1na2vs0mg"},{"bike_id":"3faf6c26-a82d-4ccc-bb56-f50b2f537733","system_id":"levelo_inurba_marseille","lat":43.28446,"lon":5.3589,"is_reserved":false,"is_disabled":false,"rental_uris":{"android":"levelo://app?vid=3faf6c26-a82d-4ccc-bb56-f50b2f537733","ios":"levelo://app?vid=3faf6c26-a82d-4ccc-bb56-f50b2f537733"},"vehicle_type_id":"4","last_reported":1753318765,"current_range_meters":9200,"station_id":"ce4bhah2rcd13ifvqei0","pricing_plan_id":"cebpf4jnsgd1na2vs0mg"},{"bike_id":"61323739-832d-47c7-a99d-25b2a3753407","system_id":"levelo_inurba_marseille","lat":43.31273,"lon":5.40174,"is_reserved":false,"is_disabled":false,"rental_uris":{"android":"levelo://app?vid=61323739-832d-47c7-a99d-25b2a3753407","ios":"levelo://app?vid=61323739-832d-47c7-a99d-25b2a3753407"},"vehicle_type_id":"4","last_reported":1753318765,"current_range_meters":9600,"station_id":"ce4bh092rcd13ifvqd30","pricing_plan_id":"cebpf4jnsgd1na2vs0mg"},{"bike_id":"c3b4c842-89f1-49ff-abb9-fc4b30df4519","system_id":"levelo_inurba_marseille","lat":43.2557,"lon":5.38251,"is_reserved":false,"is_disabled":true,"rental_uris":{"android":"levelo://app?vid=c3b4c842-89f1-49ff-abb9-fc4b30df4519","ios":"levelo://app?vid=c3b4c842-89f1-49ff-abb9-fc4b30df4519"},"vehicle_type_id":"4","last_reported":1753318765,"current_range_meters":10000,"station_id":"ce4bhih2rcd13ifvqfs0","pricing_plan_id":"cebpf4jnsgd1na2vs0mg"},{"bike_id":"b277c68a-cbc3-4d71-b3a1-1394deefd1e7","system_id":"levelo_inurba_marseille","lat":43.304187,"lon":5.412837,"is_reserved":false,"is_disabled":false,"rental_uris":{"android":"levelo://app?vid=b277c68a-cbc3-4d71-b3a1-1394deefd1e7","ios":"levelo://app?vid=b277c68a-cbc3-4d71-b3a1-1394deefd1e7"},"vehicle_type_id":"4","last_reported":1753318765,"current_range_meters":9600,"station_id":"ce4bhop2rcd13ifvqh8g","pricing_plan_id":"cebpf4jnsgd1na2vs0mg"},{"bike_id":"68154b5b-0847-4926-b20a-1421e3d04487","system_id":"levelo_inurba_marseille","lat":43.28457,"lon":5.35885,"is_reserved":false,"is_disabled":false,"rental_uris":{"android":"levelo://app?vid=68154b5b-0847-4926-b20a-1421e3d04487","ios":"levelo://app?vid=68154b5b-0847-4926-b20a-1421e3d04487"},"vehicle_type_id":"4","last_reported":1753318765,"current_range_meters":10000,"station_id":"ce4bhah2rcd13ifvqei0","pricing_plan_id":"cebpf4jnsgd1na2vs0mg"},{"bike_id":"a0afefc2-e14e-4f0c-92ec-9f69f9510f6e","system_id":"levelo_inurba_marseille","lat":43.29279,"lon":5.40119,"is_reserved":false,"is_disabled":false,"rental_uris":{"android":"levelo://app?vid=a0afefc2-e14e-4f0c-92ec-9f69f9510f6e","ios":"levelo://app?vid=a0afefc2-e14e-4f0c-92ec-9f69f9510f6e"},"vehicle_type_id":"4","last_reported":1753318765,"current_range_meters":10000,"station_id":"ce4bh312rcd13ifvqdk0","pricing_plan_id":"cebpf4jnsgd1na2vs0mg"},{"bike_id":"f9062784-0417-4840-bb15-81c56a64826f","system_id":"levelo_inurba_marseille","lat":43.22504,"lon":5.3478,"is_reserved":false,"is_disabled":false,"rental_uris":{"android":"levelo://app?vid=f9062784-0417-4840-bb15-81c56a64826f","ios":"levelo://app?vid=f9062784-0417-4840-bb15-81c56a64826f"},"vehicle_type_id":"4","last_reported":1753318765,"current_range_meters":10000,"station_id":"","pricing_plan_id":"cebpf4jnsgd1na2vs0mg"},{"bike_id":"c4ab8b6f-b9e7-4d47-91c0-82fcf9196b75","system_id":"levelo_inurba_marseille","lat":43.30176,"lon":5.39983,"is_reserved":false,"is_disabled":true,"rental_uris":{"android":"levelo://app?vid=c4ab8b6f-b9e7-4d47-91c0-82fcf9196b75","ios":"levelo://app?vid=c4ab8b6f-b9e7-4d47-91c0-82fcf9196b75"},"vehicle_type_id":"4","last_reported":1753318765,"current_range_meters":10000,"station_id":"ce4bh0h2rcd13ifvqd40","pricing_plan_id":"cebpf4jnsgd1na2vs0mg"},{"bike_id":"c99b32ef-25d9-480e-99d0-ca980f77a836","system_id":"levelo_inurba_marseille","lat":43.32356,"lon":5.36755,"is_reserved":false,"is_disabled":false,"rental_uris":{"android":"levelo://app?vid=c99b32ef-25d9-480e-99d0-ca980f77a836","ios":"levelo://app?vid=c99b32ef-25d9-480e-99d0-ca980f77a836"},"vehicle_type_id":"4","last_reported":1753318765,"current_range_meters":10800,"station_id":"ce4bhsh2rcd13ifvqi2g","pricing_plan_id":"cebpf4jnsgd1na2vs0mg"},{"bike_id":"b982e5a3-88f5-4403-a53a-38d90073ed80","system_id":"levelo_inurba_marseille","lat":43.29424,"lon":5.43233,"is_reserved":false,"is_disabled":false,"rental_uris":{"android":"levelo://app?vid=b982e5a3-88f5-4403-a53a-38d90073ed80","ios":"levelo://app?vid=b982e5a3-88f5-4403-a53a-38d90073ed80"},"vehicle_type_id":"4","last_reported":1753318765,"current_range_meters":10800,"station_id":"","pricing_plan_id":"cebpf4jnsgd1na2vs0mg"},{"bike_id":"eb954183-4e28-47d1-a5c2-d40cd268372d","system_id":"levelo_inurba_marseille","lat":43.2885,"lon":5.35838,"is_reserved":false,"is_disabled":true,"rental_uris":{"android":"levelo://app?vid=eb954183-4e28-47d1-a5c2-d40cd268372d","ios":"levelo://app?vid=eb954183-4e28-47d1-a5c2-d40cd268372d"},"vehicle_type_id":"4","last_reported":1753318765,"current_range_meters":10800,"station_id":"ce4bhb12rcd13ifvqem0","pricing_plan_id":"cebpf4jnsgd1na2vs0mg"},{"bike_id":"d55aa035-104e-4b4d-89aa-92e1a1bc9ad6","system_id":"levelo_inurba_marseille","lat":43.30652,"lon":5.40073,"is_reserved":false,"is_disabled":false,"rental_uris":{"android":"levelo://app?vid=d55aa035-104e-4b4d-89aa-92e1a1bc9ad6","ios":"levelo://app?vid=d55aa035-104e-4b4d-89aa-92e1a1bc9ad6"},"vehicle_type_id":"4","last_reported":1753318765,"current_range_meters":11200,"station_id":"ce4bh112rcd13ifvqda0","pricing_plan_id":"cebpf4jnsgd1na2vs0mg"},{"bike_id":"9414fea0-7c6e-4c39-95f1-457a63a631b4","system_id":"levelo_inurba_marseille","lat":43.22501,"lon":5.3479,"is_reserved":false,"is_disabled":true,"rental_uris":{"android":"levelo://app?vid=9414fea0-7c6e-4c39-95f1-457a63a631b4","ios":"levelo://app?vid=9414fea0-7c6e-4c39-95f1-457a63a631b4"},"vehicle_type_id":"4","last_reported":1753318765,"current_range_meters":11200,"station_id":"st_cvj5dfep6f1abm77gieg","pricing_plan_id":"cebpf4jnsgd1na2vs0mg"},{"bike_id":"9f3ed220-9e9e-4bc8-a5f6-aeb6066011ca","system_id":"levelo_inurba_marseille","lat":43.26229,"lon":5.37464,"is_reserved":false,"is_disabled":false,"rental_uris":{"android":"levelo://app?vid=9f3ed220-9e9e-4bc8-a5f6-aeb6066011ca","ios":"levelo://app?vid=9f3ed220-9e9e-4bc8-a5f6-aeb6066011ca"},"vehicle_type_id":"4","last_reported":1753318765,"current_range_meters":11200,"station_id":"","pricing_plan_id":"cebpf4jnsgd1na2vs0mg"},{"bike_id":"bbc2b271-396f-4875-9f1d-0fcc163d87b6","system_id":"levelo_inurba_marseille","lat":43.2903,"lon":5.39918,"is_reserved":false,"is_disabled":false,"rental_uris":{"android":"levelo://app?vid=bbc2b271-396f-4875-9f1d-0fcc163d87b6","ios":"levelo://app?vid=bbc2b271-396f-4875-9f1d-0fcc163d87b6"},"vehicle_type_id":"4","last_reported":1753318765,"current_range_meters":11600,"station_id":"ce4bh392rcd13ifvqdm0","pricing_plan_id":"cebpf4jnsgd1na2vs0mg"},{"bike_id":"f1d097b0-c8a4-4367-9aff-51329a8098f3","system_id":"levelo_inurba_marseille","lat":43.30925,"lon":5.4015,"is_reserved":false,"is_disabled":false,"rental_uris":{"android":"levelo://app?vid=f1d097b0-c8a4-4367-9aff-51329a8098f3","ios":"levelo://app?vid=f1d097b0-c8a4-4367-9aff-51329a8098f3"},"vehicle_type_id":"4","last_reported":1753318765,"current_range_meters":11600,"station_id":"ce4bgvp2rcd13ifvqct0","pricing_plan_id":"cebpf4jnsgd1na2vs0mg"},{"bike_id":"2f61fd6c-d657-4c53-bdf7-4cb4dc022375","system_id":"levelo_inurba_marseille","lat":43.29572,"lon":5.36743,"is_reserved":false,"is_disabled":false,"rental_uris":{"android":"levelo://app?vid=2f61fd6c-d657-4c53-bdf7-4cb4dc022375","ios":"levelo://app?vid=2f61fd6c-d657-4c53-bdf7-4cb4dc022375"},"vehicle_type_id":"4","last_reported":1753318765,"current_range_meters":11600,"station_id":"ce4bgph2rcd13ifvqc2g","pricing_plan_id":"cebpf4jnsgd1na2vs0mg"},{"bike_id":"898bf405-381f-488f-b718-392ccd792319","system_id":"levelo_inurba_marseille","lat":43.29903,"lon":5.38147,"is_reserved":false,"is_disabled":false,"rental_uris":{"android":"levelo://app?vid=898bf405-381f-488f-b718-392ccd792319","ios":"levelo://app?vid=898bf405-381f-488f-b718-392ccd792319"},"vehicle_type_id":"4","last_reported":1753318765,"current_range_meters":11200,"station_id":"ce4bgj12rcd13ifvqbc0","pricing_plan_id":"cebpf4jnsgd1na2vs0mg"},{"bike_id":"3f5be56d-a126-4342-8f26-f6123fe68563","system_id":"levelo_inurba_marseille","lat":43.29514,"lon":5.39415,"is_reserved":false,"is_disabled":false,"rental_uris":{"android":"levelo://app?vid=3f5be56d-a126-4342-8f26-f6123fe68563","ios":"levelo://app?vid=3f5be56d-a126-4342-8f26-f6123fe68563"},"vehicle_type_id":"4","last_reported":1753318765,"current_range_meters":11600,"station_id":"ce4bh292rcd13ifvqdf0","pricing_plan_id":"cebpf4jnsgd1na2vs0mg"},{"bike_id":"649a6524-8390-4653-8bcf-9537fff11e28","system_id":"levelo_inurba_marseille","lat":43.28454,"lon":5.35893,"is_reserved":false,"is_disabled":false,"rental_uris":{"android":"levelo://app?vid=649a6524-8390-4653-8bcf-9537fff11e28","ios":"levelo://app?vid=649a6524-8390-4653-8bcf-9537fff11e28"},"vehicle_type_id":"4","last_reported":1753318765,"current_range_meters":12000,"station_id":"ce4bhah2rcd13ifvqei0","pricing_plan_id":"cebpf4jnsgd1na2vs0mg"},{"bike_id":"fec3b07e-037a-4fea-a191-679ee2b99950","system_id":"levelo_inurba_marseille","lat":43.24164,"lon":5.36384,"is_reserved":false,"is_disabled":false,"rental_uris":{"android":"levelo://app?vid=fec3b07e-037a-4fea-a191-679ee2b99950","ios":"levelo://app?vid=fec3b07e-037a-4fea-a191-679ee2b99950"},"vehicle_type_id":"4","last_reported":1753318765,"current_range_meters":12000,"station_id":"cpo36qri1sfpv3e86is0","pricing_plan_id":"cebpf4jnsgd1na2vs0mg"},{"bike_id":"396dbd6b-bd12-4fba-a413-85741f08daa2","system_id":"levelo_inurba_marseille","lat":43.230598,"lon":5.355038,"is_reserved":false,"is_disabled":false,"rental_uris":{"android":"levelo://app?vid=396dbd6b-bd12-4fba-a413-85741f08daa2","ios":"levelo://app?vid=396dbd6b-bd12-4fba-a413-85741f08daa2"},"vehicle_type_id":"4","last_reported":1753318765,"current_range_meters":12000,"station_id":"cpo3342slgdg3j2ifvpg","pricing_plan_id":"cebpf4jnsgd1na2vs0mg"},{"bike_id":"7851951d-7efd-4983-bcf8-36b084ea5f31","system_id":"levelo_inurba_marseille","lat":43.316953,"lon":5.404674,"is_reserved":false,"is_disabled":false,"rental_uris":{"android":"levelo://app?vid=7851951d-7efd-4983-bcf8-36b084ea5f31","ios":"levelo://app?vid=7851951d-7efd-4983-bcf8-36b084ea5f31"},"vehicle_type_id":"4","last_reported":1753318765,"current_range_meters":12000,"station_id":"ce4bh012rcd13ifvqd00","pricing_plan_id":"cebpf4jnsgd1na2vs0mg"},{"bike_id":"662795d8-0e8c-43e7-b51e-3c405d6a82b9","system_id":"levelo_inurba_marseille","lat":43.30427,"lon":5.38896,"is_reserved":false,"is_disabled":false,"rental_uris":{"android":"levelo://app?vid=662795d8-0e8c-43e7-b51e-3c405d6a82b9","ios":"levelo://app?vid=662795d8-0e8c-43e7-b51e-3c405d6a82b9"},"vehicle_type_id":"4","last_reported":1753318765,"current_range_meters":12400,"station_id":"ce4bgk12rcd13ifvqbi0","pricing_plan_id":"cebpf4jnsgd1na2vs0mg"},{"bike_id":"f9c9ff83-8548-4acb-a33b-495af4adeef4","system_id":"levelo_inurba_marseille","lat":43.32363,"lon":5.36758,"is_reserved":false,"is_disabled":false,"rental_uris":{"android":"levelo://app?vid=f9c9ff83-8548-4acb-a33b-495af4adeef4","ios":"levelo://app?vid=f9c9ff83-8548-4acb-a33b-495af4adeef4"},"vehicle_type_id":"4","last_reported":1753318765,"current_range_meters":12400,"station_id":"ce4bhsh2rcd13ifvqi2g","pricing_plan_id":"cebpf4jnsgd1na2vs0mg"},{"bike_id":"8006020a-6cfe-4131-82ca-a6c8f07671d2","system_id":"levelo_inurba_marseille","lat":43.31186,"lon":5.37725,"is_reserved":false,"is_disabled":false,"rental_uris":{"android":"levelo://app?vid=8006020a-6cfe-4131-82ca-a6c8f07671d2","ios":"levelo://app?vid=8006020a-6cfe-4131-82ca-a6c8f07671d2"},"vehicle_type_id":"4","last_reported":1753318765,"current_range_meters":12400,"station_id":"","pricing_plan_id":"cebpf4jnsgd1na2vs0mg"},{"bike_id":"be73e0c3-1fcd-4852-b65a-d69995cb5cc9","system_id":"levelo_inurba_marseille","lat":43.32346,"lon":5.40617,"is_reserved":false,"is_disabled":true,"rental_uris":{"android":"levelo://app?vid=be73e0c3-1fcd-4852-b65a-d69995cb5cc9","ios":"levelo://app?vid=be73e0c3-1fcd-4852-b65a-d69995cb5cc9"},"vehicle_type_id":"4","last_reported":1753318765,"current_range_meters":12400,"station_id":"ce4bhq92rcd13ifvqhjg","pricing_plan_id":"cebpf4jnsgd1na2vs0mg"},{"bike_id":"d8dc20bc-067a-4d02-b472-160a7f6f646b","system_id":"levelo_inurba_marseille","lat":43.24073,"lon":5.3776,"is_reserved":false,"is_disabled":false,"rental_uris":{"android":"levelo://app?vid=d8dc20bc-067a-4d02-b472-160a7f6f646b","ios":"levelo://app?vid=d8dc20bc-067a-4d02-b472-160a7f6f646b"},"vehicle_type_id":"4","last_reported":1753318765,"current_range_meters":12400,"station_id":"ce4bhnp2rcd13ifvqgvg","pricing_plan_id":"cebpf4jnsgd1na2vs0mg"},{"bike_id":"28f47f5e-20fb-4458-b7dc-e51ba52b9f79","system_id":"levelo_inurba_marseille","lat":43.3021,"lon":5.40046,"is_reserved":false,"is_disabled":false,"rental_uris":{"android":"levelo://app?vid=28f47f5e-20fb-4458-b7dc-e51ba52b9f79","ios":"levelo://app?vid=28f47f5e-20fb-4458-b7dc-e51ba52b9f79"},"vehicle_type_id":"4","last_reported":1753318765,"current_range_meters":12800,"station_id":"","pricing_plan_id":"cebpf4jnsgd1na2vs0mg"},{"bike_id":"91f52060-bbf5-482b-9a6f-477a51c1d3dc","system_id":"levelo_inurba_marseille","lat":43.30143,"lon":5.38769,"is_reserved":false,"is_disabled":false,"rental_uris":{"android":"levelo://app?vid=91f52060-bbf5-482b-9a6f-477a51c1d3dc","ios":"levelo://app?vid=91f52060-bbf5-482b-9a6f-477a51c1d3dc"},"vehicle_type_id":"4","last_reported":1753318765,"current_range_meters":12800,"station_id":"ce4bghh2rcd13ifvqb60","pricing_plan_id":"cebpf4jnsgd1na2vs0mg"},{"bike_id":"ba1f0b2a-bef0-4f49-a143-8e2b1ea235c7","system_id":"levelo_inurba_marseille","lat":43.31077,"lon":5.3836,"is_reserved":false,"is_disabled":false,"rental_uris":{"android":"levelo://app?vid=ba1f0b2a-bef0-4f49-a143-8e2b1ea235c7","ios":"levelo://app?vid=ba1f0b2a-bef0-4f49-a143-8e2b1ea235c7"},"vehicle_type_id":"4","last_reported":1753318765,"current_range_meters":12800,"station_id":"ce4bgv92rcd13ifvqcr0","pricing_plan_id":"cebpf4jnsgd1na2vs0mg"},{"bike_id":"b5ce8d93-17c0-45a5-b2b1-eefce45c2d79","system_id":"levelo_inurba_marseille","lat":43.318145,"lon":5.435221,"is_reserved":false,"is_disabled":false,"rental_uris":{"android":"levelo://app?vid=b5ce8d93-17c0-45a5-b2b1-eefce45c2d79","ios":"levelo://app?vid=b5ce8d93-17c0-45a5-b2b1-eefce45c2d79"},"vehicle_type_id":"4","last_reported":1753318765,"current_range_meters":12800,"station_id":"","pricing_plan_id":"cebpf4jnsgd1na2vs0mg"},{"bike_id":"a23567dc-f3a0-4378-b496-90cd12ea77ac","system_id":"levelo_inurba_marseille","lat":43.27372,"lon":5.36261,"is_reserved":false,"is_disabled":false,"rental_uris":{"android":"levelo://app?vid=a23567dc-f3a0-4378-b496-90cd12ea77ac","ios":"levelo://app?vid=a23567dc-f3a0-4378-b496-90cd12ea77ac"},"vehicle_type_id":"4","last_reported":1753318765,"current_range_meters":12800,"station_id":"ce4bhbh2rcd13ifvqeo0","pricing_plan_id":"cebpf4jnsgd1na2vs0mg"},{"bike_id":"541e3f7a-640b-4d8c-977d-949ca2a087ab","system_id":"levelo_inurba_marseille","lat":43.30796,"lon":5.379577,"is_reserved":false,"is_disabled":true,"rental_uris":{"android":"levelo://app?vid=541e3f7a-640b-4d8c-977d-949ca2a087ab","ios":"levelo://app?vid=541e3f7a-640b-4d8c-977d-949ca2a087ab"},"vehicle_type_id":"4","last_reported":1753318765,"current_range_meters":12800,"station_id":"ce4bgt12rcd13ifvqce0","pricing_plan_id":"cebpf4jnsgd1na2vs0mg"},{"bike_id":"a0de01aa-cd68-4a4d-8bab-65fa167b8610","system_id":"levelo_inurba_marseille","lat":43.2319,"lon":5.35567,"is_reserved":false,"is_disabled":false,"rental_uris":{"android":"levelo://app?vid=a0de01aa-cd68-4a4d-8bab-65fa167b8610","ios":"levelo://app?vid=a0de01aa-cd68-4a4d-8bab-65fa167b8610"},"vehicle_type_id":"4","last_reported":1753318765,"current_range_meters":12800,"station_id":"ce4bhu92rcd13ifvqi70","pricing_plan_id":"cebpf4jnsgd1na2vs0mg"},{"bike_id":"7ca0bf5e-2993-45c9-866f-452888c9c143","system_id":"levelo_inurba_marseille","lat":43.28454,"lon":5.35884,"is_reserved":false,"is_disabled":false,"rental_uris":{"android":"levelo://app?vid=7ca0bf5e-2993-45c9-866f-452888c9c143","ios":"levelo://app?vid=7ca0bf5e-2993-45c9-866f-452888c9c143"},"vehicle_type_id":"4","last_reported":1753318765,"current_range_meters":12800,"station_id":"ce4bhah2rcd13ifvqei0","pricing_plan_id":"cebpf4jnsgd1na2vs0mg"},{"bike_id":"9ce312f1-cb07-4159-91d6-c11a68a5ee71","system_id":"levelo_inurba_marseille","lat":43.211861,"lon":5.350838,"is_reserved":false,"is_disabled":false,"rental_uris":{"android":"levelo://app?vid=9ce312f1-cb07-4159-91d6-c11a68a5ee71","ios":"levelo://app?vid=9ce312f1-cb07-4159-91d6-c11a68a5ee71"},"vehicle_type_id":"4","last_reported":1753318765,"current_range_meters":12800,"station_id":"st_cvj6sg6p6f1abm77japg","pricing_plan_id":"cebpf4jnsgd1na2vs0mg"},{"bike_id":"072249e0-6b31-4d65-814c-3886177b7a41","system_id":"levelo_inurba_marseille","lat":43.31766,"lon":5.39027,"is_reserved":false,"is_disabled":false,"rental_uris":{"android":"levelo://app?vid=072249e0-6b31-4d65-814c-3886177b7a41","ios":"levelo://app?vid=072249e0-6b31-4d65-814c-3886177b7a41"},"vehicle_type_id":"4","last_reported":1753318765,"current_range_meters":12800,"station_id":"ce4bhqp2rcd13ifvqhng","pricing_plan_id":"cebpf4jnsgd1na2vs0mg"},{"bike_id":"de45d814-b95a-4759-9f6f-a86ee21f1cd5","system_id":"levelo_inurba_marseille","lat":43.28436,"lon":5.39202,"is_reserved":false,"is_disabled":false,"rental_uris":{"android":"levelo://app?vid=de45d814-b95a-4759-9f6f-a86ee21f1cd5","ios":"levelo://app?vid=de45d814-b95a-4759-9f6f-a86ee21f1cd5"},"vehicle_type_id":"4","last_reported":1753318765,"current_range_meters":14000,"station_id":"ce4bhoh2rcd13ifvqh5g","pricing_plan_id":"cebpf4jnsgd1na2vs0mg"},{"bike_id":"f3217e35-0bb5-43ab-beb0-dd5e233a7114","system_id":"levelo_inurba_marseille","lat":43.255788,"lon":5.382315,"is_reserved":false,"is_disabled":false,"rental_uris":{"android":"levelo://app?vid=f3217e35-0bb5-43ab-beb0-dd5e233a7114","ios":"levelo://app?vid=f3217e35-0bb5-43ab-beb0-dd5e233a7114"},"vehicle_type_id":"4","last_reported":1753318765,"current_range_meters":13600,"station_id":"ce4bhih2rcd13ifvqfs0","pricing_plan_id":"cebpf4jnsgd1na2vs0mg"},{"bike_id":"b8d738d9-a006-4f85-9da8-a7f3edbaa544","system_id":"levelo_inurba_marseille","lat":43.26215,"lon":5.40477,"is_reserved":false,"is_disabled":false,"rental_uris":{"android":"levelo://app?vid=b8d738d9-a006-4f85-9da8-a7f3edbaa544","ios":"levelo://app?vid=b8d738d9-a006-4f85-9da8-a7f3edbaa544"},"vehicle_type_id":"4","last_reported":1753318765,"current_range_meters":13600,"station_id":"ce4bhmh2rcd13ifvqgmg","pricing_plan_id":"cebpf4jnsgd1na2vs0mg"},{"bike_id":"0044f8c1-5a70-4840-a7ed-db0b05f30513","system_id":"levelo_inurba_marseille","lat":43.289429,"lon":5.366293,"is_reserved":false,"is_disabled":false,"rental_uris":{"android":"levelo://app?vid=0044f8c1-5a70-4840-a7ed-db0b05f30513","ios":"levelo://app?vid=0044f8c1-5a70-4840-a7ed-db0b05f30513"},"vehicle_type_id":"4","last_reported":1753318765,"current_range_meters":13600,"station_id":"ce4bhap2rcd13ifvqek0","pricing_plan_id":"cebpf4jnsgd1na2vs0mg"},{"bike_id":"6ad3cc92-21b0-4902-84b3-c55f3a072b5b","system_id":"levelo_inurba_marseille","lat":43.31703,"lon":5.43716,"is_reserved":false,"is_disabled":false,"rental_uris":{"android":"levelo://app?vid=6ad3cc92-21b0-4902-84b3-c55f3a072b5b","ios":"levelo://app?vid=6ad3cc92-21b0-4902-84b3-c55f3a072b5b"},"vehicle_type_id":"4","last_reported":1753318765,"current_range_meters":13600,"station_id":"ce4bhp92rcd13ifvqhcg","pricing_plan_id":"cebpf4jnsgd1na2vs0mg"},{"bike_id":"e74ce1d2-7467-44e9-8a64-d22833385217","system_id":"levelo_inurba_marseille","lat":43.28144,"lon":5.42652,"is_reserved":false,"is_disabled":false,"rental_uris":{"android":"levelo://app?vid=e74ce1d2-7467-44e9-8a64-d22833385217","ios":"levelo://app?vid=e74ce1d2-7467-44e9-8a64-d22833385217"},"vehicle_type_id":"4","last_reported":1753318765,"current_range_meters":13600,"station_id":"ce4bhnh2rcd13ifvqgug","pricing_plan_id":"cebpf4jnsgd1na2vs0mg"},{"bike_id":"f8232130-db52-4ff5-b354-f78033a04c00","system_id":"levelo_inurba_marseille","lat":43.27936,"lon":5.41056,"is_reserved":false,"is_disabled":false,"rental_uris":{"android":"levelo://app?vid=f8232130-db52-4ff5-b354-f78033a04c00","ios":"levelo://app?vid=f8232130-db52-4ff5-b354-f78033a04c00"},"vehicle_type_id":"4","last_reported":1753318765,"current_range_meters":13600,"station_id":"ce4bhnp2rcd13ifvqh0g","pricing_plan_id":"cebpf4jnsgd1na2vs0mg"},{"bike_id":"1e7d27be-23af-4c7f-9a5e-514152b69086","system_id":"levelo_inurba_marseille","lat":43.293966,"lon":5.409704,"is_reserved":false,"is_disabled":false,"rental_uris":{"android":"levelo://app?vid=1e7d27be-23af-4c7f-9a5e-514152b69086","ios":"levelo://app?vid=1e7d27be-23af-4c7f-9a5e-514152b69086"},"vehicle_type_id":"4","last_reported":1753318765,"current_range_meters":14000,"station_id":"","pricing_plan_id":"cebpf4jnsgd1na2vs0mg"},{"bike_id":"960d25e5-ac27-47de-ad2a-b2dafcb819c7","system_id":"levelo_inurba_marseille","lat":43.29,"lon":5.356117,"is_reserved":false,"is_disabled":true,"rental_uris":{"android":"levelo://app?vid=960d25e5-ac27-47de-ad2a-b2dafcb819c7","ios":"levelo://app?vid=960d25e5-ac27-47de-ad2a-b2dafcb819c7"},"vehicle_type_id":"4","last_reported":1753318765,"current_range_meters":14000,"station_id":"ce4bhb92rcd13ifvqen0","pricing_plan_id":"cebpf4jnsgd1na2vs0mg"},{"bike_id":"02885542-76b0-4bcb-887d-d17198540bf4","system_id":"levelo_inurba_marseille","lat":43.30174,"lon":5.39497,"is_reserved":false,"is_disabled":false,"rental_uris":{"android":"levelo://app?vid=02885542-76b0-4bcb-887d-d17198540bf4","ios":"levelo://app?vid=02885542-76b0-4bcb-887d-d17198540bf4"},"vehicle_type_id":"4","last_reported":1753318765,"current_range_meters":14000,"station_id":"ce4bh0p2rcd13ifvqd70","pricing_plan_id":"cebpf4jnsgd1na2vs0mg"},{"bike_id":"e480bd8b-ab3b-474e-85dc-cd917472d2ed","system_id":"levelo_inurba_marseille","lat":43.23974,"lon":5.36625,"is_reserved":false,"is_disabled":false,"rental_uris":{"android":"levelo://app?vid=e480bd8b-ab3b-474e-85dc-cd917472d2ed","ios":"levelo://app?vid=e480bd8b-ab3b-474e-85dc-cd917472d2ed"},"vehicle_type_id":"4","last_reported":1753318765,"current_range_meters":14400,"station_id":"ce4bhi12rcd13ifvqfp0","pricing_plan_id":"cebpf4jnsgd1na2vs0mg"},{"bike_id":"f9322b84-4311-4472-9e01-0a942613dbdc","system_id":"levelo_inurba_marseille","lat":43.279974,"lon":5.416682,"is_reserved":false,"is_disabled":false,"rental_uris":{"android":"levelo://app?vid=f9322b84-4311-4472-9e01-0a942613dbdc","ios":"levelo://app?vid=f9322b84-4311-4472-9e01-0a942613dbdc"},"vehicle_type_id":"4","last_reported":1753318765,"current_range_meters":14400,"station_id":"ce4bho12rcd13ifvqh1g","pricing_plan_id":"cebpf4jnsgd1na2vs0mg"},{"bike_id":"b1611388-74da-4bd8-aa35-2fd1ff7cb76e","system_id":"levelo_inurba_marseille","lat":43.27063,"lon":5.42286,"is_reserved":false,"is_disabled":false,"rental_uris":{"android":"levelo://app?vid=b1611388-74da-4bd8-aa35-2fd1ff7cb76e","ios":"levelo://app?vid=b1611388-74da-4bd8-aa35-2fd1ff7cb76e"},"vehicle_type_id":"4","last_reported":1753318765,"current_range_meters":14400,"station_id":"ce4bhk92rcd13ifvqgb0","pricing_plan_id":"cebpf4jnsgd1na2vs0mg"},{"bike_id":"74667481-5f03-4636-8b5a-495e4f40157d","system_id":"levelo_inurba_marseille","lat":43.298964,"lon":5.376456,"is_reserved":false,"is_disabled":false,"rental_uris":{"android":"levelo://app?vid=74667481-5f03-4636-8b5a-495e4f40157d","ios":"levelo://app?vid=74667481-5f03-4636-8b5a-495e4f40157d"},"vehicle_type_id":"4","last_reported":1753318765,"current_range_meters":14400,"station_id":"","pricing_plan_id":"cebpf4jnsgd1na2vs0mg"},{"bike_id":"0b038d1a-2e18-49ed-bfd0-db9b0c826118","system_id":"levelo_inurba_marseille","lat":43.287,"lon":5.39985,"is_reserved":false,"is_disabled":false,"rental_uris":{"android":"levelo://app?vid=0b038d1a-2e18-49ed-bfd0-db9b0c826118","ios":"levelo://app?vid=0b038d1a-2e18-49ed-bfd0-db9b0c826118"},"vehicle_type_id":"4","last_reported":1753318765,"current_range_meters":14400,"station_id":"ce4bho92rcd13ifvqh3g","pricing_plan_id":"cebpf4jnsgd1na2vs0mg"},{"bike_id":"b89d6267-55af-48a1-8887-3f0adc5ff195","system_id":"levelo_inurba_marseille","lat":43.301319,"lon":5.39874,"is_reserved":false,"is_disabled":false,"rental_uris":{"android":"levelo://app?vid=b89d6267-55af-48a1-8887-3f0adc5ff195","ios":"levelo://app?vid=b89d6267-55af-48a1-8887-3f0adc5ff195"},"vehicle_type_id":"4","last_reported":1753318765,"current_range_meters":14400,"station_id":"","pricing_plan_id":"cebpf4jnsgd1na2vs0mg"},{"bike_id":"6a454c54-bc92-4248-a7ae-643f6c211647","system_id":"levelo_inurba_marseille","lat":43.305908,"lon":5.393544,"is_reserved":false,"is_disabled":false,"rental_uris":{"android":"levelo://app?vid=6a454c54-bc92-4248-a7ae-643f6c211647","ios":"levelo://app?vid=6a454c54-bc92-4248-a7ae-643f6c211647"},"vehicle_type_id":"4","last_reported":1753318765,"current_range_meters":14400,"station_id":"ce4bh0p2rcd13ifvqd80","pricing_plan_id":"cebpf4jnsgd1na2vs0mg"},{"bike_id":"fab40a3b-da40-420c-b13b-c56a83745451","system_id":"levelo_inurba_marseille","lat":43.30144,"lon":5.38772,"is_reserved":false,"is_disabled":false,"rental_uris":{"android":"levelo://app?vid=fab40a3b-da40-420c-b13b-c56a83745451","ios":"levelo://app?vid=fab40a3b-da40-420c-b13b-c56a83745451"},"vehicle_type_id":"4","last_reported":1753318765,"current_range_meters":14400,"station_id":"ce4bghh2rcd13ifvqb60","pricing_plan_id":"cebpf4jnsgd1na2vs0mg"},{"bike_id":"75921511-23bf-408f-9470-1062209789d6","system_id":"levelo_inurba_marseille","lat":43.25581,"lon":5.38234,"is_reserved":false,"is_disabled":false,"rental_uris":{"android":"levelo://app?vid=75921511-23bf-408f-9470-1062209789d6","ios":"levelo://app?vid=75921511-23bf-408f-9470-1062209789d6"},"vehicle_type_id":"4","last_reported":1753318765,"current_range_meters":14800,"station_id":"ce4bhih2rcd13ifvqfs0","pricing_plan_id":"cebpf4jnsgd1na2vs0mg"},{"bike_id":"ace255a1-6034-44ed-8006-5510d8b33881","system_id":"levelo_inurba_marseille","lat":43.27073,"lon":5.42266,"is_reserved":false,"is_disabled":false,"rental_uris":{"android":"levelo://app?vid=ace255a1-6034-44ed-8006-5510d8b33881","ios":"levelo://app?vid=ace255a1-6034-44ed-8006-5510d8b33881"},"vehicle_type_id":"4","last_reported":1753318765,"current_range_meters":14800,"station_id":"ce4bhk92rcd13ifvqgb0","pricing_plan_id":"cebpf4jnsgd1na2vs0mg"},{"bike_id":"0d989bd3-3a2a-48ca-a6d7-77c5e7fc1d2e","system_id":"levelo_inurba_marseille","lat":43.23181,"lon":5.39992,"is_reserved":false,"is_disabled":false,"rental_uris":{"android":"levelo://app?vid=0d989bd3-3a2a-48ca-a6d7-77c5e7fc1d2e","ios":"levelo://app?vid=0d989bd3-3a2a-48ca-a6d7-77c5e7fc1d2e"},"vehicle_type_id":"4","last_reported":1753318765,"current_range_meters":14800,"station_id":"ce4bhn12rcd13ifvqgqg","pricing_plan_id":"cebpf4jnsgd1na2vs0mg"},{"bike_id":"496cac02-0e91-4f64-97b9-cb34cf0ab931","system_id":"levelo_inurba_marseille","lat":43.22501,"lon":5.34786,"is_reserved":false,"is_disabled":false,"rental_uris":{"android":"levelo://app?vid=496cac02-0e91-4f64-97b9-cb34cf0ab931","ios":"levelo://app?vid=496cac02-0e91-4f64-97b9-cb34cf0ab931"},"vehicle_type_id":"4","last_reported":1753318765,"current_range_meters":14800,"station_id":"st_cvj5dfep6f1abm77gieg","pricing_plan_id":"cebpf4jnsgd1na2vs0mg"},{"bike_id":"28324e38-20b9-44d9-9f36-a048f64442cf","system_id":"levelo_inurba_marseille","lat":43.30913,"lon":5.40167,"is_reserved":false,"is_disabled":false,"rental_uris":{"android":"levelo://app?vid=28324e38-20b9-44d9-9f36-a048f64442cf","ios":"levelo://app?vid=28324e38-20b9-44d9-9f36-a048f64442cf"},"vehicle_type_id":"4","last_reported":1753318765,"current_range_meters":14800,"station_id":"ce4bgvp2rcd13ifvqct0","pricing_plan_id":"cebpf4jnsgd1na2vs0mg"},{"bike_id":"70737bad-8214-4681-8a7d-fa98042cf105","system_id":"levelo_inurba_marseille","lat":43.290493,"lon":5.399417,"is_reserved":false,"is_disabled":false,"rental_uris":{"android":"levelo://app?vid=70737bad-8214-4681-8a7d-fa98042cf105","ios":"levelo://app?vid=70737bad-8214-4681-8a7d-fa98042cf105"},"vehicle_type_id":"4","last_reported":1753318765,"current_range_meters":14800,"station_id":"ce4bh392rcd13ifvqdm0","pricing_plan_id":"cebpf4jnsgd1na2vs0mg"},{"bike_id":"67e2c373-f05a-4330-9013-e652b53f2e41","system_id":"levelo_inurba_marseille","lat":43.29171,"lon":5.39347,"is_reserved":false,"is_disabled":false,"rental_uris":{"android":"levelo://app?vid=67e2c373-f05a-4330-9013-e652b53f2e41","ios":"levelo://app?vid=67e2c373-f05a-4330-9013-e652b53f2e41"},"vehicle_type_id":"4","last_reported":1753318765,"current_range_meters":14800,"station_id":"","pricing_plan_id":"cebpf4jnsgd1na2vs0mg"},{"bike_id":"3cd09fc8-9554-4236-8496-0931a7be09d1","system_id":"levelo_inurba_marseille","lat":43.21201,"lon":5.3508,"is_reserved":false,"is_disabled":false,"rental_uris":{"android":"levelo://app?vid=3cd09fc8-9554-4236-8496-0931a7be09d1","ios":"levelo://app?vid=3cd09fc8-9554-4236-8496-0931a7be09d1"},"vehicle_type_id":"4","last_reported":1753318765,"current_range_meters":14800,"station_id":"st_cvj6sg6p6f1abm77japg","pricing_plan_id":"cebpf4jnsgd1na2vs0mg"},{"bike_id":"fd806929-766b-4e70-9fda-08bb1966d1c7","system_id":"levelo_inurba_marseille","lat":43.28853,"lon":5.39321,"is_reserved":false,"is_disabled":false,"rental_uris":{"android":"levelo://app?vid=fd806929-766b-4e70-9fda-08bb1966d1c7","ios":"levelo://app?vid=fd806929-766b-4e70-9fda-08bb1966d1c7"},"vehicle_type_id":"4","last_reported":1753318765,"current_range_meters":14800,"station_id":"ce4bh2p2rcd13ifvqdi0","pricing_plan_id":"cebpf4jnsgd1na2vs0mg"},{"bike_id":"2006d6ab-c619-4a15-b9f3-97c1160843f0","system_id":"levelo_inurba_marseille","lat":43.28156,"lon":5.361,"is_reserved":false,"is_disabled":false,"rental_uris":{"android":"levelo://app?vid=2006d6ab-c619-4a15-b9f3-97c1160843f0","ios":"levelo://app?vid=2006d6ab-c619-4a15-b9f3-97c1160843f0"},"vehicle_type_id":"4","last_reported":1753318765,"current_range_meters":14800,"station_id":"","pricing_plan_id":"cebpf4jnsgd1na2vs0mg"},{"bike_id":"f9003d10-d9c2-4f36-aaab-0b06e5143ac9","system_id":"levelo_inurba_marseille","lat":43.29935,"lon":5.37377,"is_reserved":false,"is_disabled":true,"rental_uris":{"android":"levelo://app?vid=f9003d10-d9c2-4f36-aaab-0b06e5143ac9","ios":"levelo://app?vid=f9003d10-d9c2-4f36-aaab-0b06e5143ac9"},"vehicle_type_id":"4","last_reported":1753318765,"current_range_meters":15200,"station_id":"","pricing_plan_id":"cebpf4jnsgd1na2vs0mg"},{"bike_id":"5ac85406-65d0-4336-aa89-4b04b2e6689e","system_id":"levelo_inurba_marseille","lat":43.33252,"lon":5.41989,"is_reserved":false,"is_disabled":false,"rental_uris":{"android":"levelo://app?vid=5ac85406-65d0-4336-aa89-4b04b2e6689e","ios":"levelo://app?vid=5ac85406-65d0-4336-aa89-4b04b2e6689e"},"vehicle_type_id":"4","last_reported":1753318765,"current_range_meters":15200,"station_id":"","pricing_plan_id":"cebpf4jnsgd1na2vs0mg"},{"bike_id":"ae22acee-1aff-4f65-b417-4fdb3077bdc0","system_id":"levelo_inurba_marseille","lat":43.27422,"lon":5.39408,"is_reserved":false,"is_disabled":false,"rental_uris":{"android":"levelo://app?vid=ae22acee-1aff-4f65-b417-4fdb3077bdc0","ios":"levelo://app?vid=ae22acee-1aff-4f65-b417-4fdb3077bdc0"},"vehicle_type_id":"4","last_reported":1753318765,"current_range_meters":15200,"station_id":"ce4bhdp2rcd13ifvqf20","pricing_plan_id":"cebpf4jnsgd1na2vs0mg"},{"bike_id":"68b23df6-72cc-481a-a09a-6413f815ff4e","system_id":"levelo_inurba_marseille","lat":43.25485,"lon":5.37655,"is_reserved":false,"is_disabled":true,"rental_uris":{"android":"levelo://app?vid=68b23df6-72cc-481a-a09a-6413f815ff4e","ios":"levelo://app?vid=68b23df6-72cc-481a-a09a-6413f815ff4e"},"vehicle_type_id":"4","last_reported":1753318765,"current_range_meters":15200,"station_id":"ce4bhh12rcd13ifvqff0","pricing_plan_id":"cebpf4jnsgd1na2vs0mg"},{"bike_id":"ae131367-d818-44a0-9e1d-4aa65dcdb16a","system_id":"levelo_inurba_marseille","lat":43.27578,"lon":5.397,"is_reserved":false,"is_disabled":false,"rental_uris":{"android":"levelo://app?vid=ae131367-d818-44a0-9e1d-4aa65dcdb16a","ios":"levelo://app?vid=ae131367-d818-44a0-9e1d-4aa65dcdb16a"},"vehicle_type_id":"4","last_reported":1753318765,"current_range_meters":15200,"station_id":"","pricing_plan_id":"cebpf4jnsgd1na2vs0mg"},{"bike_id":"0648eb3b-38dc-45ba-994e-ffad74a620d8","system_id":"levelo_inurba_marseille","lat":43.29012,"lon":5.38633,"is_reserved":false,"is_disabled":true,"rental_uris":{"android":"levelo://app?vid=0648eb3b-38dc-45ba-994e-ffad74a620d8","ios":"levelo://app?vid=0648eb3b-38dc-45ba-994e-ffad74a620d8"},"vehicle_type_id":"4","last_reported":1753318765,"current_range_meters":15200,"station_id":"ce4bh4p2rcd13ifvqe0g","pricing_plan_id":"cebpf4jnsgd1na2vs0mg"},{"bike_id":"6bb1f31c-9335-4f39-9585-31374a4775f9","system_id":"levelo_inurba_marseille","lat":43.325583,"lon":5.379059,"is_reserved":false,"is_disabled":false,"rental_uris":{"android":"levelo://app?vid=6bb1f31c-9335-4f39-9585-31374a4775f9","ios":"levelo://app?vid=6bb1f31c-9335-4f39-9585-31374a4775f9"},"vehicle_type_id":"4","last_reported":1753318765,"current_range_meters":15200,"station_id":"","pricing_plan_id":"cebpf4jnsgd1na2vs0mg"},{"bike_id":"54943e91-61ee-496b-9667-a7c6c3a25bb5","system_id":"levelo_inurba_marseille","lat":43.26222,"lon":5.37451,"is_reserved":false,"is_disabled":false,"rental_uris":{"android":"levelo://app?vid=54943e91-61ee-496b-9667-a7c6c3a25bb5","ios":"levelo://app?vid=54943e91-61ee-496b-9667-a7c6c3a25bb5"},"vehicle_type_id":"4","last_reported":1753318765,"current_range_meters":15200,"station_id":"ce4bhgp2rcd13ifvqfc0","pricing_plan_id":"cebpf4jnsgd1na2vs0mg"},{"bike_id":"8653745e-84f9-4064-b6e8-6e4e8bfce0ff","system_id":"levelo_inurba_marseille","lat":43.23948,"lon":5.36645,"is_reserved":false,"is_disabled":false,"rental_uris":{"android":"levelo://app?vid=8653745e-84f9-4064-b6e8-6e4e8bfce0ff","ios":"levelo://app?vid=8653745e-84f9-4064-b6e8-6e4e8bfce0ff"},"vehicle_type_id":"4","last_reported":1753318765,"current_range_meters":16000,"station_id":"ce4bhi12rcd13ifvqfp0","pricing_plan_id":"cebpf4jnsgd1na2vs0mg"},{"bike_id":"efce9bd7-0f84-4c4c-8629-017c0e0428bd","system_id":"levelo_inurba_marseille","lat":43.255801,"lon":5.382377,"is_reserved":false,"is_disabled":false,"rental_uris":{"android":"levelo://app?vid=efce9bd7-0f84-4c4c-8629-017c0e0428bd","ios":"levelo://app?vid=efce9bd7-0f84-4c4c-8629-017c0e0428bd"},"vehicle_type_id":"4","last_reported":1753318765,"current_range_meters":16000,"station_id":"ce4bhih2rcd13ifvqfs0","pricing_plan_id":"cebpf4jnsgd1na2vs0mg"},{"bike_id":"c056311f-78c9-4e18-8685-91c659ddb125","system_id":"levelo_inurba_marseille","lat":43.3161,"lon":5.38978,"is_reserved":false,"is_disabled":false,"rental_uris":{"android":"levelo://app?vid=c056311f-78c9-4e18-8685-91c659ddb125","ios":"levelo://app?vid=c056311f-78c9-4e18-8685-91c659ddb125"},"vehicle_type_id":"4","last_reported":1753318765,"current_range_meters":16000,"station_id":"","pricing_plan_id":"cebpf4jnsgd1na2vs0mg"},{"bike_id":"5e95e580-68ac-4eb0-be4a-a33622d8d2d9","system_id":"levelo_inurba_marseille","lat":43.24646,"lon":5.38904,"is_reserved":false,"is_disabled":false,"rental_uris":{"android":"levelo://app?vid=5e95e580-68ac-4eb0-be4a-a33622d8d2d9","ios":"levelo://app?vid=5e95e580-68ac-4eb0-be4a-a33622d8d2d9"},"vehicle_type_id":"4","last_reported":1753318765,"current_range_meters":16000,"station_id":"ce4bhg12rcd13ifvqf60","pricing_plan_id":"cebpf4jnsgd1na2vs0mg"},{"bike_id":"ce59a62d-17ec-416f-b54d-751bd3f6f3dd","system_id":"levelo_inurba_marseille","lat":43.2707,"lon":5.42274,"is_reserved":false,"is_disabled":false,"rental_uris":{"android":"levelo://app?vid=ce59a62d-17ec-416f-b54d-751bd3f6f3dd","ios":"levelo://app?vid=ce59a62d-17ec-416f-b54d-751bd3f6f3dd"},"vehicle_type_id":"4","last_reported":1753318765,"current_range_meters":16000,"station_id":"ce4bhk92rcd13ifvqgb0","pricing_plan_id":"cebpf4jnsgd1na2vs0mg"},{"bike_id":"e9e25d18-373e-4266-9b6b-bfa0bf8acd93","system_id":"levelo_inurba_marseille","lat":43.31888,"lon":5.40737,"is_reserved":false,"is_disabled":false,"rental_uris":{"android":"levelo://app?vid=e9e25d18-373e-4266-9b6b-bfa0bf8acd93","ios":"levelo://app?vid=e9e25d18-373e-4266-9b6b-bfa0bf8acd93"},"vehicle_type_id":"4","last_reported":1753318765,"current_range_meters":16000,"station_id":"ce4bhq12rcd13ifvqhig","pricing_plan_id":"cebpf4jnsgd1na2vs0mg"},{"bike_id":"0372d762-aad9-470d-bcac-ca21b9bee4a9","system_id":"levelo_inurba_marseille","lat":43.31066,"lon":5.38352,"is_reserved":false,"is_disabled":true,"rental_uris":{"android":"levelo://app?vid=0372d762-aad9-470d-bcac-ca21b9bee4a9","ios":"levelo://app?vid=0372d762-aad9-470d-bcac-ca21b9bee4a9"},"vehicle_type_id":"4","last_reported":1753318765,"current_range_meters":16000,"station_id":"ce4bgv92rcd13ifvqcr0","pricing_plan_id":"cebpf4jnsgd1na2vs0mg"},{"bike_id":"6a79a396-2f47-4b1c-9dce-b0d5464f72e4","system_id":"levelo_inurba_marseille","lat":43.22923,"lon":5.35387,"is_reserved":false,"is_disabled":false,"rental_uris":{"android":"levelo://app?vid=6a79a396-2f47-4b1c-9dce-b0d5464f72e4","ios":"levelo://app?vid=6a79a396-2f47-4b1c-9dce-b0d5464f72e4"},"vehicle_type_id":"4","last_reported":1753318765,"current_range_meters":16000,"station_id":"cpo3532slgdg3j2ikp40","pricing_plan_id":"cebpf4jnsgd1na2vs0mg"},{"bike_id":"2ee732fb-16c6-4794-9a8e-0c60df4bd4d8","system_id":"levelo_inurba_marseille","lat":43.217511,"lon":5.346053,"is_reserved":false,"is_disabled":false,"rental_uris":{"android":"levelo://app?vid=2ee732fb-16c6-4794-9a8e-0c60df4bd4d8","ios":"levelo://app?vid=2ee732fb-16c6-4794-9a8e-0c60df4bd4d8"},"vehicle_type_id":"4","last_reported":1753318765,"current_range_meters":16000,"station_id":"","pricing_plan_id":"cebpf4jnsgd1na2vs0mg"},{"bike_id":"26684ea6-0624-44f2-ae7d-1b0fd0f20d72","system_id":"levelo_inurba_marseille","lat":43.30331,"lon":5.4043,"is_reserved":false,"is_disabled":false,"rental_uris":{"android":"levelo://app?vid=26684ea6-0624-44f2-ae7d-1b0fd0f20d72","ios":"levelo://app?vid=26684ea6-0624-44f2-ae7d-1b0fd0f20d72"},"vehicle_type_id":"4","last_reported":1753318765,"current_range_meters":16400,"station_id":"ce4bh012rcd13ifvqd10","pricing_plan_id":"cebpf4jnsgd1na2vs0mg"},{"bike_id":"13ef3d67-774c-414b-8105-7679f51c53c5","system_id":"levelo_inurba_marseille","lat":43.27913,"lon":5.39579,"is_reserved":false,"is_disabled":false,"rental_uris":{"android":"levelo://app?vid=13ef3d67-774c-414b-8105-7679f51c53c5","ios":"levelo://app?vid=13ef3d67-774c-414b-8105-7679f51c53c5"},"vehicle_type_id":"4","last_reported":1753318765,"current_range_meters":16400,"station_id":"ce4bhf92rcd13ifvqf40","pricing_plan_id":"cebpf4jnsgd1na2vs0mg"},{"bike_id":"df1db0e5-bddc-476a-88ba-8e262697d768","system_id":"levelo_inurba_marseille","lat":43.27939,"lon":5.39607,"is_reserved":false,"is_disabled":false,"rental_uris":{"android":"levelo://app?vid=df1db0e5-bddc-476a-88ba-8e262697d768","ios":"levelo://app?vid=df1db0e5-bddc-476a-88ba-8e262697d768"},"vehicle_type_id":"4","last_reported":1753318765,"current_range_meters":16400,"station_id":"ce4bhf92rcd13ifvqf40","pricing_plan_id":"cebpf4jnsgd1na2vs0mg"},{"bike_id":"c3b7093a-c6fc-4872-a465-95918521be48","system_id":"levelo_inurba_marseille","lat":43.31496,"lon":5.37294,"is_reserved":false,"is_disabled":false,"rental_uris":{"android":"levelo://app?vid=c3b7093a-c6fc-4872-a465-95918521be48","ios":"levelo://app?vid=c3b7093a-c6fc-4872-a465-95918521be48"},"vehicle_type_id":"4","last_reported":1753318765,"current_range_meters":16400,"station_id":"ce4bgt12rcd13ifvqcd0","pricing_plan_id":"cebpf4jnsgd1na2vs0mg"},{"bike_id":"17b6befd-1cc6-4c58-ba0e-8a9cc2a0bccb","system_id":"levelo_inurba_marseille","lat":43.2251,"lon":5.3479,"is_reserved":false,"is_disabled":false,"rental_uris":{"android":"levelo://app?vid=17b6befd-1cc6-4c58-ba0e-8a9cc2a0bccb","ios":"levelo://app?vid=17b6befd-1cc6-4c58-ba0e-8a9cc2a0bccb"},"vehicle_type_id":"4","last_reported":1753318765,"current_range_meters":16400,"station_id":"st_cvj5dfep6f1abm77gieg","pricing_plan_id":"cebpf4jnsgd1na2vs0mg"},{"bike_id":"1699da3b-157a-4d07-ba4d-8fe9df7d93c7","system_id":"levelo_inurba_marseille","lat":43.30375,"lon":5.41931,"is_reserved":false,"is_disabled":false,"rental_uris":{"android":"levelo://app?vid=1699da3b-157a-4d07-ba4d-8fe9df7d93c7","ios":"levelo://app?vid=1699da3b-157a-4d07-ba4d-8fe9df7d93c7"},"vehicle_type_id":"4","last_reported":1753318765,"current_range_meters":16400,"station_id":"","pricing_plan_id":"cebpf4jnsgd1na2vs0mg"},{"bike_id":"61cb5b9a-9cee-4d3f-8bba-365148ee2e42","system_id":"levelo_inurba_marseille","lat":43.25867,"lon":5.399,"is_reserved":false,"is_disabled":false,"rental_uris":{"android":"levelo://app?vid=61cb5b9a-9cee-4d3f-8bba-365148ee2e42","ios":"levelo://app?vid=61cb5b9a-9cee-4d3f-8bba-365148ee2e42"},"vehicle_type_id":"4","last_reported":1753318765,"current_range_meters":16400,"station_id":"ce4bhl92rcd13ifvqghg","pricing_plan_id":"cebpf4jnsgd1na2vs0mg"},{"bike_id":"8c6d173f-0319-4b85-866e-8907cdab00f0","system_id":"levelo_inurba_marseille","lat":43.27626,"lon":5.36109,"is_reserved":false,"is_disabled":false,"rental_uris":{"android":"levelo://app?vid=8c6d173f-0319-4b85-866e-8907cdab00f0","ios":"levelo://app?vid=8c6d173f-0319-4b85-866e-8907cdab00f0"},"vehicle_type_id":"4","last_reported":1753318765,"current_range_meters":16400,"station_id":"ce4bgj92rcd13ifvqbe0","pricing_plan_id":"cebpf4jnsgd1na2vs0mg"},{"bike_id":"18b86593-4f21-41ed-81b3-f3a5b378dc91","system_id":"levelo_inurba_marseille","lat":43.312339,"lon":5.381309,"is_reserved":false,"is_disabled":false,"rental_uris":{"android":"levelo://app?vid=18b86593-4f21-41ed-81b3-f3a5b378dc91","ios":"levelo://app?vid=18b86593-4f21-41ed-81b3-f3a5b378dc91"},"vehicle_type_id":"4","last_reported":1753318765,"current_range_meters":16400,"station_id":"","pricing_plan_id":"cebpf4jnsgd1na2vs0mg"},{"bike_id":"f6419716-c272-46b5-b908-d91a04b2b53d","system_id":"levelo_inurba_marseille","lat":43.28031,"lon":5.3694,"is_reserved":false,"is_disabled":false,"rental_uris":{"android":"levelo://app?vid=f6419716-c272-46b5-b908-d91a04b2b53d","ios":"levelo://app?vid=f6419716-c272-46b5-b908-d91a04b2b53d"},"vehicle_type_id":"4","last_reported":1753318765,"current_range_meters":16400,"station_id":"ce4bha12rcd13ifvqef0","pricing_plan_id":"cebpf4jnsgd1na2vs0mg"},{"bike_id":"cd029efe-d389-43c3-989c-1a31ab2c8a84","system_id":"levelo_inurba_marseille","lat":43.28852,"lon":5.35848,"is_reserved":false,"is_disabled":false,"rental_uris":{"android":"levelo://app?vid=cd029efe-d389-43c3-989c-1a31ab2c8a84","ios":"levelo://app?vid=cd029efe-d389-43c3-989c-1a31ab2c8a84"},"vehicle_type_id":"4","last_reported":1753318765,"current_range_meters":16400,"station_id":"ce4bhb12rcd13ifvqem0","pricing_plan_id":"cebpf4jnsgd1na2vs0mg"},{"bike_id":"875540a5-76de-4844-93f6-e9d5f549dced","system_id":"levelo_inurba_marseille","lat":43.295987,"lon":5.381056,"is_reserved":false,"is_disabled":false,"rental_uris":{"android":"levelo://app?vid=875540a5-76de-4844-93f6-e9d5f549dced","ios":"levelo://app?vid=875540a5-76de-4844-93f6-e9d5f549dced"},"vehicle_type_id":"4","last_reported":1753318765,"current_range_meters":16400,"station_id":"","pricing_plan_id":"cebpf4jnsgd1na2vs0mg"},{"bike_id":"f0f73c71-7331-4628-b623-754b73a8546a","system_id":"levelo_inurba_marseille","lat":43.30131,"lon":5.39895,"is_reserved":false,"is_disabled":true,"rental_uris":{"android":"levelo://app?vid=f0f73c71-7331-4628-b623-754b73a8546a","ios":"levelo://app?vid=f0f73c71-7331-4628-b623-754b73a8546a"},"vehicle_type_id":"4","last_reported":1753318765,"current_range_meters":16400,"station_id":"ce4bh0h2rcd13ifvqd40","pricing_plan_id":"cebpf4jnsgd1na2vs0mg"},{"bike_id":"6187391f-e643-40b5-a6a5-5c65e8a00966","system_id":"levelo_inurba_marseille","lat":43.24075,"lon":5.37757,"is_reserved":false,"is_disabled":false,"rental_uris":{"android":"levelo://app?vid=6187391f-e643-40b5-a6a5-5c65e8a00966","ios":"levelo://app?vid=6187391f-e643-40b5-a6a5-5c65e8a00966"},"vehicle_type_id":"4","last_reported":1753318765,"current_range_meters":16400,"station_id":"ce4bhnp2rcd13ifvqgvg","pricing_plan_id":"cebpf4jnsgd1na2vs0mg"},{"bike_id":"1909f62a-ff89-4e71-a118-24ea1da83f41","system_id":"levelo_inurba_marseille","lat":43.27404,"lon":5.39409,"is_reserved":false,"is_disabled":false,"rental_uris":{"android":"levelo://app?vid=1909f62a-ff89-4e71-a118-24ea1da83f41","ios":"levelo://app?vid=1909f62a-ff89-4e71-a118-24ea1da83f41"},"vehicle_type_id":"4","last_reported":1753318765,"current_range_meters":16400,"station_id":"ce4bhdp2rcd13ifvqf20","pricing_plan_id":"cebpf4jnsgd1na2vs0mg"},{"bike_id":"1ad257b5-7f83-42c1-867f-92635ff1abbf","system_id":"levelo_inurba_marseille","lat":43.22927,"lon":5.35381,"is_reserved":false,"is_disabled":false,"rental_uris":{"android":"levelo://app?vid=1ad257b5-7f83-42c1-867f-92635ff1abbf","ios":"levelo://app?vid=1ad257b5-7f83-42c1-867f-92635ff1abbf"},"vehicle_type_id":"4","last_reported":1753318765,"current_range_meters":16400,"station_id":"cpo3532slgdg3j2ikp40","pricing_plan_id":"cebpf4jnsgd1na2vs0mg"},{"bike_id":"baccfbbc-7233-4de7-8685-d388d4258e63","system_id":"levelo_inurba_marseille","lat":43.31489,"lon":5.37309,"is_reserved":false,"is_disabled":false,"rental_uris":{"android":"levelo://app?vid=baccfbbc-7233-4de7-8685-d388d4258e63","ios":"levelo://app?vid=baccfbbc-7233-4de7-8685-d388d4258e63"},"vehicle_type_id":"4","last_reported":1753318765,"current_range_meters":16800,"station_id":"ce4bgt12rcd13ifvqcd0","pricing_plan_id":"cebpf4jnsgd1na2vs0mg"},{"bike_id":"34d1cb52-60b0-4089-808d-45ef45686113","system_id":"levelo_inurba_marseille","lat":43.29512,"lon":5.39416,"is_reserved":false,"is_disabled":false,"rental_uris":{"android":"levelo://app?vid=34d1cb52-60b0-4089-808d-45ef45686113","ios":"levelo://app?vid=34d1cb52-60b0-4089-808d-45ef45686113"},"vehicle_type_id":"4","last_reported":1753318765,"current_range_meters":16800,"station_id":"ce4bh292rcd13ifvqdf0","pricing_plan_id":"cebpf4jnsgd1na2vs0mg"},{"bike_id":"5bf271e9-b85e-4ede-9d32-02d7c28374e7","system_id":"levelo_inurba_marseille","lat":43.32456,"lon":5.36576,"is_reserved":false,"is_disabled":false,"rental_uris":{"android":"levelo://app?vid=5bf271e9-b85e-4ede-9d32-02d7c28374e7","ios":"levelo://app?vid=5bf271e9-b85e-4ede-9d32-02d7c28374e7"},"vehicle_type_id":"4","last_reported":1753318765,"current_range_meters":16800,"station_id":"ce4bhs12rcd13ifvqhvg","pricing_plan_id":"cebpf4jnsgd1na2vs0mg"},{"bike_id":"b114f818-6034-4474-908b-ea4780f40b86","system_id":"levelo_inurba_marseille","lat":43.240758,"lon":5.377411,"is_reserved":false,"is_disabled":false,"rental_uris":{"android":"levelo://app?vid=b114f818-6034-4474-908b-ea4780f40b86","ios":"levelo://app?vid=b114f818-6034-4474-908b-ea4780f40b86"},"vehicle_type_id":"4","last_reported":1753318765,"current_range_meters":16800,"station_id":"ce4bhnp2rcd13ifvqgvg","pricing_plan_id":"cebpf4jnsgd1na2vs0mg"},{"bike_id":"2de56c36-fc14-49a8-9ba0-5a35d4423f35","system_id":"levelo_inurba_marseille","lat":43.28708,"lon":5.39989,"is_reserved":false,"is_disabled":false,"rental_uris":{"android":"levelo://app?vid=2de56c36-fc14-49a8-9ba0-5a35d4423f35","ios":"levelo://app?vid=2de56c36-fc14-49a8-9ba0-5a35d4423f35"},"vehicle_type_id":"4","last_reported":1753318765,"current_range_meters":16800,"station_id":"ce4bho92rcd13ifvqh3g","pricing_plan_id":"cebpf4jnsgd1na2vs0mg"},{"bike_id":"76c65f84-3b49-4269-890c-8259fe6ade74","system_id":"levelo_inurba_marseille","lat":43.323594,"lon":5.367596,"is_reserved":false,"is_disabled":false,"rental_uris":{"android":"levelo://app?vid=76c65f84-3b49-4269-890c-8259fe6ade74","ios":"levelo://app?vid=76c65f84-3b49-4269-890c-8259fe6ade74"},"vehicle_type_id":"4","last_reported":1753318765,"current_range_meters":16800,"station_id":"ce4bhsh2rcd13ifvqi2g","pricing_plan_id":"cebpf4jnsgd1na2vs0mg"},{"bike_id":"68b4de77-db1d-417a-bdd1-1e415b9a80b2","system_id":"levelo_inurba_marseille","lat":43.310787,"lon":5.383583,"is_reserved":false,"is_disabled":false,"rental_uris":{"android":"levelo://app?vid=68b4de77-db1d-417a-bdd1-1e415b9a80b2","ios":"levelo://app?vid=68b4de77-db1d-417a-bdd1-1e415b9a80b2"},"vehicle_type_id":"4","last_reported":1753318765,"current_range_meters":16800,"station_id":"ce4bgv92rcd13ifvqcr0","pricing_plan_id":"cebpf4jnsgd1na2vs0mg"},{"bike_id":"63c5ca57-b2df-4b8b-ad7f-6f2df7343ee7","system_id":"levelo_inurba_marseille","lat":43.28469,"lon":5.38456,"is_reserved":false,"is_disabled":true,"rental_uris":{"android":"levelo://app?vid=63c5ca57-b2df-4b8b-ad7f-6f2df7343ee7","ios":"levelo://app?vid=63c5ca57-b2df-4b8b-ad7f-6f2df7343ee7"},"vehicle_type_id":"4","last_reported":1753318765,"current_range_meters":17200,"station_id":"ce4bh512rcd13ifvqe3g","pricing_plan_id":"cebpf4jnsgd1na2vs0mg"},{"bike_id":"67323946-2f3b-414b-a18a-e88e34fd2575","system_id":"levelo_inurba_marseille","lat":43.28612,"lon":5.35107,"is_reserved":false,"is_disabled":false,"rental_uris":{"android":"levelo://app?vid=67323946-2f3b-414b-a18a-e88e34fd2575","ios":"levelo://app?vid=67323946-2f3b-414b-a18a-e88e34fd2575"},"vehicle_type_id":"4","last_reported":1753318765,"current_range_meters":17200,"station_id":"ce4bhch2rcd13ifvqeug","pricing_plan_id":"cebpf4jnsgd1na2vs0mg"},{"bike_id":"ef5ccae1-9193-443e-97a1-179b1a3f86d9","system_id":"levelo_inurba_marseille","lat":43.33012,"lon":5.39043,"is_reserved":false,"is_disabled":false,"rental_uris":{"android":"levelo://app?vid=ef5ccae1-9193-443e-97a1-179b1a3f86d9","ios":"levelo://app?vid=ef5ccae1-9193-443e-97a1-179b1a3f86d9"},"vehicle_type_id":"4","last_reported":1753318765,"current_range_meters":17200,"station_id":"ce4bhr92rcd13ifvqhrg","pricing_plan_id":"cebpf4jnsgd1na2vs0mg"},{"bike_id":"5f824980-27aa-4ef2-856d-b766bebead8a","system_id":"levelo_inurba_marseille","lat":43.22484,"lon":5.34796,"is_reserved":false,"is_disabled":false,"rental_uris":{"android":"levelo://app?vid=5f824980-27aa-4ef2-856d-b766bebead8a","ios":"levelo://app?vid=5f824980-27aa-4ef2-856d-b766bebead8a"},"vehicle_type_id":"4","last_reported":1753318765,"current_range_meters":17200,"station_id":"st_cvj5dfep6f1abm77gieg","pricing_plan_id":"cebpf4jnsgd1na2vs0mg"},{"bike_id":"1f0838e1-1216-4b69-bade-929e46a8f5b5","system_id":"levelo_inurba_marseille","lat":43.28455,"lon":5.35889,"is_reserved":false,"is_disabled":false,"rental_uris":{"android":"levelo://app?vid=1f0838e1-1216-4b69-bade-929e46a8f5b5","ios":"levelo://app?vid=1f0838e1-1216-4b69-bade-929e46a8f5b5"},"vehicle_type_id":"4","last_reported":1753318765,"current_range_meters":17200,"station_id":"ce4bhah2rcd13ifvqei0","pricing_plan_id":"cebpf4jnsgd1na2vs0mg"},{"bike_id":"479242dc-a51b-41d1-868c-de6bd2b390d2","system_id":"levelo_inurba_marseille","lat":43.33613,"lon":5.41027,"is_reserved":false,"is_disabled":false,"rental_uris":{"android":"levelo://app?vid=479242dc-a51b-41d1-868c-de6bd2b390d2","ios":"levelo://app?vid=479242dc-a51b-41d1-868c-de6bd2b390d2"},"vehicle_type_id":"4","last_reported":1753318765,"current_range_meters":16800,"station_id":"ce4bhqh2rcd13ifvqhmg","pricing_plan_id":"cebpf4jnsgd1na2vs0mg"},{"bike_id":"324ce6d3-f95d-43f4-92cf-fd1b99454366","system_id":"levelo_inurba_marseille","lat":43.28627,"lon":5.35105,"is_reserved":false,"is_disabled":false,"rental_uris":{"android":"levelo://app?vid=324ce6d3-f95d-43f4-92cf-fd1b99454366","ios":"levelo://app?vid=324ce6d3-f95d-43f4-92cf-fd1b99454366"},"vehicle_type_id":"4","last_reported":1753318765,"current_range_meters":17200,"station_id":"ce4bhch2rcd13ifvqeug","pricing_plan_id":"cebpf4jnsgd1na2vs0mg"},{"bike_id":"28cfd08e-0c3b-453b-af16-f9bf5a0b0669","system_id":"levelo_inurba_marseille","lat":43.30537,"lon":5.38444,"is_reserved":false,"is_disabled":false,"rental_uris":{"android":"levelo://app?vid=28cfd08e-0c3b-453b-af16-f9bf5a0b0669","ios":"levelo://app?vid=28cfd08e-0c3b-453b-af16-f9bf5a0b0669"},"vehicle_type_id":"4","last_reported":1753318765,"current_range_meters":17200,"station_id":"ce4bgg92rcd13ifvqb30","pricing_plan_id":"cebpf4jnsgd1na2vs0mg"},{"bike_id":"9437277c-d886-4a0b-9535-11724bd91051","system_id":"levelo_inurba_marseille","lat":43.27075,"lon":5.42277,"is_reserved":false,"is_disabled":false,"rental_uris":{"android":"levelo://app?vid=9437277c-d886-4a0b-9535-11724bd91051","ios":"levelo://app?vid=9437277c-d886-4a0b-9535-11724bd91051"},"vehicle_type_id":"4","last_reported":1753318765,"current_range_meters":17200,"station_id":"ce4bhk92rcd13ifvqgb0","pricing_plan_id":"cebpf4jnsgd1na2vs0mg"},{"bike_id":"ec170b1e-871a-423f-a35c-a5fb89392e96","system_id":"levelo_inurba_marseille","lat":43.27964,"lon":5.38725,"is_reserved":false,"is_disabled":false,"rental_uris":{"android":"levelo://app?vid=ec170b1e-871a-423f-a35c-a5fb89392e96","ios":"levelo://app?vid=ec170b1e-871a-423f-a35c-a5fb89392e96"},"vehicle_type_id":"4","last_reported":1753318765,"current_range_meters":17600,"station_id":"ce4bhg12rcd13ifvqf80","pricing_plan_id":"cebpf4jnsgd1na2vs0mg"},{"bike_id":"81df7d6f-832b-40f6-ad7c-3d213cee8b09","system_id":"levelo_inurba_marseille","lat":43.24098,"lon":5.37733,"is_reserved":false,"is_disabled":false,"rental_uris":{"android":"levelo://app?vid=81df7d6f-832b-40f6-ad7c-3d213cee8b09","ios":"levelo://app?vid=81df7d6f-832b-40f6-ad7c-3d213cee8b09"},"vehicle_type_id":"4","last_reported":1753318765,"current_range_meters":17600,"station_id":"ce4bhnp2rcd13ifvqgvg","pricing_plan_id":"cebpf4jnsgd1na2vs0mg"},{"bike_id":"4b8efed3-9e53-47c8-bfa4-f1fb0beb03b1","system_id":"levelo_inurba_marseille","lat":43.29575,"lon":5.36755,"is_reserved":false,"is_disabled":true,"rental_uris":{"android":"levelo://app?vid=4b8efed3-9e53-47c8-bfa4-f1fb0beb03b1","ios":"levelo://app?vid=4b8efed3-9e53-47c8-bfa4-f1fb0beb03b1"},"vehicle_type_id":"4","last_reported":1753318765,"current_range_meters":17600,"station_id":"ce4bgph2rcd13ifvqc2g","pricing_plan_id":"cebpf4jnsgd1na2vs0mg"},{"bike_id":"ba6c78a8-0600-4e98-928b-05532193ff7e","system_id":"levelo_inurba_marseille","lat":43.28716,"lon":5.39983,"is_reserved":false,"is_disabled":false,"rental_uris":{"android":"levelo://app?vid=ba6c78a8-0600-4e98-928b-05532193ff7e","ios":"levelo://app?vid=ba6c78a8-0600-4e98-928b-05532193ff7e"},"vehicle_type_id":"4","last_reported":1753318765,"current_range_meters":17600,"station_id":"ce4bho92rcd13ifvqh3g","pricing_plan_id":"cebpf4jnsgd1na2vs0mg"},{"bike_id":"451c8b55-6be2-42fe-a6f2-5298fefb419a","system_id":"levelo_inurba_marseille","lat":43.28153,"lon":5.42645,"is_reserved":false,"is_disabled":false,"rental_uris":{"android":"levelo://app?vid=451c8b55-6be2-42fe-a6f2-5298fefb419a","ios":"levelo://app?vid=451c8b55-6be2-42fe-a6f2-5298fefb419a"},"vehicle_type_id":"4","last_reported":1753318765,"current_range_meters":17600,"station_id":"ce4bhnh2rcd13ifvqgug","pricing_plan_id":"cebpf4jnsgd1na2vs0mg"},{"bike_id":"eaea15aa-98ae-4f78-b37a-80e2e4524837","system_id":"levelo_inurba_marseille","lat":43.297916,"lon":5.381026,"is_reserved":false,"is_disabled":false,"rental_uris":{"android":"levelo://app?vid=eaea15aa-98ae-4f78-b37a-80e2e4524837","ios":"levelo://app?vid=eaea15aa-98ae-4f78-b37a-80e2e4524837"},"vehicle_type_id":"4","last_reported":1753318765,"current_range_meters":17600,"station_id":"","pricing_plan_id":"cebpf4jnsgd1na2vs0mg"},{"bike_id":"253a269e-9944-4daf-a54c-679a93fe8e2e","system_id":"levelo_inurba_marseille","lat":43.29571,"lon":5.39956,"is_reserved":false,"is_disabled":false,"rental_uris":{"android":"levelo://app?vid=253a269e-9944-4daf-a54c-679a93fe8e2e","ios":"levelo://app?vid=253a269e-9944-4daf-a54c-679a93fe8e2e"},"vehicle_type_id":"4","last_reported":1753318765,"current_range_meters":17600,"station_id":"ce4bh312rcd13ifvqdj0","pricing_plan_id":"cebpf4jnsgd1na2vs0mg"},{"bike_id":"80ba3f53-b784-4b3f-a611-4371b6652512","system_id":"levelo_inurba_marseille","lat":43.26938,"lon":5.40261,"is_reserved":false,"is_disabled":false,"rental_uris":{"android":"levelo://app?vid=80ba3f53-b784-4b3f-a611-4371b6652512","ios":"levelo://app?vid=80ba3f53-b784-4b3f-a611-4371b6652512"},"vehicle_type_id":"4","last_reported":1753318765,"current_range_meters":17600,"station_id":"cjm6bp8fraef2m0cb0m0","pricing_plan_id":"cebpf4jnsgd1na2vs0mg"},{"bike_id":"f7f07796-c7c9-4a74-80e9-fb85744448b8","system_id":"levelo_inurba_marseille","lat":43.22925,"lon":5.3538,"is_reserved":false,"is_disabled":false,"rental_uris":{"android":"levelo://app?vid=f7f07796-c7c9-4a74-80e9-fb85744448b8","ios":"levelo://app?vid=f7f07796-c7c9-4a74-80e9-fb85744448b8"},"vehicle_type_id":"4","last_reported":1753318765,"current_range_meters":17600,"station_id":"cpo3532slgdg3j2ikp40","pricing_plan_id":"cebpf4jnsgd1na2vs0mg"},{"bike_id":"8cb5c55e-4d59-4d12-805a-869e386332d5","system_id":"levelo_inurba_marseille","lat":43.286708,"lon":5.387014,"is_reserved":false,"is_disabled":false,"rental_uris":{"android":"levelo://app?vid=8cb5c55e-4d59-4d12-805a-869e386332d5","ios":"levelo://app?vid=8cb5c55e-4d59-4d12-805a-869e386332d5"},"vehicle_type_id":"4","last_reported":1753318765,"current_range_meters":17600,"station_id":"ce4bh392rcd13ifvqdm0","pricing_plan_id":"cebpf4jnsgd1na2vs0mg"},{"bike_id":"4a86d85a-7ea7-43ec-b760-9c57d698d744","system_id":"levelo_inurba_marseille","lat":43.27604,"lon":5.35846,"is_reserved":false,"is_disabled":false,"rental_uris":{"android":"levelo://app?vid=4a86d85a-7ea7-43ec-b760-9c57d698d744","ios":"levelo://app?vid=4a86d85a-7ea7-43ec-b760-9c57d698d744"},"vehicle_type_id":"4","last_reported":1753318765,"current_range_meters":17600,"station_id":"","pricing_plan_id":"cebpf4jnsgd1na2vs0mg"},{"bike_id":"35a86048-76dd-4de0-afb2-7da8772fad44","system_id":"levelo_inurba_marseille","lat":43.21528,"lon":5.34739,"is_reserved":false,"is_disabled":false,"rental_uris":{"android":"levelo://app?vid=35a86048-76dd-4de0-afb2-7da8772fad44","ios":"levelo://app?vid=35a86048-76dd-4de0-afb2-7da8772fad44"},"vehicle_type_id":"4","last_reported":1753318765,"current_range_meters":17600,"station_id":"","pricing_plan_id":"cebpf4jnsgd1na2vs0mg"},{"bike_id":"27b5acbc-b1fd-4385-9be5-bae49e9e4f6a","system_id":"levelo_inurba_marseille","lat":43.24807,"lon":5.37452,"is_reserved":false,"is_disabled":false,"rental_uris":{"android":"levelo://app?vid=27b5acbc-b1fd-4385-9be5-bae49e9e4f6a","ios":"levelo://app?vid=27b5acbc-b1fd-4385-9be5-bae49e9e4f6a"},"vehicle_type_id":"4","last_reported":1753318765,"current_range_meters":17600,"station_id":"ce4bhgh2rcd13ifvqfb0","pricing_plan_id":"cebpf4jnsgd1na2vs0mg"},{"bike_id":"fbda76a5-068e-4d90-b9ba-25721acd9298","system_id":"levelo_inurba_marseille","lat":43.290297,"lon":5.439849,"is_reserved":false,"is_disabled":false,"rental_uris":{"android":"levelo://app?vid=fbda76a5-068e-4d90-b9ba-25721acd9298","ios":"levelo://app?vid=fbda76a5-068e-4d90-b9ba-25721acd9298"},"vehicle_type_id":"4","last_reported":1753318765,"current_range_meters":18000,"station_id":"","pricing_plan_id":"cebpf4jnsgd1na2vs0mg"},{"bike_id":"085cc398-265e-4402-bcb0-4ca5061b4738","system_id":"levelo_inurba_marseille","lat":43.22932,"lon":5.35391,"is_reserved":false,"is_disabled":false,"rental_uris":{"android":"levelo://app?vid=085cc398-265e-4402-bcb0-4ca5061b4738","ios":"levelo://app?vid=085cc398-265e-4402-bcb0-4ca5061b4738"},"vehicle_type_id":"4","last_reported":1753318765,"current_range_meters":18000,"station_id":"cpo3532slgdg3j2ikp40","pricing_plan_id":"cebpf4jnsgd1na2vs0mg"},{"bike_id":"b30e8afe-189e-4d95-85f3-17f3e204cb70","system_id":"levelo_inurba_marseille","lat":43.29572,"lon":5.36738,"is_reserved":false,"is_disabled":false,"rental_uris":{"android":"levelo://app?vid=b30e8afe-189e-4d95-85f3-17f3e204cb70","ios":"levelo://app?vid=b30e8afe-189e-4d95-85f3-17f3e204cb70"},"vehicle_type_id":"4","last_reported":1753318765,"current_range_meters":18000,"station_id":"ce4bgph2rcd13ifvqc2g","pricing_plan_id":"cebpf4jnsgd1na2vs0mg"},{"bike_id":"882dcbe2-a9bc-4a72-8ee5-ee57cb77ef7b","system_id":"levelo_inurba_marseille","lat":43.26926,"lon":5.3893,"is_reserved":false,"is_disabled":false,"rental_uris":{"android":"levelo://app?vid=882dcbe2-a9bc-4a72-8ee5-ee57cb77ef7b","ios":"levelo://app?vid=882dcbe2-a9bc-4a72-8ee5-ee57cb77ef7b"},"vehicle_type_id":"4","last_reported":1753318765,"current_range_meters":18000,"station_id":"ce4bhhh2rcd13ifvqfl0","pricing_plan_id":"cebpf4jnsgd1na2vs0mg"},{"bike_id":"550ed6ab-d61b-4d61-af6f-62768fec54ac","system_id":"levelo_inurba_marseille","lat":43.295289,"lon":5.385404,"is_reserved":false,"is_disabled":false,"rental_uris":{"android":"levelo://app?vid=550ed6ab-d61b-4d61-af6f-62768fec54ac","ios":"levelo://app?vid=550ed6ab-d61b-4d61-af6f-62768fec54ac"},"vehicle_type_id":"4","last_reported":1753318765,"current_range_meters":18000,"station_id":"ce4bgvp2rcd13ifvqct0","pricing_plan_id":"cebpf4jnsgd1na2vs0mg"},{"bike_id":"fa5f7917-082a-4222-a4a7-1f248af21f0e","system_id":"levelo_inurba_marseille","lat":43.32046,"lon":5.41555,"is_reserved":false,"is_disabled":false,"rental_uris":{"android":"levelo://app?vid=fa5f7917-082a-4222-a4a7-1f248af21f0e","ios":"levelo://app?vid=fa5f7917-082a-4222-a4a7-1f248af21f0e"},"vehicle_type_id":"4","last_reported":1753318765,"current_range_meters":18000,"station_id":"ce4bhq92rcd13ifvqhkg","pricing_plan_id":"cebpf4jnsgd1na2vs0mg"},{"bike_id":"28c752dc-c0ff-42d7-8ff3-f57e831b854a","system_id":"levelo_inurba_marseille","lat":43.25101,"lon":5.40397,"is_reserved":false,"is_disabled":false,"rental_uris":{"android":"levelo://app?vid=28c752dc-c0ff-42d7-8ff3-f57e831b854a","ios":"levelo://app?vid=28c752dc-c0ff-42d7-8ff3-f57e831b854a"},"vehicle_type_id":"4","last_reported":1753318765,"current_range_meters":18000,"station_id":"","pricing_plan_id":"cebpf4jnsgd1na2vs0mg"},{"bike_id":"ad79c827-3159-4406-b6fd-ddd0dfb8b74f","system_id":"levelo_inurba_marseille","lat":43.29202,"lon":5.39326,"is_reserved":false,"is_disabled":false,"rental_uris":{"android":"levelo://app?vid=ad79c827-3159-4406-b6fd-ddd0dfb8b74f","ios":"levelo://app?vid=ad79c827-3159-4406-b6fd-ddd0dfb8b74f"},"vehicle_type_id":"4","last_reported":1753318765,"current_range_meters":18000,"station_id":"ce4bh192rcd13ifvqdd0","pricing_plan_id":"cebpf4jnsgd1na2vs0mg"},{"bike_id":"8f569201-5893-47ac-805b-cfda1f5000ca","system_id":"levelo_inurba_marseille","lat":43.29197,"lon":5.39318,"is_reserved":false,"is_disabled":false,"rental_uris":{"android":"levelo://app?vid=8f569201-5893-47ac-805b-cfda1f5000ca","ios":"levelo://app?vid=8f569201-5893-47ac-805b-cfda1f5000ca"},"vehicle_type_id":"4","last_reported":1753318765,"current_range_meters":18000,"station_id":"ce4bh192rcd13ifvqdd0","pricing_plan_id":"cebpf4jnsgd1na2vs0mg"},{"bike_id":"819bb1b6-06bc-4eb2-b94e-4388d87b087b","system_id":"levelo_inurba_marseille","lat":43.29704,"lon":5.36594,"is_reserved":false,"is_disabled":true,"rental_uris":{"android":"levelo://app?vid=819bb1b6-06bc-4eb2-b94e-4388d87b087b","ios":"levelo://app?vid=819bb1b6-06bc-4eb2-b94e-4388d87b087b"},"vehicle_type_id":"4","last_reported":1753318765,"current_range_meters":18000,"station_id":"ce4bgn12rcd13ifvqbt0","pricing_plan_id":"cebpf4jnsgd1na2vs0mg"},{"bike_id":"630f322e-ea39-413c-8ed4-096ccef376bc","system_id":"levelo_inurba_marseille","lat":43.29588,"lon":5.369473,"is_reserved":false,"is_disabled":false,"rental_uris":{"android":"levelo://app?vid=630f322e-ea39-413c-8ed4-096ccef376bc","ios":"levelo://app?vid=630f322e-ea39-413c-8ed4-096ccef376bc"},"vehicle_type_id":"4","last_reported":1753318765,"current_range_meters":18000,"station_id":"","pricing_plan_id":"cebpf4jnsgd1na2vs0mg"},{"bike_id":"803ebf00-f6f3-4b2e-870b-858bd87e0d3e","system_id":"levelo_inurba_marseille","lat":43.271783,"lon":5.409944,"is_reserved":false,"is_disabled":false,"rental_uris":{"android":"levelo://app?vid=803ebf00-f6f3-4b2e-870b-858bd87e0d3e","ios":"levelo://app?vid=803ebf00-f6f3-4b2e-870b-858bd87e0d3e"},"vehicle_type_id":"4","last_reported":1753318765,"current_range_meters":18000,"station_id":"ce4bhl12rcd13ifvqgf0","pricing_plan_id":"cebpf4jnsgd1na2vs0mg"},{"bike_id":"e401289a-83cf-4377-aa07-419b9b37079e","system_id":"levelo_inurba_marseille","lat":43.23053,"lon":5.35505,"is_reserved":false,"is_disabled":false,"rental_uris":{"android":"levelo://app?vid=e401289a-83cf-4377-aa07-419b9b37079e","ios":"levelo://app?vid=e401289a-83cf-4377-aa07-419b9b37079e"},"vehicle_type_id":"4","last_reported":1753318765,"current_range_meters":18000,"station_id":"cpo3342slgdg3j2ifvpg","pricing_plan_id":"cebpf4jnsgd1na2vs0mg"},{"bike_id":"76bd0cc5-807e-4f5b-9cf9-4ef724bfa3cf","system_id":"levelo_inurba_marseille","lat":43.310658,"lon":5.38348,"is_reserved":false,"is_disabled":false,"rental_uris":{"android":"levelo://app?vid=76bd0cc5-807e-4f5b-9cf9-4ef724bfa3cf","ios":"levelo://app?vid=76bd0cc5-807e-4f5b-9cf9-4ef724bfa3cf"},"vehicle_type_id":"4","last_reported":1753318765,"current_range_meters":18000,"station_id":"ce4bgv92rcd13ifvqcr0","pricing_plan_id":"cebpf4jnsgd1na2vs0mg"},{"bike_id":"0a7e2862-d8ec-4c77-89d9-cfcdd51f8d75","system_id":"levelo_inurba_marseille","lat":43.31187,"lon":5.37866,"is_reserved":false,"is_disabled":false,"rental_uris":{"android":"levelo://app?vid=0a7e2862-d8ec-4c77-89d9-cfcdd51f8d75","ios":"levelo://app?vid=0a7e2862-d8ec-4c77-89d9-cfcdd51f8d75"},"vehicle_type_id":"4","last_reported":1753318765,"current_range_meters":18000,"station_id":"","pricing_plan_id":"cebpf4jnsgd1na2vs0mg"},{"bike_id":"2ac66c49-4e8a-41a0-92fc-7e7a35e37452","system_id":"levelo_inurba_marseille","lat":43.286974,"lon":5.400034,"is_reserved":false,"is_disabled":false,"rental_uris":{"android":"levelo://app?vid=2ac66c49-4e8a-41a0-92fc-7e7a35e37452","ios":"levelo://app?vid=2ac66c49-4e8a-41a0-92fc-7e7a35e37452"},"vehicle_type_id":"4","last_reported":1753318765,"current_range_meters":18000,"station_id":"ce4bho92rcd13ifvqh3g","pricing_plan_id":"cebpf4jnsgd1na2vs0mg"},{"bike_id":"a159a5ca-c9df-4ec8-bea9-8e6651449cb6","system_id":"levelo_inurba_marseille","lat":43.24701,"lon":5.38159,"is_reserved":false,"is_disabled":false,"rental_uris":{"android":"levelo://app?vid=a159a5ca-c9df-4ec8-bea9-8e6651449cb6","ios":"levelo://app?vid=a159a5ca-c9df-4ec8-bea9-8e6651449cb6"},"vehicle_type_id":"4","last_reported":1753318765,"current_range_meters":18800,"station_id":"ce4bhih2rcd13ifvqfr0","pricing_plan_id":"cebpf4jnsgd1na2vs0mg"},{"bike_id":"fa29f406-fd05-4d21-9272-145a2ef05e32","system_id":"levelo_inurba_marseille","lat":43.31861,"lon":5.40758,"is_reserved":false,"is_disabled":false,"rental_uris":{"android":"levelo://app?vid=fa29f406-fd05-4d21-9272-145a2ef05e32","ios":"levelo://app?vid=fa29f406-fd05-4d21-9272-145a2ef05e32"},"vehicle_type_id":"4","last_reported":1753318765,"current_range_meters":18800,"station_id":"ce4bhq12rcd13ifvqhig","pricing_plan_id":"cebpf4jnsgd1na2vs0mg"},{"bike_id":"f2bfae27-1f20-4652-921b-2118ec2e65d1","system_id":"levelo_inurba_marseille","lat":43.24818,"lon":5.37471,"is_reserved":false,"is_disabled":false,"rental_uris":{"android":"levelo://app?vid=f2bfae27-1f20-4652-921b-2118ec2e65d1","ios":"levelo://app?vid=f2bfae27-1f20-4652-921b-2118ec2e65d1"},"vehicle_type_id":"4","last_reported":1753318765,"current_range_meters":18800,"station_id":"ce4bhgh2rcd13ifvqfb0","pricing_plan_id":"cebpf4jnsgd1na2vs0mg"},{"bike_id":"d4563b33-a839-48a4-883e-a6e44b19ab71","system_id":"levelo_inurba_marseille","lat":43.30792,"lon":5.38141,"is_reserved":false,"is_disabled":false,"rental_uris":{"android":"levelo://app?vid=d4563b33-a839-48a4-883e-a6e44b19ab71","ios":"levelo://app?vid=d4563b33-a839-48a4-883e-a6e44b19ab71"},"vehicle_type_id":"4","last_reported":1753318765,"current_range_meters":18800,"station_id":"ce4bgt12rcd13ifvqce0","pricing_plan_id":"cebpf4jnsgd1na2vs0mg"},{"bike_id":"d0a5c40c-d862-4af4-b76f-bb451d0719cc","system_id":"levelo_inurba_marseille","lat":43.28444,"lon":5.35897,"is_reserved":false,"is_disabled":false,"rental_uris":{"android":"levelo://app?vid=d0a5c40c-d862-4af4-b76f-bb451d0719cc","ios":"levelo://app?vid=d0a5c40c-d862-4af4-b76f-bb451d0719cc"},"vehicle_type_id":"4","last_reported":1753318765,"current_range_meters":18800,"station_id":"ce4bhah2rcd13ifvqei0","pricing_plan_id":"cebpf4jnsgd1na2vs0mg"},{"bike_id":"80bb352d-bade-4c4c-92d8-00578752655a","system_id":"levelo_inurba_marseille","lat":43.29905,"lon":5.39749,"is_reserved":false,"is_disabled":false,"rental_uris":{"android":"levelo://app?vid=80bb352d-bade-4c4c-92d8-00578752655a","ios":"levelo://app?vid=80bb352d-bade-4c4c-92d8-00578752655a"},"vehicle_type_id":"4","last_reported":1753318765,"current_range_meters":18800,"station_id":"ce4bh0h2rcd13ifvqd50","pricing_plan_id":"cebpf4jnsgd1na2vs0mg"},{"bike_id":"1de1991f-3a0e-439c-b5cd-e22ddb00b9c4","system_id":"levelo_inurba_marseille","lat":43.29529,"lon":5.394057,"is_reserved":false,"is_disabled":false,"rental_uris":{"android":"levelo://app?vid=1de1991f-3a0e-439c-b5cd-e22ddb00b9c4","ios":"levelo://app?vid=1de1991f-3a0e-439c-b5cd-e22ddb00b9c4"},"vehicle_type_id":"4","last_reported":1753318765,"current_range_meters":19200,"station_id":"ce4bh292rcd13ifvqdf0","pricing_plan_id":"cebpf4jnsgd1na2vs0mg"},{"bike_id":"f587eea3-baee-43e2-a306-aded560a8a2f","system_id":"levelo_inurba_marseille","lat":43.30397,"lon":5.41298,"is_reserved":false,"is_disabled":true,"rental_uris":{"android":"levelo://app?vid=f587eea3-baee-43e2-a306-aded560a8a2f","ios":"levelo://app?vid=f587eea3-baee-43e2-a306-aded560a8a2f"},"vehicle_type_id":"4","last_reported":1753318765,"current_range_meters":19200,"station_id":"ce4bhop2rcd13ifvqh8g","pricing_plan_id":"cebpf4jnsgd1na2vs0mg"},{"bike_id":"3a357f34-54ed-4080-9cc5-1e85dca7bbe1","system_id":"levelo_inurba_marseille","lat":43.30254,"lon":5.40028,"is_reserved":false,"is_disabled":false,"rental_uris":{"android":"levelo://app?vid=3a357f34-54ed-4080-9cc5-1e85dca7bbe1","ios":"levelo://app?vid=3a357f34-54ed-4080-9cc5-1e85dca7bbe1"},"vehicle_type_id":"4","last_reported":1753318765,"current_range_meters":19200,"station_id":"ce4bgvh2rcd13ifvqcs0","pricing_plan_id":"cebpf4jnsgd1na2vs0mg"},{"bike_id":"cdd09743-6207-47ee-bf4e-b9d54bffab60","system_id":"levelo_inurba_marseille","lat":43.28325,"lon":5.3809,"is_reserved":false,"is_disabled":false,"rental_uris":{"android":"levelo://app?vid=cdd09743-6207-47ee-bf4e-b9d54bffab60","ios":"levelo://app?vid=cdd09743-6207-47ee-bf4e-b9d54bffab60"},"vehicle_type_id":"4","last_reported":1753318765,"current_range_meters":19200,"station_id":"ce4bh412rcd13ifvqdr0","pricing_plan_id":"cebpf4jnsgd1na2vs0mg"},{"bike_id":"7eec308d-3fac-41e8-826b-ab50f25b94c4","system_id":"levelo_inurba_marseille","lat":43.336005,"lon":5.410373,"is_reserved":false,"is_disabled":true,"rental_uris":{"android":"levelo://app?vid=7eec308d-3fac-41e8-826b-ab50f25b94c4","ios":"levelo://app?vid=7eec308d-3fac-41e8-826b-ab50f25b94c4"},"vehicle_type_id":"4","last_reported":1753318765,"current_range_meters":19200,"station_id":"ce4bhqh2rcd13ifvqhmg","pricing_plan_id":"cebpf4jnsgd1na2vs0mg"},{"bike_id":"33ce2ff8-7e21-4229-9288-7ac129269db8","system_id":"levelo_inurba_marseille","lat":43.32126,"lon":5.36783,"is_reserved":false,"is_disabled":false,"rental_uris":{"android":"levelo://app?vid=33ce2ff8-7e21-4229-9288-7ac129269db8","ios":"levelo://app?vid=33ce2ff8-7e21-4229-9288-7ac129269db8"},"vehicle_type_id":"4","last_reported":1753318765,"current_range_meters":19200,"station_id":"ce4bhrh2rcd13ifvqhug","pricing_plan_id":"cebpf4jnsgd1na2vs0mg"},{"bike_id":"e469b930-7864-4a88-b245-b9f07a651c86","system_id":"levelo_inurba_marseille","lat":43.30737,"lon":5.42437,"is_reserved":false,"is_disabled":false,"rental_uris":{"android":"levelo://app?vid=e469b930-7864-4a88-b245-b9f07a651c86","ios":"levelo://app?vid=e469b930-7864-4a88-b245-b9f07a651c86"},"vehicle_type_id":"4","last_reported":1753318765,"current_range_meters":19200,"station_id":"st_cvj6ca6bvosntc0bfgr0","pricing_plan_id":"cebpf4jnsgd1na2vs0mg"},{"bike_id":"270c6910-4397-42f2-99f1-4d519b6317e2","system_id":"levelo_inurba_marseille","lat":43.28691,"lon":5.39979,"is_reserved":false,"is_disabled":false,"rental_uris":{"android":"levelo://app?vid=270c6910-4397-42f2-99f1-4d519b6317e2","ios":"levelo://app?vid=270c6910-4397-42f2-99f1-4d519b6317e2"},"vehicle_type_id":"4","last_reported":1753318765,"current_range_meters":19200,"station_id":"ce4bho92rcd13ifvqh3g","pricing_plan_id":"cebpf4jnsgd1na2vs0mg"},{"bike_id":"26be4685-15bc-435c-b307-7febbc485157","system_id":"levelo_inurba_marseille","lat":43.292517,"lon":5.409173,"is_reserved":false,"is_disabled":false,"rental_uris":{"android":"levelo://app?vid=26be4685-15bc-435c-b307-7febbc485157","ios":"levelo://app?vid=26be4685-15bc-435c-b307-7febbc485157"},"vehicle_type_id":"4","last_reported":1753318765,"current_range_meters":18800,"station_id":"ce4bh192rcd13ifvqdc0","pricing_plan_id":"cebpf4jnsgd1na2vs0mg"},{"bike_id":"0aa2d153-96d1-4d69-83b8-d39119aa9dd5","system_id":"levelo_inurba_marseille","lat":43.33519,"lon":5.36213,"is_reserved":false,"is_disabled":false,"rental_uris":{"android":"levelo://app?vid=0aa2d153-96d1-4d69-83b8-d39119aa9dd5","ios":"levelo://app?vid=0aa2d153-96d1-4d69-83b8-d39119aa9dd5"},"vehicle_type_id":"4","last_reported":1753318765,"current_range_meters":19200,"station_id":"","pricing_plan_id":"cebpf4jnsgd1na2vs0mg"},{"bike_id":"7653d68f-3b83-4440-a013-9df1ceccd168","system_id":"levelo_inurba_marseille","lat":43.30631,"lon":5.40091,"is_reserved":false,"is_disabled":false,"rental_uris":{"android":"levelo://app?vid=7653d68f-3b83-4440-a013-9df1ceccd168","ios":"levelo://app?vid=7653d68f-3b83-4440-a013-9df1ceccd168"},"vehicle_type_id":"4","last_reported":1753318765,"current_range_meters":19200,"station_id":"ce4bh112rcd13ifvqda0","pricing_plan_id":"cebpf4jnsgd1na2vs0mg"},{"bike_id":"1914f709-1ea5-4843-ae48-ddb1d0c6f936","system_id":"levelo_inurba_marseille","lat":43.30323,"lon":5.40445,"is_reserved":false,"is_disabled":false,"rental_uris":{"android":"levelo://app?vid=1914f709-1ea5-4843-ae48-ddb1d0c6f936","ios":"levelo://app?vid=1914f709-1ea5-4843-ae48-ddb1d0c6f936"},"vehicle_type_id":"4","last_reported":1753318765,"current_range_meters":19200,"station_id":"ce4bh012rcd13ifvqd10","pricing_plan_id":"cebpf4jnsgd1na2vs0mg"},{"bike_id":"53efaf9b-f6ed-4ba1-9b75-0670a0ed371c","system_id":"levelo_inurba_marseille","lat":43.30787,"lon":5.37653,"is_reserved":false,"is_disabled":false,"rental_uris":{"android":"levelo://app?vid=53efaf9b-f6ed-4ba1-9b75-0670a0ed371c","ios":"levelo://app?vid=53efaf9b-f6ed-4ba1-9b75-0670a0ed371c"},"vehicle_type_id":"4","last_reported":1753318765,"current_range_meters":19200,"station_id":"ce4bgv92rcd13ifvqcq0","pricing_plan_id":"cebpf4jnsgd1na2vs0mg"},{"bike_id":"d8ab8225-ebfc-48f1-9981-f15e3b9960ea","system_id":"levelo_inurba_marseille","lat":43.229255,"lon":5.35378,"is_reserved":false,"is_disabled":false,"rental_uris":{"android":"levelo://app?vid=d8ab8225-ebfc-48f1-9981-f15e3b9960ea","ios":"levelo://app?vid=d8ab8225-ebfc-48f1-9981-f15e3b9960ea"},"vehicle_type_id":"4","last_reported":1753318765,"current_range_meters":19200,"station_id":"cpo3532slgdg3j2ikp40","pricing_plan_id":"cebpf4jnsgd1na2vs0mg"},{"bike_id":"481351de-e3d5-4a6f-aa67-c1762e7ed223","system_id":"levelo_inurba_marseille","lat":43.27072,"lon":5.42278,"is_reserved":false,"is_disabled":false,"rental_uris":{"android":"levelo://app?vid=481351de-e3d5-4a6f-aa67-c1762e7ed223","ios":"levelo://app?vid=481351de-e3d5-4a6f-aa67-c1762e7ed223"},"vehicle_type_id":"4","last_reported":1753318765,"current_range_meters":19200,"station_id":"ce4bhk92rcd13ifvqgb0","pricing_plan_id":"cebpf4jnsgd1na2vs0mg"},{"bike_id":"9e71a50e-df43-4a48-bc37-13460235be7b","system_id":"levelo_inurba_marseille","lat":43.24167,"lon":5.36397,"is_reserved":false,"is_disabled":false,"rental_uris":{"android":"levelo://app?vid=9e71a50e-df43-4a48-bc37-13460235be7b","ios":"levelo://app?vid=9e71a50e-df43-4a48-bc37-13460235be7b"},"vehicle_type_id":"4","last_reported":1753318765,"current_range_meters":19200,"station_id":"cpo36qri1sfpv3e86is0","pricing_plan_id":"cebpf4jnsgd1na2vs0mg"},{"bike_id":"727a2b29-93f2-4697-a65c-6e4b12e4f54d","system_id":"levelo_inurba_marseille","lat":43.27946,"lon":5.41039,"is_reserved":false,"is_disabled":false,"rental_uris":{"android":"levelo://app?vid=727a2b29-93f2-4697-a65c-6e4b12e4f54d","ios":"levelo://app?vid=727a2b29-93f2-4697-a65c-6e4b12e4f54d"},"vehicle_type_id":"4","last_reported":1753318765,"current_range_meters":19200,"station_id":"ce4bhnp2rcd13ifvqh0g","pricing_plan_id":"cebpf4jnsgd1na2vs0mg"},{"bike_id":"ca65c564-8afc-469a-bd7b-657c9d1dbfbe","system_id":"levelo_inurba_marseille","lat":43.290332,"lon":5.399688,"is_reserved":false,"is_disabled":false,"rental_uris":{"android":"levelo://app?vid=ca65c564-8afc-469a-bd7b-657c9d1dbfbe","ios":"levelo://app?vid=ca65c564-8afc-469a-bd7b-657c9d1dbfbe"},"vehicle_type_id":"4","last_reported":1753318765,"current_range_meters":19600,"station_id":"ce4bh392rcd13ifvqdm0","pricing_plan_id":"cebpf4jnsgd1na2vs0mg"},{"bike_id":"40ac94d7-b250-44ce-b863-a483160c489c","system_id":"levelo_inurba_marseille","lat":43.27374,"lon":5.36239,"is_reserved":false,"is_disabled":false,"rental_uris":{"android":"levelo://app?vid=40ac94d7-b250-44ce-b863-a483160c489c","ios":"levelo://app?vid=40ac94d7-b250-44ce-b863-a483160c489c"},"vehicle_type_id":"4","last_reported":1753318765,"current_range_meters":19600,"station_id":"ce4bhbh2rcd13ifvqeo0","pricing_plan_id":"cebpf4jnsgd1na2vs0mg"},{"bike_id":"597ef163-0cc6-4cdb-bc21-b4f32b55b493","system_id":"levelo_inurba_marseille","lat":43.31115,"lon":5.37763,"is_reserved":false,"is_disabled":false,"rental_uris":{"android":"levelo://app?vid=597ef163-0cc6-4cdb-bc21-b4f32b55b493","ios":"levelo://app?vid=597ef163-0cc6-4cdb-bc21-b4f32b55b493"},"vehicle_type_id":"4","last_reported":1753318765,"current_range_meters":19600,"station_id":"ce4bgt92rcd13ifvqcg0","pricing_plan_id":"cebpf4jnsgd1na2vs0mg"},{"bike_id":"c9fa87fb-bb42-4d95-a8cc-6cff58b20d5c","system_id":"levelo_inurba_marseille","lat":43.261825,"lon":5.374512,"is_reserved":false,"is_disabled":false,"rental_uris":{"android":"levelo://app?vid=c9fa87fb-bb42-4d95-a8cc-6cff58b20d5c","ios":"levelo://app?vid=c9fa87fb-bb42-4d95-a8cc-6cff58b20d5c"},"vehicle_type_id":"4","last_reported":1753318765,"current_range_meters":19600,"station_id":"ce4bhgp2rcd13ifvqfc0","pricing_plan_id":"cebpf4jnsgd1na2vs0mg"},{"bike_id":"087a8351-2914-4331-91d9-d03dc17223f9","system_id":"levelo_inurba_marseille","lat":43.3061,"lon":5.39349,"is_reserved":false,"is_disabled":false,"rental_uris":{"android":"levelo://app?vid=087a8351-2914-4331-91d9-d03dc17223f9","ios":"levelo://app?vid=087a8351-2914-4331-91d9-d03dc17223f9"},"vehicle_type_id":"4","last_reported":1753318765,"current_range_meters":19600,"station_id":"ce4bh0p2rcd13ifvqd80","pricing_plan_id":"cebpf4jnsgd1na2vs0mg"},{"bike_id":"eb7c2a47-171d-485d-9041-f27d250e7578","system_id":"levelo_inurba_marseille","lat":43.3063,"lon":5.4008,"is_reserved":false,"is_disabled":false,"rental_uris":{"android":"levelo://app?vid=eb7c2a47-171d-485d-9041-f27d250e7578","ios":"levelo://app?vid=eb7c2a47-171d-485d-9041-f27d250e7578"},"vehicle_type_id":"4","last_reported":1753318765,"current_range_meters":19600,"station_id":"ce4bh112rcd13ifvqda0","pricing_plan_id":"cebpf4jnsgd1na2vs0mg"},{"bike_id":"ffea0aa0-4522-45b8-aa83-a64374785660","system_id":"levelo_inurba_marseille","lat":43.292705,"lon":5.401288,"is_reserved":false,"is_disabled":false,"rental_uris":{"android":"levelo://app?vid=ffea0aa0-4522-45b8-aa83-a64374785660","ios":"levelo://app?vid=ffea0aa0-4522-45b8-aa83-a64374785660"},"vehicle_type_id":"4","last_reported":1753318765,"current_range_meters":19600,"station_id":"ce4bh312rcd13ifvqdk0","pricing_plan_id":"cebpf4jnsgd1na2vs0mg"},{"bike_id":"48711d07-be69-4c50-91d4-43e6f285038e","system_id":"levelo_inurba_marseille","lat":43.240776,"lon":5.377636,"is_reserved":false,"is_disabled":false,"rental_uris":{"android":"levelo://app?vid=48711d07-be69-4c50-91d4-43e6f285038e","ios":"levelo://app?vid=48711d07-be69-4c50-91d4-43e6f285038e"},"vehicle_type_id":"4","last_reported":1753318765,"current_range_meters":19600,"station_id":"ce4bhnp2rcd13ifvqgvg","pricing_plan_id":"cebpf4jnsgd1na2vs0mg"},{"bike_id":"f2ca3887-7e82-498b-8c49-e80cd18a3051","system_id":"levelo_inurba_marseille","lat":43.239644,"lon":5.366299,"is_reserved":false,"is_disabled":false,"rental_uris":{"android":"levelo://app?vid=f2ca3887-7e82-498b-8c49-e80cd18a3051","ios":"levelo://app?vid=f2ca3887-7e82-498b-8c49-e80cd18a3051"},"vehicle_type_id":"4","last_reported":1753318765,"current_range_meters":20000,"station_id":"ce4bhi12rcd13ifvqfp0","pricing_plan_id":"cebpf4jnsgd1na2vs0mg"},{"bike_id":"bfddca7c-3825-4dd2-81c9-335257a69f7c","system_id":"levelo_inurba_marseille","lat":43.29578,"lon":5.36748,"is_reserved":false,"is_disabled":false,"rental_uris":{"android":"levelo://app?vid=bfddca7c-3825-4dd2-81c9-335257a69f7c","ios":"levelo://app?vid=bfddca7c-3825-4dd2-81c9-335257a69f7c"},"vehicle_type_id":"4","last_reported":1753318765,"current_range_meters":20000,"station_id":"ce4bgph2rcd13ifvqc2g","pricing_plan_id":"cebpf4jnsgd1na2vs0mg"},{"bike_id":"44a7b0ca-28d8-42f1-8086-80caa3f9d7ef","system_id":"levelo_inurba_marseille","lat":43.31063,"lon":5.38358,"is_reserved":false,"is_disabled":false,"rental_uris":{"android":"levelo://app?vid=44a7b0ca-28d8-42f1-8086-80caa3f9d7ef","ios":"levelo://app?vid=44a7b0ca-28d8-42f1-8086-80caa3f9d7ef"},"vehicle_type_id":"4","last_reported":1753318765,"current_range_meters":20000,"station_id":"ce4bgv92rcd13ifvqcr0","pricing_plan_id":"cebpf4jnsgd1na2vs0mg"},{"bike_id":"ce193c8e-90e0-4599-95e2-d02b7d163b03","system_id":"levelo_inurba_marseille","lat":43.24119,"lon":5.37721,"is_reserved":false,"is_disabled":false,"rental_uris":{"android":"levelo://app?vid=ce193c8e-90e0-4599-95e2-d02b7d163b03","ios":"levelo://app?vid=ce193c8e-90e0-4599-95e2-d02b7d163b03"},"vehicle_type_id":"4","last_reported":1753318765,"current_range_meters":20000,"station_id":"","pricing_plan_id":"cebpf4jnsgd1na2vs0mg"},{"bike_id":"e989862c-69f9-4f39-b21f-c2aea878cf77","system_id":"levelo_inurba_marseille","lat":43.23963,"lon":5.36638,"is_reserved":false,"is_disabled":false,"rental_uris":{"android":"levelo://app?vid=e989862c-69f9-4f39-b21f-c2aea878cf77","ios":"levelo://app?vid=e989862c-69f9-4f39-b21f-c2aea878cf77"},"vehicle_type_id":"4","last_reported":1753318765,"current_range_meters":20000,"station_id":"ce4bhi12rcd13ifvqfp0","pricing_plan_id":"cebpf4jnsgd1na2vs0mg"},{"bike_id":"261d4bb0-7bb9-4c80-93f3-cd6f68b7285e","system_id":"levelo_inurba_marseille","lat":43.31498,"lon":5.3691,"is_reserved":false,"is_disabled":false,"rental_uris":{"android":"levelo://app?vid=261d4bb0-7bb9-4c80-93f3-cd6f68b7285e","ios":"levelo://app?vid=261d4bb0-7bb9-4c80-93f3-cd6f68b7285e"},"vehicle_type_id":"4","last_reported":1753318765,"current_range_meters":20000,"station_id":"","pricing_plan_id":"cebpf4jnsgd1na2vs0mg"},{"bike_id":"674df432-eba2-41a5-a16c-d34b13d50f5e","system_id":"levelo_inurba_marseille","lat":43.33943,"lon":5.40682,"is_reserved":false,"is_disabled":false,"rental_uris":{"android":"levelo://app?vid=674df432-eba2-41a5-a16c-d34b13d50f5e","ios":"levelo://app?vid=674df432-eba2-41a5-a16c-d34b13d50f5e"},"vehicle_type_id":"4","last_reported":1753318765,"current_range_meters":20000,"station_id":"","pricing_plan_id":"cebpf4jnsgd1na2vs0mg"},{"bike_id":"0dc3d8a6-1974-4798-8079-5fdad3f2f79c","system_id":"levelo_inurba_marseille","lat":43.24077,"lon":5.37759,"is_reserved":false,"is_disabled":false,"rental_uris":{"android":"levelo://app?vid=0dc3d8a6-1974-4798-8079-5fdad3f2f79c","ios":"levelo://app?vid=0dc3d8a6-1974-4798-8079-5fdad3f2f79c"},"vehicle_type_id":"4","last_reported":1753318765,"current_range_meters":20000,"station_id":"ce4bhnp2rcd13ifvqgvg","pricing_plan_id":"cebpf4jnsgd1na2vs0mg"},{"bike_id":"80909938-47e1-4ecd-8d47-1b87726af204","system_id":"levelo_inurba_marseille","lat":43.30765,"lon":5.3766,"is_reserved":false,"is_disabled":false,"rental_uris":{"android":"levelo://app?vid=80909938-47e1-4ecd-8d47-1b87726af204","ios":"levelo://app?vid=80909938-47e1-4ecd-8d47-1b87726af204"},"vehicle_type_id":"4","last_reported":1753318765,"current_range_meters":20000,"station_id":"ce4bgv92rcd13ifvqcq0","pricing_plan_id":"cebpf4jnsgd1na2vs0mg"},