{"last_updated":1719007666,"ttl":30,"version":"2.2","data":{"bikes":[{"bike_id":"a0d2b691-b4b3-4197-a6e7-17acd2c59482","system_id":"levelo_inurba_marseille","lat":43.313391,"lon":5.36706,"is_reserved":false,"is_disabled":false,"rental_uris":{"android":"levelo://app?vid=a0d2b691-b4b3-4197-a6e7-17acd2c59482","ios":"levelo://app?vid=a0d2b691-b4b3-4197-a6e7-17acd2c59482"},"vehicle_type_id":"4","last_reported":1719007666,"current_range_meters":8800,"station_id":"ce4bgr92rcd13ifvqc6g","pricing_plan_id":"cebpf4jnsgd1na2vs0mg"},{"bike_id":"33d3815a-f1c1-415d-b336-43a3e3fb2fbe","system_id":"levelo_inurba_marseille","lat":43.309076,"lon":5.368465,"is_reserved":false,"is_disabled":false,"rental_uris":{"android":"levelo://app?vid=33d3815a-f1c1-415d-b336-43a3e3fb2fbe","ios":"levelo://app?vid=33d3815a-f1c1-415d-b336-43a3e3fb2fbe"},"vehicle_type_id":"4","last_reported":1719007666,"current_range_meters":10000,"station_id":"ce4bgn92rcd13ifvqbvg","pricing_plan_id":"cebpf4jnsgd1na2vs0mg"},{"bike_id":"c6ba6ba0-92f6-492b-a3c6-d2f59f78ae33","system_id":"levelo_inurba_marseille","lat":43.314811,"lon":5.373103,"is_reserved":false,"is_disabled":false,"rental_uris":{"android":"levelo://app?vid=c6ba6ba0-92f6-492b-a3c6-d2f59f78ae33","ios":"levelo://app?vid=c6ba6ba0-92f6-492b-a3c6-d2f59f78ae33"},"vehicle_type_id":"4","last_reported":1719007666,"current_range_meters":0,"station_id":"ce4bgt12rcd13ifvqcd0","pricing_plan_id":"cebpf4jnsgd1na2vs0mg"},{"bike_id":"5d515674-7748-4be4-a07f-da0def5801a9","system_id":"levelo_inurba_marseille","lat":43.314811,"lon":5.373103,"is_reserved":false,"is_disabled":false,"rental_uris":{"android":"levelo://app?vid=5d515674-7748-4be4-a07f-da0def5801a9","ios":"levelo://app?vid=5d515674-7748-4be4-a07f-da0def5801a9"},"vehicle_type_id":"4","last_reported":1719007666,"current_range_meters":400,"station_id":"ce4bgt12rcd13ifvqcd0","pricing_plan_id":"cebpf4jnsgd1na2vs0mg"},{"bike_id":"de0f65cf-fa3f-42ef-8312-459118e852f0","system_id":"levelo_inurba_marseille","lat":43.314811,"lon":5.373103,"is_reserved":false,"is_disabled":false,"rental_uris":{"android":"levelo://app?vid=de0f65cf-fa3f-42ef-8312-459118e852f0","ios":"levelo://app?vid=de0f65cf-fa3f-42ef-8312-459118e852f0"},"vehicle_type_id":"4","last_reported":1719007666,"current_range_meters":22400,"station_id":"ce4bgt12rcd13ifvqcd0","pricing_plan_id":"cebpf4jnsgd1na2vs0mg"},{"bike_id":"4d65f698-03b9-43a1-8927-409f3c9731ae","system_id":"levelo_inurba_marseille","lat":43.314811,"lon":5.373104,"is_reserved":false,"is_disabled":false,"rental_uris":{"android":"levelo://app?vid=4d65f698-03b9-43a1-8927-409f3c9731ae","ios":"levelo://app?vid=4d65f698-03b9-43a1-8927-409f3c9731ae"},"vehicle_type_id":"4","last_reported":1719007666,"current_range_meters":0,"station_id":"ce4bgt12rcd13ifvqcd0","pricing_plan_id":"cebpf4jnsgd1na2vs0mg"},{"bike_id":"20f31c62-307b-4c16-93b6-6fcc5accd677","system_id":"levelo_inurba_marseille","lat":43.314579,"lon":5.373684,"is_reserved":false,"is_disabled":false,"rental_uris":{"android":"levelo://app?vid=20f31c62-307b-4c16-93b6-6fcc5accd677","ios":"levelo://app?vid=20f31c62-307b-4c16-93b6-6fcc5accd677"},"vehicle_type_id":"4","last_reported":1719007666,"current_range_meters":16400,"station_id":"","pricing_plan_id":"cebpf4jnsgd1na2vs0mg"},{"bike_id":"fbc274b1-a959-4396-8930-89228bf2d7ff","system_id":"levelo_inurba_marseille","lat":43.30892,"lon":5.37193,"is_reserved":false,"is_disabled":false,"rental_uris":{"android":"levelo://app?vid=fbc274b1-a959-4396-8930-89228bf2d7ff","ios":"levelo://app?vid=fbc274b1-a959-4396-8930-89228bf2d7ff"},"vehicle_type_id":"4","last_reported":1719007666,"current_range_meters":31200,"station_id":"ce4bguh2rcd13ifvqckg","pricing_plan_id":"cebpf4jnsgd1na2vs0mg"},{"bike_id":"c8d74784-cfa3-4dc0-a55e-c53d6b6b7590","system_id":"levelo_inurba_marseille","lat":43.316894,"lon":5.373126,"is_reserved":false,"is_disabled":false,"rental_uris":{"android":"levelo://app?vid=c8d74784-cfa3-4dc0-a55e-c53d6b6b7590","ios":"levelo://app?vid=c8d74784-cfa3-4dc0-a55e-c53d6b6b7590"},"vehicle_type_id":"4","last_reported":1719007666,"current_range_meters":18400,"station_id":"","pricing_plan_id":"cebpf4jnsgd1na2vs0mg"},{"bike_id":"f581aaaf-044f-4575-8b99-1d00c2b82339","system_id":"levelo_inurba_marseille","lat":43.305458,"lon":5.366957,"is_reserved":false,"is_disabled":false,"rental_uris":{"android":"levelo://app?vid=f581aaaf-044f-4575-8b99-1d00c2b82339","ios":"levelo://app?vid=f581aaaf-044f-4575-8b99-1d00c2b82339"},"vehicle_type_id":"4","last_reported":1719007666,"current_range_meters":29600,"station_id":"","pricing_plan_id":"cebpf4jnsgd1na2vs0mg"},{"bike_id":"b272f8c8-7b02-4515-abca-f6f8a491f0d6","system_id":"levelo_inurba_marseille","lat":43.305368,"lon":5.367343,"is_reserved":false,"is_disabled":false,"rental_uris":{"android":"levelo://app?vid=b272f8c8-7b02-4515-abca-f6f8a491f0d6","ios":"levelo://app?vid=b272f8c8-7b02-4515-abca-f6f8a491f0d6"},"vehicle_type_id":"4","last_reported":1719007666,"current_range_meters":22800,"station_id":"ce4bgrp2rcd13ifvqc9g","pricing_plan_id":"cebpf4jnsgd1na2vs0mg"},{"bike_id":"94c14b4b-88d5-4ed2-a2df-ef055d4a721a","system_id":"levelo_inurba_marseille","lat":43.305989,"lon":5.37225,"is_reserved":false,"is_disabled":false,"rental_uris":{"android":"levelo://app?vid=94c14b4b-88d5-4ed2-a2df-ef055d4a721a","ios":"levelo://app?vid=94c14b4b-88d5-4ed2-a2df-ef055d4a721a"},"vehicle_type_id":"4","last_reported":1719007666,"current_range_meters":12400,"station_id":"ce4bgqh2rcd13ifvqc4g","pricing_plan_id":"cebpf4jnsgd1na2vs0mg"},{"bike_id":"86a0dcd5-de73-4402-8fbf-01fd618c9557","system_id":"levelo_inurba_marseille","lat":43.305989,"lon":5.37225,"is_reserved":false,"is_disabled":false,"rental_uris":{"android":"levelo://app?vid=86a0dcd5-de73-4402-8fbf-01fd618c9557","ios":"levelo://app?vid=86a0dcd5-de73-4402-8fbf-01fd618c9557"},"vehicle_type_id":"4","last_reported":1719007666,"current_range_meters":14400,"station_id":"ce4bgqh2rcd13ifvqc4g","pricing_plan_id":"cebpf4jnsgd1na2vs0mg"},{"bike_id":"c3fad744-bfb4-4bcc-b39f-410b2652650a","system_id":"levelo_inurba_marseille","lat":43.305989,"lon":5.37225,"is_reserved":false,"is_disabled":false,"rental_uris":{"android":"levelo://app?vid=c3fad744-bfb4-4bcc-b39f-410b2652650a","ios":"levelo://app?vid=c3fad744-bfb4-4bcc-b39f-410b2652650a"},"vehicle_type_id":"4","last_reported":1719007666,"current_range_meters":17200,"station_id":"ce4bgqh2rcd13ifvqc4g","pricing_plan_id":"cebpf4jnsgd1na2vs0mg"},{"bike_id":"b1030114-8728-49c5-a8b8-96d11c7ff8aa","system_id":"levelo_inurba_marseille","lat":43.31115,"lon":5.37751,"is_reserved":false,"is_disabled":false,"rental_uris":{"android":"levelo://app?vid=b1030114-8728-49c5-a8b8-96d11c7ff8aa","ios":"levelo://app?vid=b1030114-8728-49c5-a8b8-96d11c7ff8aa"},"vehicle_type_id":"4","last_reported":1719007666,"current_range_meters":0,"station_id":"ce4bgt92rcd13ifvqcg0","pricing_plan_id":"cebpf4jnsgd1na2vs0mg"},{"bike_id":"2bdac33a-1279-4088-ab17-44f2040ecfa2","system_id":"levelo_inurba_marseille","lat":43.291994,"lon":5.357886,"is_reserved":false,"is_disabled":false,"rental_uris":{"android":"levelo://app?vid=2bdac33a-1279-4088-ab17-44f2040ecfa2","ios":"levelo://app?vid=2bdac33a-1279-4088-ab17-44f2040ecfa2"},"vehicle_type_id":"4","last_reported":1719007666,"current_range_meters":5600,"station_id":"ce4bhb12rcd13ifvqel0","pricing_plan_id":"cebpf4jnsgd1na2vs0mg"},{"bike_id":"68feea94-9ffe-4190-b152-37401106d759","system_id":"levelo_inurba_marseille","lat":43.311131,"lon":5.377651,"is_reserved":false,"is_disabled":false,"rental_uris":{"android":"levelo://app?vid=68feea94-9ffe-4190-b152-37401106d759","ios":"levelo://app?vid=68feea94-9ffe-4190-b152-37401106d759"},"vehicle_type_id":"4","last_reported":1719007666,"current_range_meters":2400,"station_id":"ce4bgt92rcd13ifvqcg0","pricing_plan_id":"cebpf4jnsgd1na2vs0mg"},{"bike_id":"367999d0-617b-47a9-9d80-4dd6f9bf5a73","system_id":"levelo_inurba_marseille","lat":43.311125,"lon":5.377624,"is_reserved":false,"is_disabled":false,"rental_uris":{"android":"levelo://app?vid=367999d0-617b-47a9-9d80-4dd6f9bf5a73","ios":"levelo://app?vid=367999d0-617b-47a9-9d80-4dd6f9bf5a73"},"vehicle_type_id":"4","last_reported":1719007666,"current_range_meters":18800,"station_id":"ce4bgt92rcd13ifvqcg0","pricing_plan_id":"cebpf4jnsgd1na2vs0mg"},{"bike_id":"877cc7df-d3eb-45e7-abdf-4a8e3995969c","system_id":"levelo_inurba_marseille","lat":43.307945,"lon":5.376487,"is_reserved":false,"is_disabled":false,"rental_uris":{"android":"levelo://app?vid=877cc7df-d3eb-45e7-abdf-4a8e3995969c","ios":"levelo://app?vid=877cc7df-d3eb-45e7-abdf-4a8e3995969c"},"vehicle_type_id":"4","last_reported":1719007666,"current_range_meters":19200,"station_id":"ce4bgv92rcd13ifvqcq0","pricing_plan_id":"cebpf4jnsgd1na2vs0mg"},{"bike_id":"fd18b067-c91a-46e2-b071-f366e9e473c6","system_id":"levelo_inurba_marseille","lat":43.307945,"lon":5.376487,"is_reserved":false,"is_disabled":false,"rental_uris":{"android":"levelo://app?vid=fd18b067-c91a-46e2-b071-f366e9e473c6","ios":"levelo://app?vid=fd18b067-c91a-46e2-b071-f366e9e473c6"},"vehicle_type_id":"4","last_reported":1719007666,"current_range_meters":6400,"station_id":"ce4bgv92rcd13ifvqcq0","pricing_plan_id":"cebpf4jnsgd1na2vs0mg"},{"bike_id":"f0602da6-ef4a-4302-be87-cdb122c3dbe3","system_id":"levelo_inurba_marseille","lat":43.307945,"lon":5.376487,"is_reserved":false,"is_disabled":false,"rental_uris":{"android":"levelo://app?vid=f0602da6-ef4a-4302-be87-cdb122c3dbe3","ios":"levelo://app?vid=f0602da6-ef4a-4302-be87-cdb122c3dbe3"},"vehicle_type_id":"4","last_reported":1719007666,"current_range_meters":26400,"station_id":"ce4bgv92rcd13ifvqcq0","pricing_plan_id":"cebpf4jnsgd1na2vs0mg"},{"bike_id":"0ec767f5-098c-4418-9120-9a0b308e4273","system_id":"levelo_inurba_marseille","lat":43.307945,"lon":5.376487,"is_reserved":false,"is_disabled":false,"rental_uris":{"android":"levelo://app?vid=0ec767f5-098c-4418-9120-9a0b308e4273","ios":"levelo://app?vid=0ec767f5-098c-4418-9120-9a0b308e4273"},"vehicle_type_id":"4","last_reported":1719007666,"current_range_meters":1200,"station_id":"ce4bgv92rcd13ifvqcq0","pricing_plan_id":"cebpf4jnsgd1na2vs0mg"},{"bike_id":"7570e7ba-e914-4740-b262-3395ce9b5f64","system_id":"levelo_inurba_marseille","lat":43.307945,"lon":5.376487,"is_reserved":false,"is_disabled":false,"rental_uris":{"android":"levelo://app?vid=7570e7ba-e914-4740-b262-3395ce9b5f64","ios":"levelo://app?vid=7570e7ba-e914-4740-b262-3395ce9b5f64"},"vehicle_type_id":"4","last_reported":1719007666,"current_range_meters":5200,"station_id":"ce4bgv92rcd13ifvqcq0","pricing_plan_id":"cebpf4jnsgd1na2vs0mg"},{"bike_id":"125f7e64-921d-47c1-8eb3-f645b12f1bfd","system_id":"levelo_inurba_marseille","lat":43.307945,"lon":5.376487,"is_reserved":false,"is_disabled":false,"rental_uris":{"android":"levelo://app?vid=125f7e64-921d-47c1-8eb3-f645b12f1bfd","ios":"levelo://app?vid=125f7e64-921d-47c1-8eb3-f645b12f1bfd"},"vehicle_type_id":"4","last_reported":1719007666,"current_range_meters":28800,"station_id":"ce4bgv92rcd13ifvqcq0","pricing_plan_id":"cebpf4jnsgd1na2vs0mg"},{"bike_id":"616c832f-e6d3-4d08-82ae-6406a76b544c","system_id":"levelo_inurba_marseille","lat":43.307945,"lon":5.376487,"is_reserved":false,"is_disabled":false,"rental_uris":{"android":"levelo://app?vid=616c832f-e6d3-4d08-82ae-6406a76b544c","ios":"levelo://app?vid=616c832f-e6d3-4d08-82ae-6406a76b544c"},"vehicle_type_id":"4","last_reported":1719007666,"current_range_meters":27600,"station_id":"ce4bgv92rcd13ifvqcq0","pricing_plan_id":"cebpf4jnsgd1na2vs0mg"},{"bike_id":"d96a8a16-8e79-451a-a3bf-8c79399e90a7","system_id":"levelo_inurba_marseille","lat":43.317075,"lon":5.377367,"is_reserved":false,"is_disabled":false,"rental_uris":{"android":"levelo://app?vid=d96a8a16-8e79-451a-a3bf-8c79399e90a7","ios":"levelo://app?vid=d96a8a16-8e79-451a-a3bf-8c79399e90a7"},"vehicle_type_id":"4","last_reported":1719007666,"current_range_meters":8400,"station_id":"ce4bgth2rcd13ifvqch0","pricing_plan_id":"cebpf4jnsgd1na2vs0mg"},{"bike_id":"df66cf79-aa18-4a52-b122-f165d5ec9751","system_id":"levelo_inurba_marseille","lat":43.303046,"lon":5.368981,"is_reserved":false,"is_disabled":false,"rental_uris":{"android":"levelo://app?vid=df66cf79-aa18-4a52-b122-f165d5ec9751","ios":"levelo://app?vid=df66cf79-aa18-4a52-b122-f165d5ec9751"},"vehicle_type_id":"4","last_reported":1719007666,"current_range_meters":22000,"station_id":"ce4bgqh2rcd13ifvqc5g","pricing_plan_id":"cebpf4jnsgd1na2vs0mg"},{"bike_id":"91839b7d-a143-4baf-ac66-bd41a45b7f7d","system_id":"levelo_inurba_marseille","lat":43.303046,"lon":5.368981,"is_reserved":false,"is_disabled":false,"rental_uris":{"android":"levelo://app?vid=91839b7d-a143-4baf-ac66-bd41a45b7f7d","ios":"levelo://app?vid=91839b7d-a143-4baf-ac66-bd41a45b7f7d"},"vehicle_type_id":"4","last_reported":1719007666,"current_range_meters":16800,"station_id":"ce4bgqh2rcd13ifvqc5g","pricing_plan_id":"cebpf4jnsgd1na2vs0mg"},{"bike_id":"f2f56abd-cbb1-491c-9b3d-e81ce470d209","system_id":"levelo_inurba_marseille","lat":43.303046,"lon":5.368981,"is_reserved":false,"is_disabled":false,"rental_uris":{"android":"levelo://app?vid=f2f56abd-cbb1-491c-9b3d-e81ce470d209","ios":"levelo://app?vid=f2f56abd-cbb1-491c-9b3d-e81ce470d209"},"vehicle_type_id":"4","last_reported":1719007666,"current_range_meters":4000,"station_id":"ce4bgqh2rcd13ifvqc5g","pricing_plan_id":"cebpf4jnsgd1na2vs0mg"},{"bike_id":"1aa9382d-bd55-4aff-8971-b23615fccdae","system_id":"levelo_inurba_marseille","lat":43.31094,"lon":5.38135,"is_reserved":false,"is_disabled":false,"rental_uris":{"android":"levelo://app?vid=1aa9382d-bd55-4aff-8971-b23615fccdae","ios":"levelo://app?vid=1aa9382d-bd55-4aff-8971-b23615fccdae"},"vehicle_type_id":"4","last_reported":1719007666,"current_range_meters":3600,"station_id":"","pricing_plan_id":"cebpf4jnsgd1na2vs0mg"},{"bike_id":"3521bfcb-bfda-4ee9-97e7-bd305bb98760","system_id":"levelo_inurba_marseille","lat":43.305989,"lon":5.37225,"is_reserved":false,"is_disabled":false,"rental_uris":{"android":"levelo://app?vid=3521bfcb-bfda-4ee9-97e7-bd305bb98760","ios":"levelo://app?vid=3521bfcb-bfda-4ee9-97e7-bd305bb98760"},"vehicle_type_id":"4","last_reported":1719007666,"current_range_meters":28400,"station_id":"ce4bgqh2rcd13ifvqc4g","pricing_plan_id":"cebpf4jnsgd1na2vs0mg"},{"bike_id":"7b9afdf4-becc-4d0b-9122-1be0f03d4b5a","system_id":"levelo_inurba_marseille","lat":43.301939,"lon":5.366286,"is_reserved":false,"is_disabled":false,"rental_uris":{"android":"levelo://app?vid=7b9afdf4-becc-4d0b-9122-1be0f03d4b5a","ios":"levelo://app?vid=7b9afdf4-becc-4d0b-9122-1be0f03d4b5a"},"vehicle_type_id":"4","last_reported":1719007666,"current_range_meters":6800,"station_id":"ce4bgrh2rcd13ifvqc8g","pricing_plan_id":"cebpf4jnsgd1na2vs0mg"},{"bike_id":"ebb1622c-c8c8-492d-9dea-aed15ca661a7","system_id":"levelo_inurba_marseille","lat":43.305989,"lon":5.37225,"is_reserved":false,"is_disabled":false,"rental_uris":{"android":"levelo://app?vid=ebb1622c-c8c8-492d-9dea-aed15ca661a7","ios":"levelo://app?vid=ebb1622c-c8c8-492d-9dea-aed15ca661a7"},"vehicle_type_id":"4","last_reported":1719007666,"current_range_meters":31200,"station_id":"ce4bgqh2rcd13ifvqc4g","pricing_plan_id":"cebpf4jnsgd1na2vs0mg"},{"bike_id":"567c6721-270f-423d-995f-17e0b7f9ff3b","system_id":"levelo_inurba_marseille","lat":43.30212,"lon":5.37404,"is_reserved":false,"is_disabled":false,"rental_uris":{"android":"levelo://app?vid=567c6721-270f-423d-995f-17e0b7f9ff3b","ios":"levelo://app?vid=567c6721-270f-423d-995f-17e0b7f9ff3b"},"vehicle_type_id":"4","last_reported":1719007666,"current_range_meters":800,"station_id":"","pricing_plan_id":"cebpf4jnsgd1na2vs0mg"},{"bike_id":"a3351bc9-57e5-40a8-a632-fb07b59c3abd","system_id":"levelo_inurba_marseille","lat":43.300933,"lon":5.365466,"is_reserved":false,"is_disabled":false,"rental_uris":{"android":"levelo://app?vid=a3351bc9-57e5-40a8-a632-fb07b59c3abd","ios":"levelo://app?vid=a3351bc9-57e5-40a8-a632-fb07b59c3abd"},"vehicle_type_id":"4","last_reported":1719007666,"current_range_meters":0,"station_id":"","pricing_plan_id":"cebpf4jnsgd1na2vs0mg"},{"bike_id":"27be794a-529b-4a35-a4b5-b2f9841d38ed","system_id":"levelo_inurba_marseille","lat":43.304606,"lon":5.379026,"is_reserved":false,"is_disabled":false,"rental_uris":{"android":"levelo://app?vid=27be794a-529b-4a35-a4b5-b2f9841d38ed","ios":"levelo://app?vid=27be794a-529b-4a35-a4b5-b2f9841d38ed"},"vehicle_type_id":"4","last_reported":1719007666,"current_range_meters":24000,"station_id":"ce4bgup2rcd13ifvqcn0","pricing_plan_id":"cebpf4jnsgd1na2vs0mg"},{"bike_id":"f8832944-7597-46ed-9c9a-086111fded89","system_id":"levelo_inurba_marseille","lat":43.304606,"lon":5.379026,"is_reserved":false,"is_disabled":false,"rental_uris":{"android":"levelo://app?vid=f8832944-7597-46ed-9c9a-086111fded89","ios":"levelo://app?vid=f8832944-7597-46ed-9c9a-086111fded89"},"vehicle_type_id":"4","last_reported":1719007666,"current_range_meters":0,"station_id":"ce4bgup2rcd13ifvqcn0","pricing_plan_id":"cebpf4jnsgd1na2vs0mg"},{"bike_id":"1c4a5dce-c887-41d3-86e8-d8004121f6a9","system_id":"levelo_inurba_marseille","lat":43.324771,"lon":5.36557,"is_reserved":false,"is_disabled":false,"rental_uris":{"android":"levelo://app?vid=1c4a5dce-c887-41d3-86e8-d8004121f6a9","ios":"levelo://app?vid=1c4a5dce-c887-41d3-86e8-d8004121f6a9"},"vehicle_type_id":"4","last_reported":1719007666,"current_range_meters":28800,"station_id":"ce4bhs12rcd13ifvqhvg","pricing_plan_id":"cebpf4jnsgd1na2vs0mg"},{"bike_id":"0cf4f2e2-150e-4567-bd04-06c956a4df89","system_id":"levelo_inurba_marseille","lat":43.324872,"lon":5.365553,"is_reserved":false,"is_disabled":false,"rental_uris":{"android":"levelo://app?vid=0cf4f2e2-150e-4567-bd04-06c956a4df89","ios":"levelo://app?vid=0cf4f2e2-150e-4567-bd04-06c956a4df89"},"vehicle_type_id":"4","last_reported":1719007666,"current_range_meters":0,"station_id":"ce4bhs12rcd13ifvqhvg","pricing_plan_id":"cebpf4jnsgd1na2vs0mg"},{"bike_id":"700d8c3c-abc0-498a-86df-055650bfb74b","system_id":"levelo_inurba_marseille","lat":43.310804,"lon":5.38359,"is_reserved":false,"is_disabled":false,"rental_uris":{"android":"levelo://app?vid=700d8c3c-abc0-498a-86df-055650bfb74b","ios":"levelo://app?vid=700d8c3c-abc0-498a-86df-055650bfb74b"},"vehicle_type_id":"4","last_reported":1719007666,"current_range_meters":0,"station_id":"ce4bgv92rcd13ifvqcr0","pricing_plan_id":"cebpf4jnsgd1na2vs0mg"},{"bike_id":"accb27ed-20ef-4fc8-b91e-ef3a93705b5d","system_id":"levelo_inurba_marseille","lat":43.310804,"lon":5.38359,"is_reserved":false,"is_disabled":false,"rental_uris":{"android":"levelo://app?vid=accb27ed-20ef-4fc8-b91e-ef3a93705b5d","ios":"levelo://app?vid=accb27ed-20ef-4fc8-b91e-ef3a93705b5d"},"vehicle_type_id":"4","last_reported":1719007666,"current_range_meters":16800,"station_id":"ce4bgv92rcd13ifvqcr0","pricing_plan_id":"cebpf4jnsgd1na2vs0mg"},{"bike_id":"732f3b32-0acc-46de-bd4d-d288d2686bf1","system_id":"levelo_inurba_marseille","lat":43.310804,"lon":5.38359,"is_reserved":false,"is_disabled":false,"rental_uris":{"android":"levelo://app?vid=732f3b32-0acc-46de-bd4d-d288d2686bf1","ios":"levelo://app?vid=732f3b32-0acc-46de-bd4d-d288d2686bf1"},"vehicle_type_id":"4","last_reported":1719007666,"current_range_meters":0,"station_id":"ce4bgv92rcd13ifvqcr0","pricing_plan_id":"cebpf4jnsgd1na2vs0mg"},{"bike_id":"99cf8906-c5ac-4b93-b7c0-207ba92dfb06","system_id":"levelo_inurba_marseille","lat":43.302784,"lon":5.377158,"is_reserved":false,"is_disabled":false,"rental_uris":{"android":"levelo://app?vid=99cf8906-c5ac-4b93-b7c0-207ba92dfb06","ios":"levelo://app?vid=99cf8906-c5ac-4b93-b7c0-207ba92dfb06"},"vehicle_type_id":"4","last_reported":1719007666,"current_range_meters":16400,"station_id":"ce4bguh2rcd13ifvqcj0","pricing_plan_id":"cebpf4jnsgd1na2vs0mg"},{"bike_id":"e5d35528-c946-48ab-8838-7cd24d765e6b","system_id":"levelo_inurba_marseille","lat":43.302784,"lon":5.377158,"is_reserved":false,"is_disabled":false,"rental_uris":{"android":"levelo://app?vid=e5d35528-c946-48ab-8838-7cd24d765e6b","ios":"levelo://app?vid=e5d35528-c946-48ab-8838-7cd24d765e6b"},"vehicle_type_id":"4","last_reported":1719007666,"current_range_meters":27600,"station_id":"ce4bguh2rcd13ifvqcj0","pricing_plan_id":"cebpf4jnsgd1na2vs0mg"},{"bike_id":"a06c22aa-a2ff-4c9d-b615-72d952b1778c","system_id":"levelo_inurba_marseille","lat":43.302784,"lon":5.377158,"is_reserved":false,"is_disabled":false,"rental_uris":{"android":"levelo://app?vid=a06c22aa-a2ff-4c9d-b615-72d952b1778c","ios":"levelo://app?vid=a06c22aa-a2ff-4c9d-b615-72d952b1778c"},"vehicle_type_id":"4","last_reported":1719007666,"current_range_meters":20000,"station_id":"ce4bguh2rcd13ifvqcj0","pricing_plan_id":"cebpf4jnsgd1na2vs0mg"},{"bike_id":"a7ce4af3-b9a3-4154-b2c6-fe94ff06d9e4","system_id":"levelo_inurba_marseille","lat":43.30023,"lon":5.36957,"is_reserved":false,"is_disabled":false,"rental_uris":{"android":"levelo://app?vid=a7ce4af3-b9a3-4154-b2c6-fe94ff06d9e4","ios":"levelo://app?vid=a7ce4af3-b9a3-4154-b2c6-fe94ff06d9e4"},"vehicle_type_id":"4","last_reported":1719007666,"current_range_meters":14000,"station_id":"","pricing_plan_id":"cebpf4jnsgd1na2vs0mg"},{"bike_id":"c07aff00-4eae-4c47-9b68-664428730875","system_id":"levelo_inurba_marseille","lat":43.300033,"lon":5.369,"is_reserved":false,"is_disabled":false,"rental_uris":{"android":"levelo://app?vid=c07aff00-4eae-4c47-9b68-664428730875","ios":"levelo://app?vid=c07aff00-4eae-4c47-9b68-664428730875"},"vehicle_type_id":"4","last_reported":1719007666,"current_range_meters":12400,"station_id":"","pricing_plan_id":"cebpf4jnsgd1na2vs0mg"},{"bike_id":"4f17b089-79cb-4f2e-a7e1-b736df93b457","system_id":"levelo_inurba_marseille","lat":43.31991,"lon":5.3815,"is_reserved":false,"is_disabled":false,"rental_uris":{"android":"levelo://app?vid=4f17b089-79cb-4f2e-a7e1-b736df93b457","ios":"levelo://app?vid=4f17b089-79cb-4f2e-a7e1-b736df93b457"},"vehicle_type_id":"4","last_reported":1719007666,"current_range_meters":0,"station_id":"ce4bhr12rcd13ifvqhpg","pricing_plan_id":"cebpf4jnsgd1na2vs0mg"},{"bike_id":"09de8e8b-08d6-4d99-a738-63453e60055e","system_id":"levelo_inurba_marseille","lat":43.31991,"lon":5.38164,"is_reserved":false,"is_disabled":false,"rental_uris":{"android":"levelo://app?vid=09de8e8b-08d6-4d99-a738-63453e60055e","ios":"levelo://app?vid=09de8e8b-08d6-4d99-a738-63453e60055e"},"vehicle_type_id":"4","last_reported":1719007666,"current_range_meters":21600,"station_id":"ce4bhr12rcd13ifvqhpg","pricing_plan_id":"cebpf4jnsgd1na2vs0mg"},{"bike_id":"1f9dc8a6-1fb6-455b-9953-9dd64f0bcc9a","system_id":"levelo_inurba_marseille","lat":43.299222,"lon":5.365554,"is_reserved":false,"is_disabled":false,"rental_uris":{"android":"levelo://app?vid=1f9dc8a6-1fb6-455b-9953-9dd64f0bcc9a","ios":"levelo://app?vid=1f9dc8a6-1fb6-455b-9953-9dd64f0bcc9a"},"vehicle_type_id":"4","last_reported":1719007666,"current_range_meters":0,"station_id":"ce4bgm92rcd13ifvqbr0","pricing_plan_id":"cebpf4jnsgd1na2vs0mg"},{"bike_id":"ed14ec74-1f1c-4cfd-8d26-59aa92fdca8a","system_id":"levelo_inurba_marseille","lat":43.299562,"lon":5.374932,"is_reserved":false,"is_disabled":false,"rental_uris":{"android":"levelo://app?vid=ed14ec74-1f1c-4cfd-8d26-59aa92fdca8a","ios":"levelo://app?vid=ed14ec74-1f1c-4cfd-8d26-59aa92fdca8a"},"vehicle_type_id":"4","last_reported":1719007666,"current_range_meters":26800,"station_id":"ce4bgop2rcd13ifvqc1g","pricing_plan_id":"cebpf4jnsgd1na2vs0mg"},{"bike_id":"c297fe96-ad2c-4815-a298-556057bcac53","system_id":"levelo_inurba_marseille","lat":43.298433,"lon":5.362774,"is_reserved":false,"is_disabled":false,"rental_uris":{"android":"levelo://app?vid=c297fe96-ad2c-4815-a298-556057bcac53","ios":"levelo://app?vid=c297fe96-ad2c-4815-a298-556057bcac53"},"vehicle_type_id":"4","last_reported":1719007666,"current_range_meters":5200,"station_id":"ce4bgpp2rcd13ifvqc3g","pricing_plan_id":"cebpf4jnsgd1na2vs0mg"},{"bike_id":"7fe31b7c-85d0-4233-ac86-4712ad674817","system_id":"levelo_inurba_marseille","lat":43.311722,"lon":5.387247,"is_reserved":false,"is_disabled":false,"rental_uris":{"android":"levelo://app?vid=7fe31b7c-85d0-4233-ac86-4712ad674817","ios":"levelo://app?vid=7fe31b7c-85d0-4233-ac86-4712ad674817"},"vehicle_type_id":"4","last_reported":1719007666,"current_range_meters":3200,"station_id":"ce4bgv12rcd13ifvqcp0","pricing_plan_id":"cebpf4jnsgd1na2vs0mg"},{"bike_id":"95fb8842-8c94-4fa3-b7a0-2aa1d51d60b8","system_id":"levelo_inurba_marseille","lat":43.305364,"lon":5.384119,"is_reserved":false,"is_disabled":false,"rental_uris":{"android":"levelo://app?vid=95fb8842-8c94-4fa3-b7a0-2aa1d51d60b8","ios":"levelo://app?vid=95fb8842-8c94-4fa3-b7a0-2aa1d51d60b8"},"vehicle_type_id":"4","last_reported":1719007666,"current_range_meters":12800,"station_id":"ce4bgg92rcd13ifvqb30","pricing_plan_id":"cebpf4jnsgd1na2vs0mg"},{"bike_id":"ab4c5f87-8bf1-4f31-a5dd-b77bfbc2c288","system_id":"levelo_inurba_marseille","lat":43.311722,"lon":5.387247,"is_reserved":false,"is_disabled":false,"rental_uris":{"android":"levelo://app?vid=ab4c5f87-8bf1-4f31-a5dd-b77bfbc2c288","ios":"levelo://app?vid=ab4c5f87-8bf1-4f31-a5dd-b77bfbc2c288"},"vehicle_type_id":"4","last_reported":1719007666,"current_range_meters":10800,"station_id":"ce4bgv12rcd13ifvqcp0","pricing_plan_id":"cebpf4jnsgd1na2vs0mg"},{"bike_id":"1431812a-db62-4949-a4ad-5640cce3fd97","system_id":"levelo_inurba_marseille","lat":43.299243,"lon":5.374807,"is_reserved":false,"is_disabled":false,"rental_uris":{"android":"levelo://app?vid=1431812a-db62-4949-a4ad-5640cce3fd97","ios":"levelo://app?vid=1431812a-db62-4949-a4ad-5640cce3fd97"},"vehicle_type_id":"4","last_reported":1719007666,"current_range_meters":4000,"station_id":"ce4bgjh2rcd13ifvqbg0","pricing_plan_id":"cebpf4jnsgd1na2vs0mg"},{"bike_id":"eea777ed-b557-4fe4-a40c-db79697cce20","system_id":"levelo_inurba_marseille","lat":43.29776,"lon":5.37113,"is_reserved":false,"is_disabled":false,"rental_uris":{"android":"levelo://app?vid=eea777ed-b557-4fe4-a40c-db79697cce20","ios":"levelo://app?vid=eea777ed-b557-4fe4-a40c-db79697cce20"},"vehicle_type_id":"4","last_reported":1719007666,"current_range_meters":29200,"station_id":"ce4bgop2rcd13ifvqc1g","pricing_plan_id":"cebpf4jnsgd1na2vs0mg"},{"bike_id":"2abd2834-d124-4367-830b-43b3e6c1e2ce","system_id":"levelo_inurba_marseille","lat":43.297794,"lon":5.370888,"is_reserved":false,"is_disabled":false,"rental_uris":{"android":"levelo://app?vid=2abd2834-d124-4367-830b-43b3e6c1e2ce","ios":"levelo://app?vid=2abd2834-d124-4367-830b-43b3e6c1e2ce"},"vehicle_type_id":"4","last_reported":1719007666,"current_range_meters":4800,"station_id":"ce4bgop2rcd13ifvqc1g","pricing_plan_id":"cebpf4jnsgd1na2vs0mg"},{"bike_id":"8966982b-5a92-4010-b50c-6a4ac27eaafd","system_id":"levelo_inurba_marseille","lat":43.29706,"lon":5.36619,"is_reserved":false,"is_disabled":false,"rental_uris":{"android":"levelo://app?vid=8966982b-5a92-4010-b50c-6a4ac27eaafd","ios":"levelo://app?vid=8966982b-5a92-4010-b50c-6a4ac27eaafd"},"vehicle_type_id":"4","last_reported":1719007666,"current_range_meters":6800,"station_id":"ce4bgn12rcd13ifvqbt0","pricing_plan_id":"cebpf4jnsgd1na2vs0mg"},{"bike_id":"bbcce2a2-1147-4990-a022-639654f9eee9","system_id":"levelo_inurba_marseille","lat":43.296131,"lon":5.370791,"is_reserved":false,"is_disabled":false,"rental_uris":{"android":"levelo://app?vid=bbcce2a2-1147-4990-a022-639654f9eee9","ios":"levelo://app?vid=bbcce2a2-1147-4990-a022-639654f9eee9"},"vehicle_type_id":"4","last_reported":1719007666,"current_range_meters":12800,"station_id":"ce4bgnh2rcd13ifvqc0g","pricing_plan_id":"cebpf4jnsgd1na2vs0mg"},{"bike_id":"82cf5ae3-f795-418b-9176-b7508d8677ef","system_id":"levelo_inurba_marseille","lat":43.304278,"lon":5.388868,"is_reserved":false,"is_disabled":false,"rental_uris":{"android":"levelo://app?vid=82cf5ae3-f795-418b-9176-b7508d8677ef","ios":"levelo://app?vid=82cf5ae3-f795-418b-9176-b7508d8677ef"},"vehicle_type_id":"4","last_reported":1719007666,"current_range_meters":6000,"station_id":"ce4bgk12rcd13ifvqbi0","pricing_plan_id":"cebpf4jnsgd1na2vs0mg"},{"bike_id":"cb3f66fe-5e71-4728-98fc-caf6238f6ef0","system_id":"levelo_inurba_marseille","lat":43.299028,"lon":5.381509,"is_reserved":false,"is_disabled":false,"rental_uris":{"android":"levelo://app?vid=cb3f66fe-5e71-4728-98fc-caf6238f6ef0","ios":"levelo://app?vid=cb3f66fe-5e71-4728-98fc-caf6238f6ef0"},"vehicle_type_id":"4","last_reported":1719007666,"current_range_meters":26800,"station_id":"ce4bgj12rcd13ifvqbc0","pricing_plan_id":"cebpf4jnsgd1na2vs0mg"},{"bike_id":"c1d6f6c8-3679-415f-9133-c78e9dcc4a6b","system_id":"levelo_inurba_marseille","lat":43.317557,"lon":5.390173,"is_reserved":false,"is_disabled":false,"rental_uris":{"android":"levelo://app?vid=c1d6f6c8-3679-415f-9133-c78e9dcc4a6b","ios":"levelo://app?vid=c1d6f6c8-3679-415f-9133-c78e9dcc4a6b"},"vehicle_type_id":"4","last_reported":1719007666,"current_range_meters":20000,"station_id":"ce4bhqp2rcd13ifvqhng","pricing_plan_id":"cebpf4jnsgd1na2vs0mg"},{"bike_id":"646912ff-8d5c-46af-ad69-42352304f26f","system_id":"levelo_inurba_marseille","lat":43.298037,"lon":5.381066,"is_reserved":false,"is_disabled":false,"rental_uris":{"android":"levelo://app?vid=646912ff-8d5c-46af-ad69-42352304f26f","ios":"levelo://app?vid=646912ff-8d5c-46af-ad69-42352304f26f"},"vehicle_type_id":"4","last_reported":1719007666,"current_range_meters":30000,"station_id":"ce4bgip2rcd13ifvqbb0","pricing_plan_id":"cebpf4jnsgd1na2vs0mg"},{"bike_id":"238f5185-dd8d-45fb-8eaa-47b1ebc0eb54","system_id":"levelo_inurba_marseille","lat":43.304274,"lon":5.388873,"is_reserved":false,"is_disabled":false,"rental_uris":{"android":"levelo://app?vid=238f5185-dd8d-45fb-8eaa-47b1ebc0eb54","ios":"levelo://app?vid=238f5185-dd8d-45fb-8eaa-47b1ebc0eb54"},"vehicle_type_id":"4","last_reported":1719007666,"current_range_meters":31200,"station_id":"ce4bgk12rcd13ifvqbi0","pricing_plan_id":"cebpf4jnsgd1na2vs0mg"},{"bike_id":"6a9e117a-28a1-4c4f-9f84-5b20e4d8a1ac","system_id":"levelo_inurba_marseille","lat":43.29574,"lon":5.37506,"is_reserved":false,"is_disabled":false,"rental_uris":{"android":"levelo://app?vid=6a9e117a-28a1-4c4f-9f84-5b20e4d8a1ac","ios":"levelo://app?vid=6a9e117a-28a1-4c4f-9f84-5b20e4d8a1ac"},"vehicle_type_id":"4","last_reported":1719007666,"current_range_meters":0,"station_id":"ce4bgh92rcd13ifvqb50","pricing_plan_id":"cebpf4jnsgd1na2vs0mg"},{"bike_id":"192f7cf0-4d3b-499a-aec0-205f83c63378","system_id":"levelo_inurba_marseille","lat":43.295748,"lon":5.37522,"is_reserved":false,"is_disabled":false,"rental_uris":{"android":"levelo://app?vid=192f7cf0-4d3b-499a-aec0-205f83c63378","ios":"levelo://app?vid=192f7cf0-4d3b-499a-aec0-205f83c63378"},"vehicle_type_id":"4","last_reported":1719007666,"current_range_meters":15200,"station_id":"ce4bgh92rcd13ifvqb50","pricing_plan_id":"cebpf4jnsgd1na2vs0mg"},{"bike_id":"492a9ac7-a39d-4cd3-9056-f6cf90589def","system_id":"levelo_inurba_marseille","lat":43.304278,"lon":5.388868,"is_reserved":false,"is_disabled":false,"rental_uris":{"android":"levelo://app?vid=492a9ac7-a39d-4cd3-9056-f6cf90589def","ios":"levelo://app?vid=492a9ac7-a39d-4cd3-9056-f6cf90589def"},"vehicle_type_id":"4","last_reported":1719007666,"current_range_meters":21200,"station_id":"ce4bgk12rcd13ifvqbi0","pricing_plan_id":"cebpf4jnsgd1na2vs0mg"},{"bike_id":"d1c80aa9-0436-4320-a625-5bece189db63","system_id":"levelo_inurba_marseille","lat":43.304278,"lon":5.388868,"is_reserved":false,"is_disabled":false,"rental_uris":{"android":"levelo://app?vid=d1c80aa9-0436-4320-a625-5bece189db63","ios":"levelo://app?vid=d1c80aa9-0436-4320-a625-5bece189db63"},"vehicle_type_id":"4","last_reported":1719007666,"current_range_meters":5200,"station_id":"ce4bgk12rcd13ifvqbi0","pricing_plan_id":"cebpf4jnsgd1na2vs0mg"},{"bike_id":"8f9adafd-5262-4fbf-a65c-4cb1d3985624","system_id":"levelo_inurba_marseille","lat":43.304274,"lon":5.388873,"is_reserved":false,"is_disabled":false,"rental_uris":{"android":"levelo://app?vid=8f9adafd-5262-4fbf-a65c-4cb1d3985624","ios":"levelo://app?vid=8f9adafd-5262-4fbf-a65c-4cb1d3985624"},"vehicle_type_id":"4","last_reported":1719007666,"current_range_meters":20400,"station_id":"ce4bgk12rcd13ifvqbi0","pricing_plan_id":"cebpf4jnsgd1na2vs0mg"},{"bike_id":"f89d73c9-aeb2-4a98-afff-2f1a0e13f3c6","system_id":"levelo_inurba_marseille","lat":43.3217,"lon":5.3887,"is_reserved":false,"is_disabled":false,"rental_uris":{"android":"levelo://app?vid=f89d73c9-aeb2-4a98-afff-2f1a0e13f3c6","ios":"levelo://app?vid=f89d73c9-aeb2-4a98-afff-2f1a0e13f3c6"},"vehicle_type_id":"4","last_reported":1719007666,"current_range_meters":12000,"station_id":"","pricing_plan_id":"cebpf4jnsgd1na2vs0mg"},{"bike_id":"8c3c3af2-5220-403b-b420-89eb36f693ed","system_id":"levelo_inurba_marseille","lat":43.299707,"lon":5.384859,"is_reserved":false,"is_disabled":false,"rental_uris":{"android":"levelo://app?vid=8c3c3af2-5220-403b-b420-89eb36f693ed","ios":"levelo://app?vid=8c3c3af2-5220-403b-b420-89eb36f693ed"},"vehicle_type_id":"4","last_reported":1719007666,"current_range_meters":10400,"station_id":"ce4bgj92rcd13ifvqbd0","pricing_plan_id":"cebpf4jnsgd1na2vs0mg"},{"bike_id":"903e03fe-d798-4bfe-8b97-78b6bdd71b39","system_id":"levelo_inurba_marseille","lat":43.295279,"lon":5.375048,"is_reserved":false,"is_disabled":false,"rental_uris":{"android":"levelo://app?vid=903e03fe-d798-4bfe-8b97-78b6bdd71b39","ios":"levelo://app?vid=903e03fe-d798-4bfe-8b97-78b6bdd71b39"},"vehicle_type_id":"4","last_reported":1719007666,"current_range_meters":800,"station_id":"ce4bgkp2rcd13ifvqbmg","pricing_plan_id":"cebpf4jnsgd1na2vs0mg"},{"bike_id":"3311058c-0174-4444-98c0-9cb7bc9fa335","system_id":"levelo_inurba_marseille","lat":43.299707,"lon":5.384859,"is_reserved":false,"is_disabled":false,"rental_uris":{"android":"levelo://app?vid=3311058c-0174-4444-98c0-9cb7bc9fa335","ios":"levelo://app?vid=3311058c-0174-4444-98c0-9cb7bc9fa335"},"vehicle_type_id":"4","last_reported":1719007666,"current_range_meters":19600,"station_id":"ce4bgj92rcd13ifvqbd0","pricing_plan_id":"cebpf4jnsgd1na2vs0mg"},{"bike_id":"004a7cdb-4746-43cd-a305-a05207e33dd8","system_id":"levelo_inurba_marseille","lat":43.29605,"lon":5.380753,"is_reserved":false,"is_disabled":false,"rental_uris":{"android":"levelo://app?vid=004a7cdb-4746-43cd-a305-a05207e33dd8","ios":"levelo://app?vid=004a7cdb-4746-43cd-a305-a05207e33dd8"},"vehicle_type_id":"4","last_reported":1719007666,"current_range_meters":0,"station_id":"ce4bgl12rcd13ifvqbo0","pricing_plan_id":"cebpf4jnsgd1na2vs0mg"},{"bike_id":"b3ebb45e-c683-4630-93a4-9ed031e1f606","system_id":"levelo_inurba_marseille","lat":43.29601,"lon":5.381084,"is_reserved":false,"is_disabled":false,"rental_uris":{"android":"levelo://app?vid=b3ebb45e-c683-4630-93a4-9ed031e1f606","ios":"levelo://app?vid=b3ebb45e-c683-4630-93a4-9ed031e1f606"},"vehicle_type_id":"4","last_reported":1719007666,"current_range_meters":27600,"station_id":"ce4bgl12rcd13ifvqbo0","pricing_plan_id":"cebpf4jnsgd1na2vs0mg"},{"bike_id":"0b58df0a-6514-46a9-9b20-017d585fb168","system_id":"levelo_inurba_marseille","lat":43.29602,"lon":5.381084,"is_reserved":false,"is_disabled":false,"rental_uris":{"android":"levelo://app?vid=0b58df0a-6514-46a9-9b20-017d585fb168","ios":"levelo://app?vid=0b58df0a-6514-46a9-9b20-017d585fb168"},"vehicle_type_id":"4","last_reported":1719007666,"current_range_meters":9600,"station_id":"ce4bgl12rcd13ifvqbo0","pricing_plan_id":"cebpf4jnsgd1na2vs0mg"},{"bike_id":"c9443ceb-e8c0-496b-b949-84ebd05e2555","system_id":"levelo_inurba_marseille","lat":43.297467,"lon":5.3854,"is_reserved":false,"is_disabled":false,"rental_uris":{"android":"levelo://app?vid=c9443ceb-e8c0-496b-b949-84ebd05e2555","ios":"levelo://app?vid=c9443ceb-e8c0-496b-b949-84ebd05e2555"},"vehicle_type_id":"4","last_reported":1719007666,"current_range_meters":0,"station_id":"","pricing_plan_id":"cebpf4jnsgd1na2vs0mg"},{"bike_id":"a26b21fb-3991-43fc-9645-fb0343251e3e","system_id":"levelo_inurba_marseille","lat":43.293009,"lon":5.374584,"is_reserved":false,"is_disabled":false,"rental_uris":{"android":"levelo://app?vid=a26b21fb-3991-43fc-9645-fb0343251e3e","ios":"levelo://app?vid=a26b21fb-3991-43fc-9645-fb0343251e3e"},"vehicle_type_id":"4","last_reported":1719007666,"current_range_meters":4800,"station_id":"ce4bgi12rcd13ifvqb70","pricing_plan_id":"cebpf4jnsgd1na2vs0mg"},{"bike_id":"83446e42-10b3-4df9-8b02-fd1c13d60b98","system_id":"levelo_inurba_marseille","lat":43.293009,"lon":5.374584,"is_reserved":false,"is_disabled":false,"rental_uris":{"android":"levelo://app?vid=83446e42-10b3-4df9-8b02-fd1c13d60b98","ios":"levelo://app?vid=83446e42-10b3-4df9-8b02-fd1c13d60b98"},"vehicle_type_id":"4","last_reported":1719007666,"current_range_meters":18800,"station_id":"ce4bgi12rcd13ifvqb70","pricing_plan_id":"cebpf4jnsgd1na2vs0mg"},{"bike_id":"d30302ff-8c16-498c-83f4-e5137e38e488","system_id":"levelo_inurba_marseille","lat":43.293009,"lon":5.374584,"is_reserved":false,"is_disabled":false,"rental_uris":{"android":"levelo://app?vid=d30302ff-8c16-498c-83f4-e5137e38e488","ios":"levelo://app?vid=d30302ff-8c16-498c-83f4-e5137e38e488"},"vehicle_type_id":"4","last_reported":1719007666,"current_range_meters":3600,"station_id":"ce4bgi12rcd13ifvqb70","pricing_plan_id":"cebpf4jnsgd1na2vs0mg"},{"bike_id":"9d7fb238-5616-407d-b216-03fe277670dd","system_id":"levelo_inurba_marseille","lat":43.305994,"lon":5.393687,"is_reserved":false,"is_disabled":false,"rental_uris":{"android":"levelo://app?vid=9d7fb238-5616-407d-b216-03fe277670dd","ios":"levelo://app?vid=9d7fb238-5616-407d-b216-03fe277670dd"},"vehicle_type_id":"4","last_reported":1719007666,"current_range_meters":18000,"station_id":"ce4bh0p2rcd13ifvqd80","pricing_plan_id":"cebpf4jnsgd1na2vs0mg"},{"bike_id":"fa4e2164-d3fb-4732-b1a8-cad17a5265df","system_id":"levelo_inurba_marseille","lat":43.305994,"lon":5.393687,"is_reserved":false,"is_disabled":false,"rental_uris":{"android":"levelo://app?vid=fa4e2164-d3fb-4732-b1a8-cad17a5265df","ios":"levelo://app?vid=fa4e2164-d3fb-4732-b1a8-cad17a5265df"},"vehicle_type_id":"4","last_reported":1719007666,"current_range_meters":26000,"station_id":"ce4bh0p2rcd13ifvqd80","pricing_plan_id":"cebpf4jnsgd1na2vs0mg"},{"bike_id":"436ef80b-47b3-419a-a166-d73a780ace16","system_id":"levelo_inurba_marseille","lat":43.303002,"lon":5.392142,"is_reserved":false,"is_disabled":false,"rental_uris":{"android":"levelo://app?vid=436ef80b-47b3-419a-a166-d73a780ace16","ios":"levelo://app?vid=436ef80b-47b3-419a-a166-d73a780ace16"},"vehicle_type_id":"4","last_reported":1719007666,"current_range_meters":17200,"station_id":"ce4bgkh2rcd13ifvqbk0","pricing_plan_id":"cebpf4jnsgd1na2vs0mg"},{"bike_id":"e882348e-b007-47a1-804b-e338b17284f5","system_id":"levelo_inurba_marseille","lat":43.2921,"lon":5.36291,"is_reserved":false,"is_disabled":false,"rental_uris":{"android":"levelo://app?vid=e882348e-b007-47a1-804b-e338b17284f5","ios":"levelo://app?vid=e882348e-b007-47a1-804b-e338b17284f5"},"vehicle_type_id":"4","last_reported":1719007666,"current_range_meters":0,"station_id":"","pricing_plan_id":"cebpf4jnsgd1na2vs0mg"},{"bike_id":"c99447a2-4c43-4665-bbd3-5086c8263eec","system_id":"levelo_inurba_marseille","lat":43.313291,"lon":5.396838,"is_reserved":false,"is_disabled":false,"rental_uris":{"android":"levelo://app?vid=c99447a2-4c43-4665-bbd3-5086c8263eec","ios":"levelo://app?vid=c99447a2-4c43-4665-bbd3-5086c8263eec"},"vehicle_type_id":"4","last_reported":1719007666,"current_range_meters":25600,"station_id":"ce4bgvp2rcd13ifvqcu0","pricing_plan_id":"cebpf4jnsgd1na2vs0mg"},{"bike_id":"669785c9-d400-4402-8ca0-f6e58939f1bb","system_id":"levelo_inurba_marseille","lat":43.298764,"lon":5.388973,"is_reserved":false,"is_disabled":false,"rental_uris":{"android":"levelo://app?vid=669785c9-d400-4402-8ca0-f6e58939f1bb","ios":"levelo://app?vid=669785c9-d400-4402-8ca0-f6e58939f1bb"},"vehicle_type_id":"4","last_reported":1719007666,"current_range_meters":3200,"station_id":"ce4bh392rcd13ifvqdl0","pricing_plan_id":"cebpf4jnsgd1na2vs0mg"},{"bike_id":"0683e916-b238-47cc-9da9-513e2383ae76","system_id":"levelo_inurba_marseille","lat":43.291675,"lon":5.371583,"is_reserved":false,"is_disabled":false,"rental_uris":{"android":"levelo://app?vid=0683e916-b238-47cc-9da9-513e2383ae76","ios":"levelo://app?vid=0683e916-b238-47cc-9da9-513e2383ae76"},"vehicle_type_id":"4","last_reported":1719007666,"current_range_meters":18000,"station_id":"ce4bha92rcd13ifvqeh0","pricing_plan_id":"cebpf4jnsgd1na2vs0mg"},{"bike_id":"d34b6682-bae1-4430-aae0-38b0cc73c587","system_id":"levelo_inurba_marseille","lat":43.292005,"lon":5.357875,"is_reserved":false,"is_disabled":false,"rental_uris":{"android":"levelo://app?vid=d34b6682-bae1-4430-aae0-38b0cc73c587","ios":"levelo://app?vid=d34b6682-bae1-4430-aae0-38b0cc73c587"},"vehicle_type_id":"4","last_reported":1719007666,"current_range_meters":15600,"station_id":"ce4bhb12rcd13ifvqel0","pricing_plan_id":"cebpf4jnsgd1na2vs0mg"},{"bike_id":"e12cb9fb-861e-4c10-ac0e-52b97c2c1519","system_id":"levelo_inurba_marseille","lat":43.29559,"lon":5.38539,"is_reserved":false,"is_disabled":false,"rental_uris":{"android":"levelo://app?vid=e12cb9fb-861e-4c10-ac0e-52b97c2c1519","ios":"levelo://app?vid=e12cb9fb-861e-4c10-ac0e-52b97c2c1519"},"vehicle_type_id":"4","last_reported":1719007666,"current_range_meters":3600,"station_id":"ce4bgih2rcd13ifvqba0","pricing_plan_id":"cebpf4jnsgd1na2vs0mg"},{"bike_id":"21597c86-9338-4b15-ba40-3931d4b73a72","system_id":"levelo_inurba_marseille","lat":43.313291,"lon":5.396838,"is_reserved":false,"is_disabled":false,"rental_uris":{"android":"levelo://app?vid=21597c86-9338-4b15-ba40-3931d4b73a72","ios":"levelo://app?vid=21597c86-9338-4b15-ba40-3931d4b73a72"},"vehicle_type_id":"4","last_reported":1719007666,"current_range_meters":6400,"station_id":"ce4bgvp2rcd13ifvqcu0","pricing_plan_id":"cebpf4jnsgd1na2vs0mg"},{"bike_id":"27c97553-1a9c-4d71-9118-79a710f65090","system_id":"levelo_inurba_marseille","lat":43.313291,"lon":5.396838,"is_reserved":false,"is_disabled":false,"rental_uris":{"android":"levelo://app?vid=27c97553-1a9c-4d71-9118-79a710f65090","ios":"levelo://app?vid=27c97553-1a9c-4d71-9118-79a710f65090"},"vehicle_type_id":"4","last_reported":1719007666,"current_range_meters":6000,"station_id":"ce4bgvp2rcd13ifvqcu0","pricing_plan_id":"cebpf4jnsgd1na2vs0mg"},{"bike_id":"0ab8bef5-1220-42ca-902d-daf800421318","system_id":"levelo_inurba_marseille","lat":43.313291,"lon":5.396838,"is_reserved":false,"is_disabled":false,"rental_uris":{"android":"levelo://app?vid=0ab8bef5-1220-42ca-902d-daf800421318","ios":"levelo://app?vid=0ab8bef5-1220-42ca-902d-daf800421318"},"vehicle_type_id":"4","last_reported":1719007666,"current_range_meters":800,"station_id":"ce4bgvp2rcd13ifvqcu0","pricing_plan_id":"cebpf4jnsgd1na2vs0mg"},{"bike_id":"e3f91b0b-8595-46a6-b934-61aeb1c702bd","system_id":"levelo_inurba_marseille","lat":43.313291,"lon":5.396838,"is_reserved":false,"is_disabled":false,"rental_uris":{"android":"levelo://app?vid=e3f91b0b-8595-46a6-b934-61aeb1c702bd","ios":"levelo://app?vid=e3f91b0b-8595-46a6-b934-61aeb1c702bd"},"vehicle_type_id":"4","last_reported":1719007666,"current_range_meters":8400,"station_id":"ce4bgvp2rcd13ifvqcu0","pricing_plan_id":"cebpf4jnsgd1na2vs0mg"},{"bike_id":"858e4dc3-ac5c-418f-8dfc-ebfd90349095","system_id":"levelo_inurba_marseille","lat":43.309038,"lon":5.396546,"is_reserved":false,"is_disabled":false,"rental_uris":{"android":"levelo://app?vid=858e4dc3-ac5c-418f-8dfc-ebfd90349095","ios":"levelo://app?vid=858e4dc3-ac5c-418f-8dfc-ebfd90349095"},"vehicle_type_id":"4","last_reported":1719007666,"current_range_meters":16800,"station_id":"ce4bh012rcd13ifvqcv0","pricing_plan_id":"cebpf4jnsgd1na2vs0mg"},{"bike_id":"261c4022-fd9d-4fad-aaf8-e656fd7d1280","system_id":"levelo_inurba_marseille","lat":43.309038,"lon":5.396546,"is_reserved":false,"is_disabled":false,"rental_uris":{"android":"levelo://app?vid=261c4022-fd9d-4fad-aaf8-e656fd7d1280","ios":"levelo://app?vid=261c4022-fd9d-4fad-aaf8-e656fd7d1280"},"vehicle_type_id":"4","last_reported":1719007666,"current_range_meters":21200,"station_id":"ce4bh012rcd13ifvqcv0","pricing_plan_id":"cebpf4jnsgd1na2vs0mg"},{"bike_id":"302c9320-ff4e-4a88-806c-ad457cb207f6","system_id":"levelo_inurba_marseille","lat":43.309047,"lon":5.396551,"is_reserved":false,"is_disabled":false,"rental_uris":{"android":"levelo://app?vid=302c9320-ff4e-4a88-806c-ad457cb207f6","ios":"levelo://app?vid=302c9320-ff4e-4a88-806c-ad457cb207f6"},"vehicle_type_id":"4","last_reported":1719007666,"current_range_meters":24800,"station_id":"ce4bh012rcd13ifvqcv0","pricing_plan_id":"cebpf4jnsgd1na2vs0mg"},{"bike_id":"efc63501-dc92-4051-a49d-3f30561c49d9","system_id":"levelo_inurba_marseille","lat":43.309038,"lon":5.396546,"is_reserved":false,"is_disabled":false,"rental_uris":{"android":"levelo://app?vid=efc63501-dc92-4051-a49d-3f30561c49d9","ios":"levelo://app?vid=efc63501-dc92-4051-a49d-3f30561c49d9"},"vehicle_type_id":"4","last_reported":1719007666,"current_range_meters":28000,"station_id":"ce4bh012rcd13ifvqcv0","pricing_plan_id":"cebpf4jnsgd1na2vs0mg"},{"bike_id":"f071d55a-bc14-4651-95a5-e442ab234eba","system_id":"levelo_inurba_marseille","lat":43.309038,"lon":5.396546,"is_reserved":false,"is_disabled":false,"rental_uris":{"android":"levelo://app?vid=f071d55a-bc14-4651-95a5-e442ab234eba","ios":"levelo://app?vid=f071d55a-bc14-4651-95a5-e442ab234eba"},"vehicle_type_id":"4","last_reported":1719007666,"current_range_meters":10800,"station_id":"ce4bh012rcd13ifvqcv0","pricing_plan_id":"cebpf4jnsgd1na2vs0mg"},{"bike_id":"1e0fa57d-b3e0-405d-aacf-3962cdbf2f61","system_id":"levelo_inurba_marseille","lat":43.309038,"lon":5.396546,"is_reserved":false,"is_disabled":false,"rental_uris":{"android":"levelo://app?vid=1e0fa57d-b3e0-405d-aacf-3962cdbf2f61","ios":"levelo://app?vid=1e0fa57d-b3e0-405d-aacf-3962cdbf2f61"},"vehicle_type_id":"4","last_reported":1719007666,"current_range_meters":20000,"station_id":"ce4bh012rcd13ifvqcv0","pricing_plan_id":"cebpf4jnsgd1na2vs0mg"},{"bike_id":"f31166cc-7f0c-42dc-95b7-eb04bdd5a651","system_id":"levelo_inurba_marseille","lat":43.309038,"lon":5.396546,"is_reserved":false,"is_disabled":false,"rental_uris":{"android":"levelo://app?vid=f31166cc-7f0c-42dc-95b7-eb04bdd5a651","ios":"levelo://app?vid=f31166cc-7f0c-42dc-95b7-eb04bdd5a651"},"vehicle_type_id":"4","last_reported":1719007666,"current_range_meters":14000,"station_id":"ce4bh012rcd13ifvqcv0","pricing_plan_id":"cebpf4jnsgd1na2vs0mg"},{"bike_id":"a4a8032d-9fd1-43c4-8045-06c9968d4537","system_id":"levelo_inurba_marseille","lat":43.309038,"lon":5.396546,"is_reserved":false,"is_disabled":false,"rental_uris":{"android":"levelo://app?vid=a4a8032d-9fd1-43c4-8045-06c9968d4537","ios":"levelo://app?vid=a4a8032d-9fd1-43c4-8045-06c9968d4537"},"vehicle_type_id":"4","last_reported":1719007666,"current_range_meters":24400,"station_id":"ce4bh012rcd13ifvqcv0","pricing_plan_id":"cebpf4jnsgd1na2vs0mg"},{"bike_id":"69543cc3-bbfd-4cfa-97a5-e7c8b7a7e74d","system_id":"levelo_inurba_marseille","lat":43.309038,"lon":5.396546,"is_reserved":false,"is_disabled":false,"rental_uris":{"android":"levelo://app?vid=69543cc3-bbfd-4cfa-97a5-e7c8b7a7e74d","ios":"levelo://app?vid=69543cc3-bbfd-4cfa-97a5-e7c8b7a7e74d"},"vehicle_type_id":"4","last_reported":1719007666,"current_range_meters":6800,"station_id":"ce4bh012rcd13ifvqcv0","pricing_plan_id":"cebpf4jnsgd1na2vs0mg"},{"bike_id":"390ba22c-70c1-4c7c-a85d-c3c5a164f854","system_id":"levelo_inurba_marseille","lat":43.29527,"lon":5.38539,"is_reserved":false,"is_disabled":false,"rental_uris":{"android":"levelo://app?vid=390ba22c-70c1-4c7c-a85d-c3c5a164f854","ios":"levelo://app?vid=390ba22c-70c1-4c7c-a85d-c3c5a164f854"},"vehicle_type_id":"4","last_reported":1719007666,"current_range_meters":20800,"station_id":"ce4bgih2rcd13ifvqba0","pricing_plan_id":"cebpf4jnsgd1na2vs0mg"},{"bike_id":"1630f77b-b123-4348-a12d-a5ed1a470ec5","system_id":"levelo_inurba_marseille","lat":43.29529,"lon":5.385581,"is_reserved":false,"is_disabled":false,"rental_uris":{"android":"levelo://app?vid=1630f77b-b123-4348-a12d-a5ed1a470ec5","ios":"levelo://app?vid=1630f77b-b123-4348-a12d-a5ed1a470ec5"},"vehicle_type_id":"4","last_reported":1719007666,"current_range_meters":31600,"station_id":"ce4bgih2rcd13ifvqba0","pricing_plan_id":"cebpf4jnsgd1na2vs0mg"},{"bike_id":"ceac59e3-c9b1-45ae-b146-e5300d131abd","system_id":"levelo_inurba_marseille","lat":43.29529,"lon":5.385581,"is_reserved":false,"is_disabled":false,"rental_uris":{"android":"levelo://app?vid=ceac59e3-c9b1-45ae-b146-e5300d131abd","ios":"levelo://app?vid=ceac59e3-c9b1-45ae-b146-e5300d131abd"},"vehicle_type_id":"4","last_reported":1719007666,"current_range_meters":0,"station_id":"ce4bgih2rcd13ifvqba0","pricing_plan_id":"cebpf4jnsgd1na2vs0mg"},{"bike_id":"98ad28f4-67f9-4e73-b93f-fc4137af5f75","system_id":"levelo_inurba_marseille","lat":43.290779,"lon":5.371482,"is_reserved":false,"is_disabled":false,"rental_uris":{"android":"levelo://app?vid=98ad28f4-67f9-4e73-b93f-fc4137af5f75","ios":"levelo://app?vid=98ad28f4-67f9-4e73-b93f-fc4137af5f75"},"vehicle_type_id":"4","last_reported":1719007666,"current_range_meters":12400,"station_id":"ce4bh5p2rcd13ifvqe4g","pricing_plan_id":"cebpf4jnsgd1na2vs0mg"},{"bike_id":"4b2eb72f-cb6e-4d6d-8181-52a20d9b62a3","system_id":"levelo_inurba_marseille","lat":43.290779,"lon":5.371482,"is_reserved":false,"is_disabled":false,"rental_uris":{"android":"levelo://app?vid=4b2eb72f-cb6e-4d6d-8181-52a20d9b62a3","ios":"levelo://app?vid=4b2eb72f-cb6e-4d6d-8181-52a20d9b62a3"},"vehicle_type_id":"4","last_reported":1719007666,"current_range_meters":0,"station_id":"ce4bh5p2rcd13ifvqe4g","pricing_plan_id":"cebpf4jnsgd1na2vs0mg"},{"bike_id":"6f9802f1-c519-4584-8711-201403f51643","system_id":"levelo_inurba_marseille","lat":43.290779,"lon":5.371482,"is_reserved":false,"is_disabled":false,"rental_uris":{"android":"levelo://app?vid=6f9802f1-c519-4584-8711-201403f51643","ios":"levelo://app?vid=6f9802f1-c519-4584-8711-201403f51643"},"vehicle_type_id":"4","last_reported":1719007666,"current_range_meters":0,"station_id":"ce4bh5p2rcd13ifvqe4g","pricing_plan_id":"cebpf4jnsgd1na2vs0mg"},{"bike_id":"4c4a0d6f-ddb2-4c42-a5da-dd09480d9c3a","system_id":"levelo_inurba_marseille","lat":43.302008,"lon":5.394694,"is_reserved":false,"is_disabled":false,"rental_uris":{"android":"levelo://app?vid=4c4a0d6f-ddb2-4c42-a5da-dd09480d9c3a","ios":"levelo://app?vid=4c4a0d6f-ddb2-4c42-a5da-dd09480d9c3a"},"vehicle_type_id":"4","last_reported":1719007666,"current_range_meters":17200,"station_id":"ce4bh0p2rcd13ifvqd70","pricing_plan_id":"cebpf4jnsgd1na2vs0mg"},{"bike_id":"d361ac5a-c60b-4477-a3d8-8e2b26578312","system_id":"levelo_inurba_marseille","lat":43.29422,"lon":5.38626,"is_reserved":false,"is_disabled":false,"rental_uris":{"android":"levelo://app?vid=d361ac5a-c60b-4477-a3d8-8e2b26578312","ios":"levelo://app?vid=d361ac5a-c60b-4477-a3d8-8e2b26578312"},"vehicle_type_id":"4","last_reported":1719007666,"current_range_meters":25600,"station_id":"ce4bh2h2rcd13ifvqdh0","pricing_plan_id":"cebpf4jnsgd1na2vs0mg"},{"bike_id":"517d4c14-2b72-4f34-8a29-4ad826b5d25b","system_id":"levelo_inurba_marseille","lat":43.29414,"lon":5.38615,"is_reserved":false,"is_disabled":false,"rental_uris":{"android":"levelo://app?vid=517d4c14-2b72-4f34-8a29-4ad826b5d25b","ios":"levelo://app?vid=517d4c14-2b72-4f34-8a29-4ad826b5d25b"},"vehicle_type_id":"4","last_reported":1719007666,"current_range_meters":0,"station_id":"ce4bh2h2rcd13ifvqdh0","pricing_plan_id":"cebpf4jnsgd1na2vs0mg"},{"bike_id":"d8747148-80e4-478a-bf39-fb4833c973cb","system_id":"levelo_inurba_marseille","lat":43.29413,"lon":5.38615,"is_reserved":false,"is_disabled":false,"rental_uris":{"android":"levelo://app?vid=d8747148-80e4-478a-bf39-fb4833c973cb","ios":"levelo://app?vid=d8747148-80e4-478a-bf39-fb4833c973cb"},"vehicle_type_id":"4","last_reported":1719007666,"current_range_meters":2000,"station_id":"ce4bh2h2rcd13ifvqdh0","pricing_plan_id":"cebpf4jnsgd1na2vs0mg"},{"bike_id":"e9c214bd-25cf-41e7-aa9e-592a2d460c70","system_id":"levelo_inurba_marseille","lat":43.29413,"lon":5.38619,"is_reserved":false,"is_disabled":false,"rental_uris":{"android":"levelo://app?vid=e9c214bd-25cf-41e7-aa9e-592a2d460c70","ios":"levelo://app?vid=e9c214bd-25cf-41e7-aa9e-592a2d460c70"},"vehicle_type_id":"4","last_reported":1719007666,"current_range_meters":17200,"station_id":"ce4bh2h2rcd13ifvqdh0","pricing_plan_id":"cebpf4jnsgd1na2vs0mg"},{"bike_id":"0bc22cea-a0c4-492a-a2d5-2de842639f95","system_id":"levelo_inurba_marseille","lat":43.29415,"lon":5.38623,"is_reserved":false,"is_disabled":false,"rental_uris":{"android":"levelo://app?vid=0bc22cea-a0c4-492a-a2d5-2de842639f95","ios":"levelo://app?vid=0bc22cea-a0c4-492a-a2d5-2de842639f95"},"vehicle_type_id":"4","last_reported":1719007666,"current_range_meters":0,"station_id":"ce4bh2h2rcd13ifvqdh0","pricing_plan_id":"cebpf4jnsgd1na2vs0mg"},{"bike_id":"90c1dd36-8878-4e42-bd2d-0c64490be390","system_id":"levelo_inurba_marseille","lat":43.294153,"lon":5.386305,"is_reserved":false,"is_disabled":false,"rental_uris":{"android":"levelo://app?vid=90c1dd36-8878-4e42-bd2d-0c64490be390","ios":"levelo://app?vid=90c1dd36-8878-4e42-bd2d-0c64490be390"},"vehicle_type_id":"4","last_reported":1719007666,"current_range_meters":0,"station_id":"ce4bh2h2rcd13ifvqdh0","pricing_plan_id":"cebpf4jnsgd1na2vs0mg"},{"bike_id":"1dd52819-3853-4c45-bd3e-40cb81e92539","system_id":"levelo_inurba_marseille","lat":43.29413,"lon":5.38622,"is_reserved":false,"is_disabled":false,"rental_uris":{"android":"levelo://app?vid=1dd52819-3853-4c45-bd3e-40cb81e92539","ios":"levelo://app?vid=1dd52819-3853-4c45-bd3e-40cb81e92539"},"vehicle_type_id":"4","last_reported":1719007666,"current_range_meters":3200,"station_id":"ce4bh2h2rcd13ifvqdh0","pricing_plan_id":"cebpf4jnsgd1na2vs0mg"},{"bike_id":"557e1b0a-e8e0-4913-a8d1-27122ba8bbc3","system_id":"levelo_inurba_marseille","lat":43.29416,"lon":5.38629,"is_reserved":false,"is_disabled":false,"rental_uris":{"android":"levelo://app?vid=557e1b0a-e8e0-4913-a8d1-27122ba8bbc3","ios":"levelo://app?vid=557e1b0a-e8e0-4913-a8d1-27122ba8bbc3"},"vehicle_type_id":"4","last_reported":1719007666,"current_range_meters":6000,"station_id":"ce4bh2h2rcd13ifvqdh0","pricing_plan_id":"cebpf4jnsgd1na2vs0mg"},{"bike_id":"1c048c9f-9eb0-42c2-a5ac-bde34891858b","system_id":"levelo_inurba_marseille","lat":43.29413,"lon":5.38627,"is_reserved":false,"is_disabled":false,"rental_uris":{"android":"levelo://app?vid=1c048c9f-9eb0-42c2-a5ac-bde34891858b","ios":"levelo://app?vid=1c048c9f-9eb0-42c2-a5ac-bde34891858b"},"vehicle_type_id":"4","last_reported":1719007666,"current_range_meters":31200,"station_id":"ce4bh2h2rcd13ifvqdh0","pricing_plan_id":"cebpf4jnsgd1na2vs0mg"},{"bike_id":"2df616d2-a6d3-40bb-90a6-a9c63d2b51a3","system_id":"levelo_inurba_marseille","lat":43.29414,"lon":5.38629,"is_reserved":false,"is_disabled":false,"rental_uris":{"android":"levelo://app?vid=2df616d2-a6d3-40bb-90a6-a9c63d2b51a3","ios":"levelo://app?vid=2df616d2-a6d3-40bb-90a6-a9c63d2b51a3"},"vehicle_type_id":"4","last_reported":1719007666,"current_range_meters":31200,"station_id":"ce4bh2h2rcd13ifvqdh0","pricing_plan_id":"cebpf4jnsgd1na2vs0mg"},{"bike_id":"8c5d5c85-f8c1-41f2-992f-29b9709d2105","system_id":"levelo_inurba_marseille","lat":43.29414,"lon":5.38629,"is_reserved":false,"is_disabled":false,"rental_uris":{"android":"levelo://app?vid=8c5d5c85-f8c1-41f2-992f-29b9709d2105","ios":"levelo://app?vid=8c5d5c85-f8c1-41f2-992f-29b9709d2105"},"vehicle_type_id":"4","last_reported":1719007666,"current_range_meters":16800,"station_id":"ce4bh2h2rcd13ifvqdh0","pricing_plan_id":"cebpf4jnsgd1na2vs0mg"},{"bike_id":"a2addaad-0d4d-4592-9a23-9f4ee093f006","system_id":"levelo_inurba_marseille","lat":43.29409,"lon":5.3862,"is_reserved":false,"is_disabled":false,"rental_uris":{"android":"levelo://app?vid=a2addaad-0d4d-4592-9a23-9f4ee093f006","ios":"levelo://app?vid=a2addaad-0d4d-4592-9a23-9f4ee093f006"},"vehicle_type_id":"4","last_reported":1719007666,"current_range_meters":7600,"station_id":"ce4bh2h2rcd13ifvqdh0","pricing_plan_id":"cebpf4jnsgd1na2vs0mg"},{"bike_id":"496000dc-bf42-409f-a40f-878401ce04a6","system_id":"levelo_inurba_marseille","lat":43.289184,"lon":5.366408,"is_reserved":false,"is_disabled":false,"rental_uris":{"android":"levelo://app?vid=496000dc-bf42-409f-a40f-878401ce04a6","ios":"levelo://app?vid=496000dc-bf42-409f-a40f-878401ce04a6"},"vehicle_type_id":"4","last_reported":1719007666,"current_range_meters":13200,"station_id":"ce4bhap2rcd13ifvqek0","pricing_plan_id":"cebpf4jnsgd1na2vs0mg"},{"bike_id":"d2a3df0f-acad-4032-8d86-37c7c567d3ed","system_id":"levelo_inurba_marseille","lat":43.29414,"lon":5.38631,"is_reserved":false,"is_disabled":false,"rental_uris":{"android":"levelo://app?vid=d2a3df0f-acad-4032-8d86-37c7c567d3ed","ios":"levelo://app?vid=d2a3df0f-acad-4032-8d86-37c7c567d3ed"},"vehicle_type_id":"4","last_reported":1719007666,"current_range_meters":8800,"station_id":"ce4bh2h2rcd13ifvqdh0","pricing_plan_id":"cebpf4jnsgd1na2vs0mg"},{"bike_id":"e0fd70f2-576b-416b-87a4-09897c79f30e","system_id":"levelo_inurba_marseille","lat":43.29408,"lon":5.38621,"is_reserved":false,"is_disabled":false,"rental_uris":{"android":"levelo://app?vid=e0fd70f2-576b-416b-87a4-09897c79f30e","ios":"levelo://app?vid=e0fd70f2-576b-416b-87a4-09897c79f30e"},"vehicle_type_id":"4","last_reported":1719007666,"current_range_meters":25600,"station_id":"ce4bh2h2rcd13ifvqdh0","pricing_plan_id":"cebpf4jnsgd1na2vs0mg"},{"bike_id":"79614bfa-d7ca-4085-836c-d068cd7f62b6","system_id":"levelo_inurba_marseille","lat":43.29415,"lon":5.38635,"is_reserved":false,"is_disabled":false,"rental_uris":{"android":"levelo://app?vid=79614bfa-d7ca-4085-836c-d068cd7f62b6","ios":"levelo://app?vid=79614bfa-d7ca-4085-836c-d068cd7f62b6"},"vehicle_type_id":"4","last_reported":1719007666,"current_range_meters":17200,"station_id":"ce4bh2h2rcd13ifvqdh0","pricing_plan_id":"cebpf4jnsgd1na2vs0mg"},{"bike_id":"d8b91ae8-d2d3-4047-b7b8-19a1a6a49be6","system_id":"levelo_inurba_marseille","lat":43.29413,"lon":5.38633,"is_reserved":false,"is_disabled":false,"rental_uris":{"android":"levelo://app?vid=d8b91ae8-d2d3-4047-b7b8-19a1a6a49be6","ios":"levelo://app?vid=d8b91ae8-d2d3-4047-b7b8-19a1a6a49be6"},"vehicle_type_id":"4","last_reported":1719007666,"current_range_meters":13600,"station_id":"ce4bh2h2rcd13ifvqdh0","pricing_plan_id":"cebpf4jnsgd1na2vs0mg"},{"bike_id":"2dd21fd1-2104-4ff1-bf4e-c73857d89132","system_id":"levelo_inurba_marseille","lat":43.28938,"lon":5.3663,"is_reserved":false,"is_disabled":false,"rental_uris":{"android":"levelo://app?vid=2dd21fd1-2104-4ff1-bf4e-c73857d89132","ios":"levelo://app?vid=2dd21fd1-2104-4ff1-bf4e-c73857d89132"},"vehicle_type_id":"4","last_reported":1719007666,"current_range_meters":0,"station_id":"ce4bhap2rcd13ifvqek0","pricing_plan_id":"cebpf4jnsgd1na2vs0mg"},{"bike_id":"42b981d7-927f-4379-b4ee-1fb780b58734","system_id":"levelo_inurba_marseille","lat":43.29407,"lon":5.38631,"is_reserved":false,"is_disabled":false,"rental_uris":{"android":"levelo://app?vid=42b981d7-927f-4379-b4ee-1fb780b58734","ios":"levelo://app?vid=42b981d7-927f-4379-b4ee-1fb780b58734"},"vehicle_type_id":"4","last_reported":1719007666,"current_range_meters":0,"station_id":"ce4bh2h2rcd13ifvqdh0","pricing_plan_id":"cebpf4jnsgd1na2vs0mg"},{"bike_id":"fcb11bb9-35db-4cc5-8935-7ba41a563989","system_id":"levelo_inurba_marseille","lat":43.29413,"lon":5.38642,"is_reserved":false,"is_disabled":false,"rental_uris":{"android":"levelo://app?vid=fcb11bb9-35db-4cc5-8935-7ba41a563989","ios":"levelo://app?vid=fcb11bb9-35db-4cc5-8935-7ba41a563989"},"vehicle_type_id":"4","last_reported":1719007666,"current_range_meters":19200,"station_id":"ce4bh2h2rcd13ifvqdh0","pricing_plan_id":"cebpf4jnsgd1na2vs0mg"},{"bike_id":"b656a356-fc4b-4c1e-81c3-4ebebc7344c3","system_id":"levelo_inurba_marseille","lat":43.29404,"lon":5.38627,"is_reserved":false,"is_disabled":false,"rental_uris":{"android":"levelo://app?vid=b656a356-fc4b-4c1e-81c3-4ebebc7344c3","ios":"levelo://app?vid=b656a356-fc4b-4c1e-81c3-4ebebc7344c3"},"vehicle_type_id":"4","last_reported":1719007666,"current_range_meters":0,"station_id":"ce4bh2h2rcd13ifvqdh0","pricing_plan_id":"cebpf4jnsgd1na2vs0mg"},{"bike_id":"6ff3ffe6-2449-4804-b650-6c423242affc","system_id":"levelo_inurba_marseille","lat":43.289184,"lon":5.366408,"is_reserved":false,"is_disabled":false,"rental_uris":{"android":"levelo://app?vid=6ff3ffe6-2449-4804-b650-6c423242affc","ios":"levelo://app?vid=6ff3ffe6-2449-4804-b650-6c423242affc"},"vehicle_type_id":"4","last_reported":1719007666,"current_range_meters":24400,"station_id":"ce4bhap2rcd13ifvqek0","pricing_plan_id":"cebpf4jnsgd1na2vs0mg"},{"bike_id":"a03600bf-0c32-49f3-8494-c2da512be022","system_id":"levelo_inurba_marseille","lat":43.28931,"lon":5.36637,"is_reserved":false,"is_disabled":false,"rental_uris":{"android":"levelo://app?vid=a03600bf-0c32-49f3-8494-c2da512be022","ios":"levelo://app?vid=a03600bf-0c32-49f3-8494-c2da512be022"},"vehicle_type_id":"4","last_reported":1719007666,"current_range_meters":0,"station_id":"ce4bhap2rcd13ifvqek0","pricing_plan_id":"cebpf4jnsgd1na2vs0mg"},{"bike_id":"d382f3bd-ca15-4d03-83e8-d3241ffe6c30","system_id":"levelo_inurba_marseille","lat":43.29269,"lon":5.38436,"is_reserved":false,"is_disabled":false,"rental_uris":{"android":"levelo://app?vid=d382f3bd-ca15-4d03-83e8-d3241ffe6c30","ios":"levelo://app?vid=d382f3bd-ca15-4d03-83e8-d3241ffe6c30"},"vehicle_type_id":"4","last_reported":1719007666,"current_range_meters":21200,"station_id":"ce4bh692rcd13ifvqea0","pricing_plan_id":"cebpf4jnsgd1na2vs0mg"},{"bike_id":"a527abac-2e6d-4190-968c-3516248c8f20","system_id":"levelo_inurba_marseille","lat":43.29267,"lon":5.38438,"is_reserved":false,"is_disabled":false,"rental_uris":{"android":"levelo://app?vid=a527abac-2e6d-4190-968c-3516248c8f20","ios":"levelo://app?vid=a527abac-2e6d-4190-968c-3516248c8f20"},"vehicle_type_id":"4","last_reported":1719007666,"current_range_meters":31600,"station_id":"ce4bh692rcd13ifvqea0","pricing_plan_id":"cebpf4jnsgd1na2vs0mg"},{"bike_id":"9a0e23b8-8e85-4409-be31-34497de02484","system_id":"levelo_inurba_marseille","lat":43.292642,"lon":5.384254,"is_reserved":false,"is_disabled":false,"rental_uris":{"android":"levelo://app?vid=9a0e23b8-8e85-4409-be31-34497de02484","ios":"levelo://app?vid=9a0e23b8-8e85-4409-be31-34497de02484"},"vehicle_type_id":"4","last_reported":1719007666,"current_range_meters":23200,"station_id":"ce4bh692rcd13ifvqea0","pricing_plan_id":"cebpf4jnsgd1na2vs0mg"},{"bike_id":"9d1709b2-5d97-4d33-82d7-016964446476","system_id":"levelo_inurba_marseille","lat":43.29261,"lon":5.38438,"is_reserved":false,"is_disabled":false,"rental_uris":{"android":"levelo://app?vid=9d1709b2-5d97-4d33-82d7-016964446476","ios":"levelo://app?vid=9d1709b2-5d97-4d33-82d7-016964446476"},"vehicle_type_id":"4","last_reported":1719007666,"current_range_meters":31200,"station_id":"ce4bh692rcd13ifvqea0","pricing_plan_id":"cebpf4jnsgd1na2vs0mg"},{"bike_id":"c786e481-bca2-4247-bb59-27b68dae24c9","system_id":"levelo_inurba_marseille","lat":43.29262,"lon":5.38441,"is_reserved":false,"is_disabled":false,"rental_uris":{"android":"levelo://app?vid=c786e481-bca2-4247-bb59-27b68dae24c9","ios":"levelo://app?vid=c786e481-bca2-4247-bb59-27b68dae24c9"},"vehicle_type_id":"4","last_reported":1719007666,"current_range_meters":0,"station_id":"ce4bh692rcd13ifvqea0","pricing_plan_id":"cebpf4jnsgd1na2vs0mg"},{"bike_id":"461a2091-4edb-4542-bca4-f99c393fffae","system_id":"levelo_inurba_marseille","lat":43.29261,"lon":5.38439,"is_reserved":false,"is_disabled":false,"rental_uris":{"android":"levelo://app?vid=461a2091-4edb-4542-bca4-f99c393fffae","ios":"levelo://app?vid=461a2091-4edb-4542-bca4-f99c393fffae"},"vehicle_type_id":"4","last_reported":1719007666,"current_range_meters":17600,"station_id":"ce4bh692rcd13ifvqea0","pricing_plan_id":"cebpf4jnsgd1na2vs0mg"},{"bike_id":"b8815f86-b872-4392-a1d6-b47f30c88641","system_id":"levelo_inurba_marseille","lat":43.29259,"lon":5.38435,"is_reserved":false,"is_disabled":false,"rental_uris":{"android":"levelo://app?vid=b8815f86-b872-4392-a1d6-b47f30c88641","ios":"levelo://app?vid=b8815f86-b872-4392-a1d6-b47f30c88641"},"vehicle_type_id":"4","last_reported":1719007666,"current_range_meters":0,"station_id":"ce4bh692rcd13ifvqea0","pricing_plan_id":"cebpf4jnsgd1na2vs0mg"},{"bike_id":"28ae4bbf-2ab5-4676-9caf-eab8c4ce79dc","system_id":"levelo_inurba_marseille","lat":43.29258,"lon":5.38433,"is_reserved":false,"is_disabled":false,"rental_uris":{"android":"levelo://app?vid=28ae4bbf-2ab5-4676-9caf-eab8c4ce79dc","ios":"levelo://app?vid=28ae4bbf-2ab5-4676-9caf-eab8c4ce79dc"},"vehicle_type_id":"4","last_reported":1719007666,"current_range_meters":5200,"station_id":"ce4bh692rcd13ifvqea0","pricing_plan_id":"cebpf4jnsgd1na2vs0mg"},{"bike_id":"b53f988b-1519-4dd1-82cc-a12006e3df2e","system_id":"levelo_inurba_marseille","lat":43.29257,"lon":5.38432,"is_reserved":false,"is_disabled":false,"rental_uris":{"android":"levelo://app?vid=b53f988b-1519-4dd1-82cc-a12006e3df2e","ios":"levelo://app?vid=b53f988b-1519-4dd1-82cc-a12006e3df2e"},"vehicle_type_id":"4","last_reported":1719007666,"current_range_meters":24400,"station_id":"ce4bh692rcd13ifvqea0","pricing_plan_id":"cebpf4jnsgd1na2vs0mg"},{"bike_id":"b93f11e6-f07f-419b-b9e6-a3a3a299b337","system_id":"levelo_inurba_marseille","lat":43.29259,"lon":5.38439,"is_reserved":false,"is_disabled":false,"rental_uris":{"android":"levelo://app?vid=b93f11e6-f07f-419b-b9e6-a3a3a299b337","ios":"levelo://app?vid=b93f11e6-f07f-419b-b9e6-a3a3a299b337"},"vehicle_type_id":"4","last_reported":1719007666,"current_range_meters":23600,"station_id":"ce4bh692rcd13ifvqea0","pricing_plan_id":"cebpf4jnsgd1na2vs0mg"},{"bike_id":"172bff51-3b41-4339-bee7-527b2c968ac9","system_id":"levelo_inurba_marseille","lat":43.292583,"lon":5.38441,"is_reserved":false,"is_disabled":false,"rental_uris":{"android":"levelo://app?vid=172bff51-3b41-4339-bee7-527b2c968ac9","ios":"levelo://app?vid=172bff51-3b41-4339-bee7-527b2c968ac9"},"vehicle_type_id":"4","last_reported":1719007666,"current_range_meters":2000,"station_id":"ce4bh692rcd13ifvqea0","pricing_plan_id":"cebpf4jnsgd1na2vs0mg"},{"bike_id":"57de0aa9-d0fb-4abf-bc90-3e99a9bca2e1","system_id":"levelo_inurba_marseille","lat":43.29262,"lon":5.3845,"is_reserved":false,"is_disabled":false,"rental_uris":{"android":"levelo://app?vid=57de0aa9-d0fb-4abf-bc90-3e99a9bca2e1","ios":"levelo://app?vid=57de0aa9-d0fb-4abf-bc90-3e99a9bca2e1"},"vehicle_type_id":"4","last_reported":1719007666,"current_range_meters":6400,"station_id":"ce4bh692rcd13ifvqea0","pricing_plan_id":"cebpf4jnsgd1na2vs0mg"},{"bike_id":"6a2e00b6-7eb1-4bc3-8c1b-10405b4b69eb","system_id":"levelo_inurba_marseille","lat":43.2926,"lon":5.38446,"is_reserved":false,"is_disabled":false,"rental_uris":{"android":"levelo://app?vid=6a2e00b6-7eb1-4bc3-8c1b-10405b4b69eb","ios":"levelo://app?vid=6a2e00b6-7eb1-4bc3-8c1b-10405b4b69eb"},"vehicle_type_id":"4","last_reported":1719007666,"current_range_meters":4000,"station_id":"ce4bh692rcd13ifvqea0","pricing_plan_id":"cebpf4jnsgd1na2vs0mg"},{"bike_id":"12d1e1ae-54da-4fd3-af8c-17884bc3afa0","system_id":"levelo_inurba_marseille","lat":43.29259,"lon":5.38445,"is_reserved":false,"is_disabled":false,"rental_uris":{"android":"levelo://app?vid=12d1e1ae-54da-4fd3-af8c-17884bc3afa0","ios":"levelo://app?vid=12d1e1ae-54da-4fd3-af8c-17884bc3afa0"},"vehicle_type_id":"4","last_reported":1719007666,"current_range_meters":29600,"station_id":"ce4bh692rcd13ifvqea0","pricing_plan_id":"cebpf4jnsgd1na2vs0mg"},{"bike_id":"e56081a9-e520-48d0-b929-0f087ecd1ca5","system_id":"levelo_inurba_marseille","lat":43.29262,"lon":5.38453,"is_reserved":false,"is_disabled":false,"rental_uris":{"android":"levelo://app?vid=e56081a9-e520-48d0-b929-0f087ecd1ca5","ios":"levelo://app?vid=e56081a9-e520-48d0-b929-0f087ecd1ca5"},"vehicle_type_id":"4","last_reported":1719007666,"current_range_meters":0,"station_id":"ce4bh692rcd13ifvqea0","pricing_plan_id":"cebpf4jnsgd1na2vs0mg"},{"bike_id":"fe49c788-dc6d-41e1-98b7-3f306cf5712b","system_id":"levelo_inurba_marseille","lat":43.29256,"lon":5.3844,"is_reserved":false,"is_disabled":false,"rental_uris":{"android":"levelo://app?vid=fe49c788-dc6d-41e1-98b7-3f306cf5712b","ios":"levelo://app?vid=fe49c788-dc6d-41e1-98b7-3f306cf5712b"},"vehicle_type_id":"4","last_reported":1719007666,"current_range_meters":19200,"station_id":"ce4bh692rcd13ifvqea0","pricing_plan_id":"cebpf4jnsgd1na2vs0mg"},{"bike_id":"dc42ac37-db06-4aa2-87a4-b4e58d6c9d2e","system_id":"levelo_inurba_marseille","lat":43.29261,"lon":5.38451,"is_reserved":false,"is_disabled":false,"rental_uris":{"android":"levelo://app?vid=dc42ac37-db06-4aa2-87a4-b4e58d6c9d2e","ios":"levelo://app?vid=dc42ac37-db06-4aa2-87a4-b4e58d6c9d2e"},"vehicle_type_id":"4","last_reported":1719007666,"current_range_meters":27600,"station_id":"ce4bh692rcd13ifvqea0","pricing_plan_id":"cebpf4jnsgd1na2vs0mg"},{"bike_id":"2477eee3-6e79-4230-85af-297eb7818181","system_id":"levelo_inurba_marseille","lat":43.292585,"lon":5.38451,"is_reserved":false,"is_disabled":false,"rental_uris":{"android":"levelo://app?vid=2477eee3-6e79-4230-85af-297eb7818181","ios":"levelo://app?vid=2477eee3-6e79-4230-85af-297eb7818181"},"vehicle_type_id":"4","last_reported":1719007666,"current_range_meters":19600,"station_id":"ce4bh692rcd13ifvqea0","pricing_plan_id":"cebpf4jnsgd1na2vs0mg"},{"bike_id":"c073fefb-2156-4eb0-b424-caaa2ee4573e","system_id":"levelo_inurba_marseille","lat":43.29182,"lon":5.38274,"is_reserved":false,"is_disabled":false,"rental_uris":{"android":"levelo://app?vid=c073fefb-2156-4eb0-b424-caaa2ee4573e","ios":"levelo://app?vid=c073fefb-2156-4eb0-b424-caaa2ee4573e"},"vehicle_type_id":"4","last_reported":1719007666,"current_range_meters":14000,"station_id":"","pricing_plan_id":"cebpf4jnsgd1na2vs0mg"},{"bike_id":"9fc171c2-3945-4c8b-957b-000fdedcb978","system_id":"levelo_inurba_marseille","lat":43.29256,"lon":5.38447,"is_reserved":false,"is_disabled":false,"rental_uris":{"android":"levelo://app?vid=9fc171c2-3945-4c8b-957b-000fdedcb978","ios":"levelo://app?vid=9fc171c2-3945-4c8b-957b-000fdedcb978"},"vehicle_type_id":"4","last_reported":1719007666,"current_range_meters":31200,"station_id":"ce4bh692rcd13ifvqea0","pricing_plan_id":"cebpf4jnsgd1na2vs0mg"},{"bike_id":"b95c2909-8b06-4c7a-bc04-e9ca1657ddf7","system_id":"levelo_inurba_marseille","lat":43.29255,"lon":5.38445,"is_reserved":false,"is_disabled":false,"rental_uris":{"android":"levelo://app?vid=b95c2909-8b06-4c7a-bc04-e9ca1657ddf7","ios":"levelo://app?vid=b95c2909-8b06-4c7a-bc04-e9ca1657ddf7"},"vehicle_type_id":"4","last_reported":1719007666,"current_range_meters":12800,"station_id":"ce4bh692rcd13ifvqea0","pricing_plan_id":"cebpf4jnsgd1na2vs0mg"},{"bike_id":"3ebdef1a-2fbb-4c49-acc2-8fdd14135d2b","system_id":"levelo_inurba_marseille","lat":43.29257,"lon":5.38452,"is_reserved":false,"is_disabled":false,"rental_uris":{"android":"levelo://app?vid=3ebdef1a-2fbb-4c49-acc2-8fdd14135d2b","ios":"levelo://app?vid=3ebdef1a-2fbb-4c49-acc2-8fdd14135d2b"},"vehicle_type_id":"4","last_reported":1719007666,"current_range_meters":8800,"station_id":"ce4bh692rcd13ifvqea0","pricing_plan_id":"cebpf4jnsgd1na2vs0mg"},{"bike_id":"3f4dba2a-9019-4574-a042-54fb9131eef9","system_id":"levelo_inurba_marseille","lat":43.289468,"lon":5.363719,"is_reserved":false,"is_disabled":false,"rental_uris":{"android":"levelo://app?vid=3f4dba2a-9019-4574-a042-54fb9131eef9","ios":"levelo://app?vid=3f4dba2a-9019-4574-a042-54fb9131eef9"},"vehicle_type_id":"4","last_reported":1719007666,"current_range_meters":4400,"station_id":"ce4bhc92rcd13ifvqetg","pricing_plan_id":"cebpf4jnsgd1na2vs0mg"},{"bike_id":"f9055916-f66a-4de5-af1f-92b3ded68ac0","system_id":"levelo_inurba_marseille","lat":43.29312,"lon":5.38584,"is_reserved":false,"is_disabled":false,"rental_uris":{"android":"levelo://app?vid=f9055916-f66a-4de5-af1f-92b3ded68ac0","ios":"levelo://app?vid=f9055916-f66a-4de5-af1f-92b3ded68ac0"},"vehicle_type_id":"4","last_reported":1719007666,"current_range_meters":0,"station_id":"","pricing_plan_id":"cebpf4jnsgd1na2vs0mg"},{"bike_id":"66f62236-eea6-4c3d-b51e-f1b968f1d59b","system_id":"levelo_inurba_marseille","lat":43.29004,"lon":5.35614,"is_reserved":false,"is_disabled":false,"rental_uris":{"android":"levelo://app?vid=66f62236-eea6-4c3d-b51e-f1b968f1d59b","ios":"levelo://app?vid=66f62236-eea6-4c3d-b51e-f1b968f1d59b"},"vehicle_type_id":"4","last_reported":1719007666,"current_range_meters":26000,"station_id":"ce4bhb92rcd13ifvqen0","pricing_plan_id":"cebpf4jnsgd1na2vs0mg"},{"bike_id":"5d0feb7d-52e4-4cbd-8f37-022442e43ee3","system_id":"levelo_inurba_marseille","lat":43.290104,"lon":5.356111,"is_reserved":false,"is_disabled":false,"rental_uris":{"android":"levelo://app?vid=5d0feb7d-52e4-4cbd-8f37-022442e43ee3","ios":"levelo://app?vid=5d0feb7d-52e4-4cbd-8f37-022442e43ee3"},"vehicle_type_id":"4","last_reported":1719007666,"current_range_meters":14000,"station_id":"ce4bhb92rcd13ifvqen0","pricing_plan_id":"cebpf4jnsgd1na2vs0mg"},{"bike_id":"e47992c8-6031-415f-9de8-79fd98757aaf","system_id":"levelo_inurba_marseille","lat":43.290104,"lon":5.356111,"is_reserved":false,"is_disabled":false,"rental_uris":{"android":"levelo://app?vid=e47992c8-6031-415f-9de8-79fd98757aaf","ios":"levelo://app?vid=e47992c8-6031-415f-9de8-79fd98757aaf"},"vehicle_type_id":"4","last_reported":1719007666,"current_range_meters":28400,"station_id":"ce4bhb92rcd13ifvqen0","pricing_plan_id":"cebpf4jnsgd1na2vs0mg"},{"bike_id":"2a0c017d-4d65-4996-b776-54ee0ccc0b9d","system_id":"levelo_inurba_marseille","lat":43.28995,"lon":5.35611,"is_reserved":false,"is_disabled":false,"rental_uris":{"android":"levelo://app?vid=2a0c017d-4d65-4996-b776-54ee0ccc0b9d","ios":"levelo://app?vid=2a0c017d-4d65-4996-b776-54ee0ccc0b9d"},"vehicle_type_id":"4","last_reported":1719007666,"current_range_meters":16800,"station_id":"ce4bhb92rcd13ifvqen0","pricing_plan_id":"cebpf4jnsgd1na2vs0mg"},{"bike_id":"c781adbe-ac01-40fc-ae24-a4fa4e7e6699","system_id":"levelo_inurba_marseille","lat":43.290958,"lon":5.381278,"is_reserved":false,"is_disabled":false,"rental_uris":{"android":"levelo://app?vid=c781adbe-ac01-40fc-ae24-a4fa4e7e6699","ios":"levelo://app?vid=c781adbe-ac01-40fc-ae24-a4fa4e7e6699"},"vehicle_type_id":"4","last_reported":1719007666,"current_range_meters":0,"station_id":"ce4bh512rcd13ifvqe2g","pricing_plan_id":"cebpf4jnsgd1na2vs0mg"},{"bike_id":"4f70b162-1264-4526-9829-b5b68ed037a1","system_id":"levelo_inurba_marseille","lat":43.29102,"lon":5.38152,"is_reserved":false,"is_disabled":false,"rental_uris":{"android":"levelo://app?vid=4f70b162-1264-4526-9829-b5b68ed037a1","ios":"levelo://app?vid=4f70b162-1264-4526-9829-b5b68ed037a1"},"vehicle_type_id":"4","last_reported":1719007666,"current_range_meters":30400,"station_id":"ce4bh512rcd13ifvqe2g","pricing_plan_id":"cebpf4jnsgd1na2vs0mg"},{"bike_id":"8ca17144-c2ce-4f4e-a510-2c68fe2edcda","system_id":"levelo_inurba_marseille","lat":43.290995,"lon":5.381361,"is_reserved":false,"is_disabled":false,"rental_uris":{"android":"levelo://app?vid=8ca17144-c2ce-4f4e-a510-2c68fe2edcda","ios":"levelo://app?vid=8ca17144-c2ce-4f4e-a510-2c68fe2edcda"},"vehicle_type_id":"4","last_reported":1719007666,"current_range_meters":26000,"station_id":"ce4bh512rcd13ifvqe2g","pricing_plan_id":"cebpf4jnsgd1na2vs0mg"},{"bike_id":"82abc8ae-b244-4a78-ae6e-78d297485a39","system_id":"levelo_inurba_marseille","lat":43.290995,"lon":5.381361,"is_reserved":false,"is_disabled":false,"rental_uris":{"android":"levelo://app?vid=82abc8ae-b244-4a78-ae6e-78d297485a39","ios":"levelo://app?vid=82abc8ae-b244-4a78-ae6e-78d297485a39"},"vehicle_type_id":"4","last_reported":1719007666,"current_range_meters":0,"station_id":"ce4bh512rcd13ifvqe2g","pricing_plan_id":"cebpf4jnsgd1na2vs0mg"},{"bike_id":"6daaea0c-5c32-4d00-851d-2d1bcb526469","system_id":"levelo_inurba_marseille","lat":43.290995,"lon":5.381361,"is_reserved":false,"is_disabled":false,"rental_uris":{"android":"levelo://app?vid=6daaea0c-5c32-4d00-851d-2d1bcb526469","ios":"levelo://app?vid=6daaea0c-5c32-4d00-851d-2d1bcb526469"},"vehicle_type_id":"4","last_reported":1719007666,"current_range_meters":24400,"station_id":"ce4bh512rcd13ifvqe2g","pricing_plan_id":"cebpf4jnsgd1na2vs0mg"},{"bike_id":"4d83f4b9-fbe1-4a0e-bd99-80f0d15fa2a7","system_id":"levelo_inurba_marseille","lat":43.290995,"lon":5.381361,"is_reserved":false,"is_disabled":false,"rental_uris":{"android":"levelo://app?vid=4d83f4b9-fbe1-4a0e-bd99-80f0d15fa2a7","ios":"levelo://app?vid=4d83f4b9-fbe1-4a0e-bd99-80f0d15fa2a7"},"vehicle_type_id":"4","last_reported":1719007666,"current_range_meters":0,"station_id":"ce4bh512rcd13ifvqe2g","pricing_plan_id":"cebpf4jnsgd1na2vs0mg"},{"bike_id":"40da15a8-4e78-4d7f-883f-145772da2b6c","system_id":"levelo_inurba_marseille","lat":43.297857,"lon":5.39341,"is_reserved":false,"is_disabled":false,"rental_uris":{"android":"levelo://app?vid=40da15a8-4e78-4d7f-883f-145772da2b6c","ios":"levelo://app?vid=40da15a8-4e78-4d7f-883f-145772da2b6c"},"vehicle_type_id":"4","last_reported":1719007666,"current_range_meters":26400,"station_id":"chh1huq6cuj3fo74tm60","pricing_plan_id":"cebpf4jnsgd1na2vs0mg"},{"bike_id":"49bd00b7-b4bc-4c84-9bb5-79cf9597a922","system_id":"levelo_inurba_marseille","lat":43.330442,"lon":5.389148,"is_reserved":false,"is_disabled":false,"rental_uris":{"android":"levelo://app?vid=49bd00b7-b4bc-4c84-9bb5-79cf9597a922","ios":"levelo://app?vid=49bd00b7-b4bc-4c84-9bb5-79cf9597a922"},"vehicle_type_id":"4","last_reported":1719007666,"current_range_meters":8800,"station_id":"ce4bhr92rcd13ifvqhrg","pricing_plan_id":"cebpf4jnsgd1na2vs0mg"},{"bike_id":"c05f4c51-8d5b-49fc-8503-c18ce992a1e4","system_id":"levelo_inurba_marseille","lat":43.330442,"lon":5.389148,"is_reserved":false,"is_disabled":false,"rental_uris":{"android":"levelo://app?vid=c05f4c51-8d5b-49fc-8503-c18ce992a1e4","ios":"levelo://app?vid=c05f4c51-8d5b-49fc-8503-c18ce992a1e4"},"vehicle_type_id":"4","last_reported":1719007666,"current_range_meters":18800,"station_id":"ce4bhr92rcd13ifvqhrg","pricing_plan_id":"cebpf4jnsgd1na2vs0mg"},{"bike_id":"6bead1a9-f5f9-490f-aaa1-360bce682e93","system_id":"levelo_inurba_marseille","lat":43.295169,"lon":5.390426,"is_reserved":false,"is_disabled":false,"rental_uris":{"android":"levelo://app?vid=6bead1a9-f5f9-490f-aaa1-360bce682e93","ios":"levelo://app?vid=6bead1a9-f5f9-490f-aaa1-360bce682e93"},"vehicle_type_id":"4","last_reported":1719007666,"current_range_meters":0,"station_id":"ce4bh3p2rcd13ifvqdp0","pricing_plan_id":"cebpf4jnsgd1na2vs0mg"},{"bike_id":"de33b865-370a-490a-8a6b-0e9dec0d3084","system_id":"levelo_inurba_marseille","lat":43.33025,"lon":5.39046,"is_reserved":false,"is_disabled":false,"rental_uris":{"android":"levelo://app?vid=de33b865-370a-490a-8a6b-0e9dec0d3084","ios":"levelo://app?vid=de33b865-370a-490a-8a6b-0e9dec0d3084"},"vehicle_type_id":"4","last_reported":1719007666,"current_range_meters":0,"station_id":"ce4bhr92rcd13ifvqhrg","pricing_plan_id":"cebpf4jnsgd1na2vs0mg"},{"bike_id":"4f122c23-9e7f-4935-b85d-1498e2ef06c2","system_id":"levelo_inurba_marseille","lat":43.295169,"lon":5.390426,"is_reserved":false,"is_disabled":false,"rental_uris":{"android":"levelo://app?vid=4f122c23-9e7f-4935-b85d-1498e2ef06c2","ios":"levelo://app?vid=4f122c23-9e7f-4935-b85d-1498e2ef06c2"},"vehicle_type_id":"4","last_reported":1719007666,"current_range_meters":12400,"station_id":"ce4bh3p2rcd13ifvqdp0","pricing_plan_id":"cebpf4jnsgd1na2vs0mg"},{"bike_id":"9faeda49-f1ac-4453-90ad-b7ee65e22a51","system_id":"levelo_inurba_marseille","lat":43.290094,"lon":5.381264,"is_reserved":false,"is_disabled":false,"rental_uris":{"android":"levelo://app?vid=9faeda49-f1ac-4453-90ad-b7ee65e22a51","ios":"levelo://app?vid=9faeda49-f1ac-4453-90ad-b7ee65e22a51"},"vehicle_type_id":"4","last_reported":1719007666,"current_range_meters":22000,"station_id":"ce4bh4p2rcd13ifvqe1g","pricing_plan_id":"cebpf4jnsgd1na2vs0mg"},{"bike_id":"94bdab84-01b6-455f-bc31-635377c03952","system_id":"levelo_inurba_marseille","lat":43.28856,"lon":5.358371,"is_reserved":false,"is_disabled":false,"rental_uris":{"android":"levelo://app?vid=94bdab84-01b6-455f-bc31-635377c03952","ios":"levelo://app?vid=94bdab84-01b6-455f-bc31-635377c03952"},"vehicle_type_id":"4","last_reported":1719007666,"current_range_meters":2400,"station_id":"ce4bhb12rcd13ifvqem0","pricing_plan_id":"cebpf4jnsgd1na2vs0mg"},{"bike_id":"db7c7277-a247-439a-a40a-c0814c805b8b","system_id":"levelo_inurba_marseille","lat":43.28842,"lon":5.35852,"is_reserved":false,"is_disabled":false,"rental_uris":{"android":"levelo://app?vid=db7c7277-a247-439a-a40a-c0814c805b8b","ios":"levelo://app?vid=db7c7277-a247-439a-a40a-c0814c805b8b"},"vehicle_type_id":"4","last_reported":1719007666,"current_range_meters":31200,"station_id":"","pricing_plan_id":"cebpf4jnsgd1na2vs0mg"},{"bike_id":"da96d7fa-1349-4ba1-8356-df3e4afc8fca","system_id":"levelo_inurba_marseille","lat":43.312609,"lon":5.401662,"is_reserved":false,"is_disabled":false,"rental_uris":{"android":"levelo://app?vid=da96d7fa-1349-4ba1-8356-df3e4afc8fca","ios":"levelo://app?vid=da96d7fa-1349-4ba1-8356-df3e4afc8fca"},"vehicle_type_id":"4","last_reported":1719007666,"current_range_meters":20000,"station_id":"ce4bh092rcd13ifvqd30","pricing_plan_id":"cebpf4jnsgd1na2vs0mg"},{"bike_id":"19637d79-768d-4eeb-8901-a34a61c28cde","system_id":"levelo_inurba_marseille","lat":43.312609,"lon":5.401662,"is_reserved":false,"is_disabled":false,"rental_uris":{"android":"levelo://app?vid=19637d79-768d-4eeb-8901-a34a61c28cde","ios":"levelo://app?vid=19637d79-768d-4eeb-8901-a34a61c28cde"},"vehicle_type_id":"4","last_reported":1719007666,"current_range_meters":20800,"station_id":"ce4bh092rcd13ifvqd30","pricing_plan_id":"cebpf4jnsgd1na2vs0mg"},{"bike_id":"05092e03-5cef-41c3-9575-df5db7507ebd","system_id":"levelo_inurba_marseille","lat":43.33739,"lon":5.37464,"is_reserved":false,"is_disabled":false,"rental_uris":{"android":"levelo://app?vid=05092e03-5cef-41c3-9575-df5db7507ebd","ios":"levelo://app?vid=05092e03-5cef-41c3-9575-df5db7507ebd"},"vehicle_type_id":"4","last_reported":1719007666,"current_range_meters":22000,"station_id":"","pricing_plan_id":"cebpf4jnsgd1na2vs0mg"},{"bike_id":"d689a06a-4369-4cef-9754-43dddd10e797","system_id":"levelo_inurba_marseille","lat":43.312609,"lon":5.401662,"is_reserved":false,"is_disabled":false,"rental_uris":{"android":"levelo://app?vid=d689a06a-4369-4cef-9754-43dddd10e797","ios":"levelo://app?vid=d689a06a-4369-4cef-9754-43dddd10e797"},"vehicle_type_id":"4","last_reported":1719007666,"current_range_meters":0,"station_id":"ce4bh092rcd13ifvqd30","pricing_plan_id":"cebpf4jnsgd1na2vs0mg"},{"bike_id":"db534928-e6a2-47cc-a852-558fe66ed50c","system_id":"levelo_inurba_marseille","lat":43.337423,"lon":5.374677,"is_reserved":false,"is_disabled":false,"rental_uris":{"android":"levelo://app?vid=db534928-e6a2-47cc-a852-558fe66ed50c","ios":"levelo://app?vid=db534928-e6a2-47cc-a852-558fe66ed50c"},"vehicle_type_id":"4","last_reported":1719007666,"current_range_meters":22000,"station_id":"","pricing_plan_id":"cebpf4jnsgd1na2vs0mg"},{"bike_id":"b049dc2a-ad6c-45c9-b201-59f410ba206d","system_id":"levelo_inurba_marseille","lat":43.309371,"lon":5.401449,"is_reserved":false,"is_disabled":false,"rental_uris":{"android":"levelo://app?vid=b049dc2a-ad6c-45c9-b201-59f410ba206d","ios":"levelo://app?vid=b049dc2a-ad6c-45c9-b201-59f410ba206d"},"vehicle_type_id":"4","last_reported":1719007666,"current_range_meters":8000,"station_id":"ce4bgvp2rcd13ifvqct0","pricing_plan_id":"cebpf4jnsgd1na2vs0mg"},{"bike_id":"a00c218c-138a-4388-aca4-2952a6961815","system_id":"levelo_inurba_marseille","lat":43.337457,"lon":5.374947,"is_reserved":false,"is_disabled":false,"rental_uris":{"android":"levelo://app?vid=a00c218c-138a-4388-aca4-2952a6961815","ios":"levelo://app?vid=a00c218c-138a-4388-aca4-2952a6961815"},"vehicle_type_id":"4","last_reported":1719007666,"current_range_meters":30400,"station_id":"","pricing_plan_id":"cebpf4jnsgd1na2vs0mg"},{"bike_id":"6e445f2c-ca64-4b5f-91f7-41d553691ea5","system_id":"levelo_inurba_marseille","lat":43.33757,"lon":5.37445,"is_reserved":false,"is_disabled":false,"rental_uris":{"android":"levelo://app?vid=6e445f2c-ca64-4b5f-91f7-41d553691ea5","ios":"levelo://app?vid=6e445f2c-ca64-4b5f-91f7-41d553691ea5"},"vehicle_type_id":"4","last_reported":1719007666,"current_range_meters":29200,"station_id":"","pricing_plan_id":"cebpf4jnsgd1na2vs0mg"},{"bike_id":"0e11bbab-a5d9-4098-a6f1-624d89f27c59","system_id":"levelo_inurba_marseille","lat":43.337572,"lon":5.374546,"is_reserved":false,"is_disabled":false,"rental_uris":{"android":"levelo://app?vid=0e11bbab-a5d9-4098-a6f1-624d89f27c59","ios":"levelo://app?vid=0e11bbab-a5d9-4098-a6f1-624d89f27c59"},"vehicle_type_id":"4","last_reported":1719007666,"current_range_meters":26800,"station_id":"","pricing_plan_id":"cebpf4jnsgd1na2vs0mg"},{"bike_id":"01318c22-1928-4980-be0f-3524ce832f2c","system_id":"levelo_inurba_marseille","lat":43.29476,"lon":5.39171,"is_reserved":false,"is_disabled":false,"rental_uris":{"android":"levelo://app?vid=01318c22-1928-4980-be0f-3524ce832f2c","ios":"levelo://app?vid=01318c22-1928-4980-be0f-3524ce832f2c"},"vehicle_type_id":"4","last_reported":1719007666,"current_range_meters":24800,"station_id":"","pricing_plan_id":"cebpf4jnsgd1na2vs0mg"},{"bike_id":"e57ad19d-601c-46ac-be60-3a31d868ce3c","system_id":"levelo_inurba_marseille","lat":43.30642,"lon":5.401031,"is_reserved":false,"is_disabled":false,"rental_uris":{"android":"levelo://app?vid=e57ad19d-601c-46ac-be60-3a31d868ce3c","ios":"levelo://app?vid=e57ad19d-601c-46ac-be60-3a31d868ce3c"},"vehicle_type_id":"4","last_reported":1719007666,"current_range_meters":3200,"station_id":"ce4bh112rcd13ifvqda0","pricing_plan_id":"cebpf4jnsgd1na2vs0mg"},{"bike_id":"c9b66a2b-0639-4d7a-b560-2bf673d8bd00","system_id":"levelo_inurba_marseille","lat":43.33033,"lon":5.39233,"is_reserved":false,"is_disabled":false,"rental_uris":{"android":"levelo://app?vid=c9b66a2b-0639-4d7a-b560-2bf673d8bd00","ios":"levelo://app?vid=c9b66a2b-0639-4d7a-b560-2bf673d8bd00"},"vehicle_type_id":"4","last_reported":1719007666,"current_range_meters":0,"station_id":"","pricing_plan_id":"cebpf4jnsgd1na2vs0mg"},{"bike_id":"e7be790b-07e4-40f3-b60f-da683b157943","system_id":"levelo_inurba_marseille","lat":43.33033,"lon":5.39238,"is_reserved":false,"is_disabled":false,"rental_uris":{"android":"levelo://app?vid=e7be790b-07e4-40f3-b60f-da683b157943","ios":"levelo://app?vid=e7be790b-07e4-40f3-b60f-da683b157943"},"vehicle_type_id":"4","last_reported":1719007666,"current_range_meters":21200,"station_id":"","pricing_plan_id":"cebpf4jnsgd1na2vs0mg"},{"bike_id":"30e7948a-90c8-487a-af42-e5f1f51298a3","system_id":"levelo_inurba_marseille","lat":43.30642,"lon":5.401031,"is_reserved":false,"is_disabled":false,"rental_uris":{"android":"levelo://app?vid=30e7948a-90c8-487a-af42-e5f1f51298a3","ios":"levelo://app?vid=30e7948a-90c8-487a-af42-e5f1f51298a3"},"vehicle_type_id":"4","last_reported":1719007666,"current_range_meters":15600,"station_id":"ce4bh112rcd13ifvqda0","pricing_plan_id":"cebpf4jnsgd1na2vs0mg"},{"bike_id":"ec28470f-1fbe-48d8-93c2-29dc1b101243","system_id":"levelo_inurba_marseille","lat":43.30642,"lon":5.401031,"is_reserved":false,"is_disabled":false,"rental_uris":{"android":"levelo://app?vid=ec28470f-1fbe-48d8-93c2-29dc1b101243","ios":"levelo://app?vid=ec28470f-1fbe-48d8-93c2-29dc1b101243"},"vehicle_type_id":"4","last_reported":1719007666,"current_range_meters":22000,"station_id":"ce4bh112rcd13ifvqda0","pricing_plan_id":"cebpf4jnsgd1na2vs0mg"},{"bike_id":"a77bf3f1-dc55-4e35-8fe0-6292cee970ef","system_id":"levelo_inurba_marseille","lat":43.33035,"lon":5.39239,"is_reserved":false,"is_disabled":false,"rental_uris":{"android":"levelo://app?vid=a77bf3f1-dc55-4e35-8fe0-6292cee970ef","ios":"levelo://app?vid=a77bf3f1-dc55-4e35-8fe0-6292cee970ef"},"vehicle_type_id":"4","last_reported":1719007666,"current_range_meters":24000,"station_id":"","pricing_plan_id":"cebpf4jnsgd1na2vs0mg"},{"bike_id":"457259f4-2778-42f8-8372-c6c895d3a51d","system_id":"levelo_inurba_marseille","lat":43.33036,"lon":5.392397,"is_reserved":false,"is_disabled":false,"rental_uris":{"android":"levelo://app?vid=457259f4-2778-42f8-8372-c6c895d3a51d","ios":"levelo://app?vid=457259f4-2778-42f8-8372-c6c895d3a51d"},"vehicle_type_id":"4","last_reported":1719007666,"current_range_meters":12400,"station_id":"","pricing_plan_id":"cebpf4jnsgd1na2vs0mg"},{"bike_id":"0a651944-9bd6-41c4-8155-666fc1e7acd7","system_id":"levelo_inurba_marseille","lat":43.306412,"lon":5.401035,"is_reserved":false,"is_disabled":false,"rental_uris":{"android":"levelo://app?vid=0a651944-9bd6-41c4-8155-666fc1e7acd7","ios":"levelo://app?vid=0a651944-9bd6-41c4-8155-666fc1e7acd7"},"vehicle_type_id":"4","last_reported":1719007666,"current_range_meters":8800,"station_id":"ce4bh112rcd13ifvqda0","pricing_plan_id":"cebpf4jnsgd1na2vs0mg"},{"bike_id":"4e513d29-9064-465a-9da2-83ac1540efa6","system_id":"levelo_inurba_marseille","lat":43.306412,"lon":5.401035,"is_reserved":false,"is_disabled":false,"rental_uris":{"android":"levelo://app?vid=4e513d29-9064-465a-9da2-83ac1540efa6","ios":"levelo://app?vid=4e513d29-9064-465a-9da2-83ac1540efa6"},"vehicle_type_id":"4","last_reported":1719007666,"current_range_meters":0,"station_id":"ce4bh112rcd13ifvqda0","pricing_plan_id":"cebpf4jnsgd1na2vs0mg"},{"bike_id":"f561d7db-d287-4281-89a1-38689f004b0a","system_id":"levelo_inurba_marseille","lat":43.306412,"lon":5.401035,"is_reserved":false,"is_disabled":false,"rental_uris":{"android":"levelo://app?vid=f561d7db-d287-4281-89a1-38689f004b0a","ios":"levelo://app?vid=f561d7db-d287-4281-89a1-38689f004b0a"},"vehicle_type_id":"4","last_reported":1719007666,"current_range_meters":6400,"station_id":"ce4bh112rcd13ifvqda0","pricing_plan_id":"cebpf4jnsgd1na2vs0mg"},{"bike_id":"3ca04806-efd7-4ceb-98b3-3468806dda2a","system_id":"levelo_inurba_marseille","lat":43.301117,"lon":5.398795,"is_reserved":false,"is_disabled":false,"rental_uris":{"android":"levelo://app?vid=3ca04806-efd7-4ceb-98b3-3468806dda2a","ios":"levelo://app?vid=3ca04806-efd7-4ceb-98b3-3468806dda2a"},"vehicle_type_id":"4","last_reported":1719007666,"current_range_meters":5600,"station_id":"ce4bh0h2rcd13ifvqd40","pricing_plan_id":"cebpf4jnsgd1na2vs0mg"},{"bike_id":"1577b608-0f5d-4263-a9f7-fd07b16ab79a","system_id":"levelo_inurba_marseille","lat":43.33019,"lon":5.39292,"is_reserved":false,"is_disabled":false,"rental_uris":{"android":"levelo://app?vid=1577b608-0f5d-4263-a9f7-fd07b16ab79a","ios":"levelo://app?vid=1577b608-0f5d-4263-a9f7-fd07b16ab79a"},"vehicle_type_id":"4","last_reported":1719007666,"current_range_meters":20800,"station_id":"","pricing_plan_id":"cebpf4jnsgd1na2vs0mg"},{"bike_id":"1529575d-3c24-4053-9dc4-3fc753c20a3e","system_id":"levelo_inurba_marseille","lat":43.3304,"lon":5.39281,"is_reserved":false,"is_disabled":false,"rental_uris":{"android":"levelo://app?vid=1529575d-3c24-4053-9dc4-3fc753c20a3e","ios":"levelo://app?vid=1529575d-3c24-4053-9dc4-3fc753c20a3e"},"vehicle_type_id":"4","last_reported":1719007666,"current_range_meters":4400,"station_id":"","pricing_plan_id":"cebpf4jnsgd1na2vs0mg"},{"bike_id":"bebc3833-53e8-423f-a9be-82579d5f1dd5","system_id":"levelo_inurba_marseille","lat":43.301117,"lon":5.398795,"is_reserved":false,"is_disabled":false,"rental_uris":{"android":"levelo://app?vid=bebc3833-53e8-423f-a9be-82579d5f1dd5","ios":"levelo://app?vid=bebc3833-53e8-423f-a9be-82579d5f1dd5"},"vehicle_type_id":"4","last_reported":1719007666,"current_range_meters":2000,"station_id":"ce4bh0h2rcd13ifvqd40","pricing_plan_id":"cebpf4jnsgd1na2vs0mg"},{"bike_id":"67ac757b-0e1e-4354-b72e-f3656bb44384","system_id":"levelo_inurba_marseille","lat":43.28727,"lon":5.36078,"is_reserved":false,"is_disabled":false,"rental_uris":{"android":"levelo://app?vid=67ac757b-0e1e-4354-b72e-f3656bb44384","ios":"levelo://app?vid=67ac757b-0e1e-4354-b72e-f3656bb44384"},"vehicle_type_id":"4","last_reported":1719007666,"current_range_meters":14000,"station_id":"cki0cbj6b192h4jlfktg","pricing_plan_id":"cebpf4jnsgd1na2vs0mg"},{"bike_id":"f463363f-b9f8-476a-a920-55e9cc575017","system_id":"levelo_inurba_marseille","lat":43.298681,"lon":5.397225,"is_reserved":false,"is_disabled":false,"rental_uris":{"android":"levelo://app?vid=f463363f-b9f8-476a-a920-55e9cc575017","ios":"levelo://app?vid=f463363f-b9f8-476a-a920-55e9cc575017"},"vehicle_type_id":"4","last_reported":1719007666,"current_range_meters":5200,"station_id":"ce4bh0h2rcd13ifvqd50","pricing_plan_id":"cebpf4jnsgd1na2vs0mg"},{"bike_id":"6dc828fc-c78d-48c6-ba87-cfa543934293","system_id":"levelo_inurba_marseille","lat":43.286961,"lon":5.373785,"is_reserved":false,"is_disabled":false,"rental_uris":{"android":"levelo://app?vid=6dc828fc-c78d-48c6-ba87-cfa543934293","ios":"levelo://app?vid=6dc828fc-c78d-48c6-ba87-cfa543934293"},"vehicle_type_id":"4","last_reported":1719007666,"current_range_meters":26400,"station_id":"ce4bh3p2rcd13ifvqdq0","pricing_plan_id":"cebpf4jnsgd1na2vs0mg"},{"bike_id":"e4a0bd77-eaad-4ede-a6c2-af69d3de7f10","system_id":"levelo_inurba_marseille","lat":43.298681,"lon":5.397225,"is_reserved":false,"is_disabled":false,"rental_uris":{"android":"levelo://app?vid=e4a0bd77-eaad-4ede-a6c2-af69d3de7f10","ios":"levelo://app?vid=e4a0bd77-eaad-4ede-a6c2-af69d3de7f10"},"vehicle_type_id":"4","last_reported":1719007666,"current_range_meters":29600,"station_id":"ce4bh0h2rcd13ifvqd50","pricing_plan_id":"cebpf4jnsgd1na2vs0mg"},{"bike_id":"52ab449e-2005-44b0-9002-682edcd3a685","system_id":"levelo_inurba_marseille","lat":43.286591,"lon":5.363346,"is_reserved":false,"is_disabled":false,"rental_uris":{"android":"levelo://app?vid=52ab449e-2005-44b0-9002-682edcd3a685","ios":"levelo://app?vid=52ab449e-2005-44b0-9002-682edcd3a685"},"vehicle_type_id":"4","last_reported":1719007666,"current_range_meters":5600,"station_id":"ce4bhah2rcd13ifvqej0","pricing_plan_id":"cebpf4jnsgd1na2vs0mg"},{"bike_id":"a427a10d-f742-456f-b322-e659c674fbc3","system_id":"levelo_inurba_marseille","lat":43.286591,"lon":5.363346,"is_reserved":false,"is_disabled":false,"rental_uris":{"android":"levelo://app?vid=a427a10d-f742-456f-b322-e659c674fbc3","ios":"levelo://app?vid=a427a10d-f742-456f-b322-e659c674fbc3"},"vehicle_type_id":"4","last_reported":1719007666,"current_range_meters":10800,"station_id":"ce4bhah2rcd13ifvqej0","pricing_plan_id":"cebpf4jnsgd1na2vs0mg"},{"bike_id":"4db7d265-b706-4b57-b4d7-f2357879ee57","system_id":"levelo_inurba_marseille","lat":43.28704,"lon":5.37386,"is_reserved":false,"is_disabled":false,"rental_uris":{"android":"levelo://app?vid=4db7d265-b706-4b57-b4d7-f2357879ee57","ios":"levelo://app?vid=4db7d265-b706-4b57-b4d7-f2357879ee57"},"vehicle_type_id":"4","last_reported":1719007666,"current_range_meters":800,"station_id":"ce4bh3p2rcd13ifvqdq0","pricing_plan_id":"cebpf4jnsgd1na2vs0mg"},{"bike_id":"cb9d81ed-8a10-4e36-8f4a-4fcb29305240","system_id":"levelo_inurba_marseille","lat":43.286961,"lon":5.373785,"is_reserved":false,"is_disabled":false,"rental_uris":{"android":"levelo://app?vid=cb9d81ed-8a10-4e36-8f4a-4fcb29305240","ios":"levelo://app?vid=cb9d81ed-8a10-4e36-8f4a-4fcb29305240"},"vehicle_type_id":"4","last_reported":1719007666,"current_range_meters":0,"station_id":"ce4bh3p2rcd13ifvqdq0","pricing_plan_id":"cebpf4jnsgd1na2vs0mg"},{"bike_id":"5be12bc2-761d-4bae-9ec8-a802d5fc2258","system_id":"levelo_inurba_marseille","lat":43.286612,"lon":5.363456,"is_reserved":false,"is_disabled":false,"rental_uris":{"android":"levelo://app?vid=5be12bc2-761d-4bae-9ec8-a802d5fc2258","ios":"levelo://app?vid=5be12bc2-761d-4bae-9ec8-a802d5fc2258"},"vehicle_type_id":"4","last_reported":1719007666,"current_range_meters":27200,"station_id":"ce4bhah2rcd13ifvqej0","pricing_plan_id":"cebpf4jnsgd1na2vs0mg"},{"bike_id":"ddedfee5-2c54-41e5-bdfb-e70a39318e55","system_id":"levelo_inurba_marseille","lat":43.286591,"lon":5.363346,"is_reserved":false,"is_disabled":false,"rental_uris":{"android":"levelo://app?vid=ddedfee5-2c54-41e5-bdfb-e70a39318e55","ios":"levelo://app?vid=ddedfee5-2c54-41e5-bdfb-e70a39318e55"},"vehicle_type_id":"4","last_reported":1719007666,"current_range_meters":11200,"station_id":"ce4bhah2rcd13ifvqej0","pricing_plan_id":"cebpf4jnsgd1na2vs0mg"},{"bike_id":"89339655-47d3-4898-bdf3-ee92e21307d1","system_id":"levelo_inurba_marseille","lat":43.286591,"lon":5.363346,"is_reserved":false,"is_disabled":false,"rental_uris":{"android":"levelo://app?vid=89339655-47d3-4898-bdf3-ee92e21307d1","ios":"levelo://app?vid=89339655-47d3-4898-bdf3-ee92e21307d1"},"vehicle_type_id":"4","last_reported":1719007666,"current_range_meters":6400,"station_id":"ce4bhah2rcd13ifvqej0","pricing_plan_id":"cebpf4jnsgd1na2vs0mg"},{"bike_id":"70e9d899-7772-40dc-aaac-243470ac67ae","system_id":"levelo_inurba_marseille","lat":43.29029,"lon":5.3864,"is_reserved":false,"is_disabled":false,"rental_uris":{"android":"levelo://app?vid=70e9d899-7772-40dc-aaac-243470ac67ae","ios":"levelo://app?vid=70e9d899-7772-40dc-aaac-243470ac67ae"},"vehicle_type_id":"4","last_reported":1719007666,"current_range_meters":3200,"station_id":"ce4bh4p2rcd13ifvqe0g","pricing_plan_id":"cebpf4jnsgd1na2vs0mg"},{"bike_id":"404a78e7-f84c-41a9-bba8-f30d22779b59","system_id":"levelo_inurba_marseille","lat":43.29031,"lon":5.38646,"is_reserved":false,"is_disabled":false,"rental_uris":{"android":"levelo://app?vid=404a78e7-f84c-41a9-bba8-f30d22779b59","ios":"levelo://app?vid=404a78e7-f84c-41a9-bba8-f30d22779b59"},"vehicle_type_id":"4","last_reported":1719007666,"current_range_meters":10400,"station_id":"ce4bh4p2rcd13ifvqe0g","pricing_plan_id":"cebpf4jnsgd1na2vs0mg"},{"bike_id":"9422755c-420e-45c8-8758-1dab7663566d","system_id":"levelo_inurba_marseille","lat":43.29027,"lon":5.38638,"is_reserved":false,"is_disabled":false,"rental_uris":{"android":"levelo://app?vid=9422755c-420e-45c8-8758-1dab7663566d","ios":"levelo://app?vid=9422755c-420e-45c8-8758-1dab7663566d"},"vehicle_type_id":"4","last_reported":1719007666,"current_range_meters":22000,"station_id":"ce4bh4p2rcd13ifvqe0g","pricing_plan_id":"cebpf4jnsgd1na2vs0mg"},{"bike_id":"5e0dd7ef-7f77-4be0-8635-d24d18dbceb0","system_id":"levelo_inurba_marseille","lat":43.29027,"lon":5.38639,"is_reserved":false,"is_disabled":false,"rental_uris":{"android":"levelo://app?vid=5e0dd7ef-7f77-4be0-8635-d24d18dbceb0","ios":"levelo://app?vid=5e0dd7ef-7f77-4be0-8635-d24d18dbceb0"},"vehicle_type_id":"4","last_reported":1719007666,"current_range_meters":0,"station_id":"ce4bh4p2rcd13ifvqe0g","pricing_plan_id":"cebpf4jnsgd1na2vs0mg"},{"bike_id":"a209d2b5-3750-441a-a6f3-b0f6551ed71a","system_id":"levelo_inurba_marseille","lat":43.29025,"lon":5.38637,"is_reserved":false,"is_disabled":false,"rental_uris":{"android":"levelo://app?vid=a209d2b5-3750-441a-a6f3-b0f6551ed71a","ios":"levelo://app?vid=a209d2b5-3750-441a-a6f3-b0f6551ed71a"},"vehicle_type_id":"4","last_reported":1719007666,"current_range_meters":19200,"station_id":"ce4bh4p2rcd13ifvqe0g","pricing_plan_id":"cebpf4jnsgd1na2vs0mg"},{"bike_id":"425f1176-dc5e-4990-9974-a480ce2d239c","system_id":"levelo_inurba_marseille","lat":43.29024,"lon":5.38639,"is_reserved":false,"is_disabled":false,"rental_uris":{"android":"levelo://app?vid=425f1176-dc5e-4990-9974-a480ce2d239c","ios":"levelo://app?vid=425f1176-dc5e-4990-9974-a480ce2d239c"},"vehicle_type_id":"4","last_reported":1719007666,"current_range_meters":8800,"station_id":"ce4bh4p2rcd13ifvqe0g","pricing_plan_id":"cebpf4jnsgd1na2vs0mg"},{"bike_id":"edc4f727-6219-430e-89ea-fe0aa0950295","system_id":"levelo_inurba_marseille","lat":43.290336,"lon":5.386425,"is_reserved":false,"is_disabled":false,"rental_uris":{"android":"levelo://app?vid=edc4f727-6219-430e-89ea-fe0aa0950295","ios":"levelo://app?vid=edc4f727-6219-430e-89ea-fe0aa0950295"},"vehicle_type_id":"4","last_reported":1719007666,"current_range_meters":3200,"station_id":"ce4bh4p2rcd13ifvqe0g","pricing_plan_id":"cebpf4jnsgd1na2vs0mg"},{"bike_id":"ff59ee22-4561-476b-bc43-efe0f4ad3f66","system_id":"levelo_inurba_marseille","lat":43.290248,"lon":5.386471,"is_reserved":false,"is_disabled":false,"rental_uris":{"android":"levelo://app?vid=ff59ee22-4561-476b-bc43-efe0f4ad3f66","ios":"levelo://app?vid=ff59ee22-4561-476b-bc43-efe0f4ad3f66"},"vehicle_type_id":"4","last_reported":1719007666,"current_range_meters":0,"station_id":"ce4bh4p2rcd13ifvqe0g","pricing_plan_id":"cebpf4jnsgd1na2vs0mg"},{"bike_id":"6eb62a7f-e769-4791-94e8-7f9d2cb15582","system_id":"levelo_inurba_marseille","lat":43.290336,"lon":5.386425,"is_reserved":false,"is_disabled":false,"rental_uris":{"android":"levelo://app?vid=6eb62a7f-e769-4791-94e8-7f9d2cb15582","ios":"levelo://app?vid=6eb62a7f-e769-4791-94e8-7f9d2cb15582"},