{"last_updated":1770709931,"ttl":60,"version":"2.2","data":{"bikes":[{"bike_id":"81f5a16d-a2f0-4cd2-a5c9-53e69bf4cd2c","system_id":"levelo_inurba_marseille","lat":43.29543,"lon":5.4229,"is_reserved":false,"is_disabled":false,"rental_uris":{"android":"levelo://app?vid=81f5a16d-a2f0-4cd2-a5c9-53e69bf4cd2c","ios":"levelo://app?vid=81f5a16d-a2f0-4cd2-a5c9-53e69bf4cd2c"},"vehicle_type_id":"4","last_reported":1770709932,"current_range_meters":2800,"station_id":"ce4bhph2rcd13ifvqhdg","pricing_plan_id":"cebpf4jnsgd1na2vs0mg"},{"bike_id":"c84f98ff-c4b0-498e-bd41-7b5647869b42","system_id":"levelo_inurba_marseille","lat":43.23378,"lon":5.41234,"is_reserved":false,"is_disabled":false,"rental_uris":{"android":"levelo://app?vid=c84f98ff-c4b0-498e-bd41-7b5647869b42","ios":"levelo://app?vid=c84f98ff-c4b0-498e-bd41-7b5647869b42"},"vehicle_type_id":"4","last_reported":1770709932,"current_range_meters":2800,"station_id":"","pricing_plan_id":"cebpf4jnsgd1na2vs0mg"},{"bike_id":"707dd2c5-36da-401a-beac-91d3b45ec1bb","system_id":"levelo_inurba_marseille","lat":43.246598,"lon":5.381673,"is_reserved":false,"is_disabled":false,"rental_uris":{"android":"levelo://app?vid=707dd2c5-36da-401a-beac-91d3b45ec1bb","ios":"levelo://app?vid=707dd2c5-36da-401a-beac-91d3b45ec1bb"},"vehicle_type_id":"4","last_reported":1770709932,"current_range_meters":2800,"station_id":"ce4bhih2rcd13ifvqfr0","pricing_plan_id":"cebpf4jnsgd1na2vs0mg"},{"bike_id":"32224727-c6e8-4746-b07b-7875929388c0","system_id":"levelo_inurba_marseille","lat":43.31339,"lon":5.36711,"is_reserved":false,"is_disabled":false,"rental_uris":{"android":"levelo://app?vid=32224727-c6e8-4746-b07b-7875929388c0","ios":"levelo://app?vid=32224727-c6e8-4746-b07b-7875929388c0"},"vehicle_type_id":"4","last_reported":1770709932,"current_range_meters":2800,"station_id":"ce4bgr92rcd13ifvqc6g","pricing_plan_id":"cebpf4jnsgd1na2vs0mg"},{"bike_id":"4ad455a4-4973-403e-ba9a-fd6dc4eb6759","system_id":"levelo_inurba_marseille","lat":43.30151,"lon":5.38782,"is_reserved":false,"is_disabled":false,"rental_uris":{"android":"levelo://app?vid=4ad455a4-4973-403e-ba9a-fd6dc4eb6759","ios":"levelo://app?vid=4ad455a4-4973-403e-ba9a-fd6dc4eb6759"},"vehicle_type_id":"4","last_reported":1770709932,"current_range_meters":2800,"station_id":"ce4bghh2rcd13ifvqb60","pricing_plan_id":"cebpf4jnsgd1na2vs0mg"},{"bike_id":"0c7d41aa-8db0-41f6-a451-7afbd59d2301","system_id":"levelo_inurba_marseille","lat":43.24078,"lon":5.37753,"is_reserved":false,"is_disabled":false,"rental_uris":{"android":"levelo://app?vid=0c7d41aa-8db0-41f6-a451-7afbd59d2301","ios":"levelo://app?vid=0c7d41aa-8db0-41f6-a451-7afbd59d2301"},"vehicle_type_id":"4","last_reported":1770709932,"current_range_meters":2800,"station_id":"ce4bhnp2rcd13ifvqgvg","pricing_plan_id":"cebpf4jnsgd1na2vs0mg"},{"bike_id":"ac645712-adb7-427c-9a1d-bbc03b4ccac1","system_id":"levelo_inurba_marseille","lat":43.211924,"lon":5.350726,"is_reserved":false,"is_disabled":false,"rental_uris":{"android":"levelo://app?vid=ac645712-adb7-427c-9a1d-bbc03b4ccac1","ios":"levelo://app?vid=ac645712-adb7-427c-9a1d-bbc03b4ccac1"},"vehicle_type_id":"4","last_reported":1770709932,"current_range_meters":2800,"station_id":"st_cvj6sg6p6f1abm77japg","pricing_plan_id":"cebpf4jnsgd1na2vs0mg"},{"bike_id":"0ff544e2-adf6-4505-adee-6af5315450e3","system_id":"levelo_inurba_marseille","lat":43.28487,"lon":5.38542,"is_reserved":false,"is_disabled":false,"rental_uris":{"android":"levelo://app?vid=0ff544e2-adf6-4505-adee-6af5315450e3","ios":"levelo://app?vid=0ff544e2-adf6-4505-adee-6af5315450e3"},"vehicle_type_id":"4","last_reported":1770709932,"current_range_meters":2800,"station_id":"ce4bh8p2rcd13ifvqeb0","pricing_plan_id":"cebpf4jnsgd1na2vs0mg"},{"bike_id":"05021b42-3a25-4787-a8aa-184ed11f1746","system_id":"levelo_inurba_marseille","lat":43.25933,"lon":5.40908,"is_reserved":false,"is_disabled":false,"rental_uris":{"android":"levelo://app?vid=05021b42-3a25-4787-a8aa-184ed11f1746","ios":"levelo://app?vid=05021b42-3a25-4787-a8aa-184ed11f1746"},"vehicle_type_id":"4","last_reported":1770709932,"current_range_meters":2800,"station_id":"ce4bhm92rcd13ifvqglg","pricing_plan_id":"cebpf4jnsgd1na2vs0mg"},{"bike_id":"fa858abf-54bc-43f6-8d6e-edbb115bda1f","system_id":"levelo_inurba_marseille","lat":43.27915,"lon":5.38044,"is_reserved":false,"is_disabled":false,"rental_uris":{"android":"levelo://app?vid=fa858abf-54bc-43f6-8d6e-edbb115bda1f","ios":"levelo://app?vid=fa858abf-54bc-43f6-8d6e-edbb115bda1f"},"vehicle_type_id":"4","last_reported":1770709932,"current_range_meters":2800,"station_id":"ce4bhf92rcd13ifvqf50","pricing_plan_id":"cebpf4jnsgd1na2vs0mg"},{"bike_id":"9a623fd0-36c3-4d8d-8f38-4c8b3c2a3131","system_id":"levelo_inurba_marseille","lat":43.28267,"lon":5.35072,"is_reserved":false,"is_disabled":false,"rental_uris":{"android":"levelo://app?vid=9a623fd0-36c3-4d8d-8f38-4c8b3c2a3131","ios":"levelo://app?vid=9a623fd0-36c3-4d8d-8f38-4c8b3c2a3131"},"vehicle_type_id":"4","last_reported":1770709932,"current_range_meters":3200,"station_id":"ce4bhbp2rcd13ifvqerg","pricing_plan_id":"cebpf4jnsgd1na2vs0mg"},{"bike_id":"c0d37677-e009-4056-b6f6-48ed1b725be4","system_id":"levelo_inurba_marseille","lat":43.27309,"lon":5.39133,"is_reserved":false,"is_disabled":true,"rental_uris":{"android":"levelo://app?vid=c0d37677-e009-4056-b6f6-48ed1b725be4","ios":"levelo://app?vid=c0d37677-e009-4056-b6f6-48ed1b725be4"},"vehicle_type_id":"4","last_reported":1770709932,"current_range_meters":3200,"station_id":"ce4bhgp2rcd13ifvqfe0","pricing_plan_id":"cebpf4jnsgd1na2vs0mg"},{"bike_id":"70519adb-911c-4120-b6a7-3660c44ac45b","system_id":"levelo_inurba_marseille","lat":43.24731,"lon":5.39272,"is_reserved":false,"is_disabled":false,"rental_uris":{"android":"levelo://app?vid=70519adb-911c-4120-b6a7-3660c44ac45b","ios":"levelo://app?vid=70519adb-911c-4120-b6a7-3660c44ac45b"},"vehicle_type_id":"4","last_reported":1770709932,"current_range_meters":3200,"station_id":"","pricing_plan_id":"cebpf4jnsgd1na2vs0mg"},{"bike_id":"5b9024b2-6b6f-4568-963d-8070b0fa14b8","system_id":"levelo_inurba_marseille","lat":43.28921,"lon":5.38393,"is_reserved":false,"is_disabled":false,"rental_uris":{"android":"levelo://app?vid=5b9024b2-6b6f-4568-963d-8070b0fa14b8","ios":"levelo://app?vid=5b9024b2-6b6f-4568-963d-8070b0fa14b8"},"vehicle_type_id":"4","last_reported":1770709932,"current_range_meters":3200,"station_id":"ce4bh612rcd13ifvqe6g","pricing_plan_id":"cebpf4jnsgd1na2vs0mg"},{"bike_id":"2d0be516-46ce-4bd9-ab17-1701ac5dd659","system_id":"levelo_inurba_marseille","lat":43.29186,"lon":5.35803,"is_reserved":false,"is_disabled":false,"rental_uris":{"android":"levelo://app?vid=2d0be516-46ce-4bd9-ab17-1701ac5dd659","ios":"levelo://app?vid=2d0be516-46ce-4bd9-ab17-1701ac5dd659"},"vehicle_type_id":"4","last_reported":1770709932,"current_range_meters":3200,"station_id":"ce4bhb12rcd13ifvqel0","pricing_plan_id":"cebpf4jnsgd1na2vs0mg"},{"bike_id":"9f6686fa-6a64-4fb0-b355-40c440a1d791","system_id":"levelo_inurba_marseille","lat":43.26203,"lon":5.37922,"is_reserved":false,"is_disabled":false,"rental_uris":{"android":"levelo://app?vid=9f6686fa-6a64-4fb0-b355-40c440a1d791","ios":"levelo://app?vid=9f6686fa-6a64-4fb0-b355-40c440a1d791"},"vehicle_type_id":"4","last_reported":1770709932,"current_range_meters":3200,"station_id":"ce4bhjp2rcd13ifvqg90","pricing_plan_id":"cebpf4jnsgd1na2vs0mg"},{"bike_id":"05280667-4306-4a3c-89fe-64debd7d10a7","system_id":"levelo_inurba_marseille","lat":43.25003,"lon":5.38928,"is_reserved":false,"is_disabled":false,"rental_uris":{"android":"levelo://app?vid=05280667-4306-4a3c-89fe-64debd7d10a7","ios":"levelo://app?vid=05280667-4306-4a3c-89fe-64debd7d10a7"},"vehicle_type_id":"4","last_reported":1770709932,"current_range_meters":3200,"station_id":"ce4bhgp2rcd13ifvqfd0","pricing_plan_id":"cebpf4jnsgd1na2vs0mg"},{"bike_id":"a16c6b66-4681-4197-97de-590313da117d","system_id":"levelo_inurba_marseille","lat":43.27946,"lon":5.38743,"is_reserved":false,"is_disabled":false,"rental_uris":{"android":"levelo://app?vid=a16c6b66-4681-4197-97de-590313da117d","ios":"levelo://app?vid=a16c6b66-4681-4197-97de-590313da117d"},"vehicle_type_id":"4","last_reported":1770709932,"current_range_meters":3200,"station_id":"ce4bhg12rcd13ifvqf80","pricing_plan_id":"cebpf4jnsgd1na2vs0mg"},{"bike_id":"d5c47b60-206c-4bde-88d7-df8a57cc029d","system_id":"levelo_inurba_marseille","lat":43.30147,"lon":5.38078,"is_reserved":false,"is_disabled":false,"rental_uris":{"android":"levelo://app?vid=d5c47b60-206c-4bde-88d7-df8a57cc029d","ios":"levelo://app?vid=d5c47b60-206c-4bde-88d7-df8a57cc029d"},"vehicle_type_id":"4","last_reported":1770709932,"current_range_meters":3600,"station_id":"ce4bgjp2rcd13ifvqbh0","pricing_plan_id":"cebpf4jnsgd1na2vs0mg"},{"bike_id":"8f17b75e-cb26-46a5-812b-386750ad4b46","system_id":"levelo_inurba_marseille","lat":43.30958,"lon":5.3904,"is_reserved":false,"is_disabled":false,"rental_uris":{"android":"levelo://app?vid=8f17b75e-cb26-46a5-812b-386750ad4b46","ios":"levelo://app?vid=8f17b75e-cb26-46a5-812b-386750ad4b46"},"vehicle_type_id":"4","last_reported":1770709932,"current_range_meters":3600,"station_id":"ce4bgup2rcd13ifvqco0","pricing_plan_id":"cebpf4jnsgd1na2vs0mg"},{"bike_id":"cb2f13ce-034b-441a-a578-3d844ed9c8aa","system_id":"levelo_inurba_marseille","lat":43.25921,"lon":5.40865,"is_reserved":false,"is_disabled":false,"rental_uris":{"android":"levelo://app?vid=cb2f13ce-034b-441a-a578-3d844ed9c8aa","ios":"levelo://app?vid=cb2f13ce-034b-441a-a578-3d844ed9c8aa"},"vehicle_type_id":"4","last_reported":1770709932,"current_range_meters":3600,"station_id":"ce4bhm92rcd13ifvqglg","pricing_plan_id":"cebpf4jnsgd1na2vs0mg"},{"bike_id":"7a98d59e-295a-4bfa-bc3f-38dc3c7d7340","system_id":"levelo_inurba_marseille","lat":43.29542,"lon":5.38544,"is_reserved":false,"is_disabled":false,"rental_uris":{"android":"levelo://app?vid=7a98d59e-295a-4bfa-bc3f-38dc3c7d7340","ios":"levelo://app?vid=7a98d59e-295a-4bfa-bc3f-38dc3c7d7340"},"vehicle_type_id":"4","last_reported":1770709932,"current_range_meters":3600,"station_id":"ce4bgih2rcd13ifvqba0","pricing_plan_id":"cebpf4jnsgd1na2vs0mg"},{"bike_id":"23293c88-e5c7-44c3-bec1-77bf7e226dcb","system_id":"levelo_inurba_marseille","lat":43.27208,"lon":5.39177,"is_reserved":false,"is_disabled":false,"rental_uris":{"android":"levelo://app?vid=23293c88-e5c7-44c3-bec1-77bf7e226dcb","ios":"levelo://app?vid=23293c88-e5c7-44c3-bec1-77bf7e226dcb"},"vehicle_type_id":"4","last_reported":1770709932,"current_range_meters":3600,"station_id":"ce4bhhp2rcd13ifvqfm0","pricing_plan_id":"cebpf4jnsgd1na2vs0mg"},{"bike_id":"d5d0ae74-54fa-4b09-99f0-8e82e1b973d1","system_id":"levelo_inurba_marseille","lat":43.21771,"lon":5.34602,"is_reserved":false,"is_disabled":false,"rental_uris":{"android":"levelo://app?vid=d5d0ae74-54fa-4b09-99f0-8e82e1b973d1","ios":"levelo://app?vid=d5d0ae74-54fa-4b09-99f0-8e82e1b973d1"},"vehicle_type_id":"4","last_reported":1770709932,"current_range_meters":3600,"station_id":"","pricing_plan_id":"cebpf4jnsgd1na2vs0mg"},{"bike_id":"27238229-9d25-4e18-9c73-b0793840d75a","system_id":"levelo_inurba_marseille","lat":43.30134,"lon":5.37414,"is_reserved":false,"is_disabled":false,"rental_uris":{"android":"levelo://app?vid=27238229-9d25-4e18-9c73-b0793840d75a","ios":"levelo://app?vid=27238229-9d25-4e18-9c73-b0793840d75a"},"vehicle_type_id":"4","last_reported":1770709932,"current_range_meters":3600,"station_id":"ce4bgs92rcd13ifvqcc0","pricing_plan_id":"cebpf4jnsgd1na2vs0mg"},{"bike_id":"2a41a4e7-1277-4985-ba78-22bce5859488","system_id":"levelo_inurba_marseille","lat":43.25947,"lon":5.40895,"is_reserved":false,"is_disabled":false,"rental_uris":{"android":"levelo://app?vid=2a41a4e7-1277-4985-ba78-22bce5859488","ios":"levelo://app?vid=2a41a4e7-1277-4985-ba78-22bce5859488"},"vehicle_type_id":"4","last_reported":1770709932,"current_range_meters":3600,"station_id":"ce4bhm92rcd13ifvqglg","pricing_plan_id":"cebpf4jnsgd1na2vs0mg"},{"bike_id":"81089c31-0f23-400c-91cf-65461521d37b","system_id":"levelo_inurba_marseille","lat":43.25808,"lon":5.39484,"is_reserved":false,"is_disabled":false,"rental_uris":{"android":"levelo://app?vid=81089c31-0f23-400c-91cf-65461521d37b","ios":"levelo://app?vid=81089c31-0f23-400c-91cf-65461521d37b"},"vehicle_type_id":"4","last_reported":1770709932,"current_range_meters":4000,"station_id":"ce4bhip2rcd13ifvqft0","pricing_plan_id":"cebpf4jnsgd1na2vs0mg"},{"bike_id":"7405d636-e47f-4f2f-9178-938f60a998bd","system_id":"levelo_inurba_marseille","lat":43.30555,"lon":5.36701,"is_reserved":false,"is_disabled":false,"rental_uris":{"android":"levelo://app?vid=7405d636-e47f-4f2f-9178-938f60a998bd","ios":"levelo://app?vid=7405d636-e47f-4f2f-9178-938f60a998bd"},"vehicle_type_id":"4","last_reported":1770709932,"current_range_meters":4000,"station_id":"ce4bgrp2rcd13ifvqc9g","pricing_plan_id":"cebpf4jnsgd1na2vs0mg"},{"bike_id":"11362055-2532-43bc-accf-dec1dfa873dc","system_id":"levelo_inurba_marseille","lat":43.235136,"lon":5.410949,"is_reserved":false,"is_disabled":false,"rental_uris":{"android":"levelo://app?vid=11362055-2532-43bc-accf-dec1dfa873dc","ios":"levelo://app?vid=11362055-2532-43bc-accf-dec1dfa873dc"},"vehicle_type_id":"4","last_reported":1770709932,"current_range_meters":4000,"station_id":"","pricing_plan_id":"cebpf4jnsgd1na2vs0mg"},{"bike_id":"b7373ee6-e145-4b05-80ed-3adb7fce0200","system_id":"levelo_inurba_marseille","lat":43.29574,"lon":5.36716,"is_reserved":false,"is_disabled":false,"rental_uris":{"android":"levelo://app?vid=b7373ee6-e145-4b05-80ed-3adb7fce0200","ios":"levelo://app?vid=b7373ee6-e145-4b05-80ed-3adb7fce0200"},"vehicle_type_id":"4","last_reported":1770709932,"current_range_meters":4000,"station_id":"ce4bgph2rcd13ifvqc2g","pricing_plan_id":"cebpf4jnsgd1na2vs0mg"},{"bike_id":"39cbdcae-9ab3-4efd-baf3-2d75993c8302","system_id":"levelo_inurba_marseille","lat":43.27497,"lon":5.42461,"is_reserved":false,"is_disabled":false,"rental_uris":{"android":"levelo://app?vid=39cbdcae-9ab3-4efd-baf3-2d75993c8302","ios":"levelo://app?vid=39cbdcae-9ab3-4efd-baf3-2d75993c8302"},"vehicle_type_id":"4","last_reported":1770709932,"current_range_meters":4000,"station_id":"ce4bhn92rcd13ifvqgrg","pricing_plan_id":"cebpf4jnsgd1na2vs0mg"},{"bike_id":"7b23c59a-e91f-4ebf-b287-e184212eaf2b","system_id":"levelo_inurba_marseille","lat":43.24643,"lon":5.38877,"is_reserved":false,"is_disabled":false,"rental_uris":{"android":"levelo://app?vid=7b23c59a-e91f-4ebf-b287-e184212eaf2b","ios":"levelo://app?vid=7b23c59a-e91f-4ebf-b287-e184212eaf2b"},"vehicle_type_id":"4","last_reported":1770709932,"current_range_meters":4000,"station_id":"ce4bhg12rcd13ifvqf60","pricing_plan_id":"cebpf4jnsgd1na2vs0mg"},{"bike_id":"0dc840cd-ae76-4937-ba49-32101ce54486","system_id":"levelo_inurba_marseille","lat":43.26619,"lon":5.37227,"is_reserved":false,"is_disabled":true,"rental_uris":{"android":"levelo://app?vid=0dc840cd-ae76-4937-ba49-32101ce54486","ios":"levelo://app?vid=0dc840cd-ae76-4937-ba49-32101ce54486"},"vehicle_type_id":"4","last_reported":1770709932,"current_range_meters":4000,"station_id":"ce4bhg12rcd13ifvqf70","pricing_plan_id":"cebpf4jnsgd1na2vs0mg"},{"bike_id":"b976da57-90fa-4b3b-98df-001885f7b440","system_id":"levelo_inurba_marseille","lat":43.31059,"lon":5.38356,"is_reserved":false,"is_disabled":false,"rental_uris":{"android":"levelo://app?vid=b976da57-90fa-4b3b-98df-001885f7b440","ios":"levelo://app?vid=b976da57-90fa-4b3b-98df-001885f7b440"},"vehicle_type_id":"4","last_reported":1770709932,"current_range_meters":4000,"station_id":"ce4bgv92rcd13ifvqcr0","pricing_plan_id":"cebpf4jnsgd1na2vs0mg"},{"bike_id":"f2bc4079-69dc-4c38-8ac6-9eac0b6ce250","system_id":"levelo_inurba_marseille","lat":43.25939,"lon":5.409,"is_reserved":false,"is_disabled":false,"rental_uris":{"android":"levelo://app?vid=f2bc4079-69dc-4c38-8ac6-9eac0b6ce250","ios":"levelo://app?vid=f2bc4079-69dc-4c38-8ac6-9eac0b6ce250"},"vehicle_type_id":"4","last_reported":1770709932,"current_range_meters":4000,"station_id":"ce4bhm92rcd13ifvqglg","pricing_plan_id":"cebpf4jnsgd1na2vs0mg"},{"bike_id":"aa2bf0cd-9661-4d84-8b59-aed68b60696e","system_id":"levelo_inurba_marseille","lat":43.21742,"lon":5.34614,"is_reserved":false,"is_disabled":false,"rental_uris":{"android":"levelo://app?vid=aa2bf0cd-9661-4d84-8b59-aed68b60696e","ios":"levelo://app?vid=aa2bf0cd-9661-4d84-8b59-aed68b60696e"},"vehicle_type_id":"4","last_reported":1770709932,"current_range_meters":4000,"station_id":"st_cvj6r9ubvosntc0bgbag","pricing_plan_id":"cebpf4jnsgd1na2vs0mg"},{"bike_id":"b0437b95-ba96-479d-b093-d1fdf30e7bf6","system_id":"levelo_inurba_marseille","lat":43.31456,"lon":5.4042,"is_reserved":false,"is_disabled":false,"rental_uris":{"android":"levelo://app?vid=b0437b95-ba96-479d-b093-d1fdf30e7bf6","ios":"levelo://app?vid=b0437b95-ba96-479d-b093-d1fdf30e7bf6"},"vehicle_type_id":"4","last_reported":1770709932,"current_range_meters":4000,"station_id":"","pricing_plan_id":"cebpf4jnsgd1na2vs0mg"},{"bike_id":"24cd2c3b-a5fc-4999-abed-eff724d144f3","system_id":"levelo_inurba_marseille","lat":43.27323,"lon":5.39127,"is_reserved":false,"is_disabled":false,"rental_uris":{"android":"levelo://app?vid=24cd2c3b-a5fc-4999-abed-eff724d144f3","ios":"levelo://app?vid=24cd2c3b-a5fc-4999-abed-eff724d144f3"},"vehicle_type_id":"4","last_reported":1770709932,"current_range_meters":4000,"station_id":"ce4bhgp2rcd13ifvqfe0","pricing_plan_id":"cebpf4jnsgd1na2vs0mg"},{"bike_id":"631ca18a-8f45-4674-bb51-5eec2347caad","system_id":"levelo_inurba_marseille","lat":43.24671,"lon":5.38148,"is_reserved":false,"is_disabled":false,"rental_uris":{"android":"levelo://app?vid=631ca18a-8f45-4674-bb51-5eec2347caad","ios":"levelo://app?vid=631ca18a-8f45-4674-bb51-5eec2347caad"},"vehicle_type_id":"4","last_reported":1770709932,"current_range_meters":4000,"station_id":"ce4bhih2rcd13ifvqfr0","pricing_plan_id":"cebpf4jnsgd1na2vs0mg"},{"bike_id":"759bfe84-c6d3-480a-8dd9-61185248b558","system_id":"levelo_inurba_marseille","lat":43.29379,"lon":5.3784,"is_reserved":false,"is_disabled":false,"rental_uris":{"android":"levelo://app?vid=759bfe84-c6d3-480a-8dd9-61185248b558","ios":"levelo://app?vid=759bfe84-c6d3-480a-8dd9-61185248b558"},"vehicle_type_id":"4","last_reported":1770709932,"current_range_meters":4000,"station_id":"ce4bgjh2rcd13ifvqbf0","pricing_plan_id":"cebpf4jnsgd1na2vs0mg"},{"bike_id":"7d59f1f1-2621-4853-91a8-34ee2eea3bf8","system_id":"levelo_inurba_marseille","lat":43.24402,"lon":5.37083,"is_reserved":false,"is_disabled":false,"rental_uris":{"android":"levelo://app?vid=7d59f1f1-2621-4853-91a8-34ee2eea3bf8","ios":"levelo://app?vid=7d59f1f1-2621-4853-91a8-34ee2eea3bf8"},"vehicle_type_id":"4","last_reported":1770709932,"current_range_meters":4400,"station_id":"ce4bhhh2rcd13ifvqfk0","pricing_plan_id":"cebpf4jnsgd1na2vs0mg"},{"bike_id":"6051b31d-701e-49ad-8b8c-d5a67a21069c","system_id":"levelo_inurba_marseille","lat":43.27993,"lon":5.40006,"is_reserved":false,"is_disabled":false,"rental_uris":{"android":"levelo://app?vid=6051b31d-701e-49ad-8b8c-d5a67a21069c","ios":"levelo://app?vid=6051b31d-701e-49ad-8b8c-d5a67a21069c"},"vehicle_type_id":"4","last_reported":1770709932,"current_range_meters":4400,"station_id":"ce4bho92rcd13ifvqh4g","pricing_plan_id":"cebpf4jnsgd1na2vs0mg"},{"bike_id":"ffcfb0a6-be0d-4d3d-b9ec-3a4698a83e7b","system_id":"levelo_inurba_marseille","lat":43.25944,"lon":5.409,"is_reserved":false,"is_disabled":false,"rental_uris":{"android":"levelo://app?vid=ffcfb0a6-be0d-4d3d-b9ec-3a4698a83e7b","ios":"levelo://app?vid=ffcfb0a6-be0d-4d3d-b9ec-3a4698a83e7b"},"vehicle_type_id":"4","last_reported":1770709932,"current_range_meters":4400,"station_id":"ce4bhm92rcd13ifvqglg","pricing_plan_id":"cebpf4jnsgd1na2vs0mg"},{"bike_id":"286b6ff3-cad3-40cc-8457-9f3961da585f","system_id":"levelo_inurba_marseille","lat":43.26031,"lon":5.37563,"is_reserved":false,"is_disabled":false,"rental_uris":{"android":"levelo://app?vid=286b6ff3-cad3-40cc-8457-9f3961da585f","ios":"levelo://app?vid=286b6ff3-cad3-40cc-8457-9f3961da585f"},"vehicle_type_id":"4","last_reported":1770709932,"current_range_meters":4400,"station_id":"ce4bhgh2rcd13ifvqfa0","pricing_plan_id":"cebpf4jnsgd1na2vs0mg"},{"bike_id":"4ed74a89-631e-4f3d-9ffb-104dbcec7ce5","system_id":"levelo_inurba_marseille","lat":43.279945,"lon":5.400077,"is_reserved":false,"is_disabled":false,"rental_uris":{"android":"levelo://app?vid=4ed74a89-631e-4f3d-9ffb-104dbcec7ce5","ios":"levelo://app?vid=4ed74a89-631e-4f3d-9ffb-104dbcec7ce5"},"vehicle_type_id":"4","last_reported":1770709932,"current_range_meters":4400,"station_id":"ce4bho92rcd13ifvqh4g","pricing_plan_id":"cebpf4jnsgd1na2vs0mg"},{"bike_id":"777f1f50-9ccf-46db-a1bf-cfe765ca1373","system_id":"levelo_inurba_marseille","lat":43.26054,"lon":5.39373,"is_reserved":false,"is_disabled":false,"rental_uris":{"android":"levelo://app?vid=777f1f50-9ccf-46db-a1bf-cfe765ca1373","ios":"levelo://app?vid=777f1f50-9ccf-46db-a1bf-cfe765ca1373"},"vehicle_type_id":"4","last_reported":1770709932,"current_range_meters":4400,"station_id":"ce4bhh92rcd13ifvqfj0","pricing_plan_id":"cebpf4jnsgd1na2vs0mg"},{"bike_id":"69312b55-babd-48a3-881d-2a9813b715b9","system_id":"levelo_inurba_marseille","lat":43.283557,"lon":5.380988,"is_reserved":false,"is_disabled":false,"rental_uris":{"android":"levelo://app?vid=69312b55-babd-48a3-881d-2a9813b715b9","ios":"levelo://app?vid=69312b55-babd-48a3-881d-2a9813b715b9"},"vehicle_type_id":"4","last_reported":1770709932,"current_range_meters":4400,"station_id":"ce4bh412rcd13ifvqdr0","pricing_plan_id":"cebpf4jnsgd1na2vs0mg"},{"bike_id":"4f801ac8-7e18-4f4e-813d-e2c4b2346d28","system_id":"levelo_inurba_marseille","lat":43.265598,"lon":5.390129,"is_reserved":false,"is_disabled":false,"rental_uris":{"android":"levelo://app?vid=4f801ac8-7e18-4f4e-813d-e2c4b2346d28","ios":"levelo://app?vid=4f801ac8-7e18-4f4e-813d-e2c4b2346d28"},"vehicle_type_id":"4","last_reported":1770709932,"current_range_meters":4400,"station_id":"ce4bhe12rcd13ifvqf30","pricing_plan_id":"cebpf4jnsgd1na2vs0mg"},{"bike_id":"36ac8fb1-1e6b-4c04-8e8e-9441a471d5f6","system_id":"levelo_inurba_marseille","lat":43.284838,"lon":5.484038,"is_reserved":false,"is_disabled":false,"rental_uris":{"android":"levelo://app?vid=36ac8fb1-1e6b-4c04-8e8e-9441a471d5f6","ios":"levelo://app?vid=36ac8fb1-1e6b-4c04-8e8e-9441a471d5f6"},"vehicle_type_id":"4","last_reported":1770709932,"current_range_meters":4800,"station_id":"st_d3svhcjqgbts73a3dn0g","pricing_plan_id":"cebpf4jnsgd1na2vs0mg"},{"bike_id":"e8bb3f15-b7c5-47d2-b9bc-e4535782c9ef","system_id":"levelo_inurba_marseille","lat":43.2557,"lon":5.38255,"is_reserved":false,"is_disabled":false,"rental_uris":{"android":"levelo://app?vid=e8bb3f15-b7c5-47d2-b9bc-e4535782c9ef","ios":"levelo://app?vid=e8bb3f15-b7c5-47d2-b9bc-e4535782c9ef"},"vehicle_type_id":"4","last_reported":1770709932,"current_range_meters":4800,"station_id":"ce4bhih2rcd13ifvqfs0","pricing_plan_id":"cebpf4jnsgd1na2vs0mg"},{"bike_id":"6e043c13-5a31-4e0d-9658-13d292ba1363","system_id":"levelo_inurba_marseille","lat":43.262021,"lon":5.379274,"is_reserved":false,"is_disabled":false,"rental_uris":{"android":"levelo://app?vid=6e043c13-5a31-4e0d-9658-13d292ba1363","ios":"levelo://app?vid=6e043c13-5a31-4e0d-9658-13d292ba1363"},"vehicle_type_id":"4","last_reported":1770709932,"current_range_meters":4800,"station_id":"ce4bhjp2rcd13ifvqg90","pricing_plan_id":"cebpf4jnsgd1na2vs0mg"},{"bike_id":"7e01f57b-ade8-4cc3-81c3-76e88fac1321","system_id":"levelo_inurba_marseille","lat":43.284762,"lon":5.484068,"is_reserved":false,"is_disabled":false,"rental_uris":{"android":"levelo://app?vid=7e01f57b-ade8-4cc3-81c3-76e88fac1321","ios":"levelo://app?vid=7e01f57b-ade8-4cc3-81c3-76e88fac1321"},"vehicle_type_id":"4","last_reported":1770709932,"current_range_meters":4800,"station_id":"st_d3svhcjqgbts73a3dn0g","pricing_plan_id":"cebpf4jnsgd1na2vs0mg"},{"bike_id":"40ca09fe-7866-480e-ac60-f7b7f539bb36","system_id":"levelo_inurba_marseille","lat":43.23377,"lon":5.41244,"is_reserved":false,"is_disabled":false,"rental_uris":{"android":"levelo://app?vid=40ca09fe-7866-480e-ac60-f7b7f539bb36","ios":"levelo://app?vid=40ca09fe-7866-480e-ac60-f7b7f539bb36"},"vehicle_type_id":"4","last_reported":1770709932,"current_range_meters":4800,"station_id":"","pricing_plan_id":"cebpf4jnsgd1na2vs0mg"},{"bike_id":"43e820c3-1858-4667-9352-6c21601ce57b","system_id":"levelo_inurba_marseille","lat":43.29041,"lon":5.37577,"is_reserved":false,"is_disabled":false,"rental_uris":{"android":"levelo://app?vid=43e820c3-1858-4667-9352-6c21601ce57b","ios":"levelo://app?vid=43e820c3-1858-4667-9352-6c21601ce57b"},"vehicle_type_id":"4","last_reported":1770709932,"current_range_meters":4800,"station_id":"ce4bh692rcd13ifvqe90","pricing_plan_id":"cebpf4jnsgd1na2vs0mg"},{"bike_id":"f06d39c3-4fb7-4921-b026-4cb6cd175c2f","system_id":"levelo_inurba_marseille","lat":43.29921,"lon":5.37463,"is_reserved":false,"is_disabled":false,"rental_uris":{"android":"levelo://app?vid=f06d39c3-4fb7-4921-b026-4cb6cd175c2f","ios":"levelo://app?vid=f06d39c3-4fb7-4921-b026-4cb6cd175c2f"},"vehicle_type_id":"4","last_reported":1770709932,"current_range_meters":5600,"station_id":"ce4bgjh2rcd13ifvqbg0","pricing_plan_id":"cebpf4jnsgd1na2vs0mg"},{"bike_id":"c510c712-03e5-449a-a36e-db1d23a82731","system_id":"levelo_inurba_marseille","lat":43.274947,"lon":5.424557,"is_reserved":false,"is_disabled":false,"rental_uris":{"android":"levelo://app?vid=c510c712-03e5-449a-a36e-db1d23a82731","ios":"levelo://app?vid=c510c712-03e5-449a-a36e-db1d23a82731"},"vehicle_type_id":"4","last_reported":1770709932,"current_range_meters":5600,"station_id":"ce4bhn92rcd13ifvqgrg","pricing_plan_id":"cebpf4jnsgd1na2vs0mg"},{"bike_id":"ea5b640c-f9cc-4437-aff2-20b9a17b6db1","system_id":"levelo_inurba_marseille","lat":43.25905,"lon":5.40884,"is_reserved":false,"is_disabled":false,"rental_uris":{"android":"levelo://app?vid=ea5b640c-f9cc-4437-aff2-20b9a17b6db1","ios":"levelo://app?vid=ea5b640c-f9cc-4437-aff2-20b9a17b6db1"},"vehicle_type_id":"4","last_reported":1770709932,"current_range_meters":5600,"station_id":"ce4bhm92rcd13ifvqglg","pricing_plan_id":"cebpf4jnsgd1na2vs0mg"},{"bike_id":"0d435044-39b2-4402-857a-610b31675306","system_id":"levelo_inurba_marseille","lat":43.310772,"lon":5.374495,"is_reserved":false,"is_disabled":false,"rental_uris":{"android":"levelo://app?vid=0d435044-39b2-4402-857a-610b31675306","ios":"levelo://app?vid=0d435044-39b2-4402-857a-610b31675306"},"vehicle_type_id":"4","last_reported":1770709932,"current_range_meters":5600,"station_id":"","pricing_plan_id":"cebpf4jnsgd1na2vs0mg"},{"bike_id":"9b51a2e6-7390-417b-8756-92f08ca0518f","system_id":"levelo_inurba_marseille","lat":43.31119,"lon":5.37745,"is_reserved":false,"is_disabled":false,"rental_uris":{"android":"levelo://app?vid=9b51a2e6-7390-417b-8756-92f08ca0518f","ios":"levelo://app?vid=9b51a2e6-7390-417b-8756-92f08ca0518f"},"vehicle_type_id":"4","last_reported":1770709932,"current_range_meters":5600,"station_id":"ce4bgt92rcd13ifvqcg0","pricing_plan_id":"cebpf4jnsgd1na2vs0mg"},{"bike_id":"8d65ea59-159e-4e8e-8acb-244f43059bc9","system_id":"levelo_inurba_marseille","lat":43.24166,"lon":5.36426,"is_reserved":false,"is_disabled":false,"rental_uris":{"android":"levelo://app?vid=8d65ea59-159e-4e8e-8acb-244f43059bc9","ios":"levelo://app?vid=8d65ea59-159e-4e8e-8acb-244f43059bc9"},"vehicle_type_id":"4","last_reported":1770709932,"current_range_meters":5600,"station_id":"cpo36qri1sfpv3e86is0","pricing_plan_id":"cebpf4jnsgd1na2vs0mg"},{"bike_id":"ad9d377e-ddb2-4cc8-be5c-fbf4ada5de5c","system_id":"levelo_inurba_marseille","lat":43.3135,"lon":5.36719,"is_reserved":false,"is_disabled":false,"rental_uris":{"android":"levelo://app?vid=ad9d377e-ddb2-4cc8-be5c-fbf4ada5de5c","ios":"levelo://app?vid=ad9d377e-ddb2-4cc8-be5c-fbf4ada5de5c"},"vehicle_type_id":"4","last_reported":1770709932,"current_range_meters":5600,"station_id":"ce4bgr92rcd13ifvqc6g","pricing_plan_id":"cebpf4jnsgd1na2vs0mg"},{"bike_id":"c0b6c3eb-4055-48c5-be4e-2f3633e2e95f","system_id":"levelo_inurba_marseille","lat":43.22553,"lon":5.41632,"is_reserved":false,"is_disabled":false,"rental_uris":{"android":"levelo://app?vid=c0b6c3eb-4055-48c5-be4e-2f3633e2e95f","ios":"levelo://app?vid=c0b6c3eb-4055-48c5-be4e-2f3633e2e95f"},"vehicle_type_id":"4","last_reported":1770709932,"current_range_meters":5600,"station_id":"st_d2o4gvlbi1j2169b742g","pricing_plan_id":"cebpf4jnsgd1na2vs0mg"},{"bike_id":"1b9f2b5b-5074-42d2-aee0-b5d78af1932e","system_id":"levelo_inurba_marseille","lat":43.27491,"lon":5.42465,"is_reserved":false,"is_disabled":false,"rental_uris":{"android":"levelo://app?vid=1b9f2b5b-5074-42d2-aee0-b5d78af1932e","ios":"levelo://app?vid=1b9f2b5b-5074-42d2-aee0-b5d78af1932e"},"vehicle_type_id":"4","last_reported":1770709932,"current_range_meters":5600,"station_id":"ce4bhn92rcd13ifvqgrg","pricing_plan_id":"cebpf4jnsgd1na2vs0mg"},{"bike_id":"77184e73-2322-4483-a196-a5afb6c11ede","system_id":"levelo_inurba_marseille","lat":43.29388,"lon":5.37839,"is_reserved":false,"is_disabled":false,"rental_uris":{"android":"levelo://app?vid=77184e73-2322-4483-a196-a5afb6c11ede","ios":"levelo://app?vid=77184e73-2322-4483-a196-a5afb6c11ede"},"vehicle_type_id":"4","last_reported":1770709932,"current_range_meters":5600,"station_id":"ce4bgjh2rcd13ifvqbf0","pricing_plan_id":"cebpf4jnsgd1na2vs0mg"},{"bike_id":"b695daad-9e05-4143-b99c-0aa1fa9fb783","system_id":"levelo_inurba_marseille","lat":43.31028,"lon":5.37189,"is_reserved":false,"is_disabled":false,"rental_uris":{"android":"levelo://app?vid=b695daad-9e05-4143-b99c-0aa1fa9fb783","ios":"levelo://app?vid=b695daad-9e05-4143-b99c-0aa1fa9fb783"},"vehicle_type_id":"4","last_reported":1770709932,"current_range_meters":5600,"station_id":"st_d4kl2rp97mjs73e7tdfg","pricing_plan_id":"cebpf4jnsgd1na2vs0mg"},{"bike_id":"16a1688f-c2f5-4bf5-96dc-0466fbc0522d","system_id":"levelo_inurba_marseille","lat":43.27976,"lon":5.38708,"is_reserved":false,"is_disabled":false,"rental_uris":{"android":"levelo://app?vid=16a1688f-c2f5-4bf5-96dc-0466fbc0522d","ios":"levelo://app?vid=16a1688f-c2f5-4bf5-96dc-0466fbc0522d"},"vehicle_type_id":"4","last_reported":1770709932,"current_range_meters":6000,"station_id":"ce4bhg12rcd13ifvqf80","pricing_plan_id":"cebpf4jnsgd1na2vs0mg"},{"bike_id":"54bd52e6-912c-41e4-90a6-85e5c05a7d3d","system_id":"levelo_inurba_marseille","lat":43.22562,"lon":5.41631,"is_reserved":false,"is_disabled":false,"rental_uris":{"android":"levelo://app?vid=54bd52e6-912c-41e4-90a6-85e5c05a7d3d","ios":"levelo://app?vid=54bd52e6-912c-41e4-90a6-85e5c05a7d3d"},"vehicle_type_id":"4","last_reported":1770709932,"current_range_meters":6000,"station_id":"st_d2o4gvlbi1j2169b742g","pricing_plan_id":"cebpf4jnsgd1na2vs0mg"},{"bike_id":"1fa76a45-f289-437d-94cc-e8c22daeef5f","system_id":"levelo_inurba_marseille","lat":43.28871,"lon":5.42514,"is_reserved":false,"is_disabled":false,"rental_uris":{"android":"levelo://app?vid=1fa76a45-f289-437d-94cc-e8c22daeef5f","ios":"levelo://app?vid=1fa76a45-f289-437d-94cc-e8c22daeef5f"},"vehicle_type_id":"4","last_reported":1770709932,"current_range_meters":6000,"station_id":"st_d3b462108ojc7389ooeg","pricing_plan_id":"cebpf4jnsgd1na2vs0mg"},{"bike_id":"abc82ae7-1fb1-4138-a05d-1f73df2b858f","system_id":"levelo_inurba_marseille","lat":43.31701,"lon":5.37801,"is_reserved":false,"is_disabled":false,"rental_uris":{"android":"levelo://app?vid=abc82ae7-1fb1-4138-a05d-1f73df2b858f","ios":"levelo://app?vid=abc82ae7-1fb1-4138-a05d-1f73df2b858f"},"vehicle_type_id":"4","last_reported":1770709932,"current_range_meters":6000,"station_id":"","pricing_plan_id":"cebpf4jnsgd1na2vs0mg"},{"bike_id":"2deb45fa-cb82-48cc-9169-0ddc074570fe","system_id":"levelo_inurba_marseille","lat":43.3116,"lon":5.44675,"is_reserved":false,"is_disabled":false,"rental_uris":{"android":"levelo://app?vid=2deb45fa-cb82-48cc-9169-0ddc074570fe","ios":"levelo://app?vid=2deb45fa-cb82-48cc-9169-0ddc074570fe"},"vehicle_type_id":"4","last_reported":1770709932,"current_range_meters":6000,"station_id":"","pricing_plan_id":"cebpf4jnsgd1na2vs0mg"},{"bike_id":"e1242b72-e1d7-481b-8195-5c5f6d9a0b11","system_id":"levelo_inurba_marseille","lat":43.2463,"lon":5.43126,"is_reserved":false,"is_disabled":false,"rental_uris":{"android":"levelo://app?vid=e1242b72-e1d7-481b-8195-5c5f6d9a0b11","ios":"levelo://app?vid=e1242b72-e1d7-481b-8195-5c5f6d9a0b11"},"vehicle_type_id":"4","last_reported":1770709932,"current_range_meters":6000,"station_id":"st_d2m6c4gdas8pm72e190g","pricing_plan_id":"cebpf4jnsgd1na2vs0mg"},{"bike_id":"e4f26466-561b-4efa-8b1f-9ecb13a4d3b6","system_id":"levelo_inurba_marseille","lat":43.24156,"lon":5.36409,"is_reserved":false,"is_disabled":false,"rental_uris":{"android":"levelo://app?vid=e4f26466-561b-4efa-8b1f-9ecb13a4d3b6","ios":"levelo://app?vid=e4f26466-561b-4efa-8b1f-9ecb13a4d3b6"},"vehicle_type_id":"4","last_reported":1770709932,"current_range_meters":6000,"station_id":"cpo36qri1sfpv3e86is0","pricing_plan_id":"cebpf4jnsgd1na2vs0mg"},{"bike_id":"6316a440-6079-4cd7-8710-8e12c6c0a2b7","system_id":"levelo_inurba_marseille","lat":43.2991,"lon":5.43666,"is_reserved":false,"is_disabled":false,"rental_uris":{"android":"levelo://app?vid=6316a440-6079-4cd7-8710-8e12c6c0a2b7","ios":"levelo://app?vid=6316a440-6079-4cd7-8710-8e12c6c0a2b7"},"vehicle_type_id":"4","last_reported":1770709932,"current_range_meters":6000,"station_id":"ce4bhpp2rcd13ifvqhfg","pricing_plan_id":"cebpf4jnsgd1na2vs0mg"},{"bike_id":"c47f9d06-e2e7-4f1a-9efa-21197e8b1082","system_id":"levelo_inurba_marseille","lat":43.28462,"lon":5.38534,"is_reserved":false,"is_disabled":false,"rental_uris":{"android":"levelo://app?vid=c47f9d06-e2e7-4f1a-9efa-21197e8b1082","ios":"levelo://app?vid=c47f9d06-e2e7-4f1a-9efa-21197e8b1082"},"vehicle_type_id":"4","last_reported":1770709932,"current_range_meters":6000,"station_id":"ce4bh8p2rcd13ifvqeb0","pricing_plan_id":"cebpf4jnsgd1na2vs0mg"},{"bike_id":"0e6d39a0-fa68-440b-9e61-e5b9a3222293","system_id":"levelo_inurba_marseille","lat":43.26949,"lon":5.3861,"is_reserved":false,"is_disabled":false,"rental_uris":{"android":"levelo://app?vid=0e6d39a0-fa68-440b-9e61-e5b9a3222293","ios":"levelo://app?vid=0e6d39a0-fa68-440b-9e61-e5b9a3222293"},"vehicle_type_id":"4","last_reported":1770709932,"current_range_meters":6000,"station_id":"ce4bhh92rcd13ifvqfh0","pricing_plan_id":"cebpf4jnsgd1na2vs0mg"},{"bike_id":"4926dc74-535e-4c80-bde7-fedf83ad3e9a","system_id":"levelo_inurba_marseille","lat":43.26355,"lon":5.410735,"is_reserved":false,"is_disabled":false,"rental_uris":{"android":"levelo://app?vid=4926dc74-535e-4c80-bde7-fedf83ad3e9a","ios":"levelo://app?vid=4926dc74-535e-4c80-bde7-fedf83ad3e9a"},"vehicle_type_id":"4","last_reported":1770709932,"current_range_meters":6400,"station_id":"st_d4e5ca6na9uc73bfl5fg","pricing_plan_id":"cebpf4jnsgd1na2vs0mg"},{"bike_id":"e43cbe13-67a5-40a1-8370-853fb6a5851b","system_id":"levelo_inurba_marseille","lat":43.31715,"lon":5.42404,"is_reserved":false,"is_disabled":false,"rental_uris":{"android":"levelo://app?vid=e43cbe13-67a5-40a1-8370-853fb6a5851b","ios":"levelo://app?vid=e43cbe13-67a5-40a1-8370-853fb6a5851b"},"vehicle_type_id":"4","last_reported":1770709932,"current_range_meters":6400,"station_id":"ce4bhp92rcd13ifvqhbg","pricing_plan_id":"cebpf4jnsgd1na2vs0mg"},{"bike_id":"da73dd65-3d10-48ab-a5d9-0045be6a9ca0","system_id":"levelo_inurba_marseille","lat":43.27054,"lon":5.40275,"is_reserved":false,"is_disabled":false,"rental_uris":{"android":"levelo://app?vid=da73dd65-3d10-48ab-a5d9-0045be6a9ca0","ios":"levelo://app?vid=da73dd65-3d10-48ab-a5d9-0045be6a9ca0"},"vehicle_type_id":"4","last_reported":1770709932,"current_range_meters":6400,"station_id":"ce4bhk92rcd13ifvqgc0","pricing_plan_id":"cebpf4jnsgd1na2vs0mg"},{"bike_id":"6568fe9c-fddd-4b10-90f8-cf9f1069acf5","system_id":"levelo_inurba_marseille","lat":43.33546,"lon":5.37468,"is_reserved":false,"is_disabled":false,"rental_uris":{"android":"levelo://app?vid=6568fe9c-fddd-4b10-90f8-cf9f1069acf5","ios":"levelo://app?vid=6568fe9c-fddd-4b10-90f8-cf9f1069acf5"},"vehicle_type_id":"4","last_reported":1770709932,"current_range_meters":6400,"station_id":"st_d46tts09ee8s73dlu43g","pricing_plan_id":"cebpf4jnsgd1na2vs0mg"},{"bike_id":"85dd1ff3-48fb-473b-a6b8-2f438c995677","system_id":"levelo_inurba_marseille","lat":43.29891,"lon":5.43649,"is_reserved":false,"is_disabled":false,"rental_uris":{"android":"levelo://app?vid=85dd1ff3-48fb-473b-a6b8-2f438c995677","ios":"levelo://app?vid=85dd1ff3-48fb-473b-a6b8-2f438c995677"},"vehicle_type_id":"4","last_reported":1770709932,"current_range_meters":6400,"station_id":"ce4bhpp2rcd13ifvqhfg","pricing_plan_id":"cebpf4jnsgd1na2vs0mg"},{"bike_id":"d917330e-8029-461a-95c3-ed551a62a88f","system_id":"levelo_inurba_marseille","lat":43.22555,"lon":5.41631,"is_reserved":false,"is_disabled":false,"rental_uris":{"android":"levelo://app?vid=d917330e-8029-461a-95c3-ed551a62a88f","ios":"levelo://app?vid=d917330e-8029-461a-95c3-ed551a62a88f"},"vehicle_type_id":"4","last_reported":1770709932,"current_range_meters":6400,"station_id":"st_d2o4gvlbi1j2169b742g","pricing_plan_id":"cebpf4jnsgd1na2vs0mg"},{"bike_id":"83062ade-c076-467d-b125-720c7e101dca","system_id":"levelo_inurba_marseille","lat":43.29628,"lon":5.37721,"is_reserved":false,"is_disabled":true,"rental_uris":{"android":"levelo://app?vid=83062ade-c076-467d-b125-720c7e101dca","ios":"levelo://app?vid=83062ade-c076-467d-b125-720c7e101dca"},"vehicle_type_id":"4","last_reported":1770709932,"current_range_meters":6400,"station_id":"ce4bgi92rcd13ifvqb90","pricing_plan_id":"cebpf4jnsgd1na2vs0mg"},{"bike_id":"738ace95-69b5-422f-91a8-940bb61d6675","system_id":"levelo_inurba_marseille","lat":43.32103,"lon":5.36792,"is_reserved":false,"is_disabled":false,"rental_uris":{"android":"levelo://app?vid=738ace95-69b5-422f-91a8-940bb61d6675","ios":"levelo://app?vid=738ace95-69b5-422f-91a8-940bb61d6675"},"vehicle_type_id":"4","last_reported":1770709932,"current_range_meters":6400,"station_id":"ce4bhrh2rcd13ifvqhug","pricing_plan_id":"cebpf4jnsgd1na2vs0mg"},{"bike_id":"f566875e-5642-41c3-af4a-390fbf63f0fb","system_id":"levelo_inurba_marseille","lat":43.28335,"lon":5.38104,"is_reserved":false,"is_disabled":false,"rental_uris":{"android":"levelo://app?vid=f566875e-5642-41c3-af4a-390fbf63f0fb","ios":"levelo://app?vid=f566875e-5642-41c3-af4a-390fbf63f0fb"},"vehicle_type_id":"4","last_reported":1770709932,"current_range_meters":6400,"station_id":"ce4bh412rcd13ifvqdr0","pricing_plan_id":"cebpf4jnsgd1na2vs0mg"},{"bike_id":"91fdd7ab-d339-4963-8616-9757378509a7","system_id":"levelo_inurba_marseille","lat":43.28617,"lon":5.37036,"is_reserved":false,"is_disabled":false,"rental_uris":{"android":"levelo://app?vid=91fdd7ab-d339-4963-8616-9757378509a7","ios":"levelo://app?vid=91fdd7ab-d339-4963-8616-9757378509a7"},"vehicle_type_id":"4","last_reported":1770709932,"current_range_meters":6400,"station_id":"ce4bht12rcd13ifvqi60","pricing_plan_id":"cebpf4jnsgd1na2vs0mg"},{"bike_id":"4de3b17e-ae61-4a93-86d9-9b7b0e7aeb7b","system_id":"levelo_inurba_marseille","lat":43.24173,"lon":5.39727,"is_reserved":false,"is_disabled":false,"rental_uris":{"android":"levelo://app?vid=4de3b17e-ae61-4a93-86d9-9b7b0e7aeb7b","ios":"levelo://app?vid=4de3b17e-ae61-4a93-86d9-9b7b0e7aeb7b"},"vehicle_type_id":"4","last_reported":1770709932,"current_range_meters":6400,"station_id":"ce4bhn12rcd13ifvqgpg","pricing_plan_id":"cebpf4jnsgd1na2vs0mg"},{"bike_id":"bc1aa15a-218e-4171-a385-2214dc163ef1","system_id":"levelo_inurba_marseille","lat":43.31497,"lon":5.37266,"is_reserved":false,"is_disabled":false,"rental_uris":{"android":"levelo://app?vid=bc1aa15a-218e-4171-a385-2214dc163ef1","ios":"levelo://app?vid=bc1aa15a-218e-4171-a385-2214dc163ef1"},"vehicle_type_id":"4","last_reported":1770709932,"current_range_meters":6800,"station_id":"ce4bgt12rcd13ifvqcd0","pricing_plan_id":"cebpf4jnsgd1na2vs0mg"},{"bike_id":"7f6ef8fc-1579-4912-b00d-edf7547220b9","system_id":"levelo_inurba_marseille","lat":43.27052,"lon":5.42309,"is_reserved":false,"is_disabled":false,"rental_uris":{"android":"levelo://app?vid=7f6ef8fc-1579-4912-b00d-edf7547220b9","ios":"levelo://app?vid=7f6ef8fc-1579-4912-b00d-edf7547220b9"},"vehicle_type_id":"4","last_reported":1770709932,"current_range_meters":6800,"station_id":"ce4bhk92rcd13ifvqgb0","pricing_plan_id":"cebpf4jnsgd1na2vs0mg"},{"bike_id":"fd158031-c8ec-435b-b315-8360533800f5","system_id":"levelo_inurba_marseille","lat":43.2624,"lon":5.40492,"is_reserved":false,"is_disabled":true,"rental_uris":{"android":"levelo://app?vid=fd158031-c8ec-435b-b315-8360533800f5","ios":"levelo://app?vid=fd158031-c8ec-435b-b315-8360533800f5"},"vehicle_type_id":"4","last_reported":1770709932,"current_range_meters":6800,"station_id":"ce4bhmh2rcd13ifvqgmg","pricing_plan_id":"cebpf4jnsgd1na2vs0mg"},{"bike_id":"f23a5ea8-cccd-472e-abcc-91e4bbd449a7","system_id":"levelo_inurba_marseille","lat":43.30305,"lon":5.36934,"is_reserved":false,"is_disabled":true,"rental_uris":{"android":"levelo://app?vid=f23a5ea8-cccd-472e-abcc-91e4bbd449a7","ios":"levelo://app?vid=f23a5ea8-cccd-472e-abcc-91e4bbd449a7"},"vehicle_type_id":"4","last_reported":1770709932,"current_range_meters":6800,"station_id":"ce4bgqh2rcd13ifvqc5g","pricing_plan_id":"cebpf4jnsgd1na2vs0mg"},{"bike_id":"fe6f8294-65ba-45f1-a4f6-c1ee0f12ef18","system_id":"levelo_inurba_marseille","lat":43.22569,"lon":5.41608,"is_reserved":false,"is_disabled":false,"rental_uris":{"android":"levelo://app?vid=fe6f8294-65ba-45f1-a4f6-c1ee0f12ef18","ios":"levelo://app?vid=fe6f8294-65ba-45f1-a4f6-c1ee0f12ef18"},"vehicle_type_id":"4","last_reported":1770709932,"current_range_meters":6800,"station_id":"st_d2o4gvlbi1j2169b742g","pricing_plan_id":"cebpf4jnsgd1na2vs0mg"},{"bike_id":"c905e704-6f56-4fbe-8269-605a142ba243","system_id":"levelo_inurba_marseille","lat":43.24644,"lon":5.38883,"is_reserved":false,"is_disabled":true,"rental_uris":{"android":"levelo://app?vid=c905e704-6f56-4fbe-8269-605a142ba243","ios":"levelo://app?vid=c905e704-6f56-4fbe-8269-605a142ba243"},"vehicle_type_id":"4","last_reported":1770709932,"current_range_meters":6800,"station_id":"ce4bhg12rcd13ifvqf60","pricing_plan_id":"cebpf4jnsgd1na2vs0mg"},{"bike_id":"c0753566-8312-488e-8b9c-2e80228c855b","system_id":"levelo_inurba_marseille","lat":43.26548,"lon":5.39021,"is_reserved":false,"is_disabled":false,"rental_uris":{"android":"levelo://app?vid=c0753566-8312-488e-8b9c-2e80228c855b","ios":"levelo://app?vid=c0753566-8312-488e-8b9c-2e80228c855b"},"vehicle_type_id":"4","last_reported":1770709932,"current_range_meters":6800,"station_id":"ce4bhe12rcd13ifvqf30","pricing_plan_id":"cebpf4jnsgd1na2vs0mg"},{"bike_id":"f3f6fbc6-43d5-47da-82b6-762e4e722ce6","system_id":"levelo_inurba_marseille","lat":43.27982,"lon":5.41336,"is_reserved":false,"is_disabled":false,"rental_uris":{"android":"levelo://app?vid=f3f6fbc6-43d5-47da-82b6-762e4e722ce6","ios":"levelo://app?vid=f3f6fbc6-43d5-47da-82b6-762e4e722ce6"},"vehicle_type_id":"4","last_reported":1770709932,"current_range_meters":6800,"station_id":"","pricing_plan_id":"cebpf4jnsgd1na2vs0mg"},{"bike_id":"0f0b794e-5bcc-4cbf-9c14-da03c4979ecb","system_id":"levelo_inurba_marseille","lat":43.29041,"lon":5.40004,"is_reserved":false,"is_disabled":false,"rental_uris":{"android":"levelo://app?vid=0f0b794e-5bcc-4cbf-9c14-da03c4979ecb","ios":"levelo://app?vid=0f0b794e-5bcc-4cbf-9c14-da03c4979ecb"},"vehicle_type_id":"4","last_reported":1770709932,"current_range_meters":6800,"station_id":"ce4bh392rcd13ifvqdm0","pricing_plan_id":"cebpf4jnsgd1na2vs0mg"},{"bike_id":"6e9da648-4518-4a3f-bb25-58200a56dbc5","system_id":"levelo_inurba_marseille","lat":43.25773,"lon":5.39441,"is_reserved":false,"is_disabled":false,"rental_uris":{"android":"levelo://app?vid=6e9da648-4518-4a3f-bb25-58200a56dbc5","ios":"levelo://app?vid=6e9da648-4518-4a3f-bb25-58200a56dbc5"},"vehicle_type_id":"4","last_reported":1770709932,"current_range_meters":6800,"station_id":"","pricing_plan_id":"cebpf4jnsgd1na2vs0mg"},{"bike_id":"8f91f29e-0897-43d8-a3cf-8b8240b92337","system_id":"levelo_inurba_marseille","lat":43.29886,"lon":5.43656,"is_reserved":false,"is_disabled":false,"rental_uris":{"android":"levelo://app?vid=8f91f29e-0897-43d8-a3cf-8b8240b92337","ios":"levelo://app?vid=8f91f29e-0897-43d8-a3cf-8b8240b92337"},"vehicle_type_id":"4","last_reported":1770709932,"current_range_meters":6800,"station_id":"ce4bhpp2rcd13ifvqhfg","pricing_plan_id":"cebpf4jnsgd1na2vs0mg"},{"bike_id":"6c412498-db51-4eea-9cbd-3080b8bdba9d","system_id":"levelo_inurba_marseille","lat":43.304654,"lon":5.379245,"is_reserved":false,"is_disabled":false,"rental_uris":{"android":"levelo://app?vid=6c412498-db51-4eea-9cbd-3080b8bdba9d","ios":"levelo://app?vid=6c412498-db51-4eea-9cbd-3080b8bdba9d"},"vehicle_type_id":"4","last_reported":1770709932,"current_range_meters":6800,"station_id":"ce4bgup2rcd13ifvqcn0","pricing_plan_id":"cebpf4jnsgd1na2vs0mg"},{"bike_id":"56f36c5c-54b3-48e5-938d-65f443f77268","system_id":"levelo_inurba_marseille","lat":43.31347,"lon":5.36714,"is_reserved":false,"is_disabled":false,"rental_uris":{"android":"levelo://app?vid=56f36c5c-54b3-48e5-938d-65f443f77268","ios":"levelo://app?vid=56f36c5c-54b3-48e5-938d-65f443f77268"},"vehicle_type_id":"4","last_reported":1770709932,"current_range_meters":6800,"station_id":"ce4bgr92rcd13ifvqc6g","pricing_plan_id":"cebpf4jnsgd1na2vs0mg"},{"bike_id":"0c19d373-6eb2-4333-8212-205e194a0e67","system_id":"levelo_inurba_marseille","lat":43.24396,"lon":5.37076,"is_reserved":false,"is_disabled":false,"rental_uris":{"android":"levelo://app?vid=0c19d373-6eb2-4333-8212-205e194a0e67","ios":"levelo://app?vid=0c19d373-6eb2-4333-8212-205e194a0e67"},"vehicle_type_id":"4","last_reported":1770709932,"current_range_meters":6800,"station_id":"ce4bhhh2rcd13ifvqfk0","pricing_plan_id":"cebpf4jnsgd1na2vs0mg"},{"bike_id":"e20506fc-81c8-45aa-af10-6b0aa01b93ce","system_id":"levelo_inurba_marseille","lat":43.25566,"lon":5.38248,"is_reserved":false,"is_disabled":false,"rental_uris":{"android":"levelo://app?vid=e20506fc-81c8-45aa-af10-6b0aa01b93ce","ios":"levelo://app?vid=e20506fc-81c8-45aa-af10-6b0aa01b93ce"},"vehicle_type_id":"4","last_reported":1770709932,"current_range_meters":6800,"station_id":"ce4bhih2rcd13ifvqfs0","pricing_plan_id":"cebpf4jnsgd1na2vs0mg"},{"bike_id":"e636f490-f0dc-4426-8610-6b63ae9564cc","system_id":"levelo_inurba_marseille","lat":43.31482,"lon":5.37309,"is_reserved":false,"is_disabled":false,"rental_uris":{"android":"levelo://app?vid=e636f490-f0dc-4426-8610-6b63ae9564cc","ios":"levelo://app?vid=e636f490-f0dc-4426-8610-6b63ae9564cc"},"vehicle_type_id":"4","last_reported":1770709932,"current_range_meters":6800,"station_id":"ce4bgt12rcd13ifvqcd0","pricing_plan_id":"cebpf4jnsgd1na2vs0mg"},{"bike_id":"3e1c1a76-0035-4af4-884d-43dbcb7bca0c","system_id":"levelo_inurba_marseille","lat":43.24053,"lon":5.3778,"is_reserved":false,"is_disabled":false,"rental_uris":{"android":"levelo://app?vid=3e1c1a76-0035-4af4-884d-43dbcb7bca0c","ios":"levelo://app?vid=3e1c1a76-0035-4af4-884d-43dbcb7bca0c"},"vehicle_type_id":"4","last_reported":1770709932,"current_range_meters":6800,"station_id":"ce4bhnp2rcd13ifvqgvg","pricing_plan_id":"cebpf4jnsgd1na2vs0mg"},{"bike_id":"b6ef09ed-d357-4465-bd2f-ee587e4263cc","system_id":"levelo_inurba_marseille","lat":43.28425,"lon":5.41009,"is_reserved":false,"is_disabled":false,"rental_uris":{"android":"levelo://app?vid=b6ef09ed-d357-4465-bd2f-ee587e4263cc","ios":"levelo://app?vid=b6ef09ed-d357-4465-bd2f-ee587e4263cc"},"vehicle_type_id":"4","last_reported":1770709932,"current_range_meters":6800,"station_id":"","pricing_plan_id":"cebpf4jnsgd1na2vs0mg"},{"bike_id":"401e4cf8-13ef-4da9-b50d-a015f321d3b3","system_id":"levelo_inurba_marseille","lat":43.29246,"lon":5.40932,"is_reserved":false,"is_disabled":false,"rental_uris":{"android":"levelo://app?vid=401e4cf8-13ef-4da9-b50d-a015f321d3b3","ios":"levelo://app?vid=401e4cf8-13ef-4da9-b50d-a015f321d3b3"},"vehicle_type_id":"4","last_reported":1770709932,"current_range_meters":6800,"station_id":"ce4bh192rcd13ifvqdc0","pricing_plan_id":"cebpf4jnsgd1na2vs0mg"},{"bike_id":"6866d802-9ddf-4d8b-93f1-5f9d5d27e2a0","system_id":"levelo_inurba_marseille","lat":43.27495,"lon":5.42457,"is_reserved":false,"is_disabled":false,"rental_uris":{"android":"levelo://app?vid=6866d802-9ddf-4d8b-93f1-5f9d5d27e2a0","ios":"levelo://app?vid=6866d802-9ddf-4d8b-93f1-5f9d5d27e2a0"},"vehicle_type_id":"4","last_reported":1770709932,"current_range_meters":6800,"station_id":"ce4bhn92rcd13ifvqgrg","pricing_plan_id":"cebpf4jnsgd1na2vs0mg"},{"bike_id":"9a0a4f5b-d5f2-4be0-a4fa-450256499716","system_id":"levelo_inurba_marseille","lat":43.269948,"lon":5.398904,"is_reserved":false,"is_disabled":false,"rental_uris":{"android":"levelo://app?vid=9a0a4f5b-d5f2-4be0-a4fa-450256499716","ios":"levelo://app?vid=9a0a4f5b-d5f2-4be0-a4fa-450256499716"},"vehicle_type_id":"4","last_reported":1770709932,"current_range_meters":6800,"station_id":"","pricing_plan_id":"cebpf4jnsgd1na2vs0mg"},{"bike_id":"4240880d-88bf-48aa-91ea-700e773e4fa1","system_id":"levelo_inurba_marseille","lat":43.25538,"lon":5.38241,"is_reserved":false,"is_disabled":false,"rental_uris":{"android":"levelo://app?vid=4240880d-88bf-48aa-91ea-700e773e4fa1","ios":"levelo://app?vid=4240880d-88bf-48aa-91ea-700e773e4fa1"},"vehicle_type_id":"4","last_reported":1770709932,"current_range_meters":7200,"station_id":"ce4bhih2rcd13ifvqfs0","pricing_plan_id":"cebpf4jnsgd1na2vs0mg"},{"bike_id":"05abb5d5-7a0f-4692-a6b6-119f614f1bb6","system_id":"levelo_inurba_marseille","lat":43.25571,"lon":5.38256,"is_reserved":false,"is_disabled":false,"rental_uris":{"android":"levelo://app?vid=05abb5d5-7a0f-4692-a6b6-119f614f1bb6","ios":"levelo://app?vid=05abb5d5-7a0f-4692-a6b6-119f614f1bb6"},"vehicle_type_id":"4","last_reported":1770709932,"current_range_meters":7200,"station_id":"ce4bhih2rcd13ifvqfs0","pricing_plan_id":"cebpf4jnsgd1na2vs0mg"},{"bike_id":"109e0ee9-5b77-482d-ba82-dc7b28c81b48","system_id":"levelo_inurba_marseille","lat":43.28935,"lon":5.36375,"is_reserved":false,"is_disabled":false,"rental_uris":{"android":"levelo://app?vid=109e0ee9-5b77-482d-ba82-dc7b28c81b48","ios":"levelo://app?vid=109e0ee9-5b77-482d-ba82-dc7b28c81b48"},"vehicle_type_id":"4","last_reported":1770709932,"current_range_meters":7200,"station_id":"ce4bhc92rcd13ifvqetg","pricing_plan_id":"cebpf4jnsgd1na2vs0mg"},{"bike_id":"a07cd24c-7e73-437e-917a-60bdbc1072fc","system_id":"levelo_inurba_marseille","lat":43.24408,"lon":5.37059,"is_reserved":false,"is_disabled":false,"rental_uris":{"android":"levelo://app?vid=a07cd24c-7e73-437e-917a-60bdbc1072fc","ios":"levelo://app?vid=a07cd24c-7e73-437e-917a-60bdbc1072fc"},"vehicle_type_id":"4","last_reported":1770709932,"current_range_meters":7200,"station_id":"ce4bhhh2rcd13ifvqfk0","pricing_plan_id":"cebpf4jnsgd1na2vs0mg"},{"bike_id":"0a3e3a0d-802f-4136-ad33-234b91d4a0da","system_id":"levelo_inurba_marseille","lat":43.28941,"lon":5.39639,"is_reserved":false,"is_disabled":false,"rental_uris":{"android":"levelo://app?vid=0a3e3a0d-802f-4136-ad33-234b91d4a0da","ios":"levelo://app?vid=0a3e3a0d-802f-4136-ad33-234b91d4a0da"},"vehicle_type_id":"4","last_reported":1770709932,"current_range_meters":7200,"station_id":"ce4bh3h2rcd13ifvqdn0","pricing_plan_id":"cebpf4jnsgd1na2vs0mg"},{"bike_id":"971b48dd-c7a4-4deb-8d64-56d2c1c381de","system_id":"levelo_inurba_marseille","lat":43.26367,"lon":5.41042,"is_reserved":false,"is_disabled":false,"rental_uris":{"android":"levelo://app?vid=971b48dd-c7a4-4deb-8d64-56d2c1c381de","ios":"levelo://app?vid=971b48dd-c7a4-4deb-8d64-56d2c1c381de"},"vehicle_type_id":"4","last_reported":1770709932,"current_range_meters":7200,"station_id":"st_d4e5ca6na9uc73bfl5fg","pricing_plan_id":"cebpf4jnsgd1na2vs0mg"},{"bike_id":"b1429378-b93e-4184-b373-85f0415c9919","system_id":"levelo_inurba_marseille","lat":43.246309,"lon":5.431442,"is_reserved":false,"is_disabled":false,"rental_uris":{"android":"levelo://app?vid=b1429378-b93e-4184-b373-85f0415c9919","ios":"levelo://app?vid=b1429378-b93e-4184-b373-85f0415c9919"},"vehicle_type_id":"4","last_reported":1770709932,"current_range_meters":7200,"station_id":"st_d2m6c4gdas8pm72e190g","pricing_plan_id":"cebpf4jnsgd1na2vs0mg"},{"bike_id":"58727422-ac1d-461d-8326-ead3ab6a5bb0","system_id":"levelo_inurba_marseille","lat":43.25862,"lon":5.39912,"is_reserved":false,"is_disabled":false,"rental_uris":{"android":"levelo://app?vid=58727422-ac1d-461d-8326-ead3ab6a5bb0","ios":"levelo://app?vid=58727422-ac1d-461d-8326-ead3ab6a5bb0"},"vehicle_type_id":"4","last_reported":1770709932,"current_range_meters":7200,"station_id":"ce4bhl92rcd13ifvqghg","pricing_plan_id":"cebpf4jnsgd1na2vs0mg"},{"bike_id":"9181861d-3c4b-4770-b545-363c30923e26","system_id":"levelo_inurba_marseille","lat":43.284666,"lon":5.483991,"is_reserved":false,"is_disabled":false,"rental_uris":{"android":"levelo://app?vid=9181861d-3c4b-4770-b545-363c30923e26","ios":"levelo://app?vid=9181861d-3c4b-4770-b545-363c30923e26"},"vehicle_type_id":"4","last_reported":1770709932,"current_range_meters":7200,"station_id":"st_d3svhcjqgbts73a3dn0g","pricing_plan_id":"cebpf4jnsgd1na2vs0mg"},{"bike_id":"3f7e55f6-2088-40ae-b4f8-703efb79b7e4","system_id":"levelo_inurba_marseille","lat":43.28447,"lon":5.39171,"is_reserved":false,"is_disabled":true,"rental_uris":{"android":"levelo://app?vid=3f7e55f6-2088-40ae-b4f8-703efb79b7e4","ios":"levelo://app?vid=3f7e55f6-2088-40ae-b4f8-703efb79b7e4"},"vehicle_type_id":"4","last_reported":1770709932,"current_range_meters":7200,"station_id":"ce4bhoh2rcd13ifvqh5g","pricing_plan_id":"cebpf4jnsgd1na2vs0mg"},{"bike_id":"2a326add-f0d8-40e0-baa1-500b5e5d0d2f","system_id":"levelo_inurba_marseille","lat":43.24996,"lon":5.38935,"is_reserved":false,"is_disabled":false,"rental_uris":{"android":"levelo://app?vid=2a326add-f0d8-40e0-baa1-500b5e5d0d2f","ios":"levelo://app?vid=2a326add-f0d8-40e0-baa1-500b5e5d0d2f"},"vehicle_type_id":"4","last_reported":1770709932,"current_range_meters":7200,"station_id":"ce4bhgp2rcd13ifvqfd0","pricing_plan_id":"cebpf4jnsgd1na2vs0mg"},{"bike_id":"04f1e06e-c3dc-4e54-92bf-0fcd581b9622","system_id":"levelo_inurba_marseille","lat":43.30294,"lon":5.36908,"is_reserved":false,"is_disabled":false,"rental_uris":{"android":"levelo://app?vid=04f1e06e-c3dc-4e54-92bf-0fcd581b9622","ios":"levelo://app?vid=04f1e06e-c3dc-4e54-92bf-0fcd581b9622"},"vehicle_type_id":"4","last_reported":1770709932,"current_range_meters":7200,"station_id":"ce4bgqh2rcd13ifvqc5g","pricing_plan_id":"cebpf4jnsgd1na2vs0mg"},{"bike_id":"b89e41fb-9b16-46e5-8580-db4781ca91be","system_id":"levelo_inurba_marseille","lat":43.29889,"lon":5.43651,"is_reserved":false,"is_disabled":false,"rental_uris":{"android":"levelo://app?vid=b89e41fb-9b16-46e5-8580-db4781ca91be","ios":"levelo://app?vid=b89e41fb-9b16-46e5-8580-db4781ca91be"},"vehicle_type_id":"4","last_reported":1770709932,"current_range_meters":7200,"station_id":"ce4bhpp2rcd13ifvqhfg","pricing_plan_id":"cebpf4jnsgd1na2vs0mg"},{"bike_id":"c583560a-77a9-496f-bff4-8abe7a8e3cb2","system_id":"levelo_inurba_marseille","lat":43.30185,"lon":5.36633,"is_reserved":false,"is_disabled":false,"rental_uris":{"android":"levelo://app?vid=c583560a-77a9-496f-bff4-8abe7a8e3cb2","ios":"levelo://app?vid=c583560a-77a9-496f-bff4-8abe7a8e3cb2"},"vehicle_type_id":"4","last_reported":1770709932,"current_range_meters":7200,"station_id":"ce4bgrh2rcd13ifvqc8g","pricing_plan_id":"cebpf4jnsgd1na2vs0mg"},{"bike_id":"af109b45-02d2-41f8-be4b-42b484fd3394","system_id":"levelo_inurba_marseille","lat":43.29893,"lon":5.4368,"is_reserved":false,"is_disabled":false,"rental_uris":{"android":"levelo://app?vid=af109b45-02d2-41f8-be4b-42b484fd3394","ios":"levelo://app?vid=af109b45-02d2-41f8-be4b-42b484fd3394"},"vehicle_type_id":"4","last_reported":1770709932,"current_range_meters":7200,"station_id":"ce4bhpp2rcd13ifvqhfg","pricing_plan_id":"cebpf4jnsgd1na2vs0mg"},{"bike_id":"bb85b2cc-92e6-4f51-80be-c53d3879188b","system_id":"levelo_inurba_marseille","lat":43.32354,"lon":5.3673,"is_reserved":false,"is_disabled":false,"rental_uris":{"android":"levelo://app?vid=bb85b2cc-92e6-4f51-80be-c53d3879188b","ios":"levelo://app?vid=bb85b2cc-92e6-4f51-80be-c53d3879188b"},"vehicle_type_id":"4","last_reported":1770709932,"current_range_meters":7200,"station_id":"ce4bhsh2rcd13ifvqi2g","pricing_plan_id":"cebpf4jnsgd1na2vs0mg"},{"bike_id":"32df9713-f370-4b5b-937c-67632b06730e","system_id":"levelo_inurba_marseille","lat":43.30556,"lon":5.36704,"is_reserved":false,"is_disabled":false,"rental_uris":{"android":"levelo://app?vid=32df9713-f370-4b5b-937c-67632b06730e","ios":"levelo://app?vid=32df9713-f370-4b5b-937c-67632b06730e"},"vehicle_type_id":"4","last_reported":1770709932,"current_range_meters":7200,"station_id":"ce4bgrp2rcd13ifvqc9g","pricing_plan_id":"cebpf4jnsgd1na2vs0mg"},{"bike_id":"ee02347d-4146-4b81-b2c2-097deefbf2a2","system_id":"levelo_inurba_marseille","lat":43.27975,"lon":5.38739,"is_reserved":false,"is_disabled":false,"rental_uris":{"android":"levelo://app?vid=ee02347d-4146-4b81-b2c2-097deefbf2a2","ios":"levelo://app?vid=ee02347d-4146-4b81-b2c2-097deefbf2a2"},"vehicle_type_id":"4","last_reported":1770709932,"current_range_meters":8000,"station_id":"ce4bhg12rcd13ifvqf80","pricing_plan_id":"cebpf4jnsgd1na2vs0mg"},{"bike_id":"02e9af11-2912-44f7-be5c-e2ae093265ba","system_id":"levelo_inurba_marseille","lat":43.26691,"lon":5.38291,"is_reserved":false,"is_disabled":false,"rental_uris":{"android":"levelo://app?vid=02e9af11-2912-44f7-be5c-e2ae093265ba","ios":"levelo://app?vid=02e9af11-2912-44f7-be5c-e2ae093265ba"},"vehicle_type_id":"4","last_reported":1770709932,"current_range_meters":8000,"station_id":"ce4bhg92rcd13ifvqf90","pricing_plan_id":"cebpf4jnsgd1na2vs0mg"},{"bike_id":"661ae1fb-5124-4d82-a967-222c7b6306fd","system_id":"levelo_inurba_marseille","lat":43.27287,"lon":5.3913,"is_reserved":false,"is_disabled":false,"rental_uris":{"android":"levelo://app?vid=661ae1fb-5124-4d82-a967-222c7b6306fd","ios":"levelo://app?vid=661ae1fb-5124-4d82-a967-222c7b6306fd"},"vehicle_type_id":"4","last_reported":1770709932,"current_range_meters":8000,"station_id":"","pricing_plan_id":"cebpf4jnsgd1na2vs0mg"},{"bike_id":"a1a1e459-dc33-458a-a156-5735d4cb79a9","system_id":"levelo_inurba_marseille","lat":43.29555,"lon":5.42271,"is_reserved":false,"is_disabled":false,"rental_uris":{"android":"levelo://app?vid=a1a1e459-dc33-458a-a156-5735d4cb79a9","ios":"levelo://app?vid=a1a1e459-dc33-458a-a156-5735d4cb79a9"},"vehicle_type_id":"4","last_reported":1770709932,"current_range_meters":8000,"station_id":"ce4bhph2rcd13ifvqhdg","pricing_plan_id":"cebpf4jnsgd1na2vs0mg"},{"bike_id":"b6f2af73-eadf-488e-be15-c42d402e2260","system_id":"levelo_inurba_marseille","lat":43.23188,"lon":5.3999,"is_reserved":false,"is_disabled":false,"rental_uris":{"android":"levelo://app?vid=b6f2af73-eadf-488e-be15-c42d402e2260","ios":"levelo://app?vid=b6f2af73-eadf-488e-be15-c42d402e2260"},"vehicle_type_id":"4","last_reported":1770709932,"current_range_meters":8000,"station_id":"ce4bhn12rcd13ifvqgqg","pricing_plan_id":"cebpf4jnsgd1na2vs0mg"},{"bike_id":"0a24a7a7-bb1f-4cb6-858f-31697c81ee0e","system_id":"levelo_inurba_marseille","lat":43.27305,"lon":5.3911,"is_reserved":false,"is_disabled":false,"rental_uris":{"android":"levelo://app?vid=0a24a7a7-bb1f-4cb6-858f-31697c81ee0e","ios":"levelo://app?vid=0a24a7a7-bb1f-4cb6-858f-31697c81ee0e"},"vehicle_type_id":"4","last_reported":1770709932,"current_range_meters":8000,"station_id":"ce4bhgp2rcd13ifvqfe0","pricing_plan_id":"cebpf4jnsgd1na2vs0mg"},{"bike_id":"804c72c7-b156-4f59-bfd2-4c7beff1be08","system_id":"levelo_inurba_marseille","lat":43.25088,"lon":5.39502,"is_reserved":false,"is_disabled":false,"rental_uris":{"android":"levelo://app?vid=804c72c7-b156-4f59-bfd2-4c7beff1be08","ios":"levelo://app?vid=804c72c7-b156-4f59-bfd2-4c7beff1be08"},"vehicle_type_id":"4","last_reported":1770709932,"current_range_meters":8000,"station_id":"ce4bhm12rcd13ifvqgkg","pricing_plan_id":"cebpf4jnsgd1na2vs0mg"},{"bike_id":"05d628e9-781f-4f77-a9a7-087d759ed084","system_id":"levelo_inurba_marseille","lat":43.22926,"lon":5.35394,"is_reserved":false,"is_disabled":false,"rental_uris":{"android":"levelo://app?vid=05d628e9-781f-4f77-a9a7-087d759ed084","ios":"levelo://app?vid=05d628e9-781f-4f77-a9a7-087d759ed084"},"vehicle_type_id":"4","last_reported":1770709932,"current_range_meters":8000,"station_id":"cpo3532slgdg3j2ikp40","pricing_plan_id":"cebpf4jnsgd1na2vs0mg"},{"bike_id":"2b259b44-8ea9-412c-9390-6977c9a1db9d","system_id":"levelo_inurba_marseille","lat":43.26919,"lon":5.40276,"is_reserved":false,"is_disabled":false,"rental_uris":{"android":"levelo://app?vid=2b259b44-8ea9-412c-9390-6977c9a1db9d","ios":"levelo://app?vid=2b259b44-8ea9-412c-9390-6977c9a1db9d"},"vehicle_type_id":"4","last_reported":1770709932,"current_range_meters":8000,"station_id":"cjm6bp8fraef2m0cb0m0","pricing_plan_id":"cebpf4jnsgd1na2vs0mg"},{"bike_id":"c9e1dfab-a295-4c94-9182-c8e248585a23","system_id":"levelo_inurba_marseille","lat":43.265659,"lon":5.40333,"is_reserved":false,"is_disabled":false,"rental_uris":{"android":"levelo://app?vid=c9e1dfab-a295-4c94-9182-c8e248585a23","ios":"levelo://app?vid=c9e1dfab-a295-4c94-9182-c8e248585a23"},"vehicle_type_id":"4","last_reported":1770709932,"current_range_meters":8000,"station_id":"ce4bhmp2rcd13ifvqgng","pricing_plan_id":"cebpf4jnsgd1na2vs0mg"},{"bike_id":"3b5567a6-efa3-498b-ad01-b9c12c6390c4","system_id":"levelo_inurba_marseille","lat":43.31699,"lon":5.42385,"is_reserved":false,"is_disabled":false,"rental_uris":{"android":"levelo://app?vid=3b5567a6-efa3-498b-ad01-b9c12c6390c4","ios":"levelo://app?vid=3b5567a6-efa3-498b-ad01-b9c12c6390c4"},"vehicle_type_id":"4","last_reported":1770709932,"current_range_meters":8000,"station_id":"ce4bhp92rcd13ifvqhbg","pricing_plan_id":"cebpf4jnsgd1na2vs0mg"},{"bike_id":"e4707612-beae-4a61-8838-ca4a2f58a439","system_id":"levelo_inurba_marseille","lat":43.26788,"lon":5.39411,"is_reserved":false,"is_disabled":false,"rental_uris":{"android":"levelo://app?vid=e4707612-beae-4a61-8838-ca4a2f58a439","ios":"levelo://app?vid=e4707612-beae-4a61-8838-ca4a2f58a439"},"vehicle_type_id":"4","last_reported":1770709932,"current_range_meters":8000,"station_id":"ce4bhh12rcd13ifvqfg0","pricing_plan_id":"cebpf4jnsgd1na2vs0mg"},{"bike_id":"133cac4d-4f5d-4392-8743-44938a3a7c2a","system_id":"levelo_inurba_marseille","lat":43.28225,"lon":5.39078,"is_reserved":false,"is_disabled":false,"rental_uris":{"android":"levelo://app?vid=133cac4d-4f5d-4392-8743-44938a3a7c2a","ios":"levelo://app?vid=133cac4d-4f5d-4392-8743-44938a3a7c2a"},"vehicle_type_id":"4","last_reported":1770709932,"current_range_meters":8000,"station_id":"ce4bhn92rcd13ifvqgsg","pricing_plan_id":"cebpf4jnsgd1na2vs0mg"},{"bike_id":"d1006334-eff8-445f-9201-a0c70717fbd7","system_id":"levelo_inurba_marseille","lat":43.27926,"lon":5.4116,"is_reserved":false,"is_disabled":false,"rental_uris":{"android":"levelo://app?vid=d1006334-eff8-445f-9201-a0c70717fbd7","ios":"levelo://app?vid=d1006334-eff8-445f-9201-a0c70717fbd7"},"vehicle_type_id":"4","last_reported":1770709932,"current_range_meters":8000,"station_id":"","pricing_plan_id":"cebpf4jnsgd1na2vs0mg"},{"bike_id":"3e62a0fd-19ac-4f58-93af-6af710db8a94","system_id":"levelo_inurba_marseille","lat":43.229311,"lon":5.353641,"is_reserved":false,"is_disabled":false,"rental_uris":{"android":"levelo://app?vid=3e62a0fd-19ac-4f58-93af-6af710db8a94","ios":"levelo://app?vid=3e62a0fd-19ac-4f58-93af-6af710db8a94"},"vehicle_type_id":"4","last_reported":1770709932,"current_range_meters":8000,"station_id":"cpo3532slgdg3j2ikp40","pricing_plan_id":"cebpf4jnsgd1na2vs0mg"},{"bike_id":"a0773092-16ef-4439-aeaa-18f366b0fb73","system_id":"levelo_inurba_marseille","lat":43.27158,"lon":5.41005,"is_reserved":false,"is_disabled":false,"rental_uris":{"android":"levelo://app?vid=a0773092-16ef-4439-aeaa-18f366b0fb73","ios":"levelo://app?vid=a0773092-16ef-4439-aeaa-18f366b0fb73"},"vehicle_type_id":"4","last_reported":1770709932,"current_range_meters":8000,"station_id":"ce4bhl12rcd13ifvqgf0","pricing_plan_id":"cebpf4jnsgd1na2vs0mg"},{"bike_id":"7f82acb8-924f-41f5-9119-b3d7e4dcf745","system_id":"levelo_inurba_marseille","lat":43.24409,"lon":5.37052,"is_reserved":false,"is_disabled":false,"rental_uris":{"android":"levelo://app?vid=7f82acb8-924f-41f5-9119-b3d7e4dcf745","ios":"levelo://app?vid=7f82acb8-924f-41f5-9119-b3d7e4dcf745"},"vehicle_type_id":"4","last_reported":1770709932,"current_range_meters":8000,"station_id":"ce4bhhh2rcd13ifvqfk0","pricing_plan_id":"cebpf4jnsgd1na2vs0mg"},{"bike_id":"d7de9010-e687-44c0-a96d-641e7c256265","system_id":"levelo_inurba_marseille","lat":43.31122,"lon":5.37782,"is_reserved":false,"is_disabled":false,"rental_uris":{"android":"levelo://app?vid=d7de9010-e687-44c0-a96d-641e7c256265","ios":"levelo://app?vid=d7de9010-e687-44c0-a96d-641e7c256265"},"vehicle_type_id":"4","last_reported":1770709932,"current_range_meters":8000,"station_id":"ce4bgt92rcd13ifvqcg0","pricing_plan_id":"cebpf4jnsgd1na2vs0mg"},{"bike_id":"bfc07130-be47-4eef-8325-e33d6610d729","system_id":"levelo_inurba_marseille","lat":43.30117,"lon":5.43118,"is_reserved":false,"is_disabled":false,"rental_uris":{"android":"levelo://app?vid=bfc07130-be47-4eef-8325-e33d6610d729","ios":"levelo://app?vid=bfc07130-be47-4eef-8325-e33d6610d729"},"vehicle_type_id":"4","last_reported":1770709932,"current_range_meters":8400,"station_id":"st_d3js3co5814s73ftftug","pricing_plan_id":"cebpf4jnsgd1na2vs0mg"},{"bike_id":"dcffb64c-9bea-40cd-a5fe-c7eeb8475cd8","system_id":"levelo_inurba_marseille","lat":43.30264,"lon":5.37698,"is_reserved":false,"is_disabled":true,"rental_uris":{"android":"levelo://app?vid=dcffb64c-9bea-40cd-a5fe-c7eeb8475cd8","ios":"levelo://app?vid=dcffb64c-9bea-40cd-a5fe-c7eeb8475cd8"},"vehicle_type_id":"4","last_reported":1770709932,"current_range_meters":8400,"station_id":"ce4bguh2rcd13ifvqcj0","pricing_plan_id":"cebpf4jnsgd1na2vs0mg"},{"bike_id":"55fcccf6-928a-41e2-a987-5e19691aae06","system_id":"levelo_inurba_marseille","lat":43.279557,"lon":5.387027,"is_reserved":false,"is_disabled":false,"rental_uris":{"android":"levelo://app?vid=55fcccf6-928a-41e2-a987-5e19691aae06","ios":"levelo://app?vid=55fcccf6-928a-41e2-a987-5e19691aae06"},"vehicle_type_id":"4","last_reported":1770709932,"current_range_meters":8400,"station_id":"","pricing_plan_id":"cebpf4jnsgd1na2vs0mg"},{"bike_id":"56b31d85-b404-4326-97c7-18d9365e587f","system_id":"levelo_inurba_marseille","lat":43.29799,"lon":5.38091,"is_reserved":false,"is_disabled":false,"rental_uris":{"android":"levelo://app?vid=56b31d85-b404-4326-97c7-18d9365e587f","ios":"levelo://app?vid=56b31d85-b404-4326-97c7-18d9365e587f"},"vehicle_type_id":"4","last_reported":1770709932,"current_range_meters":8400,"station_id":"ce4bgip2rcd13ifvqbb0","pricing_plan_id":"cebpf4jnsgd1na2vs0mg"},{"bike_id":"a8875a14-acfc-4fef-b8a6-2a2eb41f9b0b","system_id":"levelo_inurba_marseille","lat":43.30317,"lon":5.36894,"is_reserved":false,"is_disabled":false,"rental_uris":{"android":"levelo://app?vid=a8875a14-acfc-4fef-b8a6-2a2eb41f9b0b","ios":"levelo://app?vid=a8875a14-acfc-4fef-b8a6-2a2eb41f9b0b"},"vehicle_type_id":"4","last_reported":1770709932,"current_range_meters":8400,"station_id":"ce4bgqh2rcd13ifvqc5g","pricing_plan_id":"cebpf4jnsgd1na2vs0mg"},{"bike_id":"7fee4d57-63b7-4ed9-893d-aff938a29878","system_id":"levelo_inurba_marseille","lat":43.30209,"lon":5.39446,"is_reserved":false,"is_disabled":false,"rental_uris":{"android":"levelo://app?vid=7fee4d57-63b7-4ed9-893d-aff938a29878","ios":"levelo://app?vid=7fee4d57-63b7-4ed9-893d-aff938a29878"},"vehicle_type_id":"4","last_reported":1770709932,"current_range_meters":8400,"station_id":"ce4bh0p2rcd13ifvqd70","pricing_plan_id":"cebpf4jnsgd1na2vs0mg"},{"bike_id":"652029fd-7389-40d5-a0bd-e85f7aa43d7c","system_id":"levelo_inurba_marseille","lat":43.2256,"lon":5.41635,"is_reserved":false,"is_disabled":false,"rental_uris":{"android":"levelo://app?vid=652029fd-7389-40d5-a0bd-e85f7aa43d7c","ios":"levelo://app?vid=652029fd-7389-40d5-a0bd-e85f7aa43d7c"},"vehicle_type_id":"4","last_reported":1770709932,"current_range_meters":8400,"station_id":"st_d2o4gvlbi1j2169b742g","pricing_plan_id":"cebpf4jnsgd1na2vs0mg"},{"bike_id":"ee213b40-802c-442b-9390-5e22834db5df","system_id":"levelo_inurba_marseille","lat":43.241693,"lon":5.364004,"is_reserved":false,"is_disabled":false,"rental_uris":{"android":"levelo://app?vid=ee213b40-802c-442b-9390-5e22834db5df","ios":"levelo://app?vid=ee213b40-802c-442b-9390-5e22834db5df"},"vehicle_type_id":"4","last_reported":1770709932,"current_range_meters":8400,"station_id":"cpo36qri1sfpv3e86is0","pricing_plan_id":"cebpf4jnsgd1na2vs0mg"},{"bike_id":"eb988073-8fe7-4bb4-897d-222ac9bc4a1f","system_id":"levelo_inurba_marseille","lat":43.25864,"lon":5.39914,"is_reserved":false,"is_disabled":false,"rental_uris":{"android":"levelo://app?vid=eb988073-8fe7-4bb4-897d-222ac9bc4a1f","ios":"levelo://app?vid=eb988073-8fe7-4bb4-897d-222ac9bc4a1f"},"vehicle_type_id":"4","last_reported":1770709932,"current_range_meters":8400,"station_id":"ce4bhl92rcd13ifvqghg","pricing_plan_id":"cebpf4jnsgd1na2vs0mg"},{"bike_id":"61e7a56e-a3a9-4b6a-8720-cb799648adf1","system_id":"levelo_inurba_marseille","lat":43.303106,"lon":5.369312,"is_reserved":false,"is_disabled":false,"rental_uris":{"android":"levelo://app?vid=61e7a56e-a3a9-4b6a-8720-cb799648adf1","ios":"levelo://app?vid=61e7a56e-a3a9-4b6a-8720-cb799648adf1"},"vehicle_type_id":"4","last_reported":1770709932,"current_range_meters":8400,"station_id":"ce4bgqh2rcd13ifvqc5g","pricing_plan_id":"cebpf4jnsgd1na2vs0mg"},{"bike_id":"77d01ae0-caa8-4229-b1d9-66eebccb18ba","system_id":"levelo_inurba_marseille","lat":43.30318,"lon":5.369065,"is_reserved":false,"is_disabled":false,"rental_uris":{"android":"levelo://app?vid=77d01ae0-caa8-4229-b1d9-66eebccb18ba","ios":"levelo://app?vid=77d01ae0-caa8-4229-b1d9-66eebccb18ba"},"vehicle_type_id":"4","last_reported":1770709932,"current_range_meters":8400,"station_id":"ce4bgqh2rcd13ifvqc5g","pricing_plan_id":"cebpf4jnsgd1na2vs0mg"},{"bike_id":"5f7df976-2770-4b0d-bd16-1a5d3e4bd86a","system_id":"levelo_inurba_marseille","lat":43.26076,"lon":5.37491,"is_reserved":false,"is_disabled":false,"rental_uris":{"android":"levelo://app?vid=5f7df976-2770-4b0d-bd16-1a5d3e4bd86a","ios":"levelo://app?vid=5f7df976-2770-4b0d-bd16-1a5d3e4bd86a"},"vehicle_type_id":"4","last_reported":1770709932,"current_range_meters":8400,"station_id":"ce4bhgh2rcd13ifvqfa0","pricing_plan_id":"cebpf4jnsgd1na2vs0mg"},{"bike_id":"c6bba051-2987-4068-9b3f-af263ee62dbf","system_id":"levelo_inurba_marseille","lat":43.26486,"lon":5.39608,"is_reserved":false,"is_disabled":false,"rental_uris":{"android":"levelo://app?vid=c6bba051-2987-4068-9b3f-af263ee62dbf","ios":"levelo://app?vid=c6bba051-2987-4068-9b3f-af263ee62dbf"},"vehicle_type_id":"4","last_reported":1770709932,"current_range_meters":8400,"station_id":"","pricing_plan_id":"cebpf4jnsgd1na2vs0mg"},{"bike_id":"46b69bcd-f35a-433e-b9f1-16ab03d0ac0e","system_id":"levelo_inurba_marseille","lat":43.258677,"lon":5.399029,"is_reserved":false,"is_disabled":false,"rental_uris":{"android":"levelo://app?vid=46b69bcd-f35a-433e-b9f1-16ab03d0ac0e","ios":"levelo://app?vid=46b69bcd-f35a-433e-b9f1-16ab03d0ac0e"},"vehicle_type_id":"4","last_reported":1770709932,"current_range_meters":8400,"station_id":"ce4bhl92rcd13ifvqghg","pricing_plan_id":"cebpf4jnsgd1na2vs0mg"},{"bike_id":"ab8ed30d-dd64-45c7-9d56-1700378f985a","system_id":"levelo_inurba_marseille","lat":43.25573,"lon":5.3821,"is_reserved":false,"is_disabled":false,"rental_uris":{"android":"levelo://app?vid=ab8ed30d-dd64-45c7-9d56-1700378f985a","ios":"levelo://app?vid=ab8ed30d-dd64-45c7-9d56-1700378f985a"},"vehicle_type_id":"4","last_reported":1770709932,"current_range_meters":8400,"station_id":"ce4bhih2rcd13ifvqfs0","pricing_plan_id":"cebpf4jnsgd1na2vs0mg"},{"bike_id":"23faf02b-28d8-4a14-a292-ffbec7ab0604","system_id":"levelo_inurba_marseille","lat":43.26805,"lon":5.40273,"is_reserved":false,"is_disabled":false,"rental_uris":{"android":"levelo://app?vid=23faf02b-28d8-4a14-a292-ffbec7ab0604","ios":"levelo://app?vid=23faf02b-28d8-4a14-a292-ffbec7ab0604"},"vehicle_type_id":"4","last_reported":1770709932,"current_range_meters":8400,"station_id":"ce501612rcd8frsf0b60","pricing_plan_id":"cebpf4jnsgd1na2vs0mg"},{"bike_id":"ca65300e-e3a6-415e-8567-01497c41ead6","system_id":"levelo_inurba_marseille","lat":43.31336,"lon":5.36727,"is_reserved":false,"is_disabled":false,"rental_uris":{"android":"levelo://app?vid=ca65300e-e3a6-415e-8567-01497c41ead6","ios":"levelo://app?vid=ca65300e-e3a6-415e-8567-01497c41ead6"},"vehicle_type_id":"4","last_reported":1770709932,"current_range_meters":8400,"station_id":"ce4bgr92rcd13ifvqc6g","pricing_plan_id":"cebpf4jnsgd1na2vs0mg"},{"bike_id":"22d8d839-db4c-4efa-bd5d-d78efaca55ca","system_id":"levelo_inurba_marseille","lat":43.25572,"lon":5.3825,"is_reserved":false,"is_disabled":false,"rental_uris":{"android":"levelo://app?vid=22d8d839-db4c-4efa-bd5d-d78efaca55ca","ios":"levelo://app?vid=22d8d839-db4c-4efa-bd5d-d78efaca55ca"},"vehicle_type_id":"4","last_reported":1770709932,"current_range_meters":8400,"station_id":"ce4bhih2rcd13ifvqfs0","pricing_plan_id":"cebpf4jnsgd1na2vs0mg"},{"bike_id":"cab9c833-d115-4e76-83be-ce0cdefaa264","system_id":"levelo_inurba_marseille","lat":43.27489,"lon":5.42447,"is_reserved":false,"is_disabled":false,"rental_uris":{"android":"levelo://app?vid=cab9c833-d115-4e76-83be-ce0cdefaa264","ios":"levelo://app?vid=cab9c833-d115-4e76-83be-ce0cdefaa264"},"vehicle_type_id":"4","last_reported":1770709932,"current_range_meters":8400,"station_id":"ce4bhn92rcd13ifvqgrg","pricing_plan_id":"cebpf4jnsgd1na2vs0mg"},{"bike_id":"6f6a04ad-dd00-4f4a-bdfd-a835cfa0cc11","system_id":"levelo_inurba_marseille","lat":43.27066,"lon":5.38308,"is_reserved":false,"is_disabled":false,"rental_uris":{"android":"levelo://app?vid=6f6a04ad-dd00-4f4a-bdfd-a835cfa0cc11","ios":"levelo://app?vid=6f6a04ad-dd00-4f4a-bdfd-a835cfa0cc11"},"vehicle_type_id":"4","last_reported":1770709932,"current_range_meters":8800,"station_id":"st_d3n2fo6cfp8s73cte1j0","pricing_plan_id":"cebpf4jnsgd1na2vs0mg"},{"bike_id":"b0be4e28-6b49-459e-9b2c-5179c24b2b15","system_id":"levelo_inurba_marseille","lat":43.27466,"lon":5.42454,"is_reserved":false,"is_disabled":false,"rental_uris":{"android":"levelo://app?vid=b0be4e28-6b49-459e-9b2c-5179c24b2b15","ios":"levelo://app?vid=b0be4e28-6b49-459e-9b2c-5179c24b2b15"},"vehicle_type_id":"4","last_reported":1770709932,"current_range_meters":8800,"station_id":"ce4bhn92rcd13ifvqgrg","pricing_plan_id":"cebpf4jnsgd1na2vs0mg"},{"bike_id":"ccf70a7d-ecee-433f-b472-7fe3d59ab557","system_id":"levelo_inurba_marseille","lat":43.29288,"lon":5.40133,"is_reserved":false,"is_disabled":false,"rental_uris":{"android":"levelo://app?vid=ccf70a7d-ecee-433f-b472-7fe3d59ab557","ios":"levelo://app?vid=ccf70a7d-ecee-433f-b472-7fe3d59ab557"},"vehicle_type_id":"4","last_reported":1770709932,"current_range_meters":8800,"station_id":"ce4bh312rcd13ifvqdk0","pricing_plan_id":"cebpf4jnsgd1na2vs0mg"},{"bike_id":"9fba95f1-4107-4e0d-93ca-065960acb3e8","system_id":"levelo_inurba_marseille","lat":43.29101,"lon":5.3813,"is_reserved":false,"is_disabled":false,"rental_uris":{"android":"levelo://app?vid=9fba95f1-4107-4e0d-93ca-065960acb3e8","ios":"levelo://app?vid=9fba95f1-4107-4e0d-93ca-065960acb3e8"},"vehicle_type_id":"4","last_reported":1770709932,"current_range_meters":8800,"station_id":"ce4bh512rcd13ifvqe2g","pricing_plan_id":"cebpf4jnsgd1na2vs0mg"},{"bike_id":"e0450db0-c8b3-4403-bc43-ed5a007877b8","system_id":"levelo_inurba_marseille","lat":43.2464,"lon":5.43154,"is_reserved":false,"is_disabled":false,"rental_uris":{"android":"levelo://app?vid=e0450db0-c8b3-4403-bc43-ed5a007877b8","ios":"levelo://app?vid=e0450db0-c8b3-4403-bc43-ed5a007877b8"},"vehicle_type_id":"4","last_reported":1770709932,"current_range_meters":8800,"station_id":"st_d2m6c4gdas8pm72e190g","pricing_plan_id":"cebpf4jnsgd1na2vs0mg"},{"bike_id":"0512ff03-5632-463b-8a2f-a58a24edff66","system_id":"levelo_inurba_marseille","lat":43.26386,"lon":5.41054,"is_reserved":false,"is_disabled":false,"rental_uris":{"android":"levelo://app?vid=0512ff03-5632-463b-8a2f-a58a24edff66","ios":"levelo://app?vid=0512ff03-5632-463b-8a2f-a58a24edff66"},"vehicle_type_id":"4","last_reported":1770709932,"current_range_meters":8800,"station_id":"st_d4e5ca6na9uc73bfl5fg","pricing_plan_id":"cebpf4jnsgd1na2vs0mg"},{"bike_id":"ec9f0f79-a933-45ea-9056-0d5e8f547deb","system_id":"levelo_inurba_marseille","lat":43.31377,"lon":5.36698,"is_reserved":false,"is_disabled":false,"rental_uris":{"android":"levelo://app?vid=ec9f0f79-a933-45ea-9056-0d5e8f547deb","ios":"levelo://app?vid=ec9f0f79-a933-45ea-9056-0d5e8f547deb"},"vehicle_type_id":"4","last_reported":1770709932,"current_range_meters":8800,"station_id":"ce4bgr92rcd13ifvqc6g","pricing_plan_id":"cebpf4jnsgd1na2vs0mg"},{"bike_id":"87056c0a-278d-470f-af70-99a4eb084f35","system_id":"levelo_inurba_marseille","lat":43.24647,"lon":5.43136,"is_reserved":false,"is_disabled":false,"rental_uris":{"android":"levelo://app?vid=87056c0a-278d-470f-af70-99a4eb084f35","ios":"levelo://app?vid=87056c0a-278d-470f-af70-99a4eb084f35"},"vehicle_type_id":"4","last_reported":1770709932,"current_range_meters":8800,"station_id":"st_d2m6c4gdas8pm72e190g","pricing_plan_id":"cebpf4jnsgd1na2vs0mg"},{"bike_id":"3f8bfcbc-5200-4097-84a4-35e09cf8d7ef","system_id":"levelo_inurba_marseille","lat":43.27898,"lon":5.39567,"is_reserved":false,"is_disabled":false,"rental_uris":{"android":"levelo://app?vid=3f8bfcbc-5200-4097-84a4-35e09cf8d7ef","ios":"levelo://app?vid=3f8bfcbc-5200-4097-84a4-35e09cf8d7ef"},"vehicle_type_id":"4","last_reported":1770709932,"current_range_meters":8800,"station_id":"ce4bhf92rcd13ifvqf40","pricing_plan_id":"cebpf4jnsgd1na2vs0mg"},{"bike_id":"2932c2a7-1dbb-4a48-b5b7-c9a044185445","system_id":"levelo_inurba_marseille","lat":43.27947,"lon":5.38745,"is_reserved":false,"is_disabled":false,"rental_uris":{"android":"levelo://app?vid=2932c2a7-1dbb-4a48-b5b7-c9a044185445","ios":"levelo://app?vid=2932c2a7-1dbb-4a48-b5b7-c9a044185445"},"vehicle_type_id":"4","last_reported":1770709932,"current_range_meters":8800,"station_id":"ce4bhg12rcd13ifvqf80","pricing_plan_id":"cebpf4jnsgd1na2vs0mg"},{"bike_id":"b0577ca1-afa8-48fa-be5c-f4673c1a2294","system_id":"levelo_inurba_marseille","lat":43.27973,"lon":5.41315,"is_reserved":false,"is_disabled":false,"rental_uris":{"android":"levelo://app?vid=b0577ca1-afa8-48fa-be5c-f4673c1a2294","ios":"levelo://app?vid=b0577ca1-afa8-48fa-be5c-f4673c1a2294"},"vehicle_type_id":"4","last_reported":1770709932,"current_range_meters":8800,"station_id":"","pricing_plan_id":"cebpf4jnsgd1na2vs0mg"},{"bike_id":"914bd365-2174-44e8-81f6-c3c68ba64874","system_id":"levelo_inurba_marseille","lat":43.231887,"lon":5.399971,"is_reserved":false,"is_disabled":false,"rental_uris":{"android":"levelo://app?vid=914bd365-2174-44e8-81f6-c3c68ba64874","ios":"levelo://app?vid=914bd365-2174-44e8-81f6-c3c68ba64874"},"vehicle_type_id":"4","last_reported":1770709932,"current_range_meters":8800,"station_id":"ce4bhn12rcd13ifvqgqg","pricing_plan_id":"cebpf4jnsgd1na2vs0mg"},{"bike_id":"1d84a6a9-53dd-4546-9d02-4bb696d8451e","system_id":"levelo_inurba_marseille","lat":43.31709,"lon":5.37438,"is_reserved":false,"is_disabled":false,"rental_uris":{"android":"levelo://app?vid=1d84a6a9-53dd-4546-9d02-4bb696d8451e","ios":"levelo://app?vid=1d84a6a9-53dd-4546-9d02-4bb696d8451e"},"vehicle_type_id":"4","last_reported":1770709932,"current_range_meters":8800,"station_id":"","pricing_plan_id":"cebpf4jnsgd1na2vs0mg"},{"bike_id":"a595811d-e4a2-4edd-bc38-2905c562c34e","system_id":"levelo_inurba_marseille","lat":43.33547,"lon":5.37473,"is_reserved":false,"is_disabled":false,"rental_uris":{"android":"levelo://app?vid=a595811d-e4a2-4edd-bc38-2905c562c34e","ios":"levelo://app?vid=a595811d-e4a2-4edd-bc38-2905c562c34e"},"vehicle_type_id":"4","last_reported":1770709932,"current_range_meters":8800,"station_id":"st_d46tts09ee8s73dlu43g","pricing_plan_id":"cebpf4jnsgd1na2vs0mg"},{"bike_id":"0dc590ec-14e3-4507-a126-5f1063974b22","system_id":"levelo_inurba_marseille","lat":43.24166,"lon":5.36417,"is_reserved":false,"is_disabled":false,"rental_uris":{"android":"levelo://app?vid=0dc590ec-14e3-4507-a126-5f1063974b22","ios":"levelo://app?vid=0dc590ec-14e3-4507-a126-5f1063974b22"},"vehicle_type_id":"4","last_reported":1770709932,"current_range_meters":8800,"station_id":"cpo36qri1sfpv3e86is0","pricing_plan_id":"cebpf4jnsgd1na2vs0mg"},{"bike_id":"91325359-8737-490e-88df-fb78f1f43233","system_id":"levelo_inurba_marseille","lat":43.27939,"lon":5.38707,"is_reserved":false,"is_disabled":false,"rental_uris":{"android":"levelo://app?vid=91325359-8737-490e-88df-fb78f1f43233","ios":"levelo://app?vid=91325359-8737-490e-88df-fb78f1f43233"},"vehicle_type_id":"4","last_reported":1770709932,"current_range_meters":9200,"station_id":"ce4bhg12rcd13ifvqf80","pricing_plan_id":"cebpf4jnsgd1na2vs0mg"},{"bike_id":"531379dd-d9cb-4544-8ef3-01f94b3ce6fd","system_id":"levelo_inurba_marseille","lat":43.253356,"lon":5.421752,"is_reserved":false,"is_disabled":false,"rental_uris":{"android":"levelo://app?vid=531379dd-d9cb-4544-8ef3-01f94b3ce6fd","ios":"levelo://app?vid=531379dd-d9cb-4544-8ef3-01f94b3ce6fd"},"vehicle_type_id":"4","last_reported":1770709932,"current_range_meters":9200,"station_id":"st_d2m65c5bi1j21697t3ng","pricing_plan_id":"cebpf4jnsgd1na2vs0mg"},{"bike_id":"690a04a1-182c-4652-992a-2774b1ea7c6b","system_id":"levelo_inurba_marseille","lat":43.22547,"lon":5.41618,"is_reserved":false,"is_disabled":false,"rental_uris":{"android":"levelo://app?vid=690a04a1-182c-4652-992a-2774b1ea7c6b","ios":"levelo://app?vid=690a04a1-182c-4652-992a-2774b1ea7c6b"},"vehicle_type_id":"4","last_reported":1770709932,"current_range_meters":9200,"station_id":"st_d2o4gvlbi1j2169b742g","pricing_plan_id":"cebpf4jnsgd1na2vs0mg"},{"bike_id":"1a6931c3-c546-4357-849f-5f88130c949d","system_id":"levelo_inurba_marseille","lat":43.250857,"lon":5.395219,"is_reserved":false,"is_disabled":false,"rental_uris":{"android":"levelo://app?vid=1a6931c3-c546-4357-849f-5f88130c949d","ios":"levelo://app?vid=1a6931c3-c546-4357-849f-5f88130c949d"},"vehicle_type_id":"4","last_reported":1770709932,"current_range_meters":9200,"station_id":"ce4bhm12rcd13ifvqgkg","pricing_plan_id":"cebpf4jnsgd1na2vs0mg"},{"bike_id":"0cad91d7-1079-467e-882f-8f8ec527c2c5","system_id":"levelo_inurba_marseille","lat":43.23188,"lon":5.3998,"is_reserved":false,"is_disabled":false,"rental_uris":{"android":"levelo://app?vid=0cad91d7-1079-467e-882f-8f8ec527c2c5","ios":"levelo://app?vid=0cad91d7-1079-467e-882f-8f8ec527c2c5"},"vehicle_type_id":"4","last_reported":1770709932,"current_range_meters":9200,"station_id":"ce4bhn12rcd13ifvqgqg","pricing_plan_id":"cebpf4jnsgd1na2vs0mg"},{"bike_id":"c419d6ff-2dec-4007-bfa6-b30a8ffe9253","system_id":"levelo_inurba_marseille","lat":43.22925,"lon":5.35398,"is_reserved":false,"is_disabled":false,"rental_uris":{"android":"levelo://app?vid=c419d6ff-2dec-4007-bfa6-b30a8ffe9253","ios":"levelo://app?vid=c419d6ff-2dec-4007-bfa6-b30a8ffe9253"},"vehicle_type_id":"4","last_reported":1770709932,"current_range_meters":9200,"station_id":"cpo3532slgdg3j2ikp40","pricing_plan_id":"cebpf4jnsgd1na2vs0mg"},{"bike_id":"508af785-032d-4df0-b8fe-11d0a1bf5f67","system_id":"levelo_inurba_marseille","lat":43.30112,"lon":5.4312,"is_reserved":false,"is_disabled":false,"rental_uris":{"android":"levelo://app?vid=508af785-032d-4df0-b8fe-11d0a1bf5f67","ios":"levelo://app?vid=508af785-032d-4df0-b8fe-11d0a1bf5f67"},"vehicle_type_id":"4","last_reported":1770709932,"current_range_meters":9200,"station_id":"st_d3js3co5814s73ftftug","pricing_plan_id":"cebpf4jnsgd1na2vs0mg"},{"bike_id":"fe93e1cf-f714-4e41-9dff-90a24aa5f3b8","system_id":"levelo_inurba_marseille","lat":43.243987,"lon":5.370939,"is_reserved":false,"is_disabled":false,"rental_uris":{"android":"levelo://app?vid=fe93e1cf-f714-4e41-9dff-90a24aa5f3b8","ios":"levelo://app?vid=fe93e1cf-f714-4e41-9dff-90a24aa5f3b8"},"vehicle_type_id":"4","last_reported":1770709932,"current_range_meters":9200,"station_id":"ce4bhhh2rcd13ifvqfk0","pricing_plan_id":"cebpf4jnsgd1na2vs0mg"},{"bike_id":"ffbe3718-fb64-481b-bbfe-6664f18f61cb","system_id":"levelo_inurba_marseille","lat":43.246294,"lon":5.43144,"is_reserved":false,"is_disabled":false,"rental_uris":{"android":"levelo://app?vid=ffbe3718-fb64-481b-bbfe-6664f18f61cb","ios":"levelo://app?vid=ffbe3718-fb64-481b-bbfe-6664f18f61cb"},"vehicle_type_id":"4","last_reported":1770709932,"current_range_meters":9200,"station_id":"st_d2m6c4gdas8pm72e190g","pricing_plan_id":"cebpf4jnsgd1na2vs0mg"},{"bike_id":"50b635d3-0b93-40ca-af60-8fdd9b2f83d2","system_id":"levelo_inurba_marseille","lat":43.2978,"lon":5.38099,"is_reserved":false,"is_disabled":true,"rental_uris":{"android":"levelo://app?vid=50b635d3-0b93-40ca-af60-8fdd9b2f83d2","ios":"levelo://app?vid=50b635d3-0b93-40ca-af60-8fdd9b2f83d2"},"vehicle_type_id":"4","last_reported":1770709932,"current_range_meters":9200,"station_id":"ce4bgip2rcd13ifvqbb0","pricing_plan_id":"cebpf4jnsgd1na2vs0mg"},{"bike_id":"1c1520d9-00d6-4632-8a04-5adbc04bf245","system_id":"levelo_inurba_marseille","lat":43.30442,"lon":5.39745,"is_reserved":false,"is_disabled":false,"rental_uris":{"android":"levelo://app?vid=1c1520d9-00d6-4632-8a04-5adbc04bf245","ios":"levelo://app?vid=1c1520d9-00d6-4632-8a04-5adbc04bf245"},"vehicle_type_id":"4","last_reported":1770709932,"current_range_meters":9200,"station_id":"ce4bh092rcd13ifvqd20","pricing_plan_id":"cebpf4jnsgd1na2vs0mg"},{"bike_id":"eb54f403-f5f5-4152-9cd4-d31f05df5ad8","system_id":"levelo_inurba_marseille","lat":43.26195,"lon":5.40476,"is_reserved":false,"is_disabled":false,"rental_uris":{"android":"levelo://app?vid=eb54f403-f5f5-4152-9cd4-d31f05df5ad8","ios":"levelo://app?vid=eb54f403-f5f5-4152-9cd4-d31f05df5ad8"},"vehicle_type_id":"4","last_reported":1770709932,"current_range_meters":9200,"station_id":"ce4bhmh2rcd13ifvqgmg","pricing_plan_id":"cebpf4jnsgd1na2vs0mg"},{"bike_id":"b91b4c6a-d3f5-4c8a-96d3-b7752b214142","system_id":"levelo_inurba_marseille","lat":43.30145,"lon":5.38081,"is_reserved":false,"is_disabled":false,"rental_uris":{"android":"levelo://app?vid=b91b4c6a-d3f5-4c8a-96d3-b7752b214142","ios":"levelo://app?vid=b91b4c6a-d3f5-4c8a-96d3-b7752b214142"},"vehicle_type_id":"4","last_reported":1770709932,"current_range_meters":9200,"station_id":"ce4bgjp2rcd13ifvqbh0","pricing_plan_id":"cebpf4jnsgd1na2vs0mg"},{"bike_id":"1d60df17-73f5-432b-b4c4-4d29fc70414c","system_id":"levelo_inurba_marseille","lat":43.26567,"lon":5.39004,"is_reserved":false,"is_disabled":false,"rental_uris":{"android":"levelo://app?vid=1d60df17-73f5-432b-b4c4-4d29fc70414c","ios":"levelo://app?vid=1d60df17-73f5-432b-b4c4-4d29fc70414c"},"vehicle_type_id":"4","last_reported":1770709932,"current_range_meters":9200,"station_id":"ce4bhe12rcd13ifvqf30","pricing_plan_id":"cebpf4jnsgd1na2vs0mg"},{"bike_id":"116641b8-a2d2-4925-8d0d-5061b57aeba0","system_id":"levelo_inurba_marseille","lat":43.2885,"lon":5.39324,"is_reserved":false,"is_disabled":false,"rental_uris":{"android":"levelo://app?vid=116641b8-a2d2-4925-8d0d-5061b57aeba0","ios":"levelo://app?vid=116641b8-a2d2-4925-8d0d-5061b57aeba0"},"vehicle_type_id":"4","last_reported":1770709932,"current_range_meters":9200,"station_id":"ce4bh2p2rcd13ifvqdi0","pricing_plan_id":"cebpf4jnsgd1na2vs0mg"},{"bike_id":"98f0713e-6402-4600-9353-a72594fc6185","system_id":"levelo_inurba_marseille","lat":43.2465,"lon":5.38158,"is_reserved":false,"is_disabled":false,"rental_uris":{"android":"levelo://app?vid=98f0713e-6402-4600-9353-a72594fc6185","ios":"levelo://app?vid=98f0713e-6402-4600-9353-a72594fc6185"},"vehicle_type_id":"4","last_reported":1770709932,"current_range_meters":9200,"station_id":"ce4bhih2rcd13ifvqfr0","pricing_plan_id":"cebpf4jnsgd1na2vs0mg"},{"bike_id":"f3631fda-c0c0-441a-a203-114b757c2c60","system_id":"levelo_inurba_marseille","lat":43.2741,"lon":5.3941,"is_reserved":false,"is_disabled":false,"rental_uris":{"android":"levelo://app?vid=f3631fda-c0c0-441a-a203-114b757c2c60","ios":"levelo://app?vid=f3631fda-c0c0-441a-a203-114b757c2c60"},"vehicle_type_id":"4","last_reported":1770709932,"current_range_meters":9200,"station_id":"ce4bhdp2rcd13ifvqf20","pricing_plan_id":"cebpf4jnsgd1na2vs0mg"},{"bike_id":"bb58d1ff-0c7f-4e5a-b3bc-0ec03eae9f93","system_id":"levelo_inurba_marseille","lat":43.291945,"lon":5.357523,"is_reserved":false,"is_disabled":false,"rental_uris":{"android":"levelo://app?vid=bb58d1ff-0c7f-4e5a-b3bc-0ec03eae9f93","ios":"levelo://app?vid=bb58d1ff-0c7f-4e5a-b3bc-0ec03eae9f93"},"vehicle_type_id":"4","last_reported":1770709932,"current_range_meters":9600,"station_id":"ce4bhb92rcd13ifvqen0","pricing_plan_id":"cebpf4jnsgd1na2vs0mg"},{"bike_id":"33f5d559-3ab3-408a-be5f-3ba2735491c2","system_id":"levelo_inurba_marseille","lat":43.28881,"lon":5.36712,"is_reserved":false,"is_disabled":false,"rental_uris":{"android":"levelo://app?vid=33f5d559-3ab3-408a-be5f-3ba2735491c2","ios":"levelo://app?vid=33f5d559-3ab3-408a-be5f-3ba2735491c2"},"vehicle_type_id":"4","last_reported":1770709932,"current_range_meters":9600,"station_id":"","pricing_plan_id":"cebpf4jnsgd1na2vs0mg"},{"bike_id":"b2da8fbe-8919-4f0e-a44c-530b3662e96b","system_id":"levelo_inurba_marseille","lat":43.28728,"lon":5.37939,"is_reserved":false,"is_disabled":false,"rental_uris":{"android":"levelo://app?vid=b2da8fbe-8919-4f0e-a44c-530b3662e96b","ios":"levelo://app?vid=b2da8fbe-8919-4f0e-a44c-530b3662e96b"},"vehicle_type_id":"4","last_reported":1770709932,"current_range_meters":9600,"station_id":"ce4bh9p2rcd13ifvqec0","pricing_plan_id":"cebpf4jnsgd1na2vs0mg"},{"bike_id":"327a8362-4520-4650-bf86-456ccf2033e2","system_id":"levelo_inurba_marseille","lat":43.301405,"lon":5.38081,"is_reserved":false,"is_disabled":false,"rental_uris":{"android":"levelo://app?vid=327a8362-4520-4650-bf86-456ccf2033e2","ios":"levelo://app?vid=327a8362-4520-4650-bf86-456ccf2033e2"},"vehicle_type_id":"4","last_reported":1770709932,"current_range_meters":9600,"station_id":"ce4bgjp2rcd13ifvqbh0","pricing_plan_id":"cebpf4jnsgd1na2vs0mg"},{"bike_id":"943ec953-d0e9-4408-a511-b906395f42e4","system_id":"levelo_inurba_marseille","lat":43.28458,"lon":5.38418,"is_reserved":false,"is_disabled":false,"rental_uris":{"android":"levelo://app?vid=943ec953-d0e9-4408-a511-b906395f42e4","ios":"levelo://app?vid=943ec953-d0e9-4408-a511-b906395f42e4"},"vehicle_type_id":"4","last_reported":1770709932,"current_range_meters":9600,"station_id":"ce4bh512rcd13ifvqe3g","pricing_plan_id":"cebpf4jnsgd1na2vs0mg"},{"bike_id":"84c788cc-9fd0-40a6-894b-9f9cf2b30096","system_id":"levelo_inurba_marseille","lat":43.29785,"lon":5.38117,"is_reserved":false,"is_disabled":false,"rental_uris":{"android":"levelo://app?vid=84c788cc-9fd0-40a6-894b-9f9cf2b30096","ios":"levelo://app?vid=84c788cc-9fd0-40a6-894b-9f9cf2b30096"},"vehicle_type_id":"4","last_reported":1770709932,"current_range_meters":9600,"station_id":"ce4bgip2rcd13ifvqbb0","pricing_plan_id":"cebpf4jnsgd1na2vs0mg"},{"bike_id":"4659f5f2-43a6-4213-b84f-184d5dec64b3","system_id":"levelo_inurba_marseille","lat":43.33538,"lon":5.37474,"is_reserved":false,"is_disabled":false,"rental_uris":{"android":"levelo://app?vid=4659f5f2-43a6-4213-b84f-184d5dec64b3","ios":"levelo://app?vid=4659f5f2-43a6-4213-b84f-184d5dec64b3"},"vehicle_type_id":"4","last_reported":1770709932,"current_range_meters":9600,"station_id":"st_d46tts09ee8s73dlu43g","pricing_plan_id":"cebpf4jnsgd1na2vs0mg"},{"bike_id":"f0952065-d287-4372-9708-3e421313bc12","system_id":"levelo_inurba_marseille","lat":43.24089,"lon":5.37707,"is_reserved":false,"is_disabled":false,"rental_uris":{"android":"levelo://app?vid=f0952065-d287-4372-9708-3e421313bc12","ios":"levelo://app?vid=f0952065-d287-4372-9708-3e421313bc12"},"vehicle_type_id":"4","last_reported":1770709932,"current_range_meters":9600,"station_id":"ce4bhnp2rcd13ifvqgvg","pricing_plan_id":"cebpf4jnsgd1na2vs0mg"},{"bike_id":"475fae78-75f9-4675-8012-304224f10313","system_id":"levelo_inurba_marseille","lat":43.33537,"lon":5.37491,"is_reserved":false,"is_disabled":false,"rental_uris":{"android":"levelo://app?vid=475fae78-75f9-4675-8012-304224f10313","ios":"levelo://app?vid=475fae78-75f9-4675-8012-304224f10313"},"vehicle_type_id":"4","last_reported":1770709932,"current_range_meters":9600,"station_id":"st_d46tts09ee8s73dlu43g","pricing_plan_id":"cebpf4jnsgd1na2vs0mg"},{"bike_id":"ecad8e39-3994-426f-a203-097683c275bd","system_id":"levelo_inurba_marseille","lat":43.32536,"lon":5.41462,"is_reserved":false,"is_disabled":false,"rental_uris":{"android":"levelo://app?vid=ecad8e39-3994-426f-a203-097683c275bd","ios":"levelo://app?vid=ecad8e39-3994-426f-a203-097683c275bd"},"vehicle_type_id":"4","last_reported":1770709932,"current_range_meters":9600,"station_id":"ce4bhq12rcd13ifvqhhg","pricing_plan_id":"cebpf4jnsgd1na2vs0mg"},{"bike_id":"a1bea5da-69e6-4684-99cc-f219fc7c2a19","system_id":"levelo_inurba_marseille","lat":43.28476,"lon":5.3857,"is_reserved":false,"is_disabled":false,"rental_uris":{"android":"levelo://app?vid=a1bea5da-69e6-4684-99cc-f219fc7c2a19","ios":"levelo://app?vid=a1bea5da-69e6-4684-99cc-f219fc7c2a19"},"vehicle_type_id":"4","last_reported":1770709932,"current_range_meters":9600,"station_id":"ce4bh8p2rcd13ifvqeb0","pricing_plan_id":"cebpf4jnsgd1na2vs0mg"},{"bike_id":"bf0b3c1e-8c69-43e5-8595-758bf6620c15","system_id":"levelo_inurba_marseille","lat":43.295546,"lon":5.422845,"is_reserved":false,"is_disabled":false,"rental_uris":{"android":"levelo://app?vid=bf0b3c1e-8c69-43e5-8595-758bf6620c15","ios":"levelo://app?vid=bf0b3c1e-8c69-43e5-8595-758bf6620c15"},"vehicle_type_id":"4","last_reported":1770709932,"current_range_meters":9600,"station_id":"ce4bhph2rcd13ifvqhdg","pricing_plan_id":"cebpf4jnsgd1na2vs0mg"},{"bike_id":"8f4de7df-65ce-4b15-80b9-3d59385054e2","system_id":"levelo_inurba_marseille","lat":43.27937,"lon":5.41044,"is_reserved":false,"is_disabled":false,"rental_uris":{"android":"levelo://app?vid=8f4de7df-65ce-4b15-80b9-3d59385054e2","ios":"levelo://app?vid=8f4de7df-65ce-4b15-80b9-3d59385054e2"},"vehicle_type_id":"4","last_reported":1770709932,"current_range_meters":9600,"station_id":"ce4bhnp2rcd13ifvqh0g","pricing_plan_id":"cebpf4jnsgd1na2vs0mg"},{"bike_id":"e746bdcc-4519-4219-b12f-2ce162cafd86","system_id":"levelo_inurba_marseille","lat":43.278004,"lon":5.40737,"is_reserved":false,"is_disabled":false,"rental_uris":{"android":"levelo://app?vid=e746bdcc-4519-4219-b12f-2ce162cafd86","ios":"levelo://app?vid=e746bdcc-4519-4219-b12f-2ce162cafd86"},"vehicle_type_id":"4","last_reported":1770709932,"current_range_meters":10000,"station_id":"ce4bhnh2rcd13ifvqgtg","pricing_plan_id":"cebpf4jnsgd1na2vs0mg"},{"bike_id":"30fc210e-04d3-4eee-92db-5f8dc86a7695","system_id":"levelo_inurba_marseille","lat":43.30121,"lon":5.37448,"is_reserved":false,"is_disabled":false,"rental_uris":{"android":"levelo://app?vid=30fc210e-04d3-4eee-92db-5f8dc86a7695","ios":"levelo://app?vid=30fc210e-04d3-4eee-92db-5f8dc86a7695"},"vehicle_type_id":"4","last_reported":1770709932,"current_range_meters":10000,"station_id":"ce4bgs92rcd13ifvqcc0","pricing_plan_id":"cebpf4jnsgd1na2vs0mg"},{"bike_id":"ea4204c4-f39e-4c65-835e-be050d54a40e","system_id":"levelo_inurba_marseille","lat":43.25937,"lon":5.40911,"is_reserved":false,"is_disabled":false,"rental_uris":{"android":"levelo://app?vid=ea4204c4-f39e-4c65-835e-be050d54a40e","ios":"levelo://app?vid=ea4204c4-f39e-4c65-835e-be050d54a40e"},"vehicle_type_id":"4","last_reported":1770709932,"current_range_meters":10000,"station_id":"ce4bhm92rcd13ifvqglg","pricing_plan_id":"cebpf4jnsgd1na2vs0mg"},{"bike_id":"8af86347-6f64-41f0-b4b7-8d356a71f338","system_id":"levelo_inurba_marseille","lat":43.28835,"lon":5.35852,"is_reserved":false,"is_disabled":false,"rental_uris":{"android":"levelo://app?vid=8af86347-6f64-41f0-b4b7-8d356a71f338","ios":"levelo://app?vid=8af86347-6f64-41f0-b4b7-8d356a71f338"},"vehicle_type_id":"4","last_reported":1770709932,"current_range_meters":10000,"station_id":"ce4bhb12rcd13ifvqem0","pricing_plan_id":"cebpf4jnsgd1na2vs0mg"},{"bike_id":"1f52b28e-6152-40cc-a661-49dad01cc740","system_id":"levelo_inurba_marseille","lat":43.3135,"lon":5.38505,"is_reserved":false,"is_disabled":true,"rental_uris":{"android":"levelo://app?vid=1f52b28e-6152-40cc-a661-49dad01cc740","ios":"levelo://app?vid=1f52b28e-6152-40cc-a661-49dad01cc740"},"vehicle_type_id":"4","last_reported":1770709932,"current_range_meters":10000,"station_id":"ce4bgt92rcd13ifvqcf0","pricing_plan_id":"cebpf4jnsgd1na2vs0mg"},{"bike_id":"927d93f1-b3c2-4d54-a48c-ac7038efa5f7","system_id":"levelo_inurba_marseille","lat":43.26561,"lon":5.40343,"is_reserved":false,"is_disabled":false,"rental_uris":{"android":"levelo://app?vid=927d93f1-b3c2-4d54-a48c-ac7038efa5f7","ios":"levelo://app?vid=927d93f1-b3c2-4d54-a48c-ac7038efa5f7"},"vehicle_type_id":"4","last_reported":1770709932,"current_range_meters":10000,"station_id":"ce4bhmp2rcd13ifvqgng","pricing_plan_id":"cebpf4jnsgd1na2vs0mg"},{"bike_id":"137e7803-3693-4f3d-9217-313ba601ddc2","system_id":"levelo_inurba_marseille","lat":43.27598,"lon":5.36134,"is_reserved":false,"is_disabled":true,"rental_uris":{"android":"levelo://app?vid=137e7803-3693-4f3d-9217-313ba601ddc2","ios":"levelo://app?vid=137e7803-3693-4f3d-9217-313ba601ddc2"},"vehicle_type_id":"4","last_reported":1770709932,"current_range_meters":10000,"station_id":"ce4bgj92rcd13ifvqbe0","pricing_plan_id":"cebpf4jnsgd1na2vs0mg"},{"bike_id":"aaaa13e1-ac7f-4065-b3e5-d38bcf374743","system_id":"levelo_inurba_marseille","lat":43.31043,"lon":5.37177,"is_reserved":false,"is_disabled":false,"rental_uris":{"android":"levelo://app?vid=aaaa13e1-ac7f-4065-b3e5-d38bcf374743","ios":"levelo://app?vid=aaaa13e1-ac7f-4065-b3e5-d38bcf374743"},"vehicle_type_id":"4","last_reported":1770709932,"current_range_meters":10000,"station_id":"st_d4kl2rp97mjs73e7tdfg","pricing_plan_id":"cebpf4jnsgd1na2vs0mg"},{"bike_id":"45319261-3312-434e-9cfd-3c64977a21d4","system_id":"levelo_inurba_marseille","lat":43.29249,"lon":5.3684,"is_reserved":false,"is_disabled":true,"rental_uris":{"android":"levelo://app?vid=45319261-3312-434e-9cfd-3c64977a21d4","ios":"levelo://app?vid=45319261-3312-434e-9cfd-3c64977a21d4"},"vehicle_type_id":"4","last_reported":1770709932,"current_range_meters":10000,"station_id":"ce4bhbp2rcd13ifvqesg","pricing_plan_id":"cebpf4jnsgd1na2vs0mg"},{"bike_id":"877aaecc-1e03-412a-b7fc-49812ef7fbf6","system_id":"levelo_inurba_marseille","lat":43.29972,"lon":5.3734,"is_reserved":false,"is_disabled":false,"rental_uris":{"android":"levelo://app?vid=877aaecc-1e03-412a-b7fc-49812ef7fbf6","ios":"levelo://app?vid=877aaecc-1e03-412a-b7fc-49812ef7fbf6"},"vehicle_type_id":"4","last_reported":1770709932,"current_range_meters":10000,"station_id":"","pricing_plan_id":"cebpf4jnsgd1na2vs0mg"},{"bike_id":"70b7cb4a-5725-4b7d-b3b2-2a19f1e6d1a8","system_id":"levelo_inurba_marseille","lat":43.282602,"lon":5.350761,"is_reserved":false,"is_disabled":false,"rental_uris":{"android":"levelo://app?vid=70b7cb4a-5725-4b7d-b3b2-2a19f1e6d1a8","ios":"levelo://app?vid=70b7cb4a-5725-4b7d-b3b2-2a19f1e6d1a8"},"vehicle_type_id":"4","last_reported":1770709932,"current_range_meters":10000,"station_id":"ce4bhbp2rcd13ifvqerg","pricing_plan_id":"cebpf4jnsgd1na2vs0mg"},{"bike_id":"9d5f26c4-e1f9-423a-837f-a33fbe90388b","system_id":"levelo_inurba_marseille","lat":43.31719,"lon":5.42366,"is_reserved":false,"is_disabled":false,"rental_uris":{"android":"levelo://app?vid=9d5f26c4-e1f9-423a-837f-a33fbe90388b","ios":"levelo://app?vid=9d5f26c4-e1f9-423a-837f-a33fbe90388b"},"vehicle_type_id":"4","last_reported":1770709932,"current_range_meters":10000,"station_id":"ce4bhp92rcd13ifvqhbg","pricing_plan_id":"cebpf4jnsgd1na2vs0mg"},{"bike_id":"de3c212d-0fb9-473a-a86c-66f8df44a604","system_id":"levelo_inurba_marseille","lat":43.24647,"lon":5.38194,"is_reserved":false,"is_disabled":false,"rental_uris":{"android":"levelo://app?vid=de3c212d-0fb9-473a-a86c-66f8df44a604","ios":"levelo://app?vid=de3c212d-0fb9-473a-a86c-66f8df44a604"},"vehicle_type_id":"4","last_reported":1770709932,"current_range_meters":10000,"station_id":"ce4bhih2rcd13ifvqfr0","pricing_plan_id":"cebpf4jnsgd1na2vs0mg"},{"bike_id":"69cb53c0-4939-4da6-a53e-35e4cb2de7f7","system_id":"levelo_inurba_marseille","lat":43.22551,"lon":5.41607,"is_reserved":false,"is_disabled":false,"rental_uris":{"android":"levelo://app?vid=69cb53c0-4939-4da6-a53e-35e4cb2de7f7","ios":"levelo://app?vid=69cb53c0-4939-4da6-a53e-35e4cb2de7f7"},