{"last_updated":1734426616,"ttl":60,"version":"2.2","data":{"bikes":[{"bike_id":"65e3a60a-05af-42fd-aba1-806a85674b77","system_id":"levelo_inurba_marseille","lat":43.27057,"lon":5.40262,"is_reserved":false,"is_disabled":false,"rental_uris":{"android":"levelo://app?vid=65e3a60a-05af-42fd-aba1-806a85674b77","ios":"levelo://app?vid=65e3a60a-05af-42fd-aba1-806a85674b77"},"vehicle_type_id":"4","last_reported":1734426617,"current_range_meters":38800,"station_id":"ce4bhk92rcd13ifvqgc0","pricing_plan_id":"cebpf4jnsgd1na2vs0mg"},{"bike_id":"042cfea2-af2d-4606-80bc-3b670cb62503","system_id":"levelo_inurba_marseille","lat":43.29164,"lon":5.37149,"is_reserved":false,"is_disabled":false,"rental_uris":{"android":"levelo://app?vid=042cfea2-af2d-4606-80bc-3b670cb62503","ios":"levelo://app?vid=042cfea2-af2d-4606-80bc-3b670cb62503"},"vehicle_type_id":"4","last_reported":1734426617,"current_range_meters":7200,"station_id":"ce4bha92rcd13ifvqeh0","pricing_plan_id":"cebpf4jnsgd1na2vs0mg"},{"bike_id":"9d8c5593-779a-4903-8657-b41e03d0118d","system_id":"levelo_inurba_marseille","lat":43.31336,"lon":5.36728,"is_reserved":false,"is_disabled":false,"rental_uris":{"android":"levelo://app?vid=9d8c5593-779a-4903-8657-b41e03d0118d","ios":"levelo://app?vid=9d8c5593-779a-4903-8657-b41e03d0118d"},"vehicle_type_id":"4","last_reported":1734426617,"current_range_meters":17600,"station_id":"ce4bgr92rcd13ifvqc6g","pricing_plan_id":"cebpf4jnsgd1na2vs0mg"},{"bike_id":"b3a74ab6-dfba-4f70-bce2-5c80da78bb49","system_id":"levelo_inurba_marseille","lat":43.30907,"lon":5.36847,"is_reserved":false,"is_disabled":false,"rental_uris":{"android":"levelo://app?vid=b3a74ab6-dfba-4f70-bce2-5c80da78bb49","ios":"levelo://app?vid=b3a74ab6-dfba-4f70-bce2-5c80da78bb49"},"vehicle_type_id":"4","last_reported":1734426617,"current_range_meters":20400,"station_id":"ce4bgn92rcd13ifvqbvg","pricing_plan_id":"cebpf4jnsgd1na2vs0mg"},{"bike_id":"99abb9f3-8dd9-4ef1-a925-fcaa8de4c122","system_id":"levelo_inurba_marseille","lat":43.33757,"lon":5.37478,"is_reserved":false,"is_disabled":true,"rental_uris":{"android":"levelo://app?vid=99abb9f3-8dd9-4ef1-a925-fcaa8de4c122","ios":"levelo://app?vid=99abb9f3-8dd9-4ef1-a925-fcaa8de4c122"},"vehicle_type_id":"4","last_reported":1734426617,"current_range_meters":4800,"station_id":"","pricing_plan_id":"cebpf4jnsgd1na2vs0mg"},{"bike_id":"7f39b7b5-c8b5-442c-bfee-5e97c583c75f","system_id":"levelo_inurba_marseille","lat":43.26203,"lon":5.37923,"is_reserved":false,"is_disabled":false,"rental_uris":{"android":"levelo://app?vid=7f39b7b5-c8b5-442c-bfee-5e97c583c75f","ios":"levelo://app?vid=7f39b7b5-c8b5-442c-bfee-5e97c583c75f"},"vehicle_type_id":"4","last_reported":1734426617,"current_range_meters":10800,"station_id":"ce4bhjp2rcd13ifvqg90","pricing_plan_id":"cebpf4jnsgd1na2vs0mg"},{"bike_id":"b5d62cf2-7990-4c60-b460-9d7a77ba0a8b","system_id":"levelo_inurba_marseille","lat":43.26898,"lon":5.40304,"is_reserved":false,"is_disabled":false,"rental_uris":{"android":"levelo://app?vid=b5d62cf2-7990-4c60-b460-9d7a77ba0a8b","ios":"levelo://app?vid=b5d62cf2-7990-4c60-b460-9d7a77ba0a8b"},"vehicle_type_id":"4","last_reported":1734426617,"current_range_meters":39200,"station_id":"cjm6bp8fraef2m0cb0m0","pricing_plan_id":"cebpf4jnsgd1na2vs0mg"},{"bike_id":"c35f8a78-21f3-40f1-acc1-35dfdd158011","system_id":"levelo_inurba_marseille","lat":43.29368,"lon":5.37827,"is_reserved":false,"is_disabled":false,"rental_uris":{"android":"levelo://app?vid=c35f8a78-21f3-40f1-acc1-35dfdd158011","ios":"levelo://app?vid=c35f8a78-21f3-40f1-acc1-35dfdd158011"},"vehicle_type_id":"4","last_reported":1734426617,"current_range_meters":34800,"station_id":"ce4bgjh2rcd13ifvqbf0","pricing_plan_id":"cebpf4jnsgd1na2vs0mg"},{"bike_id":"ee1606b0-effc-4a09-b27c-cbc4fb15cf59","system_id":"levelo_inurba_marseille","lat":43.31367,"lon":5.36697,"is_reserved":false,"is_disabled":false,"rental_uris":{"android":"levelo://app?vid=ee1606b0-effc-4a09-b27c-cbc4fb15cf59","ios":"levelo://app?vid=ee1606b0-effc-4a09-b27c-cbc4fb15cf59"},"vehicle_type_id":"4","last_reported":1734426617,"current_range_meters":38000,"station_id":"ce4bgr92rcd13ifvqc6g","pricing_plan_id":"cebpf4jnsgd1na2vs0mg"},{"bike_id":"2341e53f-4512-4ae3-822e-155d69be5d66","system_id":"levelo_inurba_marseille","lat":43.27051,"lon":5.40257,"is_reserved":false,"is_disabled":false,"rental_uris":{"android":"levelo://app?vid=2341e53f-4512-4ae3-822e-155d69be5d66","ios":"levelo://app?vid=2341e53f-4512-4ae3-822e-155d69be5d66"},"vehicle_type_id":"4","last_reported":1734426617,"current_range_meters":38800,"station_id":"ce4bhk92rcd13ifvqgc0","pricing_plan_id":"cebpf4jnsgd1na2vs0mg"},{"bike_id":"ed8635a9-8a62-4be7-9d4b-a4dbff1f7c6d","system_id":"levelo_inurba_marseille","lat":43.285146,"lon":5.380488,"is_reserved":false,"is_disabled":true,"rental_uris":{"android":"levelo://app?vid=ed8635a9-8a62-4be7-9d4b-a4dbff1f7c6d","ios":"levelo://app?vid=ed8635a9-8a62-4be7-9d4b-a4dbff1f7c6d"},"vehicle_type_id":"4","last_reported":1734426617,"current_range_meters":20400,"station_id":"","pricing_plan_id":"cebpf4jnsgd1na2vs0mg"},{"bike_id":"d2a5ebff-fcf8-4918-9c32-907c1149d9c6","system_id":"levelo_inurba_marseille","lat":43.254965,"lon":5.37648,"is_reserved":false,"is_disabled":false,"rental_uris":{"android":"levelo://app?vid=d2a5ebff-fcf8-4918-9c32-907c1149d9c6","ios":"levelo://app?vid=d2a5ebff-fcf8-4918-9c32-907c1149d9c6"},"vehicle_type_id":"4","last_reported":1734426617,"current_range_meters":37600,"station_id":"ce4bhh12rcd13ifvqff0","pricing_plan_id":"cebpf4jnsgd1na2vs0mg"},{"bike_id":"b1141b56-3e7b-49ed-8c3a-fdb8940f3e60","system_id":"levelo_inurba_marseille","lat":43.30027,"lon":5.37701,"is_reserved":false,"is_disabled":true,"rental_uris":{"android":"levelo://app?vid=b1141b56-3e7b-49ed-8c3a-fdb8940f3e60","ios":"levelo://app?vid=b1141b56-3e7b-49ed-8c3a-fdb8940f3e60"},"vehicle_type_id":"4","last_reported":1734426617,"current_range_meters":8000,"station_id":"","pricing_plan_id":"cebpf4jnsgd1na2vs0mg"},{"bike_id":"cf7cadb0-f4b8-497f-aad1-12587c321a80","system_id":"levelo_inurba_marseille","lat":43.30137,"lon":5.37407,"is_reserved":false,"is_disabled":false,"rental_uris":{"android":"levelo://app?vid=cf7cadb0-f4b8-497f-aad1-12587c321a80","ios":"levelo://app?vid=cf7cadb0-f4b8-497f-aad1-12587c321a80"},"vehicle_type_id":"4","last_reported":1734426617,"current_range_meters":38000,"station_id":"ce4bgs92rcd13ifvqcc0","pricing_plan_id":"cebpf4jnsgd1na2vs0mg"},{"bike_id":"e6d133bd-af2c-45d5-a97a-3aefb8b0f7a9","system_id":"levelo_inurba_marseille","lat":43.29848,"lon":5.3628,"is_reserved":false,"is_disabled":false,"rental_uris":{"android":"levelo://app?vid=e6d133bd-af2c-45d5-a97a-3aefb8b0f7a9","ios":"levelo://app?vid=e6d133bd-af2c-45d5-a97a-3aefb8b0f7a9"},"vehicle_type_id":"4","last_reported":1734426617,"current_range_meters":38800,"station_id":"ce4bgpp2rcd13ifvqc3g","pricing_plan_id":"cebpf4jnsgd1na2vs0mg"},{"bike_id":"10086f5f-eb94-421a-8247-01c4a38e23de","system_id":"levelo_inurba_marseille","lat":43.26786,"lon":5.39928,"is_reserved":false,"is_disabled":true,"rental_uris":{"android":"levelo://app?vid=10086f5f-eb94-421a-8247-01c4a38e23de","ios":"levelo://app?vid=10086f5f-eb94-421a-8247-01c4a38e23de"},"vehicle_type_id":"4","last_reported":1734426617,"current_range_meters":0,"station_id":"","pricing_plan_id":"cebpf4jnsgd1na2vs0mg"},{"bike_id":"3a0b3dcd-ad8a-41f2-9793-20f7dfa74693","system_id":"levelo_inurba_marseille","lat":43.31368,"lon":5.36698,"is_reserved":false,"is_disabled":false,"rental_uris":{"android":"levelo://app?vid=3a0b3dcd-ad8a-41f2-9793-20f7dfa74693","ios":"levelo://app?vid=3a0b3dcd-ad8a-41f2-9793-20f7dfa74693"},"vehicle_type_id":"4","last_reported":1734426617,"current_range_meters":30400,"station_id":"ce4bgr92rcd13ifvqc6g","pricing_plan_id":"cebpf4jnsgd1na2vs0mg"},{"bike_id":"19b63edb-b49d-48d7-a32f-d786a72a8236","system_id":"levelo_inurba_marseille","lat":43.285003,"lon":5.350624,"is_reserved":false,"is_disabled":false,"rental_uris":{"android":"levelo://app?vid=19b63edb-b49d-48d7-a32f-d786a72a8236","ios":"levelo://app?vid=19b63edb-b49d-48d7-a32f-d786a72a8236"},"vehicle_type_id":"4","last_reported":1734426617,"current_range_meters":29600,"station_id":"","pricing_plan_id":"cebpf4jnsgd1na2vs0mg"},{"bike_id":"9ce06e4d-5dc2-48df-b3f0-986bc44bae3c","system_id":"levelo_inurba_marseille","lat":43.30907,"lon":5.36841,"is_reserved":false,"is_disabled":false,"rental_uris":{"android":"levelo://app?vid=9ce06e4d-5dc2-48df-b3f0-986bc44bae3c","ios":"levelo://app?vid=9ce06e4d-5dc2-48df-b3f0-986bc44bae3c"},"vehicle_type_id":"4","last_reported":1734426617,"current_range_meters":38800,"station_id":"ce4bgn92rcd13ifvqbvg","pricing_plan_id":"cebpf4jnsgd1na2vs0mg"},{"bike_id":"6720e7d3-2af7-49ad-b700-31a47b602909","system_id":"levelo_inurba_marseille","lat":43.34141,"lon":5.40899,"is_reserved":false,"is_disabled":false,"rental_uris":{"android":"levelo://app?vid=6720e7d3-2af7-49ad-b700-31a47b602909","ios":"levelo://app?vid=6720e7d3-2af7-49ad-b700-31a47b602909"},"vehicle_type_id":"4","last_reported":1734426617,"current_range_meters":36000,"station_id":"ce4bhqh2rcd13ifvqhlg","pricing_plan_id":"cebpf4jnsgd1na2vs0mg"},{"bike_id":"fa4c55a3-24db-479d-9415-3ef696db76a3","system_id":"levelo_inurba_marseille","lat":43.30544,"lon":5.36697,"is_reserved":false,"is_disabled":false,"rental_uris":{"android":"levelo://app?vid=fa4c55a3-24db-479d-9415-3ef696db76a3","ios":"levelo://app?vid=fa4c55a3-24db-479d-9415-3ef696db76a3"},"vehicle_type_id":"4","last_reported":1734426617,"current_range_meters":32000,"station_id":"ce4bgrp2rcd13ifvqc9g","pricing_plan_id":"cebpf4jnsgd1na2vs0mg"},{"bike_id":"ce62d04b-d743-4379-8db8-7c34b39bc50b","system_id":"levelo_inurba_marseille","lat":43.312,"lon":5.36877,"is_reserved":false,"is_disabled":true,"rental_uris":{"android":"levelo://app?vid=ce62d04b-d743-4379-8db8-7c34b39bc50b","ios":"levelo://app?vid=ce62d04b-d743-4379-8db8-7c34b39bc50b"},"vehicle_type_id":"4","last_reported":1734426617,"current_range_meters":2000,"station_id":"ce4bgl92rcd13ifvqbq0","pricing_plan_id":"cebpf4jnsgd1na2vs0mg"},{"bike_id":"69ab6208-517d-46ca-9add-6f47a472feae","system_id":"levelo_inurba_marseille","lat":43.31363,"lon":5.38493,"is_reserved":false,"is_disabled":false,"rental_uris":{"android":"levelo://app?vid=69ab6208-517d-46ca-9add-6f47a472feae","ios":"levelo://app?vid=69ab6208-517d-46ca-9add-6f47a472feae"},"vehicle_type_id":"4","last_reported":1734426617,"current_range_meters":34800,"station_id":"ce4bgt92rcd13ifvqcf0","pricing_plan_id":"cebpf4jnsgd1na2vs0mg"},{"bike_id":"53a01e99-e801-4945-89a3-3b5f546383d0","system_id":"levelo_inurba_marseille","lat":43.24071,"lon":5.37761,"is_reserved":false,"is_disabled":false,"rental_uris":{"android":"levelo://app?vid=53a01e99-e801-4945-89a3-3b5f546383d0","ios":"levelo://app?vid=53a01e99-e801-4945-89a3-3b5f546383d0"},"vehicle_type_id":"4","last_reported":1734426617,"current_range_meters":28400,"station_id":"ce4bhnp2rcd13ifvqgvg","pricing_plan_id":"cebpf4jnsgd1na2vs0mg"},{"bike_id":"29cc6c74-b7a3-4f9b-b332-338e5552c771","system_id":"levelo_inurba_marseille","lat":43.27495,"lon":5.42461,"is_reserved":false,"is_disabled":false,"rental_uris":{"android":"levelo://app?vid=29cc6c74-b7a3-4f9b-b332-338e5552c771","ios":"levelo://app?vid=29cc6c74-b7a3-4f9b-b332-338e5552c771"},"vehicle_type_id":"4","last_reported":1734426617,"current_range_meters":30000,"station_id":"ce4bhn92rcd13ifvqgrg","pricing_plan_id":"cebpf4jnsgd1na2vs0mg"},{"bike_id":"6cb9fe89-432b-437b-8ac2-83ad2cda73a0","system_id":"levelo_inurba_marseille","lat":43.29258,"lon":5.4091,"is_reserved":false,"is_disabled":true,"rental_uris":{"android":"levelo://app?vid=6cb9fe89-432b-437b-8ac2-83ad2cda73a0","ios":"levelo://app?vid=6cb9fe89-432b-437b-8ac2-83ad2cda73a0"},"vehicle_type_id":"4","last_reported":1734426617,"current_range_meters":36000,"station_id":"ce4bh192rcd13ifvqdc0","pricing_plan_id":"cebpf4jnsgd1na2vs0mg"},{"bike_id":"f092fce6-9421-4b95-ab5d-3cb39eb0bd6d","system_id":"levelo_inurba_marseille","lat":43.301974,"lon":5.366212,"is_reserved":false,"is_disabled":true,"rental_uris":{"android":"levelo://app?vid=f092fce6-9421-4b95-ab5d-3cb39eb0bd6d","ios":"levelo://app?vid=f092fce6-9421-4b95-ab5d-3cb39eb0bd6d"},"vehicle_type_id":"4","last_reported":1734426617,"current_range_meters":32400,"station_id":"","pricing_plan_id":"cebpf4jnsgd1na2vs0mg"},{"bike_id":"ec6fd560-80ad-469b-8d2b-c65539592be7","system_id":"levelo_inurba_marseille","lat":43.27422,"lon":5.39404,"is_reserved":false,"is_disabled":true,"rental_uris":{"android":"levelo://app?vid=ec6fd560-80ad-469b-8d2b-c65539592be7","ios":"levelo://app?vid=ec6fd560-80ad-469b-8d2b-c65539592be7"},"vehicle_type_id":"4","last_reported":1734426617,"current_range_meters":29600,"station_id":"ce4bhdp2rcd13ifvqf20","pricing_plan_id":"cebpf4jnsgd1na2vs0mg"},{"bike_id":"c733bf48-2870-4d88-a086-818a10e1faf5","system_id":"levelo_inurba_marseille","lat":43.30909,"lon":5.36858,"is_reserved":false,"is_disabled":false,"rental_uris":{"android":"levelo://app?vid=c733bf48-2870-4d88-a086-818a10e1faf5","ios":"levelo://app?vid=c733bf48-2870-4d88-a086-818a10e1faf5"},"vehicle_type_id":"4","last_reported":1734426617,"current_range_meters":28400,"station_id":"ce4bgn92rcd13ifvqbvg","pricing_plan_id":"cebpf4jnsgd1na2vs0mg"},{"bike_id":"407426e2-5473-4726-8fbf-7659838178e2","system_id":"levelo_inurba_marseille","lat":43.27492,"lon":5.42444,"is_reserved":false,"is_disabled":false,"rental_uris":{"android":"levelo://app?vid=407426e2-5473-4726-8fbf-7659838178e2","ios":"levelo://app?vid=407426e2-5473-4726-8fbf-7659838178e2"},"vehicle_type_id":"4","last_reported":1734426617,"current_range_meters":38800,"station_id":"ce4bhn92rcd13ifvqgrg","pricing_plan_id":"cebpf4jnsgd1na2vs0mg"},{"bike_id":"0dd46de9-613e-42cc-afd6-bfbb0cd356c9","system_id":"levelo_inurba_marseille","lat":43.2718,"lon":5.391972,"is_reserved":false,"is_disabled":false,"rental_uris":{"android":"levelo://app?vid=0dd46de9-613e-42cc-afd6-bfbb0cd356c9","ios":"levelo://app?vid=0dd46de9-613e-42cc-afd6-bfbb0cd356c9"},"vehicle_type_id":"4","last_reported":1734426617,"current_range_meters":20400,"station_id":"ce4bhhp2rcd13ifvqfm0","pricing_plan_id":"cebpf4jnsgd1na2vs0mg"},{"bike_id":"3210868a-ae7c-446f-9222-fef482512f15","system_id":"levelo_inurba_marseille","lat":43.24191,"lon":5.39759,"is_reserved":false,"is_disabled":false,"rental_uris":{"android":"levelo://app?vid=3210868a-ae7c-446f-9222-fef482512f15","ios":"levelo://app?vid=3210868a-ae7c-446f-9222-fef482512f15"},"vehicle_type_id":"4","last_reported":1734426617,"current_range_meters":38800,"station_id":"ce4bhn12rcd13ifvqgpg","pricing_plan_id":"cebpf4jnsgd1na2vs0mg"},{"bike_id":"2f13728f-3125-43fc-a962-bfee29c90468","system_id":"levelo_inurba_marseille","lat":43.30908,"lon":5.36854,"is_reserved":false,"is_disabled":false,"rental_uris":{"android":"levelo://app?vid=2f13728f-3125-43fc-a962-bfee29c90468","ios":"levelo://app?vid=2f13728f-3125-43fc-a962-bfee29c90468"},"vehicle_type_id":"4","last_reported":1734426617,"current_range_meters":32400,"station_id":"ce4bgn92rcd13ifvqbvg","pricing_plan_id":"cebpf4jnsgd1na2vs0mg"},{"bike_id":"7f5a0561-9efa-4741-a70c-7f54f091ba2f","system_id":"levelo_inurba_marseille","lat":43.29683,"lon":5.37303,"is_reserved":false,"is_disabled":false,"rental_uris":{"android":"levelo://app?vid=7f5a0561-9efa-4741-a70c-7f54f091ba2f","ios":"levelo://app?vid=7f5a0561-9efa-4741-a70c-7f54f091ba2f"},"vehicle_type_id":"4","last_reported":1734426617,"current_range_meters":32000,"station_id":"ce4bgk12rcd13ifvqbj0","pricing_plan_id":"cebpf4jnsgd1na2vs0mg"},{"bike_id":"a716bf4a-483b-4082-8d5e-a159c3e6bcca","system_id":"levelo_inurba_marseille","lat":43.299638,"lon":5.413217,"is_reserved":false,"is_disabled":true,"rental_uris":{"android":"levelo://app?vid=a716bf4a-483b-4082-8d5e-a159c3e6bcca","ios":"levelo://app?vid=a716bf4a-483b-4082-8d5e-a159c3e6bcca"},"vehicle_type_id":"4","last_reported":1734426617,"current_range_meters":30800,"station_id":"ce4bhp12rcd13ifvqh9g","pricing_plan_id":"cebpf4jnsgd1na2vs0mg"},{"bike_id":"95275c33-7873-499c-92a9-b1e07600da97","system_id":"levelo_inurba_marseille","lat":43.30537,"lon":5.36706,"is_reserved":false,"is_disabled":false,"rental_uris":{"android":"levelo://app?vid=95275c33-7873-499c-92a9-b1e07600da97","ios":"levelo://app?vid=95275c33-7873-499c-92a9-b1e07600da97"},"vehicle_type_id":"4","last_reported":1734426617,"current_range_meters":38800,"station_id":"ce4bgrp2rcd13ifvqc9g","pricing_plan_id":"cebpf4jnsgd1na2vs0mg"},{"bike_id":"75979f35-52fb-4ff9-aef4-c293842957ed","system_id":"levelo_inurba_marseille","lat":43.32533,"lon":5.41432,"is_reserved":false,"is_disabled":true,"rental_uris":{"android":"levelo://app?vid=75979f35-52fb-4ff9-aef4-c293842957ed","ios":"levelo://app?vid=75979f35-52fb-4ff9-aef4-c293842957ed"},"vehicle_type_id":"4","last_reported":1734426617,"current_range_meters":34000,"station_id":"ce4bhq12rcd13ifvqhhg","pricing_plan_id":"cebpf4jnsgd1na2vs0mg"},{"bike_id":"d6a14722-dcf0-4b19-aac7-ccea3f759a13","system_id":"levelo_inurba_marseille","lat":43.24079,"lon":5.37755,"is_reserved":false,"is_disabled":false,"rental_uris":{"android":"levelo://app?vid=d6a14722-dcf0-4b19-aac7-ccea3f759a13","ios":"levelo://app?vid=d6a14722-dcf0-4b19-aac7-ccea3f759a13"},"vehicle_type_id":"4","last_reported":1734426617,"current_range_meters":20400,"station_id":"ce4bhnp2rcd13ifvqgvg","pricing_plan_id":"cebpf4jnsgd1na2vs0mg"},{"bike_id":"1b1b03f5-f815-408c-814f-541fc72db763","system_id":"levelo_inurba_marseille","lat":43.305347,"lon":5.36538,"is_reserved":false,"is_disabled":false,"rental_uris":{"android":"levelo://app?vid=1b1b03f5-f815-408c-814f-541fc72db763","ios":"levelo://app?vid=1b1b03f5-f815-408c-814f-541fc72db763"},"vehicle_type_id":"4","last_reported":1734426617,"current_range_meters":39200,"station_id":"ce4bgs12rcd13ifvqcag","pricing_plan_id":"cebpf4jnsgd1na2vs0mg"},{"bike_id":"8bf85460-270d-4d87-a5f1-a70dc5510ecd","system_id":"levelo_inurba_marseille","lat":43.29414,"lon":5.38608,"is_reserved":false,"is_disabled":false,"rental_uris":{"android":"levelo://app?vid=8bf85460-270d-4d87-a5f1-a70dc5510ecd","ios":"levelo://app?vid=8bf85460-270d-4d87-a5f1-a70dc5510ecd"},"vehicle_type_id":"4","last_reported":1734426617,"current_range_meters":26000,"station_id":"ce4bh2h2rcd13ifvqdh0","pricing_plan_id":"cebpf4jnsgd1na2vs0mg"},{"bike_id":"ba98bdce-aee7-48db-921f-e5b23de6229a","system_id":"levelo_inurba_marseille","lat":43.33788,"lon":5.42094,"is_reserved":false,"is_disabled":true,"rental_uris":{"android":"levelo://app?vid=ba98bdce-aee7-48db-921f-e5b23de6229a","ios":"levelo://app?vid=ba98bdce-aee7-48db-921f-e5b23de6229a"},"vehicle_type_id":"4","last_reported":1734426617,"current_range_meters":0,"station_id":"","pricing_plan_id":"cebpf4jnsgd1na2vs0mg"},{"bike_id":"e4aaed00-9e37-4750-bddb-e541db77bf63","system_id":"levelo_inurba_marseille","lat":43.26209,"lon":5.3745,"is_reserved":false,"is_disabled":false,"rental_uris":{"android":"levelo://app?vid=e4aaed00-9e37-4750-bddb-e541db77bf63","ios":"levelo://app?vid=e4aaed00-9e37-4750-bddb-e541db77bf63"},"vehicle_type_id":"4","last_reported":1734426617,"current_range_meters":38400,"station_id":"ce4bhgp2rcd13ifvqfc0","pricing_plan_id":"cebpf4jnsgd1na2vs0mg"},{"bike_id":"221a565f-203a-4d15-a7f2-89d89d221a0c","system_id":"levelo_inurba_marseille","lat":43.30151,"lon":5.38053,"is_reserved":false,"is_disabled":false,"rental_uris":{"android":"levelo://app?vid=221a565f-203a-4d15-a7f2-89d89d221a0c","ios":"levelo://app?vid=221a565f-203a-4d15-a7f2-89d89d221a0c"},"vehicle_type_id":"4","last_reported":1734426617,"current_range_meters":20800,"station_id":"ce4bgjp2rcd13ifvqbh0","pricing_plan_id":"cebpf4jnsgd1na2vs0mg"},{"bike_id":"f47c1c6c-7850-4f32-bb8e-b0c2f9545dfa","system_id":"levelo_inurba_marseille","lat":43.26681,"lon":5.38275,"is_reserved":false,"is_disabled":false,"rental_uris":{"android":"levelo://app?vid=f47c1c6c-7850-4f32-bb8e-b0c2f9545dfa","ios":"levelo://app?vid=f47c1c6c-7850-4f32-bb8e-b0c2f9545dfa"},"vehicle_type_id":"4","last_reported":1734426617,"current_range_meters":35200,"station_id":"ce4bhg92rcd13ifvqf90","pricing_plan_id":"cebpf4jnsgd1na2vs0mg"},{"bike_id":"ebe3c03e-d65b-44a0-a320-84faf668cead","system_id":"levelo_inurba_marseille","lat":43.30891,"lon":5.37199,"is_reserved":false,"is_disabled":false,"rental_uris":{"android":"levelo://app?vid=ebe3c03e-d65b-44a0-a320-84faf668cead","ios":"levelo://app?vid=ebe3c03e-d65b-44a0-a320-84faf668cead"},"vehicle_type_id":"4","last_reported":1734426617,"current_range_meters":34800,"station_id":"ce4bguh2rcd13ifvqckg","pricing_plan_id":"cebpf4jnsgd1na2vs0mg"},{"bike_id":"828030c6-0bad-4758-8ddd-66858e648a71","system_id":"levelo_inurba_marseille","lat":43.24076,"lon":5.37755,"is_reserved":false,"is_disabled":true,"rental_uris":{"android":"levelo://app?vid=828030c6-0bad-4758-8ddd-66858e648a71","ios":"levelo://app?vid=828030c6-0bad-4758-8ddd-66858e648a71"},"vehicle_type_id":"4","last_reported":1734426617,"current_range_meters":1600,"station_id":"ce4bhnp2rcd13ifvqgvg","pricing_plan_id":"cebpf4jnsgd1na2vs0mg"},{"bike_id":"4b239886-f188-4656-82b1-79aba27acecd","system_id":"levelo_inurba_marseille","lat":43.27052,"lon":5.40261,"is_reserved":false,"is_disabled":false,"rental_uris":{"android":"levelo://app?vid=4b239886-f188-4656-82b1-79aba27acecd","ios":"levelo://app?vid=4b239886-f188-4656-82b1-79aba27acecd"},"vehicle_type_id":"4","last_reported":1734426617,"current_range_meters":25600,"station_id":"ce4bhk92rcd13ifvqgc0","pricing_plan_id":"cebpf4jnsgd1na2vs0mg"},{"bike_id":"a5742624-1906-4d60-bc3c-3db11c9569d8","system_id":"levelo_inurba_marseille","lat":43.29624,"lon":5.37148,"is_reserved":false,"is_disabled":true,"rental_uris":{"android":"levelo://app?vid=a5742624-1906-4d60-bc3c-3db11c9569d8","ios":"levelo://app?vid=a5742624-1906-4d60-bc3c-3db11c9569d8"},"vehicle_type_id":"4","last_reported":1734426617,"current_range_meters":39200,"station_id":"ce4bh0p2rcd13ifvqd70","pricing_plan_id":"cebpf4jnsgd1na2vs0mg"},{"bike_id":"8457c1b4-58be-46ab-a0f7-0a437fe5530c","system_id":"levelo_inurba_marseille","lat":43.2669,"lon":5.38257,"is_reserved":false,"is_disabled":false,"rental_uris":{"android":"levelo://app?vid=8457c1b4-58be-46ab-a0f7-0a437fe5530c","ios":"levelo://app?vid=8457c1b4-58be-46ab-a0f7-0a437fe5530c"},"vehicle_type_id":"4","last_reported":1734426617,"current_range_meters":28000,"station_id":"ce4bhg92rcd13ifvqf90","pricing_plan_id":"cebpf4jnsgd1na2vs0mg"},{"bike_id":"71b1d029-6b05-4cf2-9ef4-9316524f5d58","system_id":"levelo_inurba_marseille","lat":43.30907,"lon":5.36841,"is_reserved":false,"is_disabled":false,"rental_uris":{"android":"levelo://app?vid=71b1d029-6b05-4cf2-9ef4-9316524f5d58","ios":"levelo://app?vid=71b1d029-6b05-4cf2-9ef4-9316524f5d58"},"vehicle_type_id":"4","last_reported":1734426617,"current_range_meters":32800,"station_id":"ce4bgn92rcd13ifvqbvg","pricing_plan_id":"cebpf4jnsgd1na2vs0mg"},{"bike_id":"08e00d39-f525-4dbd-998c-e451f6fbc527","system_id":"levelo_inurba_marseille","lat":43.30466,"lon":5.37907,"is_reserved":false,"is_disabled":true,"rental_uris":{"android":"levelo://app?vid=08e00d39-f525-4dbd-998c-e451f6fbc527","ios":"levelo://app?vid=08e00d39-f525-4dbd-998c-e451f6fbc527"},"vehicle_type_id":"4","last_reported":1734426617,"current_range_meters":0,"station_id":"ce4bgup2rcd13ifvqcn0","pricing_plan_id":"cebpf4jnsgd1na2vs0mg"},{"bike_id":"eff0ee10-69f9-4d94-90b9-243d2e460994","system_id":"levelo_inurba_marseille","lat":43.26676,"lon":5.38251,"is_reserved":false,"is_disabled":false,"rental_uris":{"android":"levelo://app?vid=eff0ee10-69f9-4d94-90b9-243d2e460994","ios":"levelo://app?vid=eff0ee10-69f9-4d94-90b9-243d2e460994"},"vehicle_type_id":"4","last_reported":1734426617,"current_range_meters":19600,"station_id":"ce4bhg92rcd13ifvqf90","pricing_plan_id":"cebpf4jnsgd1na2vs0mg"},{"bike_id":"5da00481-255d-4ea5-9ae9-d8286911b9ad","system_id":"levelo_inurba_marseille","lat":43.2656,"lon":5.37285,"is_reserved":false,"is_disabled":false,"rental_uris":{"android":"levelo://app?vid=5da00481-255d-4ea5-9ae9-d8286911b9ad","ios":"levelo://app?vid=5da00481-255d-4ea5-9ae9-d8286911b9ad"},"vehicle_type_id":"4","last_reported":1734426617,"current_range_meters":36800,"station_id":"ce4bhg12rcd13ifvqf70","pricing_plan_id":"cebpf4jnsgd1na2vs0mg"},{"bike_id":"927b7d17-9754-4d56-b5a3-d84b0a0817aa","system_id":"levelo_inurba_marseille","lat":43.31351,"lon":5.36712,"is_reserved":false,"is_disabled":false,"rental_uris":{"android":"levelo://app?vid=927b7d17-9754-4d56-b5a3-d84b0a0817aa","ios":"levelo://app?vid=927b7d17-9754-4d56-b5a3-d84b0a0817aa"},"vehicle_type_id":"4","last_reported":1734426617,"current_range_meters":29600,"station_id":"ce4bgr92rcd13ifvqc6g","pricing_plan_id":"cebpf4jnsgd1na2vs0mg"},{"bike_id":"24eb73cc-cf43-495d-9bea-9d5f091031f4","system_id":"levelo_inurba_marseille","lat":43.32547,"lon":5.41463,"is_reserved":false,"is_disabled":false,"rental_uris":{"android":"levelo://app?vid=24eb73cc-cf43-495d-9bea-9d5f091031f4","ios":"levelo://app?vid=24eb73cc-cf43-495d-9bea-9d5f091031f4"},"vehicle_type_id":"4","last_reported":1734426617,"current_range_meters":16000,"station_id":"ce4bhq12rcd13ifvqhhg","pricing_plan_id":"cebpf4jnsgd1na2vs0mg"},{"bike_id":"bf875427-f16c-4afd-8172-852b4c7156f8","system_id":"levelo_inurba_marseille","lat":43.3036,"lon":5.41876,"is_reserved":false,"is_disabled":false,"rental_uris":{"android":"levelo://app?vid=bf875427-f16c-4afd-8172-852b4c7156f8","ios":"levelo://app?vid=bf875427-f16c-4afd-8172-852b4c7156f8"},"vehicle_type_id":"4","last_reported":1734426617,"current_range_meters":38800,"station_id":"ce4bhop2rcd13ifvqh7g","pricing_plan_id":"cebpf4jnsgd1na2vs0mg"},{"bike_id":"f90a56d8-6b58-4667-b1e0-9be9da1c9d3e","system_id":"levelo_inurba_marseille","lat":43.2893,"lon":5.37903,"is_reserved":false,"is_disabled":true,"rental_uris":{"android":"levelo://app?vid=f90a56d8-6b58-4667-b1e0-9be9da1c9d3e","ios":"levelo://app?vid=f90a56d8-6b58-4667-b1e0-9be9da1c9d3e"},"vehicle_type_id":"4","last_reported":1734426617,"current_range_meters":28800,"station_id":"","pricing_plan_id":"cebpf4jnsgd1na2vs0mg"},{"bike_id":"cbedfd2b-a578-4d22-a76b-7fa87dbb2aae","system_id":"levelo_inurba_marseille","lat":43.29029,"lon":5.37565,"is_reserved":false,"is_disabled":false,"rental_uris":{"android":"levelo://app?vid=cbedfd2b-a578-4d22-a76b-7fa87dbb2aae","ios":"levelo://app?vid=cbedfd2b-a578-4d22-a76b-7fa87dbb2aae"},"vehicle_type_id":"4","last_reported":1734426617,"current_range_meters":35600,"station_id":"ce4bh692rcd13ifvqe90","pricing_plan_id":"cebpf4jnsgd1na2vs0mg"},{"bike_id":"ecbca169-1285-49c3-8599-27d606689683","system_id":"levelo_inurba_marseille","lat":43.23146,"lon":5.43716,"is_reserved":false,"is_disabled":true,"rental_uris":{"android":"levelo://app?vid=ecbca169-1285-49c3-8599-27d606689683","ios":"levelo://app?vid=ecbca169-1285-49c3-8599-27d606689683"},"vehicle_type_id":"4","last_reported":1734426617,"current_range_meters":0,"station_id":"ce4bhmp2rcd13ifvqgog","pricing_plan_id":"cebpf4jnsgd1na2vs0mg"},{"bike_id":"8ee5248c-b823-4e51-8911-5bf7fd601e38","system_id":"levelo_inurba_marseille","lat":43.30946,"lon":5.3902,"is_reserved":false,"is_disabled":false,"rental_uris":{"android":"levelo://app?vid=8ee5248c-b823-4e51-8911-5bf7fd601e38","ios":"levelo://app?vid=8ee5248c-b823-4e51-8911-5bf7fd601e38"},"vehicle_type_id":"4","last_reported":1734426617,"current_range_meters":36800,"station_id":"ce4bgup2rcd13ifvqco0","pricing_plan_id":"cebpf4jnsgd1na2vs0mg"},{"bike_id":"c9fc889d-fcf9-403c-880e-255bda9eec62","system_id":"levelo_inurba_marseille","lat":43.26028,"lon":5.37546,"is_reserved":false,"is_disabled":false,"rental_uris":{"android":"levelo://app?vid=c9fc889d-fcf9-403c-880e-255bda9eec62","ios":"levelo://app?vid=c9fc889d-fcf9-403c-880e-255bda9eec62"},"vehicle_type_id":"4","last_reported":1734426617,"current_range_meters":38400,"station_id":"ce4bhgh2rcd13ifvqfa0","pricing_plan_id":"cebpf4jnsgd1na2vs0mg"},{"bike_id":"30fd8308-23e0-4891-8bbc-b042c7d05e9d","system_id":"levelo_inurba_marseille","lat":43.31361,"lon":5.38485,"is_reserved":false,"is_disabled":false,"rental_uris":{"android":"levelo://app?vid=30fd8308-23e0-4891-8bbc-b042c7d05e9d","ios":"levelo://app?vid=30fd8308-23e0-4891-8bbc-b042c7d05e9d"},"vehicle_type_id":"4","last_reported":1734426617,"current_range_meters":38800,"station_id":"ce4bgt92rcd13ifvqcf0","pricing_plan_id":"cebpf4jnsgd1na2vs0mg"},{"bike_id":"b99ad5bb-2a6e-4e7d-aef8-304bd48cbb54","system_id":"levelo_inurba_marseille","lat":43.28935,"lon":5.36629,"is_reserved":false,"is_disabled":false,"rental_uris":{"android":"levelo://app?vid=b99ad5bb-2a6e-4e7d-aef8-304bd48cbb54","ios":"levelo://app?vid=b99ad5bb-2a6e-4e7d-aef8-304bd48cbb54"},"vehicle_type_id":"4","last_reported":1734426617,"current_range_meters":26800,"station_id":"ce4bhap2rcd13ifvqek0","pricing_plan_id":"cebpf4jnsgd1na2vs0mg"},{"bike_id":"04bc5157-798c-42aa-9679-29703469b037","system_id":"levelo_inurba_marseille","lat":43.30542,"lon":5.36541,"is_reserved":false,"is_disabled":false,"rental_uris":{"android":"levelo://app?vid=04bc5157-798c-42aa-9679-29703469b037","ios":"levelo://app?vid=04bc5157-798c-42aa-9679-29703469b037"},"vehicle_type_id":"4","last_reported":1734426617,"current_range_meters":38800,"station_id":"ce4bgs12rcd13ifvqcag","pricing_plan_id":"cebpf4jnsgd1na2vs0mg"},{"bike_id":"22409592-750e-4c92-8aa1-b40ba90e5eed","system_id":"levelo_inurba_marseille","lat":43.27493,"lon":5.42449,"is_reserved":false,"is_disabled":false,"rental_uris":{"android":"levelo://app?vid=22409592-750e-4c92-8aa1-b40ba90e5eed","ios":"levelo://app?vid=22409592-750e-4c92-8aa1-b40ba90e5eed"},"vehicle_type_id":"4","last_reported":1734426617,"current_range_meters":6400,"station_id":"ce4bhn92rcd13ifvqgrg","pricing_plan_id":"cebpf4jnsgd1na2vs0mg"},{"bike_id":"0854f93a-27ef-4312-bd8f-be30bba0059f","system_id":"levelo_inurba_marseille","lat":43.2862,"lon":5.35085,"is_reserved":false,"is_disabled":true,"rental_uris":{"android":"levelo://app?vid=0854f93a-27ef-4312-bd8f-be30bba0059f","ios":"levelo://app?vid=0854f93a-27ef-4312-bd8f-be30bba0059f"},"vehicle_type_id":"4","last_reported":1734426617,"current_range_meters":24800,"station_id":"","pricing_plan_id":"cebpf4jnsgd1na2vs0mg"},{"bike_id":"42c15d6c-7510-4b49-b81c-ecd00e225bd2","system_id":"levelo_inurba_marseille","lat":43.29701,"lon":5.37691,"is_reserved":false,"is_disabled":false,"rental_uris":{"android":"levelo://app?vid=42c15d6c-7510-4b49-b81c-ecd00e225bd2","ios":"levelo://app?vid=42c15d6c-7510-4b49-b81c-ecd00e225bd2"},"vehicle_type_id":"4","last_reported":1734426617,"current_range_meters":10800,"station_id":"ce4bgkh2rcd13ifvqbl0","pricing_plan_id":"cebpf4jnsgd1na2vs0mg"},{"bike_id":"c4270ea9-5ce6-4111-8dc1-8ae345013bb1","system_id":"levelo_inurba_marseille","lat":43.27184,"lon":5.40992,"is_reserved":false,"is_disabled":true,"rental_uris":{"android":"levelo://app?vid=c4270ea9-5ce6-4111-8dc1-8ae345013bb1","ios":"levelo://app?vid=c4270ea9-5ce6-4111-8dc1-8ae345013bb1"},"vehicle_type_id":"4","last_reported":1734426617,"current_range_meters":11600,"station_id":"ce4bhl12rcd13ifvqgf0","pricing_plan_id":"cebpf4jnsgd1na2vs0mg"},{"bike_id":"b9890efc-38e4-49da-a3d8-8319a55ef1d0","system_id":"levelo_inurba_marseille","lat":43.26685,"lon":5.38277,"is_reserved":false,"is_disabled":false,"rental_uris":{"android":"levelo://app?vid=b9890efc-38e4-49da-a3d8-8319a55ef1d0","ios":"levelo://app?vid=b9890efc-38e4-49da-a3d8-8319a55ef1d0"},"vehicle_type_id":"4","last_reported":1734426617,"current_range_meters":23200,"station_id":"ce4bhg92rcd13ifvqf90","pricing_plan_id":"cebpf4jnsgd1na2vs0mg"},{"bike_id":"3a4d755e-dac7-480f-9d1d-6524fb668d2e","system_id":"levelo_inurba_marseille","lat":43.279193,"lon":5.39579,"is_reserved":false,"is_disabled":false,"rental_uris":{"android":"levelo://app?vid=3a4d755e-dac7-480f-9d1d-6524fb668d2e","ios":"levelo://app?vid=3a4d755e-dac7-480f-9d1d-6524fb668d2e"},"vehicle_type_id":"4","last_reported":1734426617,"current_range_meters":5600,"station_id":"ce4bhf92rcd13ifvqf40","pricing_plan_id":"cebpf4jnsgd1na2vs0mg"},{"bike_id":"d9f638ef-8ccb-454e-adae-4e085f7e7956","system_id":"levelo_inurba_marseille","lat":43.24366,"lon":5.37065,"is_reserved":false,"is_disabled":false,"rental_uris":{"android":"levelo://app?vid=d9f638ef-8ccb-454e-adae-4e085f7e7956","ios":"levelo://app?vid=d9f638ef-8ccb-454e-adae-4e085f7e7956"},"vehicle_type_id":"4","last_reported":1734426617,"current_range_meters":38800,"station_id":"ce4bhhh2rcd13ifvqfk0","pricing_plan_id":"cebpf4jnsgd1na2vs0mg"},{"bike_id":"bc58f67f-2d15-4b81-980e-a5b29618e48d","system_id":"levelo_inurba_marseille","lat":43.30423,"lon":5.38904,"is_reserved":false,"is_disabled":true,"rental_uris":{"android":"levelo://app?vid=bc58f67f-2d15-4b81-980e-a5b29618e48d","ios":"levelo://app?vid=bc58f67f-2d15-4b81-980e-a5b29618e48d"},"vehicle_type_id":"4","last_reported":1734426617,"current_range_meters":24000,"station_id":"ce4bgk12rcd13ifvqbi0","pricing_plan_id":"cebpf4jnsgd1na2vs0mg"},{"bike_id":"b52b329d-f18e-4e29-a08a-2c8fe3b0e7ca","system_id":"levelo_inurba_marseille","lat":43.2695,"lon":5.38632,"is_reserved":false,"is_disabled":false,"rental_uris":{"android":"levelo://app?vid=b52b329d-f18e-4e29-a08a-2c8fe3b0e7ca","ios":"levelo://app?vid=b52b329d-f18e-4e29-a08a-2c8fe3b0e7ca"},"vehicle_type_id":"4","last_reported":1734426617,"current_range_meters":14400,"station_id":"ce4bhh92rcd13ifvqfh0","pricing_plan_id":"cebpf4jnsgd1na2vs0mg"},{"bike_id":"9e4205d3-1666-45c6-8fb3-344d16d7ebdc","system_id":"levelo_inurba_marseille","lat":43.30431,"lon":5.39748,"is_reserved":false,"is_disabled":false,"rental_uris":{"android":"levelo://app?vid=9e4205d3-1666-45c6-8fb3-344d16d7ebdc","ios":"levelo://app?vid=9e4205d3-1666-45c6-8fb3-344d16d7ebdc"},"vehicle_type_id":"4","last_reported":1734426617,"current_range_meters":33200,"station_id":"ce4bh092rcd13ifvqd20","pricing_plan_id":"cebpf4jnsgd1na2vs0mg"},{"bike_id":"90401b30-e46f-42f6-9602-e43235c1f7a7","system_id":"levelo_inurba_marseille","lat":43.29617,"lon":5.37153,"is_reserved":false,"is_disabled":false,"rental_uris":{"android":"levelo://app?vid=90401b30-e46f-42f6-9602-e43235c1f7a7","ios":"levelo://app?vid=90401b30-e46f-42f6-9602-e43235c1f7a7"},"vehicle_type_id":"4","last_reported":1734426617,"current_range_meters":22400,"station_id":"ce4bgnh2rcd13ifvqc0g","pricing_plan_id":"cebpf4jnsgd1na2vs0mg"},{"bike_id":"268184fb-1851-4b75-af84-15cc515788c0","system_id":"levelo_inurba_marseille","lat":43.30536,"lon":5.36702,"is_reserved":false,"is_disabled":false,"rental_uris":{"android":"levelo://app?vid=268184fb-1851-4b75-af84-15cc515788c0","ios":"levelo://app?vid=268184fb-1851-4b75-af84-15cc515788c0"},"vehicle_type_id":"4","last_reported":1734426617,"current_range_meters":36800,"station_id":"ce4bgrp2rcd13ifvqc9g","pricing_plan_id":"cebpf4jnsgd1na2vs0mg"},{"bike_id":"3fb6596b-b720-4e37-88d1-377c7a736425","system_id":"levelo_inurba_marseille","lat":43.23192,"lon":5.35557,"is_reserved":false,"is_disabled":false,"rental_uris":{"android":"levelo://app?vid=3fb6596b-b720-4e37-88d1-377c7a736425","ios":"levelo://app?vid=3fb6596b-b720-4e37-88d1-377c7a736425"},"vehicle_type_id":"4","last_reported":1734426617,"current_range_meters":38800,"station_id":"ce4bhu92rcd13ifvqi70","pricing_plan_id":"cebpf4jnsgd1na2vs0mg"},{"bike_id":"8914bb17-7251-4066-b905-d58eaff8838d","system_id":"levelo_inurba_marseille","lat":43.2718,"lon":5.40992,"is_reserved":false,"is_disabled":false,"rental_uris":{"android":"levelo://app?vid=8914bb17-7251-4066-b905-d58eaff8838d","ios":"levelo://app?vid=8914bb17-7251-4066-b905-d58eaff8838d"},"vehicle_type_id":"4","last_reported":1734426617,"current_range_meters":26000,"station_id":"ce4bhl12rcd13ifvqgf0","pricing_plan_id":"cebpf4jnsgd1na2vs0mg"},{"bike_id":"8ee62417-ba9c-4b61-84a5-5bd7e2cbee2e","system_id":"levelo_inurba_marseille","lat":43.337444,"lon":5.374475,"is_reserved":false,"is_disabled":true,"rental_uris":{"android":"levelo://app?vid=8ee62417-ba9c-4b61-84a5-5bd7e2cbee2e","ios":"levelo://app?vid=8ee62417-ba9c-4b61-84a5-5bd7e2cbee2e"},"vehicle_type_id":"4","last_reported":1734426617,"current_range_meters":0,"station_id":"","pricing_plan_id":"cebpf4jnsgd1na2vs0mg"},{"bike_id":"1106d33b-e0d2-425e-9734-64485de34d96","system_id":"levelo_inurba_marseille","lat":43.2884,"lon":5.35854,"is_reserved":false,"is_disabled":true,"rental_uris":{"android":"levelo://app?vid=1106d33b-e0d2-425e-9734-64485de34d96","ios":"levelo://app?vid=1106d33b-e0d2-425e-9734-64485de34d96"},"vehicle_type_id":"4","last_reported":1734426617,"current_range_meters":1200,"station_id":"ce4bhb12rcd13ifvqem0","pricing_plan_id":"cebpf4jnsgd1na2vs0mg"},{"bike_id":"d2294c64-af77-450b-b299-fc06315dbf1a","system_id":"levelo_inurba_marseille","lat":43.29304,"lon":5.37155,"is_reserved":false,"is_disabled":false,"rental_uris":{"android":"levelo://app?vid=d2294c64-af77-450b-b299-fc06315dbf1a","ios":"levelo://app?vid=d2294c64-af77-450b-b299-fc06315dbf1a"},"vehicle_type_id":"4","last_reported":1734426617,"current_range_meters":23200,"station_id":"ce4bgh92rcd13ifvqb40","pricing_plan_id":"cebpf4jnsgd1na2vs0mg"},{"bike_id":"efc57f04-4351-4676-97a0-14c3c2859977","system_id":"levelo_inurba_marseille","lat":43.295855,"lon":5.367445,"is_reserved":false,"is_disabled":true,"rental_uris":{"android":"levelo://app?vid=efc57f04-4351-4676-97a0-14c3c2859977","ios":"levelo://app?vid=efc57f04-4351-4676-97a0-14c3c2859977"},"vehicle_type_id":"4","last_reported":1734426617,"current_range_meters":38800,"station_id":"ce4bgph2rcd13ifvqc2g","pricing_plan_id":"cebpf4jnsgd1na2vs0mg"},{"bike_id":"2a03e7a9-e623-43fe-99c0-8c16e6af2b40","system_id":"levelo_inurba_marseille","lat":43.26981,"lon":5.39861,"is_reserved":false,"is_disabled":false,"rental_uris":{"android":"levelo://app?vid=2a03e7a9-e623-43fe-99c0-8c16e6af2b40","ios":"levelo://app?vid=2a03e7a9-e623-43fe-99c0-8c16e6af2b40"},"vehicle_type_id":"4","last_reported":1734426617,"current_range_meters":11600,"station_id":"","pricing_plan_id":"cebpf4jnsgd1na2vs0mg"},{"bike_id":"0a2befa9-d524-4c76-a190-4f11e42f1d7e","system_id":"levelo_inurba_marseille","lat":43.29615,"lon":5.37728,"is_reserved":false,"is_disabled":false,"rental_uris":{"android":"levelo://app?vid=0a2befa9-d524-4c76-a190-4f11e42f1d7e","ios":"levelo://app?vid=0a2befa9-d524-4c76-a190-4f11e42f1d7e"},"vehicle_type_id":"4","last_reported":1734426617,"current_range_meters":38800,"station_id":"ce4bgi92rcd13ifvqb90","pricing_plan_id":"cebpf4jnsgd1na2vs0mg"},{"bike_id":"0e009e2b-5946-4a59-bf02-ae4910d6465b","system_id":"levelo_inurba_marseille","lat":43.29532,"lon":5.42273,"is_reserved":false,"is_disabled":false,"rental_uris":{"android":"levelo://app?vid=0e009e2b-5946-4a59-bf02-ae4910d6465b","ios":"levelo://app?vid=0e009e2b-5946-4a59-bf02-ae4910d6465b"},"vehicle_type_id":"4","last_reported":1734426617,"current_range_meters":8000,"station_id":"ce4bhph2rcd13ifvqhdg","pricing_plan_id":"cebpf4jnsgd1na2vs0mg"},{"bike_id":"188a49c7-fda2-4c81-b044-89782d7e4d87","system_id":"levelo_inurba_marseille","lat":43.30903,"lon":5.36861,"is_reserved":false,"is_disabled":false,"rental_uris":{"android":"levelo://app?vid=188a49c7-fda2-4c81-b044-89782d7e4d87","ios":"levelo://app?vid=188a49c7-fda2-4c81-b044-89782d7e4d87"},"vehicle_type_id":"4","last_reported":1734426617,"current_range_meters":24800,"station_id":"ce4bgn92rcd13ifvqbvg","pricing_plan_id":"cebpf4jnsgd1na2vs0mg"},{"bike_id":"0e2e421d-cab6-4bab-ab43-0de2daec6dd5","system_id":"levelo_inurba_marseille","lat":43.278805,"lon":5.388003,"is_reserved":false,"is_disabled":true,"rental_uris":{"android":"levelo://app?vid=0e2e421d-cab6-4bab-ab43-0de2daec6dd5","ios":"levelo://app?vid=0e2e421d-cab6-4bab-ab43-0de2daec6dd5"},"vehicle_type_id":"4","last_reported":1734426617,"current_range_meters":0,"station_id":"","pricing_plan_id":"cebpf4jnsgd1na2vs0mg"},{"bike_id":"c1f83365-5f41-42f7-a0e1-467df2d7e115","system_id":"levelo_inurba_marseille","lat":43.29254,"lon":5.40896,"is_reserved":false,"is_disabled":false,"rental_uris":{"android":"levelo://app?vid=c1f83365-5f41-42f7-a0e1-467df2d7e115","ios":"levelo://app?vid=c1f83365-5f41-42f7-a0e1-467df2d7e115"},"vehicle_type_id":"4","last_reported":1734426617,"current_range_meters":9200,"station_id":"ce4bh192rcd13ifvqdc0","pricing_plan_id":"cebpf4jnsgd1na2vs0mg"},{"bike_id":"bf85f0b9-c86c-43a7-bfe7-23af3028a90a","system_id":"levelo_inurba_marseille","lat":43.255826,"lon":5.382326,"is_reserved":false,"is_disabled":false,"rental_uris":{"android":"levelo://app?vid=bf85f0b9-c86c-43a7-bfe7-23af3028a90a","ios":"levelo://app?vid=bf85f0b9-c86c-43a7-bfe7-23af3028a90a"},"vehicle_type_id":"4","last_reported":1734426617,"current_range_meters":38800,"station_id":"ce4bhih2rcd13ifvqfs0","pricing_plan_id":"cebpf4jnsgd1na2vs0mg"},{"bike_id":"25c0c336-834d-421d-b66d-e51c42a0ba97","system_id":"levelo_inurba_marseille","lat":43.30718,"lon":5.36812,"is_reserved":false,"is_disabled":false,"rental_uris":{"android":"levelo://app?vid=25c0c336-834d-421d-b66d-e51c42a0ba97","ios":"levelo://app?vid=25c0c336-834d-421d-b66d-e51c42a0ba97"},"vehicle_type_id":"4","last_reported":1734426617,"current_range_meters":10800,"station_id":"","pricing_plan_id":"cebpf4jnsgd1na2vs0mg"},{"bike_id":"e2dc3873-69f2-4161-9303-df4bc8077510","system_id":"levelo_inurba_marseille","lat":43.2721,"lon":5.39177,"is_reserved":false,"is_disabled":false,"rental_uris":{"android":"levelo://app?vid=e2dc3873-69f2-4161-9303-df4bc8077510","ios":"levelo://app?vid=e2dc3873-69f2-4161-9303-df4bc8077510"},"vehicle_type_id":"4","last_reported":1734426617,"current_range_meters":20400,"station_id":"ce4bhhp2rcd13ifvqfm0","pricing_plan_id":"cebpf4jnsgd1na2vs0mg"},{"bike_id":"5e10a06f-6d61-4ebb-9345-c784442507a3","system_id":"levelo_inurba_marseille","lat":43.32464,"lon":5.36546,"is_reserved":false,"is_disabled":true,"rental_uris":{"android":"levelo://app?vid=5e10a06f-6d61-4ebb-9345-c784442507a3","ios":"levelo://app?vid=5e10a06f-6d61-4ebb-9345-c784442507a3"},"vehicle_type_id":"4","last_reported":1734426617,"current_range_meters":38800,"station_id":"ce4bhs12rcd13ifvqhvg","pricing_plan_id":"cebpf4jnsgd1na2vs0mg"},{"bike_id":"48317259-4084-45cf-baa8-fd11ee8922ae","system_id":"levelo_inurba_marseille","lat":43.30546,"lon":5.36705,"is_reserved":false,"is_disabled":false,"rental_uris":{"android":"levelo://app?vid=48317259-4084-45cf-baa8-fd11ee8922ae","ios":"levelo://app?vid=48317259-4084-45cf-baa8-fd11ee8922ae"},"vehicle_type_id":"4","last_reported":1734426617,"current_range_meters":28400,"station_id":"ce4bgrp2rcd13ifvqc9g","pricing_plan_id":"cebpf4jnsgd1na2vs0mg"},{"bike_id":"520d373a-e6fd-4ebb-a532-3c6c37791c15","system_id":"levelo_inurba_marseille","lat":43.31357,"lon":5.38504,"is_reserved":false,"is_disabled":false,"rental_uris":{"android":"levelo://app?vid=520d373a-e6fd-4ebb-a532-3c6c37791c15","ios":"levelo://app?vid=520d373a-e6fd-4ebb-a532-3c6c37791c15"},"vehicle_type_id":"4","last_reported":1734426617,"current_range_meters":24800,"station_id":"ce4bgt92rcd13ifvqcf0","pricing_plan_id":"cebpf4jnsgd1na2vs0mg"},{"bike_id":"9a4c7886-9fe8-4b15-b02a-38314440a870","system_id":"levelo_inurba_marseille","lat":43.3135,"lon":5.36698,"is_reserved":false,"is_disabled":false,"rental_uris":{"android":"levelo://app?vid=9a4c7886-9fe8-4b15-b02a-38314440a870","ios":"levelo://app?vid=9a4c7886-9fe8-4b15-b02a-38314440a870"},"vehicle_type_id":"4","last_reported":1734426617,"current_range_meters":16400,"station_id":"ce4bgr92rcd13ifvqc6g","pricing_plan_id":"cebpf4jnsgd1na2vs0mg"},{"bike_id":"584b569e-7298-4afe-b48b-612c38273697","system_id":"levelo_inurba_marseille","lat":43.31063,"lon":5.38343,"is_reserved":false,"is_disabled":false,"rental_uris":{"android":"levelo://app?vid=584b569e-7298-4afe-b48b-612c38273697","ios":"levelo://app?vid=584b569e-7298-4afe-b48b-612c38273697"},"vehicle_type_id":"4","last_reported":1734426617,"current_range_meters":38000,"station_id":"ce4bgv92rcd13ifvqcr0","pricing_plan_id":"cebpf4jnsgd1na2vs0mg"},{"bike_id":"77183828-d161-45a0-b243-20dbd4e0ee89","system_id":"levelo_inurba_marseille","lat":43.24075,"lon":5.37759,"is_reserved":false,"is_disabled":false,"rental_uris":{"android":"levelo://app?vid=77183828-d161-45a0-b243-20dbd4e0ee89","ios":"levelo://app?vid=77183828-d161-45a0-b243-20dbd4e0ee89"},"vehicle_type_id":"4","last_reported":1734426617,"current_range_meters":18800,"station_id":"ce4bhnp2rcd13ifvqgvg","pricing_plan_id":"cebpf4jnsgd1na2vs0mg"},{"bike_id":"91ba94df-1b8f-4474-a354-8d42722f793b","system_id":"levelo_inurba_marseille","lat":43.30551,"lon":5.36545,"is_reserved":false,"is_disabled":false,"rental_uris":{"android":"levelo://app?vid=91ba94df-1b8f-4474-a354-8d42722f793b","ios":"levelo://app?vid=91ba94df-1b8f-4474-a354-8d42722f793b"},"vehicle_type_id":"4","last_reported":1734426617,"current_range_meters":36400,"station_id":"ce4bgs12rcd13ifvqcag","pricing_plan_id":"cebpf4jnsgd1na2vs0mg"},{"bike_id":"2b15d063-7a3f-4ab1-9a96-79820bd042f5","system_id":"levelo_inurba_marseille","lat":43.30257,"lon":5.40125,"is_reserved":false,"is_disabled":true,"rental_uris":{"android":"levelo://app?vid=2b15d063-7a3f-4ab1-9a96-79820bd042f5","ios":"levelo://app?vid=2b15d063-7a3f-4ab1-9a96-79820bd042f5"},"vehicle_type_id":"4","last_reported":1734426617,"current_range_meters":17200,"station_id":"ce4bgvh2rcd13ifvqcs0","pricing_plan_id":"cebpf4jnsgd1na2vs0mg"},{"bike_id":"1e1827b6-fae1-4c80-bc1b-fdad8f4741f4","system_id":"levelo_inurba_marseille","lat":43.2799,"lon":5.41658,"is_reserved":false,"is_disabled":false,"rental_uris":{"android":"levelo://app?vid=1e1827b6-fae1-4c80-bc1b-fdad8f4741f4","ios":"levelo://app?vid=1e1827b6-fae1-4c80-bc1b-fdad8f4741f4"},"vehicle_type_id":"4","last_reported":1734426617,"current_range_meters":26800,"station_id":"ce4bho12rcd13ifvqh1g","pricing_plan_id":"cebpf4jnsgd1na2vs0mg"},{"bike_id":"cc01b96a-fba0-49f2-aff9-ccb6b0df1bbb","system_id":"levelo_inurba_marseille","lat":43.276973,"lon":5.388793,"is_reserved":false,"is_disabled":true,"rental_uris":{"android":"levelo://app?vid=cc01b96a-fba0-49f2-aff9-ccb6b0df1bbb","ios":"levelo://app?vid=cc01b96a-fba0-49f2-aff9-ccb6b0df1bbb"},"vehicle_type_id":"4","last_reported":1734426617,"current_range_meters":38800,"station_id":"ce4bhi12rcd13ifvqfo0","pricing_plan_id":"cebpf4jnsgd1na2vs0mg"},{"bike_id":"120b7c18-b21e-44dc-8a4c-391f2499c59c","system_id":"levelo_inurba_marseille","lat":43.26558,"lon":5.37291,"is_reserved":false,"is_disabled":false,"rental_uris":{"android":"levelo://app?vid=120b7c18-b21e-44dc-8a4c-391f2499c59c","ios":"levelo://app?vid=120b7c18-b21e-44dc-8a4c-391f2499c59c"},"vehicle_type_id":"4","last_reported":1734426617,"current_range_meters":27600,"station_id":"ce4bhg12rcd13ifvqf70","pricing_plan_id":"cebpf4jnsgd1na2vs0mg"},{"bike_id":"9924660c-cd33-4041-8be9-097bbb57c009","system_id":"levelo_inurba_marseille","lat":43.26198,"lon":5.37934,"is_reserved":false,"is_disabled":false,"rental_uris":{"android":"levelo://app?vid=9924660c-cd33-4041-8be9-097bbb57c009","ios":"levelo://app?vid=9924660c-cd33-4041-8be9-097bbb57c009"},"vehicle_type_id":"4","last_reported":1734426617,"current_range_meters":36000,"station_id":"ce4bhjp2rcd13ifvqg90","pricing_plan_id":"cebpf4jnsgd1na2vs0mg"},{"bike_id":"b4465d41-b132-4381-a1bd-5624211fbb21","system_id":"levelo_inurba_marseille","lat":43.30535,"lon":5.36537,"is_reserved":false,"is_disabled":false,"rental_uris":{"android":"levelo://app?vid=b4465d41-b132-4381-a1bd-5624211fbb21","ios":"levelo://app?vid=b4465d41-b132-4381-a1bd-5624211fbb21"},"vehicle_type_id":"4","last_reported":1734426617,"current_range_meters":38800,"station_id":"ce4bgs12rcd13ifvqcag","pricing_plan_id":"cebpf4jnsgd1na2vs0mg"},{"bike_id":"8c7e2759-1761-4283-8484-bda9243b869e","system_id":"levelo_inurba_marseille","lat":43.32481,"lon":5.3656,"is_reserved":false,"is_disabled":false,"rental_uris":{"android":"levelo://app?vid=8c7e2759-1761-4283-8484-bda9243b869e","ios":"levelo://app?vid=8c7e2759-1761-4283-8484-bda9243b869e"},"vehicle_type_id":"4","last_reported":1734426617,"current_range_meters":38800,"station_id":"ce4bhs12rcd13ifvqhvg","pricing_plan_id":"cebpf4jnsgd1na2vs0mg"},{"bike_id":"e55307a2-7187-4063-abeb-5bc34bbea26f","system_id":"levelo_inurba_marseille","lat":43.30314,"lon":5.3687,"is_reserved":false,"is_disabled":false,"rental_uris":{"android":"levelo://app?vid=e55307a2-7187-4063-abeb-5bc34bbea26f","ios":"levelo://app?vid=e55307a2-7187-4063-abeb-5bc34bbea26f"},"vehicle_type_id":"4","last_reported":1734426617,"current_range_meters":35200,"station_id":"ce4bgqh2rcd13ifvqc5g","pricing_plan_id":"cebpf4jnsgd1na2vs0mg"},{"bike_id":"086e06e8-fa6f-44a6-98f4-ae12da11dda9","system_id":"levelo_inurba_marseille","lat":43.2978,"lon":5.39339,"is_reserved":false,"is_disabled":false,"rental_uris":{"android":"levelo://app?vid=086e06e8-fa6f-44a6-98f4-ae12da11dda9","ios":"levelo://app?vid=086e06e8-fa6f-44a6-98f4-ae12da11dda9"},"vehicle_type_id":"4","last_reported":1734426617,"current_range_meters":27200,"station_id":"chh1huq6cuj3fo74tm60","pricing_plan_id":"cebpf4jnsgd1na2vs0mg"},{"bike_id":"6355e2aa-7575-45ae-bbf2-d0aaeb43ee79","system_id":"levelo_inurba_marseille","lat":43.27056,"lon":5.40253,"is_reserved":false,"is_disabled":false,"rental_uris":{"android":"levelo://app?vid=6355e2aa-7575-45ae-bbf2-d0aaeb43ee79","ios":"levelo://app?vid=6355e2aa-7575-45ae-bbf2-d0aaeb43ee79"},"vehicle_type_id":"4","last_reported":1734426617,"current_range_meters":14000,"station_id":"ce4bhk92rcd13ifvqgc0","pricing_plan_id":"cebpf4jnsgd1na2vs0mg"},{"bike_id":"d600d5f9-a3e6-4b94-ba8f-df9f8ed10059","system_id":"levelo_inurba_marseille","lat":43.24539,"lon":5.39532,"is_reserved":false,"is_disabled":false,"rental_uris":{"android":"levelo://app?vid=d600d5f9-a3e6-4b94-ba8f-df9f8ed10059","ios":"levelo://app?vid=d600d5f9-a3e6-4b94-ba8f-df9f8ed10059"},"vehicle_type_id":"4","last_reported":1734426617,"current_range_meters":13600,"station_id":"ce4bhlp2rcd13ifvqgjg","pricing_plan_id":"cebpf4jnsgd1na2vs0mg"},{"bike_id":"49898701-8e16-47f8-bc06-c1b1ff8d1a01","system_id":"levelo_inurba_marseille","lat":43.29034,"lon":5.37567,"is_reserved":false,"is_disabled":false,"rental_uris":{"android":"levelo://app?vid=49898701-8e16-47f8-bc06-c1b1ff8d1a01","ios":"levelo://app?vid=49898701-8e16-47f8-bc06-c1b1ff8d1a01"},"vehicle_type_id":"4","last_reported":1734426617,"current_range_meters":20800,"station_id":"ce4bh692rcd13ifvqe90","pricing_plan_id":"cebpf4jnsgd1na2vs0mg"},{"bike_id":"0bf4ae72-54ed-474b-b55a-5c18caf1ddc4","system_id":"levelo_inurba_marseille","lat":43.24803,"lon":5.37453,"is_reserved":false,"is_disabled":false,"rental_uris":{"android":"levelo://app?vid=0bf4ae72-54ed-474b-b55a-5c18caf1ddc4","ios":"levelo://app?vid=0bf4ae72-54ed-474b-b55a-5c18caf1ddc4"},"vehicle_type_id":"4","last_reported":1734426617,"current_range_meters":38400,"station_id":"ce4bhgh2rcd13ifvqfb0","pricing_plan_id":"cebpf4jnsgd1na2vs0mg"},{"bike_id":"a88760a5-bded-4b2b-92be-418e7a03d3a5","system_id":"levelo_inurba_marseille","lat":43.29607,"lon":5.37711,"is_reserved":false,"is_disabled":true,"rental_uris":{"android":"levelo://app?vid=a88760a5-bded-4b2b-92be-418e7a03d3a5","ios":"levelo://app?vid=a88760a5-bded-4b2b-92be-418e7a03d3a5"},"vehicle_type_id":"4","last_reported":1734426617,"current_range_meters":0,"station_id":"ce4bgi92rcd13ifvqb90","pricing_plan_id":"cebpf4jnsgd1na2vs0mg"},{"bike_id":"75c8e1cf-07e5-4b95-bcb6-a6b77f234b1d","system_id":"levelo_inurba_marseille","lat":43.337444,"lon":5.374475,"is_reserved":false,"is_disabled":false,"rental_uris":{"android":"levelo://app?vid=75c8e1cf-07e5-4b95-bcb6-a6b77f234b1d","ios":"levelo://app?vid=75c8e1cf-07e5-4b95-bcb6-a6b77f234b1d"},"vehicle_type_id":"4","last_reported":1734426617,"current_range_meters":38800,"station_id":"","pricing_plan_id":"cebpf4jnsgd1na2vs0mg"},{"bike_id":"e7576b4a-a396-4871-bae8-294e2e5986f8","system_id":"levelo_inurba_marseille","lat":43.30298,"lon":5.36889,"is_reserved":false,"is_disabled":false,"rental_uris":{"android":"levelo://app?vid=e7576b4a-a396-4871-bae8-294e2e5986f8","ios":"levelo://app?vid=e7576b4a-a396-4871-bae8-294e2e5986f8"},"vehicle_type_id":"4","last_reported":1734426617,"current_range_meters":16400,"station_id":"ce4bgqh2rcd13ifvqc5g","pricing_plan_id":"cebpf4jnsgd1na2vs0mg"},{"bike_id":"8707fff4-af9e-4ef2-84fb-27fb545031ef","system_id":"levelo_inurba_marseille","lat":43.30951,"lon":5.3904,"is_reserved":false,"is_disabled":false,"rental_uris":{"android":"levelo://app?vid=8707fff4-af9e-4ef2-84fb-27fb545031ef","ios":"levelo://app?vid=8707fff4-af9e-4ef2-84fb-27fb545031ef"},"vehicle_type_id":"4","last_reported":1734426617,"current_range_meters":29600,"station_id":"ce4bgup2rcd13ifvqco0","pricing_plan_id":"cebpf4jnsgd1na2vs0mg"},{"bike_id":"6406da8e-4015-4884-84f3-5dcad338f4a8","system_id":"levelo_inurba_marseille","lat":43.32475,"lon":5.36574,"is_reserved":false,"is_disabled":false,"rental_uris":{"android":"levelo://app?vid=6406da8e-4015-4884-84f3-5dcad338f4a8","ios":"levelo://app?vid=6406da8e-4015-4884-84f3-5dcad338f4a8"},"vehicle_type_id":"4","last_reported":1734426617,"current_range_meters":34000,"station_id":"ce4bhs12rcd13ifvqhvg","pricing_plan_id":"cebpf4jnsgd1na2vs0mg"},{"bike_id":"97ab710a-0d50-4d1d-aed8-b7b9c51ddfbb","system_id":"levelo_inurba_marseille","lat":43.28664,"lon":5.38672,"is_reserved":false,"is_disabled":false,"rental_uris":{"android":"levelo://app?vid=97ab710a-0d50-4d1d-aed8-b7b9c51ddfbb","ios":"levelo://app?vid=97ab710a-0d50-4d1d-aed8-b7b9c51ddfbb"},"vehicle_type_id":"4","last_reported":1734426617,"current_range_meters":23200,"station_id":"ce4bh492rcd13ifvqdug","pricing_plan_id":"cebpf4jnsgd1na2vs0mg"},{"bike_id":"e3d58221-3d4d-4c5b-8ea9-b89a3ac635f3","system_id":"levelo_inurba_marseille","lat":43.3248,"lon":5.36567,"is_reserved":false,"is_disabled":false,"rental_uris":{"android":"levelo://app?vid=e3d58221-3d4d-4c5b-8ea9-b89a3ac635f3","ios":"levelo://app?vid=e3d58221-3d4d-4c5b-8ea9-b89a3ac635f3"},"vehicle_type_id":"4","last_reported":1734426617,"current_range_meters":36400,"station_id":"ce4bhs12rcd13ifvqhvg","pricing_plan_id":"cebpf4jnsgd1na2vs0mg"},{"bike_id":"6b2019df-57c6-4717-bb28-99523c4cbdf8","system_id":"levelo_inurba_marseille","lat":43.29526,"lon":5.39026,"is_reserved":false,"is_disabled":true,"rental_uris":{"android":"levelo://app?vid=6b2019df-57c6-4717-bb28-99523c4cbdf8","ios":"levelo://app?vid=6b2019df-57c6-4717-bb28-99523c4cbdf8"},"vehicle_type_id":"4","last_reported":1734426617,"current_range_meters":6400,"station_id":"ce4bh3p2rcd13ifvqdp0","pricing_plan_id":"cebpf4jnsgd1na2vs0mg"},{"bike_id":"9064f44a-7173-4693-b4e4-b33cadc2b2b3","system_id":"levelo_inurba_marseille","lat":43.32546,"lon":5.41446,"is_reserved":false,"is_disabled":false,"rental_uris":{"android":"levelo://app?vid=9064f44a-7173-4693-b4e4-b33cadc2b2b3","ios":"levelo://app?vid=9064f44a-7173-4693-b4e4-b33cadc2b2b3"},"vehicle_type_id":"4","last_reported":1734426617,"current_range_meters":26800,"station_id":"ce4bhq12rcd13ifvqhhg","pricing_plan_id":"cebpf4jnsgd1na2vs0mg"},{"bike_id":"31258b1a-5d53-43c4-bfc9-1c3c86bbf630","system_id":"levelo_inurba_marseille","lat":43.30166,"lon":5.38078,"is_reserved":false,"is_disabled":false,"rental_uris":{"android":"levelo://app?vid=31258b1a-5d53-43c4-bfc9-1c3c86bbf630","ios":"levelo://app?vid=31258b1a-5d53-43c4-bfc9-1c3c86bbf630"},"vehicle_type_id":"4","last_reported":1734426617,"current_range_meters":38800,"station_id":"ce4bgjp2rcd13ifvqbh0","pricing_plan_id":"cebpf4jnsgd1na2vs0mg"},{"bike_id":"4375d76a-dfa4-4b4b-b81c-b45a1fb8d4ca","system_id":"levelo_inurba_marseille","lat":43.28937,"lon":5.363923,"is_reserved":false,"is_disabled":false,"rental_uris":{"android":"levelo://app?vid=4375d76a-dfa4-4b4b-b81c-b45a1fb8d4ca","ios":"levelo://app?vid=4375d76a-dfa4-4b4b-b81c-b45a1fb8d4ca"},"vehicle_type_id":"4","last_reported":1734426617,"current_range_meters":34000,"station_id":"ce4bhc92rcd13ifvqetg","pricing_plan_id":"cebpf4jnsgd1na2vs0mg"},{"bike_id":"f9b8e287-4c0a-4967-a118-26c6063ff144","system_id":"levelo_inurba_marseille","lat":43.273,"lon":5.39076,"is_reserved":false,"is_disabled":false,"rental_uris":{"android":"levelo://app?vid=f9b8e287-4c0a-4967-a118-26c6063ff144","ios":"levelo://app?vid=f9b8e287-4c0a-4967-a118-26c6063ff144"},"vehicle_type_id":"4","last_reported":1734426617,"current_range_meters":38000,"station_id":"ce4bhgp2rcd13ifvqfe0","pricing_plan_id":"cebpf4jnsgd1na2vs0mg"},{"bike_id":"f5c0822d-e5fc-48af-9261-881b9d0794bb","system_id":"levelo_inurba_marseille","lat":43.27505,"lon":5.42489,"is_reserved":false,"is_disabled":false,"rental_uris":{"android":"levelo://app?vid=f5c0822d-e5fc-48af-9261-881b9d0794bb","ios":"levelo://app?vid=f5c0822d-e5fc-48af-9261-881b9d0794bb"},"vehicle_type_id":"4","last_reported":1734426617,"current_range_meters":8800,"station_id":"ce4bhn92rcd13ifvqgrg","pricing_plan_id":"cebpf4jnsgd1na2vs0mg"},{"bike_id":"3adf56f7-e398-4f39-9aed-d791bf6ebdd6","system_id":"levelo_inurba_marseille","lat":43.26489,"lon":5.3955,"is_reserved":false,"is_disabled":false,"rental_uris":{"android":"levelo://app?vid=3adf56f7-e398-4f39-9aed-d791bf6ebdd6","ios":"levelo://app?vid=3adf56f7-e398-4f39-9aed-d791bf6ebdd6"},"vehicle_type_id":"4","last_reported":1734426617,"current_range_meters":10000,"station_id":"ce4bhi12rcd13ifvqfq0","pricing_plan_id":"cebpf4jnsgd1na2vs0mg"},{"bike_id":"730a6134-88d8-47e4-be24-a87eaceaba81","system_id":"levelo_inurba_marseille","lat":43.27925,"lon":5.395712,"is_reserved":false,"is_disabled":true,"rental_uris":{"android":"levelo://app?vid=730a6134-88d8-47e4-be24-a87eaceaba81","ios":"levelo://app?vid=730a6134-88d8-47e4-be24-a87eaceaba81"},"vehicle_type_id":"4","last_reported":1734426617,"current_range_meters":38400,"station_id":"ce4bhf92rcd13ifvqf40","pricing_plan_id":"cebpf4jnsgd1na2vs0mg"},{"bike_id":"7c849768-0845-4891-b81b-3aad0926e6dd","system_id":"levelo_inurba_marseille","lat":43.30242,"lon":5.40048,"is_reserved":false,"is_disabled":true,"rental_uris":{"android":"levelo://app?vid=7c849768-0845-4891-b81b-3aad0926e6dd","ios":"levelo://app?vid=7c849768-0845-4891-b81b-3aad0926e6dd"},"vehicle_type_id":"4","last_reported":1734426617,"current_range_meters":34000,"station_id":"ce4bgvh2rcd13ifvqcs0","pricing_plan_id":"cebpf4jnsgd1na2vs0mg"},{"bike_id":"bb1c0ef0-184d-4b17-9016-88e561b3d27b","system_id":"levelo_inurba_marseille","lat":43.28614,"lon":5.35103,"is_reserved":false,"is_disabled":true,"rental_uris":{"android":"levelo://app?vid=bb1c0ef0-184d-4b17-9016-88e561b3d27b","ios":"levelo://app?vid=bb1c0ef0-184d-4b17-9016-88e561b3d27b"},"vehicle_type_id":"4","last_reported":1734426617,"current_range_meters":24000,"station_id":"ce4bhch2rcd13ifvqeug","pricing_plan_id":"cebpf4jnsgd1na2vs0mg"},{"bike_id":"8f6bb773-3dbe-4e43-af96-0ca30c4b5d4b","system_id":"levelo_inurba_marseille","lat":43.27055,"lon":5.40264,"is_reserved":false,"is_disabled":false,"rental_uris":{"android":"levelo://app?vid=8f6bb773-3dbe-4e43-af96-0ca30c4b5d4b","ios":"levelo://app?vid=8f6bb773-3dbe-4e43-af96-0ca30c4b5d4b"},"vehicle_type_id":"4","last_reported":1734426617,"current_range_meters":38400,"station_id":"ce4bhk92rcd13ifvqgc0","pricing_plan_id":"cebpf4jnsgd1na2vs0mg"},{"bike_id":"16a99294-78d2-4f6d-b48a-eb9def2d1b28","system_id":"levelo_inurba_marseille","lat":43.337444,"lon":5.374475,"is_reserved":false,"is_disabled":true,"rental_uris":{"android":"levelo://app?vid=16a99294-78d2-4f6d-b48a-eb9def2d1b28","ios":"levelo://app?vid=16a99294-78d2-4f6d-b48a-eb9def2d1b28"},"vehicle_type_id":"4","last_reported":1734426617,"current_range_meters":0,"station_id":"","pricing_plan_id":"cebpf4jnsgd1na2vs0mg"},{"bike_id":"c5595fd0-fc8e-462b-8984-5c1c92ed35f5","system_id":"levelo_inurba_marseille","lat":43.29558,"lon":5.42294,"is_reserved":false,"is_disabled":true,"rental_uris":{"android":"levelo://app?vid=c5595fd0-fc8e-462b-8984-5c1c92ed35f5","ios":"levelo://app?vid=c5595fd0-fc8e-462b-8984-5c1c92ed35f5"},"vehicle_type_id":"4","last_reported":1734426617,"current_range_meters":0,"station_id":"ce4bhph2rcd13ifvqhdg","pricing_plan_id":"cebpf4jnsgd1na2vs0mg"},{"bike_id":"d7fc73d9-2bfb-4d76-bfdc-a98adec233d1","system_id":"levelo_inurba_marseille","lat":43.30907,"lon":5.36853,"is_reserved":false,"is_disabled":false,"rental_uris":{"android":"levelo://app?vid=d7fc73d9-2bfb-4d76-bfdc-a98adec233d1","ios":"levelo://app?vid=d7fc73d9-2bfb-4d76-bfdc-a98adec233d1"},"vehicle_type_id":"4","last_reported":1734426617,"current_range_meters":24800,"station_id":"ce4bgn92rcd13ifvqbvg","pricing_plan_id":"cebpf4jnsgd1na2vs0mg"},{"bike_id":"ebaa68e4-3d1b-47af-9a69-6f7f2246f6e7","system_id":"levelo_inurba_marseille","lat":43.24667,"lon":5.38166,"is_reserved":false,"is_disabled":true,"rental_uris":{"android":"levelo://app?vid=ebaa68e4-3d1b-47af-9a69-6f7f2246f6e7","ios":"levelo://app?vid=ebaa68e4-3d1b-47af-9a69-6f7f2246f6e7"},"vehicle_type_id":"4","last_reported":1734426617,"current_range_meters":38000,"station_id":"ce4bhih2rcd13ifvqfr0","pricing_plan_id":"cebpf4jnsgd1na2vs0mg"},{"bike_id":"8255f9a7-6654-4611-b0dc-42cda27b080c","system_id":"levelo_inurba_marseille","lat":43.26193,"lon":5.37444,"is_reserved":false,"is_disabled":false,"rental_uris":{"android":"levelo://app?vid=8255f9a7-6654-4611-b0dc-42cda27b080c","ios":"levelo://app?vid=8255f9a7-6654-4611-b0dc-42cda27b080c"},"vehicle_type_id":"4","last_reported":1734426617,"current_range_meters":36400,"station_id":"ce4bhgp2rcd13ifvqfc0","pricing_plan_id":"cebpf4jnsgd1na2vs0mg"},{"bike_id":"02e52b6a-ebca-4f7e-af72-3478f66fb1d2","system_id":"levelo_inurba_marseille","lat":43.29271,"lon":5.36851,"is_reserved":false,"is_disabled":false,"rental_uris":{"android":"levelo://app?vid=02e52b6a-ebca-4f7e-af72-3478f66fb1d2","ios":"levelo://app?vid=02e52b6a-ebca-4f7e-af72-3478f66fb1d2"},"vehicle_type_id":"4","last_reported":1734426617,"current_range_meters":27200,"station_id":"ce4bhbp2rcd13ifvqesg","pricing_plan_id":"cebpf4jnsgd1na2vs0mg"},{"bike_id":"3a0a9685-e0de-4c3d-9934-a455f124c331","system_id":"levelo_inurba_marseille","lat":43.29841,"lon":5.36264,"is_reserved":false,"is_disabled":false,"rental_uris":{"android":"levelo://app?vid=3a0a9685-e0de-4c3d-9934-a455f124c331","ios":"levelo://app?vid=3a0a9685-e0de-4c3d-9934-a455f124c331"},"vehicle_type_id":"4","last_reported":1734426617,"current_range_meters":8800,"station_id":"ce4bgpp2rcd13ifvqc3g","pricing_plan_id":"cebpf4jnsgd1na2vs0mg"},{"bike_id":"8e7c3683-99a9-4188-89c4-858575c3d04c","system_id":"levelo_inurba_marseille","lat":43.27668,"lon":5.38886,"is_reserved":false,"is_disabled":true,"rental_uris":{"android":"levelo://app?vid=8e7c3683-99a9-4188-89c4-858575c3d04c","ios":"levelo://app?vid=8e7c3683-99a9-4188-89c4-858575c3d04c"},"vehicle_type_id":"4","last_reported":1734426617,"current_range_meters":30800,"station_id":"ce4bhi12rcd13ifvqfo0","pricing_plan_id":"cebpf4jnsgd1na2vs0mg"},{"bike_id":"ae60cc7b-5b37-424a-bce7-0c3f67a52e64","system_id":"levelo_inurba_marseille","lat":43.30466,"lon":5.37904,"is_reserved":false,"is_disabled":false,"rental_uris":{"android":"levelo://app?vid=ae60cc7b-5b37-424a-bce7-0c3f67a52e64","ios":"levelo://app?vid=ae60cc7b-5b37-424a-bce7-0c3f67a52e64"},"vehicle_type_id":"4","last_reported":1734426617,"current_range_meters":37600,"station_id":"ce4bgup2rcd13ifvqcn0","pricing_plan_id":"cebpf4jnsgd1na2vs0mg"},{"bike_id":"4577e3e8-7ec6-4361-8738-81257af38076","system_id":"levelo_inurba_marseille","lat":43.28417,"lon":5.34977,"is_reserved":false,"is_disabled":false,"rental_uris":{"android":"levelo://app?vid=4577e3e8-7ec6-4361-8738-81257af38076","ios":"levelo://app?vid=4577e3e8-7ec6-4361-8738-81257af38076"},"vehicle_type_id":"4","last_reported":1734426617,"current_range_meters":36800,"station_id":"ce4bhbh2rcd13ifvqepg","pricing_plan_id":"cebpf4jnsgd1na2vs0mg"},{"bike_id":"85c611d4-2eea-40f9-a167-f068da541cb3","system_id":"levelo_inurba_marseille","lat":43.26952,"lon":5.38632,"is_reserved":false,"is_disabled":true,"rental_uris":{"android":"levelo://app?vid=85c611d4-2eea-40f9-a167-f068da541cb3","ios":"levelo://app?vid=85c611d4-2eea-40f9-a167-f068da541cb3"},"vehicle_type_id":"4","last_reported":1734426617,"current_range_meters":36800,"station_id":"ce4bhh92rcd13ifvqfh0","pricing_plan_id":"cebpf4jnsgd1na2vs0mg"},{"bike_id":"bca3b16b-7ae1-463b-944a-4cce2729cd1e","system_id":"levelo_inurba_marseille","lat":43.30188,"lon":5.36597,"is_reserved":false,"is_disabled":false,"rental_uris":{"android":"levelo://app?vid=bca3b16b-7ae1-463b-944a-4cce2729cd1e","ios":"levelo://app?vid=bca3b16b-7ae1-463b-944a-4cce2729cd1e"},"vehicle_type_id":"4","last_reported":1734426617,"current_range_meters":22800,"station_id":"ce4bgrh2rcd13ifvqc8g","pricing_plan_id":"cebpf4jnsgd1na2vs0mg"},{"bike_id":"677fdaa9-c097-4ae6-9218-fb666b8c01e7","system_id":"levelo_inurba_marseille","lat":43.30271,"lon":5.37698,"is_reserved":false,"is_disabled":false,"rental_uris":{"android":"levelo://app?vid=677fdaa9-c097-4ae6-9218-fb666b8c01e7","ios":"levelo://app?vid=677fdaa9-c097-4ae6-9218-fb666b8c01e7"},"vehicle_type_id":"4","last_reported":1734426617,"current_range_meters":37600,"station_id":"ce4bguh2rcd13ifvqcj0","pricing_plan_id":"cebpf4jnsgd1na2vs0mg"},{"bike_id":"f74bc331-b6db-45be-b883-843d8b2b2465","system_id":"levelo_inurba_marseille","lat":43.27059,"lon":5.40254,"is_reserved":false,"is_disabled":false,"rental_uris":{"android":"levelo://app?vid=f74bc331-b6db-45be-b883-843d8b2b2465","ios":"levelo://app?vid=f74bc331-b6db-45be-b883-843d8b2b2465"},"vehicle_type_id":"4","last_reported":1734426617,"current_range_meters":27600,"station_id":"ce4bhk92rcd13ifvqgc0","pricing_plan_id":"cebpf4jnsgd1na2vs0mg"},{"bike_id":"9b077cf7-98d5-40cb-b5c0-c8454ccd93f2","system_id":"levelo_inurba_marseille","lat":43.29317,"lon":5.4117,"is_reserved":false,"is_disabled":true,"rental_uris":{"android":"levelo://app?vid=9b077cf7-98d5-40cb-b5c0-c8454ccd93f2","ios":"levelo://app?vid=9b077cf7-98d5-40cb-b5c0-c8454ccd93f2"},"vehicle_type_id":"4","last_reported":1734426617,"current_range_meters":0,"station_id":"","pricing_plan_id":"cebpf4jnsgd1na2vs0mg"},{"bike_id":"201584b4-95b9-4563-8e2a-9a489a1b4b70","system_id":"levelo_inurba_marseille","lat":43.2695,"lon":5.38617,"is_reserved":false,"is_disabled":false,"rental_uris":{"android":"levelo://app?vid=201584b4-95b9-4563-8e2a-9a489a1b4b70","ios":"levelo://app?vid=201584b4-95b9-4563-8e2a-9a489a1b4b70"},"vehicle_type_id":"4","last_reported":1734426617,"current_range_meters":22000,"station_id":"ce4bhh92rcd13ifvqfh0","pricing_plan_id":"cebpf4jnsgd1na2vs0mg"},{"bike_id":"6afe920d-4000-429a-84e5-416689c1fee2","system_id":"levelo_inurba_marseille","lat":43.28848,"lon":5.35852,"is_reserved":false,"is_disabled":false,"rental_uris":{"android":"levelo://app?vid=6afe920d-4000-429a-84e5-416689c1fee2","ios":"levelo://app?vid=6afe920d-4000-429a-84e5-416689c1fee2"},"vehicle_type_id":"4","last_reported":1734426617,"current_range_meters":38800,"station_id":"ce4bhb12rcd13ifvqem0","pricing_plan_id":"cebpf4jnsgd1na2vs0mg"},{"bike_id":"90525a69-7776-4545-bc47-f949be06468d","system_id":"levelo_inurba_marseille","lat":43.27317,"lon":5.39083,"is_reserved":false,"is_disabled":false,"rental_uris":{"android":"levelo://app?vid=90525a69-7776-4545-bc47-f949be06468d","ios":"levelo://app?vid=90525a69-7776-4545-bc47-f949be06468d"},"vehicle_type_id":"4","last_reported":1734426617,"current_range_meters":33600,"station_id":"ce4bhgp2rcd13ifvqfe0","pricing_plan_id":"cebpf4jnsgd1na2vs0mg"},{"bike_id":"c5edcd37-84e2-4980-bdb8-eb44f9033955","system_id":"levelo_inurba_marseille","lat":43.29842,"lon":5.36267,"is_reserved":false,"is_disabled":false,"rental_uris":{"android":"levelo://app?vid=c5edcd37-84e2-4980-bdb8-eb44f9033955","ios":"levelo://app?vid=c5edcd37-84e2-4980-bdb8-eb44f9033955"},"vehicle_type_id":"4","last_reported":1734426617,"current_range_meters":38000,"station_id":"ce4bgpp2rcd13ifvqc3g","pricing_plan_id":"cebpf4jnsgd1na2vs0mg"},{"bike_id":"17fd1c3b-23af-4fb5-9435-033e2a988571","system_id":"levelo_inurba_marseille","lat":43.30974,"lon":5.40093,"is_reserved":false,"is_disabled":true,"rental_uris":{"android":"levelo://app?vid=17fd1c3b-23af-4fb5-9435-033e2a988571","ios":"levelo://app?vid=17fd1c3b-23af-4fb5-9435-033e2a988571"},"vehicle_type_id":"4","last_reported":1734426617,"current_range_meters":34000,"station_id":"","pricing_plan_id":"cebpf4jnsgd1na2vs0mg"},{"bike_id":"e2044f09-c884-429e-a5cf-48be22d7ccae","system_id":"levelo_inurba_marseille","lat":34.672202,"lon":-1.878747,"is_reserved":false,"is_disabled":true,"rental_uris":{"android":"levelo://app?vid=e2044f09-c884-429e-a5cf-48be22d7ccae","ios":"levelo://app?vid=e2044f09-c884-429e-a5cf-48be22d7ccae"},"vehicle_type_id":"4","last_reported":1734426617,"current_range_meters":20800,"station_id":"","pricing_plan_id":"cebpf4jnsgd1na2vs0mg"},{"bike_id":"e692bae4-3e14-4085-a31d-270b8e698ad1","system_id":"levelo_inurba_marseille","lat":43.26954,"lon":5.38599,"is_reserved":false,"is_disabled":false,"rental_uris":{"android":"levelo://app?vid=e692bae4-3e14-4085-a31d-270b8e698ad1","ios":"levelo://app?vid=e692bae4-3e14-4085-a31d-270b8e698ad1"},"vehicle_type_id":"4","last_reported":1734426617,"current_range_meters":38800,"station_id":"ce4bhh92rcd13ifvqfh0","pricing_plan_id":"cebpf4jnsgd1na2vs0mg"},{"bike_id":"9de2868e-9ca3-42b4-b91f-d771896caa03","system_id":"levelo_inurba_marseille","lat":43.30551,"lon":5.36528,"is_reserved":false,"is_disabled":false,"rental_uris":{"android":"levelo://app?vid=9de2868e-9ca3-42b4-b91f-d771896caa03","ios":"levelo://app?vid=9de2868e-9ca3-42b4-b91f-d771896caa03"},"vehicle_type_id":"4","last_reported":1734426617,"current_range_meters":17200,"station_id":"ce4bgs12rcd13ifvqcag","pricing_plan_id":"cebpf4jnsgd1na2vs0mg"},{"bike_id":"a8082556-13e6-4b1a-a8f6-7abd2a9c1721","system_id":"levelo_inurba_marseille","lat":43.30954,"lon":5.39034,"is_reserved":false,"is_disabled":false,"rental_uris":{"android":"levelo://app?vid=a8082556-13e6-4b1a-a8f6-7abd2a9c1721","ios":"levelo://app?vid=a8082556-13e6-4b1a-a8f6-7abd2a9c1721"},"vehicle_type_id":"4","last_reported":1734426617,"current_range_meters":25200,"station_id":"ce4bgup2rcd13ifvqco0","pricing_plan_id":"cebpf4jnsgd1na2vs0mg"},{"bike_id":"d7c1cf73-5ea5-4c2f-a402-88978e03c60a","system_id":"levelo_inurba_marseille","lat":43.29471,"lon":5.36234,"is_reserved":false,"is_disabled":false,"rental_uris":{"android":"levelo://app?vid=d7c1cf73-5ea5-4c2f-a402-88978e03c60a","ios":"levelo://app?vid=d7c1cf73-5ea5-4c2f-a402-88978e03c60a"},"vehicle_type_id":"4","last_reported":1734426617,"current_range_meters":4800,"station_id":"","pricing_plan_id":"cebpf4jnsgd1na2vs0mg"},{"bike_id":"528cc364-1d3b-43b6-bcbe-49ae95fd49bc","system_id":"levelo_inurba_marseille","lat":43.30934,"lon":5.40147,"is_reserved":false,"is_disabled":false,"rental_uris":{"android":"levelo://app?vid=528cc364-1d3b-43b6-bcbe-49ae95fd49bc","ios":"levelo://app?vid=528cc364-1d3b-43b6-bcbe-49ae95fd49bc"},"vehicle_type_id":"4","last_reported":1734426617,"current_range_meters":18800,"station_id":"ce4bgvp2rcd13ifvqct0","pricing_plan_id":"cebpf4jnsgd1na2vs0mg"},{"bike_id":"61413b9b-b9d2-45ec-a3fe-a6efe477ca8a","system_id":"levelo_inurba_marseille","lat":43.30439,"lon":5.39739,"is_reserved":false,"is_disabled":false,"rental_uris":{"android":"levelo://app?vid=61413b9b-b9d2-45ec-a3fe-a6efe477ca8a","ios":"levelo://app?vid=61413b9b-b9d2-45ec-a3fe-a6efe477ca8a"},"vehicle_type_id":"4","last_reported":1734426617,"current_range_meters":39200,"station_id":"ce4bh092rcd13ifvqd20","pricing_plan_id":"cebpf4jnsgd1na2vs0mg"},{"bike_id":"bd7e907d-3c2d-4a3f-94b9-a1be4ea3d428","system_id":"levelo_inurba_marseille","lat":43.310784,"lon":5.424288,"is_reserved":false,"is_disabled":false,"rental_uris":{"android":"levelo://app?vid=bd7e907d-3c2d-4a3f-94b9-a1be4ea3d428","ios":"levelo://app?vid=bd7e907d-3c2d-4a3f-94b9-a1be4ea3d428"},"vehicle_type_id":"4","last_reported":1734426617,"current_range_meters":38000,"station_id":"ce4bhp92rcd13ifvqhag","pricing_plan_id":"cebpf4jnsgd1na2vs0mg"},{"bike_id":"5a84ec44-4c68-48a1-927c-04c11999c1ba","system_id":"levelo_inurba_marseille","lat":43.28725,"lon":5.37936,"is_reserved":false,"is_disabled":false,"rental_uris":{"android":"levelo://app?vid=5a84ec44-4c68-48a1-927c-04c11999c1ba","ios":"levelo://app?vid=5a84ec44-4c68-48a1-927c-04c11999c1ba"},"vehicle_type_id":"4","last_reported":1734426617,"current_range_meters":34000,"station_id":"ce4bh9p2rcd13ifvqec0","pricing_plan_id":"cebpf4jnsgd1na2vs0mg"},{"bike_id":"8a520b2f-b078-4d07-b66c-357ae0273fef","system_id":"levelo_inurba_marseille","lat":43.31156,"lon":5.3873,"is_reserved":false,"is_disabled":false,"rental_uris":{"android":"levelo://app?vid=8a520b2f-b078-4d07-b66c-357ae0273fef","ios":"levelo://app?vid=8a520b2f-b078-4d07-b66c-357ae0273fef"},"vehicle_type_id":"4","last_reported":1734426617,"current_range_meters":16000,"station_id":"ce4bgv12rcd13ifvqcp0","pricing_plan_id":"cebpf4jnsgd1na2vs0mg"},{"bike_id":"55f80f81-ad6e-4bc9-b366-50507bc87bcd","system_id":"levelo_inurba_marseille","lat":43.32337,"lon":5.40569,"is_reserved":false,"is_disabled":true,"rental_uris":{"android":"levelo://app?vid=55f80f81-ad6e-4bc9-b366-50507bc87bcd","ios":"levelo://app?vid=55f80f81-ad6e-4bc9-b366-50507bc87bcd"},"vehicle_type_id":"4","last_reported":1734426617,"current_range_meters":400,"station_id":"ce4bhq92rcd13ifvqhjg","pricing_plan_id":"cebpf4jnsgd1na2vs0mg"},{"bike_id":"c9662c85-f4fb-4090-b7ba-3927272dbbb6","system_id":"levelo_inurba_marseille","lat":43.29303,"lon":5.37176,"is_reserved":false,"is_disabled":true,"rental_uris":{"android":"levelo://app?vid=c9662c85-f4fb-4090-b7ba-3927272dbbb6","ios":"levelo://app?vid=c9662c85-f4fb-4090-b7ba-3927272dbbb6"},"vehicle_type_id":"4","last_reported":1734426617,"current_range_meters":37600,"station_id":"ce4bgh92rcd13ifvqb40","pricing_plan_id":"cebpf4jnsgd1na2vs0mg"},{"bike_id":"05f920b4-4d8a-4285-b76f-97a5aea28289","system_id":"levelo_inurba_marseille","lat":43.29531,"lon":5.38548,"is_reserved":false,"is_disabled":false,"rental_uris":{"android":"levelo://app?vid=05f920b4-4d8a-4285-b76f-97a5aea28289","ios":"levelo://app?vid=05f920b4-4d8a-4285-b76f-97a5aea28289"},"vehicle_type_id":"4","last_reported":1734426617,"current_range_meters":34800,"station_id":"ce4bgih2rcd13ifvqba0","pricing_plan_id":"cebpf4jnsgd1na2vs0mg"},{"bike_id":"8148173f-02fb-462f-822c-198c0aed0e45","system_id":"levelo_inurba_marseille","lat":43.27492,"lon":5.42447,"is_reserved":false,"is_disabled":false,"rental_uris":{"android":"levelo://app?vid=8148173f-02fb-462f-822c-198c0aed0e45","ios":"levelo://app?vid=8148173f-02fb-462f-822c-198c0aed0e45"},"vehicle_type_id":"4","last_reported":1734426617,"current_range_meters":3200,"station_id":"ce4bhn92rcd13ifvqgrg","pricing_plan_id":"cebpf4jnsgd1na2vs0mg"},{"bike_id":"0c34f6ea-8c7f-42d6-9da9-9d42133fceff","system_id":"levelo_inurba_marseille","lat":43.25859,"lon":5.39901,"is_reserved":false,"is_disabled":false,"rental_uris":{"android":"levelo://app?vid=0c34f6ea-8c7f-42d6-9da9-9d42133fceff","ios":"levelo://app?vid=0c34f6ea-8c7f-42d6-9da9-9d42133fceff"},"vehicle_type_id":"4","last_reported":1734426617,"current_range_meters":22400,"station_id":"ce4bhl92rcd13ifvqghg","pricing_plan_id":"cebpf4jnsgd1na2vs0mg"},{"bike_id":"5f2be17f-083e-494f-a7a1-4802346cfcb9","system_id":"levelo_inurba_marseille","lat":43.28564,"lon":5.395,"is_reserved":false,"is_disabled":true,"rental_uris":{"android":"levelo://app?vid=5f2be17f-083e-494f-a7a1-4802346cfcb9","ios":"levelo://app?vid=5f2be17f-083e-494f-a7a1-4802346cfcb9"},"vehicle_type_id":"4","last_reported":1734426617,"current_range_meters":24000,"station_id":"ce4bh292rcd13ifvqdg0","pricing_plan_id":"cebpf4jnsgd1na2vs0mg"},{"bike_id":"2bd5592f-7b53-4708-b389-3edffa8b34d9","system_id":"levelo_inurba_marseille","lat":43.29634,"lon":5.37152,"is_reserved":false,"is_disabled":false,"rental_uris":{"android":"levelo://app?vid=2bd5592f-7b53-4708-b389-3edffa8b34d9","ios":"levelo://app?vid=2bd5592f-7b53-4708-b389-3edffa8b34d9"},"vehicle_type_id":"4","last_reported":1734426617,"current_range_meters":37600,"station_id":"ce4bgnh2rcd13ifvqc0g","pricing_plan_id":"cebpf4jnsgd1na2vs0mg"},{"bike_id":"12c0f2f6-da58-4054-b8ea-66cf0689d0ae","system_id":"levelo_inurba_marseille","lat":43.30455,"lon":5.37901,"is_reserved":false,"is_disabled":true,"rental_uris":{"android":"levelo://app?vid=12c0f2f6-da58-4054-b8ea-66cf0689d0ae","ios":"levelo://app?vid=12c0f2f6-da58-4054-b8ea-66cf0689d0ae"},"vehicle_type_id":"4","last_reported":1734426617,"current_range_meters":23200,"station_id":"ce4bgup2rcd13ifvqcn0","pricing_plan_id":"cebpf4jnsgd1na2vs0mg"},{"bike_id":"02557a60-f058-497c-93a3-e74550da0736","system_id":"levelo_inurba_marseille","lat":43.26944,"lon":5.38627,"is_reserved":false,"is_disabled":false,"rental_uris":{"android":"levelo://app?vid=02557a60-f058-497c-93a3-e74550da0736","ios":"levelo://app?vid=02557a60-f058-497c-93a3-e74550da0736"},"vehicle_type_id":"4","last_reported":1734426617,"current_range_meters":38800,"station_id":"ce4bhh92rcd13ifvqfh0","pricing_plan_id":"cebpf4jnsgd1na2vs0mg"},{"bike_id":"5114b35a-0fbb-4692-915a-909bb398d975","system_id":"levelo_inurba_marseille","lat":43.30952,"lon":5.3904,"is_reserved":false,"is_disabled":false,"rental_uris":{"android":"levelo://app?vid=5114b35a-0fbb-4692-915a-909bb398d975","ios":"levelo://app?vid=5114b35a-0fbb-4692-915a-909bb398d975"},"vehicle_type_id":"4","last_reported":1734426617,"current_range_meters":32400,"station_id":"ce4bgup2rcd13ifvqco0","pricing_plan_id":"cebpf4jnsgd1na2vs0mg"},{"bike_id":"babe08f7-9651-4883-8e6b-cd5b5e9ad9d5","system_id":"levelo_inurba_marseille","lat":43.26023,"lon":5.37552,"is_reserved":false,"is_disabled":false,"rental_uris":{"android":"levelo://app?vid=babe08f7-9651-4883-8e6b-cd5b5e9ad9d5","ios":"levelo://app?vid=babe08f7-9651-4883-8e6b-cd5b5e9ad9d5"},"vehicle_type_id":"4","last_reported":1734426617,"current_range_meters":38000,"station_id":"ce4bhgh2rcd13ifvqfa0","pricing_plan_id":"cebpf4jnsgd1na2vs0mg"},{"bike_id":"4cee48ae-5b91-46c6-978a-93902812344a","system_id":"levelo_inurba_marseille","lat":43.24389,"lon":5.37063,"is_reserved":false,"is_disabled":false,"rental_uris":{"android":"levelo://app?vid=4cee48ae-5b91-46c6-978a-93902812344a","ios":"levelo://app?vid=4cee48ae-5b91-46c6-978a-93902812344a"},"vehicle_type_id":"4","last_reported":1734426617,"current_range_meters":38800,"station_id":"ce4bhhh2rcd13ifvqfk0","pricing_plan_id":"cebpf4jnsgd1na2vs0mg"},{"bike_id":"048ede08-1dd8-40d1-8404-3b85f61fc0d5","system_id":"levelo_inurba_marseille","lat":43.29555,"lon":5.42289,"is_reserved":false,"is_disabled":true,"rental_uris":{"android":"levelo://app?vid=048ede08-1dd8-40d1-8404-3b85f61fc0d5","ios":"levelo://app?vid=048ede08-1dd8-40d1-8404-3b85f61fc0d5"},"vehicle_type_id":"4","last_reported":1734426617,"current_range_meters":36000,"station_id":"ce4bhph2rcd13ifvqhdg","pricing_plan_id":"cebpf4jnsgd1na2vs0mg"},{"bike_id":"029bb566-7d8f-4c15-b417-513d9573a13b","system_id":"levelo_inurba_marseille","lat":43.30134,"lon":5.37418,"is_reserved":false,"is_disabled":false,"rental_uris":{"android":"levelo://app?vid=029bb566-7d8f-4c15-b417-513d9573a13b","ios":"levelo://app?vid=029bb566-7d8f-4c15-b417-513d9573a13b"},"vehicle_type_id":"4","last_reported":1734426617,"current_range_meters":19600,"station_id":"ce4bgs92rcd13ifvqcc0","pricing_plan_id":"cebpf4jnsgd1na2vs0mg"},{"bike_id":"f472c497-2eac-4c23-adad-3d0012fa87df","system_id":"levelo_inurba_marseille","lat":43.24078,"lon":5.37752,"is_reserved":false,"is_disabled":false,"rental_uris":{"android":"levelo://app?vid=f472c497-2eac-4c23-adad-3d0012fa87df","ios":"levelo://app?vid=f472c497-2eac-4c23-adad-3d0012fa87df"},"vehicle_type_id":"4","last_reported":1734426617,"current_range_meters":12400,"station_id":"ce4bhnp2rcd13ifvqgvg","pricing_plan_id":"cebpf4jnsgd1na2vs0mg"},{"bike_id":"a3ae6ee4-d060-4597-a716-f8c3846f7f84","system_id":"levelo_inurba_marseille","lat":43.28272,"lon":5.35063,"is_reserved":false,"is_disabled":false,"rental_uris":{"android":"levelo://app?vid=a3ae6ee4-d060-4597-a716-f8c3846f7f84","ios":"levelo://app?vid=a3ae6ee4-d060-4597-a716-f8c3846f7f84"},"vehicle_type_id":"4","last_reported":1734426617,"current_range_meters":36400,"station_id":"ce4bhbp2rcd13ifvqerg","pricing_plan_id":"cebpf4jnsgd1na2vs0mg"},{"bike_id":"6edb9fe2-48b3-4ff2-9ad9-5cdffebfcbee","system_id":"levelo_inurba_marseille","lat":43.32536,"lon":5.41467,"is_reserved":false,"is_disabled":false,"rental_uris":{"android":"levelo://app?vid=6edb9fe2-48b3-4ff2-9ad9-5cdffebfcbee","ios":"levelo://app?vid=6edb9fe2-48b3-4ff2-9ad9-5cdffebfcbee"},"vehicle_type_id":"4","last_reported":1734426617,"current_range_meters":26000,"station_id":"ce4bhq12rcd13ifvqhhg","pricing_plan_id":"cebpf4jnsgd1na2vs0mg"},{"bike_id":"0e6357bd-a485-4525-95b5-d6ae98d774a3","system_id":"levelo_inurba_marseille","lat":43.2407,"lon":5.37757,"is_reserved":false,"is_disabled":false,"rental_uris":{"android":"levelo://app?vid=0e6357bd-a485-4525-95b5-d6ae98d774a3","ios":"levelo://app?vid=0e6357bd-a485-4525-95b5-d6ae98d774a3"},"vehicle_type_id":"4","last_reported":1734426617,"current_range_meters":4800,"station_id":"ce4bhnp2rcd13ifvqgvg","pricing_plan_id":"cebpf4jnsgd1na2vs0mg"},{"bike_id":"b034ffa5-2e2f-4411-b0ad-406bb0eddb86","system_id":"levelo_inurba_marseille","lat":43.26684,"lon":5.38267,"is_reserved":false,"is_disabled":false,"rental_uris":{"android":"levelo://app?vid=b034ffa5-2e2f-4411-b0ad-406bb0eddb86","ios":"levelo://app?vid=b034ffa5-2e2f-4411-b0ad-406bb0eddb86"},"vehicle_type_id":"4","last_reported":1734426617,"current_range_meters":33600,"station_id":"ce4bhg92rcd13ifvqf90","pricing_plan_id":"cebpf4jnsgd1na2vs0mg"},{"bike_id":"8c646a78-8adf-41a1-a8e9-d46a651e640d","system_id":"levelo_inurba_marseille","lat":43.24065,"lon":5.3776,"is_reserved":false,"is_disabled":false,"rental_uris":{"android":"levelo://app?vid=8c646a78-8adf-41a1-a8e9-d46a651e640d","ios":"levelo://app?vid=8c646a78-8adf-41a1-a8e9-d46a651e640d"},"vehicle_type_id":"4","last_reported":1734426617,"current_range_meters":21600,"station_id":"ce4bhnp2rcd13ifvqgvg","pricing_plan_id":"cebpf4jnsgd1na2vs0mg"},{"bike_id":"ceeded70-dc81-4188-aa9c-6a35b50f0174","system_id":"levelo_inurba_marseille","lat":43.28942,"lon":5.36396,"is_reserved":false,"is_disabled":false,"rental_uris":{"android":"levelo://app?vid=ceeded70-dc81-4188-aa9c-6a35b50f0174","ios":"levelo://app?vid=ceeded70-dc81-4188-aa9c-6a35b50f0174"},"vehicle_type_id":"4","last_reported":1734426617,"current_range_meters":32000,"station_id":"ce4bhc92rcd13ifvqetg","pricing_plan_id":"cebpf4jnsgd1na2vs0mg"},{"bike_id":"18f5ca31-8cb0-4d43-84ce-65d01b175c90","system_id":"levelo_inurba_marseille","lat":43.30952,"lon":5.39057,"is_reserved":false,"is_disabled":false,"rental_uris":{"android":"levelo://app?vid=18f5ca31-8cb0-4d43-84ce-65d01b175c90","ios":"levelo://app?vid=18f5ca31-8cb0-4d43-84ce-65d01b175c90"},"vehicle_type_id":"4","last_reported":1734426617,"current_range_meters":7200,"station_id":"ce4bgup2rcd13ifvqco0","pricing_plan_id":"cebpf4jnsgd1na2vs0mg"},{"bike_id":"5f64e711-3e50-4354-ae60-aee36e53d7fb","system_id":"levelo_inurba_marseille","lat":43.28937,"lon":5.39628,"is_reserved":false,"is_disabled":false,"rental_uris":{"android":"levelo://app?vid=5f64e711-3e50-4354-ae60-aee36e53d7fb","ios":"levelo://app?vid=5f64e711-3e50-4354-ae60-aee36e53d7fb"},"vehicle_type_id":"4","last_reported":1734426617,"current_range_meters":8800,"station_id":"ce4bh3h2rcd13ifvqdn0","pricing_plan_id":"cebpf4jnsgd1na2vs0mg"},{"bike_id":"519dd94c-8c30-4937-a5dd-fb2c1dff40c8","system_id":"levelo_inurba_marseille","lat":43.26496,"lon":5.39535,"is_reserved":false,"is_disabled":false,"rental_uris":{"android":"levelo://app?vid=519dd94c-8c30-4937-a5dd-fb2c1dff40c8","ios":"levelo://app?vid=519dd94c-8c30-4937-a5dd-fb2c1dff40c8"},"vehicle_type_id":"4","last_reported":1734426617,"current_range_meters":25200,"station_id":"ce4bhi12rcd13ifvqfq0","pricing_plan_id":"cebpf4jnsgd1na2vs0mg"},{"bike_id":"a72d515e-4dfd-4d0f-a401-002693668383","system_id":"levelo_inurba_marseille","lat":43.30548,"lon":5.36526,"is_reserved":false,"is_disabled":false,"rental_uris":{"android":"levelo://app?vid=a72d515e-4dfd-4d0f-a401-002693668383","ios":"levelo://app?vid=a72d515e-4dfd-4d0f-a401-002693668383"},"vehicle_type_id":"4","last_reported":1734426617,"current_range_meters":38800,"station_id":"ce4bgs12rcd13ifvqcag","pricing_plan_id":"cebpf4jnsgd1na2vs0mg"},{"bike_id":"4b4e0251-fe93-47eb-889a-2bee023cc4f2","system_id":"levelo_inurba_marseille","lat":43.30154,"lon":5.38077,"is_reserved":false,"is_disabled":false,"rental_uris":{"android":"levelo://app?vid=4b4e0251-fe93-47eb-889a-2bee023cc4f2","ios":"levelo://app?vid=4b4e0251-fe93-47eb-889a-2bee023cc4f2"},"vehicle_type_id":"4","last_reported":1734426617,"current_range_meters":33600,"station_id":"ce4bgjp2rcd13ifvqbh0","pricing_plan_id":"cebpf4jnsgd1na2vs0mg"},{"bike_id":"5afbaf68-27b5-46c5-931f-93cd362fe92f","system_id":"levelo_inurba_marseille","lat":43.31884,"lon":5.40724,"is_reserved":false,"is_disabled":false,"rental_uris":{"android":"levelo://app?vid=5afbaf68-27b5-46c5-931f-93cd362fe92f","ios":"levelo://app?vid=5afbaf68-27b5-46c5-931f-93cd362fe92f"},"vehicle_type_id":"4","last_reported":1734426617,"current_range_meters":6000,"station_id":"ce4bhq12rcd13ifvqhig","pricing_plan_id":"cebpf4jnsgd1na2vs0mg"},{"bike_id":"1b787b72-8f03-4a1f-8961-a6ff508bb873","system_id":"levelo_inurba_marseille","lat":43.30913,"lon":5.36854,"is_reserved":false,"is_disabled":false,"rental_uris":{"android":"levelo://app?vid=1b787b72-8f03-4a1f-8961-a6ff508bb873","ios":"levelo://app?vid=1b787b72-8f03-4a1f-8961-a6ff508bb873"},"vehicle_type_id":"4","last_reported":1734426617,"current_range_meters":38800,"station_id":"ce4bgn92rcd13ifvqbvg","pricing_plan_id":"cebpf4jnsgd1na2vs0mg"},{"bike_id":"ad3e51cb-df7c-4ce4-b243-f609a121c657","system_id":"levelo_inurba_marseille","lat":43.2417,"lon":5.363903,"is_reserved":false,"is_disabled":false,"rental_uris":{"android":"levelo://app?vid=ad3e51cb-df7c-4ce4-b243-f609a121c657","ios":"levelo://app?vid=ad3e51cb-df7c-4ce4-b243-f609a121c657"},"vehicle_type_id":"4","last_reported":1734426617,"current_range_meters":11600,"station_id":"cpo36qri1sfpv3e86is0","pricing_plan_id":"cebpf4jnsgd1na2vs0mg"},{"bike_id":"a6609935-e32d-4de9-b36e-bba3ddea4f0f","system_id":"levelo_inurba_marseille","lat":43.29066,"lon":5.37165,"is_reserved":false,"is_disabled":false,"rental_uris":{"android":"levelo://app?vid=a6609935-e32d-4de9-b36e-bba3ddea4f0f","ios":"levelo://app?vid=a6609935-e32d-4de9-b36e-bba3ddea4f0f"},"vehicle_type_id":"4","last_reported":1734426617,"current_range_meters":31200,"station_id":"ce4bh5p2rcd13ifvqe4g","pricing_plan_id":"cebpf4jnsgd1na2vs0mg"},{"bike_id":"c941303e-d219-49a6-957d-15e78bbb6539","system_id":"levelo_inurba_marseille","lat":43.30597,"lon":5.39358,"is_reserved":false,"is_disabled":true,"rental_uris":{"android":"levelo://app?vid=c941303e-d219-49a6-957d-15e78bbb6539","ios":"levelo://app?vid=c941303e-d219-49a6-957d-15e78bbb6539"},"vehicle_type_id":"4","last_reported":1734426617,"current_range_meters":28800,"station_id":"ce4bh0p2rcd13ifvqd80","pricing_plan_id":"cebpf4jnsgd1na2vs0mg"},{"bike_id":"eac02569-18ac-4c19-8236-e983635da85d","system_id":"levelo_inurba_marseille","lat":43.30365,"lon":5.41882,"is_reserved":false,"is_disabled":false,"rental_uris":{"android":"levelo://app?vid=eac02569-18ac-4c19-8236-e983635da85d","ios":"levelo://app?vid=eac02569-18ac-4c19-8236-e983635da85d"},"vehicle_type_id":"4","last_reported":1734426617,"current_range_meters":38000,"station_id":"ce4bhop2rcd13ifvqh7g","pricing_plan_id":"cebpf4jnsgd1na2vs0mg"},{"bike_id":"5238a452-8b9f-4926-9e6f-8cdba3b52d76","system_id":"levelo_inurba_marseille","lat":43.23149,"lon":5.43718,"is_reserved":false,"is_disabled":false,"rental_uris":{"android":"levelo://app?vid=5238a452-8b9f-4926-9e6f-8cdba3b52d76","ios":"levelo://app?vid=5238a452-8b9f-4926-9e6f-8cdba3b52d76"},"vehicle_type_id":"4","last_reported":1734426617,"current_range_meters":35200,"station_id":"ce4bhmp2rcd13ifvqgog","pricing_plan_id":"cebpf4jnsgd1na2vs0mg"},{"bike_id":"96d42845-e8a2-434d-91d2-278c95d26621","system_id":"levelo_inurba_marseille","lat":43.29527,"lon":5.375,"is_reserved":false,"is_disabled":false,"rental_uris":{"android":"levelo://app?vid=96d42845-e8a2-434d-91d2-278c95d26621","ios":"levelo://app?vid=96d42845-e8a2-434d-91d2-278c95d26621"},"vehicle_type_id":"4","last_reported":1734426617,"current_range_meters":36800,"station_id":"ce4bgkp2rcd13ifvqbmg","pricing_plan_id":"cebpf4jnsgd1na2vs0mg"},{"bike_id":"3422ad70-3d08-449f-9cf1-9b6c5964c68b","system_id":"levelo_inurba_marseille","lat":43.33716,"lon":5.39183,"is_reserved":false,"is_disabled":false,"rental_uris":{"android":"levelo://app?vid=3422ad70-3d08-449f-9cf1-9b6c5964c68b","ios":"levelo://app?vid=3422ad70-3d08-449f-9cf1-9b6c5964c68b"},"vehicle_type_id":"4","last_reported":1734426617,"current_range_meters":35600,"station_id":"ce4bhr92rcd13ifvqhsg","pricing_plan_id":"cebpf4jnsgd1na2vs0mg"},{"bike_id":"7f7004a0-a4f6-453f-a2a2-b719b573786c","system_id":"levelo_inurba_marseille","lat":43.29785,"lon":5.381,"is_reserved":false,"is_disabled":true,"rental_uris":{"android":"levelo://app?vid=7f7004a0-a4f6-453f-a2a2-b719b573786c","ios":"levelo://app?vid=7f7004a0-a4f6-453f-a2a2-b719b573786c"},"vehicle_type_id":"4","last_reported":1734426617,"current_range_meters":38800,"station_id":"ce4bgip2rcd13ifvqbb0","pricing_plan_id":"cebpf4jnsgd1na2vs0mg"},{"bike_id":"66343f16-c96a-493e-b903-7c265d82cce1","system_id":"levelo_inurba_marseille","lat":43.32479,"lon":5.36542,"is_reserved":false,"is_disabled":false,"rental_uris":{"android":"levelo://app?vid=66343f16-c96a-493e-b903-7c265d82cce1","ios":"levelo://app?vid=66343f16-c96a-493e-b903-7c265d82cce1"},"vehicle_type_id":"4","last_reported":1734426617,"current_range_meters":27200,"station_id":"ce4bhs12rcd13ifvqhvg","pricing_plan_id":"cebpf4jnsgd1na2vs0mg"},{"bike_id":"15f71a9f-864d-48de-9d20-f621cbff105e","system_id":"levelo_inurba_marseille","lat":43.26808,"lon":5.40259,"is_reserved":false,"is_disabled":false,"rental_uris":{"android":"levelo://app?vid=15f71a9f-864d-48de-9d20-f621cbff105e","ios":"levelo://app?vid=15f71a9f-864d-48de-9d20-f621cbff105e"},"vehicle_type_id":"4","last_reported":1734426617,"current_range_meters":38400,"station_id":"ce501612rcd8frsf0b60","pricing_plan_id":"cebpf4jnsgd1na2vs0mg"},{"bike_id":"3f540f59-f128-41e6-a549-799b8ad1f3b1","system_id":"levelo_inurba_marseille","lat":43.31078,"lon":5.42427,"is_reserved":false,"is_disabled":false,"rental_uris":{"android":"levelo://app?vid=3f540f59-f128-41e6-a549-799b8ad1f3b1","ios":"levelo://app?vid=3f540f59-f128-41e6-a549-799b8ad1f3b1"},"vehicle_type_id":"4","last_reported":1734426617,"current_range_meters":36800,"station_id":"ce4bhp92rcd13ifvqhag","pricing_plan_id":"cebpf4jnsgd1na2vs0mg"},{"bike_id":"a61fc3ac-0dad-4c88-af51-0b126799d633","system_id":"levelo_inurba_marseille","lat":43.25942,"lon":5.409,"is_reserved":false,"is_disabled":false,"rental_uris":{"android":"levelo://app?vid=a61fc3ac-0dad-4c88-af51-0b126799d633","ios":"levelo://app?vid=a61fc3ac-0dad-4c88-af51-0b126799d633"},"vehicle_type_id":"4","last_reported":1734426617,"current_range_meters":29600,"station_id":"ce4bhm92rcd13ifvqglg","pricing_plan_id":"cebpf4jnsgd1na2vs0mg"},{"bike_id":"d418f4ae-0e50-4c87-8744-44ebf3ed0922","system_id":"levelo_inurba_marseille","lat":43.29708,"lon":5.3769,"is_reserved":false,"is_disabled":false,"rental_uris":{"android":"levelo://app?vid=d418f4ae-0e50-4c87-8744-44ebf3ed0922","ios":"levelo://app?vid=d418f4ae-0e50-4c87-8744-44ebf3ed0922"},"vehicle_type_id":"4","last_reported":1734426617,"current_range_meters":32800,"station_id":"ce4bgkh2rcd13ifvqbl0","pricing_plan_id":"cebpf4jnsgd1na2vs0mg"},{"bike_id":"29f246a6-bf44-455d-b9d7-de191a6777e4","system_id":"levelo_inurba_marseille","lat":43.29214,"lon":5.36044,"is_reserved":false,"is_disabled":true,"rental_uris":{"android":"levelo://app?vid=29f246a6-bf44-455d-b9d7-de191a6777e4","ios":"levelo://app?vid=29f246a6-bf44-455d-b9d7-de191a6777e4"},"vehicle_type_id":"4","last_reported":1734426617,"current_range_meters":0,"station_id":"ce4bhbh2rcd13ifvqeqg","pricing_plan_id":"cebpf4jnsgd1na2vs0mg"},{"bike_id":"dd1c961e-8d02-4403-8bcf-b7176fd11221","system_id":"levelo_inurba_marseille","lat":43.26684,"lon":5.38274,"is_reserved":false,"is_disabled":false,"rental_uris":{"android":"levelo://app?vid=dd1c961e-8d02-4403-8bcf-b7176fd11221","ios":"levelo://app?vid=dd1c961e-8d02-4403-8bcf-b7176fd11221"},"vehicle_type_id":"4","last_reported":1734426617,"current_range_meters":18800,"station_id":"ce4bhg92rcd13ifvqf90","pricing_plan_id":"cebpf4jnsgd1na2vs0mg"},{"bike_id":"168e6fe2-8b83-4d3a-8b1c-4b08586bfd0e","system_id":"levelo_inurba_marseille","lat":43.26948,"lon":5.38628,"is_reserved":false,"is_disabled":false,"rental_uris":{"android":"levelo://app?vid=168e6fe2-8b83-4d3a-8b1c-4b08586bfd0e","ios":"levelo://app?vid=168e6fe2-8b83-4d3a-8b1c-4b08586bfd0e"},"vehicle_type_id":"4","last_reported":1734426617,"current_range_meters":24400,"station_id":"ce4bhh92rcd13ifvqfh0","pricing_plan_id":"cebpf4jnsgd1na2vs0mg"},{"bike_id":"357e9fd1-442a-4d16-8ebb-e3c6b4000be1","system_id":"levelo_inurba_marseille","lat":43.26949,"lon":5.3863,"is_reserved":false,"is_disabled":true,"rental_uris":{"android":"levelo://app?vid=357e9fd1-442a-4d16-8ebb-e3c6b4000be1","ios":"levelo://app?vid=357e9fd1-442a-4d16-8ebb-e3c6b4000be1"},"vehicle_type_id":"4","last_reported":1734426617,"current_range_meters":0,"station_id":"ce4bhh92rcd13ifvqfh0","pricing_plan_id":"cebpf4jnsgd1na2vs0mg"},{"bike_id":"477d2549-b022-4827-9d7e-c01d93ff35ae","system_id":"levelo_inurba_marseille","lat":43.27812,"lon":5.40705,"is_reserved":false,"is_disabled":false,"rental_uris":{"android":"levelo://app?vid=477d2549-b022-4827-9d7e-c01d93ff35ae","ios":"levelo://app?vid=477d2549-b022-4827-9d7e-c01d93ff35ae"},"vehicle_type_id":"4","last_reported":1734426617,"current_range_meters":20400,"station_id":"ce4bhnh2rcd13ifvqgtg","pricing_plan_id":"cebpf4jnsgd1na2vs0mg"},{"bike_id":"3f27d279-1803-4c81-af7b-bbf551f71008","system_id":"levelo_inurba_marseille","lat":43.26676,"lon":5.38263,"is_reserved":false,"is_disabled":false,"rental_uris":{"android":"levelo://app?vid=3f27d279-1803-4c81-af7b-bbf551f71008","ios":"levelo://app?vid=3f27d279-1803-4c81-af7b-bbf551f71008"},"vehicle_type_id":"4","last_reported":1734426617,"current_range_meters":39200,"station_id":"ce4bhg92rcd13ifvqf90","pricing_plan_id":"cebpf4jnsgd1na2vs0mg"},{"bike_id":"25ac64b0-d8cf-4fde-91a2-a4a0f2c9f2a7","system_id":"levelo_inurba_marseille","lat":43.26202,"lon":5.37921,"is_reserved":false,"is_disabled":false,"rental_uris":{"android":"levelo://app?vid=25ac64b0-d8cf-4fde-91a2-a4a0f2c9f2a7","ios":"levelo://app?vid=25ac64b0-d8cf-4fde-91a2-a4a0f2c9f2a7"},"vehicle_type_id":"4","last_reported":1734426617,"current_range_meters":27200,"station_id":"ce4bhjp2rcd13ifvqg90","pricing_plan_id":"cebpf4jnsgd1na2vs0mg"},{"bike_id":"355d3cec-1f2a-4cc5-b8ad-18644ad340da","system_id":"levelo_inurba_marseille","lat":43.30273,"lon":5.40053,"is_reserved":false,"is_disabled":true,"rental_uris":{"android":"levelo://app?vid=355d3cec-1f2a-4cc5-b8ad-18644ad340da","ios":"levelo://app?vid=355d3cec-1f2a-4cc5-b8ad-18644ad340da"},"vehicle_type_id":"4","last_reported":1734426617,"current_range_meters":38800,"station_id":"ce4bgvh2rcd13ifvqcs0","pricing_plan_id":"cebpf4jnsgd1na2vs0mg"},{"bike_id":"7af2ef9a-eb71-4148-a748-b140dab6df51","system_id":"levelo_inurba_marseille","lat":43.26573,"lon":5.39006,"is_reserved":false,"is_disabled":false,"rental_uris":{"android":"levelo://app?vid=7af2ef9a-eb71-4148-a748-b140dab6df51","ios":"levelo://app?vid=7af2ef9a-eb71-4148-a748-b140dab6df51"},"vehicle_type_id":"4","last_reported":1734426617,"current_range_meters":37600,"station_id":"ce4bhe12rcd13ifvqf30","pricing_plan_id":"cebpf4jnsgd1na2vs0mg"},{"bike_id":"26579991-0e4b-445a-93aa-31ab44d1afae","system_id":"levelo_inurba_marseille","lat":43.33619,"lon":5.41034,"is_reserved":false,"is_disabled":true,"rental_uris":{"android":"levelo://app?vid=26579991-0e4b-445a-93aa-31ab44d1afae","ios":"levelo://app?vid=26579991-0e4b-445a-93aa-31ab44d1afae"},"vehicle_type_id":"4","last_reported":1734426617,"current_range_meters":36000,"station_id":"ce4bhqh2rcd13ifvqhmg","pricing_plan_id":"cebpf4jnsgd1na2vs0mg"},{"bike_id":"1c625ce6-6d73-4f27-9bd6-c25955847929","system_id":"levelo_inurba_marseille","lat":43.27829,"lon":5.40708,"is_reserved":false,"is_disabled":true,"rental_uris":{"android":"levelo://app?vid=1c625ce6-6d73-4f27-9bd6-c25955847929","ios":"levelo://app?vid=1c625ce6-6d73-4f27-9bd6-c25955847929"},"vehicle_type_id":"4","last_reported":1734426617,"current_range_meters":31200,"station_id":"ce4bhnh2rcd13ifvqgtg","pricing_plan_id":"cebpf4jnsgd1na2vs0mg"},{"bike_id":"9e459aeb-5a88-4ad3-aaa8-a80e1a5939a9","system_id":"levelo_inurba_marseille","lat":43.30482,"lon":5.37917,"is_reserved":false,"is_disabled":true,"rental_uris":{"android":"levelo://app?vid=9e459aeb-5a88-4ad3-aaa8-a80e1a5939a9","ios":"levelo://app?vid=9e459aeb-5a88-4ad3-aaa8-a80e1a5939a9"},"vehicle_type_id":"4","last_reported":1734426617,"current_range_meters":33600,"station_id":"ce4bgup2rcd13ifvqcn0","pricing_plan_id":"cebpf4jnsgd1na2vs0mg"},{"bike_id":"dee21283-4521-4c1a-b53d-9510ded6ec60","system_id":"levelo_inurba_marseille","lat":43.23959,"lon":5.36638,"is_reserved":false,"is_disabled":false,"rental_uris":{"android":"levelo://app?vid=dee21283-4521-4c1a-b53d-9510ded6ec60","ios":"levelo://app?vid=dee21283-4521-4c1a-b53d-9510ded6ec60"},"vehicle_type_id":"4","last_reported":1734426617,"current_range_meters":38800,"station_id":"ce4bhi12rcd13ifvqfp0","pricing_plan_id":"cebpf4jnsgd1na2vs0mg"},{"bike_id":"4094e6ed-f482-44b8-9900-6e05e22bc51f","system_id":"levelo_inurba_marseille","lat":43.28007,"lon":5.41649,"is_reserved":false,"is_disabled":false,"rental_uris":{"android":"levelo://app?vid=4094e6ed-f482-44b8-9900-6e05e22bc51f","ios":"levelo://app?vid=4094e6ed-f482-44b8-9900-6e05e22bc51f"},"vehicle_type_id":"4","last_reported":1734426617,"current_range_meters":26000,"station_id":"ce4bho12rcd13ifvqh1g","pricing_plan_id":"cebpf4jnsgd1na2vs0mg"},{"bike_id":"d60a313c-418b-4b37-95e6-5b78d5e55e7b","system_id":"levelo_inurba_marseille","lat":43.3302,"lon":5.39038,"is_reserved":false,"is_disabled":false,"rental_uris":{"android":"levelo://app?vid=d60a313c-418b-4b37-95e6-5b78d5e55e7b","ios":"levelo://app?vid=d60a313c-418b-4b37-95e6-5b78d5e55e7b"},"vehicle_type_id":"4","last_reported":1734426617,"current_range_meters":10000,"station_id":"ce4bhr92rcd13ifvqhrg","pricing_plan_id":"cebpf4jnsgd1na2vs0mg"},{"bike_id":"f5f2129c-0c00-4e54-81c3-1c2874f95628","system_id":"levelo_inurba_marseille","lat":43.2794,"lon":5.41045,"is_reserved":false,"is_disabled":false,"rental_uris":{"android":"levelo://app?vid=f5f2129c-0c00-4e54-81c3-1c2874f95628","ios":"levelo://app?vid=f5f2129c-0c00-4e54-81c3-1c2874f95628"},"vehicle_type_id":"4","last_reported":1734426617,"current_range_meters":26800,"station_id":"ce4bhnp2rcd13ifvqh0g","pricing_plan_id":"cebpf4jnsgd1na2vs0mg"},{"bike_id":"33ff8604-91f8-4a1d-a187-6688d2b8e783","system_id":"levelo_inurba_marseille","lat":43.29977,"lon":5.37168,"is_reserved":false,"is_disabled":true,"rental_uris":{"android":"levelo://app?vid=33ff8604-91f8-4a1d-a187-6688d2b8e783","ios":"levelo://app?vid=33ff8604-91f8-4a1d-a187-6688d2b8e783"},"vehicle_type_id":"4","last_reported":1734426617,"current_range_meters":12400,"station_id":"ce4bgr92rcd13ifvqc7g","pricing_plan_id":"cebpf4jnsgd1na2vs0mg"},{"bike_id":"db5af532-5a9c-479f-a3ab-184ca5feaf5e","system_id":"levelo_inurba_marseille","lat":43.30955,"lon":5.39067,"is_reserved":false,"is_disabled":false,"rental_uris":{"android":"levelo://app?vid=db5af532-5a9c-479f-a3ab-184ca5feaf5e","ios":"levelo://app?vid=db5af532-5a9c-479f-a3ab-184ca5feaf5e"},"vehicle_type_id":"4","last_reported":1734426617,"current_range_meters":27200,"station_id":"ce4bgup2rcd13ifvqco0","pricing_plan_id":"cebpf4jnsgd1na2vs0mg"},{"bike_id":"29cbfce0-213b-4827-9939-2f7c4e6725d8","system_id":"levelo_inurba_marseille","lat":43.31714,"lon":5.42413,"is_reserved":false,"is_disabled":false,"rental_uris":{"android":"levelo://app?vid=29cbfce0-213b-4827-9939-2f7c4e6725d8","ios":"levelo://app?vid=29cbfce0-213b-4827-9939-2f7c4e6725d8"},"vehicle_type_id":"4","last_reported":1734426617,"current_range_meters":38000,"station_id":"ce4bhp92rcd13ifvqhbg","pricing_plan_id":"cebpf4jnsgd1na2vs0mg"},{"bike_id":"bb58af26-33d4-40df-9cde-d5ec772eaa4f","system_id":"levelo_inurba_marseille","lat":43.30162,"lon":5.38088,"is_reserved":false,"is_disabled":false,"rental_uris":{"android":"levelo://app?vid=bb58af26-33d4-40df-9cde-d5ec772eaa4f","ios":"levelo://app?vid=bb58af26-33d4-40df-9cde-d5ec772eaa4f"},