{"last_updated":1702760752,"ttl":30,"version":"2.2","data":{"bikes":[{"bike_id":"cc3abdbc-914b-4138-bb33-5fa5c51dc825","system_id":"levelo_inurba_marseille","lat":43.313391,"lon":5.36706,"is_reserved":false,"is_disabled":false,"rental_uris":{"android":"levelo://app?vid=cc3abdbc-914b-4138-bb33-5fa5c51dc825","ios":"levelo://app?vid=cc3abdbc-914b-4138-bb33-5fa5c51dc825"},"vehicle_type_id":"4","last_reported":1702760753,"current_range_meters":24800,"station_id":"ce4bgr92rcd13ifvqc6g","pricing_plan_id":"free"},{"bike_id":"b446ea97-68c3-4b76-a3d0-a9a8c94cb963","system_id":"levelo_inurba_marseille","lat":43.313391,"lon":5.36706,"is_reserved":false,"is_disabled":false,"rental_uris":{"android":"levelo://app?vid=b446ea97-68c3-4b76-a3d0-a9a8c94cb963","ios":"levelo://app?vid=b446ea97-68c3-4b76-a3d0-a9a8c94cb963"},"vehicle_type_id":"4","last_reported":1702760753,"current_range_meters":22400,"station_id":"ce4bgr92rcd13ifvqc6g","pricing_plan_id":"free"},{"bike_id":"1f03b538-3dd7-4492-8867-c88c798800e7","system_id":"levelo_inurba_marseille","lat":43.312239,"lon":5.368562,"is_reserved":false,"is_disabled":false,"rental_uris":{"android":"levelo://app?vid=1f03b538-3dd7-4492-8867-c88c798800e7","ios":"levelo://app?vid=1f03b538-3dd7-4492-8867-c88c798800e7"},"vehicle_type_id":"4","last_reported":1702760753,"current_range_meters":11200,"station_id":"ce4bgl92rcd13ifvqbq0","pricing_plan_id":"free"},{"bike_id":"aa32ebec-8eee-4e3e-8d36-9a78f02a5d21","system_id":"levelo_inurba_marseille","lat":43.312239,"lon":5.368562,"is_reserved":false,"is_disabled":false,"rental_uris":{"android":"levelo://app?vid=aa32ebec-8eee-4e3e-8d36-9a78f02a5d21","ios":"levelo://app?vid=aa32ebec-8eee-4e3e-8d36-9a78f02a5d21"},"vehicle_type_id":"4","last_reported":1702760753,"current_range_meters":18000,"station_id":"ce4bgl92rcd13ifvqbq0","pricing_plan_id":"free"},{"bike_id":"ad46abcd-79fc-4f47-8d62-d8c0a5f09860","system_id":"levelo_inurba_marseille","lat":43.312239,"lon":5.368562,"is_reserved":false,"is_disabled":false,"rental_uris":{"android":"levelo://app?vid=ad46abcd-79fc-4f47-8d62-d8c0a5f09860","ios":"levelo://app?vid=ad46abcd-79fc-4f47-8d62-d8c0a5f09860"},"vehicle_type_id":"4","last_reported":1702760753,"current_range_meters":0,"station_id":"ce4bgl92rcd13ifvqbq0","pricing_plan_id":"free"},{"bike_id":"ba51453c-9c33-4e83-a727-07c748613b89","system_id":"levelo_inurba_marseille","lat":43.309076,"lon":5.368465,"is_reserved":false,"is_disabled":false,"rental_uris":{"android":"levelo://app?vid=ba51453c-9c33-4e83-a727-07c748613b89","ios":"levelo://app?vid=ba51453c-9c33-4e83-a727-07c748613b89"},"vehicle_type_id":"4","last_reported":1702760753,"current_range_meters":12400,"station_id":"ce4bgn92rcd13ifvqbvg","pricing_plan_id":"free"},{"bike_id":"e3f496d6-13b6-4264-a6dc-d95817d286b7","system_id":"levelo_inurba_marseille","lat":43.314811,"lon":5.373103,"is_reserved":false,"is_disabled":false,"rental_uris":{"android":"levelo://app?vid=e3f496d6-13b6-4264-a6dc-d95817d286b7","ios":"levelo://app?vid=e3f496d6-13b6-4264-a6dc-d95817d286b7"},"vehicle_type_id":"4","last_reported":1702760753,"current_range_meters":9200,"station_id":"ce4bgt12rcd13ifvqcd0","pricing_plan_id":"free"},{"bike_id":"3f8b821f-e430-4a35-bf14-f8b6e777ea11","system_id":"levelo_inurba_marseille","lat":43.313939,"lon":5.375306,"is_reserved":false,"is_disabled":false,"rental_uris":{"android":"levelo://app?vid=3f8b821f-e430-4a35-bf14-f8b6e777ea11","ios":"levelo://app?vid=3f8b821f-e430-4a35-bf14-f8b6e777ea11"},"vehicle_type_id":"4","last_reported":1702760753,"current_range_meters":0,"station_id":"","pricing_plan_id":"free"},{"bike_id":"955e4ab2-16e5-44e8-a986-a2f50ff96c06","system_id":"levelo_inurba_marseille","lat":43.305382,"lon":5.365389,"is_reserved":false,"is_disabled":false,"rental_uris":{"android":"levelo://app?vid=955e4ab2-16e5-44e8-a986-a2f50ff96c06","ios":"levelo://app?vid=955e4ab2-16e5-44e8-a986-a2f50ff96c06"},"vehicle_type_id":"4","last_reported":1702760753,"current_range_meters":14400,"station_id":"","pricing_plan_id":"free"},{"bike_id":"cc3961d7-2cd6-4e64-84f5-072a4b938833","system_id":"levelo_inurba_marseille","lat":43.305989,"lon":5.37225,"is_reserved":false,"is_disabled":false,"rental_uris":{"android":"levelo://app?vid=cc3961d7-2cd6-4e64-84f5-072a4b938833","ios":"levelo://app?vid=cc3961d7-2cd6-4e64-84f5-072a4b938833"},"vehicle_type_id":"4","last_reported":1702760753,"current_range_meters":15200,"station_id":"ce4bgqh2rcd13ifvqc4g","pricing_plan_id":"free"},{"bike_id":"704bf99f-b673-43fa-a09d-1bfcf9136253","system_id":"levelo_inurba_marseille","lat":43.305989,"lon":5.37225,"is_reserved":false,"is_disabled":false,"rental_uris":{"android":"levelo://app?vid=704bf99f-b673-43fa-a09d-1bfcf9136253","ios":"levelo://app?vid=704bf99f-b673-43fa-a09d-1bfcf9136253"},"vehicle_type_id":"4","last_reported":1702760753,"current_range_meters":14000,"station_id":"ce4bgqh2rcd13ifvqc4g","pricing_plan_id":"free"},{"bike_id":"6d8ca85a-cd72-4f6c-b8c0-cab90596f0d0","system_id":"levelo_inurba_marseille","lat":43.305989,"lon":5.37225,"is_reserved":false,"is_disabled":false,"rental_uris":{"android":"levelo://app?vid=6d8ca85a-cd72-4f6c-b8c0-cab90596f0d0","ios":"levelo://app?vid=6d8ca85a-cd72-4f6c-b8c0-cab90596f0d0"},"vehicle_type_id":"4","last_reported":1702760753,"current_range_meters":20800,"station_id":"ce4bgqh2rcd13ifvqc4g","pricing_plan_id":"free"},{"bike_id":"9616949a-45ac-45be-a508-98dd80f6820a","system_id":"levelo_inurba_marseille","lat":43.31541,"lon":5.38018,"is_reserved":false,"is_disabled":false,"rental_uris":{"android":"levelo://app?vid=9616949a-45ac-45be-a508-98dd80f6820a","ios":"levelo://app?vid=9616949a-45ac-45be-a508-98dd80f6820a"},"vehicle_type_id":"4","last_reported":1702760753,"current_range_meters":0,"station_id":"ce4bhsp2rcd13ifvqi50","pricing_plan_id":"free"},{"bike_id":"3ff73af5-0f47-4b8f-8cb6-e07bc3209616","system_id":"levelo_inurba_marseille","lat":43.31532,"lon":5.38022,"is_reserved":false,"is_disabled":false,"rental_uris":{"android":"levelo://app?vid=3ff73af5-0f47-4b8f-8cb6-e07bc3209616","ios":"levelo://app?vid=3ff73af5-0f47-4b8f-8cb6-e07bc3209616"},"vehicle_type_id":"4","last_reported":1702760753,"current_range_meters":6000,"station_id":"ce4bhsp2rcd13ifvqi50","pricing_plan_id":"free"},{"bike_id":"5631fbdf-0b1b-4a91-ac9e-b8c64f58a515","system_id":"levelo_inurba_marseille","lat":43.31537,"lon":5.38037,"is_reserved":false,"is_disabled":false,"rental_uris":{"android":"levelo://app?vid=5631fbdf-0b1b-4a91-ac9e-b8c64f58a515","ios":"levelo://app?vid=5631fbdf-0b1b-4a91-ac9e-b8c64f58a515"},"vehicle_type_id":"4","last_reported":1702760753,"current_range_meters":0,"station_id":"ce4bhsp2rcd13ifvqi50","pricing_plan_id":"free"},{"bike_id":"28cf85cc-ff99-462e-9ac2-3c6ff89be243","system_id":"levelo_inurba_marseille","lat":43.308012,"lon":5.381511,"is_reserved":false,"is_disabled":false,"rental_uris":{"android":"levelo://app?vid=28cf85cc-ff99-462e-9ac2-3c6ff89be243","ios":"levelo://app?vid=28cf85cc-ff99-462e-9ac2-3c6ff89be243"},"vehicle_type_id":"4","last_reported":1702760753,"current_range_meters":0,"station_id":"ce4bgt12rcd13ifvqce0","pricing_plan_id":"free"},{"bike_id":"f45f8837-bfde-40a1-803d-6a891f3bb82b","system_id":"levelo_inurba_marseille","lat":43.308012,"lon":5.381511,"is_reserved":false,"is_disabled":false,"rental_uris":{"android":"levelo://app?vid=f45f8837-bfde-40a1-803d-6a891f3bb82b","ios":"levelo://app?vid=f45f8837-bfde-40a1-803d-6a891f3bb82b"},"vehicle_type_id":"4","last_reported":1702760753,"current_range_meters":0,"station_id":"ce4bgt12rcd13ifvqce0","pricing_plan_id":"free"},{"bike_id":"44c8b40c-0afe-48d3-8480-d4dfd6b81af3","system_id":"levelo_inurba_marseille","lat":43.324771,"lon":5.36557,"is_reserved":false,"is_disabled":false,"rental_uris":{"android":"levelo://app?vid=44c8b40c-0afe-48d3-8480-d4dfd6b81af3","ios":"levelo://app?vid=44c8b40c-0afe-48d3-8480-d4dfd6b81af3"},"vehicle_type_id":"4","last_reported":1702760753,"current_range_meters":25200,"station_id":"ce4bhs12rcd13ifvqhvg","pricing_plan_id":"free"},{"bike_id":"dfe62985-6f65-471f-8bdb-4e96693a7937","system_id":"levelo_inurba_marseille","lat":43.324831,"lon":5.365657,"is_reserved":false,"is_disabled":false,"rental_uris":{"android":"levelo://app?vid=dfe62985-6f65-471f-8bdb-4e96693a7937","ios":"levelo://app?vid=dfe62985-6f65-471f-8bdb-4e96693a7937"},"vehicle_type_id":"4","last_reported":1702760753,"current_range_meters":16400,"station_id":"ce4bhs12rcd13ifvqhvg","pricing_plan_id":"free"},{"bike_id":"88f7ea2a-62f7-4a88-9e9d-900940b4d7e5","system_id":"levelo_inurba_marseille","lat":43.324771,"lon":5.36557,"is_reserved":false,"is_disabled":false,"rental_uris":{"android":"levelo://app?vid=88f7ea2a-62f7-4a88-9e9d-900940b4d7e5","ios":"levelo://app?vid=88f7ea2a-62f7-4a88-9e9d-900940b4d7e5"},"vehicle_type_id":"4","last_reported":1702760753,"current_range_meters":13600,"station_id":"ce4bhs12rcd13ifvqhvg","pricing_plan_id":"free"},{"bike_id":"a113a412-b8af-4df5-9700-8be6b2cf8388","system_id":"levelo_inurba_marseille","lat":43.324771,"lon":5.36557,"is_reserved":false,"is_disabled":false,"rental_uris":{"android":"levelo://app?vid=a113a412-b8af-4df5-9700-8be6b2cf8388","ios":"levelo://app?vid=a113a412-b8af-4df5-9700-8be6b2cf8388"},"vehicle_type_id":"4","last_reported":1702760753,"current_range_meters":16800,"station_id":"ce4bhs12rcd13ifvqhvg","pricing_plan_id":"free"},{"bike_id":"f1a8aec2-2653-47df-a754-b2697873d2f8","system_id":"levelo_inurba_marseille","lat":43.30143,"lon":5.37413,"is_reserved":false,"is_disabled":false,"rental_uris":{"android":"levelo://app?vid=f1a8aec2-2653-47df-a754-b2697873d2f8","ios":"levelo://app?vid=f1a8aec2-2653-47df-a754-b2697873d2f8"},"vehicle_type_id":"4","last_reported":1702760753,"current_range_meters":8800,"station_id":"ce4bgs92rcd13ifvqcc0","pricing_plan_id":"free"},{"bike_id":"dc0c7d0b-f606-43c7-b3d3-997f19b0347d","system_id":"levelo_inurba_marseille","lat":43.30143,"lon":5.37413,"is_reserved":false,"is_disabled":false,"rental_uris":{"android":"levelo://app?vid=dc0c7d0b-f606-43c7-b3d3-997f19b0347d","ios":"levelo://app?vid=dc0c7d0b-f606-43c7-b3d3-997f19b0347d"},"vehicle_type_id":"4","last_reported":1702760753,"current_range_meters":12000,"station_id":"ce4bgs92rcd13ifvqcc0","pricing_plan_id":"free"},{"bike_id":"dd62cb3a-3f08-44cf-8561-0c89ff17ac35","system_id":"levelo_inurba_marseille","lat":43.31359,"lon":5.384677,"is_reserved":false,"is_disabled":false,"rental_uris":{"android":"levelo://app?vid=dd62cb3a-3f08-44cf-8561-0c89ff17ac35","ios":"levelo://app?vid=dd62cb3a-3f08-44cf-8561-0c89ff17ac35"},"vehicle_type_id":"4","last_reported":1702760753,"current_range_meters":19600,"station_id":"ce4bgt92rcd13ifvqcf0","pricing_plan_id":"free"},{"bike_id":"efd2d8da-7cce-4eb5-97a3-752ffe7a24f8","system_id":"levelo_inurba_marseille","lat":43.299724,"lon":5.371829,"is_reserved":false,"is_disabled":false,"rental_uris":{"android":"levelo://app?vid=efd2d8da-7cce-4eb5-97a3-752ffe7a24f8","ios":"levelo://app?vid=efd2d8da-7cce-4eb5-97a3-752ffe7a24f8"},"vehicle_type_id":"4","last_reported":1702760753,"current_range_meters":15200,"station_id":"ce4bgr92rcd13ifvqc7g","pricing_plan_id":"free"},{"bike_id":"9e54f617-59c1-4a05-8749-d630996dcc0c","system_id":"levelo_inurba_marseille","lat":43.299724,"lon":5.371829,"is_reserved":false,"is_disabled":false,"rental_uris":{"android":"levelo://app?vid=9e54f617-59c1-4a05-8749-d630996dcc0c","ios":"levelo://app?vid=9e54f617-59c1-4a05-8749-d630996dcc0c"},"vehicle_type_id":"4","last_reported":1702760753,"current_range_meters":24000,"station_id":"ce4bgr92rcd13ifvqc7g","pricing_plan_id":"free"},{"bike_id":"490f57e8-590e-4078-bcab-3a5e39d64261","system_id":"levelo_inurba_marseille","lat":43.29853,"lon":5.36288,"is_reserved":false,"is_disabled":false,"rental_uris":{"android":"levelo://app?vid=490f57e8-590e-4078-bcab-3a5e39d64261","ios":"levelo://app?vid=490f57e8-590e-4078-bcab-3a5e39d64261"},"vehicle_type_id":"4","last_reported":1702760753,"current_range_meters":10400,"station_id":"ce4bgpp2rcd13ifvqc3g","pricing_plan_id":"free"},{"bike_id":"7b8de2f2-6f88-4b34-a9e6-13dd717c0e17","system_id":"levelo_inurba_marseille","lat":43.298433,"lon":5.362774,"is_reserved":false,"is_disabled":false,"rental_uris":{"android":"levelo://app?vid=7b8de2f2-6f88-4b34-a9e6-13dd717c0e17","ios":"levelo://app?vid=7b8de2f2-6f88-4b34-a9e6-13dd717c0e17"},"vehicle_type_id":"4","last_reported":1702760753,"current_range_meters":26800,"station_id":"ce4bgpp2rcd13ifvqc3g","pricing_plan_id":"free"},{"bike_id":"c4e77394-aef9-4077-b745-e99148625344","system_id":"levelo_inurba_marseille","lat":43.32733,"lon":5.36707,"is_reserved":false,"is_disabled":false,"rental_uris":{"android":"levelo://app?vid=c4e77394-aef9-4077-b745-e99148625344","ios":"levelo://app?vid=c4e77394-aef9-4077-b745-e99148625344"},"vehicle_type_id":"4","last_reported":1702760753,"current_range_meters":21600,"station_id":"","pricing_plan_id":"free"},{"bike_id":"ce670179-7d56-40a0-9298-bb63a217e8ff","system_id":"levelo_inurba_marseille","lat":43.299243,"lon":5.37481,"is_reserved":false,"is_disabled":false,"rental_uris":{"android":"levelo://app?vid=ce670179-7d56-40a0-9298-bb63a217e8ff","ios":"levelo://app?vid=ce670179-7d56-40a0-9298-bb63a217e8ff"},"vehicle_type_id":"4","last_reported":1702760753,"current_range_meters":1200,"station_id":"ce4bgjh2rcd13ifvqbg0","pricing_plan_id":"free"},{"bike_id":"08178002-36bd-43c0-89d2-cf0ba9233ce6","system_id":"levelo_inurba_marseille","lat":43.299243,"lon":5.374807,"is_reserved":false,"is_disabled":false,"rental_uris":{"android":"levelo://app?vid=08178002-36bd-43c0-89d2-cf0ba9233ce6","ios":"levelo://app?vid=08178002-36bd-43c0-89d2-cf0ba9233ce6"},"vehicle_type_id":"4","last_reported":1702760753,"current_range_meters":20800,"station_id":"ce4bgjh2rcd13ifvqbg0","pricing_plan_id":"free"},{"bike_id":"819cb438-2e9c-4e0b-902b-5e19ef554d5c","system_id":"levelo_inurba_marseille","lat":43.305443,"lon":5.384482,"is_reserved":false,"is_disabled":false,"rental_uris":{"android":"levelo://app?vid=819cb438-2e9c-4e0b-902b-5e19ef554d5c","ios":"levelo://app?vid=819cb438-2e9c-4e0b-902b-5e19ef554d5c"},"vehicle_type_id":"4","last_reported":1702760753,"current_range_meters":14400,"station_id":"ce4bgg92rcd13ifvqb30","pricing_plan_id":"free"},{"bike_id":"91813f54-3be9-44f0-a4ec-56c3563e3ca0","system_id":"levelo_inurba_marseille","lat":43.311722,"lon":5.387247,"is_reserved":false,"is_disabled":false,"rental_uris":{"android":"levelo://app?vid=91813f54-3be9-44f0-a4ec-56c3563e3ca0","ios":"levelo://app?vid=91813f54-3be9-44f0-a4ec-56c3563e3ca0"},"vehicle_type_id":"4","last_reported":1702760753,"current_range_meters":25200,"station_id":"ce4bgv12rcd13ifvqcp0","pricing_plan_id":"free"},{"bike_id":"27108763-f337-4255-935a-f9673a3e91b2","system_id":"levelo_inurba_marseille","lat":43.299243,"lon":5.37481,"is_reserved":false,"is_disabled":false,"rental_uris":{"android":"levelo://app?vid=27108763-f337-4255-935a-f9673a3e91b2","ios":"levelo://app?vid=27108763-f337-4255-935a-f9673a3e91b2"},"vehicle_type_id":"4","last_reported":1702760753,"current_range_meters":6000,"station_id":"ce4bgjh2rcd13ifvqbg0","pricing_plan_id":"free"},{"bike_id":"f1491da4-2f54-4445-8640-37b7b5e9b0bd","system_id":"levelo_inurba_marseille","lat":43.32829,"lon":5.36685,"is_reserved":false,"is_disabled":false,"rental_uris":{"android":"levelo://app?vid=f1491da4-2f54-4445-8640-37b7b5e9b0bd","ios":"levelo://app?vid=f1491da4-2f54-4445-8640-37b7b5e9b0bd"},"vehicle_type_id":"4","last_reported":1702760753,"current_range_meters":8000,"station_id":"ce4bhs92rcd13ifvqi0g","pricing_plan_id":"free"},{"bike_id":"bf8e9c5d-c166-4aa5-84fd-26ce3eedae9d","system_id":"levelo_inurba_marseille","lat":43.328371,"lon":5.366909,"is_reserved":false,"is_disabled":false,"rental_uris":{"android":"levelo://app?vid=bf8e9c5d-c166-4aa5-84fd-26ce3eedae9d","ios":"levelo://app?vid=bf8e9c5d-c166-4aa5-84fd-26ce3eedae9d"},"vehicle_type_id":"4","last_reported":1702760753,"current_range_meters":0,"station_id":"ce4bhs92rcd13ifvqi0g","pricing_plan_id":"free"},{"bike_id":"97e1ed14-73b7-40d5-8827-9d7cc2dbf434","system_id":"levelo_inurba_marseille","lat":43.297163,"lon":5.365866,"is_reserved":false,"is_disabled":false,"rental_uris":{"android":"levelo://app?vid=97e1ed14-73b7-40d5-8827-9d7cc2dbf434","ios":"levelo://app?vid=97e1ed14-73b7-40d5-8827-9d7cc2dbf434"},"vehicle_type_id":"4","last_reported":1702760753,"current_range_meters":8400,"station_id":"ce4bgn12rcd13ifvqbt0","pricing_plan_id":"free"},{"bike_id":"4b3d2d12-05af-402a-960c-fb75dfd9e916","system_id":"levelo_inurba_marseille","lat":43.297163,"lon":5.365866,"is_reserved":false,"is_disabled":false,"rental_uris":{"android":"levelo://app?vid=4b3d2d12-05af-402a-960c-fb75dfd9e916","ios":"levelo://app?vid=4b3d2d12-05af-402a-960c-fb75dfd9e916"},"vehicle_type_id":"4","last_reported":1702760753,"current_range_meters":6400,"station_id":"ce4bgn12rcd13ifvqbt0","pricing_plan_id":"free"},{"bike_id":"3f6f084e-eca4-405b-8371-d8539ab16fbf","system_id":"levelo_inurba_marseille","lat":43.296129,"lon":5.370777,"is_reserved":false,"is_disabled":false,"rental_uris":{"android":"levelo://app?vid=3f6f084e-eca4-405b-8371-d8539ab16fbf","ios":"levelo://app?vid=3f6f084e-eca4-405b-8371-d8539ab16fbf"},"vehicle_type_id":"4","last_reported":1702760753,"current_range_meters":14800,"station_id":"ce4bgnh2rcd13ifvqc0g","pricing_plan_id":"free"},{"bike_id":"88eaad2f-8682-4d26-90e1-01d424664f2c","system_id":"levelo_inurba_marseille","lat":43.29573,"lon":5.367355,"is_reserved":false,"is_disabled":false,"rental_uris":{"android":"levelo://app?vid=88eaad2f-8682-4d26-90e1-01d424664f2c","ios":"levelo://app?vid=88eaad2f-8682-4d26-90e1-01d424664f2c"},"vehicle_type_id":"4","last_reported":1702760753,"current_range_meters":0,"station_id":"ce4bgph2rcd13ifvqc2g","pricing_plan_id":"free"},{"bike_id":"85f31cd7-dae2-4bfc-acfb-98958ab8f29d","system_id":"levelo_inurba_marseille","lat":43.299028,"lon":5.381509,"is_reserved":false,"is_disabled":false,"rental_uris":{"android":"levelo://app?vid=85f31cd7-dae2-4bfc-acfb-98958ab8f29d","ios":"levelo://app?vid=85f31cd7-dae2-4bfc-acfb-98958ab8f29d"},"vehicle_type_id":"4","last_reported":1702760753,"current_range_meters":9600,"station_id":"ce4bgj12rcd13ifvqbc0","pricing_plan_id":"free"},{"bike_id":"448cc21a-ec1e-40f0-b31f-4c4f426f8512","system_id":"levelo_inurba_marseille","lat":43.309589,"lon":5.390258,"is_reserved":false,"is_disabled":false,"rental_uris":{"android":"levelo://app?vid=448cc21a-ec1e-40f0-b31f-4c4f426f8512","ios":"levelo://app?vid=448cc21a-ec1e-40f0-b31f-4c4f426f8512"},"vehicle_type_id":"4","last_reported":1702760753,"current_range_meters":20800,"station_id":"ce4bgup2rcd13ifvqco0","pricing_plan_id":"free"},{"bike_id":"8d9a2268-b778-42c6-bfbd-da996d0d49bd","system_id":"levelo_inurba_marseille","lat":43.309589,"lon":5.390258,"is_reserved":false,"is_disabled":false,"rental_uris":{"android":"levelo://app?vid=8d9a2268-b778-42c6-bfbd-da996d0d49bd","ios":"levelo://app?vid=8d9a2268-b778-42c6-bfbd-da996d0d49bd"},"vehicle_type_id":"4","last_reported":1702760753,"current_range_meters":0,"station_id":"ce4bgup2rcd13ifvqco0","pricing_plan_id":"free"},{"bike_id":"2e4327a4-5c68-42c9-a75e-2a5f9b2ba77b","system_id":"levelo_inurba_marseille","lat":43.317557,"lon":5.390173,"is_reserved":false,"is_disabled":false,"rental_uris":{"android":"levelo://app?vid=2e4327a4-5c68-42c9-a75e-2a5f9b2ba77b","ios":"levelo://app?vid=2e4327a4-5c68-42c9-a75e-2a5f9b2ba77b"},"vehicle_type_id":"4","last_reported":1702760753,"current_range_meters":23200,"station_id":"ce4bhqp2rcd13ifvqhng","pricing_plan_id":"free"},{"bike_id":"8b990761-3717-4b31-9e09-22c0e6f10fb8","system_id":"levelo_inurba_marseille","lat":43.317557,"lon":5.390173,"is_reserved":false,"is_disabled":false,"rental_uris":{"android":"levelo://app?vid=8b990761-3717-4b31-9e09-22c0e6f10fb8","ios":"levelo://app?vid=8b990761-3717-4b31-9e09-22c0e6f10fb8"},"vehicle_type_id":"4","last_reported":1702760753,"current_range_meters":11200,"station_id":"ce4bhqp2rcd13ifvqhng","pricing_plan_id":"free"},{"bike_id":"4fe68cb0-ef05-4f1c-919b-7a2b0e3c1f89","system_id":"levelo_inurba_marseille","lat":43.317557,"lon":5.390173,"is_reserved":false,"is_disabled":false,"rental_uris":{"android":"levelo://app?vid=4fe68cb0-ef05-4f1c-919b-7a2b0e3c1f89","ios":"levelo://app?vid=4fe68cb0-ef05-4f1c-919b-7a2b0e3c1f89"},"vehicle_type_id":"4","last_reported":1702760753,"current_range_meters":31600,"station_id":"ce4bhqp2rcd13ifvqhng","pricing_plan_id":"free"},{"bike_id":"0fca6e4a-23bb-46ee-af70-6a45225d01b5","system_id":"levelo_inurba_marseille","lat":43.304274,"lon":5.388873,"is_reserved":false,"is_disabled":false,"rental_uris":{"android":"levelo://app?vid=0fca6e4a-23bb-46ee-af70-6a45225d01b5","ios":"levelo://app?vid=0fca6e4a-23bb-46ee-af70-6a45225d01b5"},"vehicle_type_id":"4","last_reported":1702760753,"current_range_meters":8400,"station_id":"ce4bgk12rcd13ifvqbi0","pricing_plan_id":"free"},{"bike_id":"0772a772-93ce-4680-a7bb-1237f5a54e30","system_id":"levelo_inurba_marseille","lat":43.295748,"lon":5.37522,"is_reserved":false,"is_disabled":false,"rental_uris":{"android":"levelo://app?vid=0772a772-93ce-4680-a7bb-1237f5a54e30","ios":"levelo://app?vid=0772a772-93ce-4680-a7bb-1237f5a54e30"},"vehicle_type_id":"4","last_reported":1702760753,"current_range_meters":15200,"station_id":"ce4bgh92rcd13ifvqb50","pricing_plan_id":"free"},{"bike_id":"1020804c-16ae-4b1f-b228-fc34949ef0f5","system_id":"levelo_inurba_marseille","lat":43.295748,"lon":5.37522,"is_reserved":false,"is_disabled":false,"rental_uris":{"android":"levelo://app?vid=1020804c-16ae-4b1f-b228-fc34949ef0f5","ios":"levelo://app?vid=1020804c-16ae-4b1f-b228-fc34949ef0f5"},"vehicle_type_id":"4","last_reported":1702760753,"current_range_meters":0,"station_id":"ce4bgh92rcd13ifvqb50","pricing_plan_id":"free"},{"bike_id":"ae9d7c84-e765-4728-98b9-f0c6795ac0da","system_id":"levelo_inurba_marseille","lat":43.295279,"lon":5.375048,"is_reserved":false,"is_disabled":false,"rental_uris":{"android":"levelo://app?vid=ae9d7c84-e765-4728-98b9-f0c6795ac0da","ios":"levelo://app?vid=ae9d7c84-e765-4728-98b9-f0c6795ac0da"},"vehicle_type_id":"4","last_reported":1702760753,"current_range_meters":9200,"station_id":"ce4bgkp2rcd13ifvqbmg","pricing_plan_id":"free"},{"bike_id":"d9f330a6-c500-4045-920d-6a1f75b46b35","system_id":"levelo_inurba_marseille","lat":43.299717,"lon":5.384845,"is_reserved":false,"is_disabled":false,"rental_uris":{"android":"levelo://app?vid=d9f330a6-c500-4045-920d-6a1f75b46b35","ios":"levelo://app?vid=d9f330a6-c500-4045-920d-6a1f75b46b35"},"vehicle_type_id":"4","last_reported":1702760753,"current_range_meters":9200,"station_id":"ce4bgj92rcd13ifvqbd0","pricing_plan_id":"free"},{"bike_id":"0e930b12-f9c4-47ef-967c-fc5d7ce0c985","system_id":"levelo_inurba_marseille","lat":43.299717,"lon":5.384845,"is_reserved":false,"is_disabled":false,"rental_uris":{"android":"levelo://app?vid=0e930b12-f9c4-47ef-967c-fc5d7ce0c985","ios":"levelo://app?vid=0e930b12-f9c4-47ef-967c-fc5d7ce0c985"},"vehicle_type_id":"4","last_reported":1702760753,"current_range_meters":26000,"station_id":"ce4bgj92rcd13ifvqbd0","pricing_plan_id":"free"},{"bike_id":"fabbc543-bd76-4562-a2e2-bb440e06507f","system_id":"levelo_inurba_marseille","lat":43.29947,"lon":5.38531,"is_reserved":false,"is_disabled":false,"rental_uris":{"android":"levelo://app?vid=fabbc543-bd76-4562-a2e2-bb440e06507f","ios":"levelo://app?vid=fabbc543-bd76-4562-a2e2-bb440e06507f"},"vehicle_type_id":"4","last_reported":1702760753,"current_range_meters":0,"station_id":"ce4bgj92rcd13ifvqbd0","pricing_plan_id":"free"},{"bike_id":"2d339ccb-9fe7-4132-b39e-b9bd4a932749","system_id":"levelo_inurba_marseille","lat":43.32364,"lon":5.38879,"is_reserved":false,"is_disabled":false,"rental_uris":{"android":"levelo://app?vid=2d339ccb-9fe7-4132-b39e-b9bd4a932749","ios":"levelo://app?vid=2d339ccb-9fe7-4132-b39e-b9bd4a932749"},"vehicle_type_id":"4","last_reported":1702760753,"current_range_meters":14800,"station_id":"ce4bhqp2rcd13ifvqhog","pricing_plan_id":"free"},{"bike_id":"31954c81-37ea-46a3-a087-7d824ac76191","system_id":"levelo_inurba_marseille","lat":43.3236,"lon":5.38888,"is_reserved":false,"is_disabled":false,"rental_uris":{"android":"levelo://app?vid=31954c81-37ea-46a3-a087-7d824ac76191","ios":"levelo://app?vid=31954c81-37ea-46a3-a087-7d824ac76191"},"vehicle_type_id":"4","last_reported":1702760753,"current_range_meters":5600,"station_id":"ce4bhqp2rcd13ifvqhog","pricing_plan_id":"free"},{"bike_id":"9b7c7430-3519-42d6-85b0-d39df338bb65","system_id":"levelo_inurba_marseille","lat":43.29601,"lon":5.381084,"is_reserved":false,"is_disabled":false,"rental_uris":{"android":"levelo://app?vid=9b7c7430-3519-42d6-85b0-d39df338bb65","ios":"levelo://app?vid=9b7c7430-3519-42d6-85b0-d39df338bb65"},"vehicle_type_id":"4","last_reported":1702760753,"current_range_meters":14000,"station_id":"ce4bgl12rcd13ifvqbo0","pricing_plan_id":"free"},{"bike_id":"ffe31f42-549c-44d3-91a7-457fbbf98df8","system_id":"levelo_inurba_marseille","lat":43.292749,"lon":5.368402,"is_reserved":false,"is_disabled":false,"rental_uris":{"android":"levelo://app?vid=ffe31f42-549c-44d3-91a7-457fbbf98df8","ios":"levelo://app?vid=ffe31f42-549c-44d3-91a7-457fbbf98df8"},"vehicle_type_id":"4","last_reported":1702760753,"current_range_meters":12000,"station_id":"ce4bhbp2rcd13ifvqesg","pricing_plan_id":"free"},{"bike_id":"aba1190f-1a23-4c95-838f-7c3f1c82b3af","system_id":"levelo_inurba_marseille","lat":43.293009,"lon":5.374584,"is_reserved":false,"is_disabled":false,"rental_uris":{"android":"levelo://app?vid=aba1190f-1a23-4c95-838f-7c3f1c82b3af","ios":"levelo://app?vid=aba1190f-1a23-4c95-838f-7c3f1c82b3af"},"vehicle_type_id":"4","last_reported":1702760753,"current_range_meters":10000,"station_id":"ce4bgi12rcd13ifvqb70","pricing_plan_id":"free"},{"bike_id":"3de6a220-3165-4c11-a693-a77934b3343b","system_id":"levelo_inurba_marseille","lat":43.303002,"lon":5.392142,"is_reserved":false,"is_disabled":false,"rental_uris":{"android":"levelo://app?vid=3de6a220-3165-4c11-a693-a77934b3343b","ios":"levelo://app?vid=3de6a220-3165-4c11-a693-a77934b3343b"},"vehicle_type_id":"4","last_reported":1702760753,"current_range_meters":22000,"station_id":"ce4bgkh2rcd13ifvqbk0","pricing_plan_id":"free"},{"bike_id":"acc64acc-d87c-497a-820e-648891abe975","system_id":"levelo_inurba_marseille","lat":43.300852,"lon":5.390859,"is_reserved":false,"is_disabled":false,"rental_uris":{"android":"levelo://app?vid=acc64acc-d87c-497a-820e-648891abe975","ios":"levelo://app?vid=acc64acc-d87c-497a-820e-648891abe975"},"vehicle_type_id":"4","last_reported":1702760753,"current_range_meters":400,"station_id":"ce4bh192rcd13ifvqdb0","pricing_plan_id":"free"},{"bike_id":"ee252402-3ea0-43f7-8867-59e5e519bbd2","system_id":"levelo_inurba_marseille","lat":43.292311,"lon":5.360731,"is_reserved":false,"is_disabled":false,"rental_uris":{"android":"levelo://app?vid=ee252402-3ea0-43f7-8867-59e5e519bbd2","ios":"levelo://app?vid=ee252402-3ea0-43f7-8867-59e5e519bbd2"},"vehicle_type_id":"4","last_reported":1702760753,"current_range_meters":21200,"station_id":"ce4bhbh2rcd13ifvqeqg","pricing_plan_id":"free"},{"bike_id":"700c857e-727c-40e6-a7ae-e559ea333063","system_id":"levelo_inurba_marseille","lat":43.2917,"lon":5.37155,"is_reserved":false,"is_disabled":false,"rental_uris":{"android":"levelo://app?vid=700c857e-727c-40e6-a7ae-e559ea333063","ios":"levelo://app?vid=700c857e-727c-40e6-a7ae-e559ea333063"},"vehicle_type_id":"4","last_reported":1702760753,"current_range_meters":0,"station_id":"ce4bha92rcd13ifvqeh0","pricing_plan_id":"free"},{"bike_id":"54521fa5-ca51-484e-8e80-a6651b78538c","system_id":"levelo_inurba_marseille","lat":43.291994,"lon":5.357886,"is_reserved":false,"is_disabled":false,"rental_uris":{"android":"levelo://app?vid=54521fa5-ca51-484e-8e80-a6651b78538c","ios":"levelo://app?vid=54521fa5-ca51-484e-8e80-a6651b78538c"},"vehicle_type_id":"4","last_reported":1702760753,"current_range_meters":0,"station_id":"ce4bhb12rcd13ifvqel0","pricing_plan_id":"free"},{"bike_id":"ff398b37-e0ba-4377-8268-2a77c9802c82","system_id":"levelo_inurba_marseille","lat":43.29529,"lon":5.385581,"is_reserved":false,"is_disabled":false,"rental_uris":{"android":"levelo://app?vid=ff398b37-e0ba-4377-8268-2a77c9802c82","ios":"levelo://app?vid=ff398b37-e0ba-4377-8268-2a77c9802c82"},"vehicle_type_id":"4","last_reported":1702760753,"current_range_meters":26000,"station_id":"ce4bgih2rcd13ifvqba0","pricing_plan_id":"free"},{"bike_id":"87d4e67b-4a0f-4263-9fbc-cd4f376b23ea","system_id":"levelo_inurba_marseille","lat":43.294153,"lon":5.386305,"is_reserved":false,"is_disabled":false,"rental_uris":{"android":"levelo://app?vid=87d4e67b-4a0f-4263-9fbc-cd4f376b23ea","ios":"levelo://app?vid=87d4e67b-4a0f-4263-9fbc-cd4f376b23ea"},"vehicle_type_id":"4","last_reported":1702760753,"current_range_meters":0,"station_id":"ce4bh2h2rcd13ifvqdh0","pricing_plan_id":"free"},{"bike_id":"4c8f0d14-e5d4-4ef1-9cbe-2199caa57036","system_id":"levelo_inurba_marseille","lat":43.289184,"lon":5.366408,"is_reserved":false,"is_disabled":false,"rental_uris":{"android":"levelo://app?vid=4c8f0d14-e5d4-4ef1-9cbe-2199caa57036","ios":"levelo://app?vid=4c8f0d14-e5d4-4ef1-9cbe-2199caa57036"},"vehicle_type_id":"4","last_reported":1702760753,"current_range_meters":6400,"station_id":"ce4bhap2rcd13ifvqek0","pricing_plan_id":"free"},{"bike_id":"64e200d6-a82c-4b4c-96fa-5a9ac0fafe7b","system_id":"levelo_inurba_marseille","lat":43.28945,"lon":5.36403,"is_reserved":false,"is_disabled":false,"rental_uris":{"android":"levelo://app?vid=64e200d6-a82c-4b4c-96fa-5a9ac0fafe7b","ios":"levelo://app?vid=64e200d6-a82c-4b4c-96fa-5a9ac0fafe7b"},"vehicle_type_id":"4","last_reported":1702760753,"current_range_meters":10000,"station_id":"ce4bhc92rcd13ifvqetg","pricing_plan_id":"free"},{"bike_id":"195d4299-0a29-42b1-9296-bbde49888cf0","system_id":"levelo_inurba_marseille","lat":43.28943,"lon":5.363957,"is_reserved":false,"is_disabled":false,"rental_uris":{"android":"levelo://app?vid=195d4299-0a29-42b1-9296-bbde49888cf0","ios":"levelo://app?vid=195d4299-0a29-42b1-9296-bbde49888cf0"},"vehicle_type_id":"4","last_reported":1702760753,"current_range_meters":800,"station_id":"ce4bhc92rcd13ifvqetg","pricing_plan_id":"free"},{"bike_id":"f17a623d-cb19-4bdb-a24a-047f403e43df","system_id":"levelo_inurba_marseille","lat":43.30433,"lon":5.39745,"is_reserved":false,"is_disabled":false,"rental_uris":{"android":"levelo://app?vid=f17a623d-cb19-4bdb-a24a-047f403e43df","ios":"levelo://app?vid=f17a623d-cb19-4bdb-a24a-047f403e43df"},"vehicle_type_id":"4","last_reported":1702760753,"current_range_meters":5600,"station_id":"ce4bh092rcd13ifvqd20","pricing_plan_id":"free"},{"bike_id":"4ea47cb1-5d02-4afb-b8b5-ff52ad6ea1df","system_id":"levelo_inurba_marseille","lat":43.292644,"lon":5.384257,"is_reserved":false,"is_disabled":false,"rental_uris":{"android":"levelo://app?vid=4ea47cb1-5d02-4afb-b8b5-ff52ad6ea1df","ios":"levelo://app?vid=4ea47cb1-5d02-4afb-b8b5-ff52ad6ea1df"},"vehicle_type_id":"4","last_reported":1702760753,"current_range_meters":18800,"station_id":"ce4bh692rcd13ifvqea0","pricing_plan_id":"free"},{"bike_id":"7869065b-ba9c-4e14-a6e0-075a72b86610","system_id":"levelo_inurba_marseille","lat":43.33043,"lon":5.38919,"is_reserved":false,"is_disabled":false,"rental_uris":{"android":"levelo://app?vid=7869065b-ba9c-4e14-a6e0-075a72b86610","ios":"levelo://app?vid=7869065b-ba9c-4e14-a6e0-075a72b86610"},"vehicle_type_id":"4","last_reported":1702760753,"current_range_meters":6800,"station_id":"ce4bhr92rcd13ifvqhrg","pricing_plan_id":"free"},{"bike_id":"0019cc72-50a3-4298-937a-c3025a814462","system_id":"levelo_inurba_marseille","lat":43.33042,"lon":5.38922,"is_reserved":false,"is_disabled":false,"rental_uris":{"android":"levelo://app?vid=0019cc72-50a3-4298-937a-c3025a814462","ios":"levelo://app?vid=0019cc72-50a3-4298-937a-c3025a814462"},"vehicle_type_id":"4","last_reported":1702760753,"current_range_meters":6400,"station_id":"ce4bhr92rcd13ifvqhrg","pricing_plan_id":"free"},{"bike_id":"6fd71545-d274-47b5-a744-52cea4933506","system_id":"levelo_inurba_marseille","lat":43.290995,"lon":5.381361,"is_reserved":false,"is_disabled":false,"rental_uris":{"android":"levelo://app?vid=6fd71545-d274-47b5-a744-52cea4933506","ios":"levelo://app?vid=6fd71545-d274-47b5-a744-52cea4933506"},"vehicle_type_id":"4","last_reported":1702760753,"current_range_meters":5600,"station_id":"ce4bh512rcd13ifvqe2g","pricing_plan_id":"free"},{"bike_id":"f332470d-c8ff-44bd-b5d3-dd73c5e73381","system_id":"levelo_inurba_marseille","lat":43.295169,"lon":5.390426,"is_reserved":false,"is_disabled":false,"rental_uris":{"android":"levelo://app?vid=f332470d-c8ff-44bd-b5d3-dd73c5e73381","ios":"levelo://app?vid=f332470d-c8ff-44bd-b5d3-dd73c5e73381"},"vehicle_type_id":"4","last_reported":1702760753,"current_range_meters":400,"station_id":"ce4bh3p2rcd13ifvqdp0","pricing_plan_id":"free"},{"bike_id":"4b3b2aba-458a-4966-b91d-ad72e80a0c88","system_id":"levelo_inurba_marseille","lat":43.2901,"lon":5.381269,"is_reserved":false,"is_disabled":false,"rental_uris":{"android":"levelo://app?vid=4b3b2aba-458a-4966-b91d-ad72e80a0c88","ios":"levelo://app?vid=4b3b2aba-458a-4966-b91d-ad72e80a0c88"},"vehicle_type_id":"4","last_reported":1702760753,"current_range_meters":7200,"station_id":"ce4bh4p2rcd13ifvqe1g","pricing_plan_id":"free"},{"bike_id":"ee79ee7c-9c0a-4098-856e-c0e6db130c63","system_id":"levelo_inurba_marseille","lat":43.28849,"lon":5.35861,"is_reserved":false,"is_disabled":false,"rental_uris":{"android":"levelo://app?vid=ee79ee7c-9c0a-4098-856e-c0e6db130c63","ios":"levelo://app?vid=ee79ee7c-9c0a-4098-856e-c0e6db130c63"},"vehicle_type_id":"4","last_reported":1702760753,"current_range_meters":3200,"station_id":"ce4bhb12rcd13ifvqem0","pricing_plan_id":"free"},{"bike_id":"d7ad9373-0847-49c3-9fc4-a8368509650e","system_id":"levelo_inurba_marseille","lat":43.312609,"lon":5.401662,"is_reserved":false,"is_disabled":false,"rental_uris":{"android":"levelo://app?vid=d7ad9373-0847-49c3-9fc4-a8368509650e","ios":"levelo://app?vid=d7ad9373-0847-49c3-9fc4-a8368509650e"},"vehicle_type_id":"4","last_reported":1702760753,"current_range_meters":0,"station_id":"ce4bh092rcd13ifvqd30","pricing_plan_id":"free"},{"bike_id":"882b6d0f-dcad-442f-b7c9-8d3104715237","system_id":"levelo_inurba_marseille","lat":43.30924,"lon":5.40139,"is_reserved":false,"is_disabled":false,"rental_uris":{"android":"levelo://app?vid=882b6d0f-dcad-442f-b7c9-8d3104715237","ios":"levelo://app?vid=882b6d0f-dcad-442f-b7c9-8d3104715237"},"vehicle_type_id":"4","last_reported":1702760753,"current_range_meters":9200,"station_id":"ce4bgvp2rcd13ifvqct0","pricing_plan_id":"free"},{"bike_id":"f0cd831c-cfb9-44c7-9487-103b6df223ca","system_id":"levelo_inurba_marseille","lat":43.337445,"lon":5.374592,"is_reserved":false,"is_disabled":false,"rental_uris":{"android":"levelo://app?vid=f0cd831c-cfb9-44c7-9487-103b6df223ca","ios":"levelo://app?vid=f0cd831c-cfb9-44c7-9487-103b6df223ca"},"vehicle_type_id":"4","last_reported":1702760753,"current_range_meters":28000,"station_id":"","pricing_plan_id":"free"},{"bike_id":"2c0affd7-831a-464c-b05c-095e043e7db8","system_id":"levelo_inurba_marseille","lat":43.30927,"lon":5.40142,"is_reserved":false,"is_disabled":false,"rental_uris":{"android":"levelo://app?vid=2c0affd7-831a-464c-b05c-095e043e7db8","ios":"levelo://app?vid=2c0affd7-831a-464c-b05c-095e043e7db8"},"vehicle_type_id":"4","last_reported":1702760753,"current_range_meters":12400,"station_id":"ce4bgvp2rcd13ifvqct0","pricing_plan_id":"free"},{"bike_id":"7ea3190b-ccb3-4dfa-b425-2ae6e88e0fb3","system_id":"levelo_inurba_marseille","lat":43.309371,"lon":5.401449,"is_reserved":false,"is_disabled":false,"rental_uris":{"android":"levelo://app?vid=7ea3190b-ccb3-4dfa-b425-2ae6e88e0fb3","ios":"levelo://app?vid=7ea3190b-ccb3-4dfa-b425-2ae6e88e0fb3"},"vehicle_type_id":"4","last_reported":1702760753,"current_range_meters":2400,"station_id":"ce4bgvp2rcd13ifvqct0","pricing_plan_id":"free"},{"bike_id":"d961fdfb-0c8d-4ced-a6a7-dc7159120bab","system_id":"levelo_inurba_marseille","lat":43.309371,"lon":5.401449,"is_reserved":false,"is_disabled":false,"rental_uris":{"android":"levelo://app?vid=d961fdfb-0c8d-4ced-a6a7-dc7159120bab","ios":"levelo://app?vid=d961fdfb-0c8d-4ced-a6a7-dc7159120bab"},"vehicle_type_id":"4","last_reported":1702760753,"current_range_meters":2800,"station_id":"ce4bgvp2rcd13ifvqct0","pricing_plan_id":"free"},{"bike_id":"ef80ceab-dc9f-4b6c-8f52-707d5177f481","system_id":"levelo_inurba_marseille","lat":43.33752,"lon":5.37466,"is_reserved":false,"is_disabled":false,"rental_uris":{"android":"levelo://app?vid=ef80ceab-dc9f-4b6c-8f52-707d5177f481","ios":"levelo://app?vid=ef80ceab-dc9f-4b6c-8f52-707d5177f481"},"vehicle_type_id":"4","last_reported":1702760753,"current_range_meters":27600,"station_id":"","pricing_plan_id":"free"},{"bike_id":"e8e157c7-f104-4e1b-86bc-012b04d931d7","system_id":"levelo_inurba_marseille","lat":43.30642,"lon":5.401031,"is_reserved":false,"is_disabled":false,"rental_uris":{"android":"levelo://app?vid=e8e157c7-f104-4e1b-86bc-012b04d931d7","ios":"levelo://app?vid=e8e157c7-f104-4e1b-86bc-012b04d931d7"},"vehicle_type_id":"4","last_reported":1702760753,"current_range_meters":4800,"station_id":"ce4bh112rcd13ifvqda0","pricing_plan_id":"free"},{"bike_id":"57339750-986b-4b4d-8ef3-5b1bdf1bd462","system_id":"levelo_inurba_marseille","lat":43.301117,"lon":5.398795,"is_reserved":false,"is_disabled":false,"rental_uris":{"android":"levelo://app?vid=57339750-986b-4b4d-8ef3-5b1bdf1bd462","ios":"levelo://app?vid=57339750-986b-4b4d-8ef3-5b1bdf1bd462"},"vehicle_type_id":"4","last_reported":1702760753,"current_range_meters":18800,"station_id":"ce4bh0h2rcd13ifvqd40","pricing_plan_id":"free"},{"bike_id":"4f311935-f1ec-4d4d-b8ea-9bc7cfd03799","system_id":"levelo_inurba_marseille","lat":43.286961,"lon":5.373785,"is_reserved":false,"is_disabled":false,"rental_uris":{"android":"levelo://app?vid=4f311935-f1ec-4d4d-b8ea-9bc7cfd03799","ios":"levelo://app?vid=4f311935-f1ec-4d4d-b8ea-9bc7cfd03799"},"vehicle_type_id":"4","last_reported":1702760753,"current_range_meters":6400,"station_id":"ce4bh3p2rcd13ifvqdq0","pricing_plan_id":"free"},{"bike_id":"811ca201-f116-4503-863d-4ebde3239757","system_id":"levelo_inurba_marseille","lat":43.286961,"lon":5.373785,"is_reserved":false,"is_disabled":false,"rental_uris":{"android":"levelo://app?vid=811ca201-f116-4503-863d-4ebde3239757","ios":"levelo://app?vid=811ca201-f116-4503-863d-4ebde3239757"},"vehicle_type_id":"4","last_reported":1702760753,"current_range_meters":2400,"station_id":"ce4bh3p2rcd13ifvqdq0","pricing_plan_id":"free"},{"bike_id":"0a6347a3-6aed-4591-ba89-15a27aa3668c","system_id":"levelo_inurba_marseille","lat":43.286961,"lon":5.373785,"is_reserved":false,"is_disabled":false,"rental_uris":{"android":"levelo://app?vid=0a6347a3-6aed-4591-ba89-15a27aa3668c","ios":"levelo://app?vid=0a6347a3-6aed-4591-ba89-15a27aa3668c"},"vehicle_type_id":"4","last_reported":1702760753,"current_range_meters":8400,"station_id":"ce4bh3p2rcd13ifvqdq0","pricing_plan_id":"free"},{"bike_id":"6ba8ad61-4ba1-4f67-af59-001c65ab1c36","system_id":"levelo_inurba_marseille","lat":43.295194,"lon":5.39397,"is_reserved":false,"is_disabled":false,"rental_uris":{"android":"levelo://app?vid=6ba8ad61-4ba1-4f67-af59-001c65ab1c36","ios":"levelo://app?vid=6ba8ad61-4ba1-4f67-af59-001c65ab1c36"},"vehicle_type_id":"4","last_reported":1702760753,"current_range_meters":0,"station_id":"ce4bh292rcd13ifvqdf0","pricing_plan_id":"free"},{"bike_id":"d2374ddb-c34d-4fda-86b1-554f6f50859a","system_id":"levelo_inurba_marseille","lat":43.290345,"lon":5.38646,"is_reserved":false,"is_disabled":false,"rental_uris":{"android":"levelo://app?vid=d2374ddb-c34d-4fda-86b1-554f6f50859a","ios":"levelo://app?vid=d2374ddb-c34d-4fda-86b1-554f6f50859a"},"vehicle_type_id":"4","last_reported":1702760753,"current_range_meters":27200,"station_id":"ce4bh4p2rcd13ifvqe0g","pricing_plan_id":"free"},{"bike_id":"5c8a7aaa-a85b-4f42-ad13-53fcfcdd6410","system_id":"levelo_inurba_marseille","lat":43.29021,"lon":5.38635,"is_reserved":false,"is_disabled":false,"rental_uris":{"android":"levelo://app?vid=5c8a7aaa-a85b-4f42-ad13-53fcfcdd6410","ios":"levelo://app?vid=5c8a7aaa-a85b-4f42-ad13-53fcfcdd6410"},"vehicle_type_id":"4","last_reported":1702760753,"current_range_meters":0,"station_id":"ce4bh4p2rcd13ifvqe0g","pricing_plan_id":"free"},{"bike_id":"46c9aa74-c0f1-4884-8041-53aed8a147d0","system_id":"levelo_inurba_marseille","lat":43.284538,"lon":5.358657,"is_reserved":false,"is_disabled":false,"rental_uris":{"android":"levelo://app?vid=46c9aa74-c0f1-4884-8041-53aed8a147d0","ios":"levelo://app?vid=46c9aa74-c0f1-4884-8041-53aed8a147d0"},"vehicle_type_id":"4","last_reported":1702760753,"current_range_meters":4400,"station_id":"ce4bhah2rcd13ifvqei0","pricing_plan_id":"free"},{"bike_id":"0e6ff1f7-6252-4036-925f-cc0faaeb505f","system_id":"levelo_inurba_marseille","lat":43.284538,"lon":5.358657,"is_reserved":false,"is_disabled":false,"rental_uris":{"android":"levelo://app?vid=0e6ff1f7-6252-4036-925f-cc0faaeb505f","ios":"levelo://app?vid=0e6ff1f7-6252-4036-925f-cc0faaeb505f"},"vehicle_type_id":"4","last_reported":1702760753,"current_range_meters":6000,"station_id":"ce4bhah2rcd13ifvqei0","pricing_plan_id":"free"},{"bike_id":"2a3286fd-e53c-4a3b-8304-b78a7e604c81","system_id":"levelo_inurba_marseille","lat":43.284534,"lon":5.358662,"is_reserved":false,"is_disabled":false,"rental_uris":{"android":"levelo://app?vid=2a3286fd-e53c-4a3b-8304-b78a7e604c81","ios":"levelo://app?vid=2a3286fd-e53c-4a3b-8304-b78a7e604c81"},"vehicle_type_id":"4","last_reported":1702760753,"current_range_meters":9600,"station_id":"ce4bhah2rcd13ifvqei0","pricing_plan_id":"free"},{"bike_id":"cc48a435-e5b5-4eb0-9606-36bfc3a0bb7b","system_id":"levelo_inurba_marseille","lat":43.284538,"lon":5.358657,"is_reserved":false,"is_disabled":false,"rental_uris":{"android":"levelo://app?vid=cc48a435-e5b5-4eb0-9606-36bfc3a0bb7b","ios":"levelo://app?vid=cc48a435-e5b5-4eb0-9606-36bfc3a0bb7b"},"vehicle_type_id":"4","last_reported":1702760753,"current_range_meters":15600,"station_id":"ce4bhah2rcd13ifvqei0","pricing_plan_id":"free"},{"bike_id":"c7ac843b-1b85-4124-a8f2-df5f64228a25","system_id":"levelo_inurba_marseille","lat":43.28616,"lon":5.35103,"is_reserved":false,"is_disabled":false,"rental_uris":{"android":"levelo://app?vid=c7ac843b-1b85-4124-a8f2-df5f64228a25","ios":"levelo://app?vid=c7ac843b-1b85-4124-a8f2-df5f64228a25"},"vehicle_type_id":"4","last_reported":1702760753,"current_range_meters":24000,"station_id":"ce4bhch2rcd13ifvqeug","pricing_plan_id":"free"},{"bike_id":"795095b6-262e-4120-9445-2132d980e9ad","system_id":"levelo_inurba_marseille","lat":43.28613,"lon":5.35104,"is_reserved":false,"is_disabled":false,"rental_uris":{"android":"levelo://app?vid=795095b6-262e-4120-9445-2132d980e9ad","ios":"levelo://app?vid=795095b6-262e-4120-9445-2132d980e9ad"},"vehicle_type_id":"4","last_reported":1702760753,"current_range_meters":18000,"station_id":"ce4bhch2rcd13ifvqeug","pricing_plan_id":"free"},{"bike_id":"f242a942-61a1-4b14-92e0-1cf7b79fab3f","system_id":"levelo_inurba_marseille","lat":43.283998,"lon":5.375062,"is_reserved":false,"is_disabled":false,"rental_uris":{"android":"levelo://app?vid=f242a942-61a1-4b14-92e0-1cf7b79fab3f","ios":"levelo://app?vid=f242a942-61a1-4b14-92e0-1cf7b79fab3f"},"vehicle_type_id":"4","last_reported":1702760753,"current_range_meters":0,"station_id":"ce4bh412rcd13ifvqds0","pricing_plan_id":"free"},{"bike_id":"7980b514-7b81-49da-955f-d3cee0578dd7","system_id":"levelo_inurba_marseille","lat":43.283998,"lon":5.375062,"is_reserved":false,"is_disabled":false,"rental_uris":{"android":"levelo://app?vid=7980b514-7b81-49da-955f-d3cee0578dd7","ios":"levelo://app?vid=7980b514-7b81-49da-955f-d3cee0578dd7"},"vehicle_type_id":"4","last_reported":1702760753,"current_range_meters":10400,"station_id":"ce4bh412rcd13ifvqds0","pricing_plan_id":"free"},{"bike_id":"bad02cd4-297d-435d-98b7-e3d74b1c51a0","system_id":"levelo_inurba_marseille","lat":43.283998,"lon":5.375062,"is_reserved":false,"is_disabled":false,"rental_uris":{"android":"levelo://app?vid=bad02cd4-297d-435d-98b7-e3d74b1c51a0","ios":"levelo://app?vid=bad02cd4-297d-435d-98b7-e3d74b1c51a0"},"vehicle_type_id":"4","last_reported":1702760753,"current_range_meters":5600,"station_id":"ce4bh412rcd13ifvqds0","pricing_plan_id":"free"},{"bike_id":"3d5a9953-62a8-4497-b1f8-e7f58b591661","system_id":"levelo_inurba_marseille","lat":43.28414,"lon":5.3752,"is_reserved":false,"is_disabled":false,"rental_uris":{"android":"levelo://app?vid=3d5a9953-62a8-4497-b1f8-e7f58b591661","ios":"levelo://app?vid=3d5a9953-62a8-4497-b1f8-e7f58b591661"},"vehicle_type_id":"4","last_reported":1702760753,"current_range_meters":8800,"station_id":"ce4bh412rcd13ifvqds0","pricing_plan_id":"free"},{"bike_id":"2dfa5049-0e1b-4839-b5c3-156910a65dbd","system_id":"levelo_inurba_marseille","lat":43.33177,"lon":5.39828,"is_reserved":false,"is_disabled":false,"rental_uris":{"android":"levelo://app?vid=2dfa5049-0e1b-4839-b5c3-156910a65dbd","ios":"levelo://app?vid=2dfa5049-0e1b-4839-b5c3-156910a65dbd"},"vehicle_type_id":"4","last_reported":1702760753,"current_range_meters":7600,"station_id":"","pricing_plan_id":"free"},{"bike_id":"74c5cf30-49f6-42f3-835f-9c531e7566b4","system_id":"levelo_inurba_marseille","lat":43.319179,"lon":5.407725,"is_reserved":false,"is_disabled":false,"rental_uris":{"android":"levelo://app?vid=74c5cf30-49f6-42f3-835f-9c531e7566b4","ios":"levelo://app?vid=74c5cf30-49f6-42f3-835f-9c531e7566b4"},"vehicle_type_id":"4","last_reported":1702760753,"current_range_meters":28400,"station_id":"ce4bhq12rcd13ifvqhig","pricing_plan_id":"free"},{"bike_id":"a8c4246c-8b22-44a6-af13-0443491dc2b7","system_id":"levelo_inurba_marseille","lat":43.323464,"lon":5.406297,"is_reserved":false,"is_disabled":false,"rental_uris":{"android":"levelo://app?vid=a8c4246c-8b22-44a6-af13-0443491dc2b7","ios":"levelo://app?vid=a8c4246c-8b22-44a6-af13-0443491dc2b7"},"vehicle_type_id":"4","last_reported":1702760753,"current_range_meters":18000,"station_id":"ce4bhq92rcd13ifvqhjg","pricing_plan_id":"free"},{"bike_id":"4b82fed5-9d4d-47e9-b94d-e069ffbde725","system_id":"levelo_inurba_marseille","lat":43.288501,"lon":5.393087,"is_reserved":false,"is_disabled":false,"rental_uris":{"android":"levelo://app?vid=4b82fed5-9d4d-47e9-b94d-e069ffbde725","ios":"levelo://app?vid=4b82fed5-9d4d-47e9-b94d-e069ffbde725"},"vehicle_type_id":"4","last_reported":1702760753,"current_range_meters":1200,"station_id":"ce4bh2p2rcd13ifvqdi0","pricing_plan_id":"free"},{"bike_id":"a7fb6422-9e7c-4abc-a63e-732d7ca66506","system_id":"levelo_inurba_marseille","lat":43.282754,"lon":5.350519,"is_reserved":false,"is_disabled":false,"rental_uris":{"android":"levelo://app?vid=a7fb6422-9e7c-4abc-a63e-732d7ca66506","ios":"levelo://app?vid=a7fb6422-9e7c-4abc-a63e-732d7ca66506"},"vehicle_type_id":"4","last_reported":1702760753,"current_range_meters":5200,"station_id":"ce4bhbp2rcd13ifvqerg","pricing_plan_id":"free"},{"bike_id":"39153f9c-bbc6-4931-b7a0-8cf29544edc0","system_id":"levelo_inurba_marseille","lat":43.282744,"lon":5.350533,"is_reserved":false,"is_disabled":false,"rental_uris":{"android":"levelo://app?vid=39153f9c-bbc6-4931-b7a0-8cf29544edc0","ios":"levelo://app?vid=39153f9c-bbc6-4931-b7a0-8cf29544edc0"},"vehicle_type_id":"4","last_reported":1702760753,"current_range_meters":10000,"station_id":"ce4bhbp2rcd13ifvqerg","pricing_plan_id":"free"},{"bike_id":"efb473ef-e94e-4f42-807c-90b4ed9e5373","system_id":"levelo_inurba_marseille","lat":43.282754,"lon":5.350519,"is_reserved":false,"is_disabled":false,"rental_uris":{"android":"levelo://app?vid=efb473ef-e94e-4f42-807c-90b4ed9e5373","ios":"levelo://app?vid=efb473ef-e94e-4f42-807c-90b4ed9e5373"},"vehicle_type_id":"4","last_reported":1702760753,"current_range_meters":15200,"station_id":"ce4bhbp2rcd13ifvqerg","pricing_plan_id":"free"},{"bike_id":"3cccad1c-7f70-4571-a4d1-80a646560df5","system_id":"levelo_inurba_marseille","lat":43.283614,"lon":5.38644,"is_reserved":false,"is_disabled":false,"rental_uris":{"android":"levelo://app?vid=3cccad1c-7f70-4571-a4d1-80a646560df5","ios":"levelo://app?vid=3cccad1c-7f70-4571-a4d1-80a646560df5"},"vehicle_type_id":"4","last_reported":1702760753,"current_range_meters":6000,"station_id":"ce4bh492rcd13ifvqdvg","pricing_plan_id":"free"},{"bike_id":"cc41ff2b-f5f0-4406-9181-4ed8087eaf55","system_id":"levelo_inurba_marseille","lat":43.284413,"lon":5.391842,"is_reserved":false,"is_disabled":false,"rental_uris":{"android":"levelo://app?vid=cc41ff2b-f5f0-4406-9181-4ed8087eaf55","ios":"levelo://app?vid=cc41ff2b-f5f0-4406-9181-4ed8087eaf55"},"vehicle_type_id":"4","last_reported":1702760753,"current_range_meters":0,"station_id":"ce4bhoh2rcd13ifvqh5g","pricing_plan_id":"free"},{"bike_id":"182b8ee0-30ee-48b6-b736-9b3caa1b1d1c","system_id":"levelo_inurba_marseille","lat":43.284462,"lon":5.392121,"is_reserved":false,"is_disabled":false,"rental_uris":{"android":"levelo://app?vid=182b8ee0-30ee-48b6-b736-9b3caa1b1d1c","ios":"levelo://app?vid=182b8ee0-30ee-48b6-b736-9b3caa1b1d1c"},"vehicle_type_id":"4","last_reported":1702760753,"current_range_meters":24400,"station_id":"ce4bhoh2rcd13ifvqh5g","pricing_plan_id":"free"},{"bike_id":"ffc4ea23-b349-471a-8af0-1150685614fa","system_id":"levelo_inurba_marseille","lat":43.284462,"lon":5.392121,"is_reserved":false,"is_disabled":false,"rental_uris":{"android":"levelo://app?vid=ffc4ea23-b349-471a-8af0-1150685614fa","ios":"levelo://app?vid=ffc4ea23-b349-471a-8af0-1150685614fa"},"vehicle_type_id":"4","last_reported":1702760753,"current_range_meters":17600,"station_id":"ce4bhoh2rcd13ifvqh5g","pricing_plan_id":"free"},{"bike_id":"8fb63668-ff69-4d51-84d6-5fbb318bec16","system_id":"levelo_inurba_marseille","lat":43.284462,"lon":5.392121,"is_reserved":false,"is_disabled":false,"rental_uris":{"android":"levelo://app?vid=8fb63668-ff69-4d51-84d6-5fbb318bec16","ios":"levelo://app?vid=8fb63668-ff69-4d51-84d6-5fbb318bec16"},"vehicle_type_id":"4","last_reported":1702760753,"current_range_meters":31200,"station_id":"ce4bhoh2rcd13ifvqh5g","pricing_plan_id":"free"},{"bike_id":"855f32d5-2a27-4b36-857f-9d1bb5dfcebd","system_id":"levelo_inurba_marseille","lat":43.28573,"lon":5.394992,"is_reserved":false,"is_disabled":false,"rental_uris":{"android":"levelo://app?vid=855f32d5-2a27-4b36-857f-9d1bb5dfcebd","ios":"levelo://app?vid=855f32d5-2a27-4b36-857f-9d1bb5dfcebd"},"vehicle_type_id":"4","last_reported":1702760753,"current_range_meters":18000,"station_id":"ce4bh292rcd13ifvqdg0","pricing_plan_id":"free"},{"bike_id":"ac05eec3-6dd4-4e50-ab24-45f354a74562","system_id":"levelo_inurba_marseille","lat":43.326605,"lon":5.409903,"is_reserved":false,"is_disabled":false,"rental_uris":{"android":"levelo://app?vid=ac05eec3-6dd4-4e50-ab24-45f354a74562","ios":"levelo://app?vid=ac05eec3-6dd4-4e50-ab24-45f354a74562"},"vehicle_type_id":"4","last_reported":1702760753,"current_range_meters":30000,"station_id":"ce4bhpp2rcd13ifvqhgg","pricing_plan_id":"free"},{"bike_id":"b0c41b6f-d450-44c8-a10d-476ec0080f6a","system_id":"levelo_inurba_marseille","lat":43.304188,"lon":5.412904,"is_reserved":false,"is_disabled":false,"rental_uris":{"android":"levelo://app?vid=b0c41b6f-d450-44c8-a10d-476ec0080f6a","ios":"levelo://app?vid=b0c41b6f-d450-44c8-a10d-476ec0080f6a"},"vehicle_type_id":"4","last_reported":1702760753,"current_range_meters":19600,"station_id":"ce4bhop2rcd13ifvqh8g","pricing_plan_id":"free"},{"bike_id":"8c53da4c-26d5-41a3-ad4d-884692197f05","system_id":"levelo_inurba_marseille","lat":43.279087,"lon":5.380114,"is_reserved":false,"is_disabled":false,"rental_uris":{"android":"levelo://app?vid=8c53da4c-26d5-41a3-ad4d-884692197f05","ios":"levelo://app?vid=8c53da4c-26d5-41a3-ad4d-884692197f05"},"vehicle_type_id":"4","last_reported":1702760753,"current_range_meters":13600,"station_id":"ce4bhf92rcd13ifvqf50","pricing_plan_id":"free"},{"bike_id":"cf9aa06e-ce8d-4a68-9c61-dd6c2ebce3dd","system_id":"levelo_inurba_marseille","lat":43.287154,"lon":5.399979,"is_reserved":false,"is_disabled":false,"rental_uris":{"android":"levelo://app?vid=cf9aa06e-ce8d-4a68-9c61-dd6c2ebce3dd","ios":"levelo://app?vid=cf9aa06e-ce8d-4a68-9c61-dd6c2ebce3dd"},"vehicle_type_id":"4","last_reported":1702760753,"current_range_meters":4000,"station_id":"ce4bho92rcd13ifvqh3g","pricing_plan_id":"free"},{"bike_id":"7ae39b8e-709d-4ded-a5ef-9d35b9ab53b3","system_id":"levelo_inurba_marseille","lat":43.287154,"lon":5.399979,"is_reserved":false,"is_disabled":false,"rental_uris":{"android":"levelo://app?vid=7ae39b8e-709d-4ded-a5ef-9d35b9ab53b3","ios":"levelo://app?vid=7ae39b8e-709d-4ded-a5ef-9d35b9ab53b3"},"vehicle_type_id":"4","last_reported":1702760753,"current_range_meters":22800,"station_id":"ce4bho92rcd13ifvqh3g","pricing_plan_id":"free"},{"bike_id":"b20b997c-e71c-4908-ab85-2e82e1ac7d9c","system_id":"levelo_inurba_marseille","lat":43.299579,"lon":5.413255,"is_reserved":false,"is_disabled":false,"rental_uris":{"android":"levelo://app?vid=b20b997c-e71c-4908-ab85-2e82e1ac7d9c","ios":"levelo://app?vid=b20b997c-e71c-4908-ab85-2e82e1ac7d9c"},"vehicle_type_id":"4","last_reported":1702760753,"current_range_meters":25200,"station_id":"ce4bhp12rcd13ifvqh9g","pricing_plan_id":"free"},{"bike_id":"f0639ed8-aab3-4499-901f-27b823c57390","system_id":"levelo_inurba_marseille","lat":43.27618,"lon":5.361009,"is_reserved":false,"is_disabled":false,"rental_uris":{"android":"levelo://app?vid=f0639ed8-aab3-4499-901f-27b823c57390","ios":"levelo://app?vid=f0639ed8-aab3-4499-901f-27b823c57390"},"vehicle_type_id":"4","last_reported":1702760753,"current_range_meters":0,"station_id":"ce4bgj92rcd13ifvqbe0","pricing_plan_id":"free"},{"bike_id":"3ce965d1-e55d-4149-97d8-bc280e6391d6","system_id":"levelo_inurba_marseille","lat":43.27618,"lon":5.361009,"is_reserved":false,"is_disabled":false,"rental_uris":{"android":"levelo://app?vid=3ce965d1-e55d-4149-97d8-bc280e6391d6","ios":"levelo://app?vid=3ce965d1-e55d-4149-97d8-bc280e6391d6"},"vehicle_type_id":"4","last_reported":1702760753,"current_range_meters":17200,"station_id":"ce4bgj92rcd13ifvqbe0","pricing_plan_id":"free"},{"bike_id":"7905dc6e-b2af-44e7-9f04-d54f13a39370","system_id":"levelo_inurba_marseille","lat":43.27618,"lon":5.361009,"is_reserved":false,"is_disabled":false,"rental_uris":{"android":"levelo://app?vid=7905dc6e-b2af-44e7-9f04-d54f13a39370","ios":"levelo://app?vid=7905dc6e-b2af-44e7-9f04-d54f13a39370"},"vehicle_type_id":"4","last_reported":1702760753,"current_range_meters":0,"station_id":"ce4bgj92rcd13ifvqbe0","pricing_plan_id":"free"},{"bike_id":"e7fcdeca-090d-491e-a8ea-4f6571be908d","system_id":"levelo_inurba_marseille","lat":43.280784,"lon":5.396622,"is_reserved":false,"is_disabled":false,"rental_uris":{"android":"levelo://app?vid=e7fcdeca-090d-491e-a8ea-4f6571be908d","ios":"levelo://app?vid=e7fcdeca-090d-491e-a8ea-4f6571be908d"},"vehicle_type_id":"4","last_reported":1702760753,"current_range_meters":26400,"station_id":"ce4bho12rcd13ifvqh2g","pricing_plan_id":"free"},{"bike_id":"f200fd50-e686-4875-a862-6095206e0cde","system_id":"levelo_inurba_marseille","lat":43.303837,"lon":5.418724,"is_reserved":false,"is_disabled":false,"rental_uris":{"android":"levelo://app?vid=f200fd50-e686-4875-a862-6095206e0cde","ios":"levelo://app?vid=f200fd50-e686-4875-a862-6095206e0cde"},"vehicle_type_id":"4","last_reported":1702760753,"current_range_meters":18800,"station_id":"ce4bhop2rcd13ifvqh7g","pricing_plan_id":"free"},{"bike_id":"60d62baa-fa07-4908-821f-297e680b9e12","system_id":"levelo_inurba_marseille","lat":43.278401,"lon":5.392152,"is_reserved":false,"is_disabled":false,"rental_uris":{"android":"levelo://app?vid=60d62baa-fa07-4908-821f-297e680b9e12","ios":"levelo://app?vid=60d62baa-fa07-4908-821f-297e680b9e12"},"vehicle_type_id":"4","last_reported":1702760753,"current_range_meters":20800,"station_id":"ce4bhjp2rcd13ifvqga0","pricing_plan_id":"free"},{"bike_id":"a660ba4e-c1ab-43a6-b550-0185cc769ad4","system_id":"levelo_inurba_marseille","lat":43.33601,"lon":5.41032,"is_reserved":false,"is_disabled":false,"rental_uris":{"android":"levelo://app?vid=a660ba4e-c1ab-43a6-b550-0185cc769ad4","ios":"levelo://app?vid=a660ba4e-c1ab-43a6-b550-0185cc769ad4"},"vehicle_type_id":"4","last_reported":1702760753,"current_range_meters":26800,"station_id":"ce4bhqh2rcd13ifvqhmg","pricing_plan_id":"free"},{"bike_id":"19f82a55-856e-41c4-9307-dcd96d19deb7","system_id":"levelo_inurba_marseille","lat":43.336134,"lon":5.410341,"is_reserved":false,"is_disabled":false,"rental_uris":{"android":"levelo://app?vid=19f82a55-856e-41c4-9307-dcd96d19deb7","ios":"levelo://app?vid=19f82a55-856e-41c4-9307-dcd96d19deb7"},"vehicle_type_id":"4","last_reported":1702760753,"current_range_meters":14400,"station_id":"ce4bhqh2rcd13ifvqhmg","pricing_plan_id":"free"},{"bike_id":"ea3d35f6-b07e-4308-ae51-5376e9d8e7cc","system_id":"levelo_inurba_marseille","lat":43.273495,"lon":5.364546,"is_reserved":false,"is_disabled":false,"rental_uris":{"android":"levelo://app?vid=ea3d35f6-b07e-4308-ae51-5376e9d8e7cc","ios":"levelo://app?vid=ea3d35f6-b07e-4308-ae51-5376e9d8e7cc"},"vehicle_type_id":"4","last_reported":1702760753,"current_range_meters":15200,"station_id":"","pricing_plan_id":"free"},{"bike_id":"ea447e79-f759-472f-a0d3-42117b93c716","system_id":"levelo_inurba_marseille","lat":43.279952,"lon":5.400085,"is_reserved":false,"is_disabled":false,"rental_uris":{"android":"levelo://app?vid=ea447e79-f759-472f-a0d3-42117b93c716","ios":"levelo://app?vid=ea447e79-f759-472f-a0d3-42117b93c716"},"vehicle_type_id":"4","last_reported":1702760753,"current_range_meters":20000,"station_id":"ce4bho92rcd13ifvqh4g","pricing_plan_id":"free"},{"bike_id":"12fe1f05-318a-4237-b44e-c7521e9a0831","system_id":"levelo_inurba_marseille","lat":43.279975,"lon":5.40009,"is_reserved":false,"is_disabled":false,"rental_uris":{"android":"levelo://app?vid=12fe1f05-318a-4237-b44e-c7521e9a0831","ios":"levelo://app?vid=12fe1f05-318a-4237-b44e-c7521e9a0831"},"vehicle_type_id":"4","last_reported":1702760753,"current_range_meters":28000,"station_id":"ce4bho92rcd13ifvqh4g","pricing_plan_id":"free"},{"bike_id":"87cc8c4f-8ecf-420c-bac2-ed05f14f8c04","system_id":"levelo_inurba_marseille","lat":43.2761,"lon":5.39493,"is_reserved":false,"is_disabled":false,"rental_uris":{"android":"levelo://app?vid=87cc8c4f-8ecf-420c-bac2-ed05f14f8c04","ios":"levelo://app?vid=87cc8c4f-8ecf-420c-bac2-ed05f14f8c04"},"vehicle_type_id":"4","last_reported":1702760753,"current_range_meters":14800,"station_id":"","pricing_plan_id":"free"},{"bike_id":"3dfd5623-132e-4ef8-8f07-b653b7c8687b","system_id":"levelo_inurba_marseille","lat":43.340804,"lon":5.410219,"is_reserved":false,"is_disabled":false,"rental_uris":{"android":"levelo://app?vid=3dfd5623-132e-4ef8-8f07-b653b7c8687b","ios":"levelo://app?vid=3dfd5623-132e-4ef8-8f07-b653b7c8687b"},"vehicle_type_id":"4","last_reported":1702760753,"current_range_meters":0,"station_id":"ce4bhqh2rcd13ifvqhlg","pricing_plan_id":"free"},{"bike_id":"43844db9-0392-4da0-9a6e-40bbf1d336e6","system_id":"levelo_inurba_marseille","lat":43.340804,"lon":5.410219,"is_reserved":false,"is_disabled":false,"rental_uris":{"android":"levelo://app?vid=43844db9-0392-4da0-9a6e-40bbf1d336e6","ios":"levelo://app?vid=43844db9-0392-4da0-9a6e-40bbf1d336e6"},"vehicle_type_id":"4","last_reported":1702760753,"current_range_meters":22800,"station_id":"ce4bhqh2rcd13ifvqhlg","pricing_plan_id":"free"},{"bike_id":"ba864b12-7d36-4da2-8b70-9afb481f7e81","system_id":"levelo_inurba_marseille","lat":43.340804,"lon":5.410219,"is_reserved":false,"is_disabled":false,"rental_uris":{"android":"levelo://app?vid=ba864b12-7d36-4da2-8b70-9afb481f7e81","ios":"levelo://app?vid=ba864b12-7d36-4da2-8b70-9afb481f7e81"},"vehicle_type_id":"4","last_reported":1702760753,"current_range_meters":27600,"station_id":"ce4bhqh2rcd13ifvqhlg","pricing_plan_id":"free"},{"bike_id":"3ca2c2d2-99b0-4aa6-a05d-e30f02e6a7fb","system_id":"levelo_inurba_marseille","lat":43.276092,"lon":5.395289,"is_reserved":false,"is_disabled":false,"rental_uris":{"android":"levelo://app?vid=3ca2c2d2-99b0-4aa6-a05d-e30f02e6a7fb","ios":"levelo://app?vid=3ca2c2d2-99b0-4aa6-a05d-e30f02e6a7fb"},"vehicle_type_id":"4","last_reported":1702760753,"current_range_meters":21200,"station_id":"","pricing_plan_id":"free"},{"bike_id":"6da64086-a15b-433f-8697-130099719fa3","system_id":"levelo_inurba_marseille","lat":43.274099,"lon":5.394019,"is_reserved":false,"is_disabled":false,"rental_uris":{"android":"levelo://app?vid=6da64086-a15b-433f-8697-130099719fa3","ios":"levelo://app?vid=6da64086-a15b-433f-8697-130099719fa3"},"vehicle_type_id":"4","last_reported":1702760753,"current_range_meters":18000,"station_id":"ce4bhdp2rcd13ifvqf20","pricing_plan_id":"free"},{"bike_id":"0f3c04c4-99af-4d7f-b8e7-a3e4dda3ce74","system_id":"levelo_inurba_marseille","lat":43.273129,"lon":5.390725,"is_reserved":false,"is_disabled":false,"rental_uris":{"android":"levelo://app?vid=0f3c04c4-99af-4d7f-b8e7-a3e4dda3ce74","ios":"levelo://app?vid=0f3c04c4-99af-4d7f-b8e7-a3e4dda3ce74"},"vehicle_type_id":"4","last_reported":1702760753,"current_range_meters":25600,"station_id":"ce4bhgp2rcd13ifvqfe0","pricing_plan_id":"free"},{"bike_id":"e89e163e-7897-48dc-afa7-923b2c55a418","system_id":"levelo_inurba_marseille","lat":43.273125,"lon":5.390731,"is_reserved":false,"is_disabled":false,"rental_uris":{"android":"levelo://app?vid=e89e163e-7897-48dc-afa7-923b2c55a418","ios":"levelo://app?vid=e89e163e-7897-48dc-afa7-923b2c55a418"},"vehicle_type_id":"4","last_reported":1702760753,"current_range_meters":15200,"station_id":"ce4bhgp2rcd13ifvqfe0","pricing_plan_id":"free"},{"bike_id":"7b73e415-1c27-4932-8f73-00f791dd62f8","system_id":"levelo_inurba_marseille","lat":43.295511,"lon":5.422926,"is_reserved":false,"is_disabled":false,"rental_uris":{"android":"levelo://app?vid=7b73e415-1c27-4932-8f73-00f791dd62f8","ios":"levelo://app?vid=7b73e415-1c27-4932-8f73-00f791dd62f8"},"vehicle_type_id":"4","last_reported":1702760753,"current_range_meters":12400,"station_id":"ce4bhph2rcd13ifvqhdg","pricing_plan_id":"free"},{"bike_id":"ad3f6424-8b32-4396-bde8-cffaa952a540","system_id":"levelo_inurba_marseille","lat":43.272124,"lon":5.391768,"is_reserved":false,"is_disabled":false,"rental_uris":{"android":"levelo://app?vid=ad3f6424-8b32-4396-bde8-cffaa952a540","ios":"levelo://app?vid=ad3f6424-8b32-4396-bde8-cffaa952a540"},"vehicle_type_id":"4","last_reported":1702760753,"current_range_meters":8000,"station_id":"ce4bhhp2rcd13ifvqfm0","pricing_plan_id":"free"},{"bike_id":"7c5e5a9a-9f39-4a14-9573-d5b8ab599dd5","system_id":"levelo_inurba_marseille","lat":43.27188,"lon":5.39224,"is_reserved":false,"is_disabled":false,"rental_uris":{"android":"levelo://app?vid=7c5e5a9a-9f39-4a14-9573-d5b8ab599dd5","ios":"levelo://app?vid=7c5e5a9a-9f39-4a14-9573-d5b8ab599dd5"},"vehicle_type_id":"4","last_reported":1702760753,"current_range_meters":20400,"station_id":"ce4bhhp2rcd13ifvqfm0","pricing_plan_id":"free"},{"bike_id":"ae5c92c7-d961-4538-b923-190ac473bbcd","system_id":"levelo_inurba_marseille","lat":43.278128,"lon":5.407195,"is_reserved":false,"is_disabled":false,"rental_uris":{"android":"levelo://app?vid=ae5c92c7-d961-4538-b923-190ac473bbcd","ios":"levelo://app?vid=ae5c92c7-d961-4538-b923-190ac473bbcd"},"vehicle_type_id":"4","last_reported":1702760753,"current_range_meters":21200,"station_id":"ce4bhnh2rcd13ifvqgtg","pricing_plan_id":"free"},{"bike_id":"5e7ce94f-0099-4167-b73e-2f153ffe51e3","system_id":"levelo_inurba_marseille","lat":43.278128,"lon":5.407195,"is_reserved":false,"is_disabled":false,"rental_uris":{"android":"levelo://app?vid=5e7ce94f-0099-4167-b73e-2f153ffe51e3","ios":"levelo://app?vid=5e7ce94f-0099-4167-b73e-2f153ffe51e3"},"vehicle_type_id":"4","last_reported":1702760753,"current_range_meters":6800,"station_id":"ce4bhnh2rcd13ifvqgtg","pricing_plan_id":"free"},{"bike_id":"88428d0c-37a1-4b74-9a91-c0ca76de4b38","system_id":"levelo_inurba_marseille","lat":43.269467,"lon":5.386439,"is_reserved":false,"is_disabled":false,"rental_uris":{"android":"levelo://app?vid=88428d0c-37a1-4b74-9a91-c0ca76de4b38","ios":"levelo://app?vid=88428d0c-37a1-4b74-9a91-c0ca76de4b38"},"vehicle_type_id":"4","last_reported":1702760753,"current_range_meters":26800,"station_id":"ce4bhh92rcd13ifvqfh0","pricing_plan_id":"free"},{"bike_id":"830395c7-d30f-49e5-9053-f5cc920eb1d8","system_id":"levelo_inurba_marseille","lat":43.279465,"lon":5.410561,"is_reserved":false,"is_disabled":false,"rental_uris":{"android":"levelo://app?vid=830395c7-d30f-49e5-9053-f5cc920eb1d8","ios":"levelo://app?vid=830395c7-d30f-49e5-9053-f5cc920eb1d8"},"vehicle_type_id":"4","last_reported":1702760753,"current_range_meters":0,"station_id":"ce4bhnp2rcd13ifvqh0g","pricing_plan_id":"free"},{"bike_id":"0dc51663-3148-4d86-9da8-3daef286ed56","system_id":"levelo_inurba_marseille","lat":43.269319,"lon":5.389397,"is_reserved":false,"is_disabled":false,"rental_uris":{"android":"levelo://app?vid=0dc51663-3148-4d86-9da8-3daef286ed56","ios":"levelo://app?vid=0dc51663-3148-4d86-9da8-3daef286ed56"},"vehicle_type_id":"4","last_reported":1702760753,"current_range_meters":28800,"station_id":"ce4bhhh2rcd13ifvqfl0","pricing_plan_id":"free"},{"bike_id":"db774753-4382-453e-a138-c32d538f9839","system_id":"levelo_inurba_marseille","lat":43.358672,"lon":5.356739,"is_reserved":false,"is_disabled":false,"rental_uris":{"android":"levelo://app?vid=db774753-4382-453e-a138-c32d538f9839","ios":"levelo://app?vid=db774753-4382-453e-a138-c32d538f9839"},"vehicle_type_id":"4","last_reported":1702760753,"current_range_meters":11600,"station_id":"","pricing_plan_id":"free"},{"bike_id":"3ec397f0-b8da-4e84-be43-f4abb20ebecf","system_id":"levelo_inurba_marseille","lat":43.27996,"lon":5.416624,"is_reserved":false,"is_disabled":false,"rental_uris":{"android":"levelo://app?vid=3ec397f0-b8da-4e84-be43-f4abb20ebecf","ios":"levelo://app?vid=3ec397f0-b8da-4e84-be43-f4abb20ebecf"},"vehicle_type_id":"4","last_reported":1702760753,"current_range_meters":15200,"station_id":"ce4bho12rcd13ifvqh1g","pricing_plan_id":"free"},{"bike_id":"8a74afc9-c8ee-428c-95f4-83fc1e519239","system_id":"levelo_inurba_marseille","lat":43.27995,"lon":5.41677,"is_reserved":false,"is_disabled":false,"rental_uris":{"android":"levelo://app?vid=8a74afc9-c8ee-428c-95f4-83fc1e519239","ios":"levelo://app?vid=8a74afc9-c8ee-428c-95f4-83fc1e519239"},"vehicle_type_id":"4","last_reported":1702760753,"current_range_meters":2000,"station_id":"ce4bho12rcd13ifvqh1g","pricing_plan_id":"free"},{"bike_id":"107af397-48b9-46cb-a2a9-9e18bf78bd38","system_id":"levelo_inurba_marseille","lat":43.265571,"lon":5.390032,"is_reserved":false,"is_disabled":false,"rental_uris":{"android":"levelo://app?vid=107af397-48b9-46cb-a2a9-9e18bf78bd38","ios":"levelo://app?vid=107af397-48b9-46cb-a2a9-9e18bf78bd38"},"vehicle_type_id":"4","last_reported":1702760753,"current_range_meters":8800,"station_id":"ce4bhe12rcd13ifvqf30","pricing_plan_id":"free"},{"bike_id":"b795de20-d38a-4ec7-ab9e-0aafc0609b3e","system_id":"levelo_inurba_marseille","lat":43.265571,"lon":5.390032,"is_reserved":false,"is_disabled":false,"rental_uris":{"android":"levelo://app?vid=b795de20-d38a-4ec7-ab9e-0aafc0609b3e","ios":"levelo://app?vid=b795de20-d38a-4ec7-ab9e-0aafc0609b3e"},"vehicle_type_id":"4","last_reported":1702760753,"current_range_meters":2400,"station_id":"ce4bhe12rcd13ifvqf30","pricing_plan_id":"free"},{"bike_id":"9b148fe7-0ffd-4931-8c29-6e6064af2347","system_id":"levelo_inurba_marseille","lat":43.31711,"lon":5.43704,"is_reserved":false,"is_disabled":false,"rental_uris":{"android":"levelo://app?vid=9b148fe7-0ffd-4931-8c29-6e6064af2347","ios":"levelo://app?vid=9b148fe7-0ffd-4931-8c29-6e6064af2347"},"vehicle_type_id":"4","last_reported":1702760753,"current_range_meters":17600,"station_id":"ce4bhp92rcd13ifvqhcg","pricing_plan_id":"free"},{"bike_id":"cd508d17-ee53-4f00-89f2-1854417d27a3","system_id":"levelo_inurba_marseille","lat":43.31709,"lon":5.43706,"is_reserved":false,"is_disabled":false,"rental_uris":{"android":"levelo://app?vid=cd508d17-ee53-4f00-89f2-1854417d27a3","ios":"levelo://app?vid=cd508d17-ee53-4f00-89f2-1854417d27a3"},"vehicle_type_id":"4","last_reported":1702760753,"current_range_meters":400,"station_id":"ce4bhp92rcd13ifvqhcg","pricing_plan_id":"free"},{"bike_id":"6bca7f14-330c-412a-9432-6438f3451c27","system_id":"levelo_inurba_marseille","lat":43.317104,"lon":5.436818,"is_reserved":false,"is_disabled":false,"rental_uris":{"android":"levelo://app?vid=6bca7f14-330c-412a-9432-6438f3451c27","ios":"levelo://app?vid=6bca7f14-330c-412a-9432-6438f3451c27"},"vehicle_type_id":"4","last_reported":1702760753,"current_range_meters":23600,"station_id":"ce4bhp92rcd13ifvqhcg","pricing_plan_id":"free"},{"bike_id":"e3b9938b-39a5-4cb2-b320-b7d79eecd272","system_id":"levelo_inurba_marseille","lat":43.27172,"lon":5.40989,"is_reserved":false,"is_disabled":false,"rental_uris":{"android":"levelo://app?vid=e3b9938b-39a5-4cb2-b320-b7d79eecd272","ios":"levelo://app?vid=e3b9938b-39a5-4cb2-b320-b7d79eecd272"},"vehicle_type_id":"4","last_reported":1702760753,"current_range_meters":2400,"station_id":"ce4bhl12rcd13ifvqgf0","pricing_plan_id":"free"},{"bike_id":"760a757a-5fb8-4958-b892-d33306a07f6b","system_id":"levelo_inurba_marseille","lat":43.271388,"lon":5.409269,"is_reserved":false,"is_disabled":false,"rental_uris":{"android":"levelo://app?vid=760a757a-5fb8-4958-b892-d33306a07f6b","ios":"levelo://app?vid=760a757a-5fb8-4958-b892-d33306a07f6b"},"vehicle_type_id":"4","last_reported":1702760753,"current_range_meters":26000,"station_id":"ce4bhl12rcd13ifvqgf0","pricing_plan_id":"free"},{"bike_id":"fe1ec802-ae5b-406d-a6e5-80d478223c7d","system_id":"levelo_inurba_marseille","lat":43.27174,"lon":5.40994,"is_reserved":false,"is_disabled":false,"rental_uris":{"android":"levelo://app?vid=fe1ec802-ae5b-406d-a6e5-80d478223c7d","ios":"levelo://app?vid=fe1ec802-ae5b-406d-a6e5-80d478223c7d"},"vehicle_type_id":"4","last_reported":1702760753,"current_range_meters":18400,"station_id":"ce4bhl12rcd13ifvqgf0","pricing_plan_id":"free"},{"bike_id":"23548543-36f6-4965-81bf-9f36ee9d1298","system_id":"levelo_inurba_marseille","lat":43.267959,"lon":5.402687,"is_reserved":false,"is_disabled":false,"rental_uris":{"android":"levelo://app?vid=23548543-36f6-4965-81bf-9f36ee9d1298","ios":"levelo://app?vid=23548543-36f6-4965-81bf-9f36ee9d1298"},"vehicle_type_id":"4","last_reported":1702760753,"current_range_meters":24400,"station_id":"ce501612rcd8frsf0b60","pricing_plan_id":"free"},{"bike_id":"4c30ab0b-cc54-4ba6-ae72-a8fb812c2d2c","system_id":"levelo_inurba_marseille","lat":43.26501,"lon":5.39542,"is_reserved":false,"is_disabled":false,"rental_uris":{"android":"levelo://app?vid=4c30ab0b-cc54-4ba6-ae72-a8fb812c2d2c","ios":"levelo://app?vid=4c30ab0b-cc54-4ba6-ae72-a8fb812c2d2c"},"vehicle_type_id":"4","last_reported":1702760753,"current_range_meters":27200,"station_id":"","pricing_plan_id":"free"},{"bike_id":"8edd52e8-28cf-4b63-b3f1-27d9aaf14520","system_id":"levelo_inurba_marseille","lat":43.264917,"lon":5.39547,"is_reserved":false,"is_disabled":false,"rental_uris":{"android":"levelo://app?vid=8edd52e8-28cf-4b63-b3f1-27d9aaf14520","ios":"levelo://app?vid=8edd52e8-28cf-4b63-b3f1-27d9aaf14520"},"vehicle_type_id":"4","last_reported":1702760753,"current_range_meters":400,"station_id":"","pricing_plan_id":"free"},{"bike_id":"d084d587-4b27-4e47-8734-14f6d302ab83","system_id":"levelo_inurba_marseille","lat":43.298768,"lon":5.43643,"is_reserved":false,"is_disabled":false,"rental_uris":{"android":"levelo://app?vid=d084d587-4b27-4e47-8734-14f6d302ab83","ios":"levelo://app?vid=d084d587-4b27-4e47-8734-14f6d302ab83"},"vehicle_type_id":"4","last_reported":1702760753,"current_range_meters":31600,"station_id":"ce4bhpp2rcd13ifvqhfg","pricing_plan_id":"free"},{"bike_id":"4dd764f6-774c-4512-8b0e-1beb34d8f863","system_id":"levelo_inurba_marseille","lat":43.281548,"lon":5.42643,"is_reserved":false,"is_disabled":false,"rental_uris":{"android":"levelo://app?vid=4dd764f6-774c-4512-8b0e-1beb34d8f863","ios":"levelo://app?vid=4dd764f6-774c-4512-8b0e-1beb34d8f863"},"vehicle_type_id":"4","last_reported":1702760753,"current_range_meters":18400,"station_id":"ce4bhnh2rcd13ifvqgug","pricing_plan_id":"free"},{"bike_id":"71252ba5-5619-4f36-b490-0c5903f0700e","system_id":"levelo_inurba_marseille","lat":43.281548,"lon":5.42643,"is_reserved":false,"is_disabled":false,"rental_uris":{"android":"levelo://app?vid=71252ba5-5619-4f36-b490-0c5903f0700e","ios":"levelo://app?vid=71252ba5-5619-4f36-b490-0c5903f0700e"},"vehicle_type_id":"4","last_reported":1702760753,"current_range_meters":5600,"station_id":"ce4bhnh2rcd13ifvqgug","pricing_plan_id":"free"},{"bike_id":"eb72cf00-5b74-4aac-948c-e470339f3e4d","system_id":"levelo_inurba_marseille","lat":43.2607,"lon":5.393983,"is_reserved":false,"is_disabled":false,"rental_uris":{"android":"levelo://app?vid=eb72cf00-5b74-4aac-948c-e470339f3e4d","ios":"levelo://app?vid=eb72cf00-5b74-4aac-948c-e470339f3e4d"},"vehicle_type_id":"4","last_reported":1702760753,"current_range_meters":10800,"station_id":"ce4bhh92rcd13ifvqfj0","pricing_plan_id":"free"},{"bike_id":"e67adb0b-4217-4b03-8657-2f9486792d7e","system_id":"levelo_inurba_marseille","lat":43.2607,"lon":5.393983,"is_reserved":false,"is_disabled":false,"rental_uris":{"android":"levelo://app?vid=e67adb0b-4217-4b03-8657-2f9486792d7e","ios":"levelo://app?vid=e67adb0b-4217-4b03-8657-2f9486792d7e"},"vehicle_type_id":"4","last_reported":1702760753,"current_range_meters":30800,"station_id":"ce4bhh92rcd13ifvqfj0","pricing_plan_id":"free"},{"bike_id":"db9d9aee-b6eb-44e3-9707-f193d311c7b0","system_id":"levelo_inurba_marseille","lat":43.2607,"lon":5.393983,"is_reserved":false,"is_disabled":false,"rental_uris":{"android":"levelo://app?vid=db9d9aee-b6eb-44e3-9707-f193d311c7b0","ios":"levelo://app?vid=db9d9aee-b6eb-44e3-9707-f193d311c7b0"},"vehicle_type_id":"4","last_reported":1702760753,"current_range_meters":22400,"station_id":"ce4bhh92rcd13ifvqfj0","pricing_plan_id":"free"},{"bike_id":"b6836b5c-bf87-43d1-afcb-477e491235ab","system_id":"levelo_inurba_marseille","lat":43.26088,"lon":5.39758,"is_reserved":false,"is_disabled":false,"rental_uris":{"android":"levelo://app?vid=b6836b5c-bf87-43d1-afcb-477e491235ab","ios":"levelo://app?vid=b6836b5c-bf87-43d1-afcb-477e491235ab"},"vehicle_type_id":"4","last_reported":1702760753,"current_range_meters":4000,"station_id":"","pricing_plan_id":"free"},{"bike_id":"cb4aa066-0acd-450f-a854-69855bd4d7ee","system_id":"levelo_inurba_marseille","lat":43.25829,"lon":5.3943,"is_reserved":false,"is_disabled":false,"rental_uris":{"android":"levelo://app?vid=cb4aa066-0acd-450f-a854-69855bd4d7ee","ios":"levelo://app?vid=cb4aa066-0acd-450f-a854-69855bd4d7ee"},"vehicle_type_id":"4","last_reported":1702760753,"current_range_meters":28800,"station_id":"ce4bhip2rcd13ifvqft0","pricing_plan_id":"free"},{"bike_id":"306e2c26-1ee8-4490-a80b-640eb04b74f0","system_id":"levelo_inurba_marseille","lat":43.270721,"lon":5.422764,"is_reserved":false,"is_disabled":false,"rental_uris":{"android":"levelo://app?vid=306e2c26-1ee8-4490-a80b-640eb04b74f0","ios":"levelo://app?vid=306e2c26-1ee8-4490-a80b-640eb04b74f0"},"vehicle_type_id":"4","last_reported":1702760753,"current_range_meters":27200,"station_id":"ce4bhk92rcd13ifvqgb0","pricing_plan_id":"free"},{"bike_id":"6fc3d5d7-3723-4545-9a67-90b10a88454c","system_id":"levelo_inurba_marseille","lat":43.258658,"lon":5.398935,"is_reserved":false,"is_disabled":false,"rental_uris":{"android":"levelo://app?vid=6fc3d5d7-3723-4545-9a67-90b10a88454c","ios":"levelo://app?vid=6fc3d5d7-3723-4545-9a67-90b10a88454c"},"vehicle_type_id":"4","last_reported":1702760753,"current_range_meters":12400,"station_id":"ce4bhl92rcd13ifvqghg","pricing_plan_id":"free"},{"bike_id":"9d894f5d-b2c4-48c0-a759-6ebef56aa7f9","system_id":"levelo_inurba_marseille","lat":43.257079,"lon":5.411051,"is_reserved":false,"is_disabled":false,"rental_uris":{"android":"levelo://app?vid=9d894f5d-b2c4-48c0-a759-6ebef56aa7f9","ios":"levelo://app?vid=9d894f5d-b2c4-48c0-a759-6ebef56aa7f9"},"vehicle_type_id":"4","last_reported":1702760753,"current_range_meters":24000,"station_id":"ce4bhkp2rcd13ifvqgd0","pricing_plan_id":"free"},{"bike_id":"d683326c-d241-4898-b7c9-f2318fb7a6c9","system_id":"levelo_inurba_marseille","lat":43.250009,"lon":5.389195,"is_reserved":false,"is_disabled":false,"rental_uris":{"android":"levelo://app?vid=d683326c-d241-4898-b7c9-f2318fb7a6c9","ios":"levelo://app?vid=d683326c-d241-4898-b7c9-f2318fb7a6c9"},"vehicle_type_id":"4","last_reported":1702760753,"current_range_meters":12800,"station_id":"ce4bhgp2rcd13ifvqfd0","pricing_plan_id":"free"},{"bike_id":"3e2ec57e-15cb-4ced-9dd8-8ff57dfb141a","system_id":"levelo_inurba_marseille","lat":43.2479,"lon":5.374457,"is_reserved":false,"is_disabled":false,"rental_uris":{"android":"levelo://app?vid=3e2ec57e-15cb-4ced-9dd8-8ff57dfb141a","ios":"levelo://app?vid=3e2ec57e-15cb-4ced-9dd8-8ff57dfb141a"},"vehicle_type_id":"4","last_reported":1702760753,"current_range_meters":20000,"station_id":"ce4bhgh2rcd13ifvqfb0","pricing_plan_id":"free"},{"bike_id":"e0014b79-ba92-4000-8ace-b19001e260a7","system_id":"levelo_inurba_marseille","lat":43.2479,"lon":5.374457,"is_reserved":false,"is_disabled":false,"rental_uris":{"android":"levelo://app?vid=e0014b79-ba92-4000-8ace-b19001e260a7","ios":"levelo://app?vid=e0014b79-ba92-4000-8ace-b19001e260a7"},"vehicle_type_id":"4","last_reported":1702760753,"current_range_meters":16400,"station_id":"ce4bhgh2rcd13ifvqfb0","pricing_plan_id":"free"},{"bike_id":"ec80f2ee-d212-4255-95b5-c8ee4797f8bd","system_id":"levelo_inurba_marseille","lat":43.257079,"lon":5.411051,"is_reserved":false,"is_disabled":false,"rental_uris":{"android":"levelo://app?vid=ec80f2ee-d212-4255-95b5-c8ee4797f8bd","ios":"levelo://app?vid=ec80f2ee-d212-4255-95b5-c8ee4797f8bd"},"vehicle_type_id":"4","last_reported":1702760753,"current_range_meters":400,"station_id":"ce4bhkp2rcd13ifvqgd0","pricing_plan_id":"free"},{"bike_id":"cda151f2-9ad2-46c9-9115-b73ba9a06619","system_id":"levelo_inurba_marseille","lat":43.25221,"lon":5.406402,"is_reserved":false,"is_disabled":false,"rental_uris":{"android":"levelo://app?vid=cda151f2-9ad2-46c9-9115-b73ba9a06619","ios":"levelo://app?vid=cda151f2-9ad2-46c9-9115-b73ba9a06619"},"vehicle_type_id":"4","last_reported":1702760753,"current_range_meters":2800,"station_id":"","pricing_plan_id":"free"},{"bike_id":"ac3ae90b-a8df-45fb-893e-31e581feae7e","system_id":"levelo_inurba_marseille","lat":43.24693,"lon":5.382096,"is_reserved":false,"is_disabled":false,"rental_uris":{"android":"levelo://app?vid=ac3ae90b-a8df-45fb-893e-31e581feae7e","ios":"levelo://app?vid=ac3ae90b-a8df-45fb-893e-31e581feae7e"},"vehicle_type_id":"4","last_reported":1702760753,"current_range_meters":20000,"station_id":"ce4bhih2rcd13ifvqfr0","pricing_plan_id":"free"},{"bike_id":"ce8603f2-613d-4a49-b48e-937ea74704c0","system_id":"levelo_inurba_marseille","lat":43.2511,"lon":5.40321,"is_reserved":false,"is_disabled":false,"rental_uris":{"android":"levelo://app?vid=ce8603f2-613d-4a49-b48e-937ea74704c0","ios":"levelo://app?vid=ce8603f2-613d-4a49-b48e-937ea74704c0"},"vehicle_type_id":"4","last_reported":1702760753,"current_range_meters":1200,"station_id":"ce4bhlh2rcd13ifvqgig","pricing_plan_id":"free"},{"bike_id":"3626885e-e4a8-4b95-b95d-d8c15eee3c9b","system_id":"levelo_inurba_marseille","lat":43.2511,"lon":5.40323,"is_reserved":false,"is_disabled":false,"rental_uris":{"android":"levelo://app?vid=3626885e-e4a8-4b95-b95d-d8c15eee3c9b","ios":"levelo://app?vid=3626885e-e4a8-4b95-b95d-d8c15eee3c9b"},"vehicle_type_id":"4","last_reported":1702760753,"current_range_meters":4800,"station_id":"ce4bhlh2rcd13ifvqgig","pricing_plan_id":"free"},{"bike_id":"b5e16490-8faf-46c4-a2a9-78fed514e220","system_id":"levelo_inurba_marseille","lat":43.246461,"lon":5.389014,"is_reserved":false,"is_disabled":false,"rental_uris":{"android":"levelo://app?vid=b5e16490-8faf-46c4-a2a9-78fed514e220","ios":"levelo://app?vid=b5e16490-8faf-46c4-a2a9-78fed514e220"},"vehicle_type_id":"4","last_reported":1702760753,"current_range_meters":7200,"station_id":"ce4bhg12rcd13ifvqf60","pricing_plan_id":"free"},{"bike_id":"2913b0e3-c44c-49f1-ba84-d9d46d3f68b0","system_id":"levelo_inurba_marseille","lat":43.24869,"lon":5.41,"is_reserved":false,"is_disabled":false,"rental_uris":{"android":"levelo://app?vid=2913b0e3-c44c-49f1-ba84-d9d46d3f68b0","ios":"levelo://app?vid=2913b0e3-c44c-49f1-ba84-d9d46d3f68b0"},"vehicle_type_id":"4","last_reported":1702760753,"current_range_meters":17600,"station_id":"","pricing_plan_id":"free"},{"bike_id":"ee83fd25-65b9-414e-935b-7e3d2531a0b9","system_id":"levelo_inurba_marseille","lat":43.241324,"lon":5.370294,"is_reserved":false,"is_disabled":false,"rental_uris":{"android":"levelo://app?vid=ee83fd25-65b9-414e-935b-7e3d2531a0b9","ios":"levelo://app?vid=ee83fd25-65b9-414e-935b-7e3d2531a0b9"},"vehicle_type_id":"4","last_reported":1702760753,"current_range_meters":0,"station_id":"","pricing_plan_id":"free"},{"bike_id":"2733402d-b8e7-464b-9f5b-f218e46416f2","system_id":"levelo_inurba_marseille","lat":43.241782,"lon":5.397261,"is_reserved":false,"is_disabled":false,"rental_uris":{"android":"levelo://app?vid=2733402d-b8e7-464b-9f5b-f218e46416f2","ios":"levelo://app?vid=2733402d-b8e7-464b-9f5b-f218e46416f2"},"vehicle_type_id":"4","last_reported":1702760753,"current_range_meters":0,"station_id":"ce4bhn12rcd13ifvqgpg","pricing_plan_id":"free"},{"bike_id":"f5cfb89a-ce48-405c-82ee-5a941b48c540","system_id":"levelo_inurba_marseille","lat":43.23196,"lon":5.3555,"is_reserved":false,"is_disabled":false,"rental_uris":{"android":"levelo://app?vid=f5cfb89a-ce48-405c-82ee-5a941b48c540","ios":"levelo://app?vid=f5cfb89a-ce48-405c-82ee-5a941b48c540"},"vehicle_type_id":"4","last_reported":1702760753,"current_range_meters":21200,"station_id":"ce4bhu92rcd13ifvqi70","pricing_plan_id":"free"},{"bike_id":"760219ab-0887-48ce-b49e-5a40cc3afc6e","system_id":"levelo_inurba_marseille","lat":43.23196,"lon":5.35547,"is_reserved":false,"is_disabled":false,"rental_uris":{"android":"levelo://app?vid=760219ab-0887-48ce-b49e-5a40cc3afc6e","ios":"levelo://app?vid=760219ab-0887-48ce-b49e-5a40cc3afc6e"},"vehicle_type_id":"4","last_reported":1702760753,"current_range_meters":20800,"station_id":"ce4bhu92rcd13ifvqi70","pricing_plan_id":"free"},{"bike_id":"d3de5ca6-d559-43d0-8ed6-c46c756ed81c","system_id":"levelo_inurba_marseille","lat":43.23196,"lon":5.35544,"is_reserved":false,"is_disabled":false,"rental_uris":{"android":"levelo://app?vid=d3de5ca6-d559-43d0-8ed6-c46c756ed81c","ios":"levelo://app?vid=d3de5ca6-d559-43d0-8ed6-c46c756ed81c"},"vehicle_type_id":"4","last_reported":1702760753,"current_range_meters":1200,"station_id":"ce4bhu92rcd13ifvqi70","pricing_plan_id":"free"},{"bike_id":"90458881-97e2-4d19-a7dd-597c18dc1844","system_id":"levelo_inurba_marseille","lat":43.231943,"lon":5.355542,"is_reserved":false,"is_disabled":false,"rental_uris":{"android":"levelo://app?vid=90458881-97e2-4d19-a7dd-597c18dc1844","ios":"levelo://app?vid=90458881-97e2-4d19-a7dd-597c18dc1844"},"vehicle_type_id":"4","last_reported":1702760753,"current_range_meters":21200,"station_id":"ce4bhu92rcd13ifvqi70","pricing_plan_id":"free"},{"bike_id":"0914bc04-89c8-46f4-bf04-78aea5230869","system_id":"levelo_inurba_marseille","lat":43.23194,"lon":5.35549,"is_reserved":false,"is_disabled":false,"rental_uris":{"android":"levelo://app?vid=0914bc04-89c8-46f4-bf04-78aea5230869","ios":"levelo://app?vid=0914bc04-89c8-46f4-bf04-78aea5230869"},"vehicle_type_id":"4","last_reported":1702760753,"current_range_meters":28800,"station_id":"ce4bhu92rcd13ifvqi70","pricing_plan_id":"free"},{"bike_id":"c0509687-6622-44dd-a042-9b19ef27d0ea","system_id":"levelo_inurba_marseille","lat":43.231931,"lon":5.355546,"is_reserved":false,"is_disabled":false,"rental_uris":{"android":"levelo://app?vid=c0509687-6622-44dd-a042-9b19ef27d0ea","ios":"levelo://app?vid=c0509687-6622-44dd-a042-9b19ef27d0ea"},"vehicle_type_id":"4","last_reported":1702760753,"current_range_meters":30800,"station_id":"ce4bhu92rcd13ifvqi70","pricing_plan_id":"free"},{"bike_id":"c58c2105-152a-4be3-96b7-ef7d8114d5d4","system_id":"levelo_inurba_marseille","lat":43.23192,"lon":5.35554,"is_reserved":false,"is_disabled":false,"rental_uris":{"android":"levelo://app?vid=c58c2105-152a-4be3-96b7-ef7d8114d5d4","ios":"levelo://app?vid=c58c2105-152a-4be3-96b7-ef7d8114d5d4"},"vehicle_type_id":"4","last_reported":1702760753,"current_range_meters":16400,"station_id":"ce4bhu92rcd13ifvqi70","pricing_plan_id":"free"},{"bike_id":"6407938b-389d-4533-9ecb-2228594d1ac0","system_id":"levelo_inurba_marseille","lat":43.231919,"lon":5.355532,"is_reserved":false,"is_disabled":false,"rental_uris":{"android":"levelo://app?vid=6407938b-389d-4533-9ecb-2228594d1ac0","ios":"levelo://app?vid=6407938b-389d-4533-9ecb-2228594d1ac0"},"vehicle_type_id":"4","last_reported":1702760753,"current_range_meters":8800,"station_id":"ce4bhu92rcd13ifvqi70","pricing_plan_id":"free"},{"bike_id":"9b13ea6e-561a-4716-a516-c5aead357a46","system_id":"levelo_inurba_marseille","lat":43.231919,"lon":5.355532,"is_reserved":false,"is_disabled":false,"rental_uris":{"android":"levelo://app?vid=9b13ea6e-561a-4716-a516-c5aead357a46","ios":"levelo://app?vid=9b13ea6e-561a-4716-a516-c5aead357a46"},"vehicle_type_id":"4","last_reported":1702760753,"current_range_meters":20400,"station_id":"ce4bhu92rcd13ifvqi70","pricing_plan_id":"free"},{"bike_id":"be641546-dcea-4309-ad5a-32c7507f146a","system_id":"levelo_inurba_marseille","lat":43.2319,"lon":5.35553,"is_reserved":false,"is_disabled":false,"rental_uris":{"android":"levelo://app?vid=be641546-dcea-4309-ad5a-32c7507f146a","ios":"levelo://app?vid=be641546-dcea-4309-ad5a-32c7507f146a"},"vehicle_type_id":"4","last_reported":1702760753,"current_range_meters":13200,"station_id":"ce4bhu92rcd13ifvqi70","pricing_plan_id":"free"},{"bike_id":"8bde1f20-3114-431c-b2df-22d6e7b7655a","system_id":"levelo_inurba_marseille","lat":43.2319,"lon":5.3555,"is_reserved":false,"is_disabled":false,"rental_uris":{"android":"levelo://app?vid=8bde1f20-3114-431c-b2df-22d6e7b7655a","ios":"levelo://app?vid=8bde1f20-3114-431c-b2df-22d6e7b7655a"},"vehicle_type_id":"4","last_reported":1702760753,"current_range_meters":8400,"station_id":"ce4bhu92rcd13ifvqi70","pricing_plan_id":"free"},{"bike_id":"e4f94050-aae1-4821-b78a-030e7070af2a","system_id":"levelo_inurba_marseille","lat":43.231873,"lon":5.355509,"is_reserved":false,"is_disabled":false,"rental_uris":{"android":"levelo://app?vid=e4f94050-aae1-4821-b78a-030e7070af2a","ios":"levelo://app?vid=e4f94050-aae1-4821-b78a-030e7070af2a"},"vehicle_type_id":"4","last_reported":1702760753,"current_range_meters":18800,"station_id":"ce4bhu92rcd13ifvqi70","pricing_plan_id":"free"}]}}