{"last_updated":1746180647,"ttl":60,"version":"2.2","data":{"bikes":[{"bike_id":"587033e8-9114-4237-990e-deafe4f5ad79","system_id":"levelo_inurba_marseille","lat":43.24243,"lon":5.37042,"is_reserved":false,"is_disabled":true,"rental_uris":{"android":"levelo://app?vid=587033e8-9114-4237-990e-deafe4f5ad79","ios":"levelo://app?vid=587033e8-9114-4237-990e-deafe4f5ad79"},"vehicle_type_id":"4","last_reported":1746180647,"current_range_meters":0,"station_id":"","pricing_plan_id":"cebpf4jnsgd1na2vs0mg"},{"bike_id":"76c1809e-b03a-4489-8d04-2161a1946c9d","system_id":"levelo_inurba_marseille","lat":43.27959,"lon":5.37168,"is_reserved":false,"is_disabled":true,"rental_uris":{"android":"levelo://app?vid=76c1809e-b03a-4489-8d04-2161a1946c9d","ios":"levelo://app?vid=76c1809e-b03a-4489-8d04-2161a1946c9d"},"vehicle_type_id":"4","last_reported":1746180647,"current_range_meters":0,"station_id":"","pricing_plan_id":"cebpf4jnsgd1na2vs0mg"},{"bike_id":"98e592b3-5fa3-4a83-b8d7-4600d55d353f","system_id":"levelo_inurba_marseille","lat":43.24637,"lon":5.43647,"is_reserved":false,"is_disabled":true,"rental_uris":{"android":"levelo://app?vid=98e592b3-5fa3-4a83-b8d7-4600d55d353f","ios":"levelo://app?vid=98e592b3-5fa3-4a83-b8d7-4600d55d353f"},"vehicle_type_id":"4","last_reported":1746180647,"current_range_meters":0,"station_id":"","pricing_plan_id":"cebpf4jnsgd1na2vs0mg"},{"bike_id":"9c0a984a-1b5f-4318-a9b8-bb9a06857b4e","system_id":"levelo_inurba_marseille","lat":43.29613,"lon":5.36426,"is_reserved":false,"is_disabled":true,"rental_uris":{"android":"levelo://app?vid=9c0a984a-1b5f-4318-a9b8-bb9a06857b4e","ios":"levelo://app?vid=9c0a984a-1b5f-4318-a9b8-bb9a06857b4e"},"vehicle_type_id":"4","last_reported":1746180647,"current_range_meters":0,"station_id":"","pricing_plan_id":"cebpf4jnsgd1na2vs0mg"},{"bike_id":"de5e8179-b7d9-445c-86ef-4f3f2bda04a1","system_id":"levelo_inurba_marseille","lat":43.27864,"lon":5.38808,"is_reserved":false,"is_disabled":true,"rental_uris":{"android":"levelo://app?vid=de5e8179-b7d9-445c-86ef-4f3f2bda04a1","ios":"levelo://app?vid=de5e8179-b7d9-445c-86ef-4f3f2bda04a1"},"vehicle_type_id":"4","last_reported":1746180647,"current_range_meters":0,"station_id":"","pricing_plan_id":"cebpf4jnsgd1na2vs0mg"},{"bike_id":"eefa78c8-4f9d-4d38-a7d3-c880870c89cc","system_id":"levelo_inurba_marseille","lat":43.28125,"lon":5.39866,"is_reserved":false,"is_disabled":true,"rental_uris":{"android":"levelo://app?vid=eefa78c8-4f9d-4d38-a7d3-c880870c89cc","ios":"levelo://app?vid=eefa78c8-4f9d-4d38-a7d3-c880870c89cc"},"vehicle_type_id":"4","last_reported":1746180647,"current_range_meters":0,"station_id":"","pricing_plan_id":"cebpf4jnsgd1na2vs0mg"},{"bike_id":"47e647b0-bd61-4ff2-9df0-59090aaf3082","system_id":"levelo_inurba_marseille","lat":43.283495,"lon":5.381019,"is_reserved":false,"is_disabled":true,"rental_uris":{"android":"levelo://app?vid=47e647b0-bd61-4ff2-9df0-59090aaf3082","ios":"levelo://app?vid=47e647b0-bd61-4ff2-9df0-59090aaf3082"},"vehicle_type_id":"4","last_reported":1746180647,"current_range_meters":0,"station_id":"ce4bh412rcd13ifvqdr0","pricing_plan_id":"cebpf4jnsgd1na2vs0mg"},{"bike_id":"71176265-c7b8-4998-8d3d-870f806b2d09","system_id":"levelo_inurba_marseille","lat":43.2928,"lon":5.368497,"is_reserved":false,"is_disabled":true,"rental_uris":{"android":"levelo://app?vid=71176265-c7b8-4998-8d3d-870f806b2d09","ios":"levelo://app?vid=71176265-c7b8-4998-8d3d-870f806b2d09"},"vehicle_type_id":"4","last_reported":1746180647,"current_range_meters":0,"station_id":"ce4bhbp2rcd13ifvqesg","pricing_plan_id":"cebpf4jnsgd1na2vs0mg"},{"bike_id":"b5763ca5-0007-44bc-a5b3-0c57a2de852f","system_id":"levelo_inurba_marseille","lat":43.26558,"lon":5.3728,"is_reserved":false,"is_disabled":true,"rental_uris":{"android":"levelo://app?vid=b5763ca5-0007-44bc-a5b3-0c57a2de852f","ios":"levelo://app?vid=b5763ca5-0007-44bc-a5b3-0c57a2de852f"},"vehicle_type_id":"4","last_reported":1746180647,"current_range_meters":0,"station_id":"ce4bhg12rcd13ifvqf70","pricing_plan_id":"cebpf4jnsgd1na2vs0mg"},{"bike_id":"0a68e4f6-e1a4-43d6-9ce4-4ac09b145cc5","system_id":"levelo_inurba_marseille","lat":43.25503,"lon":5.37653,"is_reserved":false,"is_disabled":true,"rental_uris":{"android":"levelo://app?vid=0a68e4f6-e1a4-43d6-9ce4-4ac09b145cc5","ios":"levelo://app?vid=0a68e4f6-e1a4-43d6-9ce4-4ac09b145cc5"},"vehicle_type_id":"4","last_reported":1746180647,"current_range_meters":0,"station_id":"ce4bhh12rcd13ifvqff0","pricing_plan_id":"cebpf4jnsgd1na2vs0mg"},{"bike_id":"2a89dec0-88bb-4341-b881-c1e26599810c","system_id":"levelo_inurba_marseille","lat":43.27058,"lon":5.4025,"is_reserved":false,"is_disabled":true,"rental_uris":{"android":"levelo://app?vid=2a89dec0-88bb-4341-b881-c1e26599810c","ios":"levelo://app?vid=2a89dec0-88bb-4341-b881-c1e26599810c"},"vehicle_type_id":"4","last_reported":1746180647,"current_range_meters":0,"station_id":"ce4bhk92rcd13ifvqgc0","pricing_plan_id":"cebpf4jnsgd1na2vs0mg"},{"bike_id":"33d98296-4f12-46d6-a202-bd9fb00209d9","system_id":"levelo_inurba_marseille","lat":43.27948,"lon":5.41026,"is_reserved":false,"is_disabled":true,"rental_uris":{"android":"levelo://app?vid=33d98296-4f12-46d6-a202-bd9fb00209d9","ios":"levelo://app?vid=33d98296-4f12-46d6-a202-bd9fb00209d9"},"vehicle_type_id":"4","last_reported":1746180647,"current_range_meters":0,"station_id":"ce4bhnp2rcd13ifvqh0g","pricing_plan_id":"cebpf4jnsgd1na2vs0mg"},{"bike_id":"602f682a-9308-4cce-964d-1e33f350c1e6","system_id":"levelo_inurba_marseille","lat":43.23056,"lon":5.35488,"is_reserved":false,"is_disabled":true,"rental_uris":{"android":"levelo://app?vid=602f682a-9308-4cce-964d-1e33f350c1e6","ios":"levelo://app?vid=602f682a-9308-4cce-964d-1e33f350c1e6"},"vehicle_type_id":"4","last_reported":1746180647,"current_range_meters":0,"station_id":"cpo3342slgdg3j2ifvpg","pricing_plan_id":"cebpf4jnsgd1na2vs0mg"},{"bike_id":"3d16d992-d06e-4770-9ca9-e9ce9767e2f2","system_id":"levelo_inurba_marseille","lat":43.23065,"lon":5.35495,"is_reserved":false,"is_disabled":true,"rental_uris":{"android":"levelo://app?vid=3d16d992-d06e-4770-9ca9-e9ce9767e2f2","ios":"levelo://app?vid=3d16d992-d06e-4770-9ca9-e9ce9767e2f2"},"vehicle_type_id":"4","last_reported":1746180647,"current_range_meters":0,"station_id":"cpo3342slgdg3j2ifvpg","pricing_plan_id":"cebpf4jnsgd1na2vs0mg"},{"bike_id":"0f121d82-64f1-438c-88ad-00e9d22a0660","system_id":"levelo_inurba_marseille","lat":43.225021,"lon":5.347893,"is_reserved":false,"is_disabled":true,"rental_uris":{"android":"levelo://app?vid=0f121d82-64f1-438c-88ad-00e9d22a0660","ios":"levelo://app?vid=0f121d82-64f1-438c-88ad-00e9d22a0660"},"vehicle_type_id":"4","last_reported":1746180647,"current_range_meters":0,"station_id":"st_cvj5dfep6f1abm77gieg","pricing_plan_id":"cebpf4jnsgd1na2vs0mg"},{"bike_id":"3590e1cc-ac70-44cb-bb81-9feab4e63c21","system_id":"levelo_inurba_marseille","lat":43.212034,"lon":5.350612,"is_reserved":false,"is_disabled":true,"rental_uris":{"android":"levelo://app?vid=3590e1cc-ac70-44cb-bb81-9feab4e63c21","ios":"levelo://app?vid=3590e1cc-ac70-44cb-bb81-9feab4e63c21"},"vehicle_type_id":"4","last_reported":1746180647,"current_range_meters":0,"station_id":"st_cvj6sg6p6f1abm77japg","pricing_plan_id":"cebpf4jnsgd1na2vs0mg"},{"bike_id":"614e56ed-487c-4fa3-bbd7-86be4762437c","system_id":"levelo_inurba_marseille","lat":43.21192,"lon":5.35069,"is_reserved":false,"is_disabled":true,"rental_uris":{"android":"levelo://app?vid=614e56ed-487c-4fa3-bbd7-86be4762437c","ios":"levelo://app?vid=614e56ed-487c-4fa3-bbd7-86be4762437c"},"vehicle_type_id":"4","last_reported":1746180647,"current_range_meters":0,"station_id":"st_cvj6sg6p6f1abm77japg","pricing_plan_id":"cebpf4jnsgd1na2vs0mg"},{"bike_id":"7e5da230-cd91-4128-96e7-e0e3b6242a7e","system_id":"levelo_inurba_marseille","lat":43.21198,"lon":5.35067,"is_reserved":false,"is_disabled":true,"rental_uris":{"android":"levelo://app?vid=7e5da230-cd91-4128-96e7-e0e3b6242a7e","ios":"levelo://app?vid=7e5da230-cd91-4128-96e7-e0e3b6242a7e"},"vehicle_type_id":"4","last_reported":1746180647,"current_range_meters":0,"station_id":"st_cvj6sg6p6f1abm77japg","pricing_plan_id":"cebpf4jnsgd1na2vs0mg"},{"bike_id":"04e579c0-2fd2-45fe-a172-428af75ede67","system_id":"levelo_inurba_marseille","lat":43.211864,"lon":5.350709,"is_reserved":false,"is_disabled":true,"rental_uris":{"android":"levelo://app?vid=04e579c0-2fd2-45fe-a172-428af75ede67","ios":"levelo://app?vid=04e579c0-2fd2-45fe-a172-428af75ede67"},"vehicle_type_id":"4","last_reported":1746180647,"current_range_meters":0,"station_id":"st_cvj6sg6p6f1abm77japg","pricing_plan_id":"cebpf4jnsgd1na2vs0mg"},{"bike_id":"9be519e9-c5dd-4c53-9541-de4a191c54e5","system_id":"levelo_inurba_marseille","lat":43.21193,"lon":5.35071,"is_reserved":false,"is_disabled":true,"rental_uris":{"android":"levelo://app?vid=9be519e9-c5dd-4c53-9541-de4a191c54e5","ios":"levelo://app?vid=9be519e9-c5dd-4c53-9541-de4a191c54e5"},"vehicle_type_id":"4","last_reported":1746180647,"current_range_meters":0,"station_id":"st_cvj6sg6p6f1abm77japg","pricing_plan_id":"cebpf4jnsgd1na2vs0mg"},{"bike_id":"b933aadc-1e85-4030-924c-ff15d858f26b","system_id":"levelo_inurba_marseille","lat":43.212008,"lon":5.350671,"is_reserved":false,"is_disabled":true,"rental_uris":{"android":"levelo://app?vid=b933aadc-1e85-4030-924c-ff15d858f26b","ios":"levelo://app?vid=b933aadc-1e85-4030-924c-ff15d858f26b"},"vehicle_type_id":"4","last_reported":1746180647,"current_range_meters":0,"station_id":"st_cvj6sg6p6f1abm77japg","pricing_plan_id":"cebpf4jnsgd1na2vs0mg"},{"bike_id":"4d1468ed-133a-4bd2-8184-e5f4e79d1849","system_id":"levelo_inurba_marseille","lat":43.21203,"lon":5.35048,"is_reserved":false,"is_disabled":true,"rental_uris":{"android":"levelo://app?vid=4d1468ed-133a-4bd2-8184-e5f4e79d1849","ios":"levelo://app?vid=4d1468ed-133a-4bd2-8184-e5f4e79d1849"},"vehicle_type_id":"4","last_reported":1746180647,"current_range_meters":0,"station_id":"st_cvj6sg6p6f1abm77japg","pricing_plan_id":"cebpf4jnsgd1na2vs0mg"},{"bike_id":"e93b949e-1738-47f2-ad13-8f512df2ffaf","system_id":"levelo_inurba_marseille","lat":43.28146,"lon":5.44358,"is_reserved":false,"is_disabled":true,"rental_uris":{"android":"levelo://app?vid=e93b949e-1738-47f2-ad13-8f512df2ffaf","ios":"levelo://app?vid=e93b949e-1738-47f2-ad13-8f512df2ffaf"},"vehicle_type_id":"4","last_reported":1746180647,"current_range_meters":400,"station_id":"","pricing_plan_id":"cebpf4jnsgd1na2vs0mg"},{"bike_id":"9c0828ef-86c1-49ae-bb70-b0b0796c4684","system_id":"levelo_inurba_marseille","lat":43.297886,"lon":5.381026,"is_reserved":false,"is_disabled":true,"rental_uris":{"android":"levelo://app?vid=9c0828ef-86c1-49ae-bb70-b0b0796c4684","ios":"levelo://app?vid=9c0828ef-86c1-49ae-bb70-b0b0796c4684"},"vehicle_type_id":"4","last_reported":1746180647,"current_range_meters":800,"station_id":"ce4bgip2rcd13ifvqbb0","pricing_plan_id":"cebpf4jnsgd1na2vs0mg"},{"bike_id":"8bf11f5c-825a-42a2-aed6-62e1ae2af49b","system_id":"levelo_inurba_marseille","lat":43.292,"lon":5.35797,"is_reserved":false,"is_disabled":true,"rental_uris":{"android":"levelo://app?vid=8bf11f5c-825a-42a2-aed6-62e1ae2af49b","ios":"levelo://app?vid=8bf11f5c-825a-42a2-aed6-62e1ae2af49b"},"vehicle_type_id":"4","last_reported":1746180647,"current_range_meters":800,"station_id":"ce4bhb12rcd13ifvqel0","pricing_plan_id":"cebpf4jnsgd1na2vs0mg"},{"bike_id":"d38342f5-398c-4a46-b0fa-a851de5439dd","system_id":"levelo_inurba_marseille","lat":43.25587,"lon":5.3823,"is_reserved":false,"is_disabled":true,"rental_uris":{"android":"levelo://app?vid=d38342f5-398c-4a46-b0fa-a851de5439dd","ios":"levelo://app?vid=d38342f5-398c-4a46-b0fa-a851de5439dd"},"vehicle_type_id":"4","last_reported":1746180647,"current_range_meters":800,"station_id":"ce4bhih2rcd13ifvqfs0","pricing_plan_id":"cebpf4jnsgd1na2vs0mg"},{"bike_id":"b49108a7-3172-4071-9098-2f8360c791a2","system_id":"levelo_inurba_marseille","lat":43.29719,"lon":5.37704,"is_reserved":false,"is_disabled":true,"rental_uris":{"android":"levelo://app?vid=b49108a7-3172-4071-9098-2f8360c791a2","ios":"levelo://app?vid=b49108a7-3172-4071-9098-2f8360c791a2"},"vehicle_type_id":"4","last_reported":1746180647,"current_range_meters":1200,"station_id":"ce4bgkh2rcd13ifvqbl0","pricing_plan_id":"cebpf4jnsgd1na2vs0mg"},{"bike_id":"b699000d-4d8a-40e3-9457-b9f531006325","system_id":"levelo_inurba_marseille","lat":43.27339,"lon":5.39108,"is_reserved":false,"is_disabled":true,"rental_uris":{"android":"levelo://app?vid=b699000d-4d8a-40e3-9457-b9f531006325","ios":"levelo://app?vid=b699000d-4d8a-40e3-9457-b9f531006325"},"vehicle_type_id":"4","last_reported":1746180647,"current_range_meters":1600,"station_id":"ce4bhgp2rcd13ifvqfe0","pricing_plan_id":"cebpf4jnsgd1na2vs0mg"},{"bike_id":"b5f0b364-6a46-4f02-847f-9ae1e8960bb7","system_id":"levelo_inurba_marseille","lat":43.29557,"lon":5.42293,"is_reserved":false,"is_disabled":true,"rental_uris":{"android":"levelo://app?vid=b5f0b364-6a46-4f02-847f-9ae1e8960bb7","ios":"levelo://app?vid=b5f0b364-6a46-4f02-847f-9ae1e8960bb7"},"vehicle_type_id":"4","last_reported":1746180647,"current_range_meters":1600,"station_id":"ce4bhph2rcd13ifvqhdg","pricing_plan_id":"cebpf4jnsgd1na2vs0mg"},{"bike_id":"6a5fad6b-03ca-4e3a-977b-7e123ef2051b","system_id":"levelo_inurba_marseille","lat":43.29023,"lon":5.38629,"is_reserved":false,"is_disabled":true,"rental_uris":{"android":"levelo://app?vid=6a5fad6b-03ca-4e3a-977b-7e123ef2051b","ios":"levelo://app?vid=6a5fad6b-03ca-4e3a-977b-7e123ef2051b"},"vehicle_type_id":"4","last_reported":1746180647,"current_range_meters":2000,"station_id":"ce4bh4p2rcd13ifvqe0g","pricing_plan_id":"cebpf4jnsgd1na2vs0mg"},{"bike_id":"6eed1d58-9cc8-4266-b86a-89312474d7c9","system_id":"levelo_inurba_marseille","lat":43.241669,"lon":5.363903,"is_reserved":false,"is_disabled":false,"rental_uris":{"android":"levelo://app?vid=6eed1d58-9cc8-4266-b86a-89312474d7c9","ios":"levelo://app?vid=6eed1d58-9cc8-4266-b86a-89312474d7c9"},"vehicle_type_id":"4","last_reported":1746180647,"current_range_meters":2800,"station_id":"","pricing_plan_id":"cebpf4jnsgd1na2vs0mg"},{"bike_id":"95757094-f0a2-45e9-9856-4bf0b2fa6076","system_id":"levelo_inurba_marseille","lat":43.28468,"lon":5.3589,"is_reserved":false,"is_disabled":false,"rental_uris":{"android":"levelo://app?vid=95757094-f0a2-45e9-9856-4bf0b2fa6076","ios":"levelo://app?vid=95757094-f0a2-45e9-9856-4bf0b2fa6076"},"vehicle_type_id":"4","last_reported":1746180647,"current_range_meters":2800,"station_id":"ce4bhah2rcd13ifvqei0","pricing_plan_id":"cebpf4jnsgd1na2vs0mg"},{"bike_id":"e9fde482-3333-446e-9089-a0bae6edc27e","system_id":"levelo_inurba_marseille","lat":43.2583,"lon":5.39437,"is_reserved":false,"is_disabled":false,"rental_uris":{"android":"levelo://app?vid=e9fde482-3333-446e-9089-a0bae6edc27e","ios":"levelo://app?vid=e9fde482-3333-446e-9089-a0bae6edc27e"},"vehicle_type_id":"4","last_reported":1746180647,"current_range_meters":3600,"station_id":"ce4bhip2rcd13ifvqft0","pricing_plan_id":"cebpf4jnsgd1na2vs0mg"},{"bike_id":"8f01ddc4-f908-44d5-9f28-ffbda00058a8","system_id":"levelo_inurba_marseille","lat":43.23154,"lon":5.4371,"is_reserved":false,"is_disabled":false,"rental_uris":{"android":"levelo://app?vid=8f01ddc4-f908-44d5-9f28-ffbda00058a8","ios":"levelo://app?vid=8f01ddc4-f908-44d5-9f28-ffbda00058a8"},"vehicle_type_id":"4","last_reported":1746180647,"current_range_meters":3600,"station_id":"ce4bhmp2rcd13ifvqgog","pricing_plan_id":"cebpf4jnsgd1na2vs0mg"},{"bike_id":"215bdf6f-59e9-4581-ab6a-3306c221d929","system_id":"levelo_inurba_marseille","lat":43.24551,"lon":5.39806,"is_reserved":false,"is_disabled":false,"rental_uris":{"android":"levelo://app?vid=215bdf6f-59e9-4581-ab6a-3306c221d929","ios":"levelo://app?vid=215bdf6f-59e9-4581-ab6a-3306c221d929"},"vehicle_type_id":"4","last_reported":1746180647,"current_range_meters":4000,"station_id":"","pricing_plan_id":"cebpf4jnsgd1na2vs0mg"},{"bike_id":"f78e6e2a-8107-47fb-b969-25345ac001d6","system_id":"levelo_inurba_marseille","lat":43.300378,"lon":5.37841,"is_reserved":false,"is_disabled":false,"rental_uris":{"android":"levelo://app?vid=f78e6e2a-8107-47fb-b969-25345ac001d6","ios":"levelo://app?vid=f78e6e2a-8107-47fb-b969-25345ac001d6"},"vehicle_type_id":"4","last_reported":1746180647,"current_range_meters":4000,"station_id":"","pricing_plan_id":"cebpf4jnsgd1na2vs0mg"},{"bike_id":"feb8c9e4-5f32-461c-af4b-5231b1c53a56","system_id":"levelo_inurba_marseille","lat":43.29443,"lon":5.3976,"is_reserved":false,"is_disabled":false,"rental_uris":{"android":"levelo://app?vid=feb8c9e4-5f32-461c-af4b-5231b1c53a56","ios":"levelo://app?vid=feb8c9e4-5f32-461c-af4b-5231b1c53a56"},"vehicle_type_id":"4","last_reported":1746180647,"current_range_meters":4000,"station_id":"ce4bh3h2rcd13ifvqdo0","pricing_plan_id":"cebpf4jnsgd1na2vs0mg"},{"bike_id":"239d29f3-3f52-4413-add8-32985a50561e","system_id":"levelo_inurba_marseille","lat":43.21197,"lon":5.350685,"is_reserved":false,"is_disabled":false,"rental_uris":{"android":"levelo://app?vid=239d29f3-3f52-4413-add8-32985a50561e","ios":"levelo://app?vid=239d29f3-3f52-4413-add8-32985a50561e"},"vehicle_type_id":"4","last_reported":1746180647,"current_range_meters":4000,"station_id":"st_cvj6sg6p6f1abm77japg","pricing_plan_id":"cebpf4jnsgd1na2vs0mg"},{"bike_id":"e9bc89dc-38c1-4e0c-bd27-c2a8aceb332f","system_id":"levelo_inurba_marseille","lat":43.29202,"lon":5.39324,"is_reserved":false,"is_disabled":false,"rental_uris":{"android":"levelo://app?vid=e9bc89dc-38c1-4e0c-bd27-c2a8aceb332f","ios":"levelo://app?vid=e9bc89dc-38c1-4e0c-bd27-c2a8aceb332f"},"vehicle_type_id":"4","last_reported":1746180647,"current_range_meters":4400,"station_id":"ce4bh192rcd13ifvqdd0","pricing_plan_id":"cebpf4jnsgd1na2vs0mg"},{"bike_id":"c128a03d-9cb7-49a7-acf6-349fa0aa6173","system_id":"levelo_inurba_marseille","lat":43.2827,"lon":5.35061,"is_reserved":false,"is_disabled":false,"rental_uris":{"android":"levelo://app?vid=c128a03d-9cb7-49a7-acf6-349fa0aa6173","ios":"levelo://app?vid=c128a03d-9cb7-49a7-acf6-349fa0aa6173"},"vehicle_type_id":"4","last_reported":1746180647,"current_range_meters":4400,"station_id":"ce4bhbp2rcd13ifvqerg","pricing_plan_id":"cebpf4jnsgd1na2vs0mg"},{"bike_id":"2c8c19ce-4310-4c02-9b49-4530fa198159","system_id":"levelo_inurba_marseille","lat":43.27509,"lon":5.42458,"is_reserved":false,"is_disabled":false,"rental_uris":{"android":"levelo://app?vid=2c8c19ce-4310-4c02-9b49-4530fa198159","ios":"levelo://app?vid=2c8c19ce-4310-4c02-9b49-4530fa198159"},"vehicle_type_id":"4","last_reported":1746180647,"current_range_meters":4400,"station_id":"ce4bhn92rcd13ifvqgrg","pricing_plan_id":"cebpf4jnsgd1na2vs0mg"},{"bike_id":"41649255-c38b-42cb-ae7f-67f2787c354c","system_id":"levelo_inurba_marseille","lat":43.23775,"lon":5.43574,"is_reserved":false,"is_disabled":false,"rental_uris":{"android":"levelo://app?vid=41649255-c38b-42cb-ae7f-67f2787c354c","ios":"levelo://app?vid=41649255-c38b-42cb-ae7f-67f2787c354c"},"vehicle_type_id":"4","last_reported":1746180647,"current_range_meters":4800,"station_id":"","pricing_plan_id":"cebpf4jnsgd1na2vs0mg"},{"bike_id":"49152254-2f9d-4e76-8ecf-901a7967ac9a","system_id":"levelo_inurba_marseille","lat":43.21749,"lon":5.34601,"is_reserved":false,"is_disabled":false,"rental_uris":{"android":"levelo://app?vid=49152254-2f9d-4e76-8ecf-901a7967ac9a","ios":"levelo://app?vid=49152254-2f9d-4e76-8ecf-901a7967ac9a"},"vehicle_type_id":"4","last_reported":1746180647,"current_range_meters":4800,"station_id":"st_cvj6r9ubvosntc0bgbag","pricing_plan_id":"cebpf4jnsgd1na2vs0mg"},{"bike_id":"0b53c3dc-588d-44e2-a493-5d152abcf2e4","system_id":"levelo_inurba_marseille","lat":43.21196,"lon":5.350689,"is_reserved":false,"is_disabled":false,"rental_uris":{"android":"levelo://app?vid=0b53c3dc-588d-44e2-a493-5d152abcf2e4","ios":"levelo://app?vid=0b53c3dc-588d-44e2-a493-5d152abcf2e4"},"vehicle_type_id":"4","last_reported":1746180647,"current_range_meters":4800,"station_id":"st_cvj6sg6p6f1abm77japg","pricing_plan_id":"cebpf4jnsgd1na2vs0mg"},{"bike_id":"6e961214-9790-457f-9ea4-373e8e7d17a6","system_id":"levelo_inurba_marseille","lat":43.28175,"lon":5.44332,"is_reserved":false,"is_disabled":false,"rental_uris":{"android":"levelo://app?vid=6e961214-9790-457f-9ea4-373e8e7d17a6","ios":"levelo://app?vid=6e961214-9790-457f-9ea4-373e8e7d17a6"},"vehicle_type_id":"4","last_reported":1746180647,"current_range_meters":6400,"station_id":"","pricing_plan_id":"cebpf4jnsgd1na2vs0mg"},{"bike_id":"dfce961f-7a25-4792-93fc-42b0753c6f2d","system_id":"levelo_inurba_marseille","lat":43.24656,"lon":5.38897,"is_reserved":false,"is_disabled":false,"rental_uris":{"android":"levelo://app?vid=dfce961f-7a25-4792-93fc-42b0753c6f2d","ios":"levelo://app?vid=dfce961f-7a25-4792-93fc-42b0753c6f2d"},"vehicle_type_id":"4","last_reported":1746180647,"current_range_meters":6400,"station_id":"ce4bhg12rcd13ifvqf60","pricing_plan_id":"cebpf4jnsgd1na2vs0mg"},{"bike_id":"c13630b8-7748-4e76-993e-90d7b7c7f346","system_id":"levelo_inurba_marseille","lat":43.23143,"lon":5.43714,"is_reserved":false,"is_disabled":false,"rental_uris":{"android":"levelo://app?vid=c13630b8-7748-4e76-993e-90d7b7c7f346","ios":"levelo://app?vid=c13630b8-7748-4e76-993e-90d7b7c7f346"},"vehicle_type_id":"4","last_reported":1746180647,"current_range_meters":6400,"station_id":"ce4bhmp2rcd13ifvqgog","pricing_plan_id":"cebpf4jnsgd1na2vs0mg"},{"bike_id":"51ef9827-05d4-4f72-abc3-c6fec8c5a095","system_id":"levelo_inurba_marseille","lat":43.23149,"lon":5.43715,"is_reserved":false,"is_disabled":false,"rental_uris":{"android":"levelo://app?vid=51ef9827-05d4-4f72-abc3-c6fec8c5a095","ios":"levelo://app?vid=51ef9827-05d4-4f72-abc3-c6fec8c5a095"},"vehicle_type_id":"4","last_reported":1746180647,"current_range_meters":6800,"station_id":"ce4bhmp2rcd13ifvqgog","pricing_plan_id":"cebpf4jnsgd1na2vs0mg"},{"bike_id":"ad04a0df-293f-48e7-9a15-7887d68fd748","system_id":"levelo_inurba_marseille","lat":43.278132,"lon":5.407121,"is_reserved":false,"is_disabled":false,"rental_uris":{"android":"levelo://app?vid=ad04a0df-293f-48e7-9a15-7887d68fd748","ios":"levelo://app?vid=ad04a0df-293f-48e7-9a15-7887d68fd748"},"vehicle_type_id":"4","last_reported":1746180647,"current_range_meters":7200,"station_id":"ce4bhnh2rcd13ifvqgtg","pricing_plan_id":"cebpf4jnsgd1na2vs0mg"},{"bike_id":"d60880e2-ebe8-487b-9466-e3876088e37b","system_id":"levelo_inurba_marseille","lat":43.27815,"lon":5.4071,"is_reserved":false,"is_disabled":false,"rental_uris":{"android":"levelo://app?vid=d60880e2-ebe8-487b-9466-e3876088e37b","ios":"levelo://app?vid=d60880e2-ebe8-487b-9466-e3876088e37b"},"vehicle_type_id":"4","last_reported":1746180647,"current_range_meters":7200,"station_id":"ce4bhnh2rcd13ifvqgtg","pricing_plan_id":"cebpf4jnsgd1na2vs0mg"},{"bike_id":"44137701-96fd-466c-876b-72e95bfc3ab1","system_id":"levelo_inurba_marseille","lat":43.28149,"lon":5.426479,"is_reserved":false,"is_disabled":false,"rental_uris":{"android":"levelo://app?vid=44137701-96fd-466c-876b-72e95bfc3ab1","ios":"levelo://app?vid=44137701-96fd-466c-876b-72e95bfc3ab1"},"vehicle_type_id":"4","last_reported":1746180647,"current_range_meters":7200,"station_id":"ce4bhnh2rcd13ifvqgug","pricing_plan_id":"cebpf4jnsgd1na2vs0mg"},{"bike_id":"5cda05c5-33c9-4109-89c1-36d218dc0d5f","system_id":"levelo_inurba_marseille","lat":43.31748,"lon":5.40474,"is_reserved":false,"is_disabled":false,"rental_uris":{"android":"levelo://app?vid=5cda05c5-33c9-4109-89c1-36d218dc0d5f","ios":"levelo://app?vid=5cda05c5-33c9-4109-89c1-36d218dc0d5f"},"vehicle_type_id":"4","last_reported":1746180647,"current_range_meters":8000,"station_id":"","pricing_plan_id":"cebpf4jnsgd1na2vs0mg"},{"bike_id":"0aa85204-9aa3-4747-998e-c706c4816e06","system_id":"levelo_inurba_marseille","lat":43.29936,"lon":5.36551,"is_reserved":false,"is_disabled":false,"rental_uris":{"android":"levelo://app?vid=0aa85204-9aa3-4747-998e-c706c4816e06","ios":"levelo://app?vid=0aa85204-9aa3-4747-998e-c706c4816e06"},"vehicle_type_id":"4","last_reported":1746180647,"current_range_meters":8000,"station_id":"ce4bgm92rcd13ifvqbr0","pricing_plan_id":"cebpf4jnsgd1na2vs0mg"},{"bike_id":"0af4aa0d-0584-4252-95d9-41890d2e4e0d","system_id":"levelo_inurba_marseille","lat":43.299029,"lon":5.436613,"is_reserved":false,"is_disabled":false,"rental_uris":{"android":"levelo://app?vid=0af4aa0d-0584-4252-95d9-41890d2e4e0d","ios":"levelo://app?vid=0af4aa0d-0584-4252-95d9-41890d2e4e0d"},"vehicle_type_id":"4","last_reported":1746180647,"current_range_meters":8000,"station_id":"ce4bhpp2rcd13ifvqhfg","pricing_plan_id":"cebpf4jnsgd1na2vs0mg"},{"bike_id":"7971fe93-5f1d-4a59-8508-b415e64fcb18","system_id":"levelo_inurba_marseille","lat":43.30956,"lon":5.37404,"is_reserved":false,"is_disabled":false,"rental_uris":{"android":"levelo://app?vid=7971fe93-5f1d-4a59-8508-b415e64fcb18","ios":"levelo://app?vid=7971fe93-5f1d-4a59-8508-b415e64fcb18"},"vehicle_type_id":"4","last_reported":1746180647,"current_range_meters":8400,"station_id":"","pricing_plan_id":"cebpf4jnsgd1na2vs0mg"},{"bike_id":"e0c69642-153a-4cdf-94dd-e50d7657b75d","system_id":"levelo_inurba_marseille","lat":43.31695,"lon":5.4047,"is_reserved":false,"is_disabled":false,"rental_uris":{"android":"levelo://app?vid=e0c69642-153a-4cdf-94dd-e50d7657b75d","ios":"levelo://app?vid=e0c69642-153a-4cdf-94dd-e50d7657b75d"},"vehicle_type_id":"4","last_reported":1746180647,"current_range_meters":8400,"station_id":"ce4bh012rcd13ifvqd00","pricing_plan_id":"cebpf4jnsgd1na2vs0mg"},{"bike_id":"8fcf65fa-e503-4289-858f-113d6c6cf489","system_id":"levelo_inurba_marseille","lat":43.25717,"lon":5.41111,"is_reserved":false,"is_disabled":false,"rental_uris":{"android":"levelo://app?vid=8fcf65fa-e503-4289-858f-113d6c6cf489","ios":"levelo://app?vid=8fcf65fa-e503-4289-858f-113d6c6cf489"},"vehicle_type_id":"4","last_reported":1746180647,"current_range_meters":8400,"station_id":"ce4bhkp2rcd13ifvqgd0","pricing_plan_id":"cebpf4jnsgd1na2vs0mg"},{"bike_id":"c472255b-47ec-4400-a25e-ce383a5e4652","system_id":"levelo_inurba_marseille","lat":43.21202,"lon":5.35068,"is_reserved":false,"is_disabled":false,"rental_uris":{"android":"levelo://app?vid=c472255b-47ec-4400-a25e-ce383a5e4652","ios":"levelo://app?vid=c472255b-47ec-4400-a25e-ce383a5e4652"},"vehicle_type_id":"4","last_reported":1746180647,"current_range_meters":8400,"station_id":"st_cvj6sg6p6f1abm77japg","pricing_plan_id":"cebpf4jnsgd1na2vs0mg"},{"bike_id":"f3d36354-fb65-4d90-83eb-303e5363ade6","system_id":"levelo_inurba_marseille","lat":43.31276,"lon":5.4017,"is_reserved":false,"is_disabled":false,"rental_uris":{"android":"levelo://app?vid=f3d36354-fb65-4d90-83eb-303e5363ade6","ios":"levelo://app?vid=f3d36354-fb65-4d90-83eb-303e5363ade6"},"vehicle_type_id":"4","last_reported":1746180647,"current_range_meters":8800,"station_id":"ce4bh092rcd13ifvqd30","pricing_plan_id":"cebpf4jnsgd1na2vs0mg"},{"bike_id":"0275921f-ce6e-42c6-b9cc-724455ffabca","system_id":"levelo_inurba_marseille","lat":43.257111,"lon":5.411145,"is_reserved":false,"is_disabled":false,"rental_uris":{"android":"levelo://app?vid=0275921f-ce6e-42c6-b9cc-724455ffabca","ios":"levelo://app?vid=0275921f-ce6e-42c6-b9cc-724455ffabca"},"vehicle_type_id":"4","last_reported":1746180647,"current_range_meters":8800,"station_id":"ce4bhkp2rcd13ifvqgd0","pricing_plan_id":"cebpf4jnsgd1na2vs0mg"},{"bike_id":"f86d1595-bc23-43f0-b70b-4aabc8d8fddc","system_id":"levelo_inurba_marseille","lat":43.33606,"lon":5.410198,"is_reserved":false,"is_disabled":false,"rental_uris":{"android":"levelo://app?vid=f86d1595-bc23-43f0-b70b-4aabc8d8fddc","ios":"levelo://app?vid=f86d1595-bc23-43f0-b70b-4aabc8d8fddc"},"vehicle_type_id":"4","last_reported":1746180647,"current_range_meters":8800,"station_id":"ce4bhqh2rcd13ifvqhmg","pricing_plan_id":"cebpf4jnsgd1na2vs0mg"},{"bike_id":"4a6851f9-34fb-48f6-8387-4b9c13325bed","system_id":"levelo_inurba_marseille","lat":43.32114,"lon":5.36748,"is_reserved":false,"is_disabled":false,"rental_uris":{"android":"levelo://app?vid=4a6851f9-34fb-48f6-8387-4b9c13325bed","ios":"levelo://app?vid=4a6851f9-34fb-48f6-8387-4b9c13325bed"},"vehicle_type_id":"4","last_reported":1746180647,"current_range_meters":8800,"station_id":"ce4bhrh2rcd13ifvqhug","pricing_plan_id":"cebpf4jnsgd1na2vs0mg"},{"bike_id":"0d6c5100-7db5-44d0-b9d6-cf2b96014798","system_id":"levelo_inurba_marseille","lat":43.31,"lon":5.3752,"is_reserved":false,"is_disabled":false,"rental_uris":{"android":"levelo://app?vid=0d6c5100-7db5-44d0-b9d6-cf2b96014798","ios":"levelo://app?vid=0d6c5100-7db5-44d0-b9d6-cf2b96014798"},"vehicle_type_id":"4","last_reported":1746180647,"current_range_meters":9200,"station_id":"","pricing_plan_id":"cebpf4jnsgd1na2vs0mg"},{"bike_id":"ba1291bf-568d-477b-8e17-c284858000b8","system_id":"levelo_inurba_marseille","lat":43.30442,"lon":5.42533,"is_reserved":false,"is_disabled":false,"rental_uris":{"android":"levelo://app?vid=ba1291bf-568d-477b-8e17-c284858000b8","ios":"levelo://app?vid=ba1291bf-568d-477b-8e17-c284858000b8"},"vehicle_type_id":"4","last_reported":1746180647,"current_range_meters":9200,"station_id":"","pricing_plan_id":"cebpf4jnsgd1na2vs0mg"},{"bike_id":"b8fe2199-3c60-49a5-a8f5-3aa316c18c3c","system_id":"levelo_inurba_marseille","lat":43.28416,"lon":5.34995,"is_reserved":false,"is_disabled":false,"rental_uris":{"android":"levelo://app?vid=b8fe2199-3c60-49a5-a8f5-3aa316c18c3c","ios":"levelo://app?vid=b8fe2199-3c60-49a5-a8f5-3aa316c18c3c"},"vehicle_type_id":"4","last_reported":1746180647,"current_range_meters":9200,"station_id":"ce4bhbh2rcd13ifvqepg","pricing_plan_id":"cebpf4jnsgd1na2vs0mg"},{"bike_id":"9746e48e-6df5-4112-baab-86cbf625be80","system_id":"levelo_inurba_marseille","lat":43.26207,"lon":5.37919,"is_reserved":false,"is_disabled":false,"rental_uris":{"android":"levelo://app?vid=9746e48e-6df5-4112-baab-86cbf625be80","ios":"levelo://app?vid=9746e48e-6df5-4112-baab-86cbf625be80"},"vehicle_type_id":"4","last_reported":1746180647,"current_range_meters":9200,"station_id":"ce4bhjp2rcd13ifvqg90","pricing_plan_id":"cebpf4jnsgd1na2vs0mg"},{"bike_id":"8dbab95a-dc66-4cee-9b9f-aedb2f3c3ffc","system_id":"levelo_inurba_marseille","lat":43.21192,"lon":5.35071,"is_reserved":false,"is_disabled":false,"rental_uris":{"android":"levelo://app?vid=8dbab95a-dc66-4cee-9b9f-aedb2f3c3ffc","ios":"levelo://app?vid=8dbab95a-dc66-4cee-9b9f-aedb2f3c3ffc"},"vehicle_type_id":"4","last_reported":1746180647,"current_range_meters":9200,"station_id":"st_cvj6sg6p6f1abm77japg","pricing_plan_id":"cebpf4jnsgd1na2vs0mg"},{"bike_id":"69c82f7a-0875-4beb-a665-580a98df66c1","system_id":"levelo_inurba_marseille","lat":43.31072,"lon":5.38334,"is_reserved":false,"is_disabled":false,"rental_uris":{"android":"levelo://app?vid=69c82f7a-0875-4beb-a665-580a98df66c1","ios":"levelo://app?vid=69c82f7a-0875-4beb-a665-580a98df66c1"},"vehicle_type_id":"4","last_reported":1746180647,"current_range_meters":9600,"station_id":"ce4bgv92rcd13ifvqcr0","pricing_plan_id":"cebpf4jnsgd1na2vs0mg"},{"bike_id":"35b21c6c-5122-463d-a9e6-32bd9ba79a46","system_id":"levelo_inurba_marseille","lat":43.23151,"lon":5.43716,"is_reserved":false,"is_disabled":false,"rental_uris":{"android":"levelo://app?vid=35b21c6c-5122-463d-a9e6-32bd9ba79a46","ios":"levelo://app?vid=35b21c6c-5122-463d-a9e6-32bd9ba79a46"},"vehicle_type_id":"4","last_reported":1746180647,"current_range_meters":9600,"station_id":"ce4bhmp2rcd13ifvqgog","pricing_plan_id":"cebpf4jnsgd1na2vs0mg"},{"bike_id":"fd07a340-a32b-44cc-824b-9474cc171177","system_id":"levelo_inurba_marseille","lat":43.28157,"lon":5.42624,"is_reserved":false,"is_disabled":false,"rental_uris":{"android":"levelo://app?vid=fd07a340-a32b-44cc-824b-9474cc171177","ios":"levelo://app?vid=fd07a340-a32b-44cc-824b-9474cc171177"},"vehicle_type_id":"4","last_reported":1746180647,"current_range_meters":9600,"station_id":"ce4bhnh2rcd13ifvqgug","pricing_plan_id":"cebpf4jnsgd1na2vs0mg"},{"bike_id":"c228c08b-041f-4c3a-a622-1775975aa57a","system_id":"levelo_inurba_marseille","lat":43.3015,"lon":5.39871,"is_reserved":false,"is_disabled":false,"rental_uris":{"android":"levelo://app?vid=c228c08b-041f-4c3a-a622-1775975aa57a","ios":"levelo://app?vid=c228c08b-041f-4c3a-a622-1775975aa57a"},"vehicle_type_id":"4","last_reported":1746180647,"current_range_meters":10000,"station_id":"ce4bh0h2rcd13ifvqd40","pricing_plan_id":"cebpf4jnsgd1na2vs0mg"},{"bike_id":"045b2767-67d3-41b7-8618-6d27646a5585","system_id":"levelo_inurba_marseille","lat":43.315889,"lon":5.387728,"is_reserved":false,"is_disabled":false,"rental_uris":{"android":"levelo://app?vid=045b2767-67d3-41b7-8618-6d27646a5585","ios":"levelo://app?vid=045b2767-67d3-41b7-8618-6d27646a5585"},"vehicle_type_id":"4","last_reported":1746180647,"current_range_meters":10800,"station_id":"","pricing_plan_id":"cebpf4jnsgd1na2vs0mg"},{"bike_id":"973a7657-e77d-445d-aae5-0e110dcc78f8","system_id":"levelo_inurba_marseille","lat":43.29262,"lon":5.37614,"is_reserved":false,"is_disabled":false,"rental_uris":{"android":"levelo://app?vid=973a7657-e77d-445d-aae5-0e110dcc78f8","ios":"levelo://app?vid=973a7657-e77d-445d-aae5-0e110dcc78f8"},"vehicle_type_id":"4","last_reported":1746180647,"current_range_meters":10800,"station_id":"ce4bgi12rcd13ifvqb80","pricing_plan_id":"cebpf4jnsgd1na2vs0mg"},{"bike_id":"cc85ce80-7a6e-479d-9209-6d15b127dfc7","system_id":"levelo_inurba_marseille","lat":43.29893,"lon":5.43673,"is_reserved":false,"is_disabled":false,"rental_uris":{"android":"levelo://app?vid=cc85ce80-7a6e-479d-9209-6d15b127dfc7","ios":"levelo://app?vid=cc85ce80-7a6e-479d-9209-6d15b127dfc7"},"vehicle_type_id":"4","last_reported":1746180647,"current_range_meters":10800,"station_id":"ce4bhpp2rcd13ifvqhfg","pricing_plan_id":"cebpf4jnsgd1na2vs0mg"},{"bike_id":"c0859642-7259-4437-8085-79fcf563f48f","system_id":"levelo_inurba_marseille","lat":43.28728,"lon":5.36096,"is_reserved":false,"is_disabled":false,"rental_uris":{"android":"levelo://app?vid=c0859642-7259-4437-8085-79fcf563f48f","ios":"levelo://app?vid=c0859642-7259-4437-8085-79fcf563f48f"},"vehicle_type_id":"4","last_reported":1746180647,"current_range_meters":10800,"station_id":"cki0cbj6b192h4jlfktg","pricing_plan_id":"cebpf4jnsgd1na2vs0mg"},{"bike_id":"4cc2b011-81f2-4910-af9d-0052ec928815","system_id":"levelo_inurba_marseille","lat":43.30395,"lon":5.42477,"is_reserved":false,"is_disabled":false,"rental_uris":{"android":"levelo://app?vid=4cc2b011-81f2-4910-af9d-0052ec928815","ios":"levelo://app?vid=4cc2b011-81f2-4910-af9d-0052ec928815"},"vehicle_type_id":"4","last_reported":1746180647,"current_range_meters":11200,"station_id":"ce4bghh2rcd13ifvqb60","pricing_plan_id":"cebpf4jnsgd1na2vs0mg"},{"bike_id":"d5ed7a16-1d5d-407a-9cf6-8907665227a2","system_id":"levelo_inurba_marseille","lat":43.284177,"lon":5.349886,"is_reserved":false,"is_disabled":false,"rental_uris":{"android":"levelo://app?vid=d5ed7a16-1d5d-407a-9cf6-8907665227a2","ios":"levelo://app?vid=d5ed7a16-1d5d-407a-9cf6-8907665227a2"},"vehicle_type_id":"4","last_reported":1746180647,"current_range_meters":11200,"station_id":"ce4bhbh2rcd13ifvqepg","pricing_plan_id":"cebpf4jnsgd1na2vs0mg"},{"bike_id":"65f7249d-3a1e-4bfd-ae80-71ccfcb8f11c","system_id":"levelo_inurba_marseille","lat":43.28616,"lon":5.35105,"is_reserved":false,"is_disabled":false,"rental_uris":{"android":"levelo://app?vid=65f7249d-3a1e-4bfd-ae80-71ccfcb8f11c","ios":"levelo://app?vid=65f7249d-3a1e-4bfd-ae80-71ccfcb8f11c"},"vehicle_type_id":"4","last_reported":1746180647,"current_range_meters":11200,"station_id":"ce4bhch2rcd13ifvqeug","pricing_plan_id":"cebpf4jnsgd1na2vs0mg"},{"bike_id":"c7219f80-7a96-4e5b-93c5-4cd1c62e662c","system_id":"levelo_inurba_marseille","lat":43.26192,"lon":5.37445,"is_reserved":false,"is_disabled":false,"rental_uris":{"android":"levelo://app?vid=c7219f80-7a96-4e5b-93c5-4cd1c62e662c","ios":"levelo://app?vid=c7219f80-7a96-4e5b-93c5-4cd1c62e662c"},"vehicle_type_id":"4","last_reported":1746180647,"current_range_meters":11200,"station_id":"ce4bhgp2rcd13ifvqfc0","pricing_plan_id":"cebpf4jnsgd1na2vs0mg"},{"bike_id":"09e7f123-d853-49cd-94e0-92f4fea320bc","system_id":"levelo_inurba_marseille","lat":43.28417,"lon":5.34994,"is_reserved":false,"is_disabled":false,"rental_uris":{"android":"levelo://app?vid=09e7f123-d853-49cd-94e0-92f4fea320bc","ios":"levelo://app?vid=09e7f123-d853-49cd-94e0-92f4fea320bc"},"vehicle_type_id":"4","last_reported":1746180647,"current_range_meters":11600,"station_id":"ce4bhbh2rcd13ifvqepg","pricing_plan_id":"cebpf4jnsgd1na2vs0mg"},{"bike_id":"6c71d348-44ab-4a58-bc20-e31bb450a972","system_id":"levelo_inurba_marseille","lat":43.27672,"lon":5.38884,"is_reserved":false,"is_disabled":false,"rental_uris":{"android":"levelo://app?vid=6c71d348-44ab-4a58-bc20-e31bb450a972","ios":"levelo://app?vid=6c71d348-44ab-4a58-bc20-e31bb450a972"},"vehicle_type_id":"4","last_reported":1746180647,"current_range_meters":11600,"station_id":"ce4bhi12rcd13ifvqfo0","pricing_plan_id":"cebpf4jnsgd1na2vs0mg"},{"bike_id":"5d2d60f3-7fa3-45f7-bc34-202767d70978","system_id":"levelo_inurba_marseille","lat":43.28617,"lon":5.35107,"is_reserved":false,"is_disabled":false,"rental_uris":{"android":"levelo://app?vid=5d2d60f3-7fa3-45f7-bc34-202767d70978","ios":"levelo://app?vid=5d2d60f3-7fa3-45f7-bc34-202767d70978"},"vehicle_type_id":"4","last_reported":1746180647,"current_range_meters":12000,"station_id":"ce4bhch2rcd13ifvqeug","pricing_plan_id":"cebpf4jnsgd1na2vs0mg"},{"bike_id":"7bd7c79e-5190-4568-b102-e02604e33904","system_id":"levelo_inurba_marseille","lat":43.33928,"lon":5.37251,"is_reserved":false,"is_disabled":false,"rental_uris":{"android":"levelo://app?vid=7bd7c79e-5190-4568-b102-e02604e33904","ios":"levelo://app?vid=7bd7c79e-5190-4568-b102-e02604e33904"},"vehicle_type_id":"4","last_reported":1746180647,"current_range_meters":12400,"station_id":"","pricing_plan_id":"cebpf4jnsgd1na2vs0mg"},{"bike_id":"bd9c3b95-cd8a-4b3b-a6f5-5d346f9272e9","system_id":"levelo_inurba_marseille","lat":43.30145,"lon":5.38085,"is_reserved":false,"is_disabled":false,"rental_uris":{"android":"levelo://app?vid=bd9c3b95-cd8a-4b3b-a6f5-5d346f9272e9","ios":"levelo://app?vid=bd9c3b95-cd8a-4b3b-a6f5-5d346f9272e9"},"vehicle_type_id":"4","last_reported":1746180647,"current_range_meters":12400,"station_id":"ce4bgjp2rcd13ifvqbh0","pricing_plan_id":"cebpf4jnsgd1na2vs0mg"},{"bike_id":"d660e045-839a-415d-9393-6c7d65a69491","system_id":"levelo_inurba_marseille","lat":43.30133,"lon":5.37425,"is_reserved":false,"is_disabled":false,"rental_uris":{"android":"levelo://app?vid=d660e045-839a-415d-9393-6c7d65a69491","ios":"levelo://app?vid=d660e045-839a-415d-9393-6c7d65a69491"},"vehicle_type_id":"4","last_reported":1746180647,"current_range_meters":12400,"station_id":"ce4bgs92rcd13ifvqcc0","pricing_plan_id":"cebpf4jnsgd1na2vs0mg"},{"bike_id":"f1d0a8b5-4a42-477b-96a3-af9e9b8fa843","system_id":"levelo_inurba_marseille","lat":43.2944,"lon":5.39757,"is_reserved":false,"is_disabled":false,"rental_uris":{"android":"levelo://app?vid=f1d0a8b5-4a42-477b-96a3-af9e9b8fa843","ios":"levelo://app?vid=f1d0a8b5-4a42-477b-96a3-af9e9b8fa843"},"vehicle_type_id":"4","last_reported":1746180647,"current_range_meters":12800,"station_id":"ce4bh3h2rcd13ifvqdo0","pricing_plan_id":"cebpf4jnsgd1na2vs0mg"},{"bike_id":"6624bb77-d1a3-4f9f-946c-9920b5760c62","system_id":"levelo_inurba_marseille","lat":43.292185,"lon":5.360615,"is_reserved":false,"is_disabled":false,"rental_uris":{"android":"levelo://app?vid=6624bb77-d1a3-4f9f-946c-9920b5760c62","ios":"levelo://app?vid=6624bb77-d1a3-4f9f-946c-9920b5760c62"},"vehicle_type_id":"4","last_reported":1746180647,"current_range_meters":12800,"station_id":"ce4bhbh2rcd13ifvqeqg","pricing_plan_id":"cebpf4jnsgd1na2vs0mg"},{"bike_id":"dbea7e60-3091-4bd7-941f-a79605dd43ad","system_id":"levelo_inurba_marseille","lat":43.23163,"lon":5.43693,"is_reserved":false,"is_disabled":false,"rental_uris":{"android":"levelo://app?vid=dbea7e60-3091-4bd7-941f-a79605dd43ad","ios":"levelo://app?vid=dbea7e60-3091-4bd7-941f-a79605dd43ad"},"vehicle_type_id":"4","last_reported":1746180647,"current_range_meters":12800,"station_id":"ce4bhmp2rcd13ifvqgog","pricing_plan_id":"cebpf4jnsgd1na2vs0mg"},{"bike_id":"43ad117d-8a47-47bc-a08e-ddf7b33a74c8","system_id":"levelo_inurba_marseille","lat":43.32349,"lon":5.36738,"is_reserved":false,"is_disabled":false,"rental_uris":{"android":"levelo://app?vid=43ad117d-8a47-47bc-a08e-ddf7b33a74c8","ios":"levelo://app?vid=43ad117d-8a47-47bc-a08e-ddf7b33a74c8"},"vehicle_type_id":"4","last_reported":1746180647,"current_range_meters":12800,"station_id":"ce4bhsh2rcd13ifvqi2g","pricing_plan_id":"cebpf4jnsgd1na2vs0mg"},{"bike_id":"11cdb95c-996a-413c-9a5f-8f58dee7317d","system_id":"levelo_inurba_marseille","lat":43.29047,"lon":5.3997,"is_reserved":false,"is_disabled":false,"rental_uris":{"android":"levelo://app?vid=11cdb95c-996a-413c-9a5f-8f58dee7317d","ios":"levelo://app?vid=11cdb95c-996a-413c-9a5f-8f58dee7317d"},"vehicle_type_id":"4","last_reported":1746180647,"current_range_meters":13600,"station_id":"","pricing_plan_id":"cebpf4jnsgd1na2vs0mg"},{"bike_id":"5b91057a-8b2e-4c76-ab2a-a07382ccf275","system_id":"levelo_inurba_marseille","lat":43.27221,"lon":5.40998,"is_reserved":false,"is_disabled":false,"rental_uris":{"android":"levelo://app?vid=5b91057a-8b2e-4c76-ab2a-a07382ccf275","ios":"levelo://app?vid=5b91057a-8b2e-4c76-ab2a-a07382ccf275"},"vehicle_type_id":"4","last_reported":1746180647,"current_range_meters":13600,"station_id":"","pricing_plan_id":"cebpf4jnsgd1na2vs0mg"},{"bike_id":"90db1c16-964a-42c2-ab95-b5ad6ac8079b","system_id":"levelo_inurba_marseille","lat":43.26553,"lon":5.37283,"is_reserved":false,"is_disabled":false,"rental_uris":{"android":"levelo://app?vid=90db1c16-964a-42c2-ab95-b5ad6ac8079b","ios":"levelo://app?vid=90db1c16-964a-42c2-ab95-b5ad6ac8079b"},"vehicle_type_id":"4","last_reported":1746180647,"current_range_meters":13600,"station_id":"ce4bhg12rcd13ifvqf70","pricing_plan_id":"cebpf4jnsgd1na2vs0mg"},{"bike_id":"bf0ded13-567f-4376-9241-fab3660dc401","system_id":"levelo_inurba_marseille","lat":43.23154,"lon":5.43698,"is_reserved":false,"is_disabled":false,"rental_uris":{"android":"levelo://app?vid=bf0ded13-567f-4376-9241-fab3660dc401","ios":"levelo://app?vid=bf0ded13-567f-4376-9241-fab3660dc401"},"vehicle_type_id":"4","last_reported":1746180647,"current_range_meters":13600,"station_id":"ce4bhmp2rcd13ifvqgog","pricing_plan_id":"cebpf4jnsgd1na2vs0mg"},{"bike_id":"a6fc600f-eba0-4cf7-9676-cca2c3753e04","system_id":"levelo_inurba_marseille","lat":43.23182,"lon":5.3999,"is_reserved":false,"is_disabled":false,"rental_uris":{"android":"levelo://app?vid=a6fc600f-eba0-4cf7-9676-cca2c3753e04","ios":"levelo://app?vid=a6fc600f-eba0-4cf7-9676-cca2c3753e04"},"vehicle_type_id":"4","last_reported":1746180647,"current_range_meters":13600,"station_id":"ce4bhn12rcd13ifvqgqg","pricing_plan_id":"cebpf4jnsgd1na2vs0mg"},{"bike_id":"03f5b910-d1d5-49c8-a7a4-67a333daaa2e","system_id":"levelo_inurba_marseille","lat":43.32534,"lon":5.41435,"is_reserved":false,"is_disabled":false,"rental_uris":{"android":"levelo://app?vid=03f5b910-d1d5-49c8-a7a4-67a333daaa2e","ios":"levelo://app?vid=03f5b910-d1d5-49c8-a7a4-67a333daaa2e"},"vehicle_type_id":"4","last_reported":1746180647,"current_range_meters":13600,"station_id":"ce4bhq12rcd13ifvqhhg","pricing_plan_id":"cebpf4jnsgd1na2vs0mg"},{"bike_id":"6bfeb9b2-164f-427d-9149-5e972e6acd3c","system_id":"levelo_inurba_marseille","lat":43.29581,"lon":5.36732,"is_reserved":false,"is_disabled":false,"rental_uris":{"android":"levelo://app?vid=6bfeb9b2-164f-427d-9149-5e972e6acd3c","ios":"levelo://app?vid=6bfeb9b2-164f-427d-9149-5e972e6acd3c"},"vehicle_type_id":"4","last_reported":1746180647,"current_range_meters":14000,"station_id":"ce4bgph2rcd13ifvqc2g","pricing_plan_id":"cebpf4jnsgd1na2vs0mg"},{"bike_id":"58ab4ed0-a69d-4f56-9f56-2c2bfa67cab2","system_id":"levelo_inurba_marseille","lat":43.28148,"lon":5.42645,"is_reserved":false,"is_disabled":false,"rental_uris":{"android":"levelo://app?vid=58ab4ed0-a69d-4f56-9f56-2c2bfa67cab2","ios":"levelo://app?vid=58ab4ed0-a69d-4f56-9f56-2c2bfa67cab2"},"vehicle_type_id":"4","last_reported":1746180647,"current_range_meters":14000,"station_id":"ce4bhnh2rcd13ifvqgug","pricing_plan_id":"cebpf4jnsgd1na2vs0mg"},{"bike_id":"8e8d7aa0-3d17-4549-b737-bab8e3c63e82","system_id":"levelo_inurba_marseille","lat":43.28701,"lon":5.39993,"is_reserved":false,"is_disabled":false,"rental_uris":{"android":"levelo://app?vid=8e8d7aa0-3d17-4549-b737-bab8e3c63e82","ios":"levelo://app?vid=8e8d7aa0-3d17-4549-b737-bab8e3c63e82"},"vehicle_type_id":"4","last_reported":1746180647,"current_range_meters":14000,"station_id":"ce4bho92rcd13ifvqh3g","pricing_plan_id":"cebpf4jnsgd1na2vs0mg"},{"bike_id":"00e66528-d941-4c40-89b5-cba3fcddc0ff","system_id":"levelo_inurba_marseille","lat":43.21189,"lon":5.35066,"is_reserved":false,"is_disabled":false,"rental_uris":{"android":"levelo://app?vid=00e66528-d941-4c40-89b5-cba3fcddc0ff","ios":"levelo://app?vid=00e66528-d941-4c40-89b5-cba3fcddc0ff"},"vehicle_type_id":"4","last_reported":1746180647,"current_range_meters":14000,"station_id":"st_cvj6sg6p6f1abm77japg","pricing_plan_id":"cebpf4jnsgd1na2vs0mg"},{"bike_id":"cdffe8fb-5e87-4eea-9d91-cbcec8c875bd","system_id":"levelo_inurba_marseille","lat":43.2749,"lon":5.4246,"is_reserved":false,"is_disabled":false,"rental_uris":{"android":"levelo://app?vid=cdffe8fb-5e87-4eea-9d91-cbcec8c875bd","ios":"levelo://app?vid=cdffe8fb-5e87-4eea-9d91-cbcec8c875bd"},"vehicle_type_id":"4","last_reported":1746180647,"current_range_meters":14400,"station_id":"ce4bhn92rcd13ifvqgrg","pricing_plan_id":"cebpf4jnsgd1na2vs0mg"},{"bike_id":"924ebe6f-d3da-412d-b51d-9e4065478efe","system_id":"levelo_inurba_marseille","lat":43.325415,"lon":5.414491,"is_reserved":false,"is_disabled":false,"rental_uris":{"android":"levelo://app?vid=924ebe6f-d3da-412d-b51d-9e4065478efe","ios":"levelo://app?vid=924ebe6f-d3da-412d-b51d-9e4065478efe"},"vehicle_type_id":"4","last_reported":1746180647,"current_range_meters":14400,"station_id":"ce4bhq12rcd13ifvqhhg","pricing_plan_id":"cebpf4jnsgd1na2vs0mg"},{"bike_id":"8630f9ea-a984-4982-b86a-6284e977c3d3","system_id":"levelo_inurba_marseille","lat":43.32486,"lon":5.36562,"is_reserved":false,"is_disabled":false,"rental_uris":{"android":"levelo://app?vid=8630f9ea-a984-4982-b86a-6284e977c3d3","ios":"levelo://app?vid=8630f9ea-a984-4982-b86a-6284e977c3d3"},"vehicle_type_id":"4","last_reported":1746180647,"current_range_meters":14400,"station_id":"ce4bhs12rcd13ifvqhvg","pricing_plan_id":"cebpf4jnsgd1na2vs0mg"},{"bike_id":"ce57c2ce-1e48-44c1-98b8-6d81a2a95a4d","system_id":"levelo_inurba_marseille","lat":43.28475,"lon":5.3842,"is_reserved":false,"is_disabled":false,"rental_uris":{"android":"levelo://app?vid=ce57c2ce-1e48-44c1-98b8-6d81a2a95a4d","ios":"levelo://app?vid=ce57c2ce-1e48-44c1-98b8-6d81a2a95a4d"},"vehicle_type_id":"4","last_reported":1746180647,"current_range_meters":14800,"station_id":"ce4bh512rcd13ifvqe3g","pricing_plan_id":"cebpf4jnsgd1na2vs0mg"},{"bike_id":"5ce5a92f-2072-4e8c-8483-5f453ebe476a","system_id":"levelo_inurba_marseille","lat":43.23153,"lon":5.43701,"is_reserved":false,"is_disabled":false,"rental_uris":{"android":"levelo://app?vid=5ce5a92f-2072-4e8c-8483-5f453ebe476a","ios":"levelo://app?vid=5ce5a92f-2072-4e8c-8483-5f453ebe476a"},"vehicle_type_id":"4","last_reported":1746180647,"current_range_meters":14800,"station_id":"ce4bhmp2rcd13ifvqgog","pricing_plan_id":"cebpf4jnsgd1na2vs0mg"},{"bike_id":"5779d105-094b-4ec4-b217-7f01d7fd6044","system_id":"levelo_inurba_marseille","lat":43.23159,"lon":5.43695,"is_reserved":false,"is_disabled":false,"rental_uris":{"android":"levelo://app?vid=5779d105-094b-4ec4-b217-7f01d7fd6044","ios":"levelo://app?vid=5779d105-094b-4ec4-b217-7f01d7fd6044"},"vehicle_type_id":"4","last_reported":1746180647,"current_range_meters":14800,"station_id":"ce4bhmp2rcd13ifvqgog","pricing_plan_id":"cebpf4jnsgd1na2vs0mg"},{"bike_id":"b0bc2427-6b0a-44ef-ae17-e02b21e38daa","system_id":"levelo_inurba_marseille","lat":43.30124,"lon":5.38102,"is_reserved":false,"is_disabled":false,"rental_uris":{"android":"levelo://app?vid=b0bc2427-6b0a-44ef-ae17-e02b21e38daa","ios":"levelo://app?vid=b0bc2427-6b0a-44ef-ae17-e02b21e38daa"},"vehicle_type_id":"4","last_reported":1746180647,"current_range_meters":15200,"station_id":"ce4bgjp2rcd13ifvqbh0","pricing_plan_id":"cebpf4jnsgd1na2vs0mg"},{"bike_id":"a9960abe-c106-4119-9876-82478185e949","system_id":"levelo_inurba_marseille","lat":43.23163,"lon":5.43718,"is_reserved":false,"is_disabled":false,"rental_uris":{"android":"levelo://app?vid=a9960abe-c106-4119-9876-82478185e949","ios":"levelo://app?vid=a9960abe-c106-4119-9876-82478185e949"},"vehicle_type_id":"4","last_reported":1746180647,"current_range_meters":15200,"station_id":"ce4bhmp2rcd13ifvqgog","pricing_plan_id":"cebpf4jnsgd1na2vs0mg"},{"bike_id":"da658829-0fa2-41f3-ad48-9d30aae08333","system_id":"levelo_inurba_marseille","lat":43.3058,"lon":5.3991,"is_reserved":false,"is_disabled":false,"rental_uris":{"android":"levelo://app?vid=da658829-0fa2-41f3-ad48-9d30aae08333","ios":"levelo://app?vid=da658829-0fa2-41f3-ad48-9d30aae08333"},"vehicle_type_id":"4","last_reported":1746180647,"current_range_meters":16000,"station_id":"","pricing_plan_id":"cebpf4jnsgd1na2vs0mg"},{"bike_id":"c3ba8556-56b2-4c22-8368-400c19b7f33e","system_id":"levelo_inurba_marseille","lat":43.2953,"lon":5.38554,"is_reserved":false,"is_disabled":false,"rental_uris":{"android":"levelo://app?vid=c3ba8556-56b2-4c22-8368-400c19b7f33e","ios":"levelo://app?vid=c3ba8556-56b2-4c22-8368-400c19b7f33e"},"vehicle_type_id":"4","last_reported":1746180647,"current_range_meters":16000,"station_id":"ce4bgih2rcd13ifvqba0","pricing_plan_id":"cebpf4jnsgd1na2vs0mg"},{"bike_id":"3b810405-1b2d-44a2-a84c-91984c382e79","system_id":"levelo_inurba_marseille","lat":43.29969,"lon":5.38483,"is_reserved":false,"is_disabled":false,"rental_uris":{"android":"levelo://app?vid=3b810405-1b2d-44a2-a84c-91984c382e79","ios":"levelo://app?vid=3b810405-1b2d-44a2-a84c-91984c382e79"},"vehicle_type_id":"4","last_reported":1746180647,"current_range_meters":16000,"station_id":"ce4bgj92rcd13ifvqbd0","pricing_plan_id":"cebpf4jnsgd1na2vs0mg"},{"bike_id":"ce3d62e0-9c70-41db-92e9-cb33a27d6140","system_id":"levelo_inurba_marseille","lat":43.2887,"lon":5.35861,"is_reserved":false,"is_disabled":false,"rental_uris":{"android":"levelo://app?vid=ce3d62e0-9c70-41db-92e9-cb33a27d6140","ios":"levelo://app?vid=ce3d62e0-9c70-41db-92e9-cb33a27d6140"},"vehicle_type_id":"4","last_reported":1746180647,"current_range_meters":16000,"station_id":"ce4bhb12rcd13ifvqem0","pricing_plan_id":"cebpf4jnsgd1na2vs0mg"},{"bike_id":"d57ceeb4-658c-4800-b715-74c84fbd026e","system_id":"levelo_inurba_marseille","lat":43.27369,"lon":5.36261,"is_reserved":false,"is_disabled":false,"rental_uris":{"android":"levelo://app?vid=d57ceeb4-658c-4800-b715-74c84fbd026e","ios":"levelo://app?vid=d57ceeb4-658c-4800-b715-74c84fbd026e"},"vehicle_type_id":"4","last_reported":1746180647,"current_range_meters":16000,"station_id":"ce4bhbh2rcd13ifvqeo0","pricing_plan_id":"cebpf4jnsgd1na2vs0mg"},{"bike_id":"196189c2-b182-4f79-80f4-32191e993125","system_id":"levelo_inurba_marseille","lat":43.26195,"lon":5.37448,"is_reserved":false,"is_disabled":false,"rental_uris":{"android":"levelo://app?vid=196189c2-b182-4f79-80f4-32191e993125","ios":"levelo://app?vid=196189c2-b182-4f79-80f4-32191e993125"},"vehicle_type_id":"4","last_reported":1746180647,"current_range_meters":16000,"station_id":"ce4bhgp2rcd13ifvqfc0","pricing_plan_id":"cebpf4jnsgd1na2vs0mg"},{"bike_id":"4509a37f-4983-432f-ae08-5c718d59797c","system_id":"levelo_inurba_marseille","lat":43.27498,"lon":5.4245,"is_reserved":false,"is_disabled":false,"rental_uris":{"android":"levelo://app?vid=4509a37f-4983-432f-ae08-5c718d59797c","ios":"levelo://app?vid=4509a37f-4983-432f-ae08-5c718d59797c"},"vehicle_type_id":"4","last_reported":1746180647,"current_range_meters":16000,"station_id":"ce4bhn92rcd13ifvqgrg","pricing_plan_id":"cebpf4jnsgd1na2vs0mg"},{"bike_id":"89b81589-8611-4d99-b503-943f267f9a35","system_id":"levelo_inurba_marseille","lat":43.24176,"lon":5.36393,"is_reserved":false,"is_disabled":false,"rental_uris":{"android":"levelo://app?vid=89b81589-8611-4d99-b503-943f267f9a35","ios":"levelo://app?vid=89b81589-8611-4d99-b503-943f267f9a35"},"vehicle_type_id":"4","last_reported":1746180647,"current_range_meters":16000,"station_id":"cpo36qri1sfpv3e86is0","pricing_plan_id":"cebpf4jnsgd1na2vs0mg"},{"bike_id":"0a71c29b-4424-43a7-ba11-c6b428687da5","system_id":"levelo_inurba_marseille","lat":43.21748,"lon":5.34604,"is_reserved":false,"is_disabled":false,"rental_uris":{"android":"levelo://app?vid=0a71c29b-4424-43a7-ba11-c6b428687da5","ios":"levelo://app?vid=0a71c29b-4424-43a7-ba11-c6b428687da5"},"vehicle_type_id":"4","last_reported":1746180647,"current_range_meters":16000,"station_id":"st_cvj6r9ubvosntc0bgbag","pricing_plan_id":"cebpf4jnsgd1na2vs0mg"},{"bike_id":"f451153b-ef9f-4f9d-afc0-4e912b0e1f6f","system_id":"levelo_inurba_marseille","lat":43.31367,"lon":5.36715,"is_reserved":false,"is_disabled":false,"rental_uris":{"android":"levelo://app?vid=f451153b-ef9f-4f9d-afc0-4e912b0e1f6f","ios":"levelo://app?vid=f451153b-ef9f-4f9d-afc0-4e912b0e1f6f"},"vehicle_type_id":"4","last_reported":1746180647,"current_range_meters":16400,"station_id":"ce4bgr92rcd13ifvqc6g","pricing_plan_id":"cebpf4jnsgd1na2vs0mg"},{"bike_id":"b5c8d091-8e4c-4b17-91ec-c43dd85febbe","system_id":"levelo_inurba_marseille","lat":43.27178,"lon":5.40996,"is_reserved":false,"is_disabled":false,"rental_uris":{"android":"levelo://app?vid=b5c8d091-8e4c-4b17-91ec-c43dd85febbe","ios":"levelo://app?vid=b5c8d091-8e4c-4b17-91ec-c43dd85febbe"},"vehicle_type_id":"4","last_reported":1746180647,"current_range_meters":16400,"station_id":"ce4bhl12rcd13ifvqgf0","pricing_plan_id":"cebpf4jnsgd1na2vs0mg"},{"bike_id":"7b7b1dcd-d0db-42e2-a238-3047e3abb862","system_id":"levelo_inurba_marseille","lat":43.29898,"lon":5.43673,"is_reserved":false,"is_disabled":false,"rental_uris":{"android":"levelo://app?vid=7b7b1dcd-d0db-42e2-a238-3047e3abb862","ios":"levelo://app?vid=7b7b1dcd-d0db-42e2-a238-3047e3abb862"},"vehicle_type_id":"4","last_reported":1746180647,"current_range_meters":16400,"station_id":"ce4bhpp2rcd13ifvqhfg","pricing_plan_id":"cebpf4jnsgd1na2vs0mg"},{"bike_id":"b4c5a41f-c3c2-4090-9f18-206326acd4e4","system_id":"levelo_inurba_marseille","lat":43.28463,"lon":5.38447,"is_reserved":false,"is_disabled":false,"rental_uris":{"android":"levelo://app?vid=b4c5a41f-c3c2-4090-9f18-206326acd4e4","ios":"levelo://app?vid=b4c5a41f-c3c2-4090-9f18-206326acd4e4"},"vehicle_type_id":"4","last_reported":1746180647,"current_range_meters":16800,"station_id":"ce4bh512rcd13ifvqe3g","pricing_plan_id":"cebpf4jnsgd1na2vs0mg"},{"bike_id":"915a70f7-5aa3-4881-8332-758e6d61bfe9","system_id":"levelo_inurba_marseille","lat":43.29266,"lon":5.38438,"is_reserved":false,"is_disabled":false,"rental_uris":{"android":"levelo://app?vid=915a70f7-5aa3-4881-8332-758e6d61bfe9","ios":"levelo://app?vid=915a70f7-5aa3-4881-8332-758e6d61bfe9"},"vehicle_type_id":"4","last_reported":1746180647,"current_range_meters":16800,"station_id":"ce4bh692rcd13ifvqea0","pricing_plan_id":"cebpf4jnsgd1na2vs0mg"},{"bike_id":"fcf6e1dd-6b6b-4d18-beff-3c0a79411dd8","system_id":"levelo_inurba_marseille","lat":43.30317,"lon":5.36896,"is_reserved":false,"is_disabled":false,"rental_uris":{"android":"levelo://app?vid=fcf6e1dd-6b6b-4d18-beff-3c0a79411dd8","ios":"levelo://app?vid=fcf6e1dd-6b6b-4d18-beff-3c0a79411dd8"},"vehicle_type_id":"4","last_reported":1746180647,"current_range_meters":17200,"station_id":"ce4bgqh2rcd13ifvqc5g","pricing_plan_id":"cebpf4jnsgd1na2vs0mg"},{"bike_id":"62f552f3-bc59-4f18-83a7-33d34767ebfe","system_id":"levelo_inurba_marseille","lat":43.31124,"lon":5.3777,"is_reserved":false,"is_disabled":false,"rental_uris":{"android":"levelo://app?vid=62f552f3-bc59-4f18-83a7-33d34767ebfe","ios":"levelo://app?vid=62f552f3-bc59-4f18-83a7-33d34767ebfe"},"vehicle_type_id":"4","last_reported":1746180647,"current_range_meters":17200,"station_id":"ce4bgt92rcd13ifvqcg0","pricing_plan_id":"cebpf4jnsgd1na2vs0mg"},{"bike_id":"121322ff-1b29-4a85-88c0-1ab0c6c2dfb6","system_id":"levelo_inurba_marseille","lat":43.32487,"lon":5.36571,"is_reserved":false,"is_disabled":false,"rental_uris":{"android":"levelo://app?vid=121322ff-1b29-4a85-88c0-1ab0c6c2dfb6","ios":"levelo://app?vid=121322ff-1b29-4a85-88c0-1ab0c6c2dfb6"},"vehicle_type_id":"4","last_reported":1746180647,"current_range_meters":17200,"station_id":"ce4bhs12rcd13ifvqhvg","pricing_plan_id":"cebpf4jnsgd1na2vs0mg"},{"bike_id":"ec174faa-c80c-4342-8dd0-557eb18a6105","system_id":"levelo_inurba_marseille","lat":43.29573,"lon":5.37513,"is_reserved":false,"is_disabled":false,"rental_uris":{"android":"levelo://app?vid=ec174faa-c80c-4342-8dd0-557eb18a6105","ios":"levelo://app?vid=ec174faa-c80c-4342-8dd0-557eb18a6105"},"vehicle_type_id":"4","last_reported":1746180647,"current_range_meters":17600,"station_id":"","pricing_plan_id":"cebpf4jnsgd1na2vs0mg"},{"bike_id":"1a0e246c-0b4d-40a0-aa58-252264c4f7ad","system_id":"levelo_inurba_marseille","lat":43.27624,"lon":5.36095,"is_reserved":false,"is_disabled":false,"rental_uris":{"android":"levelo://app?vid=1a0e246c-0b4d-40a0-aa58-252264c4f7ad","ios":"levelo://app?vid=1a0e246c-0b4d-40a0-aa58-252264c4f7ad"},"vehicle_type_id":"4","last_reported":1746180647,"current_range_meters":17600,"station_id":"ce4bgj92rcd13ifvqbe0","pricing_plan_id":"cebpf4jnsgd1na2vs0mg"},{"bike_id":"ae761174-a9bd-43b8-81fb-187c3f6bac8f","system_id":"levelo_inurba_marseille","lat":43.30278,"lon":5.37705,"is_reserved":false,"is_disabled":false,"rental_uris":{"android":"levelo://app?vid=ae761174-a9bd-43b8-81fb-187c3f6bac8f","ios":"levelo://app?vid=ae761174-a9bd-43b8-81fb-187c3f6bac8f"},"vehicle_type_id":"4","last_reported":1746180647,"current_range_meters":17600,"station_id":"ce4bguh2rcd13ifvqcj0","pricing_plan_id":"cebpf4jnsgd1na2vs0mg"},{"bike_id":"2f84b609-d1d6-4c50-88c2-1bbdf9cf3f05","system_id":"levelo_inurba_marseille","lat":43.28424,"lon":5.34997,"is_reserved":false,"is_disabled":false,"rental_uris":{"android":"levelo://app?vid=2f84b609-d1d6-4c50-88c2-1bbdf9cf3f05","ios":"levelo://app?vid=2f84b609-d1d6-4c50-88c2-1bbdf9cf3f05"},"vehicle_type_id":"4","last_reported":1746180647,"current_range_meters":17600,"station_id":"ce4bhbh2rcd13ifvqepg","pricing_plan_id":"cebpf4jnsgd1na2vs0mg"},{"bike_id":"e3ab53ea-9d4b-43ab-befe-62153a15b856","system_id":"levelo_inurba_marseille","lat":43.336058,"lon":5.41028,"is_reserved":false,"is_disabled":false,"rental_uris":{"android":"levelo://app?vid=e3ab53ea-9d4b-43ab-befe-62153a15b856","ios":"levelo://app?vid=e3ab53ea-9d4b-43ab-befe-62153a15b856"},"vehicle_type_id":"4","last_reported":1746180647,"current_range_meters":17600,"station_id":"ce4bhqh2rcd13ifvqhmg","pricing_plan_id":"cebpf4jnsgd1na2vs0mg"},{"bike_id":"4198766f-a32d-498f-9900-25ef521fe079","system_id":"levelo_inurba_marseille","lat":43.272,"lon":5.40947,"is_reserved":false,"is_disabled":false,"rental_uris":{"android":"levelo://app?vid=4198766f-a32d-498f-9900-25ef521fe079","ios":"levelo://app?vid=4198766f-a32d-498f-9900-25ef521fe079"},"vehicle_type_id":"4","last_reported":1746180647,"current_range_meters":18000,"station_id":"","pricing_plan_id":"cebpf4jnsgd1na2vs0mg"},{"bike_id":"93649171-4459-4782-b5fe-da9af4a333dc","system_id":"levelo_inurba_marseille","lat":43.23577,"lon":5.40353,"is_reserved":false,"is_disabled":false,"rental_uris":{"android":"levelo://app?vid=93649171-4459-4782-b5fe-da9af4a333dc","ios":"levelo://app?vid=93649171-4459-4782-b5fe-da9af4a333dc"},"vehicle_type_id":"4","last_reported":1746180647,"current_range_meters":18000,"station_id":"","pricing_plan_id":"cebpf4jnsgd1na2vs0mg"},{"bike_id":"eb8959cd-b002-41ac-9086-13f67f9a0bf4","system_id":"levelo_inurba_marseille","lat":43.25895,"lon":5.40896,"is_reserved":false,"is_disabled":false,"rental_uris":{"android":"levelo://app?vid=eb8959cd-b002-41ac-9086-13f67f9a0bf4","ios":"levelo://app?vid=eb8959cd-b002-41ac-9086-13f67f9a0bf4"},"vehicle_type_id":"4","last_reported":1746180647,"current_range_meters":18000,"station_id":"ce4bhm92rcd13ifvqglg","pricing_plan_id":"cebpf4jnsgd1na2vs0mg"},{"bike_id":"ad11048a-3223-4e22-a409-9f55583e0e39","system_id":"levelo_inurba_marseille","lat":43.28703,"lon":5.39984,"is_reserved":false,"is_disabled":false,"rental_uris":{"android":"levelo://app?vid=ad11048a-3223-4e22-a409-9f55583e0e39","ios":"levelo://app?vid=ad11048a-3223-4e22-a409-9f55583e0e39"},"vehicle_type_id":"4","last_reported":1746180647,"current_range_meters":18000,"station_id":"ce4bho92rcd13ifvqh3g","pricing_plan_id":"cebpf4jnsgd1na2vs0mg"},{"bike_id":"efaf1b5c-26d3-40d3-92e9-7f3883b8db84","system_id":"levelo_inurba_marseille","lat":43.31711,"lon":5.37654,"is_reserved":false,"is_disabled":false,"rental_uris":{"android":"levelo://app?vid=efaf1b5c-26d3-40d3-92e9-7f3883b8db84","ios":"levelo://app?vid=efaf1b5c-26d3-40d3-92e9-7f3883b8db84"},"vehicle_type_id":"4","last_reported":1746180647,"current_range_meters":18800,"station_id":"","pricing_plan_id":"cebpf4jnsgd1na2vs0mg"},{"bike_id":"a0077eca-3d4c-4064-a04b-342c25148be8","system_id":"levelo_inurba_marseille","lat":43.29717,"lon":5.37677,"is_reserved":false,"is_disabled":false,"rental_uris":{"android":"levelo://app?vid=a0077eca-3d4c-4064-a04b-342c25148be8","ios":"levelo://app?vid=a0077eca-3d4c-4064-a04b-342c25148be8"},"vehicle_type_id":"4","last_reported":1746180647,"current_range_meters":18800,"station_id":"ce4bgkh2rcd13ifvqbl0","pricing_plan_id":"cebpf4jnsgd1na2vs0mg"},{"bike_id":"e4006aec-cfcd-47b7-8016-9bf6ee762c77","system_id":"levelo_inurba_marseille","lat":43.30144,"lon":5.37417,"is_reserved":false,"is_disabled":false,"rental_uris":{"android":"levelo://app?vid=e4006aec-cfcd-47b7-8016-9bf6ee762c77","ios":"levelo://app?vid=e4006aec-cfcd-47b7-8016-9bf6ee762c77"},"vehicle_type_id":"4","last_reported":1746180647,"current_range_meters":18800,"station_id":"ce4bgs92rcd13ifvqcc0","pricing_plan_id":"cebpf4jnsgd1na2vs0mg"},{"bike_id":"57b0f3a8-0570-41d3-94f9-90f3167739c7","system_id":"levelo_inurba_marseille","lat":43.23154,"lon":5.43708,"is_reserved":false,"is_disabled":false,"rental_uris":{"android":"levelo://app?vid=57b0f3a8-0570-41d3-94f9-90f3167739c7","ios":"levelo://app?vid=57b0f3a8-0570-41d3-94f9-90f3167739c7"},"vehicle_type_id":"4","last_reported":1746180647,"current_range_meters":18800,"station_id":"ce4bhmp2rcd13ifvqgog","pricing_plan_id":"cebpf4jnsgd1na2vs0mg"},{"bike_id":"82720128-e895-4e54-a707-f9aee1c0a97d","system_id":"levelo_inurba_marseille","lat":43.2781,"lon":5.40695,"is_reserved":false,"is_disabled":false,"rental_uris":{"android":"levelo://app?vid=82720128-e895-4e54-a707-f9aee1c0a97d","ios":"levelo://app?vid=82720128-e895-4e54-a707-f9aee1c0a97d"},"vehicle_type_id":"4","last_reported":1746180647,"current_range_meters":18800,"station_id":"ce4bhnh2rcd13ifvqgtg","pricing_plan_id":"cebpf4jnsgd1na2vs0mg"},{"bike_id":"8358e3d0-6639-4ac2-ba04-8477e18cc50d","system_id":"levelo_inurba_marseille","lat":43.33187,"lon":5.38594,"is_reserved":false,"is_disabled":false,"rental_uris":{"android":"levelo://app?vid=8358e3d0-6639-4ac2-ba04-8477e18cc50d","ios":"levelo://app?vid=8358e3d0-6639-4ac2-ba04-8477e18cc50d"},"vehicle_type_id":"4","last_reported":1746180647,"current_range_meters":19200,"station_id":"","pricing_plan_id":"cebpf4jnsgd1na2vs0mg"},{"bike_id":"d6ea31a1-2034-4aa7-9bf1-73a7c7a8d12c","system_id":"levelo_inurba_marseille","lat":43.24659,"lon":5.38161,"is_reserved":false,"is_disabled":false,"rental_uris":{"android":"levelo://app?vid=d6ea31a1-2034-4aa7-9bf1-73a7c7a8d12c","ios":"levelo://app?vid=d6ea31a1-2034-4aa7-9bf1-73a7c7a8d12c"},"vehicle_type_id":"4","last_reported":1746180647,"current_range_meters":19200,"station_id":"ce4bhih2rcd13ifvqfr0","pricing_plan_id":"cebpf4jnsgd1na2vs0mg"},{"bike_id":"047cf418-9cdb-43cd-b3a1-0f4744ddbd6d","system_id":"levelo_inurba_marseille","lat":43.28973,"lon":5.37835,"is_reserved":false,"is_disabled":false,"rental_uris":{"android":"levelo://app?vid=047cf418-9cdb-43cd-b3a1-0f4744ddbd6d","ios":"levelo://app?vid=047cf418-9cdb-43cd-b3a1-0f4744ddbd6d"},"vehicle_type_id":"4","last_reported":1746180647,"current_range_meters":19600,"station_id":"","pricing_plan_id":"cebpf4jnsgd1na2vs0mg"},{"bike_id":"41854e57-f49c-4992-aaa6-8d716f639b29","system_id":"levelo_inurba_marseille","lat":43.2738,"lon":5.36258,"is_reserved":false,"is_disabled":false,"rental_uris":{"android":"levelo://app?vid=41854e57-f49c-4992-aaa6-8d716f639b29","ios":"levelo://app?vid=41854e57-f49c-4992-aaa6-8d716f639b29"},"vehicle_type_id":"4","last_reported":1746180647,"current_range_meters":19600,"station_id":"ce4bhbh2rcd13ifvqeo0","pricing_plan_id":"cebpf4jnsgd1na2vs0mg"},{"bike_id":"51a47346-11b3-4a2e-b6ef-94466b34a0be","system_id":"levelo_inurba_marseille","lat":43.282696,"lon":5.350595,"is_reserved":false,"is_disabled":false,"rental_uris":{"android":"levelo://app?vid=51a47346-11b3-4a2e-b6ef-94466b34a0be","ios":"levelo://app?vid=51a47346-11b3-4a2e-b6ef-94466b34a0be"},"vehicle_type_id":"4","last_reported":1746180647,"current_range_meters":19600,"station_id":"ce4bhbp2rcd13ifvqerg","pricing_plan_id":"cebpf4jnsgd1na2vs0mg"},{"bike_id":"10e0d740-f220-437a-862c-ed80b7950c6c","system_id":"levelo_inurba_marseille","lat":43.28615,"lon":5.35108,"is_reserved":false,"is_disabled":false,"rental_uris":{"android":"levelo://app?vid=10e0d740-f220-437a-862c-ed80b7950c6c","ios":"levelo://app?vid=10e0d740-f220-437a-862c-ed80b7950c6c"},"vehicle_type_id":"4","last_reported":1746180647,"current_range_meters":19600,"station_id":"ce4bhch2rcd13ifvqeug","pricing_plan_id":"cebpf4jnsgd1na2vs0mg"},{"bike_id":"3f88863c-65c4-4225-9bb0-766ea41f24a2","system_id":"levelo_inurba_marseille","lat":43.23971,"lon":5.36637,"is_reserved":false,"is_disabled":false,"rental_uris":{"android":"levelo://app?vid=3f88863c-65c4-4225-9bb0-766ea41f24a2","ios":"levelo://app?vid=3f88863c-65c4-4225-9bb0-766ea41f24a2"},"vehicle_type_id":"4","last_reported":1746180647,"current_range_meters":19600,"station_id":"ce4bhi12rcd13ifvqfp0","pricing_plan_id":"cebpf4jnsgd1na2vs0mg"},{"bike_id":"34e27a80-9291-4708-84ca-cf9b2634175e","system_id":"levelo_inurba_marseille","lat":43.217433,"lon":5.346022,"is_reserved":false,"is_disabled":false,"rental_uris":{"android":"levelo://app?vid=34e27a80-9291-4708-84ca-cf9b2634175e","ios":"levelo://app?vid=34e27a80-9291-4708-84ca-cf9b2634175e"},"vehicle_type_id":"4","last_reported":1746180647,"current_range_meters":19600,"station_id":"st_cvj6r9ubvosntc0bgbag","pricing_plan_id":"cebpf4jnsgd1na2vs0mg"},{"bike_id":"7d1a9982-56f7-4afa-9eb5-6a3308abcc10","system_id":"levelo_inurba_marseille","lat":43.31721,"lon":5.40419,"is_reserved":false,"is_disabled":false,"rental_uris":{"android":"levelo://app?vid=7d1a9982-56f7-4afa-9eb5-6a3308abcc10","ios":"levelo://app?vid=7d1a9982-56f7-4afa-9eb5-6a3308abcc10"},"vehicle_type_id":"4","last_reported":1746180647,"current_range_meters":20000,"station_id":"","pricing_plan_id":"cebpf4jnsgd1na2vs0mg"},{"bike_id":"de541a74-06a2-4b22-8fde-8e068d6ccf49","system_id":"levelo_inurba_marseille","lat":43.29975,"lon":5.38489,"is_reserved":false,"is_disabled":false,"rental_uris":{"android":"levelo://app?vid=de541a74-06a2-4b22-8fde-8e068d6ccf49","ios":"levelo://app?vid=de541a74-06a2-4b22-8fde-8e068d6ccf49"},"vehicle_type_id":"4","last_reported":1746180647,"current_range_meters":20000,"station_id":"ce4bgj92rcd13ifvqbd0","pricing_plan_id":"cebpf4jnsgd1na2vs0mg"},{"bike_id":"2560132a-5276-428e-8a01-c93c27a667b0","system_id":"levelo_inurba_marseille","lat":43.23189,"lon":5.39997,"is_reserved":false,"is_disabled":false,"rental_uris":{"android":"levelo://app?vid=2560132a-5276-428e-8a01-c93c27a667b0","ios":"levelo://app?vid=2560132a-5276-428e-8a01-c93c27a667b0"},"vehicle_type_id":"4","last_reported":1746180647,"current_range_meters":20000,"station_id":"ce4bhn12rcd13ifvqgqg","pricing_plan_id":"cebpf4jnsgd1na2vs0mg"},{"bike_id":"7f034469-4995-48de-9e04-c2b62f34840c","system_id":"levelo_inurba_marseille","lat":43.21749,"lon":5.34603,"is_reserved":false,"is_disabled":false,"rental_uris":{"android":"levelo://app?vid=7f034469-4995-48de-9e04-c2b62f34840c","ios":"levelo://app?vid=7f034469-4995-48de-9e04-c2b62f34840c"},"vehicle_type_id":"4","last_reported":1746180647,"current_range_meters":20000,"station_id":"st_cvj6r9ubvosntc0bgbag","pricing_plan_id":"cebpf4jnsgd1na2vs0mg"},{"bike_id":"5aaa0796-22cb-4134-8a3c-e3f47465c117","system_id":"levelo_inurba_marseille","lat":43.3171,"lon":5.43708,"is_reserved":false,"is_disabled":false,"rental_uris":{"android":"levelo://app?vid=5aaa0796-22cb-4134-8a3c-e3f47465c117","ios":"levelo://app?vid=5aaa0796-22cb-4134-8a3c-e3f47465c117"},"vehicle_type_id":"4","last_reported":1746180647,"current_range_meters":20400,"station_id":"","pricing_plan_id":"cebpf4jnsgd1na2vs0mg"},{"bike_id":"1b3585f3-c3fb-47e5-a900-078120f0f2ba","system_id":"levelo_inurba_marseille","lat":43.297099,"lon":5.376813,"is_reserved":false,"is_disabled":false,"rental_uris":{"android":"levelo://app?vid=1b3585f3-c3fb-47e5-a900-078120f0f2ba","ios":"levelo://app?vid=1b3585f3-c3fb-47e5-a900-078120f0f2ba"},"vehicle_type_id":"4","last_reported":1746180647,"current_range_meters":20400,"station_id":"ce4bgkh2rcd13ifvqbl0","pricing_plan_id":"cebpf4jnsgd1na2vs0mg"},{"bike_id":"963158ef-5ba0-4043-9243-54206bdffc86","system_id":"levelo_inurba_marseille","lat":43.28483,"lon":5.38426,"is_reserved":false,"is_disabled":false,"rental_uris":{"android":"levelo://app?vid=963158ef-5ba0-4043-9243-54206bdffc86","ios":"levelo://app?vid=963158ef-5ba0-4043-9243-54206bdffc86"},"vehicle_type_id":"4","last_reported":1746180647,"current_range_meters":20400,"station_id":"ce4bh512rcd13ifvqe3g","pricing_plan_id":"cebpf4jnsgd1na2vs0mg"},{"bike_id":"733c7236-2378-4f40-9443-245b71b023fe","system_id":"levelo_inurba_marseille","lat":43.28036,"lon":5.36955,"is_reserved":false,"is_disabled":false,"rental_uris":{"android":"levelo://app?vid=733c7236-2378-4f40-9443-245b71b023fe","ios":"levelo://app?vid=733c7236-2378-4f40-9443-245b71b023fe"},"vehicle_type_id":"4","last_reported":1746180647,"current_range_meters":20400,"station_id":"ce4bha12rcd13ifvqef0","pricing_plan_id":"cebpf4jnsgd1na2vs0mg"},{"bike_id":"c4060a22-b24c-4bc7-8b88-c292d91235ef","system_id":"levelo_inurba_marseille","lat":43.29007,"lon":5.3561,"is_reserved":false,"is_disabled":false,"rental_uris":{"android":"levelo://app?vid=c4060a22-b24c-4bc7-8b88-c292d91235ef","ios":"levelo://app?vid=c4060a22-b24c-4bc7-8b88-c292d91235ef"},"vehicle_type_id":"4","last_reported":1746180647,"current_range_meters":20400,"station_id":"ce4bhb92rcd13ifvqen0","pricing_plan_id":"cebpf4jnsgd1na2vs0mg"},{"bike_id":"d8056a9c-0064-48e5-8022-c00f11ad25d2","system_id":"levelo_inurba_marseille","lat":43.28154,"lon":5.42638,"is_reserved":false,"is_disabled":false,"rental_uris":{"android":"levelo://app?vid=d8056a9c-0064-48e5-8022-c00f11ad25d2","ios":"levelo://app?vid=d8056a9c-0064-48e5-8022-c00f11ad25d2"},"vehicle_type_id":"4","last_reported":1746180647,"current_range_meters":20400,"station_id":"ce4bhnh2rcd13ifvqgug","pricing_plan_id":"cebpf4jnsgd1na2vs0mg"},{"bike_id":"e0ceefc0-61c9-406f-91eb-ef69db9dbe42","system_id":"levelo_inurba_marseille","lat":43.26117,"lon":5.41466,"is_reserved":false,"is_disabled":false,"rental_uris":{"android":"levelo://app?vid=e0ceefc0-61c9-406f-91eb-ef69db9dbe42","ios":"levelo://app?vid=e0ceefc0-61c9-406f-91eb-ef69db9dbe42"},"vehicle_type_id":"4","last_reported":1746180647,"current_range_meters":20800,"station_id":"","pricing_plan_id":"cebpf4jnsgd1na2vs0mg"},{"bike_id":"e35f572d-fc98-4676-a2c2-b6fab78a24cc","system_id":"levelo_inurba_marseille","lat":43.21753,"lon":5.34597,"is_reserved":false,"is_disabled":false,"rental_uris":{"android":"levelo://app?vid=e35f572d-fc98-4676-a2c2-b6fab78a24cc","ios":"levelo://app?vid=e35f572d-fc98-4676-a2c2-b6fab78a24cc"},"vehicle_type_id":"4","last_reported":1746180647,"current_range_meters":20800,"station_id":"","pricing_plan_id":"cebpf4jnsgd1na2vs0mg"},{"bike_id":"ad2f7628-dff9-44c5-9d0b-f90f28b48e66","system_id":"levelo_inurba_marseille","lat":43.29931,"lon":5.37473,"is_reserved":false,"is_disabled":false,"rental_uris":{"android":"levelo://app?vid=ad2f7628-dff9-44c5-9d0b-f90f28b48e66","ios":"levelo://app?vid=ad2f7628-dff9-44c5-9d0b-f90f28b48e66"},"vehicle_type_id":"4","last_reported":1746180647,"current_range_meters":20800,"station_id":"ce4bgjh2rcd13ifvqbg0","pricing_plan_id":"cebpf4jnsgd1na2vs0mg"},{"bike_id":"187109a0-c8a4-4039-a2af-c4631389e2bb","system_id":"levelo_inurba_marseille","lat":43.298427,"lon":5.362713,"is_reserved":false,"is_disabled":false,"rental_uris":{"android":"levelo://app?vid=187109a0-c8a4-4039-a2af-c4631389e2bb","ios":"levelo://app?vid=187109a0-c8a4-4039-a2af-c4631389e2bb"},"vehicle_type_id":"4","last_reported":1746180647,"current_range_meters":20800,"station_id":"ce4bgpp2rcd13ifvqc3g","pricing_plan_id":"cebpf4jnsgd1na2vs0mg"},{"bike_id":"baf4561c-9bda-477a-8871-110377773ec1","system_id":"levelo_inurba_marseille","lat":43.281493,"lon":5.426477,"is_reserved":false,"is_disabled":false,"rental_uris":{"android":"levelo://app?vid=baf4561c-9bda-477a-8871-110377773ec1","ios":"levelo://app?vid=baf4561c-9bda-477a-8871-110377773ec1"},"vehicle_type_id":"4","last_reported":1746180647,"current_range_meters":20800,"station_id":"ce4bhnh2rcd13ifvqgug","pricing_plan_id":"cebpf4jnsgd1na2vs0mg"},{"bike_id":"d4a68adb-1c58-40c4-948b-5030d56b0223","system_id":"levelo_inurba_marseille","lat":43.32097,"lon":5.36788,"is_reserved":false,"is_disabled":false,"rental_uris":{"android":"levelo://app?vid=d4a68adb-1c58-40c4-948b-5030d56b0223","ios":"levelo://app?vid=d4a68adb-1c58-40c4-948b-5030d56b0223"},"vehicle_type_id":"4","last_reported":1746180647,"current_range_meters":20800,"station_id":"ce4bhrh2rcd13ifvqhug","pricing_plan_id":"cebpf4jnsgd1na2vs0mg"},{"bike_id":"85944703-522b-4d2b-8090-3bc4e4483b7e","system_id":"levelo_inurba_marseille","lat":43.21755,"lon":5.34595,"is_reserved":false,"is_disabled":false,"rental_uris":{"android":"levelo://app?vid=85944703-522b-4d2b-8090-3bc4e4483b7e","ios":"levelo://app?vid=85944703-522b-4d2b-8090-3bc4e4483b7e"},"vehicle_type_id":"4","last_reported":1746180647,"current_range_meters":20800,"station_id":"st_cvj6r9ubvosntc0bgbag","pricing_plan_id":"cebpf4jnsgd1na2vs0mg"},{"bike_id":"f1094f93-fd43-4c0c-8aa6-ebefd9701c01","system_id":"levelo_inurba_marseille","lat":43.302963,"lon":5.376976,"is_reserved":false,"is_disabled":false,"rental_uris":{"android":"levelo://app?vid=f1094f93-fd43-4c0c-8aa6-ebefd9701c01","ios":"levelo://app?vid=f1094f93-fd43-4c0c-8aa6-ebefd9701c01"},"vehicle_type_id":"4","last_reported":1746180647,"current_range_meters":21600,"station_id":"ce4bguh2rcd13ifvqcj0","pricing_plan_id":"cebpf4jnsgd1na2vs0mg"},{"bike_id":"fa4dc947-555a-409e-ba48-250331632c16","system_id":"levelo_inurba_marseille","lat":43.2465,"lon":5.38889,"is_reserved":false,"is_disabled":false,"rental_uris":{"android":"levelo://app?vid=fa4dc947-555a-409e-ba48-250331632c16","ios":"levelo://app?vid=fa4dc947-555a-409e-ba48-250331632c16"},"vehicle_type_id":"4","last_reported":1746180647,"current_range_meters":21600,"station_id":"ce4bhg12rcd13ifvqf60","pricing_plan_id":"cebpf4jnsgd1na2vs0mg"},{"bike_id":"e0c9b58f-fc68-48c1-bf09-c19d51335c5d","system_id":"levelo_inurba_marseille","lat":43.21745,"lon":5.34609,"is_reserved":false,"is_disabled":false,"rental_uris":{"android":"levelo://app?vid=e0c9b58f-fc68-48c1-bf09-c19d51335c5d","ios":"levelo://app?vid=e0c9b58f-fc68-48c1-bf09-c19d51335c5d"},"vehicle_type_id":"4","last_reported":1746180647,"current_range_meters":21600,"station_id":"st_cvj6r9ubvosntc0bgbag","pricing_plan_id":"cebpf4jnsgd1na2vs0mg"},{"bike_id":"db532f4f-1f07-4067-95dc-12227f679d64","system_id":"levelo_inurba_marseille","lat":43.309504,"lon":5.367325,"is_reserved":false,"is_disabled":false,"rental_uris":{"android":"levelo://app?vid=db532f4f-1f07-4067-95dc-12227f679d64","ios":"levelo://app?vid=db532f4f-1f07-4067-95dc-12227f679d64"},"vehicle_type_id":"4","last_reported":1746180647,"current_range_meters":22000,"station_id":"","pricing_plan_id":"cebpf4jnsgd1na2vs0mg"},{"bike_id":"2fc6e367-ec71-47f4-9c92-6789f47e312a","system_id":"levelo_inurba_marseille","lat":43.284712,"lon":5.384081,"is_reserved":false,"is_disabled":false,"rental_uris":{"android":"levelo://app?vid=2fc6e367-ec71-47f4-9c92-6789f47e312a","ios":"levelo://app?vid=2fc6e367-ec71-47f4-9c92-6789f47e312a"},"vehicle_type_id":"4","last_reported":1746180647,"current_range_meters":22400,"station_id":"ce4bh512rcd13ifvqe3g","pricing_plan_id":"cebpf4jnsgd1na2vs0mg"},{"bike_id":"678df632-eaad-4909-a4b8-bc6387d4bd20","system_id":"levelo_inurba_marseille","lat":43.2827,"lon":5.35059,"is_reserved":false,"is_disabled":false,"rental_uris":{"android":"levelo://app?vid=678df632-eaad-4909-a4b8-bc6387d4bd20","ios":"levelo://app?vid=678df632-eaad-4909-a4b8-bc6387d4bd20"},"vehicle_type_id":"4","last_reported":1746180647,"current_range_meters":22400,"station_id":"ce4bhbp2rcd13ifvqerg","pricing_plan_id":"cebpf4jnsgd1na2vs0mg"},{"bike_id":"d4c2bef7-4024-4421-b25e-d42a9ecc8139","system_id":"levelo_inurba_marseille","lat":43.28613,"lon":5.35103,"is_reserved":false,"is_disabled":false,"rental_uris":{"android":"levelo://app?vid=d4c2bef7-4024-4421-b25e-d42a9ecc8139","ios":"levelo://app?vid=d4c2bef7-4024-4421-b25e-d42a9ecc8139"},"vehicle_type_id":"4","last_reported":1746180647,"current_range_meters":22400,"station_id":"ce4bhch2rcd13ifvqeug","pricing_plan_id":"cebpf4jnsgd1na2vs0mg"},{"bike_id":"fb970dc0-2974-4aad-b2a9-f4298230f16a","system_id":"levelo_inurba_marseille","lat":43.23157,"lon":5.43664,"is_reserved":false,"is_disabled":false,"rental_uris":{"android":"levelo://app?vid=fb970dc0-2974-4aad-b2a9-f4298230f16a","ios":"levelo://app?vid=fb970dc0-2974-4aad-b2a9-f4298230f16a"},"vehicle_type_id":"4","last_reported":1746180647,"current_range_meters":22400,"station_id":"ce4bhmp2rcd13ifvqgog","pricing_plan_id":"cebpf4jnsgd1na2vs0mg"},{"bike_id":"f33b8cfa-1134-4bb3-ad4e-97c8a68d196e","system_id":"levelo_inurba_marseille","lat":43.29893,"lon":5.43656,"is_reserved":false,"is_disabled":false,"rental_uris":{"android":"levelo://app?vid=f33b8cfa-1134-4bb3-ad4e-97c8a68d196e","ios":"levelo://app?vid=f33b8cfa-1134-4bb3-ad4e-97c8a68d196e"},"vehicle_type_id":"4","last_reported":1746180647,"current_range_meters":22400,"station_id":"ce4bhpp2rcd13ifvqhfg","pricing_plan_id":"cebpf4jnsgd1na2vs0mg"},{"bike_id":"1e2beacd-9883-42e5-98bf-2d51a3a01957","system_id":"levelo_inurba_marseille","lat":43.30455,"lon":5.38898,"is_reserved":false,"is_disabled":false,"rental_uris":{"android":"levelo://app?vid=1e2beacd-9883-42e5-98bf-2d51a3a01957","ios":"levelo://app?vid=1e2beacd-9883-42e5-98bf-2d51a3a01957"},"vehicle_type_id":"4","last_reported":1746180647,"current_range_meters":22800,"station_id":"ce4bgk12rcd13ifvqbi0","pricing_plan_id":"cebpf4jnsgd1na2vs0mg"},{"bike_id":"e60b1f49-5e9d-4121-b126-144f79d23164","system_id":"levelo_inurba_marseille","lat":43.27179,"lon":5.40999,"is_reserved":false,"is_disabled":false,"rental_uris":{"android":"levelo://app?vid=e60b1f49-5e9d-4121-b126-144f79d23164","ios":"levelo://app?vid=e60b1f49-5e9d-4121-b126-144f79d23164"},"vehicle_type_id":"4","last_reported":1746180647,"current_range_meters":22800,"station_id":"ce4bhl12rcd13ifvqgf0","pricing_plan_id":"cebpf4jnsgd1na2vs0mg"},{"bike_id":"c9c3befb-16b5-4935-a50c-78af5c44e2e8","system_id":"levelo_inurba_marseille","lat":43.30532,"lon":5.3672,"is_reserved":false,"is_disabled":false,"rental_uris":{"android":"levelo://app?vid=c9c3befb-16b5-4935-a50c-78af5c44e2e8","ios":"levelo://app?vid=c9c3befb-16b5-4935-a50c-78af5c44e2e8"},"vehicle_type_id":"4","last_reported":1746180647,"current_range_meters":23200,"station_id":"ce4bgrp2rcd13ifvqc9g","pricing_plan_id":"cebpf4jnsgd1na2vs0mg"},{"bike_id":"b4c5fa3f-21e4-45ac-874c-a536ce7e90eb","system_id":"levelo_inurba_marseille","lat":43.30292,"lon":5.37702,"is_reserved":false,"is_disabled":false,"rental_uris":{"android":"levelo://app?vid=b4c5fa3f-21e4-45ac-874c-a536ce7e90eb","ios":"levelo://app?vid=b4c5fa3f-21e4-45ac-874c-a536ce7e90eb"},"vehicle_type_id":"4","last_reported":1746180647,"current_range_meters":23200,"station_id":"ce4bguh2rcd13ifvqcj0","pricing_plan_id":"cebpf4jnsgd1na2vs0mg"},{"bike_id":"31c99700-c557-4b69-aae2-b2b2564d43aa","system_id":"levelo_inurba_marseille","lat":43.31685,"lon":5.40471,"is_reserved":false,"is_disabled":false,"rental_uris":{"android":"levelo://app?vid=31c99700-c557-4b69-aae2-b2b2564d43aa","ios":"levelo://app?vid=31c99700-c557-4b69-aae2-b2b2564d43aa"},"vehicle_type_id":"4","last_reported":1746180647,"current_range_meters":23200,"station_id":"ce4bh012rcd13ifvqd00","pricing_plan_id":"cebpf4jnsgd1na2vs0mg"},{"bike_id":"0995f3ba-1781-4f8c-9ed0-2ed17c3e24ab","system_id":"levelo_inurba_marseille","lat":43.29262,"lon":5.38436,"is_reserved":false,"is_disabled":false,"rental_uris":{"android":"levelo://app?vid=0995f3ba-1781-4f8c-9ed0-2ed17c3e24ab","ios":"levelo://app?vid=0995f3ba-1781-4f8c-9ed0-2ed17c3e24ab"},"vehicle_type_id":"4","last_reported":1746180647,"current_range_meters":23200,"station_id":"ce4bh692rcd13ifvqea0","pricing_plan_id":"cebpf4jnsgd1na2vs0mg"},{"bike_id":"5e291053-dfbf-43dc-9058-2c7b2dfcab52","system_id":"levelo_inurba_marseille","lat":43.231867,"lon":5.399891,"is_reserved":false,"is_disabled":false,"rental_uris":{"android":"levelo://app?vid=5e291053-dfbf-43dc-9058-2c7b2dfcab52","ios":"levelo://app?vid=5e291053-dfbf-43dc-9058-2c7b2dfcab52"},"vehicle_type_id":"4","last_reported":1746180647,"current_range_meters":23200,"station_id":"ce4bhn12rcd13ifvqgqg","pricing_plan_id":"cebpf4jnsgd1na2vs0mg"},{"bike_id":"9cc0cec0-153a-4dc2-8b22-6ac71e4a9647","system_id":"levelo_inurba_marseille","lat":43.211953,"lon":5.350662,"is_reserved":false,"is_disabled":false,"rental_uris":{"android":"levelo://app?vid=9cc0cec0-153a-4dc2-8b22-6ac71e4a9647","ios":"levelo://app?vid=9cc0cec0-153a-4dc2-8b22-6ac71e4a9647"},"vehicle_type_id":"4","last_reported":1746180647,"current_range_meters":23200,"station_id":"st_cvj6sg6p6f1abm77japg","pricing_plan_id":"cebpf4jnsgd1na2vs0mg"},{"bike_id":"51847bc0-ec7e-4f57-a7e2-d4e5308ad2b8","system_id":"levelo_inurba_marseille","lat":43.28372,"lon":5.38633,"is_reserved":false,"is_disabled":false,"rental_uris":{"android":"levelo://app?vid=51847bc0-ec7e-4f57-a7e2-d4e5308ad2b8","ios":"levelo://app?vid=51847bc0-ec7e-4f57-a7e2-d4e5308ad2b8"},"vehicle_type_id":"4","last_reported":1746180647,"current_range_meters":24000,"station_id":"ce4bh492rcd13ifvqdvg","pricing_plan_id":"cebpf4jnsgd1na2vs0mg"},{"bike_id":"1eee08de-42e8-4504-b51b-d1591fa885af","system_id":"levelo_inurba_marseille","lat":43.28266,"lon":5.35061,"is_reserved":false,"is_disabled":false,"rental_uris":{"android":"levelo://app?vid=1eee08de-42e8-4504-b51b-d1591fa885af","ios":"levelo://app?vid=1eee08de-42e8-4504-b51b-d1591fa885af"},"vehicle_type_id":"4","last_reported":1746180647,"current_range_meters":24000,"station_id":"ce4bhbp2rcd13ifvqerg","pricing_plan_id":"cebpf4jnsgd1na2vs0mg"},{"bike_id":"776b1c04-a75a-4391-9b90-31767f11ae36","system_id":"levelo_inurba_marseille","lat":43.23186,"lon":5.4,"is_reserved":false,"is_disabled":false,"rental_uris":{"android":"levelo://app?vid=776b1c04-a75a-4391-9b90-31767f11ae36","ios":"levelo://app?vid=776b1c04-a75a-4391-9b90-31767f11ae36"},"vehicle_type_id":"4","last_reported":1746180647,"current_range_meters":24000,"station_id":"ce4bhn12rcd13ifvqgqg","pricing_plan_id":"cebpf4jnsgd1na2vs0mg"},{"bike_id":"9efb8531-8da4-4741-b6d8-6c6f24c85428","system_id":"levelo_inurba_marseille","lat":43.33604,"lon":5.41032,"is_reserved":false,"is_disabled":false,"rental_uris":{"android":"levelo://app?vid=9efb8531-8da4-4741-b6d8-6c6f24c85428","ios":"levelo://app?vid=9efb8531-8da4-4741-b6d8-6c6f24c85428"},"vehicle_type_id":"4","last_reported":1746180647,"current_range_meters":24000,"station_id":"ce4bhqh2rcd13ifvqhmg","pricing_plan_id":"cebpf4jnsgd1na2vs0mg"},{"bike_id":"40f34357-f662-457d-9b0b-82c57c8791b3","system_id":"levelo_inurba_marseille","lat":43.24168,"lon":5.36391,"is_reserved":false,"is_disabled":false,"rental_uris":{"android":"levelo://app?vid=40f34357-f662-457d-9b0b-82c57c8791b3","ios":"levelo://app?vid=40f34357-f662-457d-9b0b-82c57c8791b3"},"vehicle_type_id":"4","last_reported":1746180647,"current_range_meters":24000,"station_id":"cpo36qri1sfpv3e86is0","pricing_plan_id":"cebpf4jnsgd1na2vs0mg"},{"bike_id":"5a5a4919-1b82-47f2-a8bf-db529eae81a9","system_id":"levelo_inurba_marseille","lat":43.27326,"lon":5.41032,"is_reserved":false,"is_disabled":false,"rental_uris":{"android":"levelo://app?vid=5a5a4919-1b82-47f2-a8bf-db529eae81a9","ios":"levelo://app?vid=5a5a4919-1b82-47f2-a8bf-db529eae81a9"},"vehicle_type_id":"4","last_reported":1746180647,"current_range_meters":24400,"station_id":"","pricing_plan_id":"cebpf4jnsgd1na2vs0mg"},{"bike_id":"a34e3ae6-f7ac-43d2-832c-21435fa13d4e","system_id":"levelo_inurba_marseille","lat":43.3087,"lon":5.37204,"is_reserved":false,"is_disabled":false,"rental_uris":{"android":"levelo://app?vid=a34e3ae6-f7ac-43d2-832c-21435fa13d4e","ios":"levelo://app?vid=a34e3ae6-f7ac-43d2-832c-21435fa13d4e"},"vehicle_type_id":"4","last_reported":1746180647,"current_range_meters":24400,"station_id":"ce4bguh2rcd13ifvqckg","pricing_plan_id":"cebpf4jnsgd1na2vs0mg"},{"bike_id":"7f8c73b3-81d7-4c5e-b53f-324f00246714","system_id":"levelo_inurba_marseille","lat":43.27993,"lon":5.41654,"is_reserved":false,"is_disabled":false,"rental_uris":{"android":"levelo://app?vid=7f8c73b3-81d7-4c5e-b53f-324f00246714","ios":"levelo://app?vid=7f8c73b3-81d7-4c5e-b53f-324f00246714"},"vehicle_type_id":"4","last_reported":1746180647,"current_range_meters":24400,"station_id":"ce4bho12rcd13ifvqh1g","pricing_plan_id":"cebpf4jnsgd1na2vs0mg"},{"bike_id":"3c785b91-33d7-49b2-bea0-e02391c609d9","system_id":"levelo_inurba_marseille","lat":43.287384,"lon":5.400304,"is_reserved":false,"is_disabled":false,"rental_uris":{"android":"levelo://app?vid=3c785b91-33d7-49b2-bea0-e02391c609d9","ios":"levelo://app?vid=3c785b91-33d7-49b2-bea0-e02391c609d9"},"vehicle_type_id":"4","last_reported":1746180647,"current_range_meters":24400,"station_id":"ce4bho92rcd13ifvqh3g","pricing_plan_id":"cebpf4jnsgd1na2vs0mg"},{"bike_id":"f762e8fd-fc88-4c92-b392-06110512c053","system_id":"levelo_inurba_marseille","lat":43.2119,"lon":5.35076,"is_reserved":false,"is_disabled":false,"rental_uris":{"android":"levelo://app?vid=f762e8fd-fc88-4c92-b392-06110512c053","ios":"levelo://app?vid=f762e8fd-fc88-4c92-b392-06110512c053"},"vehicle_type_id":"4","last_reported":1746180647,"current_range_meters":24400,"station_id":"st_cvj6sg6p6f1abm77japg","pricing_plan_id":"cebpf4jnsgd1na2vs0mg"},{"bike_id":"f59a0313-f45b-4884-ae9d-cee9063a502a","system_id":"levelo_inurba_marseille","lat":43.29282,"lon":5.37637,"is_reserved":false,"is_disabled":false,"rental_uris":{"android":"levelo://app?vid=f59a0313-f45b-4884-ae9d-cee9063a502a","ios":"levelo://app?vid=f59a0313-f45b-4884-ae9d-cee9063a502a"},"vehicle_type_id":"4","last_reported":1746180647,"current_range_meters":24800,"station_id":"ce4bgi12rcd13ifvqb80","pricing_plan_id":"cebpf4jnsgd1na2vs0mg"},{"bike_id":"ff984674-e216-49d1-bb46-a34363a6065a","system_id":"levelo_inurba_marseille","lat":43.30545,"lon":5.36692,"is_reserved":false,"is_disabled":false,"rental_uris":{"android":"levelo://app?vid=ff984674-e216-49d1-bb46-a34363a6065a","ios":"levelo://app?vid=ff984674-e216-49d1-bb46-a34363a6065a"},"vehicle_type_id":"4","last_reported":1746180647,"current_range_meters":24800,"station_id":"ce4bgrp2rcd13ifvqc9g","pricing_plan_id":"cebpf4jnsgd1na2vs0mg"},{"bike_id":"6e5978d6-de64-47c0-99f8-b5d78d75c802","system_id":"levelo_inurba_marseille","lat":43.30509,"lon":5.36543,"is_reserved":false,"is_disabled":false,"rental_uris":{"android":"levelo://app?vid=6e5978d6-de64-47c0-99f8-b5d78d75c802","ios":"levelo://app?vid=6e5978d6-de64-47c0-99f8-b5d78d75c802"},"vehicle_type_id":"4","last_reported":1746180647,"current_range_meters":24800,"station_id":"ce4bgs12rcd13ifvqcag","pricing_plan_id":"cebpf4jnsgd1na2vs0mg"},{"bike_id":"ddce3a9c-df2d-45da-a387-e802152a60b6","system_id":"levelo_inurba_marseille","lat":43.31274,"lon":5.40159,"is_reserved":false,"is_disabled":false,"rental_uris":{"android":"levelo://app?vid=ddce3a9c-df2d-45da-a387-e802152a60b6","ios":"levelo://app?vid=ddce3a9c-df2d-45da-a387-e802152a60b6"},"vehicle_type_id":"4","last_reported":1746180647,"current_range_meters":24800,"station_id":"ce4bh092rcd13ifvqd30","pricing_plan_id":"cebpf4jnsgd1na2vs0mg"},{"bike_id":"f870bdee-b733-407e-9482-9a17fcff47f2","system_id":"levelo_inurba_marseille","lat":43.28923,"lon":5.38385,"is_reserved":false,"is_disabled":false,"rental_uris":{"android":"levelo://app?vid=f870bdee-b733-407e-9482-9a17fcff47f2","ios":"levelo://app?vid=f870bdee-b733-407e-9482-9a17fcff47f2"},"vehicle_type_id":"4","last_reported":1746180647,"current_range_meters":24800,"station_id":"ce4bh612rcd13ifvqe6g","pricing_plan_id":"cebpf4jnsgd1na2vs0mg"},{"bike_id":"e1ae484f-d77a-4469-81b3-89c3b25a1f09","system_id":"levelo_inurba_marseille","lat":43.27374,"lon":5.36248,"is_reserved":false,"is_disabled":false,"rental_uris":{"android":"levelo://app?vid=e1ae484f-d77a-4469-81b3-89c3b25a1f09","ios":"levelo://app?vid=e1ae484f-d77a-4469-81b3-89c3b25a1f09"},"vehicle_type_id":"4","last_reported":1746180647,"current_range_meters":24800,"station_id":"ce4bhbh2rcd13ifvqeo0","pricing_plan_id":"cebpf4jnsgd1na2vs0mg"},{"bike_id":"1651a6bb-eac1-4124-a1bd-18af65517383","system_id":"levelo_inurba_marseille","lat":43.246706,"lon":5.381637,"is_reserved":false,"is_disabled":false,"rental_uris":{"android":"levelo://app?vid=1651a6bb-eac1-4124-a1bd-18af65517383","ios":"levelo://app?vid=1651a6bb-eac1-4124-a1bd-18af65517383"},"vehicle_type_id":"4","last_reported":1746180647,"current_range_meters":24800,"station_id":"ce4bhnp2rcd13ifvqgvg","pricing_plan_id":"cebpf4jnsgd1na2vs0mg"},{"bike_id":"c146c5ec-4045-4629-802c-fcd8f7fdc9d3","system_id":"levelo_inurba_marseille","lat":43.23198,"lon":5.35553,"is_reserved":false,"is_disabled":false,"rental_uris":{"android":"levelo://app?vid=c146c5ec-4045-4629-802c-fcd8f7fdc9d3","ios":"levelo://app?vid=c146c5ec-4045-4629-802c-fcd8f7fdc9d3"},"vehicle_type_id":"4","last_reported":1746180647,"current_range_meters":24800,"station_id":"ce4bhu92rcd13ifvqi70","pricing_plan_id":"cebpf4jnsgd1na2vs0mg"},{"bike_id":"424e2940-bb8b-424c-ac60-619e039e68bf","system_id":"levelo_inurba_marseille","lat":43.21192,"lon":5.35074,"is_reserved":false,"is_disabled":false,"rental_uris":{"android":"levelo://app?vid=424e2940-bb8b-424c-ac60-619e039e68bf","ios":"levelo://app?vid=424e2940-bb8b-424c-ac60-619e039e68bf"},"vehicle_type_id":"4","last_reported":1746180647,"current_range_meters":24800,"station_id":"st_cvj6sg6p6f1abm77japg","pricing_plan_id":"cebpf4jnsgd1na2vs0mg"},{"bike_id":"d2fa06be-b9ad-4440-bb8c-fdf282a7ab65","system_id":"levelo_inurba_marseille","lat":43.21191,"lon":5.35072,"is_reserved":false,"is_disabled":false,"rental_uris":{"android":"levelo://app?vid=d2fa06be-b9ad-4440-bb8c-fdf282a7ab65","ios":"levelo://app?vid=d2fa06be-b9ad-4440-bb8c-fdf282a7ab65"},"vehicle_type_id":"4","last_reported":1746180647,"current_range_meters":24800,"station_id":"st_cvj6sg6p6f1abm77japg","pricing_plan_id":"cebpf4jnsgd1na2vs0mg"},{"bike_id":"7a095978-5f29-406a-b56e-0a251accf5db","system_id":"levelo_inurba_marseille","lat":43.30142,"lon":5.37418,"is_reserved":false,"is_disabled":false,"rental_uris":{"android":"levelo://app?vid=7a095978-5f29-406a-b56e-0a251accf5db","ios":"levelo://app?vid=7a095978-5f29-406a-b56e-0a251accf5db"},"vehicle_type_id":"4","last_reported":1746180647,"current_range_meters":25200,"station_id":"ce4bgs92rcd13ifvqcc0","pricing_plan_id":"cebpf4jnsgd1na2vs0mg"},{"bike_id":"e1a64426-ffc0-4245-915f-6394de1fa518","system_id":"levelo_inurba_marseille","lat":43.316967,"lon":5.404803,"is_reserved":false,"is_disabled":false,"rental_uris":{"android":"levelo://app?vid=e1a64426-ffc0-4245-915f-6394de1fa518","ios":"levelo://app?vid=e1a64426-ffc0-4245-915f-6394de1fa518"},"vehicle_type_id":"4","last_reported":1746180647,"current_range_meters":25200,"station_id":"ce4bh012rcd13ifvqd00","pricing_plan_id":"cebpf4jnsgd1na2vs0mg"},{"bike_id":"0c50b075-df31-402b-b0d6-8a3ab2acdf49","system_id":"levelo_inurba_marseille","lat":43.28419,"lon":5.34979,"is_reserved":false,"is_disabled":false,"rental_uris":{"android":"levelo://app?vid=0c50b075-df31-402b-b0d6-8a3ab2acdf49","ios":"levelo://app?vid=0c50b075-df31-402b-b0d6-8a3ab2acdf49"},"vehicle_type_id":"4","last_reported":1746180647,"current_range_meters":25200,"station_id":"ce4bhbh2rcd13ifvqepg","pricing_plan_id":"cebpf4jnsgd1na2vs0mg"},{"bike_id":"ea01f4f4-e217-41f9-b3e5-5cd2b2863d19","system_id":"levelo_inurba_marseille","lat":43.28265,"lon":5.35063,"is_reserved":false,"is_disabled":false,"rental_uris":{"android":"levelo://app?vid=ea01f4f4-e217-41f9-b3e5-5cd2b2863d19","ios":"levelo://app?vid=ea01f4f4-e217-41f9-b3e5-5cd2b2863d19"},"vehicle_type_id":"4","last_reported":1746180647,"current_range_meters":25200,"station_id":"ce4bhbp2rcd13ifvqerg","pricing_plan_id":"cebpf4jnsgd1na2vs0mg"},{"bike_id":"ea42dfa0-1961-46a4-89bd-f30229f77c1c","system_id":"levelo_inurba_marseille","lat":43.28613,"lon":5.35105,"is_reserved":false,"is_disabled":false,"rental_uris":{"android":"levelo://app?vid=ea42dfa0-1961-46a4-89bd-f30229f77c1c","ios":"levelo://app?vid=ea42dfa0-1961-46a4-89bd-f30229f77c1c"},"vehicle_type_id":"4","last_reported":1746180647,"current_range_meters":25200,"station_id":"ce4bhch2rcd13ifvqeug","pricing_plan_id":"cebpf4jnsgd1na2vs0mg"},{"bike_id":"d54cc4c7-5822-485d-ae67-b4f1de5727e2","system_id":"levelo_inurba_marseille","lat":43.24991,"lon":5.38934,"is_reserved":false,"is_disabled":false,"rental_uris":{"android":"levelo://app?vid=d54cc4c7-5822-485d-ae67-b4f1de5727e2","ios":"levelo://app?vid=d54cc4c7-5822-485d-ae67-b4f1de5727e2"},"vehicle_type_id":"4","last_reported":1746180647,"current_range_meters":25200,"station_id":"ce4bhgp2rcd13ifvqfd0","pricing_plan_id":"cebpf4jnsgd1na2vs0mg"},{"bike_id":"e34f47da-d9ea-48b0-8bb5-86bf7fc089cc","system_id":"levelo_inurba_marseille","lat":43.25861,"lon":5.39898,"is_reserved":false,"is_disabled":false,"rental_uris":{"android":"levelo://app?vid=e34f47da-d9ea-48b0-8bb5-86bf7fc089cc","ios":"levelo://app?vid=e34f47da-d9ea-48b0-8bb5-86bf7fc089cc"},"vehicle_type_id":"4","last_reported":1746180647,"current_range_meters":25200,"station_id":"ce4bhl92rcd13ifvqghg","pricing_plan_id":"cebpf4jnsgd1na2vs0mg"},{"bike_id":"dfab6cb6-055a-44f0-9d77-f6da3af09402","system_id":"levelo_inurba_marseille","lat":43.287092,"lon":5.399988,"is_reserved":false,"is_disabled":false,"rental_uris":{"android":"levelo://app?vid=dfab6cb6-055a-44f0-9d77-f6da3af09402","ios":"levelo://app?vid=dfab6cb6-055a-44f0-9d77-f6da3af09402"},"vehicle_type_id":"4","last_reported":1746180647,"current_range_meters":25200,"station_id":"ce4bho92rcd13ifvqh3g","pricing_plan_id":"cebpf4jnsgd1na2vs0mg"},{"bike_id":"8afd0a66-131d-46ce-afd6-157db44afd2a","system_id":"levelo_inurba_marseille","lat":43.30551,"lon":5.36694,"is_reserved":false,"is_disabled":false,"rental_uris":{"android":"levelo://app?vid=8afd0a66-131d-46ce-afd6-157db44afd2a","ios":"levelo://app?vid=8afd0a66-131d-46ce-afd6-157db44afd2a"},"vehicle_type_id":"4","last_reported":1746180647,"current_range_meters":25600,"station_id":"ce4bgrp2rcd13ifvqc9g","pricing_plan_id":"cebpf4jnsgd1na2vs0mg"},{"bike_id":"e9b09ba6-6a20-4452-bf61-3eea2617123d","system_id":"levelo_inurba_marseille","lat":43.27312,"lon":5.39076,"is_reserved":false,"is_disabled":false,"rental_uris":{"android":"levelo://app?vid=e9b09ba6-6a20-4452-bf61-3eea2617123d","ios":"levelo://app?vid=e9b09ba6-6a20-4452-bf61-3eea2617123d"},"vehicle_type_id":"4","last_reported":1746180647,"current_range_meters":25600,"station_id":"ce4bhgp2rcd13ifvqfe0","pricing_plan_id":"cebpf4jnsgd1na2vs0mg"},{"bike_id":"e52c269d-7c7d-4fe9-92df-0ba0743ca384","system_id":"levelo_inurba_marseille","lat":43.217456,"lon":5.34608,"is_reserved":false,"is_disabled":false,"rental_uris":{"android":"levelo://app?vid=e52c269d-7c7d-4fe9-92df-0ba0743ca384","ios":"levelo://app?vid=e52c269d-7c7d-4fe9-92df-0ba0743ca384"},"vehicle_type_id":"4","last_reported":1746180647,"current_range_meters":25600,"station_id":"st_cvj6r9ubvosntc0bgbag","pricing_plan_id":"cebpf4jnsgd1na2vs0mg"},{"bike_id":"b820bc71-0235-4378-91ab-add7fafc5ef4","system_id":"levelo_inurba_marseille","lat":43.29525,"lon":5.37503,"is_reserved":false,"is_disabled":false,"rental_uris":{"android":"levelo://app?vid=b820bc71-0235-4378-91ab-add7fafc5ef4","ios":"levelo://app?vid=b820bc71-0235-4378-91ab-add7fafc5ef4"},"vehicle_type_id":"4","last_reported":1746180647,"current_range_meters":26000,"station_id":"ce4bgkp2rcd13ifvqbmg","pricing_plan_id":"cebpf4jnsgd1na2vs0mg"},{"bike_id":"26daabb0-1f06-43a1-b98a-29475b26c8ab","system_id":"levelo_inurba_marseille","lat":43.29785,"lon":5.37095,"is_reserved":false,"is_disabled":false,"rental_uris":{"android":"levelo://app?vid=26daabb0-1f06-43a1-b98a-29475b26c8ab","ios":"levelo://app?vid=26daabb0-1f06-43a1-b98a-29475b26c8ab"},"vehicle_type_id":"4","last_reported":1746180647,"current_range_meters":26000,"station_id":"ce4bgop2rcd13ifvqc1g","pricing_plan_id":"cebpf4jnsgd1na2vs0mg"},{"bike_id":"5b15b01b-914e-4f73-9da9-47eb1ce4ee97","system_id":"levelo_inurba_marseille","lat":43.30138,"lon":5.37415,"is_reserved":false,"is_disabled":false,"rental_uris":{"android":"levelo://app?vid=5b15b01b-914e-4f73-9da9-47eb1ce4ee97","ios":"levelo://app?vid=5b15b01b-914e-4f73-9da9-47eb1ce4ee97"},"vehicle_type_id":"4","last_reported":1746180647,"current_range_meters":26000,"station_id":"ce4bgs92rcd13ifvqcc0","pricing_plan_id":"cebpf4jnsgd1na2vs0mg"},{"bike_id":"c5b95552-4021-46f8-92f1-269356402c71","system_id":"levelo_inurba_marseille","lat":43.3028,"lon":5.3771,"is_reserved":false,"is_disabled":false,"rental_uris":{"android":"levelo://app?vid=c5b95552-4021-46f8-92f1-269356402c71","ios":"levelo://app?vid=c5b95552-4021-46f8-92f1-269356402c71"},"vehicle_type_id":"4","last_reported":1746180647,"current_range_meters":26000,"station_id":"ce4bguh2rcd13ifvqcj0","pricing_plan_id":"cebpf4jnsgd1na2vs0mg"},{"bike_id":"6af9327c-36a6-4c99-8542-3440a4f0139d","system_id":"levelo_inurba_marseille","lat":43.28415,"lon":5.34981,"is_reserved":false,"is_disabled":false,"rental_uris":{"android":"levelo://app?vid=6af9327c-36a6-4c99-8542-3440a4f0139d","ios":"levelo://app?vid=6af9327c-36a6-4c99-8542-3440a4f0139d"},"vehicle_type_id":"4","last_reported":1746180647,"current_range_meters":26000,"station_id":"ce4bhbh2rcd13ifvqepg","pricing_plan_id":"cebpf4jnsgd1na2vs0mg"},{"bike_id":"2a549c40-b450-4113-8680-6195a3615997","system_id":"levelo_inurba_marseille","lat":43.23152,"lon":5.43704,"is_reserved":false,"is_disabled":false,"rental_uris":{"android":"levelo://app?vid=2a549c40-b450-4113-8680-6195a3615997","ios":"levelo://app?vid=2a549c40-b450-4113-8680-6195a3615997"},"vehicle_type_id":"4","last_reported":1746180647,"current_range_meters":26000,"station_id":"ce4bhmp2rcd13ifvqgog","pricing_plan_id":"cebpf4jnsgd1na2vs0mg"},{"bike_id":"640b2634-79b8-4c10-a4ef-ef670b3bf027","system_id":"levelo_inurba_marseille","lat":43.32548,"lon":5.41461,"is_reserved":false,"is_disabled":false,"rental_uris":{"android":"levelo://app?vid=640b2634-79b8-4c10-a4ef-ef670b3bf027","ios":"levelo://app?vid=640b2634-79b8-4c10-a4ef-ef670b3bf027"},"vehicle_type_id":"4","last_reported":1746180647,"current_range_meters":26000,"station_id":"ce4bhq12rcd13ifvqhhg","pricing_plan_id":"cebpf4jnsgd1na2vs0mg"},{"bike_id":"ac132c29-f819-4d62-974c-5c055342f4f0","system_id":"levelo_inurba_marseille","lat":43.21745,"lon":5.346,"is_reserved":false,"is_disabled":false,"rental_uris":{"android":"levelo://app?vid=ac132c29-f819-4d62-974c-5c055342f4f0","ios":"levelo://app?vid=ac132c29-f819-4d62-974c-5c055342f4f0"},"vehicle_type_id":"4","last_reported":1746180647,"current_range_meters":26000,"station_id":"st_cvj6r9ubvosntc0bgbag","pricing_plan_id":"cebpf4jnsgd1na2vs0mg"},{"bike_id":"9852fb1f-8825-4d85-924c-72eaf7b19cd7","system_id":"levelo_inurba_marseille","lat":43.29929,"lon":5.37505,"is_reserved":false,"is_disabled":false,"rental_uris":{"android":"levelo://app?vid=9852fb1f-8825-4d85-924c-72eaf7b19cd7","ios":"levelo://app?vid=9852fb1f-8825-4d85-924c-72eaf7b19cd7"},"vehicle_type_id":"4","last_reported":1746180647,"current_range_meters":26800,"station_id":"ce4bgjh2rcd13ifvqbg0","pricing_plan_id":"cebpf4jnsgd1na2vs0mg"},