{"last_updated":1700986124,"ttl":30,"version":"2.2","data":{"bikes":[{"bike_id":"593b191c-1ba0-4f23-979c-809cfe876dc8","system_id":"levelo_inurba_marseille","lat":43.312239,"lon":5.368562,"is_reserved":false,"is_disabled":false,"rental_uris":{"android":"levelo://app?vid=593b191c-1ba0-4f23-979c-809cfe876dc8","ios":"levelo://app?vid=593b191c-1ba0-4f23-979c-809cfe876dc8"},"vehicle_type_id":"4","last_reported":1700986125,"current_range_meters":26800,"station_id":"ce4bgl92rcd13ifvqbq0","pricing_plan_id":"free"},{"bike_id":"03d2367c-9729-40ce-bbe3-676067b27942","system_id":"levelo_inurba_marseille","lat":43.309076,"lon":5.368465,"is_reserved":false,"is_disabled":false,"rental_uris":{"android":"levelo://app?vid=03d2367c-9729-40ce-bbe3-676067b27942","ios":"levelo://app?vid=03d2367c-9729-40ce-bbe3-676067b27942"},"vehicle_type_id":"4","last_reported":1700986125,"current_range_meters":29200,"station_id":"ce4bgn92rcd13ifvqbvg","pricing_plan_id":"free"},{"bike_id":"2c4e2ab4-2bc9-4e71-8e28-b7f9c78b7444","system_id":"levelo_inurba_marseille","lat":43.306123,"lon":5.365933,"is_reserved":false,"is_disabled":false,"rental_uris":{"android":"levelo://app?vid=2c4e2ab4-2bc9-4e71-8e28-b7f9c78b7444","ios":"levelo://app?vid=2c4e2ab4-2bc9-4e71-8e28-b7f9c78b7444"},"vehicle_type_id":"4","last_reported":1700986125,"current_range_meters":0,"station_id":"ce4bgs12rcd13ifvqcag","pricing_plan_id":"free"},{"bike_id":"986b65e7-209d-43c9-a3a4-63e254b9b339","system_id":"levelo_inurba_marseille","lat":43.305989,"lon":5.37225,"is_reserved":false,"is_disabled":false,"rental_uris":{"android":"levelo://app?vid=986b65e7-209d-43c9-a3a4-63e254b9b339","ios":"levelo://app?vid=986b65e7-209d-43c9-a3a4-63e254b9b339"},"vehicle_type_id":"4","last_reported":1700986125,"current_range_meters":19600,"station_id":"ce4bgqh2rcd13ifvqc4g","pricing_plan_id":"free"},{"bike_id":"ae2b79a9-3dc8-4a59-9799-c21163324214","system_id":"levelo_inurba_marseille","lat":43.305989,"lon":5.37225,"is_reserved":false,"is_disabled":false,"rental_uris":{"android":"levelo://app?vid=ae2b79a9-3dc8-4a59-9799-c21163324214","ios":"levelo://app?vid=ae2b79a9-3dc8-4a59-9799-c21163324214"},"vehicle_type_id":"4","last_reported":1700986125,"current_range_meters":30400,"station_id":"ce4bgqh2rcd13ifvqc4g","pricing_plan_id":"free"},{"bike_id":"573a870a-b6c4-429d-8587-8103772b84bc","system_id":"levelo_inurba_marseille","lat":43.308135,"lon":5.376653,"is_reserved":false,"is_disabled":false,"rental_uris":{"android":"levelo://app?vid=573a870a-b6c4-429d-8587-8103772b84bc","ios":"levelo://app?vid=573a870a-b6c4-429d-8587-8103772b84bc"},"vehicle_type_id":"4","last_reported":1700986125,"current_range_meters":1600,"station_id":"ce4bgv92rcd13ifvqcq0","pricing_plan_id":"free"},{"bike_id":"f427a2c3-6e4a-446b-ae2f-9be8aa7f4122","system_id":"levelo_inurba_marseille","lat":43.31719,"lon":5.376813,"is_reserved":false,"is_disabled":false,"rental_uris":{"android":"levelo://app?vid=f427a2c3-6e4a-446b-ae2f-9be8aa7f4122","ios":"levelo://app?vid=f427a2c3-6e4a-446b-ae2f-9be8aa7f4122"},"vehicle_type_id":"4","last_reported":1700986125,"current_range_meters":22000,"station_id":"ce4bgth2rcd13ifvqch0","pricing_plan_id":"free"},{"bike_id":"b898b018-f57d-4901-bab2-fdd15d391de9","system_id":"levelo_inurba_marseille","lat":43.317168,"lon":5.376883,"is_reserved":false,"is_disabled":false,"rental_uris":{"android":"levelo://app?vid=b898b018-f57d-4901-bab2-fdd15d391de9","ios":"levelo://app?vid=b898b018-f57d-4901-bab2-fdd15d391de9"},"vehicle_type_id":"4","last_reported":1700986125,"current_range_meters":24000,"station_id":"ce4bgth2rcd13ifvqch0","pricing_plan_id":"free"},{"bike_id":"d358449b-8cdc-4fe5-89ef-a73c72bf38e8","system_id":"levelo_inurba_marseille","lat":43.307945,"lon":5.376487,"is_reserved":false,"is_disabled":false,"rental_uris":{"android":"levelo://app?vid=d358449b-8cdc-4fe5-89ef-a73c72bf38e8","ios":"levelo://app?vid=d358449b-8cdc-4fe5-89ef-a73c72bf38e8"},"vehicle_type_id":"4","last_reported":1700986125,"current_range_meters":26800,"station_id":"ce4bgv92rcd13ifvqcq0","pricing_plan_id":"free"},{"bike_id":"3dd1bd93-5287-4ffc-94aa-addf69396612","system_id":"levelo_inurba_marseille","lat":43.315344,"lon":5.380331,"is_reserved":false,"is_disabled":false,"rental_uris":{"android":"levelo://app?vid=3dd1bd93-5287-4ffc-94aa-addf69396612","ios":"levelo://app?vid=3dd1bd93-5287-4ffc-94aa-addf69396612"},"vehicle_type_id":"4","last_reported":1700986125,"current_range_meters":9600,"station_id":"ce4bhsp2rcd13ifvqi50","pricing_plan_id":"free"},{"bike_id":"c200345a-3bd8-4603-963e-2d6fa6b524a5","system_id":"levelo_inurba_marseille","lat":43.30189,"lon":5.36633,"is_reserved":false,"is_disabled":false,"rental_uris":{"android":"levelo://app?vid=c200345a-3bd8-4603-963e-2d6fa6b524a5","ios":"levelo://app?vid=c200345a-3bd8-4603-963e-2d6fa6b524a5"},"vehicle_type_id":"4","last_reported":1700986125,"current_range_meters":27600,"station_id":"ce4bgrh2rcd13ifvqc8g","pricing_plan_id":"free"},{"bike_id":"0d319648-1060-4c58-b3bb-33c7bf523d37","system_id":"levelo_inurba_marseille","lat":43.301939,"lon":5.366286,"is_reserved":false,"is_disabled":false,"rental_uris":{"android":"levelo://app?vid=0d319648-1060-4c58-b3bb-33c7bf523d37","ios":"levelo://app?vid=0d319648-1060-4c58-b3bb-33c7bf523d37"},"vehicle_type_id":"4","last_reported":1700986125,"current_range_meters":21600,"station_id":"ce4bgrh2rcd13ifvqc8g","pricing_plan_id":"free"},{"bike_id":"83e889aa-e22c-4625-8396-dffc3845e501","system_id":"levelo_inurba_marseille","lat":43.30472,"lon":5.37897,"is_reserved":false,"is_disabled":false,"rental_uris":{"android":"levelo://app?vid=83e889aa-e22c-4625-8396-dffc3845e501","ios":"levelo://app?vid=83e889aa-e22c-4625-8396-dffc3845e501"},"vehicle_type_id":"4","last_reported":1700986125,"current_range_meters":14000,"station_id":"ce4bgup2rcd13ifvqcn0","pricing_plan_id":"free"},{"bike_id":"88e997ac-67ed-4b29-b6ae-5b4e1b0ab96c","system_id":"levelo_inurba_marseille","lat":43.304606,"lon":5.379026,"is_reserved":false,"is_disabled":false,"rental_uris":{"android":"levelo://app?vid=88e997ac-67ed-4b29-b6ae-5b4e1b0ab96c","ios":"levelo://app?vid=88e997ac-67ed-4b29-b6ae-5b4e1b0ab96c"},"vehicle_type_id":"4","last_reported":1700986125,"current_range_meters":31200,"station_id":"ce4bgup2rcd13ifvqcn0","pricing_plan_id":"free"},{"bike_id":"5fbcd450-349c-4221-a97d-a673a6e55f28","system_id":"levelo_inurba_marseille","lat":43.304606,"lon":5.379026,"is_reserved":false,"is_disabled":false,"rental_uris":{"android":"levelo://app?vid=5fbcd450-349c-4221-a97d-a673a6e55f28","ios":"levelo://app?vid=5fbcd450-349c-4221-a97d-a673a6e55f28"},"vehicle_type_id":"4","last_reported":1700986125,"current_range_meters":17600,"station_id":"ce4bgup2rcd13ifvqcn0","pricing_plan_id":"free"},{"bike_id":"311a8a4c-7406-47cb-8c98-5c2c856cf6e4","system_id":"levelo_inurba_marseille","lat":43.304606,"lon":5.379026,"is_reserved":false,"is_disabled":false,"rental_uris":{"android":"levelo://app?vid=311a8a4c-7406-47cb-8c98-5c2c856cf6e4","ios":"levelo://app?vid=311a8a4c-7406-47cb-8c98-5c2c856cf6e4"},"vehicle_type_id":"4","last_reported":1700986125,"current_range_meters":18000,"station_id":"ce4bgup2rcd13ifvqcn0","pricing_plan_id":"free"},{"bike_id":"afb03874-a8a4-40f2-bcf7-3a1ae74ce189","system_id":"levelo_inurba_marseille","lat":43.304606,"lon":5.379026,"is_reserved":false,"is_disabled":false,"rental_uris":{"android":"levelo://app?vid=afb03874-a8a4-40f2-bcf7-3a1ae74ce189","ios":"levelo://app?vid=afb03874-a8a4-40f2-bcf7-3a1ae74ce189"},"vehicle_type_id":"4","last_reported":1700986125,"current_range_meters":28000,"station_id":"ce4bgup2rcd13ifvqcn0","pricing_plan_id":"free"},{"bike_id":"ae74edcf-4e14-45a4-9e17-b1d3504fcbd0","system_id":"levelo_inurba_marseille","lat":43.304606,"lon":5.379026,"is_reserved":false,"is_disabled":false,"rental_uris":{"android":"levelo://app?vid=ae74edcf-4e14-45a4-9e17-b1d3504fcbd0","ios":"levelo://app?vid=ae74edcf-4e14-45a4-9e17-b1d3504fcbd0"},"vehicle_type_id":"4","last_reported":1700986125,"current_range_meters":2000,"station_id":"ce4bgup2rcd13ifvqcn0","pricing_plan_id":"free"},{"bike_id":"921bb5be-2c30-44d0-b19b-8b28fa195635","system_id":"levelo_inurba_marseille","lat":43.304606,"lon":5.379026,"is_reserved":false,"is_disabled":false,"rental_uris":{"android":"levelo://app?vid=921bb5be-2c30-44d0-b19b-8b28fa195635","ios":"levelo://app?vid=921bb5be-2c30-44d0-b19b-8b28fa195635"},"vehicle_type_id":"4","last_reported":1700986125,"current_range_meters":31200,"station_id":"ce4bgup2rcd13ifvqcn0","pricing_plan_id":"free"},{"bike_id":"607b455d-a459-42cb-824b-aec2a9b677eb","system_id":"levelo_inurba_marseille","lat":43.301429,"lon":5.37413,"is_reserved":false,"is_disabled":false,"rental_uris":{"android":"levelo://app?vid=607b455d-a459-42cb-824b-aec2a9b677eb","ios":"levelo://app?vid=607b455d-a459-42cb-824b-aec2a9b677eb"},"vehicle_type_id":"4","last_reported":1700986125,"current_range_meters":28400,"station_id":"ce4bgs92rcd13ifvqcc0","pricing_plan_id":"free"},{"bike_id":"a665e2b4-af2b-437d-8c82-57be44ef384b","system_id":"levelo_inurba_marseille","lat":43.30143,"lon":5.37413,"is_reserved":false,"is_disabled":false,"rental_uris":{"android":"levelo://app?vid=a665e2b4-af2b-437d-8c82-57be44ef384b","ios":"levelo://app?vid=a665e2b4-af2b-437d-8c82-57be44ef384b"},"vehicle_type_id":"4","last_reported":1700986125,"current_range_meters":13600,"station_id":"ce4bgs92rcd13ifvqcc0","pricing_plan_id":"free"},{"bike_id":"37b33645-89d7-4706-ad67-8561aeaa3082","system_id":"levelo_inurba_marseille","lat":43.313584,"lon":5.384978,"is_reserved":false,"is_disabled":false,"rental_uris":{"android":"levelo://app?vid=37b33645-89d7-4706-ad67-8561aeaa3082","ios":"levelo://app?vid=37b33645-89d7-4706-ad67-8561aeaa3082"},"vehicle_type_id":"4","last_reported":1700986125,"current_range_meters":0,"station_id":"ce4bgt92rcd13ifvqcf0","pricing_plan_id":"free"},{"bike_id":"4d1176d8-d007-45e5-b023-1ed1f1fa9ddc","system_id":"levelo_inurba_marseille","lat":43.298433,"lon":5.362774,"is_reserved":false,"is_disabled":false,"rental_uris":{"android":"levelo://app?vid=4d1176d8-d007-45e5-b023-1ed1f1fa9ddc","ios":"levelo://app?vid=4d1176d8-d007-45e5-b023-1ed1f1fa9ddc"},"vehicle_type_id":"4","last_reported":1700986125,"current_range_meters":24400,"station_id":"ce4bgpp2rcd13ifvqc3g","pricing_plan_id":"free"},{"bike_id":"828e663a-c34d-45d1-849c-ab680196da69","system_id":"levelo_inurba_marseille","lat":43.298433,"lon":5.362774,"is_reserved":false,"is_disabled":false,"rental_uris":{"android":"levelo://app?vid=828e663a-c34d-45d1-849c-ab680196da69","ios":"levelo://app?vid=828e663a-c34d-45d1-849c-ab680196da69"},"vehicle_type_id":"4","last_reported":1700986125,"current_range_meters":21200,"station_id":"ce4bgpp2rcd13ifvqc3g","pricing_plan_id":"free"},{"bike_id":"e7f47ecb-a43c-4a16-9ad6-cc6de4f6da1a","system_id":"levelo_inurba_marseille","lat":43.298433,"lon":5.362774,"is_reserved":false,"is_disabled":false,"rental_uris":{"android":"levelo://app?vid=e7f47ecb-a43c-4a16-9ad6-cc6de4f6da1a","ios":"levelo://app?vid=e7f47ecb-a43c-4a16-9ad6-cc6de4f6da1a"},"vehicle_type_id":"4","last_reported":1700986125,"current_range_meters":17200,"station_id":"ce4bgpp2rcd13ifvqc3g","pricing_plan_id":"free"},{"bike_id":"3c0f0e03-19e8-4b31-9bda-a925ec1d2126","system_id":"levelo_inurba_marseille","lat":43.298433,"lon":5.362774,"is_reserved":false,"is_disabled":false,"rental_uris":{"android":"levelo://app?vid=3c0f0e03-19e8-4b31-9bda-a925ec1d2126","ios":"levelo://app?vid=3c0f0e03-19e8-4b31-9bda-a925ec1d2126"},"vehicle_type_id":"4","last_reported":1700986125,"current_range_meters":1600,"station_id":"ce4bgpp2rcd13ifvqc3g","pricing_plan_id":"free"},{"bike_id":"56993461-9739-4f3c-8d89-034c48a04e66","system_id":"levelo_inurba_marseille","lat":43.305364,"lon":5.384119,"is_reserved":false,"is_disabled":false,"rental_uris":{"android":"levelo://app?vid=56993461-9739-4f3c-8d89-034c48a04e66","ios":"levelo://app?vid=56993461-9739-4f3c-8d89-034c48a04e66"},"vehicle_type_id":"4","last_reported":1700986125,"current_range_meters":31200,"station_id":"ce4bgg92rcd13ifvqb30","pricing_plan_id":"free"},{"bike_id":"c668379c-2986-4ad3-b5e8-c6239cd7650d","system_id":"levelo_inurba_marseille","lat":43.298433,"lon":5.362774,"is_reserved":false,"is_disabled":false,"rental_uris":{"android":"levelo://app?vid=c668379c-2986-4ad3-b5e8-c6239cd7650d","ios":"levelo://app?vid=c668379c-2986-4ad3-b5e8-c6239cd7650d"},"vehicle_type_id":"4","last_reported":1700986125,"current_range_meters":20800,"station_id":"ce4bgpp2rcd13ifvqc3g","pricing_plan_id":"free"},{"bike_id":"7af6db02-e034-4701-a80e-f5bc0d145240","system_id":"levelo_inurba_marseille","lat":43.299243,"lon":5.37481,"is_reserved":false,"is_disabled":false,"rental_uris":{"android":"levelo://app?vid=7af6db02-e034-4701-a80e-f5bc0d145240","ios":"levelo://app?vid=7af6db02-e034-4701-a80e-f5bc0d145240"},"vehicle_type_id":"4","last_reported":1700986125,"current_range_meters":26800,"station_id":"ce4bgjh2rcd13ifvqbg0","pricing_plan_id":"free"},{"bike_id":"03c4961a-a76b-4778-9210-9d2dfeae6e75","system_id":"levelo_inurba_marseille","lat":43.299243,"lon":5.374807,"is_reserved":false,"is_disabled":false,"rental_uris":{"android":"levelo://app?vid=03c4961a-a76b-4778-9210-9d2dfeae6e75","ios":"levelo://app?vid=03c4961a-a76b-4778-9210-9d2dfeae6e75"},"vehicle_type_id":"4","last_reported":1700986125,"current_range_meters":7200,"station_id":"ce4bgjh2rcd13ifvqbg0","pricing_plan_id":"free"},{"bike_id":"33b2f5bd-7a32-4663-9fce-bcbc4ed6250d","system_id":"levelo_inurba_marseille","lat":43.311722,"lon":5.387247,"is_reserved":false,"is_disabled":false,"rental_uris":{"android":"levelo://app?vid=33b2f5bd-7a32-4663-9fce-bcbc4ed6250d","ios":"levelo://app?vid=33b2f5bd-7a32-4663-9fce-bcbc4ed6250d"},"vehicle_type_id":"4","last_reported":1700986125,"current_range_meters":30000,"station_id":"ce4bgv12rcd13ifvqcp0","pricing_plan_id":"free"},{"bike_id":"d722cd4d-630c-4219-bddf-3bae411140dc","system_id":"levelo_inurba_marseille","lat":43.311722,"lon":5.387247,"is_reserved":false,"is_disabled":false,"rental_uris":{"android":"levelo://app?vid=d722cd4d-630c-4219-bddf-3bae411140dc","ios":"levelo://app?vid=d722cd4d-630c-4219-bddf-3bae411140dc"},"vehicle_type_id":"4","last_reported":1700986125,"current_range_meters":27600,"station_id":"ce4bgv12rcd13ifvqcp0","pricing_plan_id":"free"},{"bike_id":"2fb7829c-e11d-48fe-bdc0-14e62cd3e5b9","system_id":"levelo_inurba_marseille","lat":43.299243,"lon":5.37481,"is_reserved":false,"is_disabled":false,"rental_uris":{"android":"levelo://app?vid=2fb7829c-e11d-48fe-bdc0-14e62cd3e5b9","ios":"levelo://app?vid=2fb7829c-e11d-48fe-bdc0-14e62cd3e5b9"},"vehicle_type_id":"4","last_reported":1700986125,"current_range_meters":28800,"station_id":"ce4bgjh2rcd13ifvqbg0","pricing_plan_id":"free"},{"bike_id":"64c295bd-7000-4429-b7d3-849f1e467e67","system_id":"levelo_inurba_marseille","lat":43.297774,"lon":5.370875,"is_reserved":false,"is_disabled":false,"rental_uris":{"android":"levelo://app?vid=64c295bd-7000-4429-b7d3-849f1e467e67","ios":"levelo://app?vid=64c295bd-7000-4429-b7d3-849f1e467e67"},"vehicle_type_id":"4","last_reported":1700986125,"current_range_meters":27600,"station_id":"ce4bgop2rcd13ifvqc1g","pricing_plan_id":"free"},{"bike_id":"44bcb1df-e66f-4a27-9c41-4844a0c89864","system_id":"levelo_inurba_marseille","lat":43.298433,"lon":5.362774,"is_reserved":false,"is_disabled":false,"rental_uris":{"android":"levelo://app?vid=44bcb1df-e66f-4a27-9c41-4844a0c89864","ios":"levelo://app?vid=44bcb1df-e66f-4a27-9c41-4844a0c89864"},"vehicle_type_id":"4","last_reported":1700986125,"current_range_meters":12000,"station_id":"ce4bgpp2rcd13ifvqc3g","pricing_plan_id":"free"},{"bike_id":"dde05333-e352-401b-b5f5-5f06d01f96c9","system_id":"levelo_inurba_marseille","lat":43.297163,"lon":5.365866,"is_reserved":false,"is_disabled":false,"rental_uris":{"android":"levelo://app?vid=dde05333-e352-401b-b5f5-5f06d01f96c9","ios":"levelo://app?vid=dde05333-e352-401b-b5f5-5f06d01f96c9"},"vehicle_type_id":"4","last_reported":1700986125,"current_range_meters":9600,"station_id":"ce4bgn12rcd13ifvqbt0","pricing_plan_id":"free"},{"bike_id":"c662922b-aa93-4e71-a75b-a6a82c83893a","system_id":"levelo_inurba_marseille","lat":43.296131,"lon":5.370791,"is_reserved":false,"is_disabled":false,"rental_uris":{"android":"levelo://app?vid=c662922b-aa93-4e71-a75b-a6a82c83893a","ios":"levelo://app?vid=c662922b-aa93-4e71-a75b-a6a82c83893a"},"vehicle_type_id":"4","last_reported":1700986125,"current_range_meters":29200,"station_id":"ce4bgnh2rcd13ifvqc0g","pricing_plan_id":"free"},{"bike_id":"6e00c2e6-34a3-49c8-9519-5fcc8881755d","system_id":"levelo_inurba_marseille","lat":43.296131,"lon":5.370791,"is_reserved":false,"is_disabled":false,"rental_uris":{"android":"levelo://app?vid=6e00c2e6-34a3-49c8-9519-5fcc8881755d","ios":"levelo://app?vid=6e00c2e6-34a3-49c8-9519-5fcc8881755d"},"vehicle_type_id":"4","last_reported":1700986125,"current_range_meters":31200,"station_id":"ce4bgnh2rcd13ifvqc0g","pricing_plan_id":"free"},{"bike_id":"58034286-d764-400c-92dc-17f57034801c","system_id":"levelo_inurba_marseille","lat":43.29573,"lon":5.367355,"is_reserved":false,"is_disabled":false,"rental_uris":{"android":"levelo://app?vid=58034286-d764-400c-92dc-17f57034801c","ios":"levelo://app?vid=58034286-d764-400c-92dc-17f57034801c"},"vehicle_type_id":"4","last_reported":1700986125,"current_range_meters":30400,"station_id":"ce4bgph2rcd13ifvqc2g","pricing_plan_id":"free"},{"bike_id":"663d21e8-2e74-4084-92c9-81d38f995fd9","system_id":"levelo_inurba_marseille","lat":43.29573,"lon":5.367355,"is_reserved":false,"is_disabled":false,"rental_uris":{"android":"levelo://app?vid=663d21e8-2e74-4084-92c9-81d38f995fd9","ios":"levelo://app?vid=663d21e8-2e74-4084-92c9-81d38f995fd9"},"vehicle_type_id":"4","last_reported":1700986125,"current_range_meters":30800,"station_id":"ce4bgph2rcd13ifvqc2g","pricing_plan_id":"free"},{"bike_id":"531d88f8-7655-4da7-91e6-057e956e51f8","system_id":"levelo_inurba_marseille","lat":43.296131,"lon":5.370791,"is_reserved":false,"is_disabled":false,"rental_uris":{"android":"levelo://app?vid=531d88f8-7655-4da7-91e6-057e956e51f8","ios":"levelo://app?vid=531d88f8-7655-4da7-91e6-057e956e51f8"},"vehicle_type_id":"4","last_reported":1700986125,"current_range_meters":24800,"station_id":"ce4bgnh2rcd13ifvqc0g","pricing_plan_id":"free"},{"bike_id":"b8f8084c-3862-4d7e-96dd-7313cbf34a87","system_id":"levelo_inurba_marseille","lat":43.296131,"lon":5.370791,"is_reserved":false,"is_disabled":false,"rental_uris":{"android":"levelo://app?vid=b8f8084c-3862-4d7e-96dd-7313cbf34a87","ios":"levelo://app?vid=b8f8084c-3862-4d7e-96dd-7313cbf34a87"},"vehicle_type_id":"4","last_reported":1700986125,"current_range_meters":31600,"station_id":"ce4bgnh2rcd13ifvqc0g","pricing_plan_id":"free"},{"bike_id":"995d6062-015c-48cc-ba4f-7e0f5ccd6bcf","system_id":"levelo_inurba_marseille","lat":43.296131,"lon":5.370791,"is_reserved":false,"is_disabled":false,"rental_uris":{"android":"levelo://app?vid=995d6062-015c-48cc-ba4f-7e0f5ccd6bcf","ios":"levelo://app?vid=995d6062-015c-48cc-ba4f-7e0f5ccd6bcf"},"vehicle_type_id":"4","last_reported":1700986125,"current_range_meters":22800,"station_id":"ce4bgnh2rcd13ifvqc0g","pricing_plan_id":"free"},{"bike_id":"74a6eadd-de0a-4852-9bfa-c9dd403c0892","system_id":"levelo_inurba_marseille","lat":43.29573,"lon":5.367355,"is_reserved":false,"is_disabled":false,"rental_uris":{"android":"levelo://app?vid=74a6eadd-de0a-4852-9bfa-c9dd403c0892","ios":"levelo://app?vid=74a6eadd-de0a-4852-9bfa-c9dd403c0892"},"vehicle_type_id":"4","last_reported":1700986125,"current_range_meters":30400,"station_id":"ce4bgph2rcd13ifvqc2g","pricing_plan_id":"free"},{"bike_id":"2ed359b4-f75c-48f2-a0c8-62dcf4c5ade5","system_id":"levelo_inurba_marseille","lat":43.29573,"lon":5.367355,"is_reserved":false,"is_disabled":false,"rental_uris":{"android":"levelo://app?vid=2ed359b4-f75c-48f2-a0c8-62dcf4c5ade5","ios":"levelo://app?vid=2ed359b4-f75c-48f2-a0c8-62dcf4c5ade5"},"vehicle_type_id":"4","last_reported":1700986125,"current_range_meters":29600,"station_id":"ce4bgph2rcd13ifvqc2g","pricing_plan_id":"free"},{"bike_id":"b1e22c6c-5113-4ef3-a28e-b67cbfef7a27","system_id":"levelo_inurba_marseille","lat":43.29573,"lon":5.367355,"is_reserved":false,"is_disabled":false,"rental_uris":{"android":"levelo://app?vid=b1e22c6c-5113-4ef3-a28e-b67cbfef7a27","ios":"levelo://app?vid=b1e22c6c-5113-4ef3-a28e-b67cbfef7a27"},"vehicle_type_id":"4","last_reported":1700986125,"current_range_meters":23200,"station_id":"ce4bgph2rcd13ifvqc2g","pricing_plan_id":"free"},{"bike_id":"34b9b022-7809-47e4-a342-191f234e3513","system_id":"levelo_inurba_marseille","lat":43.29573,"lon":5.367355,"is_reserved":false,"is_disabled":false,"rental_uris":{"android":"levelo://app?vid=34b9b022-7809-47e4-a342-191f234e3513","ios":"levelo://app?vid=34b9b022-7809-47e4-a342-191f234e3513"},"vehicle_type_id":"4","last_reported":1700986125,"current_range_meters":30000,"station_id":"ce4bgph2rcd13ifvqc2g","pricing_plan_id":"free"},{"bike_id":"ab39da71-626d-4058-966f-ee57e9010d46","system_id":"levelo_inurba_marseille","lat":43.299028,"lon":5.381509,"is_reserved":false,"is_disabled":false,"rental_uris":{"android":"levelo://app?vid=ab39da71-626d-4058-966f-ee57e9010d46","ios":"levelo://app?vid=ab39da71-626d-4058-966f-ee57e9010d46"},"vehicle_type_id":"4","last_reported":1700986125,"current_range_meters":29600,"station_id":"ce4bgj12rcd13ifvqbc0","pricing_plan_id":"free"},{"bike_id":"1f1ffd0f-fb93-4029-bb18-74eb2e4bc296","system_id":"levelo_inurba_marseille","lat":43.309538,"lon":5.390288,"is_reserved":false,"is_disabled":false,"rental_uris":{"android":"levelo://app?vid=1f1ffd0f-fb93-4029-bb18-74eb2e4bc296","ios":"levelo://app?vid=1f1ffd0f-fb93-4029-bb18-74eb2e4bc296"},"vehicle_type_id":"4","last_reported":1700986125,"current_range_meters":1200,"station_id":"ce4bgup2rcd13ifvqco0","pricing_plan_id":"free"},{"bike_id":"de083539-a059-4dbb-beaa-caa5a1e3169f","system_id":"levelo_inurba_marseille","lat":43.309589,"lon":5.390258,"is_reserved":false,"is_disabled":false,"rental_uris":{"android":"levelo://app?vid=de083539-a059-4dbb-beaa-caa5a1e3169f","ios":"levelo://app?vid=de083539-a059-4dbb-beaa-caa5a1e3169f"},"vehicle_type_id":"4","last_reported":1700986125,"current_range_meters":20000,"station_id":"ce4bgup2rcd13ifvqco0","pricing_plan_id":"free"},{"bike_id":"a1fd39f2-ff99-42b3-bb8c-be5d677f6511","system_id":"levelo_inurba_marseille","lat":43.296921,"lon":5.376579,"is_reserved":false,"is_disabled":false,"rental_uris":{"android":"levelo://app?vid=a1fd39f2-ff99-42b3-bb8c-be5d677f6511","ios":"levelo://app?vid=a1fd39f2-ff99-42b3-bb8c-be5d677f6511"},"vehicle_type_id":"4","last_reported":1700986125,"current_range_meters":4000,"station_id":"ce4bgkh2rcd13ifvqbl0","pricing_plan_id":"free"},{"bike_id":"baa56aa9-6250-46d2-ac84-2f5a0b433d83","system_id":"levelo_inurba_marseille","lat":43.299028,"lon":5.381509,"is_reserved":false,"is_disabled":false,"rental_uris":{"android":"levelo://app?vid=baa56aa9-6250-46d2-ac84-2f5a0b433d83","ios":"levelo://app?vid=baa56aa9-6250-46d2-ac84-2f5a0b433d83"},"vehicle_type_id":"4","last_reported":1700986125,"current_range_meters":26800,"station_id":"ce4bgj12rcd13ifvqbc0","pricing_plan_id":"free"},{"bike_id":"beff33c3-19de-453f-854c-6ef986ace5c6","system_id":"levelo_inurba_marseille","lat":43.296935,"lon":5.376544,"is_reserved":false,"is_disabled":false,"rental_uris":{"android":"levelo://app?vid=beff33c3-19de-453f-854c-6ef986ace5c6","ios":"levelo://app?vid=beff33c3-19de-453f-854c-6ef986ace5c6"},"vehicle_type_id":"4","last_reported":1700986125,"current_range_meters":27600,"station_id":"ce4bgkh2rcd13ifvqbl0","pricing_plan_id":"free"},{"bike_id":"b4f7abdd-f4b4-450c-8867-e0da0d389c56","system_id":"levelo_inurba_marseille","lat":43.304274,"lon":5.388873,"is_reserved":false,"is_disabled":false,"rental_uris":{"android":"levelo://app?vid=b4f7abdd-f4b4-450c-8867-e0da0d389c56","ios":"levelo://app?vid=b4f7abdd-f4b4-450c-8867-e0da0d389c56"},"vehicle_type_id":"4","last_reported":1700986125,"current_range_meters":28800,"station_id":"ce4bgk12rcd13ifvqbi0","pricing_plan_id":"free"},{"bike_id":"7ff6df88-5c47-4d62-9886-83a78fdee9f8","system_id":"levelo_inurba_marseille","lat":43.304278,"lon":5.388868,"is_reserved":false,"is_disabled":false,"rental_uris":{"android":"levelo://app?vid=7ff6df88-5c47-4d62-9886-83a78fdee9f8","ios":"levelo://app?vid=7ff6df88-5c47-4d62-9886-83a78fdee9f8"},"vehicle_type_id":"4","last_reported":1700986125,"current_range_meters":26800,"station_id":"ce4bgk12rcd13ifvqbi0","pricing_plan_id":"free"},{"bike_id":"d4cff25c-bade-4fb4-a5f9-f6b424619349","system_id":"levelo_inurba_marseille","lat":43.299707,"lon":5.384859,"is_reserved":false,"is_disabled":false,"rental_uris":{"android":"levelo://app?vid=d4cff25c-bade-4fb4-a5f9-f6b424619349","ios":"levelo://app?vid=d4cff25c-bade-4fb4-a5f9-f6b424619349"},"vehicle_type_id":"4","last_reported":1700986125,"current_range_meters":25200,"station_id":"ce4bgj92rcd13ifvqbd0","pricing_plan_id":"free"},{"bike_id":"a9fc002c-95dd-48ee-b0e5-3d99ee412922","system_id":"levelo_inurba_marseille","lat":43.299724,"lon":5.384848,"is_reserved":false,"is_disabled":false,"rental_uris":{"android":"levelo://app?vid=a9fc002c-95dd-48ee-b0e5-3d99ee412922","ios":"levelo://app?vid=a9fc002c-95dd-48ee-b0e5-3d99ee412922"},"vehicle_type_id":"4","last_reported":1700986125,"current_range_meters":28000,"station_id":"ce4bgj92rcd13ifvqbd0","pricing_plan_id":"free"},{"bike_id":"823ebc22-dd17-40e9-adca-457f80064c7f","system_id":"levelo_inurba_marseille","lat":43.299724,"lon":5.384848,"is_reserved":false,"is_disabled":false,"rental_uris":{"android":"levelo://app?vid=823ebc22-dd17-40e9-adca-457f80064c7f","ios":"levelo://app?vid=823ebc22-dd17-40e9-adca-457f80064c7f"},"vehicle_type_id":"4","last_reported":1700986125,"current_range_meters":30400,"station_id":"ce4bgj92rcd13ifvqbd0","pricing_plan_id":"free"},{"bike_id":"6b621983-5e9e-42f7-990d-ad5a093820d2","system_id":"levelo_inurba_marseille","lat":43.293801,"lon":5.363066,"is_reserved":false,"is_disabled":false,"rental_uris":{"android":"levelo://app?vid=6b621983-5e9e-42f7-990d-ad5a093820d2","ios":"levelo://app?vid=6b621983-5e9e-42f7-990d-ad5a093820d2"},"vehicle_type_id":"4","last_reported":1700986125,"current_range_meters":0,"station_id":"","pricing_plan_id":"free"},{"bike_id":"3f7e7cb0-3216-4c85-ad2c-17224a07f881","system_id":"levelo_inurba_marseille","lat":43.293249,"lon":5.371578,"is_reserved":false,"is_disabled":false,"rental_uris":{"android":"levelo://app?vid=3f7e7cb0-3216-4c85-ad2c-17224a07f881","ios":"levelo://app?vid=3f7e7cb0-3216-4c85-ad2c-17224a07f881"},"vehicle_type_id":"4","last_reported":1700986125,"current_range_meters":30000,"station_id":"ce4bgh92rcd13ifvqb40","pricing_plan_id":"free"},{"bike_id":"6f2ef802-73b7-457b-b876-39036b87b9f4","system_id":"levelo_inurba_marseille","lat":43.292749,"lon":5.368402,"is_reserved":false,"is_disabled":false,"rental_uris":{"android":"levelo://app?vid=6f2ef802-73b7-457b-b876-39036b87b9f4","ios":"levelo://app?vid=6f2ef802-73b7-457b-b876-39036b87b9f4"},"vehicle_type_id":"4","last_reported":1700986125,"current_range_meters":23600,"station_id":"ce4bhbp2rcd13ifvqesg","pricing_plan_id":"free"},{"bike_id":"c5c81066-2418-40f8-80b5-23cad610877d","system_id":"levelo_inurba_marseille","lat":43.305994,"lon":5.393687,"is_reserved":false,"is_disabled":false,"rental_uris":{"android":"levelo://app?vid=c5c81066-2418-40f8-80b5-23cad610877d","ios":"levelo://app?vid=c5c81066-2418-40f8-80b5-23cad610877d"},"vehicle_type_id":"4","last_reported":1700986125,"current_range_meters":30000,"station_id":"ce4bh0p2rcd13ifvqd80","pricing_plan_id":"free"},{"bike_id":"b156a3b8-0824-4ff5-9303-2d833dcdbb74","system_id":"levelo_inurba_marseille","lat":43.293009,"lon":5.374584,"is_reserved":false,"is_disabled":false,"rental_uris":{"android":"levelo://app?vid=b156a3b8-0824-4ff5-9303-2d833dcdbb74","ios":"levelo://app?vid=b156a3b8-0824-4ff5-9303-2d833dcdbb74"},"vehicle_type_id":"4","last_reported":1700986125,"current_range_meters":24800,"station_id":"ce4bgi12rcd13ifvqb70","pricing_plan_id":"free"},{"bike_id":"ef56f204-aeb9-4849-a3fa-8543fba8ccee","system_id":"levelo_inurba_marseille","lat":43.292311,"lon":5.360731,"is_reserved":false,"is_disabled":false,"rental_uris":{"android":"levelo://app?vid=ef56f204-aeb9-4849-a3fa-8543fba8ccee","ios":"levelo://app?vid=ef56f204-aeb9-4849-a3fa-8543fba8ccee"},"vehicle_type_id":"4","last_reported":1700986125,"current_range_meters":28800,"station_id":"ce4bhbh2rcd13ifvqeqg","pricing_plan_id":"free"},{"bike_id":"bf811f69-787c-4042-b1a8-3af718520c45","system_id":"levelo_inurba_marseille","lat":43.292311,"lon":5.360731,"is_reserved":false,"is_disabled":false,"rental_uris":{"android":"levelo://app?vid=bf811f69-787c-4042-b1a8-3af718520c45","ios":"levelo://app?vid=bf811f69-787c-4042-b1a8-3af718520c45"},"vehicle_type_id":"4","last_reported":1700986125,"current_range_meters":25200,"station_id":"ce4bhbh2rcd13ifvqeqg","pricing_plan_id":"free"},{"bike_id":"7742942f-34c8-4d11-ae3a-e53237bc3742","system_id":"levelo_inurba_marseille","lat":43.292311,"lon":5.360731,"is_reserved":false,"is_disabled":false,"rental_uris":{"android":"levelo://app?vid=7742942f-34c8-4d11-ae3a-e53237bc3742","ios":"levelo://app?vid=7742942f-34c8-4d11-ae3a-e53237bc3742"},"vehicle_type_id":"4","last_reported":1700986125,"current_range_meters":27600,"station_id":"ce4bhbh2rcd13ifvqeqg","pricing_plan_id":"free"},{"bike_id":"e100b2da-acd7-442a-996c-32ec66579328","system_id":"levelo_inurba_marseille","lat":43.29216,"lon":5.36051,"is_reserved":false,"is_disabled":false,"rental_uris":{"android":"levelo://app?vid=e100b2da-acd7-442a-996c-32ec66579328","ios":"levelo://app?vid=e100b2da-acd7-442a-996c-32ec66579328"},"vehicle_type_id":"4","last_reported":1700986125,"current_range_meters":31200,"station_id":"ce4bhbh2rcd13ifvqeqg","pricing_plan_id":"free"},{"bike_id":"be8beb00-f4e4-4b3a-b021-d3c5ca72c974","system_id":"levelo_inurba_marseille","lat":43.30887,"lon":5.396395,"is_reserved":false,"is_disabled":false,"rental_uris":{"android":"levelo://app?vid=be8beb00-f4e4-4b3a-b021-d3c5ca72c974","ios":"levelo://app?vid=be8beb00-f4e4-4b3a-b021-d3c5ca72c974"},"vehicle_type_id":"4","last_reported":1700986125,"current_range_meters":14400,"station_id":"ce4bh012rcd13ifvqcv0","pricing_plan_id":"free"},{"bike_id":"0736bc3f-4481-4dae-ab1f-aafcaa4e2927","system_id":"levelo_inurba_marseille","lat":43.309038,"lon":5.396546,"is_reserved":false,"is_disabled":false,"rental_uris":{"android":"levelo://app?vid=0736bc3f-4481-4dae-ab1f-aafcaa4e2927","ios":"levelo://app?vid=0736bc3f-4481-4dae-ab1f-aafcaa4e2927"},"vehicle_type_id":"4","last_reported":1700986125,"current_range_meters":25200,"station_id":"ce4bh012rcd13ifvqcv0","pricing_plan_id":"free"},{"bike_id":"bce0bfbe-2a8f-41cb-8054-8879cbfcdda5","system_id":"levelo_inurba_marseille","lat":43.308865,"lon":5.396419,"is_reserved":false,"is_disabled":false,"rental_uris":{"android":"levelo://app?vid=bce0bfbe-2a8f-41cb-8054-8879cbfcdda5","ios":"levelo://app?vid=bce0bfbe-2a8f-41cb-8054-8879cbfcdda5"},"vehicle_type_id":"4","last_reported":1700986125,"current_range_meters":30000,"station_id":"ce4bh012rcd13ifvqcv0","pricing_plan_id":"free"},{"bike_id":"118eb32a-3cd8-43d5-aa47-764836971e68","system_id":"levelo_inurba_marseille","lat":43.309047,"lon":5.396551,"is_reserved":false,"is_disabled":false,"rental_uris":{"android":"levelo://app?vid=118eb32a-3cd8-43d5-aa47-764836971e68","ios":"levelo://app?vid=118eb32a-3cd8-43d5-aa47-764836971e68"},"vehicle_type_id":"4","last_reported":1700986125,"current_range_meters":29600,"station_id":"ce4bh012rcd13ifvqcv0","pricing_plan_id":"free"},{"bike_id":"d50accdd-0958-4344-a7b1-99d6174e896a","system_id":"levelo_inurba_marseille","lat":43.309047,"lon":5.396551,"is_reserved":false,"is_disabled":false,"rental_uris":{"android":"levelo://app?vid=d50accdd-0958-4344-a7b1-99d6174e896a","ios":"levelo://app?vid=d50accdd-0958-4344-a7b1-99d6174e896a"},"vehicle_type_id":"4","last_reported":1700986125,"current_range_meters":30400,"station_id":"ce4bh012rcd13ifvqcv0","pricing_plan_id":"free"},{"bike_id":"7fb0e822-f802-4eee-9fe8-dc6679eaff76","system_id":"levelo_inurba_marseille","lat":43.308845,"lon":5.396481,"is_reserved":false,"is_disabled":false,"rental_uris":{"android":"levelo://app?vid=7fb0e822-f802-4eee-9fe8-dc6679eaff76","ios":"levelo://app?vid=7fb0e822-f802-4eee-9fe8-dc6679eaff76"},"vehicle_type_id":"4","last_reported":1700986125,"current_range_meters":31200,"station_id":"ce4bh012rcd13ifvqcv0","pricing_plan_id":"free"},{"bike_id":"d004a540-b451-4f1f-a4b2-16e4213cc9bc","system_id":"levelo_inurba_marseille","lat":43.29185,"lon":5.35797,"is_reserved":false,"is_disabled":false,"rental_uris":{"android":"levelo://app?vid=d004a540-b451-4f1f-a4b2-16e4213cc9bc","ios":"levelo://app?vid=d004a540-b451-4f1f-a4b2-16e4213cc9bc"},"vehicle_type_id":"4","last_reported":1700986125,"current_range_meters":29600,"station_id":"ce4bhb12rcd13ifvqel0","pricing_plan_id":"free"},{"bike_id":"b5ea2620-ce13-4b03-a8fb-6cd0103a14f8","system_id":"levelo_inurba_marseille","lat":43.29529,"lon":5.385581,"is_reserved":false,"is_disabled":false,"rental_uris":{"android":"levelo://app?vid=b5ea2620-ce13-4b03-a8fb-6cd0103a14f8","ios":"levelo://app?vid=b5ea2620-ce13-4b03-a8fb-6cd0103a14f8"},"vehicle_type_id":"4","last_reported":1700986125,"current_range_meters":26000,"station_id":"ce4bgih2rcd13ifvqba0","pricing_plan_id":"free"},{"bike_id":"41f1597d-7042-41d8-9ef1-167576406b27","system_id":"levelo_inurba_marseille","lat":43.290323,"lon":5.3592,"is_reserved":false,"is_disabled":false,"rental_uris":{"android":"levelo://app?vid=41f1597d-7042-41d8-9ef1-167576406b27","ios":"levelo://app?vid=41f1597d-7042-41d8-9ef1-167576406b27"},"vehicle_type_id":"4","last_reported":1700986125,"current_range_meters":9200,"station_id":"ce4bha92rcd13ifvqeg0","pricing_plan_id":"free"},{"bike_id":"f64fa5b6-74c6-4c99-b9d2-af1ac35b64e2","system_id":"levelo_inurba_marseille","lat":43.294162,"lon":5.386292,"is_reserved":false,"is_disabled":false,"rental_uris":{"android":"levelo://app?vid=f64fa5b6-74c6-4c99-b9d2-af1ac35b64e2","ios":"levelo://app?vid=f64fa5b6-74c6-4c99-b9d2-af1ac35b64e2"},"vehicle_type_id":"4","last_reported":1700986125,"current_range_meters":26800,"station_id":"ce4bh2h2rcd13ifvqdh0","pricing_plan_id":"free"},{"bike_id":"081e9950-a096-4cc8-a364-a3d2965f3b20","system_id":"levelo_inurba_marseille","lat":43.294162,"lon":5.386292,"is_reserved":false,"is_disabled":false,"rental_uris":{"android":"levelo://app?vid=081e9950-a096-4cc8-a364-a3d2965f3b20","ios":"levelo://app?vid=081e9950-a096-4cc8-a364-a3d2965f3b20"},"vehicle_type_id":"4","last_reported":1700986125,"current_range_meters":31200,"station_id":"ce4bh2h2rcd13ifvqdh0","pricing_plan_id":"free"},{"bike_id":"308608d2-2107-449c-9593-e0b71c9e1152","system_id":"levelo_inurba_marseille","lat":43.289184,"lon":5.366408,"is_reserved":false,"is_disabled":false,"rental_uris":{"android":"levelo://app?vid=308608d2-2107-449c-9593-e0b71c9e1152","ios":"levelo://app?vid=308608d2-2107-449c-9593-e0b71c9e1152"},"vehicle_type_id":"4","last_reported":1700986125,"current_range_meters":22000,"station_id":"ce4bhap2rcd13ifvqek0","pricing_plan_id":"free"},{"bike_id":"bb36b17a-751f-4216-915b-8c35503f103b","system_id":"levelo_inurba_marseille","lat":43.289184,"lon":5.366408,"is_reserved":false,"is_disabled":false,"rental_uris":{"android":"levelo://app?vid=bb36b17a-751f-4216-915b-8c35503f103b","ios":"levelo://app?vid=bb36b17a-751f-4216-915b-8c35503f103b"},"vehicle_type_id":"4","last_reported":1700986125,"current_range_meters":20400,"station_id":"ce4bhap2rcd13ifvqek0","pricing_plan_id":"free"},{"bike_id":"0389f880-62bc-421c-9be6-78903faf74d9","system_id":"levelo_inurba_marseille","lat":43.304296,"lon":5.397513,"is_reserved":false,"is_disabled":false,"rental_uris":{"android":"levelo://app?vid=0389f880-62bc-421c-9be6-78903faf74d9","ios":"levelo://app?vid=0389f880-62bc-421c-9be6-78903faf74d9"},"vehicle_type_id":"4","last_reported":1700986125,"current_range_meters":4000,"station_id":"ce4bh092rcd13ifvqd20","pricing_plan_id":"free"},{"bike_id":"eae74115-ec9f-484e-9f5f-5ccd59757bf4","system_id":"levelo_inurba_marseille","lat":43.304274,"lon":5.397513,"is_reserved":false,"is_disabled":false,"rental_uris":{"android":"levelo://app?vid=eae74115-ec9f-484e-9f5f-5ccd59757bf4","ios":"levelo://app?vid=eae74115-ec9f-484e-9f5f-5ccd59757bf4"},"vehicle_type_id":"4","last_reported":1700986125,"current_range_meters":26800,"station_id":"ce4bh092rcd13ifvqd20","pricing_plan_id":"free"},{"bike_id":"2b297415-17ce-412a-82d1-e74be4532ae1","system_id":"levelo_inurba_marseille","lat":43.292644,"lon":5.384257,"is_reserved":false,"is_disabled":false,"rental_uris":{"android":"levelo://app?vid=2b297415-17ce-412a-82d1-e74be4532ae1","ios":"levelo://app?vid=2b297415-17ce-412a-82d1-e74be4532ae1"},"vehicle_type_id":"4","last_reported":1700986125,"current_range_meters":24400,"station_id":"ce4bh692rcd13ifvqea0","pricing_plan_id":"free"},{"bike_id":"95a69e33-026e-4e27-b397-a64b01e81859","system_id":"levelo_inurba_marseille","lat":43.29259,"lon":5.38445,"is_reserved":false,"is_disabled":false,"rental_uris":{"android":"levelo://app?vid=95a69e33-026e-4e27-b397-a64b01e81859","ios":"levelo://app?vid=95a69e33-026e-4e27-b397-a64b01e81859"},"vehicle_type_id":"4","last_reported":1700986125,"current_range_meters":2800,"station_id":"ce4bh692rcd13ifvqea0","pricing_plan_id":"free"},{"bike_id":"f22e80ae-c02e-40d3-b6d4-4140f47ddef3","system_id":"levelo_inurba_marseille","lat":43.289743,"lon":5.378304,"is_reserved":false,"is_disabled":false,"rental_uris":{"android":"levelo://app?vid=f22e80ae-c02e-40d3-b6d4-4140f47ddef3","ios":"levelo://app?vid=f22e80ae-c02e-40d3-b6d4-4140f47ddef3"},"vehicle_type_id":"4","last_reported":1700986125,"current_range_meters":30000,"station_id":"ce4bh9p2rcd13ifvqed0","pricing_plan_id":"free"},{"bike_id":"f04ad149-db8a-4781-8bf0-80e23e3bb410","system_id":"levelo_inurba_marseille","lat":43.28856,"lon":5.358371,"is_reserved":false,"is_disabled":false,"rental_uris":{"android":"levelo://app?vid=f04ad149-db8a-4781-8bf0-80e23e3bb410","ios":"levelo://app?vid=f04ad149-db8a-4781-8bf0-80e23e3bb410"},"vehicle_type_id":"4","last_reported":1700986125,"current_range_meters":28400,"station_id":"ce4bhb12rcd13ifvqem0","pricing_plan_id":"free"},{"bike_id":"d5f67cb2-1ff9-4039-bb56-465d734ff2cf","system_id":"levelo_inurba_marseille","lat":43.28856,"lon":5.358371,"is_reserved":false,"is_disabled":false,"rental_uris":{"android":"levelo://app?vid=d5f67cb2-1ff9-4039-bb56-465d734ff2cf","ios":"levelo://app?vid=d5f67cb2-1ff9-4039-bb56-465d734ff2cf"},"vehicle_type_id":"4","last_reported":1700986125,"current_range_meters":31200,"station_id":"ce4bhb12rcd13ifvqem0","pricing_plan_id":"free"},{"bike_id":"de4934ef-5f8a-47de-aa4e-092ab81beee9","system_id":"levelo_inurba_marseille","lat":43.312723,"lon":5.40169,"is_reserved":false,"is_disabled":false,"rental_uris":{"android":"levelo://app?vid=de4934ef-5f8a-47de-aa4e-092ab81beee9","ios":"levelo://app?vid=de4934ef-5f8a-47de-aa4e-092ab81beee9"},"vehicle_type_id":"4","last_reported":1700986125,"current_range_meters":21600,"station_id":"ce4bh092rcd13ifvqd30","pricing_plan_id":"free"},{"bike_id":"24a16b2d-2fc6-4c08-b01b-e656d45f59ba","system_id":"levelo_inurba_marseille","lat":43.312609,"lon":5.401662,"is_reserved":false,"is_disabled":false,"rental_uris":{"android":"levelo://app?vid=24a16b2d-2fc6-4c08-b01b-e656d45f59ba","ios":"levelo://app?vid=24a16b2d-2fc6-4c08-b01b-e656d45f59ba"},"vehicle_type_id":"4","last_reported":1700986125,"current_range_meters":29200,"station_id":"ce4bh092rcd13ifvqd30","pricing_plan_id":"free"},{"bike_id":"28847d0d-02fa-4eca-9d89-96c923496ebe","system_id":"levelo_inurba_marseille","lat":43.309371,"lon":5.401449,"is_reserved":false,"is_disabled":false,"rental_uris":{"android":"levelo://app?vid=28847d0d-02fa-4eca-9d89-96c923496ebe","ios":"levelo://app?vid=28847d0d-02fa-4eca-9d89-96c923496ebe"},"vehicle_type_id":"4","last_reported":1700986125,"current_range_meters":24800,"station_id":"ce4bgvp2rcd13ifvqct0","pricing_plan_id":"free"},{"bike_id":"d38aab0b-a12f-4a65-8131-eda99a093d15","system_id":"levelo_inurba_marseille","lat":43.31261,"lon":5.40173,"is_reserved":false,"is_disabled":false,"rental_uris":{"android":"levelo://app?vid=d38aab0b-a12f-4a65-8131-eda99a093d15","ios":"levelo://app?vid=d38aab0b-a12f-4a65-8131-eda99a093d15"},"vehicle_type_id":"4","last_reported":1700986125,"current_range_meters":28000,"station_id":"ce4bh092rcd13ifvqd30","pricing_plan_id":"free"},{"bike_id":"1634e63f-0d65-48c1-bf99-318333e12a5d","system_id":"levelo_inurba_marseille","lat":43.30927,"lon":5.40143,"is_reserved":false,"is_disabled":false,"rental_uris":{"android":"levelo://app?vid=1634e63f-0d65-48c1-bf99-318333e12a5d","ios":"levelo://app?vid=1634e63f-0d65-48c1-bf99-318333e12a5d"},"vehicle_type_id":"4","last_reported":1700986125,"current_range_meters":18400,"station_id":"ce4bgvp2rcd13ifvqct0","pricing_plan_id":"free"},{"bike_id":"b69ef2d9-6f05-43e8-8a6f-3fc44f74bb3b","system_id":"levelo_inurba_marseille","lat":43.33767,"lon":5.3747,"is_reserved":false,"is_disabled":false,"rental_uris":{"android":"levelo://app?vid=b69ef2d9-6f05-43e8-8a6f-3fc44f74bb3b","ios":"levelo://app?vid=b69ef2d9-6f05-43e8-8a6f-3fc44f74bb3b"},"vehicle_type_id":"4","last_reported":1700986125,"current_range_meters":0,"station_id":"","pricing_plan_id":"free"},{"bike_id":"9ab724f4-19d8-470b-be2e-8b067faacc24","system_id":"levelo_inurba_marseille","lat":43.301117,"lon":5.398795,"is_reserved":false,"is_disabled":false,"rental_uris":{"android":"levelo://app?vid=9ab724f4-19d8-470b-be2e-8b067faacc24","ios":"levelo://app?vid=9ab724f4-19d8-470b-be2e-8b067faacc24"},"vehicle_type_id":"4","last_reported":1700986125,"current_range_meters":20800,"station_id":"ce4bh0h2rcd13ifvqd40","pricing_plan_id":"free"},{"bike_id":"a24e63fd-e638-4727-926b-15ee6a9c4fe8","system_id":"levelo_inurba_marseille","lat":43.301117,"lon":5.398795,"is_reserved":false,"is_disabled":false,"rental_uris":{"android":"levelo://app?vid=a24e63fd-e638-4727-926b-15ee6a9c4fe8","ios":"levelo://app?vid=a24e63fd-e638-4727-926b-15ee6a9c4fe8"},"vehicle_type_id":"4","last_reported":1700986125,"current_range_meters":28800,"station_id":"ce4bh0h2rcd13ifvqd40","pricing_plan_id":"free"},{"bike_id":"f8ab89b7-0da9-432a-94c0-db28906edad9","system_id":"levelo_inurba_marseille","lat":43.28727,"lon":5.36078,"is_reserved":false,"is_disabled":false,"rental_uris":{"android":"levelo://app?vid=f8ab89b7-0da9-432a-94c0-db28906edad9","ios":"levelo://app?vid=f8ab89b7-0da9-432a-94c0-db28906edad9"},"vehicle_type_id":"4","last_reported":1700986125,"current_range_meters":27600,"station_id":"cki0cbj6b192h4jlfktg","pricing_plan_id":"free"},{"bike_id":"019dcbb8-0b7e-47da-887b-8172a0662d79","system_id":"levelo_inurba_marseille","lat":43.286591,"lon":5.363346,"is_reserved":false,"is_disabled":false,"rental_uris":{"android":"levelo://app?vid=019dcbb8-0b7e-47da-887b-8172a0662d79","ios":"levelo://app?vid=019dcbb8-0b7e-47da-887b-8172a0662d79"},"vehicle_type_id":"4","last_reported":1700986125,"current_range_meters":30400,"station_id":"ce4bhah2rcd13ifvqej0","pricing_plan_id":"free"},{"bike_id":"16274025-3ee6-4991-b15b-e7c5b667a19e","system_id":"levelo_inurba_marseille","lat":43.286593,"lon":5.363346,"is_reserved":false,"is_disabled":false,"rental_uris":{"android":"levelo://app?vid=16274025-3ee6-4991-b15b-e7c5b667a19e","ios":"levelo://app?vid=16274025-3ee6-4991-b15b-e7c5b667a19e"},"vehicle_type_id":"4","last_reported":1700986125,"current_range_meters":26400,"station_id":"ce4bhah2rcd13ifvqej0","pricing_plan_id":"free"},{"bike_id":"7ca84d4c-8dcd-4fa4-b4c4-599a692c4b72","system_id":"levelo_inurba_marseille","lat":43.286961,"lon":5.373785,"is_reserved":false,"is_disabled":false,"rental_uris":{"android":"levelo://app?vid=7ca84d4c-8dcd-4fa4-b4c4-599a692c4b72","ios":"levelo://app?vid=7ca84d4c-8dcd-4fa4-b4c4-599a692c4b72"},"vehicle_type_id":"4","last_reported":1700986125,"current_range_meters":26400,"station_id":"ce4bh3p2rcd13ifvqdq0","pricing_plan_id":"free"},{"bike_id":"d4298ff1-2956-498b-ac5e-8af859e07af5","system_id":"levelo_inurba_marseille","lat":43.298681,"lon":5.397225,"is_reserved":false,"is_disabled":false,"rental_uris":{"android":"levelo://app?vid=d4298ff1-2956-498b-ac5e-8af859e07af5","ios":"levelo://app?vid=d4298ff1-2956-498b-ac5e-8af859e07af5"},"vehicle_type_id":"4","last_reported":1700986125,"current_range_meters":26800,"station_id":"ce4bh0h2rcd13ifvqd50","pricing_plan_id":"free"},{"bike_id":"41b0ec20-81ba-48be-9ba3-a585baba0749","system_id":"levelo_inurba_marseille","lat":43.286593,"lon":5.363346,"is_reserved":false,"is_disabled":false,"rental_uris":{"android":"levelo://app?vid=41b0ec20-81ba-48be-9ba3-a585baba0749","ios":"levelo://app?vid=41b0ec20-81ba-48be-9ba3-a585baba0749"},"vehicle_type_id":"4","last_reported":1700986125,"current_range_meters":29600,"station_id":"ce4bhah2rcd13ifvqej0","pricing_plan_id":"free"},{"bike_id":"31902e9a-ad56-4d51-9718-22ae7370041b","system_id":"levelo_inurba_marseille","lat":43.289283,"lon":5.38388,"is_reserved":false,"is_disabled":false,"rental_uris":{"android":"levelo://app?vid=31902e9a-ad56-4d51-9718-22ae7370041b","ios":"levelo://app?vid=31902e9a-ad56-4d51-9718-22ae7370041b"},"vehicle_type_id":"4","last_reported":1700986125,"current_range_meters":27200,"station_id":"ce4bh612rcd13ifvqe6g","pricing_plan_id":"free"},{"bike_id":"e5ad4d95-e8f5-4c67-97c8-5eb5383161dd","system_id":"levelo_inurba_marseille","lat":43.302759,"lon":5.400793,"is_reserved":false,"is_disabled":false,"rental_uris":{"android":"levelo://app?vid=e5ad4d95-e8f5-4c67-97c8-5eb5383161dd","ios":"levelo://app?vid=e5ad4d95-e8f5-4c67-97c8-5eb5383161dd"},"vehicle_type_id":"4","last_reported":1700986125,"current_range_meters":30800,"station_id":"ce4bgvh2rcd13ifvqcs0","pricing_plan_id":"free"},{"bike_id":"fb325d17-d069-4894-a4d2-0bac407135ea","system_id":"levelo_inurba_marseille","lat":43.302499,"lon":5.400611,"is_reserved":false,"is_disabled":false,"rental_uris":{"android":"levelo://app?vid=fb325d17-d069-4894-a4d2-0bac407135ea","ios":"levelo://app?vid=fb325d17-d069-4894-a4d2-0bac407135ea"},"vehicle_type_id":"4","last_reported":1700986125,"current_range_meters":26400,"station_id":"ce4bgvh2rcd13ifvqcs0","pricing_plan_id":"free"},{"bike_id":"335fa0b2-1ce8-47c8-8279-c5b374771105","system_id":"levelo_inurba_marseille","lat":43.302759,"lon":5.400793,"is_reserved":false,"is_disabled":false,"rental_uris":{"android":"levelo://app?vid=335fa0b2-1ce8-47c8-8279-c5b374771105","ios":"levelo://app?vid=335fa0b2-1ce8-47c8-8279-c5b374771105"},"vehicle_type_id":"4","last_reported":1700986125,"current_range_meters":31200,"station_id":"ce4bgvh2rcd13ifvqcs0","pricing_plan_id":"free"},{"bike_id":"063a5e3e-6099-48ff-a640-737d4127ca75","system_id":"levelo_inurba_marseille","lat":43.302759,"lon":5.400793,"is_reserved":false,"is_disabled":false,"rental_uris":{"android":"levelo://app?vid=063a5e3e-6099-48ff-a640-737d4127ca75","ios":"levelo://app?vid=063a5e3e-6099-48ff-a640-737d4127ca75"},"vehicle_type_id":"4","last_reported":1700986125,"current_range_meters":26400,"station_id":"ce4bgvh2rcd13ifvqcs0","pricing_plan_id":"free"},{"bike_id":"fc4dde56-dd31-47b3-a23d-ebaf06400252","system_id":"levelo_inurba_marseille","lat":43.302759,"lon":5.400793,"is_reserved":false,"is_disabled":false,"rental_uris":{"android":"levelo://app?vid=fc4dde56-dd31-47b3-a23d-ebaf06400252","ios":"levelo://app?vid=fc4dde56-dd31-47b3-a23d-ebaf06400252"},"vehicle_type_id":"4","last_reported":1700986125,"current_range_meters":31200,"station_id":"ce4bgvh2rcd13ifvqcs0","pricing_plan_id":"free"},{"bike_id":"32263013-effb-45ee-bc1c-4dcad7ca5b7c","system_id":"levelo_inurba_marseille","lat":43.302504,"lon":5.400699,"is_reserved":false,"is_disabled":false,"rental_uris":{"android":"levelo://app?vid=32263013-effb-45ee-bc1c-4dcad7ca5b7c","ios":"levelo://app?vid=32263013-effb-45ee-bc1c-4dcad7ca5b7c"},"vehicle_type_id":"4","last_reported":1700986125,"current_range_meters":9600,"station_id":"ce4bgvh2rcd13ifvqcs0","pricing_plan_id":"free"},{"bike_id":"b719011d-0ec2-4707-a828-8e7447298df3","system_id":"levelo_inurba_marseille","lat":43.289307,"lon":5.38406,"is_reserved":false,"is_disabled":false,"rental_uris":{"android":"levelo://app?vid=b719011d-0ec2-4707-a828-8e7447298df3","ios":"levelo://app?vid=b719011d-0ec2-4707-a828-8e7447298df3"},"vehicle_type_id":"4","last_reported":1700986125,"current_range_meters":29600,"station_id":"ce4bh612rcd13ifvqe6g","pricing_plan_id":"free"},{"bike_id":"8200e8f4-e3c3-4bb7-8220-f8b8805ca252","system_id":"levelo_inurba_marseille","lat":43.302759,"lon":5.400793,"is_reserved":false,"is_disabled":false,"rental_uris":{"android":"levelo://app?vid=8200e8f4-e3c3-4bb7-8220-f8b8805ca252","ios":"levelo://app?vid=8200e8f4-e3c3-4bb7-8220-f8b8805ca252"},"vehicle_type_id":"4","last_reported":1700986125,"current_range_meters":3600,"station_id":"ce4bgvh2rcd13ifvqcs0","pricing_plan_id":"free"},{"bike_id":"81c0ffcd-71c4-442c-a108-f0eb30b91e38","system_id":"levelo_inurba_marseille","lat":43.302509,"lon":5.400739,"is_reserved":false,"is_disabled":false,"rental_uris":{"android":"levelo://app?vid=81c0ffcd-71c4-442c-a108-f0eb30b91e38","ios":"levelo://app?vid=81c0ffcd-71c4-442c-a108-f0eb30b91e38"},"vehicle_type_id":"4","last_reported":1700986125,"current_range_meters":21200,"station_id":"ce4bgvh2rcd13ifvqcs0","pricing_plan_id":"free"},{"bike_id":"39925ae3-9cac-4690-9eb9-7ac71c005e75","system_id":"levelo_inurba_marseille","lat":43.302492,"lon":5.40077,"is_reserved":false,"is_disabled":false,"rental_uris":{"android":"levelo://app?vid=39925ae3-9cac-4690-9eb9-7ac71c005e75","ios":"levelo://app?vid=39925ae3-9cac-4690-9eb9-7ac71c005e75"},"vehicle_type_id":"4","last_reported":1700986125,"current_range_meters":10000,"station_id":"ce4bgvh2rcd13ifvqcs0","pricing_plan_id":"free"},{"bike_id":"516e98fd-12f2-4b3e-9d57-a811494e2a50","system_id":"levelo_inurba_marseille","lat":43.287185,"lon":5.379373,"is_reserved":false,"is_disabled":false,"rental_uris":{"android":"levelo://app?vid=516e98fd-12f2-4b3e-9d57-a811494e2a50","ios":"levelo://app?vid=516e98fd-12f2-4b3e-9d57-a811494e2a50"},"vehicle_type_id":"4","last_reported":1700986125,"current_range_meters":31200,"station_id":"ce4bh9p2rcd13ifvqec0","pricing_plan_id":"free"},{"bike_id":"53b953d4-c732-433d-b491-cbeff89b89ee","system_id":"levelo_inurba_marseille","lat":43.31648,"lon":5.40428,"is_reserved":false,"is_disabled":false,"rental_uris":{"android":"levelo://app?vid=53b953d4-c732-433d-b491-cbeff89b89ee","ios":"levelo://app?vid=53b953d4-c732-433d-b491-cbeff89b89ee"},"vehicle_type_id":"4","last_reported":1700986125,"current_range_meters":20000,"station_id":"ce4bh012rcd13ifvqd00","pricing_plan_id":"free"},{"bike_id":"2967e580-4075-40a5-b4e3-f6c0225f647b","system_id":"levelo_inurba_marseille","lat":43.316517,"lon":5.404375,"is_reserved":false,"is_disabled":false,"rental_uris":{"android":"levelo://app?vid=2967e580-4075-40a5-b4e3-f6c0225f647b","ios":"levelo://app?vid=2967e580-4075-40a5-b4e3-f6c0225f647b"},"vehicle_type_id":"4","last_reported":1700986125,"current_range_meters":31200,"station_id":"ce4bh012rcd13ifvqd00","pricing_plan_id":"free"},{"bike_id":"8d8fd114-dda9-4f31-9c51-bd52a98f3b7a","system_id":"levelo_inurba_marseille","lat":43.31645,"lon":5.40434,"is_reserved":false,"is_disabled":false,"rental_uris":{"android":"levelo://app?vid=8d8fd114-dda9-4f31-9c51-bd52a98f3b7a","ios":"levelo://app?vid=8d8fd114-dda9-4f31-9c51-bd52a98f3b7a"},"vehicle_type_id":"4","last_reported":1700986125,"current_range_meters":16400,"station_id":"ce4bh012rcd13ifvqd00","pricing_plan_id":"free"},{"bike_id":"9b99cd47-6818-450c-a075-65ebe4661431","system_id":"levelo_inurba_marseille","lat":43.316517,"lon":5.404375,"is_reserved":false,"is_disabled":false,"rental_uris":{"android":"levelo://app?vid=9b99cd47-6818-450c-a075-65ebe4661431","ios":"levelo://app?vid=9b99cd47-6818-450c-a075-65ebe4661431"},"vehicle_type_id":"4","last_reported":1700986125,"current_range_meters":30400,"station_id":"ce4bh012rcd13ifvqd00","pricing_plan_id":"free"},{"bike_id":"08876795-8ffd-4a54-99eb-bf108df6d739","system_id":"levelo_inurba_marseille","lat":43.299847,"lon":5.400937,"is_reserved":false,"is_disabled":false,"rental_uris":{"android":"levelo://app?vid=08876795-8ffd-4a54-99eb-bf108df6d739","ios":"levelo://app?vid=08876795-8ffd-4a54-99eb-bf108df6d739"},"vehicle_type_id":"4","last_reported":1700986125,"current_range_meters":30800,"station_id":"","pricing_plan_id":"free"},{"bike_id":"d8e27e3d-95df-4c7b-af34-ac5881c562f0","system_id":"levelo_inurba_marseille","lat":43.291994,"lon":5.392907,"is_reserved":false,"is_disabled":false,"rental_uris":{"android":"levelo://app?vid=d8e27e3d-95df-4c7b-af34-ac5881c562f0","ios":"levelo://app?vid=d8e27e3d-95df-4c7b-af34-ac5881c562f0"},"vehicle_type_id":"4","last_reported":1700986125,"current_range_meters":30000,"station_id":"ce4bh192rcd13ifvqdd0","pricing_plan_id":"free"},{"bike_id":"6e0c5111-9faf-4bd1-9dff-db4623b87ccb","system_id":"levelo_inurba_marseille","lat":43.291994,"lon":5.392907,"is_reserved":false,"is_disabled":false,"rental_uris":{"android":"levelo://app?vid=6e0c5111-9faf-4bd1-9dff-db4623b87ccb","ios":"levelo://app?vid=6e0c5111-9faf-4bd1-9dff-db4623b87ccb"},"vehicle_type_id":"4","last_reported":1700986125,"current_range_meters":25200,"station_id":"ce4bh192rcd13ifvqdd0","pricing_plan_id":"free"},{"bike_id":"99613ebb-315e-4eff-8fea-3dbbf7149a60","system_id":"levelo_inurba_marseille","lat":43.284538,"lon":5.358657,"is_reserved":false,"is_disabled":false,"rental_uris":{"android":"levelo://app?vid=99613ebb-315e-4eff-8fea-3dbbf7149a60","ios":"levelo://app?vid=99613ebb-315e-4eff-8fea-3dbbf7149a60"},"vehicle_type_id":"4","last_reported":1700986125,"current_range_meters":31600,"station_id":"ce4bhah2rcd13ifvqei0","pricing_plan_id":"free"},{"bike_id":"98e6d063-1b99-454e-93d1-826b7fd86d05","system_id":"levelo_inurba_marseille","lat":43.284538,"lon":5.358657,"is_reserved":false,"is_disabled":false,"rental_uris":{"android":"levelo://app?vid=98e6d063-1b99-454e-93d1-826b7fd86d05","ios":"levelo://app?vid=98e6d063-1b99-454e-93d1-826b7fd86d05"},"vehicle_type_id":"4","last_reported":1700986125,"current_range_meters":11200,"station_id":"ce4bhah2rcd13ifvqei0","pricing_plan_id":"free"},{"bike_id":"0f076a98-8cce-45b9-9bdb-c50dddff293e","system_id":"levelo_inurba_marseille","lat":43.284538,"lon":5.358657,"is_reserved":false,"is_disabled":false,"rental_uris":{"android":"levelo://app?vid=0f076a98-8cce-45b9-9bdb-c50dddff293e","ios":"levelo://app?vid=0f076a98-8cce-45b9-9bdb-c50dddff293e"},"vehicle_type_id":"4","last_reported":1700986125,"current_range_meters":18400,"station_id":"ce4bhah2rcd13ifvqei0","pricing_plan_id":"free"},{"bike_id":"7de591ad-735a-49cd-beed-f19e855f2d56","system_id":"levelo_inurba_marseille","lat":43.284538,"lon":5.358657,"is_reserved":false,"is_disabled":false,"rental_uris":{"android":"levelo://app?vid=7de591ad-735a-49cd-beed-f19e855f2d56","ios":"levelo://app?vid=7de591ad-735a-49cd-beed-f19e855f2d56"},"vehicle_type_id":"4","last_reported":1700986125,"current_range_meters":20800,"station_id":"ce4bhah2rcd13ifvqei0","pricing_plan_id":"free"},{"bike_id":"bbccb255-5172-4362-b638-ce15b7bbd505","system_id":"levelo_inurba_marseille","lat":43.294314,"lon":5.397498,"is_reserved":false,"is_disabled":false,"rental_uris":{"android":"levelo://app?vid=bbccb255-5172-4362-b638-ce15b7bbd505","ios":"levelo://app?vid=bbccb255-5172-4362-b638-ce15b7bbd505"},"vehicle_type_id":"4","last_reported":1700986125,"current_range_meters":27600,"station_id":"ce4bh3h2rcd13ifvqdo0","pricing_plan_id":"free"},{"bike_id":"82879760-d9ab-4a21-989b-752874465ced","system_id":"levelo_inurba_marseille","lat":43.28612,"lon":5.35105,"is_reserved":false,"is_disabled":false,"rental_uris":{"android":"levelo://app?vid=82879760-d9ab-4a21-989b-752874465ced","ios":"levelo://app?vid=82879760-d9ab-4a21-989b-752874465ced"},"vehicle_type_id":"4","last_reported":1700986125,"current_range_meters":16400,"station_id":"ce4bhch2rcd13ifvqeug","pricing_plan_id":"free"},{"bike_id":"6c75e270-e87d-4fc7-a1c6-e4b3d5c451ba","system_id":"levelo_inurba_marseille","lat":43.284166,"lon":5.375194,"is_reserved":false,"is_disabled":false,"rental_uris":{"android":"levelo://app?vid=6c75e270-e87d-4fc7-a1c6-e4b3d5c451ba","ios":"levelo://app?vid=6c75e270-e87d-4fc7-a1c6-e4b3d5c451ba"},"vehicle_type_id":"4","last_reported":1700986125,"current_range_meters":22800,"station_id":"ce4bh412rcd13ifvqds0","pricing_plan_id":"free"},{"bike_id":"e5d7a276-6bd8-49a0-a556-2c03f79d2290","system_id":"levelo_inurba_marseille","lat":43.284145,"lon":5.375194,"is_reserved":false,"is_disabled":false,"rental_uris":{"android":"levelo://app?vid=e5d7a276-6bd8-49a0-a556-2c03f79d2290","ios":"levelo://app?vid=e5d7a276-6bd8-49a0-a556-2c03f79d2290"},"vehicle_type_id":"4","last_reported":1700986125,"current_range_meters":24800,"station_id":"ce4bh412rcd13ifvqds0","pricing_plan_id":"free"},{"bike_id":"f0d5657c-208c-48b6-b3c3-8488c01b3171","system_id":"levelo_inurba_marseille","lat":43.29569,"lon":5.39958,"is_reserved":false,"is_disabled":false,"rental_uris":{"android":"levelo://app?vid=f0d5657c-208c-48b6-b3c3-8488c01b3171","ios":"levelo://app?vid=f0d5657c-208c-48b6-b3c3-8488c01b3171"},"vehicle_type_id":"4","last_reported":1700986125,"current_range_meters":21200,"station_id":"ce4bh312rcd13ifvqdj0","pricing_plan_id":"free"},{"bike_id":"0e58bf39-70ca-4443-bf77-89a7eba8d9fb","system_id":"levelo_inurba_marseille","lat":43.295713,"lon":5.399639,"is_reserved":false,"is_disabled":false,"rental_uris":{"android":"levelo://app?vid=0e58bf39-70ca-4443-bf77-89a7eba8d9fb","ios":"levelo://app?vid=0e58bf39-70ca-4443-bf77-89a7eba8d9fb"},"vehicle_type_id":"4","last_reported":1700986125,"current_range_meters":29200,"station_id":"ce4bh312rcd13ifvqdj0","pricing_plan_id":"free"},{"bike_id":"980706b4-7bfb-4279-91c5-a5fe90860b59","system_id":"levelo_inurba_marseille","lat":43.295675,"lon":5.399673,"is_reserved":false,"is_disabled":false,"rental_uris":{"android":"levelo://app?vid=980706b4-7bfb-4279-91c5-a5fe90860b59","ios":"levelo://app?vid=980706b4-7bfb-4279-91c5-a5fe90860b59"},"vehicle_type_id":"4","last_reported":1700986125,"current_range_meters":29600,"station_id":"ce4bh312rcd13ifvqdj0","pricing_plan_id":"free"},{"bike_id":"c2e5d909-0c04-41a5-8bcd-c5eb177159d4","system_id":"levelo_inurba_marseille","lat":43.286664,"lon":5.386605,"is_reserved":false,"is_disabled":false,"rental_uris":{"android":"levelo://app?vid=c2e5d909-0c04-41a5-8bcd-c5eb177159d4","ios":"levelo://app?vid=c2e5d909-0c04-41a5-8bcd-c5eb177159d4"},"vehicle_type_id":"4","last_reported":1700986125,"current_range_meters":29200,"station_id":"ce4bh492rcd13ifvqdug","pricing_plan_id":"free"},{"bike_id":"2d63a72b-63ea-4b7b-896b-59b42244e41c","system_id":"levelo_inurba_marseille","lat":43.284217,"lon":5.349697,"is_reserved":false,"is_disabled":false,"rental_uris":{"android":"levelo://app?vid=2d63a72b-63ea-4b7b-896b-59b42244e41c","ios":"levelo://app?vid=2d63a72b-63ea-4b7b-896b-59b42244e41c"},"vehicle_type_id":"4","last_reported":1700986125,"current_range_meters":29600,"station_id":"ce4bhbh2rcd13ifvqepg","pricing_plan_id":"free"},{"bike_id":"a398141d-6e91-411e-a99e-45715add5827","system_id":"levelo_inurba_marseille","lat":43.28939,"lon":5.39618,"is_reserved":false,"is_disabled":false,"rental_uris":{"android":"levelo://app?vid=a398141d-6e91-411e-a99e-45715add5827","ios":"levelo://app?vid=a398141d-6e91-411e-a99e-45715add5827"},"vehicle_type_id":"4","last_reported":1700986125,"current_range_meters":21600,"station_id":"ce4bh3h2rcd13ifvqdn0","pricing_plan_id":"free"},{"bike_id":"e2284003-4e46-4e0a-93e7-73d05c3666d9","system_id":"levelo_inurba_marseille","lat":43.33508,"lon":5.397755,"is_reserved":false,"is_disabled":false,"rental_uris":{"android":"levelo://app?vid=e2284003-4e46-4e0a-93e7-73d05c3666d9","ios":"levelo://app?vid=e2284003-4e46-4e0a-93e7-73d05c3666d9"},"vehicle_type_id":"4","last_reported":1700986125,"current_range_meters":19600,"station_id":"","pricing_plan_id":"free"},{"bike_id":"459f8844-56aa-4b9b-b08a-17b35a99e8c9","system_id":"levelo_inurba_marseille","lat":43.289363,"lon":5.396322,"is_reserved":false,"is_disabled":false,"rental_uris":{"android":"levelo://app?vid=459f8844-56aa-4b9b-b08a-17b35a99e8c9","ios":"levelo://app?vid=459f8844-56aa-4b9b-b08a-17b35a99e8c9"},"vehicle_type_id":"4","last_reported":1700986125,"current_range_meters":29200,"station_id":"ce4bh3h2rcd13ifvqdn0","pricing_plan_id":"free"},{"bike_id":"ec3b3fd1-5bfc-4d6f-bc0e-3062bce32f53","system_id":"levelo_inurba_marseille","lat":43.28039,"lon":5.369297,"is_reserved":false,"is_disabled":false,"rental_uris":{"android":"levelo://app?vid=ec3b3fd1-5bfc-4d6f-bc0e-3062bce32f53","ios":"levelo://app?vid=ec3b3fd1-5bfc-4d6f-bc0e-3062bce32f53"},"vehicle_type_id":"4","last_reported":1700986125,"current_range_meters":31200,"station_id":"ce4bha12rcd13ifvqef0","pricing_plan_id":"free"},{"bike_id":"db9334a0-0093-411c-aac9-d2c04233863c","system_id":"levelo_inurba_marseille","lat":43.28039,"lon":5.369297,"is_reserved":false,"is_disabled":false,"rental_uris":{"android":"levelo://app?vid=db9334a0-0093-411c-aac9-d2c04233863c","ios":"levelo://app?vid=db9334a0-0093-411c-aac9-d2c04233863c"},"vehicle_type_id":"4","last_reported":1700986125,"current_range_meters":29600,"station_id":"ce4bha12rcd13ifvqef0","pricing_plan_id":"free"},{"bike_id":"57ae1c4e-3134-4051-8a20-577d938684d7","system_id":"levelo_inurba_marseille","lat":43.28039,"lon":5.369297,"is_reserved":false,"is_disabled":false,"rental_uris":{"android":"levelo://app?vid=57ae1c4e-3134-4051-8a20-577d938684d7","ios":"levelo://app?vid=57ae1c4e-3134-4051-8a20-577d938684d7"},"vehicle_type_id":"4","last_reported":1700986125,"current_range_meters":20000,"station_id":"ce4bha12rcd13ifvqef0","pricing_plan_id":"free"},{"bike_id":"6ac7559d-766f-424e-98d9-2ad5998281b0","system_id":"levelo_inurba_marseille","lat":43.28039,"lon":5.369297,"is_reserved":false,"is_disabled":false,"rental_uris":{"android":"levelo://app?vid=6ac7559d-766f-424e-98d9-2ad5998281b0","ios":"levelo://app?vid=6ac7559d-766f-424e-98d9-2ad5998281b0"},"vehicle_type_id":"4","last_reported":1700986125,"current_range_meters":26000,"station_id":"ce4bha12rcd13ifvqef0","pricing_plan_id":"free"},{"bike_id":"9757d41b-f3fd-4343-adf1-0a2600867795","system_id":"levelo_inurba_marseille","lat":43.290412,"lon":5.399633,"is_reserved":false,"is_disabled":false,"rental_uris":{"android":"levelo://app?vid=9757d41b-f3fd-4343-adf1-0a2600867795","ios":"levelo://app?vid=9757d41b-f3fd-4343-adf1-0a2600867795"},"vehicle_type_id":"4","last_reported":1700986125,"current_range_meters":27600,"station_id":"ce4bh392rcd13ifvqdm0","pricing_plan_id":"free"},{"bike_id":"0f7d673f-6f9b-49d1-8bf2-06d1d7d514ff","system_id":"levelo_inurba_marseille","lat":43.281044,"lon":5.378308,"is_reserved":false,"is_disabled":false,"rental_uris":{"android":"levelo://app?vid=0f7d673f-6f9b-49d1-8bf2-06d1d7d514ff","ios":"levelo://app?vid=0f7d673f-6f9b-49d1-8bf2-06d1d7d514ff"},"vehicle_type_id":"4","last_reported":1700986125,"current_range_meters":21200,"station_id":"ce4bha12rcd13ifvqee0","pricing_plan_id":"free"},{"bike_id":"9f82135b-52f2-48b0-bb7c-d289fdaab813","system_id":"levelo_inurba_marseille","lat":43.296263,"lon":5.40601,"is_reserved":false,"is_disabled":false,"rental_uris":{"android":"levelo://app?vid=9f82135b-52f2-48b0-bb7c-d289fdaab813","ios":"levelo://app?vid=9f82135b-52f2-48b0-bb7c-d289fdaab813"},"vehicle_type_id":"4","last_reported":1700986125,"current_range_meters":31200,"station_id":"ce4bh0h2rcd13ifvqd60","pricing_plan_id":"free"},{"bike_id":"207a51fd-a244-45c0-814a-36db849d3a06","system_id":"levelo_inurba_marseille","lat":43.296263,"lon":5.40601,"is_reserved":false,"is_disabled":false,"rental_uris":{"android":"levelo://app?vid=207a51fd-a244-45c0-814a-36db849d3a06","ios":"levelo://app?vid=207a51fd-a244-45c0-814a-36db849d3a06"},"vehicle_type_id":"4","last_reported":1700986125,"current_range_meters":29600,"station_id":"ce4bh0h2rcd13ifvqd60","pricing_plan_id":"free"},{"bike_id":"aa3b3f0f-bd29-4d57-acad-6c02ba7eee93","system_id":"levelo_inurba_marseille","lat":43.296263,"lon":5.40601,"is_reserved":false,"is_disabled":false,"rental_uris":{"android":"levelo://app?vid=aa3b3f0f-bd29-4d57-acad-6c02ba7eee93","ios":"levelo://app?vid=aa3b3f0f-bd29-4d57-acad-6c02ba7eee93"},"vehicle_type_id":"4","last_reported":1700986125,"current_range_meters":26400,"station_id":"ce4bh0h2rcd13ifvqd60","pricing_plan_id":"free"},{"bike_id":"20476fb2-3ba2-40b8-9da3-1ee98254bb43","system_id":"levelo_inurba_marseille","lat":43.296263,"lon":5.40601,"is_reserved":false,"is_disabled":false,"rental_uris":{"android":"levelo://app?vid=20476fb2-3ba2-40b8-9da3-1ee98254bb43","ios":"levelo://app?vid=20476fb2-3ba2-40b8-9da3-1ee98254bb43"},"vehicle_type_id":"4","last_reported":1700986125,"current_range_meters":20800,"station_id":"ce4bh0h2rcd13ifvqd60","pricing_plan_id":"free"},{"bike_id":"14d68bab-bd8f-4d1d-ad7c-f20047f7c7e4","system_id":"levelo_inurba_marseille","lat":43.287154,"lon":5.399979,"is_reserved":false,"is_disabled":false,"rental_uris":{"android":"levelo://app?vid=14d68bab-bd8f-4d1d-ad7c-f20047f7c7e4","ios":"levelo://app?vid=14d68bab-bd8f-4d1d-ad7c-f20047f7c7e4"},"vehicle_type_id":"4","last_reported":1700986125,"current_range_meters":12400,"station_id":"ce4bho92rcd13ifvqh3g","pricing_plan_id":"free"},{"bike_id":"f9f6abda-d134-4b05-9743-5dc208d79141","system_id":"levelo_inurba_marseille","lat":43.287154,"lon":5.399979,"is_reserved":false,"is_disabled":false,"rental_uris":{"android":"levelo://app?vid=f9f6abda-d134-4b05-9743-5dc208d79141","ios":"levelo://app?vid=f9f6abda-d134-4b05-9743-5dc208d79141"},"vehicle_type_id":"4","last_reported":1700986125,"current_range_meters":12400,"station_id":"ce4bho92rcd13ifvqh3g","pricing_plan_id":"free"},{"bike_id":"abc44e98-ffe8-4d9b-a2f7-52313f1e8d5a","system_id":"levelo_inurba_marseille","lat":43.287154,"lon":5.399979,"is_reserved":false,"is_disabled":false,"rental_uris":{"android":"levelo://app?vid=abc44e98-ffe8-4d9b-a2f7-52313f1e8d5a","ios":"levelo://app?vid=abc44e98-ffe8-4d9b-a2f7-52313f1e8d5a"},"vehicle_type_id":"4","last_reported":1700986125,"current_range_meters":12800,"station_id":"ce4bho92rcd13ifvqh3g","pricing_plan_id":"free"},{"bike_id":"5045cb9e-f93c-49d0-aba1-b170e2451fd8","system_id":"levelo_inurba_marseille","lat":43.287154,"lon":5.399979,"is_reserved":false,"is_disabled":false,"rental_uris":{"android":"levelo://app?vid=5045cb9e-f93c-49d0-aba1-b170e2451fd8","ios":"levelo://app?vid=5045cb9e-f93c-49d0-aba1-b170e2451fd8"},"vehicle_type_id":"4","last_reported":1700986125,"current_range_meters":31200,"station_id":"ce4bho92rcd13ifvqh3g","pricing_plan_id":"free"},{"bike_id":"41e88250-3c41-464a-a741-48144a7dd8ff","system_id":"levelo_inurba_marseille","lat":43.287154,"lon":5.399979,"is_reserved":false,"is_disabled":false,"rental_uris":{"android":"levelo://app?vid=41e88250-3c41-464a-a741-48144a7dd8ff","ios":"levelo://app?vid=41e88250-3c41-464a-a741-48144a7dd8ff"},"vehicle_type_id":"4","last_reported":1700986125,"current_range_meters":22800,"station_id":"ce4bho92rcd13ifvqh3g","pricing_plan_id":"free"},{"bike_id":"f16b2a30-fdf8-4498-b123-427478e0d68a","system_id":"levelo_inurba_marseille","lat":43.287154,"lon":5.399979,"is_reserved":false,"is_disabled":false,"rental_uris":{"android":"levelo://app?vid=f16b2a30-fdf8-4498-b123-427478e0d68a","ios":"levelo://app?vid=f16b2a30-fdf8-4498-b123-427478e0d68a"},"vehicle_type_id":"4","last_reported":1700986125,"current_range_meters":15600,"station_id":"ce4bho92rcd13ifvqh3g","pricing_plan_id":"free"},{"bike_id":"6526cad1-2f4b-4db1-8d6b-ce04bc407b31","system_id":"levelo_inurba_marseille","lat":43.34883,"lon":5.37501,"is_reserved":false,"is_disabled":false,"rental_uris":{"android":"levelo://app?vid=6526cad1-2f4b-4db1-8d6b-ce04bc407b31","ios":"levelo://app?vid=6526cad1-2f4b-4db1-8d6b-ce04bc407b31"},"vehicle_type_id":"4","last_reported":1700986125,"current_range_meters":0,"station_id":"","pricing_plan_id":"free"},{"bike_id":"062d6964-a217-4fd7-b47f-eac665d05b08","system_id":"levelo_inurba_marseille","lat":43.292571,"lon":5.409107,"is_reserved":false,"is_disabled":false,"rental_uris":{"android":"levelo://app?vid=062d6964-a217-4fd7-b47f-eac665d05b08","ios":"levelo://app?vid=062d6964-a217-4fd7-b47f-eac665d05b08"},"vehicle_type_id":"4","last_reported":1700986125,"current_range_meters":16400,"station_id":"ce4bh192rcd13ifvqdc0","pricing_plan_id":"free"},{"bike_id":"f03aff16-249b-4254-a789-6e0b1f9ee601","system_id":"levelo_inurba_marseille","lat":43.292569,"lon":5.409107,"is_reserved":false,"is_disabled":false,"rental_uris":{"android":"levelo://app?vid=f03aff16-249b-4254-a789-6e0b1f9ee601","ios":"levelo://app?vid=f03aff16-249b-4254-a789-6e0b1f9ee601"},"vehicle_type_id":"4","last_reported":1700986125,"current_range_meters":30800,"station_id":"ce4bh192rcd13ifvqdc0","pricing_plan_id":"free"},{"bike_id":"2fbb9904-2efc-4bd0-8985-74b7f9b2cad8","system_id":"levelo_inurba_marseille","lat":43.292504,"lon":5.40901,"is_reserved":false,"is_disabled":false,"rental_uris":{"android":"levelo://app?vid=2fbb9904-2efc-4bd0-8985-74b7f9b2cad8","ios":"levelo://app?vid=2fbb9904-2efc-4bd0-8985-74b7f9b2cad8"},"vehicle_type_id":"4","last_reported":1700986125,"current_range_meters":30800,"station_id":"ce4bh192rcd13ifvqdc0","pricing_plan_id":"free"},{"bike_id":"caf9e590-7da1-4232-a093-ca2e890df38a","system_id":"levelo_inurba_marseille","lat":43.292569,"lon":5.409107,"is_reserved":false,"is_disabled":false,"rental_uris":{"android":"levelo://app?vid=caf9e590-7da1-4232-a093-ca2e890df38a","ios":"levelo://app?vid=caf9e590-7da1-4232-a093-ca2e890df38a"},"vehicle_type_id":"4","last_reported":1700986125,"current_range_meters":22000,"station_id":"ce4bh192rcd13ifvqdc0","pricing_plan_id":"free"},{"bike_id":"c25ea147-e804-4786-9d25-91f61a8ed59a","system_id":"levelo_inurba_marseille","lat":43.293651,"lon":5.41268,"is_reserved":false,"is_disabled":false,"rental_uris":{"android":"levelo://app?vid=c25ea147-e804-4786-9d25-91f61a8ed59a","ios":"levelo://app?vid=c25ea147-e804-4786-9d25-91f61a8ed59a"},"vehicle_type_id":"4","last_reported":1700986125,"current_range_meters":0,"station_id":"","pricing_plan_id":"free"},{"bike_id":"1a41ba2d-126a-45a0-9786-3a69c6425282","system_id":"levelo_inurba_marseille","lat":43.273613,"lon":5.362705,"is_reserved":false,"is_disabled":false,"rental_uris":{"android":"levelo://app?vid=1a41ba2d-126a-45a0-9786-3a69c6425282","ios":"levelo://app?vid=1a41ba2d-126a-45a0-9786-3a69c6425282"},"vehicle_type_id":"4","last_reported":1700986125,"current_range_meters":30000,"station_id":"ce4bhbh2rcd13ifvqeo0","pricing_plan_id":"free"},{"bike_id":"46692558-8846-4a6d-81d7-552990d88bb6","system_id":"levelo_inurba_marseille","lat":43.273609,"lon":5.362708,"is_reserved":false,"is_disabled":false,"rental_uris":{"android":"levelo://app?vid=46692558-8846-4a6d-81d7-552990d88bb6","ios":"levelo://app?vid=46692558-8846-4a6d-81d7-552990d88bb6"},"vehicle_type_id":"4","last_reported":1700986125,"current_range_meters":26000,"station_id":"ce4bhbh2rcd13ifvqeo0","pricing_plan_id":"free"},{"bike_id":"1168ee67-6676-44e3-8158-09fbed9ad342","system_id":"levelo_inurba_marseille","lat":43.275625,"lon":5.384392,"is_reserved":false,"is_disabled":false,"rental_uris":{"android":"levelo://app?vid=1168ee67-6676-44e3-8158-09fbed9ad342","ios":"levelo://app?vid=1168ee67-6676-44e3-8158-09fbed9ad342"},"vehicle_type_id":"4","last_reported":1700986125,"current_range_meters":26800,"station_id":"ce4bhh92rcd13ifvqfi0","pricing_plan_id":"free"},{"bike_id":"2de05027-7797-4106-81c1-0fbaf060e0d4","system_id":"levelo_inurba_marseille","lat":43.31717,"lon":5.42394,"is_reserved":false,"is_disabled":false,"rental_uris":{"android":"levelo://app?vid=2de05027-7797-4106-81c1-0fbaf060e0d4","ios":"levelo://app?vid=2de05027-7797-4106-81c1-0fbaf060e0d4"},"vehicle_type_id":"4","last_reported":1700986125,"current_range_meters":13200,"station_id":"ce4bhp92rcd13ifvqhbg","pricing_plan_id":"free"},{"bike_id":"60395232-e532-4f5a-ae3e-52a22da3b50f","system_id":"levelo_inurba_marseille","lat":43.31084,"lon":5.42426,"is_reserved":false,"is_disabled":false,"rental_uris":{"android":"levelo://app?vid=60395232-e532-4f5a-ae3e-52a22da3b50f","ios":"levelo://app?vid=60395232-e532-4f5a-ae3e-52a22da3b50f"},"vehicle_type_id":"4","last_reported":1700986125,"current_range_meters":31200,"station_id":"ce4bhp92rcd13ifvqhag","pricing_plan_id":"free"},{"bike_id":"2bac63be-2248-4f83-9913-6fa6e719b914","system_id":"levelo_inurba_marseille","lat":43.31082,"lon":5.42427,"is_reserved":false,"is_disabled":false,"rental_uris":{"android":"levelo://app?vid=2bac63be-2248-4f83-9913-6fa6e719b914","ios":"levelo://app?vid=2bac63be-2248-4f83-9913-6fa6e719b914"},"vehicle_type_id":"4","last_reported":1700986125,"current_range_meters":14000,"station_id":"ce4bhp92rcd13ifvqhag","pricing_plan_id":"free"},{"bike_id":"8eb5bdb0-5c9b-4999-93c3-a1a499ccf536","system_id":"levelo_inurba_marseille","lat":43.310785,"lon":5.424305,"is_reserved":false,"is_disabled":false,"rental_uris":{"android":"levelo://app?vid=8eb5bdb0-5c9b-4999-93c3-a1a499ccf536","ios":"levelo://app?vid=8eb5bdb0-5c9b-4999-93c3-a1a499ccf536"},"vehicle_type_id":"4","last_reported":1700986125,"current_range_meters":31200,"station_id":"ce4bhp92rcd13ifvqhag","pricing_plan_id":"free"},{"bike_id":"66c5df28-1bf7-4530-b742-a18a7a53be5e","system_id":"levelo_inurba_marseille","lat":43.274099,"lon":5.394019,"is_reserved":false,"is_disabled":false,"rental_uris":{"android":"levelo://app?vid=66c5df28-1bf7-4530-b742-a18a7a53be5e","ios":"levelo://app?vid=66c5df28-1bf7-4530-b742-a18a7a53be5e"},"vehicle_type_id":"4","last_reported":1700986125,"current_range_meters":28400,"station_id":"ce4bhdp2rcd13ifvqf20","pricing_plan_id":"free"},{"bike_id":"eb196576-9a17-42cf-83de-361d35a505ce","system_id":"levelo_inurba_marseille","lat":43.273125,"lon":5.390731,"is_reserved":false,"is_disabled":false,"rental_uris":{"android":"levelo://app?vid=eb196576-9a17-42cf-83de-361d35a505ce","ios":"levelo://app?vid=eb196576-9a17-42cf-83de-361d35a505ce"},"vehicle_type_id":"4","last_reported":1700986125,"current_range_meters":26800,"station_id":"ce4bhgp2rcd13ifvqfe0","pricing_plan_id":"free"},{"bike_id":"4ee479cd-a160-40d8-9650-68d450f33729","system_id":"levelo_inurba_marseille","lat":43.304096,"lon":5.425385,"is_reserved":false,"is_disabled":false,"rental_uris":{"android":"levelo://app?vid=4ee479cd-a160-40d8-9650-68d450f33729","ios":"levelo://app?vid=4ee479cd-a160-40d8-9650-68d450f33729"},"vehicle_type_id":"4","last_reported":1700986125,"current_range_meters":4800,"station_id":"ce4bhoh2rcd13ifvqh6g","pricing_plan_id":"free"},{"bike_id":"9616f2dd-7f3f-40af-8d25-c7b2799d1633","system_id":"levelo_inurba_marseille","lat":43.272116,"lon":5.391747,"is_reserved":false,"is_disabled":false,"rental_uris":{"android":"levelo://app?vid=9616f2dd-7f3f-40af-8d25-c7b2799d1633","ios":"levelo://app?vid=9616f2dd-7f3f-40af-8d25-c7b2799d1633"},"vehicle_type_id":"4","last_reported":1700986125,"current_range_meters":19200,"station_id":"ce4bhhp2rcd13ifvqfm0","pricing_plan_id":"free"},{"bike_id":"a8b4faaf-c0b2-4c26-b533-ce443c65214c","system_id":"levelo_inurba_marseille","lat":43.272118,"lon":5.391758,"is_reserved":false,"is_disabled":false,"rental_uris":{"android":"levelo://app?vid=a8b4faaf-c0b2-4c26-b533-ce443c65214c","ios":"levelo://app?vid=a8b4faaf-c0b2-4c26-b533-ce443c65214c"},"vehicle_type_id":"4","last_reported":1700986125,"current_range_meters":18800,"station_id":"ce4bhhp2rcd13ifvqfm0","pricing_plan_id":"free"},{"bike_id":"5c549b9d-9de8-4736-a9c6-e2dbe83c665a","system_id":"levelo_inurba_marseille","lat":43.272116,"lon":5.391747,"is_reserved":false,"is_disabled":false,"rental_uris":{"android":"levelo://app?vid=5c549b9d-9de8-4736-a9c6-e2dbe83c665a","ios":"levelo://app?vid=5c549b9d-9de8-4736-a9c6-e2dbe83c665a"},"vehicle_type_id":"4","last_reported":1700986125,"current_range_meters":21200,"station_id":"ce4bhhp2rcd13ifvqfm0","pricing_plan_id":"free"},{"bike_id":"3885633d-c3eb-4c43-a69e-df8d59151d2e","system_id":"levelo_inurba_marseille","lat":43.272116,"lon":5.391763,"is_reserved":false,"is_disabled":false,"rental_uris":{"android":"levelo://app?vid=3885633d-c3eb-4c43-a69e-df8d59151d2e","ios":"levelo://app?vid=3885633d-c3eb-4c43-a69e-df8d59151d2e"},"vehicle_type_id":"4","last_reported":1700986125,"current_range_meters":26800,"station_id":"ce4bhhp2rcd13ifvqfm0","pricing_plan_id":"free"},{"bike_id":"57a69bc3-d516-4afa-98d2-be43645247fe","system_id":"levelo_inurba_marseille","lat":43.272116,"lon":5.391747,"is_reserved":false,"is_disabled":false,"rental_uris":{"android":"levelo://app?vid=57a69bc3-d516-4afa-98d2-be43645247fe","ios":"levelo://app?vid=57a69bc3-d516-4afa-98d2-be43645247fe"},"vehicle_type_id":"4","last_reported":1700986125,"current_range_meters":21200,"station_id":"ce4bhhp2rcd13ifvqfm0","pricing_plan_id":"free"},{"bike_id":"a11a582f-55fd-4d9c-a0a1-56909531a629","system_id":"levelo_inurba_marseille","lat":43.278128,"lon":5.407195,"is_reserved":false,"is_disabled":false,"rental_uris":{"android":"levelo://app?vid=a11a582f-55fd-4d9c-a0a1-56909531a629","ios":"levelo://app?vid=a11a582f-55fd-4d9c-a0a1-56909531a629"},"vehicle_type_id":"4","last_reported":1700986125,"current_range_meters":26800,"station_id":"ce4bhnh2rcd13ifvqgtg","pricing_plan_id":"free"},{"bike_id":"18238bc1-a7d6-4bf1-97ad-06f73ddaa374","system_id":"levelo_inurba_marseille","lat":43.278128,"lon":5.407195,"is_reserved":false,"is_disabled":false,"rental_uris":{"android":"levelo://app?vid=18238bc1-a7d6-4bf1-97ad-06f73ddaa374","ios":"levelo://app?vid=18238bc1-a7d6-4bf1-97ad-06f73ddaa374"},"vehicle_type_id":"4","last_reported":1700986125,"current_range_meters":28800,"station_id":"ce4bhnh2rcd13ifvqgtg","pricing_plan_id":"free"},{"bike_id":"f7f5461d-0db3-4faa-a906-87dee17ee96d","system_id":"levelo_inurba_marseille","lat":43.27815,"lon":5.4072,"is_reserved":false,"is_disabled":false,"rental_uris":{"android":"levelo://app?vid=f7f5461d-0db3-4faa-a906-87dee17ee96d","ios":"levelo://app?vid=f7f5461d-0db3-4faa-a906-87dee17ee96d"},"vehicle_type_id":"4","last_reported":1700986125,"current_range_meters":20400,"station_id":"ce4bhnh2rcd13ifvqgtg","pricing_plan_id":"free"},{"bike_id":"2be6abee-883d-47ae-9ebb-310f76cbb8b9","system_id":"levelo_inurba_marseille","lat":43.269467,"lon":5.386439,"is_reserved":false,"is_disabled":false,"rental_uris":{"android":"levelo://app?vid=2be6abee-883d-47ae-9ebb-310f76cbb8b9","ios":"levelo://app?vid=2be6abee-883d-47ae-9ebb-310f76cbb8b9"},"vehicle_type_id":"4","last_reported":1700986125,"current_range_meters":18400,"station_id":"ce4bhh92rcd13ifvqfh0","pricing_plan_id":"free"},{"bike_id":"a69e1e55-c3a2-41db-b446-8cb39ddba668","system_id":"levelo_inurba_marseille","lat":43.279465,"lon":5.410561,"is_reserved":false,"is_disabled":false,"rental_uris":{"android":"levelo://app?vid=a69e1e55-c3a2-41db-b446-8cb39ddba668","ios":"levelo://app?vid=a69e1e55-c3a2-41db-b446-8cb39ddba668"},"vehicle_type_id":"4","last_reported":1700986125,"current_range_meters":29200,"station_id":"ce4bhnp2rcd13ifvqh0g","pricing_plan_id":"free"},{"bike_id":"cb580163-af10-4d48-8319-0786c9de1b67","system_id":"levelo_inurba_marseille","lat":43.26681,"lon":5.382694,"is_reserved":false,"is_disabled":false,"rental_uris":{"android":"levelo://app?vid=cb580163-af10-4d48-8319-0786c9de1b67","ios":"levelo://app?vid=cb580163-af10-4d48-8319-0786c9de1b67"},"vehicle_type_id":"4","last_reported":1700986125,"current_range_meters":15200,"station_id":"ce4bhg92rcd13ifvqf90","pricing_plan_id":"free"},{"bike_id":"552b9570-5876-4717-a59e-c90d5a6c1b1a","system_id":"levelo_inurba_marseille","lat":43.26681,"lon":5.382694,"is_reserved":false,"is_disabled":false,"rental_uris":{"android":"levelo://app?vid=552b9570-5876-4717-a59e-c90d5a6c1b1a","ios":"levelo://app?vid=552b9570-5876-4717-a59e-c90d5a6c1b1a"},"vehicle_type_id":"4","last_reported":1700986125,"current_range_meters":31600,"station_id":"ce4bhg92rcd13ifvqf90","pricing_plan_id":"free"},{"bike_id":"5c6ff074-752b-4e7b-b426-7201d9c547af","system_id":"levelo_inurba_marseille","lat":43.26558,"lon":5.37284,"is_reserved":false,"is_disabled":false,"rental_uris":{"android":"levelo://app?vid=5c6ff074-752b-4e7b-b426-7201d9c547af","ios":"levelo://app?vid=5c6ff074-752b-4e7b-b426-7201d9c547af"},"vehicle_type_id":"4","last_reported":1700986125,"current_range_meters":18000,"station_id":"ce4bhg12rcd13ifvqf70","pricing_plan_id":"free"},{"bike_id":"f23d8119-b478-4639-98c5-6883279f9f84","system_id":"levelo_inurba_marseille","lat":43.32592,"lon":5.43067,"is_reserved":false,"is_disabled":false,"rental_uris":{"android":"levelo://app?vid=f23d8119-b478-4639-98c5-6883279f9f84","ios":"levelo://app?vid=f23d8119-b478-4639-98c5-6883279f9f84"},"vehicle_type_id":"4","last_reported":1700986125,"current_range_meters":23600,"station_id":"","pricing_plan_id":"free"},{"bike_id":"ed30d6a1-b23a-49e5-9c83-5546be72a734","system_id":"levelo_inurba_marseille","lat":43.3259,"lon":5.43075,"is_reserved":false,"is_disabled":false,"rental_uris":{"android":"levelo://app?vid=ed30d6a1-b23a-49e5-9c83-5546be72a734","ios":"levelo://app?vid=ed30d6a1-b23a-49e5-9c83-5546be72a734"},"vehicle_type_id":"4","last_reported":1700986125,"current_range_meters":18400,"station_id":"","pricing_plan_id":"free"},{"bike_id":"d67469ee-5362-4610-a163-fe05ae3cf4f7","system_id":"levelo_inurba_marseille","lat":43.32604,"lon":5.430817,"is_reserved":false,"is_disabled":false,"rental_uris":{"android":"levelo://app?vid=d67469ee-5362-4610-a163-fe05ae3cf4f7","ios":"levelo://app?vid=d67469ee-5362-4610-a163-fe05ae3cf4f7"},"vehicle_type_id":"4","last_reported":1700986125,"current_range_meters":6800,"station_id":"","pricing_plan_id":"free"},{"bike_id":"1037b41f-ee53-4d23-8a6e-3ed0ac6bf173","system_id":"levelo_inurba_marseille","lat":43.27992,"lon":5.41647,"is_reserved":false,"is_disabled":false,"rental_uris":{"android":"levelo://app?vid=1037b41f-ee53-4d23-8a6e-3ed0ac6bf173","ios":"levelo://app?vid=1037b41f-ee53-4d23-8a6e-3ed0ac6bf173"},"vehicle_type_id":"4","last_reported":1700986125,"current_range_meters":30400,"station_id":"ce4bho12rcd13ifvqh1g","pricing_plan_id":"free"},{"bike_id":"97e80021-871f-43cf-ad8e-99b17a254f61","system_id":"levelo_inurba_marseille","lat":43.27996,"lon":5.416624,"is_reserved":false,"is_disabled":false,"rental_uris":{"android":"levelo://app?vid=97e80021-871f-43cf-ad8e-99b17a254f61","ios":"levelo://app?vid=97e80021-871f-43cf-ad8e-99b17a254f61"},"vehicle_type_id":"4","last_reported":1700986125,"current_range_meters":31200,"station_id":"ce4bho12rcd13ifvqh1g","pricing_plan_id":"free"},{"bike_id":"2ce81b26-2847-48e0-8768-f3be7864a8f7","system_id":"levelo_inurba_marseille","lat":43.279993,"lon":5.416707,"is_reserved":false,"is_disabled":false,"rental_uris":{"android":"levelo://app?vid=2ce81b26-2847-48e0-8768-f3be7864a8f7","ios":"levelo://app?vid=2ce81b26-2847-48e0-8768-f3be7864a8f7"},"vehicle_type_id":"4","last_reported":1700986125,"current_range_meters":27200,"station_id":"ce4bho12rcd13ifvqh1g","pricing_plan_id":"free"},{"bike_id":"05d11fc6-bfad-4336-bbb0-16504370a872","system_id":"levelo_inurba_marseille","lat":43.27987,"lon":5.41656,"is_reserved":false,"is_disabled":false,"rental_uris":{"android":"levelo://app?vid=05d11fc6-bfad-4336-bbb0-16504370a872","ios":"levelo://app?vid=05d11fc6-bfad-4336-bbb0-16504370a872"},"vehicle_type_id":"4","last_reported":1700986125,"current_range_meters":28400,"station_id":"ce4bho12rcd13ifvqh1g","pricing_plan_id":"free"},{"bike_id":"b489512a-334b-4aba-8f06-11de6c752bfd","system_id":"levelo_inurba_marseille","lat":43.265714,"lon":5.372891,"is_reserved":false,"is_disabled":false,"rental_uris":{"android":"levelo://app?vid=b489512a-334b-4aba-8f06-11de6c752bfd","ios":"levelo://app?vid=b489512a-334b-4aba-8f06-11de6c752bfd"},"vehicle_type_id":"4","last_reported":1700986125,"current_range_meters":25200,"station_id":"ce4bhg12rcd13ifvqf70","pricing_plan_id":"free"},{"bike_id":"d8b5098a-ad04-43b0-8016-95d267f393c0","system_id":"levelo_inurba_marseille","lat":43.265714,"lon":5.372891,"is_reserved":false,"is_disabled":false,"rental_uris":{"android":"levelo://app?vid=d8b5098a-ad04-43b0-8016-95d267f393c0","ios":"levelo://app?vid=d8b5098a-ad04-43b0-8016-95d267f393c0"},"vehicle_type_id":"4","last_reported":1700986125,"current_range_meters":28000,"station_id":"ce4bhg12rcd13ifvqf70","pricing_plan_id":"free"},{"bike_id":"a3f89d76-8a6a-4496-a898-4607c6b46081","system_id":"levelo_inurba_marseille","lat":43.267966,"lon":5.393976,"is_reserved":false,"is_disabled":false,"rental_uris":{"android":"levelo://app?vid=a3f89d76-8a6a-4496-a898-4607c6b46081","ios":"levelo://app?vid=a3f89d76-8a6a-4496-a898-4607c6b46081"},"vehicle_type_id":"4","last_reported":1700986125,"current_range_meters":30800,"station_id":"ce4bhh12rcd13ifvqfg0","pricing_plan_id":"free"},{"bike_id":"eae4233e-5c8e-459b-8d14-731ee6c7e4fe","system_id":"levelo_inurba_marseille","lat":43.265714,"lon":5.372891,"is_reserved":false,"is_disabled":false,"rental_uris":{"android":"levelo://app?vid=eae4233e-5c8e-459b-8d14-731ee6c7e4fe","ios":"levelo://app?vid=eae4233e-5c8e-459b-8d14-731ee6c7e4fe"},"vehicle_type_id":"4","last_reported":1700986125,"current_range_meters":28000,"station_id":"ce4bhg12rcd13ifvqf70","pricing_plan_id":"free"},{"bike_id":"58f09646-198a-4784-9b3b-ea4659d37cf6","system_id":"levelo_inurba_marseille","lat":43.267966,"lon":5.393976,"is_reserved":false,"is_disabled":false,"rental_uris":{"android":"levelo://app?vid=58f09646-198a-4784-9b3b-ea4659d37cf6","ios":"levelo://app?vid=58f09646-198a-4784-9b3b-ea4659d37cf6"},"vehicle_type_id":"4","last_reported":1700986125,"current_range_meters":28000,"station_id":"ce4bhh12rcd13ifvqfg0","pricing_plan_id":"free"},{"bike_id":"0e1a0a59-a7c9-40f1-98f9-4c208f293aba","system_id":"levelo_inurba_marseille","lat":43.267966,"lon":5.393976,"is_reserved":false,"is_disabled":false,"rental_uris":{"android":"levelo://app?vid=0e1a0a59-a7c9-40f1-98f9-4c208f293aba","ios":"levelo://app?vid=0e1a0a59-a7c9-40f1-98f9-4c208f293aba"},"vehicle_type_id":"4","last_reported":1700986125,"current_range_meters":18800,"station_id":"ce4bhh12rcd13ifvqfg0","pricing_plan_id":"free"},{"bike_id":"2b5f0b27-ae58-4e9e-bd76-c585f78e8a73","system_id":"levelo_inurba_marseille","lat":43.26386,"lon":5.37454,"is_reserved":false,"is_disabled":false,"rental_uris":{"android":"levelo://app?vid=2b5f0b27-ae58-4e9e-bd76-c585f78e8a73","ios":"levelo://app?vid=2b5f0b27-ae58-4e9e-bd76-c585f78e8a73"},"vehicle_type_id":"4","last_reported":1700986125,"current_range_meters":7600,"station_id":"","pricing_plan_id":"free"},{"bike_id":"9ae2cda8-ba30-4f57-9aaa-5721cc4b2b5a","system_id":"levelo_inurba_marseille","lat":43.308051,"lon":5.43527,"is_reserved":false,"is_disabled":false,"rental_uris":{"android":"levelo://app?vid=9ae2cda8-ba30-4f57-9aaa-5721cc4b2b5a","ios":"levelo://app?vid=9ae2cda8-ba30-4f57-9aaa-5721cc4b2b5a"},"vehicle_type_id":"4","last_reported":1700986125,"current_range_meters":30400,"station_id":"ce4bhph2rcd13ifvqheg","pricing_plan_id":"free"},{"bike_id":"410c3bc5-1cc0-498a-a675-b5b674c067bc","system_id":"levelo_inurba_marseille","lat":43.265569,"lon":5.390047,"is_reserved":false,"is_disabled":false,"rental_uris":{"android":"levelo://app?vid=410c3bc5-1cc0-498a-a675-b5b674c067bc","ios":"levelo://app?vid=410c3bc5-1cc0-498a-a675-b5b674c067bc"},"vehicle_type_id":"4","last_reported":1700986125,"current_range_meters":28000,"station_id":"ce4bhe12rcd13ifvqf30","pricing_plan_id":"free"},{"bike_id":"e8c2728b-4f0c-4469-81c8-cc7a0a2d3da3","system_id":"levelo_inurba_marseille","lat":43.26949,"lon":5.40262,"is_reserved":false,"is_disabled":false,"rental_uris":{"android":"levelo://app?vid=e8c2728b-4f0c-4469-81c8-cc7a0a2d3da3","ios":"levelo://app?vid=e8c2728b-4f0c-4469-81c8-cc7a0a2d3da3"},"vehicle_type_id":"4","last_reported":1700986125,"current_range_meters":28400,"station_id":"cjm6bp8fraef2m0cb0m0","pricing_plan_id":"free"},{"bike_id":"b6be2ed9-33cc-4a48-960c-fcfccf8f87a2","system_id":"levelo_inurba_marseille","lat":43.269367,"lon":5.402413,"is_reserved":false,"is_disabled":false,"rental_uris":{"android":"levelo://app?vid=b6be2ed9-33cc-4a48-960c-fcfccf8f87a2","ios":"levelo://app?vid=b6be2ed9-33cc-4a48-960c-fcfccf8f87a2"},"vehicle_type_id":"4","last_reported":1700986125,"current_range_meters":28000,"station_id":"cjm6bp8fraef2m0cb0m0","pricing_plan_id":"free"},{"bike_id":"6931a1bf-4d1f-4449-992b-a47fe1f96118","system_id":"levelo_inurba_marseille","lat":43.26949,"lon":5.40262,"is_reserved":false,"is_disabled":false,"rental_uris":{"android":"levelo://app?vid=6931a1bf-4d1f-4449-992b-a47fe1f96118","ios":"levelo://app?vid=6931a1bf-4d1f-4449-992b-a47fe1f96118"},"vehicle_type_id":"4","last_reported":1700986125,"current_range_meters":21600,"station_id":"cjm6bp8fraef2m0cb0m0","pricing_plan_id":"free"},{"bike_id":"7eb84224-ddd2-4ee3-9ea9-0c75c393e799","system_id":"levelo_inurba_marseille","lat":43.26949,"lon":5.40262,"is_reserved":false,"is_disabled":false,"rental_uris":{"android":"levelo://app?vid=7eb84224-ddd2-4ee3-9ea9-0c75c393e799","ios":"levelo://app?vid=7eb84224-ddd2-4ee3-9ea9-0c75c393e799"},"vehicle_type_id":"4","last_reported":1700986125,"current_range_meters":17600,"station_id":"cjm6bp8fraef2m0cb0m0","pricing_plan_id":"free"},{"bike_id":"149de16b-7aa0-4c51-98d0-fc74b233cb43","system_id":"levelo_inurba_marseille","lat":43.317104,"lon":5.436818,"is_reserved":false,"is_disabled":false,"rental_uris":{"android":"levelo://app?vid=149de16b-7aa0-4c51-98d0-fc74b233cb43","ios":"levelo://app?vid=149de16b-7aa0-4c51-98d0-fc74b233cb43"},"vehicle_type_id":"4","last_reported":1700986125,"current_range_meters":12800,"station_id":"ce4bhp92rcd13ifvqhcg","pricing_plan_id":"free"},{"bike_id":"ec593df7-85d2-4a7c-a892-75fec147bf75","system_id":"levelo_inurba_marseille","lat":43.317104,"lon":5.436818,"is_reserved":false,"is_disabled":false,"rental_uris":{"android":"levelo://app?vid=ec593df7-85d2-4a7c-a892-75fec147bf75","ios":"levelo://app?vid=ec593df7-85d2-4a7c-a892-75fec147bf75"},"vehicle_type_id":"4","last_reported":1700986125,"current_range_meters":28000,"station_id":"ce4bhp92rcd13ifvqhcg","pricing_plan_id":"free"},{"bike_id":"e6ae5fa6-9435-4ad0-836c-d6e0a81870ce","system_id":"levelo_inurba_marseille","lat":43.317104,"lon":5.436818,"is_reserved":false,"is_disabled":false,"rental_uris":{"android":"levelo://app?vid=e6ae5fa6-9435-4ad0-836c-d6e0a81870ce","ios":"levelo://app?vid=e6ae5fa6-9435-4ad0-836c-d6e0a81870ce"},"vehicle_type_id":"4","last_reported":1700986125,"current_range_meters":22000,"station_id":"ce4bhp92rcd13ifvqhcg","pricing_plan_id":"free"},{"bike_id":"168519a5-1052-47ea-a7cb-3924cbbe4eda","system_id":"levelo_inurba_marseille","lat":43.271388,"lon":5.409269,"is_reserved":false,"is_disabled":false,"rental_uris":{"android":"levelo://app?vid=168519a5-1052-47ea-a7cb-3924cbbe4eda","ios":"levelo://app?vid=168519a5-1052-47ea-a7cb-3924cbbe4eda"},"vehicle_type_id":"4","last_reported":1700986125,"current_range_meters":28400,"station_id":"ce4bhl12rcd13ifvqgf0","pricing_plan_id":"free"},{"bike_id":"9e593d08-8c96-44ca-b16e-7bf16e9cac2f","system_id":"levelo_inurba_marseille","lat":43.271368,"lon":5.40928,"is_reserved":false,"is_disabled":false,"rental_uris":{"android":"levelo://app?vid=9e593d08-8c96-44ca-b16e-7bf16e9cac2f","ios":"levelo://app?vid=9e593d08-8c96-44ca-b16e-7bf16e9cac2f"},"vehicle_type_id":"4","last_reported":1700986125,"current_range_meters":31600,"station_id":"ce4bhl12rcd13ifvqgf0","pricing_plan_id":"free"},{"bike_id":"3ebbbbf8-0d1e-4343-910b-5aa8c2d3fc91","system_id":"levelo_inurba_marseille","lat":43.271368,"lon":5.40928,"is_reserved":false,"is_disabled":false,"rental_uris":{"android":"levelo://app?vid=3ebbbbf8-0d1e-4343-910b-5aa8c2d3fc91","ios":"levelo://app?vid=3ebbbbf8-0d1e-4343-910b-5aa8c2d3fc91"},"vehicle_type_id":"4","last_reported":1700986125,"current_range_meters":27200,"station_id":"ce4bhl12rcd13ifvqgf0","pricing_plan_id":"free"},{"bike_id":"6887471b-aa45-4673-ba8a-bf6e4f1910be","system_id":"levelo_inurba_marseille","lat":43.271368,"lon":5.40928,"is_reserved":false,"is_disabled":false,"rental_uris":{"android":"levelo://app?vid=6887471b-aa45-4673-ba8a-bf6e4f1910be","ios":"levelo://app?vid=6887471b-aa45-4673-ba8a-bf6e4f1910be"},"vehicle_type_id":"4","last_reported":1700986125,"current_range_meters":7600,"station_id":"ce4bhl12rcd13ifvqgf0","pricing_plan_id":"free"},{"bike_id":"dbf62bfb-d43b-46dc-b301-0e9e00d707fe","system_id":"levelo_inurba_marseille","lat":43.261807,"lon":5.379046,"is_reserved":false,"is_disabled":false,"rental_uris":{"android":"levelo://app?vid=dbf62bfb-d43b-46dc-b301-0e9e00d707fe","ios":"levelo://app?vid=dbf62bfb-d43b-46dc-b301-0e9e00d707fe"},"vehicle_type_id":"4","last_reported":1700986125,"current_range_meters":25200,"station_id":"ce4bhjp2rcd13ifvqg90","pricing_plan_id":"free"},{"bike_id":"c9809a3c-1071-4a8a-aced-720243c4a91a","system_id":"levelo_inurba_marseille","lat":43.267959,"lon":5.402685,"is_reserved":false,"is_disabled":false,"rental_uris":{"android":"levelo://app?vid=c9809a3c-1071-4a8a-aced-720243c4a91a","ios":"levelo://app?vid=c9809a3c-1071-4a8a-aced-720243c4a91a"},"vehicle_type_id":"4","last_reported":1700986125,"current_range_meters":30400,"station_id":"ce501612rcd8frsf0b60","pricing_plan_id":"free"},{"bike_id":"46df2e5a-87e8-4922-84e7-48faa6528bdd","system_id":"levelo_inurba_marseille","lat":43.267959,"lon":5.402687,"is_reserved":false,"is_disabled":false,"rental_uris":{"android":"levelo://app?vid=46df2e5a-87e8-4922-84e7-48faa6528bdd","ios":"levelo://app?vid=46df2e5a-87e8-4922-84e7-48faa6528bdd"},"vehicle_type_id":"4","last_reported":1700986125,"current_range_meters":26800,"station_id":"ce501612rcd8frsf0b60","pricing_plan_id":"free"},{"bike_id":"1abe3e2c-431e-436d-ba02-88693e47ad74","system_id":"levelo_inurba_marseille","lat":43.298768,"lon":5.43643,"is_reserved":false,"is_disabled":false,"rental_uris":{"android":"levelo://app?vid=1abe3e2c-431e-436d-ba02-88693e47ad74","ios":"levelo://app?vid=1abe3e2c-431e-436d-ba02-88693e47ad74"},"vehicle_type_id":"4","last_reported":1700986125,"current_range_meters":29600,"station_id":"ce4bhpp2rcd13ifvqhfg","pricing_plan_id":"free"},{"bike_id":"7c5a83ac-336c-4b91-a5ea-82b3c6d6127d","system_id":"levelo_inurba_marseille","lat":43.298768,"lon":5.43643,"is_reserved":false,"is_disabled":false,"rental_uris":{"android":"levelo://app?vid=7c5a83ac-336c-4b91-a5ea-82b3c6d6127d","ios":"levelo://app?vid=7c5a83ac-336c-4b91-a5ea-82b3c6d6127d"},"vehicle_type_id":"4","last_reported":1700986125,"current_range_meters":31200,"station_id":"ce4bhpp2rcd13ifvqhfg","pricing_plan_id":"free"},{"bike_id":"f4f2e1d5-dafa-412d-9b3a-3611814786ce","system_id":"levelo_inurba_marseille","lat":43.298768,"lon":5.43643,"is_reserved":false,"is_disabled":false,"rental_uris":{"android":"levelo://app?vid=f4f2e1d5-dafa-412d-9b3a-3611814786ce","ios":"levelo://app?vid=f4f2e1d5-dafa-412d-9b3a-3611814786ce"},"vehicle_type_id":"4","last_reported":1700986125,"current_range_meters":31200,"station_id":"ce4bhpp2rcd13ifvqhfg","pricing_plan_id":"free"},{"bike_id":"d24921c1-8c61-4b91-941a-2e11a6ed2b73","system_id":"levelo_inurba_marseille","lat":43.29893,"lon":5.43665,"is_reserved":false,"is_disabled":false,"rental_uris":{"android":"levelo://app?vid=d24921c1-8c61-4b91-941a-2e11a6ed2b73","ios":"levelo://app?vid=d24921c1-8c61-4b91-941a-2e11a6ed2b73"},"vehicle_type_id":"4","last_reported":1700986125,"current_range_meters":30000,"station_id":"ce4bhpp2rcd13ifvqhfg","pricing_plan_id":"free"},{"bike_id":"8af0d2ed-93d1-485d-9803-40c71e52d0d9","system_id":"levelo_inurba_marseille","lat":43.299013,"lon":5.43673,"is_reserved":false,"is_disabled":false,"rental_uris":{"android":"levelo://app?vid=8af0d2ed-93d1-485d-9803-40c71e52d0d9","ios":"levelo://app?vid=8af0d2ed-93d1-485d-9803-40c71e52d0d9"},"vehicle_type_id":"4","last_reported":1700986125,"current_range_meters":9200,"station_id":"ce4bhpp2rcd13ifvqhfg","pricing_plan_id":"free"},{"bike_id":"1c8d74f7-5570-450a-a3f0-692cd9a40004","system_id":"levelo_inurba_marseille","lat":43.281548,"lon":5.42643,"is_reserved":false,"is_disabled":false,"rental_uris":{"android":"levelo://app?vid=1c8d74f7-5570-450a-a3f0-692cd9a40004","ios":"levelo://app?vid=1c8d74f7-5570-450a-a3f0-692cd9a40004"},"vehicle_type_id":"4","last_reported":1700986125,"current_range_meters":30800,"station_id":"ce4bhnh2rcd13ifvqgug","pricing_plan_id":"free"},{"bike_id":"842dcf66-28c7-40dc-af0b-7a3c6c857991","system_id":"levelo_inurba_marseille","lat":43.28154,"lon":5.426364,"is_reserved":false,"is_disabled":false,"rental_uris":{"android":"levelo://app?vid=842dcf66-28c7-40dc-af0b-7a3c6c857991","ios":"levelo://app?vid=842dcf66-28c7-40dc-af0b-7a3c6c857991"},"vehicle_type_id":"4","last_reported":1700986125,"current_range_meters":26400,"station_id":"ce4bhnh2rcd13ifvqgug","pricing_plan_id":"free"},{"bike_id":"dc0c3350-5dd6-44a3-9302-c3102229fc54","system_id":"levelo_inurba_marseille","lat":43.281548,"lon":5.42643,"is_reserved":false,"is_disabled":false,"rental_uris":{"android":"levelo://app?vid=dc0c3350-5dd6-44a3-9302-c3102229fc54","ios":"levelo://app?vid=dc0c3350-5dd6-44a3-9302-c3102229fc54"},"vehicle_type_id":"4","last_reported":1700986125,"current_range_meters":26400,"station_id":"ce4bhnh2rcd13ifvqgug","pricing_plan_id":"free"},{"bike_id":"f68ee4f6-e3d9-4c3c-8264-f88965d8ef31","system_id":"levelo_inurba_marseille","lat":43.28154,"lon":5.42638,"is_reserved":false,"is_disabled":false,"rental_uris":{"android":"levelo://app?vid=f68ee4f6-e3d9-4c3c-8264-f88965d8ef31","ios":"levelo://app?vid=f68ee4f6-e3d9-4c3c-8264-f88965d8ef31"},"vehicle_type_id":"4","last_reported":1700986125,"current_range_meters":12400,"station_id":"ce4bhnh2rcd13ifvqgug","pricing_plan_id":"free"},{"bike_id":"c87cdef8-d70c-463e-88fd-987162c81837","system_id":"levelo_inurba_marseille","lat":43.28153,"lon":5.42638,"is_reserved":false,"is_disabled":false,"rental_uris":{"android":"levelo://app?vid=c87cdef8-d70c-463e-88fd-987162c81837","ios":"levelo://app?vid=c87cdef8-d70c-463e-88fd-987162c81837"},"vehicle_type_id":"4","last_reported":1700986125,"current_range_meters":16400,"station_id":"ce4bhnh2rcd13ifvqgug","pricing_plan_id":"free"},{"bike_id":"91b404f7-dd69-4e65-9cf1-9f90fef0012e","system_id":"levelo_inurba_marseille","lat":43.281527,"lon":5.426406,"is_reserved":false,"is_disabled":false,"rental_uris":{"android":"levelo://app?vid=91b404f7-dd69-4e65-9cf1-9f90fef0012e","ios":"levelo://app?vid=91b404f7-dd69-4e65-9cf1-9f90fef0012e"},"vehicle_type_id":"4","last_reported":1700986125,"current_range_meters":30000,"station_id":"ce4bhnh2rcd13ifvqgug","pricing_plan_id":"free"},{"bike_id":"2628fb3a-9b3a-4836-8cca-8b1625de82d4","system_id":"levelo_inurba_marseille","lat":43.28154,"lon":5.42643,"is_reserved":false,"is_disabled":false,"rental_uris":{"android":"levelo://app?vid=2628fb3a-9b3a-4836-8cca-8b1625de82d4","ios":"levelo://app?vid=2628fb3a-9b3a-4836-8cca-8b1625de82d4"},"vehicle_type_id":"4","last_reported":1700986125,"current_range_meters":13200,"station_id":"ce4bhnh2rcd13ifvqgug","pricing_plan_id":"free"},{"bike_id":"006f1478-b3a1-4c5b-bb58-6b7da0cc1461","system_id":"levelo_inurba_marseille","lat":43.2607,"lon":5.393983,"is_reserved":false,"is_disabled":false,"rental_uris":{"android":"levelo://app?vid=006f1478-b3a1-4c5b-bb58-6b7da0cc1461","ios":"levelo://app?vid=006f1478-b3a1-4c5b-bb58-6b7da0cc1461"},"vehicle_type_id":"4","last_reported":1700986125,"current_range_meters":22000,"station_id":"ce4bhh92rcd13ifvqfj0","pricing_plan_id":"free"},{"bike_id":"367e8973-d4cf-45d7-86e6-c58ab5e369c7","system_id":"levelo_inurba_marseille","lat":43.2607,"lon":5.393983,"is_reserved":false,"is_disabled":false,"rental_uris":{"android":"levelo://app?vid=367e8973-d4cf-45d7-86e6-c58ab5e369c7","ios":"levelo://app?vid=367e8973-d4cf-45d7-86e6-c58ab5e369c7"},"vehicle_type_id":"4","last_reported":1700986125,"current_range_meters":28000,"station_id":"ce4bhh92rcd13ifvqfj0","pricing_plan_id":"free"},{"bike_id":"d57db5e3-80a0-4488-81e1-01612618de5a","system_id":"levelo_inurba_marseille","lat":43.2607,"lon":5.393983,"is_reserved":false,"is_disabled":false,"rental_uris":{"android":"levelo://app?vid=d57db5e3-80a0-4488-81e1-01612618de5a","ios":"levelo://app?vid=d57db5e3-80a0-4488-81e1-01612618de5a"},"vehicle_type_id":"4","last_reported":1700986125,"current_range_meters":25600,"station_id":"ce4bhh92rcd13ifvqfj0","pricing_plan_id":"free"},