{"last_updated":1744521402,"ttl":60,"version":"2.2","data":{"bikes":[{"bike_id":"b6ff7e66-b821-4f07-a3cf-b9f4abde04e1","system_id":"levelo_inurba_marseille","lat":43.27995,"lon":5.40045,"is_reserved":false,"is_disabled":false,"rental_uris":{"android":"levelo://app?vid=b6ff7e66-b821-4f07-a3cf-b9f4abde04e1","ios":"levelo://app?vid=b6ff7e66-b821-4f07-a3cf-b9f4abde04e1"},"vehicle_type_id":"4","last_reported":1744521402,"current_range_meters":2800,"station_id":"ce4bho92rcd13ifvqh4g","pricing_plan_id":"cebpf4jnsgd1na2vs0mg"},{"bike_id":"3311c43b-0b27-4c87-9a34-f2700baf06a6","system_id":"levelo_inurba_marseille","lat":43.26216,"lon":5.3745,"is_reserved":false,"is_disabled":false,"rental_uris":{"android":"levelo://app?vid=3311c43b-0b27-4c87-9a34-f2700baf06a6","ios":"levelo://app?vid=3311c43b-0b27-4c87-9a34-f2700baf06a6"},"vehicle_type_id":"4","last_reported":1744521402,"current_range_meters":2800,"station_id":"ce4bhgp2rcd13ifvqfc0","pricing_plan_id":"cebpf4jnsgd1na2vs0mg"},{"bike_id":"678ba984-f2d6-42b4-9406-eca0eed50472","system_id":"levelo_inurba_marseille","lat":43.297887,"lon":5.393606,"is_reserved":false,"is_disabled":true,"rental_uris":{"android":"levelo://app?vid=678ba984-f2d6-42b4-9406-eca0eed50472","ios":"levelo://app?vid=678ba984-f2d6-42b4-9406-eca0eed50472"},"vehicle_type_id":"4","last_reported":1744521402,"current_range_meters":3200,"station_id":"chh1huq6cuj3fo74tm60","pricing_plan_id":"cebpf4jnsgd1na2vs0mg"},{"bike_id":"3df6e7c2-41ac-4b05-8cc3-71c81009cfd4","system_id":"levelo_inurba_marseille","lat":43.30303,"lon":5.36888,"is_reserved":false,"is_disabled":false,"rental_uris":{"android":"levelo://app?vid=3df6e7c2-41ac-4b05-8cc3-71c81009cfd4","ios":"levelo://app?vid=3df6e7c2-41ac-4b05-8cc3-71c81009cfd4"},"vehicle_type_id":"4","last_reported":1744521402,"current_range_meters":3200,"station_id":"ce4bgqh2rcd13ifvqc5g","pricing_plan_id":"cebpf4jnsgd1na2vs0mg"},{"bike_id":"7ac85321-4c77-4c5b-b811-70545780fd5a","system_id":"levelo_inurba_marseille","lat":43.31276,"lon":5.40167,"is_reserved":false,"is_disabled":false,"rental_uris":{"android":"levelo://app?vid=7ac85321-4c77-4c5b-b811-70545780fd5a","ios":"levelo://app?vid=7ac85321-4c77-4c5b-b811-70545780fd5a"},"vehicle_type_id":"4","last_reported":1744521402,"current_range_meters":3600,"station_id":"ce4bh092rcd13ifvqd30","pricing_plan_id":"cebpf4jnsgd1na2vs0mg"},{"bike_id":"7dc6f05c-f257-4d62-b71b-a2b97753d797","system_id":"levelo_inurba_marseille","lat":43.30531,"lon":5.38437,"is_reserved":false,"is_disabled":true,"rental_uris":{"android":"levelo://app?vid=7dc6f05c-f257-4d62-b71b-a2b97753d797","ios":"levelo://app?vid=7dc6f05c-f257-4d62-b71b-a2b97753d797"},"vehicle_type_id":"4","last_reported":1744521402,"current_range_meters":3600,"station_id":"ce4bgg92rcd13ifvqb30","pricing_plan_id":"cebpf4jnsgd1na2vs0mg"},{"bike_id":"94455896-0f19-4fae-bd72-9879f01fcd6e","system_id":"levelo_inurba_marseille","lat":43.2955,"lon":5.42285,"is_reserved":false,"is_disabled":true,"rental_uris":{"android":"levelo://app?vid=94455896-0f19-4fae-bd72-9879f01fcd6e","ios":"levelo://app?vid=94455896-0f19-4fae-bd72-9879f01fcd6e"},"vehicle_type_id":"4","last_reported":1744521402,"current_range_meters":3600,"station_id":"ce4bhph2rcd13ifvqhdg","pricing_plan_id":"cebpf4jnsgd1na2vs0mg"},{"bike_id":"f08782e8-dfbb-4694-a97f-b4b016ab5364","system_id":"levelo_inurba_marseille","lat":43.29411,"lon":5.41233,"is_reserved":false,"is_disabled":false,"rental_uris":{"android":"levelo://app?vid=f08782e8-dfbb-4694-a97f-b4b016ab5364","ios":"levelo://app?vid=f08782e8-dfbb-4694-a97f-b4b016ab5364"},"vehicle_type_id":"4","last_reported":1744521402,"current_range_meters":4000,"station_id":"","pricing_plan_id":"cebpf4jnsgd1na2vs0mg"},{"bike_id":"368308c4-6e19-4dd3-9ed2-703ee237c38d","system_id":"levelo_inurba_marseille","lat":43.23956,"lon":5.36632,"is_reserved":false,"is_disabled":false,"rental_uris":{"android":"levelo://app?vid=368308c4-6e19-4dd3-9ed2-703ee237c38d","ios":"levelo://app?vid=368308c4-6e19-4dd3-9ed2-703ee237c38d"},"vehicle_type_id":"4","last_reported":1744521402,"current_range_meters":4000,"station_id":"ce4bhi12rcd13ifvqfp0","pricing_plan_id":"cebpf4jnsgd1na2vs0mg"},{"bike_id":"f96c0c65-7fce-4b6c-8bb2-232128e93959","system_id":"levelo_inurba_marseille","lat":43.305013,"lon":5.393105,"is_reserved":false,"is_disabled":false,"rental_uris":{"android":"levelo://app?vid=f96c0c65-7fce-4b6c-8bb2-232128e93959","ios":"levelo://app?vid=f96c0c65-7fce-4b6c-8bb2-232128e93959"},"vehicle_type_id":"4","last_reported":1744521402,"current_range_meters":4400,"station_id":"","pricing_plan_id":"cebpf4jnsgd1na2vs0mg"},{"bike_id":"f2c9af42-a832-4609-be6a-7a6fa0049083","system_id":"levelo_inurba_marseille","lat":43.26919,"lon":5.39038,"is_reserved":false,"is_disabled":false,"rental_uris":{"android":"levelo://app?vid=f2c9af42-a832-4609-be6a-7a6fa0049083","ios":"levelo://app?vid=f2c9af42-a832-4609-be6a-7a6fa0049083"},"vehicle_type_id":"4","last_reported":1744521402,"current_range_meters":4400,"station_id":"","pricing_plan_id":"cebpf4jnsgd1na2vs0mg"},{"bike_id":"cf815562-4860-495d-8146-3018f19d226f","system_id":"levelo_inurba_marseille","lat":43.286197,"lon":5.351034,"is_reserved":false,"is_disabled":false,"rental_uris":{"android":"levelo://app?vid=cf815562-4860-495d-8146-3018f19d226f","ios":"levelo://app?vid=cf815562-4860-495d-8146-3018f19d226f"},"vehicle_type_id":"4","last_reported":1744521402,"current_range_meters":4400,"station_id":"ce4bhch2rcd13ifvqeug","pricing_plan_id":"cebpf4jnsgd1na2vs0mg"},{"bike_id":"3f08cc69-711e-4264-b923-68891203ffa4","system_id":"levelo_inurba_marseille","lat":43.32285,"lon":5.38243,"is_reserved":false,"is_disabled":false,"rental_uris":{"android":"levelo://app?vid=3f08cc69-711e-4264-b923-68891203ffa4","ios":"levelo://app?vid=3f08cc69-711e-4264-b923-68891203ffa4"},"vehicle_type_id":"4","last_reported":1744521402,"current_range_meters":4400,"station_id":"ce4bhr12rcd13ifvqhqg","pricing_plan_id":"cebpf4jnsgd1na2vs0mg"},{"bike_id":"cc83a7aa-57a1-4769-9137-8531613b4691","system_id":"levelo_inurba_marseille","lat":43.31249,"lon":5.372979,"is_reserved":false,"is_disabled":false,"rental_uris":{"android":"levelo://app?vid=cc83a7aa-57a1-4769-9137-8531613b4691","ios":"levelo://app?vid=cc83a7aa-57a1-4769-9137-8531613b4691"},"vehicle_type_id":"4","last_reported":1744521402,"current_range_meters":4800,"station_id":"","pricing_plan_id":"cebpf4jnsgd1na2vs0mg"},{"bike_id":"0de253f9-f4af-4b30-85bc-8ff06630a671","system_id":"levelo_inurba_marseille","lat":43.23193,"lon":5.35551,"is_reserved":false,"is_disabled":false,"rental_uris":{"android":"levelo://app?vid=0de253f9-f4af-4b30-85bc-8ff06630a671","ios":"levelo://app?vid=0de253f9-f4af-4b30-85bc-8ff06630a671"},"vehicle_type_id":"4","last_reported":1744521402,"current_range_meters":5600,"station_id":"ce4bhu92rcd13ifvqi70","pricing_plan_id":"cebpf4jnsgd1na2vs0mg"},{"bike_id":"bc7c6bd2-e571-41ff-b83a-78a716352b86","system_id":"levelo_inurba_marseille","lat":43.31097,"lon":5.37788,"is_reserved":false,"is_disabled":false,"rental_uris":{"android":"levelo://app?vid=bc7c6bd2-e571-41ff-b83a-78a716352b86","ios":"levelo://app?vid=bc7c6bd2-e571-41ff-b83a-78a716352b86"},"vehicle_type_id":"4","last_reported":1744521402,"current_range_meters":5600,"station_id":"ce4bgt92rcd13ifvqcg0","pricing_plan_id":"cebpf4jnsgd1na2vs0mg"},{"bike_id":"61087c9c-58a2-45af-89fa-c020f9313355","system_id":"levelo_inurba_marseille","lat":43.21752,"lon":5.34612,"is_reserved":false,"is_disabled":true,"rental_uris":{"android":"levelo://app?vid=61087c9c-58a2-45af-89fa-c020f9313355","ios":"levelo://app?vid=61087c9c-58a2-45af-89fa-c020f9313355"},"vehicle_type_id":"4","last_reported":1744521402,"current_range_meters":5600,"station_id":"st_cvj6r9ubvosntc0bgbag","pricing_plan_id":"cebpf4jnsgd1na2vs0mg"},{"bike_id":"e4380e13-6ea1-432c-b547-badeba89c1b3","system_id":"levelo_inurba_marseille","lat":43.28819,"lon":5.39354,"is_reserved":false,"is_disabled":true,"rental_uris":{"android":"levelo://app?vid=e4380e13-6ea1-432c-b547-badeba89c1b3","ios":"levelo://app?vid=e4380e13-6ea1-432c-b547-badeba89c1b3"},"vehicle_type_id":"4","last_reported":1744521402,"current_range_meters":5600,"station_id":"ce4bh2p2rcd13ifvqdi0","pricing_plan_id":"cebpf4jnsgd1na2vs0mg"},{"bike_id":"4c56221a-0f46-4530-955a-7184a07c8a88","system_id":"levelo_inurba_marseille","lat":43.23194,"lon":5.35554,"is_reserved":false,"is_disabled":true,"rental_uris":{"android":"levelo://app?vid=4c56221a-0f46-4530-955a-7184a07c8a88","ios":"levelo://app?vid=4c56221a-0f46-4530-955a-7184a07c8a88"},"vehicle_type_id":"4","last_reported":1744521402,"current_range_meters":5600,"station_id":"ce4bhu92rcd13ifvqi70","pricing_plan_id":"cebpf4jnsgd1na2vs0mg"},{"bike_id":"9b0ae5e8-390f-4f43-a54d-3f6755f85f5e","system_id":"levelo_inurba_marseille","lat":43.26542,"lon":5.3903,"is_reserved":false,"is_disabled":false,"rental_uris":{"android":"levelo://app?vid=9b0ae5e8-390f-4f43-a54d-3f6755f85f5e","ios":"levelo://app?vid=9b0ae5e8-390f-4f43-a54d-3f6755f85f5e"},"vehicle_type_id":"4","last_reported":1744521402,"current_range_meters":6000,"station_id":"ce4bhe12rcd13ifvqf30","pricing_plan_id":"cebpf4jnsgd1na2vs0mg"},{"bike_id":"11fea1b1-130f-470e-bf37-52dc6c4371bd","system_id":"levelo_inurba_marseille","lat":43.301354,"lon":5.398751,"is_reserved":false,"is_disabled":false,"rental_uris":{"android":"levelo://app?vid=11fea1b1-130f-470e-bf37-52dc6c4371bd","ios":"levelo://app?vid=11fea1b1-130f-470e-bf37-52dc6c4371bd"},"vehicle_type_id":"4","last_reported":1744521402,"current_range_meters":6000,"station_id":"ce4bh0h2rcd13ifvqd40","pricing_plan_id":"cebpf4jnsgd1na2vs0mg"},{"bike_id":"dd081b68-0a47-41b3-9975-782e5d7a940e","system_id":"levelo_inurba_marseille","lat":43.274966,"lon":5.424696,"is_reserved":false,"is_disabled":false,"rental_uris":{"android":"levelo://app?vid=dd081b68-0a47-41b3-9975-782e5d7a940e","ios":"levelo://app?vid=dd081b68-0a47-41b3-9975-782e5d7a940e"},"vehicle_type_id":"4","last_reported":1744521402,"current_range_meters":6000,"station_id":"ce4bhn92rcd13ifvqgrg","pricing_plan_id":"cebpf4jnsgd1na2vs0mg"},{"bike_id":"dd64b78e-5e6f-40ad-92d7-5ed8a19c86fa","system_id":"levelo_inurba_marseille","lat":43.27992,"lon":5.41002,"is_reserved":false,"is_disabled":false,"rental_uris":{"android":"levelo://app?vid=dd64b78e-5e6f-40ad-92d7-5ed8a19c86fa","ios":"levelo://app?vid=dd64b78e-5e6f-40ad-92d7-5ed8a19c86fa"},"vehicle_type_id":"4","last_reported":1744521402,"current_range_meters":6000,"station_id":"","pricing_plan_id":"cebpf4jnsgd1na2vs0mg"},{"bike_id":"e524e199-d573-4d65-acc8-4e08ac3eebbe","system_id":"levelo_inurba_marseille","lat":43.27896,"lon":5.39595,"is_reserved":false,"is_disabled":false,"rental_uris":{"android":"levelo://app?vid=e524e199-d573-4d65-acc8-4e08ac3eebbe","ios":"levelo://app?vid=e524e199-d573-4d65-acc8-4e08ac3eebbe"},"vehicle_type_id":"4","last_reported":1744521402,"current_range_meters":6400,"station_id":"ce4bhf92rcd13ifvqf40","pricing_plan_id":"cebpf4jnsgd1na2vs0mg"},{"bike_id":"7fc5054b-d89b-428b-969c-570e0c95ca38","system_id":"levelo_inurba_marseille","lat":43.26569,"lon":5.39062,"is_reserved":false,"is_disabled":false,"rental_uris":{"android":"levelo://app?vid=7fc5054b-d89b-428b-969c-570e0c95ca38","ios":"levelo://app?vid=7fc5054b-d89b-428b-969c-570e0c95ca38"},"vehicle_type_id":"4","last_reported":1744521402,"current_range_meters":6400,"station_id":"ce4bhe12rcd13ifvqf30","pricing_plan_id":"cebpf4jnsgd1na2vs0mg"},{"bike_id":"6955b998-9661-4258-be6b-a95cffb9b0da","system_id":"levelo_inurba_marseille","lat":43.23172,"lon":5.35598,"is_reserved":false,"is_disabled":false,"rental_uris":{"android":"levelo://app?vid=6955b998-9661-4258-be6b-a95cffb9b0da","ios":"levelo://app?vid=6955b998-9661-4258-be6b-a95cffb9b0da"},"vehicle_type_id":"4","last_reported":1744521402,"current_range_meters":6400,"station_id":"ce4bhu92rcd13ifvqi70","pricing_plan_id":"cebpf4jnsgd1na2vs0mg"},{"bike_id":"8708dd08-3274-46ab-b322-809752473736","system_id":"levelo_inurba_marseille","lat":43.3031,"lon":5.40465,"is_reserved":false,"is_disabled":false,"rental_uris":{"android":"levelo://app?vid=8708dd08-3274-46ab-b322-809752473736","ios":"levelo://app?vid=8708dd08-3274-46ab-b322-809752473736"},"vehicle_type_id":"4","last_reported":1744521402,"current_range_meters":6400,"station_id":"ce4bh012rcd13ifvqd10","pricing_plan_id":"cebpf4jnsgd1na2vs0mg"},{"bike_id":"4873b923-3644-4ac3-9d38-fee6306a11a5","system_id":"levelo_inurba_marseille","lat":43.29255,"lon":5.40146,"is_reserved":false,"is_disabled":true,"rental_uris":{"android":"levelo://app?vid=4873b923-3644-4ac3-9d38-fee6306a11a5","ios":"levelo://app?vid=4873b923-3644-4ac3-9d38-fee6306a11a5"},"vehicle_type_id":"4","last_reported":1744521402,"current_range_meters":6400,"station_id":"ce4bh312rcd13ifvqdk0","pricing_plan_id":"cebpf4jnsgd1na2vs0mg"},{"bike_id":"a8549609-d3ea-4809-91b2-8c9b727de959","system_id":"levelo_inurba_marseille","lat":43.323408,"lon":5.406176,"is_reserved":false,"is_disabled":false,"rental_uris":{"android":"levelo://app?vid=a8549609-d3ea-4809-91b2-8c9b727de959","ios":"levelo://app?vid=a8549609-d3ea-4809-91b2-8c9b727de959"},"vehicle_type_id":"4","last_reported":1744521402,"current_range_meters":6400,"station_id":"ce4bhq92rcd13ifvqhjg","pricing_plan_id":"cebpf4jnsgd1na2vs0mg"},{"bike_id":"c3473d21-6de6-4a88-8155-9e560dd0e3ba","system_id":"levelo_inurba_marseille","lat":43.30793,"lon":5.38171,"is_reserved":false,"is_disabled":false,"rental_uris":{"android":"levelo://app?vid=c3473d21-6de6-4a88-8155-9e560dd0e3ba","ios":"levelo://app?vid=c3473d21-6de6-4a88-8155-9e560dd0e3ba"},"vehicle_type_id":"4","last_reported":1744521402,"current_range_meters":6400,"station_id":"ce4bgt12rcd13ifvqce0","pricing_plan_id":"cebpf4jnsgd1na2vs0mg"},{"bike_id":"f1e00540-c2d1-4f3b-ba05-711232888e6e","system_id":"levelo_inurba_marseille","lat":43.21754,"lon":5.346,"is_reserved":false,"is_disabled":true,"rental_uris":{"android":"levelo://app?vid=f1e00540-c2d1-4f3b-ba05-711232888e6e","ios":"levelo://app?vid=f1e00540-c2d1-4f3b-ba05-711232888e6e"},"vehicle_type_id":"4","last_reported":1744521402,"current_range_meters":6400,"station_id":"st_cvj6r9ubvosntc0bgbag","pricing_plan_id":"cebpf4jnsgd1na2vs0mg"},{"bike_id":"72adaa87-94dc-4774-aca0-5147bc57bd16","system_id":"levelo_inurba_marseille","lat":43.260245,"lon":5.417345,"is_reserved":false,"is_disabled":false,"rental_uris":{"android":"levelo://app?vid=72adaa87-94dc-4774-aca0-5147bc57bd16","ios":"levelo://app?vid=72adaa87-94dc-4774-aca0-5147bc57bd16"},"vehicle_type_id":"4","last_reported":1744521402,"current_range_meters":6400,"station_id":"","pricing_plan_id":"cebpf4jnsgd1na2vs0mg"},{"bike_id":"8c58f2fa-99e1-41f8-bf90-9c1648b679b1","system_id":"levelo_inurba_marseille","lat":43.27303,"lon":5.41442,"is_reserved":false,"is_disabled":false,"rental_uris":{"android":"levelo://app?vid=8c58f2fa-99e1-41f8-bf90-9c1648b679b1","ios":"levelo://app?vid=8c58f2fa-99e1-41f8-bf90-9c1648b679b1"},"vehicle_type_id":"4","last_reported":1744521402,"current_range_meters":6400,"station_id":"","pricing_plan_id":"cebpf4jnsgd1na2vs0mg"},{"bike_id":"237f5f22-fb1c-4e53-a93a-74bc941f716c","system_id":"levelo_inurba_marseille","lat":43.2622,"lon":5.40462,"is_reserved":false,"is_disabled":false,"rental_uris":{"android":"levelo://app?vid=237f5f22-fb1c-4e53-a93a-74bc941f716c","ios":"levelo://app?vid=237f5f22-fb1c-4e53-a93a-74bc941f716c"},"vehicle_type_id":"4","last_reported":1744521402,"current_range_meters":6400,"station_id":"ce4bhmh2rcd13ifvqgmg","pricing_plan_id":"cebpf4jnsgd1na2vs0mg"},{"bike_id":"adfb08db-ad3d-4a60-889b-8e3a7bf8e1c1","system_id":"levelo_inurba_marseille","lat":43.23151,"lon":5.43709,"is_reserved":false,"is_disabled":false,"rental_uris":{"android":"levelo://app?vid=adfb08db-ad3d-4a60-889b-8e3a7bf8e1c1","ios":"levelo://app?vid=adfb08db-ad3d-4a60-889b-8e3a7bf8e1c1"},"vehicle_type_id":"4","last_reported":1744521402,"current_range_meters":6400,"station_id":"ce4bhmp2rcd13ifvqgog","pricing_plan_id":"cebpf4jnsgd1na2vs0mg"},{"bike_id":"8f6f7300-8888-47a0-9d5b-b6f3ec62a647","system_id":"levelo_inurba_marseille","lat":43.29819,"lon":5.40406,"is_reserved":false,"is_disabled":false,"rental_uris":{"android":"levelo://app?vid=8f6f7300-8888-47a0-9d5b-b6f3ec62a647","ios":"levelo://app?vid=8f6f7300-8888-47a0-9d5b-b6f3ec62a647"},"vehicle_type_id":"4","last_reported":1744521402,"current_range_meters":6800,"station_id":"ce4bh112rcd13ifvqd90","pricing_plan_id":"cebpf4jnsgd1na2vs0mg"},{"bike_id":"00673b85-6711-4859-b3bf-30a6d0492894","system_id":"levelo_inurba_marseille","lat":43.25499,"lon":5.37656,"is_reserved":false,"is_disabled":true,"rental_uris":{"android":"levelo://app?vid=00673b85-6711-4859-b3bf-30a6d0492894","ios":"levelo://app?vid=00673b85-6711-4859-b3bf-30a6d0492894"},"vehicle_type_id":"4","last_reported":1744521402,"current_range_meters":6800,"station_id":"ce4bhh12rcd13ifvqff0","pricing_plan_id":"cebpf4jnsgd1na2vs0mg"},{"bike_id":"894db133-1314-46ab-858c-7a96bf454400","system_id":"levelo_inurba_marseille","lat":43.28716,"lon":5.39982,"is_reserved":false,"is_disabled":false,"rental_uris":{"android":"levelo://app?vid=894db133-1314-46ab-858c-7a96bf454400","ios":"levelo://app?vid=894db133-1314-46ab-858c-7a96bf454400"},"vehicle_type_id":"4","last_reported":1744521402,"current_range_meters":6800,"station_id":"ce4bho92rcd13ifvqh3g","pricing_plan_id":"cebpf4jnsgd1na2vs0mg"},{"bike_id":"e6c67cae-3a96-48b0-929c-634d1f7385e4","system_id":"levelo_inurba_marseille","lat":43.30908,"lon":5.3961,"is_reserved":false,"is_disabled":false,"rental_uris":{"android":"levelo://app?vid=e6c67cae-3a96-48b0-929c-634d1f7385e4","ios":"levelo://app?vid=e6c67cae-3a96-48b0-929c-634d1f7385e4"},"vehicle_type_id":"4","last_reported":1744521402,"current_range_meters":6800,"station_id":"ce4bh012rcd13ifvqcv0","pricing_plan_id":"cebpf4jnsgd1na2vs0mg"},{"bike_id":"3e13ca99-833e-475e-909b-680863a2f005","system_id":"levelo_inurba_marseille","lat":43.241758,"lon":5.397338,"is_reserved":false,"is_disabled":false,"rental_uris":{"android":"levelo://app?vid=3e13ca99-833e-475e-909b-680863a2f005","ios":"levelo://app?vid=3e13ca99-833e-475e-909b-680863a2f005"},"vehicle_type_id":"4","last_reported":1744521402,"current_range_meters":6800,"station_id":"ce4bhn12rcd13ifvqgpg","pricing_plan_id":"cebpf4jnsgd1na2vs0mg"},{"bike_id":"37864421-51e4-4d5e-801c-7ac32e01e722","system_id":"levelo_inurba_marseille","lat":43.312678,"lon":5.378406,"is_reserved":false,"is_disabled":false,"rental_uris":{"android":"levelo://app?vid=37864421-51e4-4d5e-801c-7ac32e01e722","ios":"levelo://app?vid=37864421-51e4-4d5e-801c-7ac32e01e722"},"vehicle_type_id":"4","last_reported":1744521402,"current_range_meters":6800,"station_id":"","pricing_plan_id":"cebpf4jnsgd1na2vs0mg"},{"bike_id":"cfadcc33-5bb8-4f29-9a84-ae98565bb4a2","system_id":"levelo_inurba_marseille","lat":43.240734,"lon":5.378014,"is_reserved":false,"is_disabled":false,"rental_uris":{"android":"levelo://app?vid=cfadcc33-5bb8-4f29-9a84-ae98565bb4a2","ios":"levelo://app?vid=cfadcc33-5bb8-4f29-9a84-ae98565bb4a2"},"vehicle_type_id":"4","last_reported":1744521402,"current_range_meters":7200,"station_id":"ce4bhnp2rcd13ifvqgvg","pricing_plan_id":"cebpf4jnsgd1na2vs0mg"},{"bike_id":"4cedd733-2587-4eb1-87b3-3ab69e1574bc","system_id":"levelo_inurba_marseille","lat":43.28933,"lon":5.36641,"is_reserved":false,"is_disabled":false,"rental_uris":{"android":"levelo://app?vid=4cedd733-2587-4eb1-87b3-3ab69e1574bc","ios":"levelo://app?vid=4cedd733-2587-4eb1-87b3-3ab69e1574bc"},"vehicle_type_id":"4","last_reported":1744521402,"current_range_meters":7200,"station_id":"ce4bhap2rcd13ifvqek0","pricing_plan_id":"cebpf4jnsgd1na2vs0mg"},{"bike_id":"4c893399-b4ed-40ed-a49f-713da320f269","system_id":"levelo_inurba_marseille","lat":43.29861,"lon":5.37841,"is_reserved":false,"is_disabled":false,"rental_uris":{"android":"levelo://app?vid=4c893399-b4ed-40ed-a49f-713da320f269","ios":"levelo://app?vid=4c893399-b4ed-40ed-a49f-713da320f269"},"vehicle_type_id":"4","last_reported":1744521402,"current_range_meters":7200,"station_id":"","pricing_plan_id":"cebpf4jnsgd1na2vs0mg"},{"bike_id":"dcd83ead-420c-4f08-8ded-1b3b9ac109d9","system_id":"levelo_inurba_marseille","lat":43.323634,"lon":5.388987,"is_reserved":false,"is_disabled":false,"rental_uris":{"android":"levelo://app?vid=dcd83ead-420c-4f08-8ded-1b3b9ac109d9","ios":"levelo://app?vid=dcd83ead-420c-4f08-8ded-1b3b9ac109d9"},"vehicle_type_id":"4","last_reported":1744521402,"current_range_meters":7200,"station_id":"ce4bhqp2rcd13ifvqhog","pricing_plan_id":"cebpf4jnsgd1na2vs0mg"},{"bike_id":"03c150dd-2e6f-4d93-a813-3885c6574c7f","system_id":"levelo_inurba_marseille","lat":43.3025,"lon":5.40068,"is_reserved":false,"is_disabled":false,"rental_uris":{"android":"levelo://app?vid=03c150dd-2e6f-4d93-a813-3885c6574c7f","ios":"levelo://app?vid=03c150dd-2e6f-4d93-a813-3885c6574c7f"},"vehicle_type_id":"4","last_reported":1744521402,"current_range_meters":7200,"station_id":"ce4bgvh2rcd13ifvqcs0","pricing_plan_id":"cebpf4jnsgd1na2vs0mg"},{"bike_id":"fe9bbe0c-faed-4249-a412-3fc1452e5015","system_id":"levelo_inurba_marseille","lat":43.24642,"lon":5.38907,"is_reserved":false,"is_disabled":false,"rental_uris":{"android":"levelo://app?vid=fe9bbe0c-faed-4249-a412-3fc1452e5015","ios":"levelo://app?vid=fe9bbe0c-faed-4249-a412-3fc1452e5015"},"vehicle_type_id":"4","last_reported":1744521402,"current_range_meters":7200,"station_id":"ce4bhg12rcd13ifvqf60","pricing_plan_id":"cebpf4jnsgd1na2vs0mg"},{"bike_id":"9dda11cd-4807-4095-a422-8bcdb37d867a","system_id":"levelo_inurba_marseille","lat":43.27371,"lon":5.36259,"is_reserved":false,"is_disabled":false,"rental_uris":{"android":"levelo://app?vid=9dda11cd-4807-4095-a422-8bcdb37d867a","ios":"levelo://app?vid=9dda11cd-4807-4095-a422-8bcdb37d867a"},"vehicle_type_id":"4","last_reported":1744521402,"current_range_meters":7200,"station_id":"ce4bhbh2rcd13ifvqeo0","pricing_plan_id":"cebpf4jnsgd1na2vs0mg"},{"bike_id":"1130922e-9ccc-463b-9207-aadecd794edb","system_id":"levelo_inurba_marseille","lat":43.32004,"lon":5.38169,"is_reserved":false,"is_disabled":true,"rental_uris":{"android":"levelo://app?vid=1130922e-9ccc-463b-9207-aadecd794edb","ios":"levelo://app?vid=1130922e-9ccc-463b-9207-aadecd794edb"},"vehicle_type_id":"4","last_reported":1744521402,"current_range_meters":8000,"station_id":"ce4bhr12rcd13ifvqhpg","pricing_plan_id":"cebpf4jnsgd1na2vs0mg"},{"bike_id":"ef291804-1477-432e-b153-82ea15725418","system_id":"levelo_inurba_marseille","lat":43.33742,"lon":5.37454,"is_reserved":false,"is_disabled":false,"rental_uris":{"android":"levelo://app?vid=ef291804-1477-432e-b153-82ea15725418","ios":"levelo://app?vid=ef291804-1477-432e-b153-82ea15725418"},"vehicle_type_id":"4","last_reported":1744521402,"current_range_meters":8000,"station_id":"","pricing_plan_id":"cebpf4jnsgd1na2vs0mg"},{"bike_id":"620b61f1-23d7-4e76-aa20-50b1e573b2b9","system_id":"levelo_inurba_marseille","lat":43.31484,"lon":5.373,"is_reserved":false,"is_disabled":false,"rental_uris":{"android":"levelo://app?vid=620b61f1-23d7-4e76-aa20-50b1e573b2b9","ios":"levelo://app?vid=620b61f1-23d7-4e76-aa20-50b1e573b2b9"},"vehicle_type_id":"4","last_reported":1744521402,"current_range_meters":8000,"station_id":"ce4bgt12rcd13ifvqcd0","pricing_plan_id":"cebpf4jnsgd1na2vs0mg"},{"bike_id":"fb3bf63f-cb8b-4e2d-97b5-e2bd30164ab5","system_id":"levelo_inurba_marseille","lat":43.31053,"lon":5.36715,"is_reserved":false,"is_disabled":false,"rental_uris":{"android":"levelo://app?vid=fb3bf63f-cb8b-4e2d-97b5-e2bd30164ab5","ios":"levelo://app?vid=fb3bf63f-cb8b-4e2d-97b5-e2bd30164ab5"},"vehicle_type_id":"4","last_reported":1744521402,"current_range_meters":8000,"station_id":"","pricing_plan_id":"cebpf4jnsgd1na2vs0mg"},{"bike_id":"e6f75c56-47a8-4c02-a40f-6288b5c187f6","system_id":"levelo_inurba_marseille","lat":43.26056,"lon":5.39397,"is_reserved":false,"is_disabled":false,"rental_uris":{"android":"levelo://app?vid=e6f75c56-47a8-4c02-a40f-6288b5c187f6","ios":"levelo://app?vid=e6f75c56-47a8-4c02-a40f-6288b5c187f6"},"vehicle_type_id":"4","last_reported":1744521402,"current_range_meters":8000,"station_id":"ce4bhh92rcd13ifvqfj0","pricing_plan_id":"cebpf4jnsgd1na2vs0mg"},{"bike_id":"6ae404a2-d053-48b1-a5cc-922ebe44167d","system_id":"levelo_inurba_marseille","lat":43.31072,"lon":5.38353,"is_reserved":false,"is_disabled":false,"rental_uris":{"android":"levelo://app?vid=6ae404a2-d053-48b1-a5cc-922ebe44167d","ios":"levelo://app?vid=6ae404a2-d053-48b1-a5cc-922ebe44167d"},"vehicle_type_id":"4","last_reported":1744521402,"current_range_meters":8000,"station_id":"ce4bgv92rcd13ifvqcr0","pricing_plan_id":"cebpf4jnsgd1na2vs0mg"},{"bike_id":"263cd629-4ce3-47e8-b53b-0c9398ff6ecb","system_id":"levelo_inurba_marseille","lat":43.301465,"lon":5.380558,"is_reserved":false,"is_disabled":false,"rental_uris":{"android":"levelo://app?vid=263cd629-4ce3-47e8-b53b-0c9398ff6ecb","ios":"levelo://app?vid=263cd629-4ce3-47e8-b53b-0c9398ff6ecb"},"vehicle_type_id":"4","last_reported":1744521402,"current_range_meters":8000,"station_id":"ce4bgjp2rcd13ifvqbh0","pricing_plan_id":"cebpf4jnsgd1na2vs0mg"},{"bike_id":"88802da1-90f2-4aff-90a1-c3598e933096","system_id":"levelo_inurba_marseille","lat":43.3027,"lon":5.39181,"is_reserved":false,"is_disabled":false,"rental_uris":{"android":"levelo://app?vid=88802da1-90f2-4aff-90a1-c3598e933096","ios":"levelo://app?vid=88802da1-90f2-4aff-90a1-c3598e933096"},"vehicle_type_id":"4","last_reported":1744521402,"current_range_meters":8000,"station_id":"ce4bgkh2rcd13ifvqbk0","pricing_plan_id":"cebpf4jnsgd1na2vs0mg"},{"bike_id":"d53356ed-34e7-4ce0-8d94-e073954cdd85","system_id":"levelo_inurba_marseille","lat":43.27033,"lon":5.40319,"is_reserved":false,"is_disabled":true,"rental_uris":{"android":"levelo://app?vid=d53356ed-34e7-4ce0-8d94-e073954cdd85","ios":"levelo://app?vid=d53356ed-34e7-4ce0-8d94-e073954cdd85"},"vehicle_type_id":"4","last_reported":1744521402,"current_range_meters":8400,"station_id":"ce4bhk92rcd13ifvqgc0","pricing_plan_id":"cebpf4jnsgd1na2vs0mg"},{"bike_id":"8207ea29-fd0c-4c7e-a5fa-88a3cf6888d1","system_id":"levelo_inurba_marseille","lat":43.24158,"lon":5.39722,"is_reserved":false,"is_disabled":false,"rental_uris":{"android":"levelo://app?vid=8207ea29-fd0c-4c7e-a5fa-88a3cf6888d1","ios":"levelo://app?vid=8207ea29-fd0c-4c7e-a5fa-88a3cf6888d1"},"vehicle_type_id":"4","last_reported":1744521402,"current_range_meters":8400,"station_id":"ce4bhn12rcd13ifvqgpg","pricing_plan_id":"cebpf4jnsgd1na2vs0mg"},{"bike_id":"c013d600-5e08-48f0-830e-8c965978436b","system_id":"levelo_inurba_marseille","lat":43.30442,"lon":5.38899,"is_reserved":false,"is_disabled":true,"rental_uris":{"android":"levelo://app?vid=c013d600-5e08-48f0-830e-8c965978436b","ios":"levelo://app?vid=c013d600-5e08-48f0-830e-8c965978436b"},"vehicle_type_id":"4","last_reported":1744521402,"current_range_meters":8400,"station_id":"ce4bgk12rcd13ifvqbi0","pricing_plan_id":"cebpf4jnsgd1na2vs0mg"},{"bike_id":"bad5aced-b410-4363-91b4-ebab5f49659f","system_id":"levelo_inurba_marseille","lat":43.30774,"lon":5.37691,"is_reserved":false,"is_disabled":false,"rental_uris":{"android":"levelo://app?vid=bad5aced-b410-4363-91b4-ebab5f49659f","ios":"levelo://app?vid=bad5aced-b410-4363-91b4-ebab5f49659f"},"vehicle_type_id":"4","last_reported":1744521402,"current_range_meters":8400,"station_id":"ce4bgv92rcd13ifvqcq0","pricing_plan_id":"cebpf4jnsgd1na2vs0mg"},{"bike_id":"4a0973b0-92a0-41e8-9b0d-a99e944bafe0","system_id":"levelo_inurba_marseille","lat":43.344849,"lon":5.412819,"is_reserved":false,"is_disabled":false,"rental_uris":{"android":"levelo://app?vid=4a0973b0-92a0-41e8-9b0d-a99e944bafe0","ios":"levelo://app?vid=4a0973b0-92a0-41e8-9b0d-a99e944bafe0"},"vehicle_type_id":"4","last_reported":1744521402,"current_range_meters":8400,"station_id":"","pricing_plan_id":"cebpf4jnsgd1na2vs0mg"},{"bike_id":"c8a84fc3-c5b5-4d37-afe1-e917d6b165ab","system_id":"levelo_inurba_marseille","lat":43.286088,"lon":5.351038,"is_reserved":false,"is_disabled":false,"rental_uris":{"android":"levelo://app?vid=c8a84fc3-c5b5-4d37-afe1-e917d6b165ab","ios":"levelo://app?vid=c8a84fc3-c5b5-4d37-afe1-e917d6b165ab"},"vehicle_type_id":"4","last_reported":1744521402,"current_range_meters":8400,"station_id":"ce4bhch2rcd13ifvqeug","pricing_plan_id":"cebpf4jnsgd1na2vs0mg"},{"bike_id":"321918c8-a023-4277-b9ad-d6ce73d59c41","system_id":"levelo_inurba_marseille","lat":43.2846,"lon":5.35897,"is_reserved":false,"is_disabled":false,"rental_uris":{"android":"levelo://app?vid=321918c8-a023-4277-b9ad-d6ce73d59c41","ios":"levelo://app?vid=321918c8-a023-4277-b9ad-d6ce73d59c41"},"vehicle_type_id":"4","last_reported":1744521402,"current_range_meters":8400,"station_id":"ce4bhah2rcd13ifvqei0","pricing_plan_id":"cebpf4jnsgd1na2vs0mg"},{"bike_id":"ec8be3ba-966d-4f71-bd9f-1e7f316362f5","system_id":"levelo_inurba_marseille","lat":43.32975,"lon":5.43864,"is_reserved":false,"is_disabled":false,"rental_uris":{"android":"levelo://app?vid=ec8be3ba-966d-4f71-bd9f-1e7f316362f5","ios":"levelo://app?vid=ec8be3ba-966d-4f71-bd9f-1e7f316362f5"},"vehicle_type_id":"4","last_reported":1744521402,"current_range_meters":8400,"station_id":"","pricing_plan_id":"cebpf4jnsgd1na2vs0mg"},{"bike_id":"fba14dc4-f065-46f4-a67b-b47ee9a5123b","system_id":"levelo_inurba_marseille","lat":43.292995,"lon":5.371832,"is_reserved":false,"is_disabled":true,"rental_uris":{"android":"levelo://app?vid=fba14dc4-f065-46f4-a67b-b47ee9a5123b","ios":"levelo://app?vid=fba14dc4-f065-46f4-a67b-b47ee9a5123b"},"vehicle_type_id":"4","last_reported":1744521402,"current_range_meters":8800,"station_id":"ce4bgh92rcd13ifvqb40","pricing_plan_id":"cebpf4jnsgd1na2vs0mg"},{"bike_id":"019576dd-4d5b-449f-bee3-6016e550c1da","system_id":"levelo_inurba_marseille","lat":43.30361,"lon":5.42481,"is_reserved":false,"is_disabled":false,"rental_uris":{"android":"levelo://app?vid=019576dd-4d5b-449f-bee3-6016e550c1da","ios":"levelo://app?vid=019576dd-4d5b-449f-bee3-6016e550c1da"},"vehicle_type_id":"4","last_reported":1744521402,"current_range_meters":8800,"station_id":"ce4bhoh2rcd13ifvqh6g","pricing_plan_id":"cebpf4jnsgd1na2vs0mg"},{"bike_id":"7a16e283-b53b-4b88-854c-640e282c52b2","system_id":"levelo_inurba_marseille","lat":43.33602,"lon":5.41026,"is_reserved":false,"is_disabled":false,"rental_uris":{"android":"levelo://app?vid=7a16e283-b53b-4b88-854c-640e282c52b2","ios":"levelo://app?vid=7a16e283-b53b-4b88-854c-640e282c52b2"},"vehicle_type_id":"4","last_reported":1744521402,"current_range_meters":8800,"station_id":"ce4bhqh2rcd13ifvqhmg","pricing_plan_id":"cebpf4jnsgd1na2vs0mg"},{"bike_id":"cda00ca5-b429-4ad4-8d45-efc9549291c5","system_id":"levelo_inurba_marseille","lat":43.28691,"lon":5.39985,"is_reserved":false,"is_disabled":false,"rental_uris":{"android":"levelo://app?vid=cda00ca5-b429-4ad4-8d45-efc9549291c5","ios":"levelo://app?vid=cda00ca5-b429-4ad4-8d45-efc9549291c5"},"vehicle_type_id":"4","last_reported":1744521402,"current_range_meters":8800,"station_id":"ce4bho92rcd13ifvqh3g","pricing_plan_id":"cebpf4jnsgd1na2vs0mg"},{"bike_id":"b5096384-5189-44aa-b521-1903ed18caff","system_id":"levelo_inurba_marseille","lat":43.28592,"lon":5.35132,"is_reserved":false,"is_disabled":false,"rental_uris":{"android":"levelo://app?vid=b5096384-5189-44aa-b521-1903ed18caff","ios":"levelo://app?vid=b5096384-5189-44aa-b521-1903ed18caff"},"vehicle_type_id":"4","last_reported":1744521402,"current_range_meters":8800,"station_id":"ce4bhch2rcd13ifvqeug","pricing_plan_id":"cebpf4jnsgd1na2vs0mg"},{"bike_id":"f090b8ea-71fb-427f-8fde-5dc57eb1bb60","system_id":"levelo_inurba_marseille","lat":43.29437,"lon":5.39761,"is_reserved":false,"is_disabled":false,"rental_uris":{"android":"levelo://app?vid=f090b8ea-71fb-427f-8fde-5dc57eb1bb60","ios":"levelo://app?vid=f090b8ea-71fb-427f-8fde-5dc57eb1bb60"},"vehicle_type_id":"4","last_reported":1744521402,"current_range_meters":8800,"station_id":"ce4bh3h2rcd13ifvqdo0","pricing_plan_id":"cebpf4jnsgd1na2vs0mg"},{"bike_id":"211990ef-4669-4091-86ec-137c884b610d","system_id":"levelo_inurba_marseille","lat":43.29238,"lon":5.3845,"is_reserved":false,"is_disabled":true,"rental_uris":{"android":"levelo://app?vid=211990ef-4669-4091-86ec-137c884b610d","ios":"levelo://app?vid=211990ef-4669-4091-86ec-137c884b610d"},"vehicle_type_id":"4","last_reported":1744521402,"current_range_meters":8800,"station_id":"ce4bh692rcd13ifvqea0","pricing_plan_id":"cebpf4jnsgd1na2vs0mg"},{"bike_id":"12fd078a-9327-40d2-9383-059dfc0f3a24","system_id":"levelo_inurba_marseille","lat":43.31331,"lon":5.39705,"is_reserved":false,"is_disabled":false,"rental_uris":{"android":"levelo://app?vid=12fd078a-9327-40d2-9383-059dfc0f3a24","ios":"levelo://app?vid=12fd078a-9327-40d2-9383-059dfc0f3a24"},"vehicle_type_id":"4","last_reported":1744521402,"current_range_meters":9200,"station_id":"ce4bgvp2rcd13ifvqcu0","pricing_plan_id":"cebpf4jnsgd1na2vs0mg"},{"bike_id":"d8f603cd-3b83-4148-bab8-3a185ad2a59f","system_id":"levelo_inurba_marseille","lat":43.32416,"lon":5.3913,"is_reserved":false,"is_disabled":false,"rental_uris":{"android":"levelo://app?vid=d8f603cd-3b83-4148-bab8-3a185ad2a59f","ios":"levelo://app?vid=d8f603cd-3b83-4148-bab8-3a185ad2a59f"},"vehicle_type_id":"4","last_reported":1744521402,"current_range_meters":9200,"station_id":"","pricing_plan_id":"cebpf4jnsgd1na2vs0mg"},{"bike_id":"8d7af1b9-8e4e-438e-a4d9-249701554749","system_id":"levelo_inurba_marseille","lat":43.3133,"lon":5.39716,"is_reserved":false,"is_disabled":false,"rental_uris":{"android":"levelo://app?vid=8d7af1b9-8e4e-438e-a4d9-249701554749","ios":"levelo://app?vid=8d7af1b9-8e4e-438e-a4d9-249701554749"},"vehicle_type_id":"4","last_reported":1744521402,"current_range_meters":9200,"station_id":"ce4bgvp2rcd13ifvqcu0","pricing_plan_id":"cebpf4jnsgd1na2vs0mg"},{"bike_id":"f7d1eee0-1715-419d-beac-1b98ec9e62ed","system_id":"levelo_inurba_marseille","lat":43.309454,"lon":5.390297,"is_reserved":false,"is_disabled":true,"rental_uris":{"android":"levelo://app?vid=f7d1eee0-1715-419d-beac-1b98ec9e62ed","ios":"levelo://app?vid=f7d1eee0-1715-419d-beac-1b98ec9e62ed"},"vehicle_type_id":"4","last_reported":1744521402,"current_range_meters":9200,"station_id":"","pricing_plan_id":"cebpf4jnsgd1na2vs0mg"},{"bike_id":"2d1ead79-f201-4cec-a76d-238b76cb4dcb","system_id":"levelo_inurba_marseille","lat":43.30311,"lon":5.40454,"is_reserved":false,"is_disabled":false,"rental_uris":{"android":"levelo://app?vid=2d1ead79-f201-4cec-a76d-238b76cb4dcb","ios":"levelo://app?vid=2d1ead79-f201-4cec-a76d-238b76cb4dcb"},"vehicle_type_id":"4","last_reported":1744521402,"current_range_meters":9200,"station_id":"ce4bh012rcd13ifvqd10","pricing_plan_id":"cebpf4jnsgd1na2vs0mg"},{"bike_id":"86e3fd62-ce53-4f21-93c1-2fb7456de3cf","system_id":"levelo_inurba_marseille","lat":43.23055,"lon":5.35493,"is_reserved":false,"is_disabled":false,"rental_uris":{"android":"levelo://app?vid=86e3fd62-ce53-4f21-93c1-2fb7456de3cf","ios":"levelo://app?vid=86e3fd62-ce53-4f21-93c1-2fb7456de3cf"},"vehicle_type_id":"4","last_reported":1744521402,"current_range_meters":9200,"station_id":"cpo3342slgdg3j2ifvpg","pricing_plan_id":"cebpf4jnsgd1na2vs0mg"},{"bike_id":"71133eb4-3b4d-4df5-8205-d222be2d541c","system_id":"levelo_inurba_marseille","lat":43.30969,"lon":5.3903,"is_reserved":false,"is_disabled":false,"rental_uris":{"android":"levelo://app?vid=71133eb4-3b4d-4df5-8205-d222be2d541c","ios":"levelo://app?vid=71133eb4-3b4d-4df5-8205-d222be2d541c"},"vehicle_type_id":"4","last_reported":1744521402,"current_range_meters":9200,"station_id":"ce4bgup2rcd13ifvqco0","pricing_plan_id":"cebpf4jnsgd1na2vs0mg"},{"bike_id":"3a8eb72c-53ad-4f36-8afb-69614fb363cd","system_id":"levelo_inurba_marseille","lat":43.28453,"lon":5.35894,"is_reserved":false,"is_disabled":false,"rental_uris":{"android":"levelo://app?vid=3a8eb72c-53ad-4f36-8afb-69614fb363cd","ios":"levelo://app?vid=3a8eb72c-53ad-4f36-8afb-69614fb363cd"},"vehicle_type_id":"4","last_reported":1744521402,"current_range_meters":9200,"station_id":"ce4bhah2rcd13ifvqei0","pricing_plan_id":"cebpf4jnsgd1na2vs0mg"},{"bike_id":"97c5290c-6dcd-4f81-953a-f5953018fa5b","system_id":"levelo_inurba_marseille","lat":43.31039,"lon":5.37557,"is_reserved":false,"is_disabled":false,"rental_uris":{"android":"levelo://app?vid=97c5290c-6dcd-4f81-953a-f5953018fa5b","ios":"levelo://app?vid=97c5290c-6dcd-4f81-953a-f5953018fa5b"},"vehicle_type_id":"4","last_reported":1744521402,"current_range_meters":9200,"station_id":"","pricing_plan_id":"cebpf4jnsgd1na2vs0mg"},{"bike_id":"12995a58-d943-4084-bd4e-dfca89bd59c0","system_id":"levelo_inurba_marseille","lat":43.32335,"lon":5.40625,"is_reserved":false,"is_disabled":false,"rental_uris":{"android":"levelo://app?vid=12995a58-d943-4084-bd4e-dfca89bd59c0","ios":"levelo://app?vid=12995a58-d943-4084-bd4e-dfca89bd59c0"},"vehicle_type_id":"4","last_reported":1744521402,"current_range_meters":9200,"station_id":"ce4bhq92rcd13ifvqhjg","pricing_plan_id":"cebpf4jnsgd1na2vs0mg"},{"bike_id":"c1888c01-968b-4041-97df-b7303b3635f6","system_id":"levelo_inurba_marseille","lat":43.31081,"lon":5.42451,"is_reserved":false,"is_disabled":false,"rental_uris":{"android":"levelo://app?vid=c1888c01-968b-4041-97df-b7303b3635f6","ios":"levelo://app?vid=c1888c01-968b-4041-97df-b7303b3635f6"},"vehicle_type_id":"4","last_reported":1744521402,"current_range_meters":9200,"station_id":"ce4bhp92rcd13ifvqhag","pricing_plan_id":"cebpf4jnsgd1na2vs0mg"},{"bike_id":"0e7bf4ae-5aed-4055-a1f8-96debbb9847e","system_id":"levelo_inurba_marseille","lat":43.241714,"lon":5.363979,"is_reserved":false,"is_disabled":false,"rental_uris":{"android":"levelo://app?vid=0e7bf4ae-5aed-4055-a1f8-96debbb9847e","ios":"levelo://app?vid=0e7bf4ae-5aed-4055-a1f8-96debbb9847e"},"vehicle_type_id":"4","last_reported":1744521402,"current_range_meters":9200,"station_id":"cpo36qri1sfpv3e86is0","pricing_plan_id":"cebpf4jnsgd1na2vs0mg"},{"bike_id":"8609ec5b-db31-4682-89f6-95794d251c5e","system_id":"levelo_inurba_marseille","lat":43.23163,"lon":5.43694,"is_reserved":false,"is_disabled":false,"rental_uris":{"android":"levelo://app?vid=8609ec5b-db31-4682-89f6-95794d251c5e","ios":"levelo://app?vid=8609ec5b-db31-4682-89f6-95794d251c5e"},"vehicle_type_id":"4","last_reported":1744521402,"current_range_meters":9200,"station_id":"ce4bhmp2rcd13ifvqgog","pricing_plan_id":"cebpf4jnsgd1na2vs0mg"},{"bike_id":"25965b25-f0de-41db-ac4c-4f5e82c417f4","system_id":"levelo_inurba_marseille","lat":43.306129,"lon":5.37214,"is_reserved":false,"is_disabled":false,"rental_uris":{"android":"levelo://app?vid=25965b25-f0de-41db-ac4c-4f5e82c417f4","ios":"levelo://app?vid=25965b25-f0de-41db-ac4c-4f5e82c417f4"},"vehicle_type_id":"4","last_reported":1744521402,"current_range_meters":9200,"station_id":"ce4bgqh2rcd13ifvqc4g","pricing_plan_id":"cebpf4jnsgd1na2vs0mg"},{"bike_id":"5b77a833-8185-45c2-9fe3-07eb40df54ca","system_id":"levelo_inurba_marseille","lat":43.33995,"lon":5.38057,"is_reserved":false,"is_disabled":false,"rental_uris":{"android":"levelo://app?vid=5b77a833-8185-45c2-9fe3-07eb40df54ca","ios":"levelo://app?vid=5b77a833-8185-45c2-9fe3-07eb40df54ca"},"vehicle_type_id":"4","last_reported":1744521402,"current_range_meters":9200,"station_id":"","pricing_plan_id":"cebpf4jnsgd1na2vs0mg"},{"bike_id":"78ae55a1-f7e2-42f4-a199-9949c75ff67c","system_id":"levelo_inurba_marseille","lat":43.28493,"lon":5.38483,"is_reserved":false,"is_disabled":false,"rental_uris":{"android":"levelo://app?vid=78ae55a1-f7e2-42f4-a199-9949c75ff67c","ios":"levelo://app?vid=78ae55a1-f7e2-42f4-a199-9949c75ff67c"},"vehicle_type_id":"4","last_reported":1744521402,"current_range_meters":9600,"station_id":"ce4bh512rcd13ifvqe3g","pricing_plan_id":"cebpf4jnsgd1na2vs0mg"},{"bike_id":"4f38e127-be9f-468e-8871-e9cd4f365dca","system_id":"levelo_inurba_marseille","lat":43.246923,"lon":5.411729,"is_reserved":false,"is_disabled":false,"rental_uris":{"android":"levelo://app?vid=4f38e127-be9f-468e-8871-e9cd4f365dca","ios":"levelo://app?vid=4f38e127-be9f-468e-8871-e9cd4f365dca"},"vehicle_type_id":"4","last_reported":1744521402,"current_range_meters":9600,"station_id":"","pricing_plan_id":"cebpf4jnsgd1na2vs0mg"},{"bike_id":"a8b209b2-456e-4a8b-99fa-7124cd412cfb","system_id":"levelo_inurba_marseille","lat":43.31027,"lon":5.41705,"is_reserved":false,"is_disabled":false,"rental_uris":{"android":"levelo://app?vid=a8b209b2-456e-4a8b-99fa-7124cd412cfb","ios":"levelo://app?vid=a8b209b2-456e-4a8b-99fa-7124cd412cfb"},"vehicle_type_id":"4","last_reported":1744521402,"current_range_meters":9600,"station_id":"","pricing_plan_id":"cebpf4jnsgd1na2vs0mg"},{"bike_id":"493cde9e-7859-4c26-a2e6-f744ee5d8553","system_id":"levelo_inurba_marseille","lat":43.31779,"lon":5.36807,"is_reserved":false,"is_disabled":false,"rental_uris":{"android":"levelo://app?vid=493cde9e-7859-4c26-a2e6-f744ee5d8553","ios":"levelo://app?vid=493cde9e-7859-4c26-a2e6-f744ee5d8553"},"vehicle_type_id":"4","last_reported":1744521402,"current_range_meters":9600,"station_id":"","pricing_plan_id":"cebpf4jnsgd1na2vs0mg"},{"bike_id":"d3f929ac-f8b8-4200-a9a3-3b8c9249ebce","system_id":"levelo_inurba_marseille","lat":43.279481,"lon":5.410447,"is_reserved":false,"is_disabled":false,"rental_uris":{"android":"levelo://app?vid=d3f929ac-f8b8-4200-a9a3-3b8c9249ebce","ios":"levelo://app?vid=d3f929ac-f8b8-4200-a9a3-3b8c9249ebce"},"vehicle_type_id":"4","last_reported":1744521402,"current_range_meters":9600,"station_id":"ce4bhnp2rcd13ifvqh0g","pricing_plan_id":"cebpf4jnsgd1na2vs0mg"},{"bike_id":"a2ff1fd3-15da-4d5f-b61b-e4b6df7fc149","system_id":"levelo_inurba_marseille","lat":43.306381,"lon":5.400649,"is_reserved":false,"is_disabled":false,"rental_uris":{"android":"levelo://app?vid=a2ff1fd3-15da-4d5f-b61b-e4b6df7fc149","ios":"levelo://app?vid=a2ff1fd3-15da-4d5f-b61b-e4b6df7fc149"},"vehicle_type_id":"4","last_reported":1744521402,"current_range_meters":9600,"station_id":"ce4bh112rcd13ifvqda0","pricing_plan_id":"cebpf4jnsgd1na2vs0mg"},{"bike_id":"0e28dec3-f76d-48a9-b282-944b4e9f06dd","system_id":"levelo_inurba_marseille","lat":43.24796,"lon":5.37473,"is_reserved":false,"is_disabled":false,"rental_uris":{"android":"levelo://app?vid=0e28dec3-f76d-48a9-b282-944b4e9f06dd","ios":"levelo://app?vid=0e28dec3-f76d-48a9-b282-944b4e9f06dd"},"vehicle_type_id":"4","last_reported":1744521402,"current_range_meters":10000,"station_id":"ce4bhgh2rcd13ifvqfb0","pricing_plan_id":"cebpf4jnsgd1na2vs0mg"},{"bike_id":"2f5bc015-0a98-4a0d-a50f-f7181e1d6abe","system_id":"levelo_inurba_marseille","lat":43.234251,"lon":5.412506,"is_reserved":false,"is_disabled":false,"rental_uris":{"android":"levelo://app?vid=2f5bc015-0a98-4a0d-a50f-f7181e1d6abe","ios":"levelo://app?vid=2f5bc015-0a98-4a0d-a50f-f7181e1d6abe"},"vehicle_type_id":"4","last_reported":1744521402,"current_range_meters":10000,"station_id":"","pricing_plan_id":"cebpf4jnsgd1na2vs0mg"},{"bike_id":"1bdd6146-09e5-4301-9c8a-af9980521802","system_id":"levelo_inurba_marseille","lat":43.28693,"lon":5.40013,"is_reserved":false,"is_disabled":false,"rental_uris":{"android":"levelo://app?vid=1bdd6146-09e5-4301-9c8a-af9980521802","ios":"levelo://app?vid=1bdd6146-09e5-4301-9c8a-af9980521802"},"vehicle_type_id":"4","last_reported":1744521402,"current_range_meters":10000,"station_id":"ce4bho92rcd13ifvqh3g","pricing_plan_id":"cebpf4jnsgd1na2vs0mg"},{"bike_id":"aa46c8dd-2d26-4dad-be13-92c6a7cf7ebb","system_id":"levelo_inurba_marseille","lat":43.31325,"lon":5.39711,"is_reserved":false,"is_disabled":false,"rental_uris":{"android":"levelo://app?vid=aa46c8dd-2d26-4dad-be13-92c6a7cf7ebb","ios":"levelo://app?vid=aa46c8dd-2d26-4dad-be13-92c6a7cf7ebb"},"vehicle_type_id":"4","last_reported":1744521402,"current_range_meters":10000,"station_id":"ce4bgvp2rcd13ifvqcu0","pricing_plan_id":"cebpf4jnsgd1na2vs0mg"},{"bike_id":"c8faf6c6-b40d-4340-aee3-97c6bbe51c16","system_id":"levelo_inurba_marseille","lat":43.31328,"lon":5.39704,"is_reserved":false,"is_disabled":false,"rental_uris":{"android":"levelo://app?vid=c8faf6c6-b40d-4340-aee3-97c6bbe51c16","ios":"levelo://app?vid=c8faf6c6-b40d-4340-aee3-97c6bbe51c16"},"vehicle_type_id":"4","last_reported":1744521402,"current_range_meters":10000,"station_id":"ce4bgvp2rcd13ifvqcu0","pricing_plan_id":"cebpf4jnsgd1na2vs0mg"},{"bike_id":"ee573499-c96a-4c7e-91cf-6b77a256f773","system_id":"levelo_inurba_marseille","lat":43.23188,"lon":5.40002,"is_reserved":false,"is_disabled":false,"rental_uris":{"android":"levelo://app?vid=ee573499-c96a-4c7e-91cf-6b77a256f773","ios":"levelo://app?vid=ee573499-c96a-4c7e-91cf-6b77a256f773"},"vehicle_type_id":"4","last_reported":1744521402,"current_range_meters":10000,"station_id":"ce4bhn12rcd13ifvqgqg","pricing_plan_id":"cebpf4jnsgd1na2vs0mg"},{"bike_id":"546ecda7-c186-4874-8451-fbb98673c2a6","system_id":"levelo_inurba_marseille","lat":43.31325,"lon":5.39719,"is_reserved":false,"is_disabled":false,"rental_uris":{"android":"levelo://app?vid=546ecda7-c186-4874-8451-fbb98673c2a6","ios":"levelo://app?vid=546ecda7-c186-4874-8451-fbb98673c2a6"},"vehicle_type_id":"4","last_reported":1744521402,"current_range_meters":10000,"station_id":"ce4bgvp2rcd13ifvqcu0","pricing_plan_id":"cebpf4jnsgd1na2vs0mg"},{"bike_id":"30cc8b33-f5d2-402b-bc22-73b6e88b3714","system_id":"levelo_inurba_marseille","lat":43.24678,"lon":5.38146,"is_reserved":false,"is_disabled":false,"rental_uris":{"android":"levelo://app?vid=30cc8b33-f5d2-402b-bc22-73b6e88b3714","ios":"levelo://app?vid=30cc8b33-f5d2-402b-bc22-73b6e88b3714"},"vehicle_type_id":"4","last_reported":1744521402,"current_range_meters":10000,"station_id":"ce4bhih2rcd13ifvqfr0","pricing_plan_id":"cebpf4jnsgd1na2vs0mg"},{"bike_id":"0a050c7a-f0f5-47ba-9b87-b807d64924bd","system_id":"levelo_inurba_marseille","lat":43.267997,"lon":5.402649,"is_reserved":false,"is_disabled":false,"rental_uris":{"android":"levelo://app?vid=0a050c7a-f0f5-47ba-9b87-b807d64924bd","ios":"levelo://app?vid=0a050c7a-f0f5-47ba-9b87-b807d64924bd"},"vehicle_type_id":"4","last_reported":1744521402,"current_range_meters":10800,"station_id":"ce501612rcd8frsf0b60","pricing_plan_id":"cebpf4jnsgd1na2vs0mg"},{"bike_id":"76450c2c-888f-4d08-a5c0-d825237615aa","system_id":"levelo_inurba_marseille","lat":43.27091,"lon":5.42283,"is_reserved":false,"is_disabled":false,"rental_uris":{"android":"levelo://app?vid=76450c2c-888f-4d08-a5c0-d825237615aa","ios":"levelo://app?vid=76450c2c-888f-4d08-a5c0-d825237615aa"},"vehicle_type_id":"4","last_reported":1744521402,"current_range_meters":10800,"station_id":"ce4bhk92rcd13ifvqgb0","pricing_plan_id":"cebpf4jnsgd1na2vs0mg"},{"bike_id":"cbe38776-6e0f-4adb-854c-25e7db7e42d0","system_id":"levelo_inurba_marseille","lat":43.24086,"lon":5.37744,"is_reserved":false,"is_disabled":false,"rental_uris":{"android":"levelo://app?vid=cbe38776-6e0f-4adb-854c-25e7db7e42d0","ios":"levelo://app?vid=cbe38776-6e0f-4adb-854c-25e7db7e42d0"},"vehicle_type_id":"4","last_reported":1744521402,"current_range_meters":10800,"station_id":"ce4bhnp2rcd13ifvqgvg","pricing_plan_id":"cebpf4jnsgd1na2vs0mg"},{"bike_id":"f7843f46-58aa-4cf6-a1d0-1b94b16f71c2","system_id":"levelo_inurba_marseille","lat":43.29854,"lon":5.39679,"is_reserved":false,"is_disabled":false,"rental_uris":{"android":"levelo://app?vid=f7843f46-58aa-4cf6-a1d0-1b94b16f71c2","ios":"levelo://app?vid=f7843f46-58aa-4cf6-a1d0-1b94b16f71c2"},"vehicle_type_id":"4","last_reported":1744521402,"current_range_meters":10800,"station_id":"ce4bh0h2rcd13ifvqd50","pricing_plan_id":"cebpf4jnsgd1na2vs0mg"},{"bike_id":"403d6b39-38ec-4f21-9448-40a13fe216ee","system_id":"levelo_inurba_marseille","lat":43.30639,"lon":5.4008,"is_reserved":false,"is_disabled":false,"rental_uris":{"android":"levelo://app?vid=403d6b39-38ec-4f21-9448-40a13fe216ee","ios":"levelo://app?vid=403d6b39-38ec-4f21-9448-40a13fe216ee"},"vehicle_type_id":"4","last_reported":1744521402,"current_range_meters":10800,"station_id":"ce4bh112rcd13ifvqda0","pricing_plan_id":"cebpf4jnsgd1na2vs0mg"},{"bike_id":"6e2ac28e-dfb7-46b8-8016-b7ae92b2a4f0","system_id":"levelo_inurba_marseille","lat":43.27993,"lon":5.40028,"is_reserved":false,"is_disabled":false,"rental_uris":{"android":"levelo://app?vid=6e2ac28e-dfb7-46b8-8016-b7ae92b2a4f0","ios":"levelo://app?vid=6e2ac28e-dfb7-46b8-8016-b7ae92b2a4f0"},"vehicle_type_id":"4","last_reported":1744521402,"current_range_meters":10800,"station_id":"ce4bho92rcd13ifvqh4g","pricing_plan_id":"cebpf4jnsgd1na2vs0mg"},{"bike_id":"5c05218a-2f8c-4ccb-969a-803820ad166e","system_id":"levelo_inurba_marseille","lat":43.31891,"lon":5.40733,"is_reserved":false,"is_disabled":false,"rental_uris":{"android":"levelo://app?vid=5c05218a-2f8c-4ccb-969a-803820ad166e","ios":"levelo://app?vid=5c05218a-2f8c-4ccb-969a-803820ad166e"},"vehicle_type_id":"4","last_reported":1744521402,"current_range_meters":10800,"station_id":"ce4bhq12rcd13ifvqhig","pricing_plan_id":"cebpf4jnsgd1na2vs0mg"},{"bike_id":"b7e965ff-4854-44fc-8e2a-103893462049","system_id":"levelo_inurba_marseille","lat":43.337444,"lon":5.374475,"is_reserved":false,"is_disabled":true,"rental_uris":{"android":"levelo://app?vid=b7e965ff-4854-44fc-8e2a-103893462049","ios":"levelo://app?vid=b7e965ff-4854-44fc-8e2a-103893462049"},"vehicle_type_id":"4","last_reported":1744521402,"current_range_meters":10800,"station_id":"","pricing_plan_id":"cebpf4jnsgd1na2vs0mg"},{"bike_id":"cda90570-b5ec-4b8f-b4f9-2a33fa879c88","system_id":"levelo_inurba_marseille","lat":43.28096,"lon":5.37857,"is_reserved":false,"is_disabled":false,"rental_uris":{"android":"levelo://app?vid=cda90570-b5ec-4b8f-b4f9-2a33fa879c88","ios":"levelo://app?vid=cda90570-b5ec-4b8f-b4f9-2a33fa879c88"},"vehicle_type_id":"4","last_reported":1744521402,"current_range_meters":10800,"station_id":"ce4bha12rcd13ifvqee0","pricing_plan_id":"cebpf4jnsgd1na2vs0mg"},{"bike_id":"59218caf-4d91-41fa-a37e-bf7c3bc19c6a","system_id":"levelo_inurba_marseille","lat":43.286161,"lon":5.351045,"is_reserved":false,"is_disabled":false,"rental_uris":{"android":"levelo://app?vid=59218caf-4d91-41fa-a37e-bf7c3bc19c6a","ios":"levelo://app?vid=59218caf-4d91-41fa-a37e-bf7c3bc19c6a"},"vehicle_type_id":"4","last_reported":1744521402,"current_range_meters":10800,"station_id":"ce4bhch2rcd13ifvqeug","pricing_plan_id":"cebpf4jnsgd1na2vs0mg"},{"bike_id":"442fbf2c-f3a6-457a-b843-29b7f49669c2","system_id":"levelo_inurba_marseille","lat":43.30228,"lon":5.39444,"is_reserved":false,"is_disabled":false,"rental_uris":{"android":"levelo://app?vid=442fbf2c-f3a6-457a-b843-29b7f49669c2","ios":"levelo://app?vid=442fbf2c-f3a6-457a-b843-29b7f49669c2"},"vehicle_type_id":"4","last_reported":1744521402,"current_range_meters":11200,"station_id":"ce4bh0p2rcd13ifvqd70","pricing_plan_id":"cebpf4jnsgd1na2vs0mg"},{"bike_id":"72c6aab6-3a44-430e-a84d-843d2a93e616","system_id":"levelo_inurba_marseille","lat":43.211966,"lon":5.350859,"is_reserved":false,"is_disabled":true,"rental_uris":{"android":"levelo://app?vid=72c6aab6-3a44-430e-a84d-843d2a93e616","ios":"levelo://app?vid=72c6aab6-3a44-430e-a84d-843d2a93e616"},"vehicle_type_id":"4","last_reported":1744521402,"current_range_meters":11200,"station_id":"st_cvj6sg6p6f1abm77japg","pricing_plan_id":"cebpf4jnsgd1na2vs0mg"},{"bike_id":"0c30a5d7-82b9-4bb2-9032-224893c69d2f","system_id":"levelo_inurba_marseille","lat":43.264902,"lon":5.395529,"is_reserved":false,"is_disabled":true,"rental_uris":{"android":"levelo://app?vid=0c30a5d7-82b9-4bb2-9032-224893c69d2f","ios":"levelo://app?vid=0c30a5d7-82b9-4bb2-9032-224893c69d2f"},"vehicle_type_id":"4","last_reported":1744521402,"current_range_meters":11200,"station_id":"ce4bhi12rcd13ifvqfq0","pricing_plan_id":"cebpf4jnsgd1na2vs0mg"},{"bike_id":"e0e59bfb-5088-41a2-835c-398ab715e8d6","system_id":"levelo_inurba_marseille","lat":43.24176,"lon":5.39711,"is_reserved":false,"is_disabled":false,"rental_uris":{"android":"levelo://app?vid=e0e59bfb-5088-41a2-835c-398ab715e8d6","ios":"levelo://app?vid=e0e59bfb-5088-41a2-835c-398ab715e8d6"},"vehicle_type_id":"4","last_reported":1744521402,"current_range_meters":11200,"station_id":"ce4bhn12rcd13ifvqgpg","pricing_plan_id":"cebpf4jnsgd1na2vs0mg"},{"bike_id":"c14a3d0e-03f7-430a-80a8-18644645ea89","system_id":"levelo_inurba_marseille","lat":43.32303,"lon":5.4066,"is_reserved":false,"is_disabled":false,"rental_uris":{"android":"levelo://app?vid=c14a3d0e-03f7-430a-80a8-18644645ea89","ios":"levelo://app?vid=c14a3d0e-03f7-430a-80a8-18644645ea89"},"vehicle_type_id":"4","last_reported":1744521402,"current_range_meters":11200,"station_id":"ce4bhq92rcd13ifvqhjg","pricing_plan_id":"cebpf4jnsgd1na2vs0mg"},{"bike_id":"f7cd819f-b752-47cc-848d-ff43c669ccb8","system_id":"levelo_inurba_marseille","lat":43.30989,"lon":5.41717,"is_reserved":false,"is_disabled":false,"rental_uris":{"android":"levelo://app?vid=f7cd819f-b752-47cc-848d-ff43c669ccb8","ios":"levelo://app?vid=f7cd819f-b752-47cc-848d-ff43c669ccb8"},"vehicle_type_id":"4","last_reported":1744521402,"current_range_meters":11600,"station_id":"","pricing_plan_id":"cebpf4jnsgd1na2vs0mg"},{"bike_id":"e48f952f-c6be-4ef7-9295-13bfba252544","system_id":"levelo_inurba_marseille","lat":43.30914,"lon":5.4016,"is_reserved":false,"is_disabled":false,"rental_uris":{"android":"levelo://app?vid=e48f952f-c6be-4ef7-9295-13bfba252544","ios":"levelo://app?vid=e48f952f-c6be-4ef7-9295-13bfba252544"},"vehicle_type_id":"4","last_reported":1744521402,"current_range_meters":11600,"station_id":"ce4bgvp2rcd13ifvqct0","pricing_plan_id":"cebpf4jnsgd1na2vs0mg"},{"bike_id":"c15ff759-1819-4a33-a3de-763aeacbba51","system_id":"levelo_inurba_marseille","lat":43.28679,"lon":5.38672,"is_reserved":false,"is_disabled":false,"rental_uris":{"android":"levelo://app?vid=c15ff759-1819-4a33-a3de-763aeacbba51","ios":"levelo://app?vid=c15ff759-1819-4a33-a3de-763aeacbba51"},"vehicle_type_id":"4","last_reported":1744521402,"current_range_meters":11600,"station_id":"ce4bh492rcd13ifvqdug","pricing_plan_id":"cebpf4jnsgd1na2vs0mg"},{"bike_id":"91fffdcd-2fa7-4f34-b242-95e7e93ac05b","system_id":"levelo_inurba_marseille","lat":43.26296,"lon":5.39709,"is_reserved":false,"is_disabled":false,"rental_uris":{"android":"levelo://app?vid=91fffdcd-2fa7-4f34-b242-95e7e93ac05b","ios":"levelo://app?vid=91fffdcd-2fa7-4f34-b242-95e7e93ac05b"},"vehicle_type_id":"4","last_reported":1744521402,"current_range_meters":11600,"station_id":"","pricing_plan_id":"cebpf4jnsgd1na2vs0mg"},{"bike_id":"ef01a080-90aa-4c09-bccc-1c0a11ea24f7","system_id":"levelo_inurba_marseille","lat":43.28757,"lon":5.38715,"is_reserved":false,"is_disabled":false,"rental_uris":{"android":"levelo://app?vid=ef01a080-90aa-4c09-bccc-1c0a11ea24f7","ios":"levelo://app?vid=ef01a080-90aa-4c09-bccc-1c0a11ea24f7"},"vehicle_type_id":"4","last_reported":1744521402,"current_range_meters":11600,"station_id":"","pricing_plan_id":"cebpf4jnsgd1na2vs0mg"},{"bike_id":"c4371071-bbc5-4bf8-8198-a0851ff116a0","system_id":"levelo_inurba_marseille","lat":43.30145,"lon":5.38082,"is_reserved":false,"is_disabled":false,"rental_uris":{"android":"levelo://app?vid=c4371071-bbc5-4bf8-8198-a0851ff116a0","ios":"levelo://app?vid=c4371071-bbc5-4bf8-8198-a0851ff116a0"},"vehicle_type_id":"4","last_reported":1744521402,"current_range_meters":11600,"station_id":"ce4bgjp2rcd13ifvqbh0","pricing_plan_id":"cebpf4jnsgd1na2vs0mg"},{"bike_id":"8043ed93-c0e0-4b20-a22a-1ce703744524","system_id":"levelo_inurba_marseille","lat":43.289416,"lon":5.366288,"is_reserved":false,"is_disabled":true,"rental_uris":{"android":"levelo://app?vid=8043ed93-c0e0-4b20-a22a-1ce703744524","ios":"levelo://app?vid=8043ed93-c0e0-4b20-a22a-1ce703744524"},"vehicle_type_id":"4","last_reported":1744521402,"current_range_meters":11600,"station_id":"ce4bhap2rcd13ifvqek0","pricing_plan_id":"cebpf4jnsgd1na2vs0mg"},{"bike_id":"82d38bd3-c046-4f55-aec8-4eb686f05e29","system_id":"levelo_inurba_marseille","lat":43.22926,"lon":5.35375,"is_reserved":false,"is_disabled":true,"rental_uris":{"android":"levelo://app?vid=82d38bd3-c046-4f55-aec8-4eb686f05e29","ios":"levelo://app?vid=82d38bd3-c046-4f55-aec8-4eb686f05e29"},"vehicle_type_id":"4","last_reported":1744521402,"current_range_meters":12000,"station_id":"cpo3532slgdg3j2ikp40","pricing_plan_id":"cebpf4jnsgd1na2vs0mg"},{"bike_id":"c21b93f5-7db2-4b47-9873-cc836a08f1d9","system_id":"levelo_inurba_marseille","lat":43.29453,"lon":5.39749,"is_reserved":false,"is_disabled":false,"rental_uris":{"android":"levelo://app?vid=c21b93f5-7db2-4b47-9873-cc836a08f1d9","ios":"levelo://app?vid=c21b93f5-7db2-4b47-9873-cc836a08f1d9"},"vehicle_type_id":"4","last_reported":1744521402,"current_range_meters":12000,"station_id":"ce4bh3h2rcd13ifvqdo0","pricing_plan_id":"cebpf4jnsgd1na2vs0mg"},{"bike_id":"a6cb932b-facc-44a2-950c-11e335330177","system_id":"levelo_inurba_marseille","lat":43.28865,"lon":5.35833,"is_reserved":false,"is_disabled":false,"rental_uris":{"android":"levelo://app?vid=a6cb932b-facc-44a2-950c-11e335330177","ios":"levelo://app?vid=a6cb932b-facc-44a2-950c-11e335330177"},"vehicle_type_id":"4","last_reported":1744521402,"current_range_meters":12000,"station_id":"ce4bhb12rcd13ifvqem0","pricing_plan_id":"cebpf4jnsgd1na2vs0mg"},{"bike_id":"efd328ca-f8bf-4550-bd94-c2fd75978f3c","system_id":"levelo_inurba_marseille","lat":43.330473,"lon":5.380964,"is_reserved":false,"is_disabled":false,"rental_uris":{"android":"levelo://app?vid=efd328ca-f8bf-4550-bd94-c2fd75978f3c","ios":"levelo://app?vid=efd328ca-f8bf-4550-bd94-c2fd75978f3c"},"vehicle_type_id":"4","last_reported":1744521402,"current_range_meters":12000,"station_id":"","pricing_plan_id":"cebpf4jnsgd1na2vs0mg"},{"bike_id":"12aec038-db5e-4d5d-a5cf-e01dc2e28ea3","system_id":"levelo_inurba_marseille","lat":43.30126,"lon":5.404936,"is_reserved":false,"is_disabled":true,"rental_uris":{"android":"levelo://app?vid=12aec038-db5e-4d5d-a5cf-e01dc2e28ea3","ios":"levelo://app?vid=12aec038-db5e-4d5d-a5cf-e01dc2e28ea3"},"vehicle_type_id":"4","last_reported":1744521402,"current_range_meters":12400,"station_id":"","pricing_plan_id":"cebpf4jnsgd1na2vs0mg"},{"bike_id":"1d910f93-6dca-478d-80e0-b681968a015a","system_id":"levelo_inurba_marseille","lat":43.29787,"lon":5.37098,"is_reserved":false,"is_disabled":false,"rental_uris":{"android":"levelo://app?vid=1d910f93-6dca-478d-80e0-b681968a015a","ios":"levelo://app?vid=1d910f93-6dca-478d-80e0-b681968a015a"},"vehicle_type_id":"4","last_reported":1744521402,"current_range_meters":12400,"station_id":"ce4bgop2rcd13ifvqc1g","pricing_plan_id":"cebpf4jnsgd1na2vs0mg"},{"bike_id":"72a4d93c-f012-445d-83a5-1a7425018479","system_id":"levelo_inurba_marseille","lat":43.29059,"lon":5.37564,"is_reserved":false,"is_disabled":false,"rental_uris":{"android":"levelo://app?vid=72a4d93c-f012-445d-83a5-1a7425018479","ios":"levelo://app?vid=72a4d93c-f012-445d-83a5-1a7425018479"},"vehicle_type_id":"4","last_reported":1744521402,"current_range_meters":12400,"station_id":"ce4bh692rcd13ifvqe90","pricing_plan_id":"cebpf4jnsgd1na2vs0mg"},{"bike_id":"85a034f1-4919-4cfd-9a9b-bbc474b1bf80","system_id":"levelo_inurba_marseille","lat":43.31538,"lon":5.38028,"is_reserved":false,"is_disabled":false,"rental_uris":{"android":"levelo://app?vid=85a034f1-4919-4cfd-9a9b-bbc474b1bf80","ios":"levelo://app?vid=85a034f1-4919-4cfd-9a9b-bbc474b1bf80"},"vehicle_type_id":"4","last_reported":1744521402,"current_range_meters":12400,"station_id":"ce4bhsp2rcd13ifvqi50","pricing_plan_id":"cebpf4jnsgd1na2vs0mg"},{"bike_id":"f956cf72-92c6-4d9b-b65e-7e64c9a3e7e9","system_id":"levelo_inurba_marseille","lat":43.28854,"lon":5.35825,"is_reserved":false,"is_disabled":false,"rental_uris":{"android":"levelo://app?vid=f956cf72-92c6-4d9b-b65e-7e64c9a3e7e9","ios":"levelo://app?vid=f956cf72-92c6-4d9b-b65e-7e64c9a3e7e9"},"vehicle_type_id":"4","last_reported":1744521402,"current_range_meters":12400,"station_id":"ce4bhb12rcd13ifvqem0","pricing_plan_id":"cebpf4jnsgd1na2vs0mg"},{"bike_id":"020e9999-d552-48d0-ae5f-b725af0dbea2","system_id":"levelo_inurba_marseille","lat":43.29905,"lon":5.43761,"is_reserved":false,"is_disabled":false,"rental_uris":{"android":"levelo://app?vid=020e9999-d552-48d0-ae5f-b725af0dbea2","ios":"levelo://app?vid=020e9999-d552-48d0-ae5f-b725af0dbea2"},"vehicle_type_id":"4","last_reported":1744521402,"current_range_meters":12400,"station_id":"","pricing_plan_id":"cebpf4jnsgd1na2vs0mg"},{"bike_id":"a3bf51d9-08b7-458c-9b6d-ef5680cc95d6","system_id":"levelo_inurba_marseille","lat":43.21747,"lon":5.34614,"is_reserved":false,"is_disabled":true,"rental_uris":{"android":"levelo://app?vid=a3bf51d9-08b7-458c-9b6d-ef5680cc95d6","ios":"levelo://app?vid=a3bf51d9-08b7-458c-9b6d-ef5680cc95d6"},"vehicle_type_id":"4","last_reported":1744521402,"current_range_meters":12400,"station_id":"cpo36qri1sfpv3e86is0","pricing_plan_id":"cebpf4jnsgd1na2vs0mg"},{"bike_id":"483b67b3-2349-4ecc-9d01-9917825b7826","system_id":"levelo_inurba_marseille","lat":43.31033,"lon":5.38372,"is_reserved":false,"is_disabled":false,"rental_uris":{"android":"levelo://app?vid=483b67b3-2349-4ecc-9d01-9917825b7826","ios":"levelo://app?vid=483b67b3-2349-4ecc-9d01-9917825b7826"},"vehicle_type_id":"4","last_reported":1744521402,"current_range_meters":12800,"station_id":"","pricing_plan_id":"cebpf4jnsgd1na2vs0mg"},{"bike_id":"57f149fb-9c06-4f0d-a2af-6659b7a5e97d","system_id":"levelo_inurba_marseille","lat":43.286765,"lon":5.386668,"is_reserved":false,"is_disabled":false,"rental_uris":{"android":"levelo://app?vid=57f149fb-9c06-4f0d-a2af-6659b7a5e97d","ios":"levelo://app?vid=57f149fb-9c06-4f0d-a2af-6659b7a5e97d"},"vehicle_type_id":"4","last_reported":1744521402,"current_range_meters":12800,"station_id":"ce4bh492rcd13ifvqdug","pricing_plan_id":"cebpf4jnsgd1na2vs0mg"},{"bike_id":"5bd83869-317c-4f7d-93ed-182a084c5a24","system_id":"levelo_inurba_marseille","lat":43.257088,"lon":5.411115,"is_reserved":false,"is_disabled":false,"rental_uris":{"android":"levelo://app?vid=5bd83869-317c-4f7d-93ed-182a084c5a24","ios":"levelo://app?vid=5bd83869-317c-4f7d-93ed-182a084c5a24"},"vehicle_type_id":"4","last_reported":1744521402,"current_range_meters":12800,"station_id":"ce4bhkp2rcd13ifvqgd0","pricing_plan_id":"cebpf4jnsgd1na2vs0mg"},{"bike_id":"b55dd5e7-54b2-4035-b945-7b626dd7afc7","system_id":"levelo_inurba_marseille","lat":43.275451,"lon":5.409221,"is_reserved":false,"is_disabled":false,"rental_uris":{"android":"levelo://app?vid=b55dd5e7-54b2-4035-b945-7b626dd7afc7","ios":"levelo://app?vid=b55dd5e7-54b2-4035-b945-7b626dd7afc7"},"vehicle_type_id":"4","last_reported":1744521402,"current_range_meters":12800,"station_id":"","pricing_plan_id":"cebpf4jnsgd1na2vs0mg"},{"bike_id":"a36fba11-20ad-413d-8be0-ed958819c22b","system_id":"levelo_inurba_marseille","lat":43.299364,"lon":5.365467,"is_reserved":false,"is_disabled":false,"rental_uris":{"android":"levelo://app?vid=a36fba11-20ad-413d-8be0-ed958819c22b","ios":"levelo://app?vid=a36fba11-20ad-413d-8be0-ed958819c22b"},"vehicle_type_id":"4","last_reported":1744521402,"current_range_meters":12800,"station_id":"ce4bgm92rcd13ifvqbr0","pricing_plan_id":"cebpf4jnsgd1na2vs0mg"},{"bike_id":"ec5529ba-a86c-439a-9c90-c79bfd022883","system_id":"levelo_inurba_marseille","lat":43.265628,"lon":5.390136,"is_reserved":false,"is_disabled":false,"rental_uris":{"android":"levelo://app?vid=ec5529ba-a86c-439a-9c90-c79bfd022883","ios":"levelo://app?vid=ec5529ba-a86c-439a-9c90-c79bfd022883"},"vehicle_type_id":"4","last_reported":1744521402,"current_range_meters":12800,"station_id":"ce4bhe12rcd13ifvqf30","pricing_plan_id":"cebpf4jnsgd1na2vs0mg"},{"bike_id":"9a0d9cbe-ea14-431f-87f9-873d77646662","system_id":"levelo_inurba_marseille","lat":43.28352,"lon":5.38104,"is_reserved":false,"is_disabled":false,"rental_uris":{"android":"levelo://app?vid=9a0d9cbe-ea14-431f-87f9-873d77646662","ios":"levelo://app?vid=9a0d9cbe-ea14-431f-87f9-873d77646662"},"vehicle_type_id":"4","last_reported":1744521402,"current_range_meters":12400,"station_id":"ce4bh412rcd13ifvqdr0","pricing_plan_id":"cebpf4jnsgd1na2vs0mg"},{"bike_id":"73bbc97d-2b39-4276-bc22-fd7aa78f429c","system_id":"levelo_inurba_marseille","lat":43.29895,"lon":5.43666,"is_reserved":false,"is_disabled":false,"rental_uris":{"android":"levelo://app?vid=73bbc97d-2b39-4276-bc22-fd7aa78f429c","ios":"levelo://app?vid=73bbc97d-2b39-4276-bc22-fd7aa78f429c"},"vehicle_type_id":"4","last_reported":1744521402,"current_range_meters":12800,"station_id":"ce4bhpp2rcd13ifvqhfg","pricing_plan_id":"cebpf4jnsgd1na2vs0mg"},{"bike_id":"4f5a0574-74f4-44a8-8b06-73b9cc174e9b","system_id":"levelo_inurba_marseille","lat":43.31269,"lon":5.40176,"is_reserved":false,"is_disabled":false,"rental_uris":{"android":"levelo://app?vid=4f5a0574-74f4-44a8-8b06-73b9cc174e9b","ios":"levelo://app?vid=4f5a0574-74f4-44a8-8b06-73b9cc174e9b"},"vehicle_type_id":"4","last_reported":1744521402,"current_range_meters":12800,"station_id":"ce4bh092rcd13ifvqd30","pricing_plan_id":"cebpf4jnsgd1na2vs0mg"},{"bike_id":"842a045e-d76e-4848-9012-06306e419477","system_id":"levelo_inurba_marseille","lat":43.28457,"lon":5.35885,"is_reserved":false,"is_disabled":false,"rental_uris":{"android":"levelo://app?vid=842a045e-d76e-4848-9012-06306e419477","ios":"levelo://app?vid=842a045e-d76e-4848-9012-06306e419477"},"vehicle_type_id":"4","last_reported":1744521402,"current_range_meters":12800,"station_id":"ce4bhah2rcd13ifvqei0","pricing_plan_id":"cebpf4jnsgd1na2vs0mg"},{"bike_id":"f13008ea-ab13-4653-ac57-bdcb476d63fd","system_id":"levelo_inurba_marseille","lat":43.28267,"lon":5.35059,"is_reserved":false,"is_disabled":false,"rental_uris":{"android":"levelo://app?vid=f13008ea-ab13-4653-ac57-bdcb476d63fd","ios":"levelo://app?vid=f13008ea-ab13-4653-ac57-bdcb476d63fd"},"vehicle_type_id":"4","last_reported":1744521402,"current_range_meters":12800,"station_id":"ce4bhbp2rcd13ifvqerg","pricing_plan_id":"cebpf4jnsgd1na2vs0mg"},{"bike_id":"3805593d-5e19-4d67-9574-2a4e4b5f875d","system_id":"levelo_inurba_marseille","lat":43.289453,"lon":5.36633,"is_reserved":false,"is_disabled":false,"rental_uris":{"android":"levelo://app?vid=3805593d-5e19-4d67-9574-2a4e4b5f875d","ios":"levelo://app?vid=3805593d-5e19-4d67-9574-2a4e4b5f875d"},"vehicle_type_id":"4","last_reported":1744521402,"current_range_meters":12800,"station_id":"ce4bhap2rcd13ifvqek0","pricing_plan_id":"cebpf4jnsgd1na2vs0mg"},{"bike_id":"4bbe6e48-9bfa-4dec-aab0-5597477f7da1","system_id":"levelo_inurba_marseille","lat":43.32412,"lon":5.39141,"is_reserved":false,"is_disabled":false,"rental_uris":{"android":"levelo://app?vid=4bbe6e48-9bfa-4dec-aab0-5597477f7da1","ios":"levelo://app?vid=4bbe6e48-9bfa-4dec-aab0-5597477f7da1"},"vehicle_type_id":"4","last_reported":1744521402,"current_range_meters":12800,"station_id":"","pricing_plan_id":"cebpf4jnsgd1na2vs0mg"},{"bike_id":"c5de9f04-a68c-4314-9995-789e3d717983","system_id":"levelo_inurba_marseille","lat":43.24369,"lon":5.3709,"is_reserved":false,"is_disabled":true,"rental_uris":{"android":"levelo://app?vid=c5de9f04-a68c-4314-9995-789e3d717983","ios":"levelo://app?vid=c5de9f04-a68c-4314-9995-789e3d717983"},"vehicle_type_id":"4","last_reported":1744521402,"current_range_meters":13600,"station_id":"ce4bhhh2rcd13ifvqfk0","pricing_plan_id":"cebpf4jnsgd1na2vs0mg"},{"bike_id":"982bb1bc-457f-43d7-ae21-85035c856353","system_id":"levelo_inurba_marseille","lat":43.2251,"lon":5.34784,"is_reserved":false,"is_disabled":false,"rental_uris":{"android":"levelo://app?vid=982bb1bc-457f-43d7-ae21-85035c856353","ios":"levelo://app?vid=982bb1bc-457f-43d7-ae21-85035c856353"},"vehicle_type_id":"4","last_reported":1744521402,"current_range_meters":13600,"station_id":"st_cvj5dfep6f1abm77gieg","pricing_plan_id":"cebpf4jnsgd1na2vs0mg"},{"bike_id":"c70dc66c-d4a1-4e50-81d7-22e212eff3e3","system_id":"levelo_inurba_marseille","lat":43.24671,"lon":5.38158,"is_reserved":false,"is_disabled":false,"rental_uris":{"android":"levelo://app?vid=c70dc66c-d4a1-4e50-81d7-22e212eff3e3","ios":"levelo://app?vid=c70dc66c-d4a1-4e50-81d7-22e212eff3e3"},"vehicle_type_id":"4","last_reported":1744521402,"current_range_meters":14000,"station_id":"ce4bhih2rcd13ifvqfr0","pricing_plan_id":"cebpf4jnsgd1na2vs0mg"},{"bike_id":"4b8bb165-0ef0-477e-af71-371fdb07565c","system_id":"levelo_inurba_marseille","lat":43.30784,"lon":5.37651,"is_reserved":false,"is_disabled":false,"rental_uris":{"android":"levelo://app?vid=4b8bb165-0ef0-477e-af71-371fdb07565c","ios":"levelo://app?vid=4b8bb165-0ef0-477e-af71-371fdb07565c"},"vehicle_type_id":"4","last_reported":1744521402,"current_range_meters":14000,"station_id":"ce4bgv92rcd13ifvqcq0","pricing_plan_id":"cebpf4jnsgd1na2vs0mg"},{"bike_id":"d8b9884b-4022-4710-9f87-50e0dbfd421d","system_id":"levelo_inurba_marseille","lat":43.24159,"lon":5.36405,"is_reserved":false,"is_disabled":false,"rental_uris":{"android":"levelo://app?vid=d8b9884b-4022-4710-9f87-50e0dbfd421d","ios":"levelo://app?vid=d8b9884b-4022-4710-9f87-50e0dbfd421d"},"vehicle_type_id":"4","last_reported":1744521402,"current_range_meters":14000,"station_id":"cpo36qri1sfpv3e86is0","pricing_plan_id":"cebpf4jnsgd1na2vs0mg"},{"bike_id":"0ec2ec42-7e77-461a-9cca-c87111e6f33f","system_id":"levelo_inurba_marseille","lat":43.28481,"lon":5.38575,"is_reserved":false,"is_disabled":false,"rental_uris":{"android":"levelo://app?vid=0ec2ec42-7e77-461a-9cca-c87111e6f33f","ios":"levelo://app?vid=0ec2ec42-7e77-461a-9cca-c87111e6f33f"},"vehicle_type_id":"4","last_reported":1744521402,"current_range_meters":14000,"station_id":"ce4bh8p2rcd13ifvqeb0","pricing_plan_id":"cebpf4jnsgd1na2vs0mg"},{"bike_id":"d49ed5f3-63dd-41d8-a7c3-7b7860b035b1","system_id":"levelo_inurba_marseille","lat":43.2478,"lon":5.37495,"is_reserved":false,"is_disabled":true,"rental_uris":{"android":"levelo://app?vid=d49ed5f3-63dd-41d8-a7c3-7b7860b035b1","ios":"levelo://app?vid=d49ed5f3-63dd-41d8-a7c3-7b7860b035b1"},"vehicle_type_id":"4","last_reported":1744521402,"current_range_meters":14000,"station_id":"ce4bhgh2rcd13ifvqfb0","pricing_plan_id":"cebpf4jnsgd1na2vs0mg"},{"bike_id":"5591936e-ca63-41c7-89f3-9c9493c86f89","system_id":"levelo_inurba_marseille","lat":43.24172,"lon":5.36402,"is_reserved":false,"is_disabled":false,"rental_uris":{"android":"levelo://app?vid=5591936e-ca63-41c7-89f3-9c9493c86f89","ios":"levelo://app?vid=5591936e-ca63-41c7-89f3-9c9493c86f89"},"vehicle_type_id":"4","last_reported":1744521402,"current_range_meters":14000,"station_id":"cpo36qri1sfpv3e86is0","pricing_plan_id":"cebpf4jnsgd1na2vs0mg"},{"bike_id":"1578cdda-fa32-4486-ac62-617f457b0927","system_id":"levelo_inurba_marseille","lat":43.29013,"lon":5.3562,"is_reserved":false,"is_disabled":true,"rental_uris":{"android":"levelo://app?vid=1578cdda-fa32-4486-ac62-617f457b0927","ios":"levelo://app?vid=1578cdda-fa32-4486-ac62-617f457b0927"},"vehicle_type_id":"4","last_reported":1744521402,"current_range_meters":14400,"station_id":"ce4bhb92rcd13ifvqen0","pricing_plan_id":"cebpf4jnsgd1na2vs0mg"},{"bike_id":"670350e7-8b16-4095-8222-1a9ab089eb5a","system_id":"levelo_inurba_marseille","lat":43.27944,"lon":5.41038,"is_reserved":false,"is_disabled":false,"rental_uris":{"android":"levelo://app?vid=670350e7-8b16-4095-8222-1a9ab089eb5a","ios":"levelo://app?vid=670350e7-8b16-4095-8222-1a9ab089eb5a"},"vehicle_type_id":"4","last_reported":1744521402,"current_range_meters":14400,"station_id":"ce4bhnp2rcd13ifvqh0g","pricing_plan_id":"cebpf4jnsgd1na2vs0mg"},{"bike_id":"fd75c133-cf0e-4963-8858-2579ab11cf51","system_id":"levelo_inurba_marseille","lat":43.30774,"lon":5.37674,"is_reserved":false,"is_disabled":false,"rental_uris":{"android":"levelo://app?vid=fd75c133-cf0e-4963-8858-2579ab11cf51","ios":"levelo://app?vid=fd75c133-cf0e-4963-8858-2579ab11cf51"},"vehicle_type_id":"4","last_reported":1744521402,"current_range_meters":14400,"station_id":"ce4bgv92rcd13ifvqcq0","pricing_plan_id":"cebpf4jnsgd1na2vs0mg"},{"bike_id":"2fc88268-9338-4674-a8f4-36dfb8363ca0","system_id":"levelo_inurba_marseille","lat":43.21202,"lon":5.3509,"is_reserved":false,"is_disabled":true,"rental_uris":{"android":"levelo://app?vid=2fc88268-9338-4674-a8f4-36dfb8363ca0","ios":"levelo://app?vid=2fc88268-9338-4674-a8f4-36dfb8363ca0"},"vehicle_type_id":"4","last_reported":1744521402,"current_range_meters":14400,"station_id":"st_cvj6sg6p6f1abm77japg","pricing_plan_id":"cebpf4jnsgd1na2vs0mg"},{"bike_id":"c5668a5c-eabb-4363-a042-b20f82d9a571","system_id":"levelo_inurba_marseille","lat":43.260613,"lon":5.393887,"is_reserved":false,"is_disabled":false,"rental_uris":{"android":"levelo://app?vid=c5668a5c-eabb-4363-a042-b20f82d9a571","ios":"levelo://app?vid=c5668a5c-eabb-4363-a042-b20f82d9a571"},"vehicle_type_id":"4","last_reported":1744521402,"current_range_meters":14400,"station_id":"ce4bhh92rcd13ifvqfj0","pricing_plan_id":"cebpf4jnsgd1na2vs0mg"},{"bike_id":"eeecd2fe-6254-4002-abf4-dbb4c5b284dc","system_id":"levelo_inurba_marseille","lat":43.28,"lon":5.41657,"is_reserved":false,"is_disabled":true,"rental_uris":{"android":"levelo://app?vid=eeecd2fe-6254-4002-abf4-dbb4c5b284dc","ios":"levelo://app?vid=eeecd2fe-6254-4002-abf4-dbb4c5b284dc"},"vehicle_type_id":"4","last_reported":1744521402,"current_range_meters":14800,"station_id":"ce4bho12rcd13ifvqh1g","pricing_plan_id":"cebpf4jnsgd1na2vs0mg"},{"bike_id":"4d874086-2615-45ee-92bb-518b7ad00a4d","system_id":"levelo_inurba_marseille","lat":43.30956,"lon":5.39034,"is_reserved":false,"is_disabled":true,"rental_uris":{"android":"levelo://app?vid=4d874086-2615-45ee-92bb-518b7ad00a4d","ios":"levelo://app?vid=4d874086-2615-45ee-92bb-518b7ad00a4d"},"vehicle_type_id":"4","last_reported":1744521402,"current_range_meters":14800,"station_id":"ce4bgup2rcd13ifvqco0","pricing_plan_id":"cebpf4jnsgd1na2vs0mg"},{"bike_id":"3507dfca-319b-4174-9d98-ddf67a8f0f8e","system_id":"levelo_inurba_marseille","lat":43.29713,"lon":5.3658,"is_reserved":false,"is_disabled":false,"rental_uris":{"android":"levelo://app?vid=3507dfca-319b-4174-9d98-ddf67a8f0f8e","ios":"levelo://app?vid=3507dfca-319b-4174-9d98-ddf67a8f0f8e"},"vehicle_type_id":"4","last_reported":1744521402,"current_range_meters":14800,"station_id":"ce4bgn12rcd13ifvqbt0","pricing_plan_id":"cebpf4jnsgd1na2vs0mg"},{"bike_id":"063db7c9-946a-411d-a19c-5702c3d7f60a","system_id":"levelo_inurba_marseille","lat":43.30519,"lon":5.37202,"is_reserved":false,"is_disabled":false,"rental_uris":{"android":"levelo://app?vid=063db7c9-946a-411d-a19c-5702c3d7f60a","ios":"levelo://app?vid=063db7c9-946a-411d-a19c-5702c3d7f60a"},"vehicle_type_id":"4","last_reported":1744521402,"current_range_meters":14800,"station_id":"","pricing_plan_id":"cebpf4jnsgd1na2vs0mg"},{"bike_id":"7f1c93b4-1199-42b7-a11c-172539cb838c","system_id":"levelo_inurba_marseille","lat":43.2871,"lon":5.39979,"is_reserved":false,"is_disabled":false,"rental_uris":{"android":"levelo://app?vid=7f1c93b4-1199-42b7-a11c-172539cb838c","ios":"levelo://app?vid=7f1c93b4-1199-42b7-a11c-172539cb838c"},"vehicle_type_id":"4","last_reported":1744521402,"current_range_meters":14800,"station_id":"ce4bho92rcd13ifvqh3g","pricing_plan_id":"cebpf4jnsgd1na2vs0mg"},{"bike_id":"3d925dcc-cdfc-409e-8643-8ee56b7ed51b","system_id":"levelo_inurba_marseille","lat":43.315,"lon":5.37305,"is_reserved":false,"is_disabled":false,"rental_uris":{"android":"levelo://app?vid=3d925dcc-cdfc-409e-8643-8ee56b7ed51b","ios":"levelo://app?vid=3d925dcc-cdfc-409e-8643-8ee56b7ed51b"},"vehicle_type_id":"4","last_reported":1744521402,"current_range_meters":14800,"station_id":"ce4bgt12rcd13ifvqcd0","pricing_plan_id":"cebpf4jnsgd1na2vs0mg"},{"bike_id":"736d31f6-1b30-4e99-8fb9-69503962de26","system_id":"levelo_inurba_marseille","lat":43.29247,"lon":5.40886,"is_reserved":false,"is_disabled":false,"rental_uris":{"android":"levelo://app?vid=736d31f6-1b30-4e99-8fb9-69503962de26","ios":"levelo://app?vid=736d31f6-1b30-4e99-8fb9-69503962de26"},"vehicle_type_id":"4","last_reported":1744521402,"current_range_meters":14800,"station_id":"ce4bh192rcd13ifvqdc0","pricing_plan_id":"cebpf4jnsgd1na2vs0mg"},{"bike_id":"239b457a-7da8-49b2-9197-3c47133b2b7d","system_id":"levelo_inurba_marseille","lat":43.2916,"lon":5.40023,"is_reserved":false,"is_disabled":true,"rental_uris":{"android":"levelo://app?vid=239b457a-7da8-49b2-9197-3c47133b2b7d","ios":"levelo://app?vid=239b457a-7da8-49b2-9197-3c47133b2b7d"},"vehicle_type_id":"4","last_reported":1744521402,"current_range_meters":14800,"station_id":"","pricing_plan_id":"cebpf4jnsgd1na2vs0mg"},{"bike_id":"e09b0a72-9049-4f0a-8c1e-9c77d8777c41","system_id":"levelo_inurba_marseille","lat":43.28464,"lon":5.35897,"is_reserved":false,"is_disabled":false,"rental_uris":{"android":"levelo://app?vid=e09b0a72-9049-4f0a-8c1e-9c77d8777c41","ios":"levelo://app?vid=e09b0a72-9049-4f0a-8c1e-9c77d8777c41"},"vehicle_type_id":"4","last_reported":1744521402,"current_range_meters":15200,"station_id":"ce4bhah2rcd13ifvqei0","pricing_plan_id":"cebpf4jnsgd1na2vs0mg"},{"bike_id":"51ca3998-1d52-48da-b48d-af2858da5929","system_id":"levelo_inurba_marseille","lat":43.31475,"lon":5.37313,"is_reserved":false,"is_disabled":false,"rental_uris":{"android":"levelo://app?vid=51ca3998-1d52-48da-b48d-af2858da5929","ios":"levelo://app?vid=51ca3998-1d52-48da-b48d-af2858da5929"},"vehicle_type_id":"4","last_reported":1744521402,"current_range_meters":15200,"station_id":"ce4bgt12rcd13ifvqcd0","pricing_plan_id":"cebpf4jnsgd1na2vs0mg"},{"bike_id":"cd7c12c6-b731-48e8-a4f0-3a8fe905f322","system_id":"levelo_inurba_marseille","lat":43.31168,"lon":5.38727,"is_reserved":false,"is_disabled":false,"rental_uris":{"android":"levelo://app?vid=cd7c12c6-b731-48e8-a4f0-3a8fe905f322","ios":"levelo://app?vid=cd7c12c6-b731-48e8-a4f0-3a8fe905f322"},"vehicle_type_id":"4","last_reported":1744521402,"current_range_meters":15200,"station_id":"ce4bgv12rcd13ifvqcp0","pricing_plan_id":"cebpf4jnsgd1na2vs0mg"},{"bike_id":"94c5bfb1-356f-45dd-b1e3-92e67beafaf7","system_id":"levelo_inurba_marseille","lat":43.31507,"lon":5.37258,"is_reserved":false,"is_disabled":false,"rental_uris":{"android":"levelo://app?vid=94c5bfb1-356f-45dd-b1e3-92e67beafaf7","ios":"levelo://app?vid=94c5bfb1-356f-45dd-b1e3-92e67beafaf7"},"vehicle_type_id":"4","last_reported":1744521402,"current_range_meters":15200,"station_id":"","pricing_plan_id":"cebpf4jnsgd1na2vs0mg"},{"bike_id":"2625f396-ea8c-4723-9962-19369033d7c8","system_id":"levelo_inurba_marseille","lat":43.32334,"lon":5.40617,"is_reserved":false,"is_disabled":false,"rental_uris":{"android":"levelo://app?vid=2625f396-ea8c-4723-9962-19369033d7c8","ios":"levelo://app?vid=2625f396-ea8c-4723-9962-19369033d7c8"},"vehicle_type_id":"4","last_reported":1744521402,"current_range_meters":15200,"station_id":"ce4bhq92rcd13ifvqhjg","pricing_plan_id":"cebpf4jnsgd1na2vs0mg"},{"bike_id":"dfc9e656-e97d-46bc-9820-7a44b27d20e8","system_id":"levelo_inurba_marseille","lat":43.28699,"lon":5.39982,"is_reserved":false,"is_disabled":false,"rental_uris":{"android":"levelo://app?vid=dfc9e656-e97d-46bc-9820-7a44b27d20e8","ios":"levelo://app?vid=dfc9e656-e97d-46bc-9820-7a44b27d20e8"},"vehicle_type_id":"4","last_reported":1744521402,"current_range_meters":15200,"station_id":"ce4bho92rcd13ifvqh3g","pricing_plan_id":"cebpf4jnsgd1na2vs0mg"},{"bike_id":"54f95021-ece3-4c1e-a98d-33e005a5619a","system_id":"levelo_inurba_marseille","lat":43.21188,"lon":5.35095,"is_reserved":false,"is_disabled":false,"rental_uris":{"android":"levelo://app?vid=54f95021-ece3-4c1e-a98d-33e005a5619a","ios":"levelo://app?vid=54f95021-ece3-4c1e-a98d-33e005a5619a"},"vehicle_type_id":"4","last_reported":1744521402,"current_range_meters":16000,"station_id":"st_cvj6sg6p6f1abm77japg","pricing_plan_id":"cebpf4jnsgd1na2vs0mg"},{"bike_id":"6a003e47-a1cc-4c38-b762-6e37af426d05","system_id":"levelo_inurba_marseille","lat":43.32369,"lon":5.36723,"is_reserved":false,"is_disabled":false,"rental_uris":{"android":"levelo://app?vid=6a003e47-a1cc-4c38-b762-6e37af426d05","ios":"levelo://app?vid=6a003e47-a1cc-4c38-b762-6e37af426d05"},"vehicle_type_id":"4","last_reported":1744521402,"current_range_meters":16000,"station_id":"ce4bhsh2rcd13ifvqi2g","pricing_plan_id":"cebpf4jnsgd1na2vs0mg"},{"bike_id":"fbcffd98-9af3-437e-a238-670cf1dcb555","system_id":"levelo_inurba_marseille","lat":43.28912,"lon":5.36677,"is_reserved":false,"is_disabled":true,"rental_uris":{"android":"levelo://app?vid=fbcffd98-9af3-437e-a238-670cf1dcb555","ios":"levelo://app?vid=fbcffd98-9af3-437e-a238-670cf1dcb555"},"vehicle_type_id":"4","last_reported":1744521402,"current_range_meters":16000,"station_id":"ce4bhap2rcd13ifvqek0","pricing_plan_id":"cebpf4jnsgd1na2vs0mg"},{"bike_id":"e5773f43-8f28-4d81-b94d-55ad617eff4c","system_id":"levelo_inurba_marseille","lat":43.29167,"lon":5.39983,"is_reserved":false,"is_disabled":false,"rental_uris":{"android":"levelo://app?vid=e5773f43-8f28-4d81-b94d-55ad617eff4c","ios":"levelo://app?vid=e5773f43-8f28-4d81-b94d-55ad617eff4c"},"vehicle_type_id":"4","last_reported":1744521402,"current_range_meters":16000,"station_id":"","pricing_plan_id":"cebpf4jnsgd1na2vs0mg"},{"bike_id":"211eb830-0957-42fb-82e1-b26412a4110a","system_id":"levelo_inurba_marseille","lat":43.30309,"lon":5.36869,"is_reserved":false,"is_disabled":false,"rental_uris":{"android":"levelo://app?vid=211eb830-0957-42fb-82e1-b26412a4110a","ios":"levelo://app?vid=211eb830-0957-42fb-82e1-b26412a4110a"},"vehicle_type_id":"4","last_reported":1744521402,"current_range_meters":16000,"station_id":"ce4bgqh2rcd13ifvqc5g","pricing_plan_id":"cebpf4jnsgd1na2vs0mg"},{"bike_id":"cbf1d9ff-dd14-41f2-b689-3d7c6629e681","system_id":"levelo_inurba_marseille","lat":43.31518,"lon":5.38046,"is_reserved":false,"is_disabled":false,"rental_uris":{"android":"levelo://app?vid=cbf1d9ff-dd14-41f2-b689-3d7c6629e681","ios":"levelo://app?vid=cbf1d9ff-dd14-41f2-b689-3d7c6629e681"},"vehicle_type_id":"4","last_reported":1744521402,"current_range_meters":16000,"station_id":"ce4bhsp2rcd13ifvqi50","pricing_plan_id":"cebpf4jnsgd1na2vs0mg"},{"bike_id":"d9214e74-30ad-45b9-bf16-f3f0709b1cbf","system_id":"levelo_inurba_marseille","lat":43.23201,"lon":5.35571,"is_reserved":false,"is_disabled":false,"rental_uris":{"android":"levelo://app?vid=d9214e74-30ad-45b9-bf16-f3f0709b1cbf","ios":"levelo://app?vid=d9214e74-30ad-45b9-bf16-f3f0709b1cbf"},"vehicle_type_id":"4","last_reported":1744521402,"current_range_meters":16400,"station_id":"ce4bhu92rcd13ifvqi70","pricing_plan_id":"cebpf4jnsgd1na2vs0mg"},{"bike_id":"59790fdf-1ea1-455c-92c2-962c077501dc","system_id":"levelo_inurba_marseille","lat":43.24158,"lon":5.3972,"is_reserved":false,"is_disabled":false,"rental_uris":{"android":"levelo://app?vid=59790fdf-1ea1-455c-92c2-962c077501dc","ios":"levelo://app?vid=59790fdf-1ea1-455c-92c2-962c077501dc"},"vehicle_type_id":"4","last_reported":1744521402,"current_range_meters":16400,"station_id":"ce4bhn12rcd13ifvqgpg","pricing_plan_id":"cebpf4jnsgd1na2vs0mg"},{"bike_id":"fe3ac574-7289-40f7-b570-48ee67778735","system_id":"levelo_inurba_marseille","lat":43.28073,"lon":5.39659,"is_reserved":false,"is_disabled":false,"rental_uris":{"android":"levelo://app?vid=fe3ac574-7289-40f7-b570-48ee67778735","ios":"levelo://app?vid=fe3ac574-7289-40f7-b570-48ee67778735"},"vehicle_type_id":"4","last_reported":1744521402,"current_range_meters":16400,"station_id":"ce4bho12rcd13ifvqh2g","pricing_plan_id":"cebpf4jnsgd1na2vs0mg"},{"bike_id":"a3dabeac-c119-4e34-83cf-5de52a4ce63d","system_id":"levelo_inurba_marseille","lat":43.28474,"lon":5.35889,"is_reserved":false,"is_disabled":false,"rental_uris":{"android":"levelo://app?vid=a3dabeac-c119-4e34-83cf-5de52a4ce63d","ios":"levelo://app?vid=a3dabeac-c119-4e34-83cf-5de52a4ce63d"},"vehicle_type_id":"4","last_reported":1744521402,"current_range_meters":16400,"station_id":"ce4bhah2rcd13ifvqei0","pricing_plan_id":"cebpf4jnsgd1na2vs0mg"},{"bike_id":"148d6d37-7a05-470b-b2d0-5de114ced696","system_id":"levelo_inurba_marseille","lat":43.24803,"lon":5.37462,"is_reserved":false,"is_disabled":false,"rental_uris":{"android":"levelo://app?vid=148d6d37-7a05-470b-b2d0-5de114ced696","ios":"levelo://app?vid=148d6d37-7a05-470b-b2d0-5de114ced696"},"vehicle_type_id":"4","last_reported":1744521402,"current_range_meters":16800,"station_id":"ce4bhgh2rcd13ifvqfb0","pricing_plan_id":"cebpf4jnsgd1na2vs0mg"},{"bike_id":"aca1669d-f586-4489-8f38-6c4e1a840656","system_id":"levelo_inurba_marseille","lat":43.30784,"lon":5.3815,"is_reserved":false,"is_disabled":false,"rental_uris":{"android":"levelo://app?vid=aca1669d-f586-4489-8f38-6c4e1a840656","ios":"levelo://app?vid=aca1669d-f586-4489-8f38-6c4e1a840656"},"vehicle_type_id":"4","last_reported":1744521402,"current_range_meters":16800,"station_id":"ce4bgt12rcd13ifvqce0","pricing_plan_id":"cebpf4jnsgd1na2vs0mg"},{"bike_id":"fc717318-eb74-48d7-a733-c38b2c4b8364","system_id":"levelo_inurba_marseille","lat":43.26549,"lon":5.39049,"is_reserved":false,"is_disabled":false,"rental_uris":{"android":"levelo://app?vid=fc717318-eb74-48d7-a733-c38b2c4b8364","ios":"levelo://app?vid=fc717318-eb74-48d7-a733-c38b2c4b8364"},"vehicle_type_id":"4","last_reported":1744521402,"current_range_meters":16800,"station_id":"ce4bhe12rcd13ifvqf30","pricing_plan_id":"cebpf4jnsgd1na2vs0mg"},{"bike_id":"56671abc-ae40-464c-8cc0-d5892f041cf3","system_id":"levelo_inurba_marseille","lat":43.27056,"lon":5.40265,"is_reserved":false,"is_disabled":false,"rental_uris":{"android":"levelo://app?vid=56671abc-ae40-464c-8cc0-d5892f041cf3","ios":"levelo://app?vid=56671abc-ae40-464c-8cc0-d5892f041cf3"},"vehicle_type_id":"4","last_reported":1744521402,"current_range_meters":16800,"station_id":"ce4bhk92rcd13ifvqgc0","pricing_plan_id":"cebpf4jnsgd1na2vs0mg"},{"bike_id":"b9ca070f-c6a1-456b-acd5-a024744885ba","system_id":"levelo_inurba_marseille","lat":43.279139,"lon":5.395958,"is_reserved":false,"is_disabled":false,"rental_uris":{"android":"levelo://app?vid=b9ca070f-c6a1-456b-acd5-a024744885ba","ios":"levelo://app?vid=b9ca070f-c6a1-456b-acd5-a024744885ba"},"vehicle_type_id":"4","last_reported":1744521402,"current_range_meters":17200,"station_id":"ce4bhf92rcd13ifvqf40","pricing_plan_id":"cebpf4jnsgd1na2vs0mg"},{"bike_id":"e617923d-5e38-4ab5-9f0a-d006b9dcc88d","system_id":"levelo_inurba_marseille","lat":43.29535,"lon":5.38581,"is_reserved":false,"is_disabled":true,"rental_uris":{"android":"levelo://app?vid=e617923d-5e38-4ab5-9f0a-d006b9dcc88d","ios":"levelo://app?vid=e617923d-5e38-4ab5-9f0a-d006b9dcc88d"},"vehicle_type_id":"4","last_reported":1744521402,"current_range_meters":17200,"station_id":"ce4bgih2rcd13ifvqba0","pricing_plan_id":"cebpf4jnsgd1na2vs0mg"},{"bike_id":"2ef70209-0309-4820-b2af-1cd6abf8da8f","system_id":"levelo_inurba_marseille","lat":43.25825,"lon":5.39418,"is_reserved":false,"is_disabled":false,"rental_uris":{"android":"levelo://app?vid=2ef70209-0309-4820-b2af-1cd6abf8da8f","ios":"levelo://app?vid=2ef70209-0309-4820-b2af-1cd6abf8da8f"},"vehicle_type_id":"4","last_reported":1744521402,"current_range_meters":17200,"station_id":"ce4bhip2rcd13ifvqft0","pricing_plan_id":"cebpf4jnsgd1na2vs0mg"},{"bike_id":"70adfe44-94a3-4906-8210-6c716d244a4c","system_id":"levelo_inurba_marseille","lat":43.25713,"lon":5.41127,"is_reserved":false,"is_disabled":false,"rental_uris":{"android":"levelo://app?vid=70adfe44-94a3-4906-8210-6c716d244a4c","ios":"levelo://app?vid=70adfe44-94a3-4906-8210-6c716d244a4c"},"vehicle_type_id":"4","last_reported":1744521402,"current_range_meters":17600,"station_id":"ce4bhkp2rcd13ifvqgd0","pricing_plan_id":"cebpf4jnsgd1na2vs0mg"},{"bike_id":"ebfe90c3-9223-4301-8889-57ddac517533","system_id":"levelo_inurba_marseille","lat":43.28454,"lon":5.35895,"is_reserved":false,"is_disabled":false,"rental_uris":{"android":"levelo://app?vid=ebfe90c3-9223-4301-8889-57ddac517533","ios":"levelo://app?vid=ebfe90c3-9223-4301-8889-57ddac517533"},"vehicle_type_id":"4","last_reported":1744521402,"current_range_meters":17600,"station_id":"ce4bhah2rcd13ifvqei0","pricing_plan_id":"cebpf4jnsgd1na2vs0mg"},{"bike_id":"8eaed4ed-e8c2-480f-b49b-7829f95ec9fc","system_id":"levelo_inurba_marseille","lat":43.28706,"lon":5.39983,"is_reserved":false,"is_disabled":false,"rental_uris":{"android":"levelo://app?vid=8eaed4ed-e8c2-480f-b49b-7829f95ec9fc","ios":"levelo://app?vid=8eaed4ed-e8c2-480f-b49b-7829f95ec9fc"},"vehicle_type_id":"4","last_reported":1744521402,"current_range_meters":17600,"station_id":"ce4bho92rcd13ifvqh3g","pricing_plan_id":"cebpf4jnsgd1na2vs0mg"},{"bike_id":"a2213ab8-ff9d-4aff-85fc-3e8a3d89954c","system_id":"levelo_inurba_marseille","lat":43.32487,"lon":5.41249,"is_reserved":false,"is_disabled":false,"rental_uris":{"android":"levelo://app?vid=a2213ab8-ff9d-4aff-85fc-3e8a3d89954c","ios":"levelo://app?vid=a2213ab8-ff9d-4aff-85fc-3e8a3d89954c"},"vehicle_type_id":"4","last_reported":1744521402,"current_range_meters":18000,"station_id":"ce4bhpp2rcd13ifvqhgg","pricing_plan_id":"cebpf4jnsgd1na2vs0mg"},{"bike_id":"48aab2a1-babe-45be-a8c2-730a9253a339","system_id":"levelo_inurba_marseille","lat":43.30582,"lon":5.37245,"is_reserved":false,"is_disabled":false,"rental_uris":{"android":"levelo://app?vid=48aab2a1-babe-45be-a8c2-730a9253a339","ios":"levelo://app?vid=48aab2a1-babe-45be-a8c2-730a9253a339"},"vehicle_type_id":"4","last_reported":1744521402,"current_range_meters":18000,"station_id":"ce4bgqh2rcd13ifvqc4g","pricing_plan_id":"cebpf4jnsgd1na2vs0mg"},{"bike_id":"4663f328-a137-42fc-a4b3-707f18f263b5","system_id":"levelo_inurba_marseille","lat":43.31046,"lon":5.38359,"is_reserved":false,"is_disabled":false,"rental_uris":{"android":"levelo://app?vid=4663f328-a137-42fc-a4b3-707f18f263b5","ios":"levelo://app?vid=4663f328-a137-42fc-a4b3-707f18f263b5"},"vehicle_type_id":"4","last_reported":1744521402,"current_range_meters":18000,"station_id":"ce4bgv92rcd13ifvqcr0","pricing_plan_id":"cebpf4jnsgd1na2vs0mg"},{"bike_id":"604b4e29-58a6-4cad-8fac-5599fbdb6f4c","system_id":"levelo_inurba_marseille","lat":43.298999,"lon":5.403896,"is_reserved":false,"is_disabled":false,"rental_uris":{"android":"levelo://app?vid=604b4e29-58a6-4cad-8fac-5599fbdb6f4c","ios":"levelo://app?vid=604b4e29-58a6-4cad-8fac-5599fbdb6f4c"},"vehicle_type_id":"4","last_reported":1744521402,"current_range_meters":18000,"station_id":"","pricing_plan_id":"cebpf4jnsgd1na2vs0mg"},{"bike_id":"a6ecdfb6-884d-4710-af03-e9f966cbe87a","system_id":"levelo_inurba_marseille","lat":43.307922,"lon":5.435286,"is_reserved":false,"is_disabled":false,"rental_uris":{"android":"levelo://app?vid=a6ecdfb6-884d-4710-af03-e9f966cbe87a","ios":"levelo://app?vid=a6ecdfb6-884d-4710-af03-e9f966cbe87a"},"vehicle_type_id":"4","last_reported":1744521402,"current_range_meters":18000,"station_id":"ce4bhph2rcd13ifvqheg","pricing_plan_id":"cebpf4jnsgd1na2vs0mg"},{"bike_id":"2551df23-46eb-4dc9-b328-33c9a95ff7ca","system_id":"levelo_inurba_marseille","lat":43.29208,"lon":5.36093,"is_reserved":false,"is_disabled":true,"rental_uris":{"android":"levelo://app?vid=2551df23-46eb-4dc9-b328-33c9a95ff7ca","ios":"levelo://app?vid=2551df23-46eb-4dc9-b328-33c9a95ff7ca"},"vehicle_type_id":"4","last_reported":1744521402,"current_range_meters":18000,"station_id":"ce4bhbh2rcd13ifvqeqg","pricing_plan_id":"cebpf4jnsgd1na2vs0mg"},{"bike_id":"78553e38-e209-4045-9292-f37b5759bfeb","system_id":"levelo_inurba_marseille","lat":43.24155,"lon":5.39721,"is_reserved":false,"is_disabled":false,"rental_uris":{"android":"levelo://app?vid=78553e38-e209-4045-9292-f37b5759bfeb","ios":"levelo://app?vid=78553e38-e209-4045-9292-f37b5759bfeb"},"vehicle_type_id":"4","last_reported":1744521402,"current_range_meters":18000,"station_id":"ce4bhn12rcd13ifvqgpg","pricing_plan_id":"cebpf4jnsgd1na2vs0mg"},{"bike_id":"966c30fe-75ee-428d-bd92-711a06a6720b","system_id":"levelo_inurba_marseille","lat":43.31304,"lon":5.39723,"is_reserved":false,"is_disabled":false,"rental_uris":{"android":"levelo://app?vid=966c30fe-75ee-428d-bd92-711a06a6720b","ios":"levelo://app?vid=966c30fe-75ee-428d-bd92-711a06a6720b"},"vehicle_type_id":"4","last_reported":1744521402,"current_range_meters":18800,"station_id":"ce4bgvp2rcd13ifvqcu0","pricing_plan_id":"cebpf4jnsgd1na2vs0mg"},{"bike_id":"e52e6673-d506-4da4-8bcb-b7cdcaf5a9ed","system_id":"levelo_inurba_marseille","lat":43.31105,"lon":5.37771,"is_reserved":false,"is_disabled":false,"rental_uris":{"android":"levelo://app?vid=e52e6673-d506-4da4-8bcb-b7cdcaf5a9ed","ios":"levelo://app?vid=e52e6673-d506-4da4-8bcb-b7cdcaf5a9ed"},"vehicle_type_id":"4","last_reported":1744521402,"current_range_meters":18800,"station_id":"ce4bgt92rcd13ifvqcg0","pricing_plan_id":"cebpf4jnsgd1na2vs0mg"},{"bike_id":"50f3a6ca-1b32-4e17-a21b-a50e16960e96","system_id":"levelo_inurba_marseille","lat":43.337766,"lon":5.374441,"is_reserved":false,"is_disabled":false,"rental_uris":{"android":"levelo://app?vid=50f3a6ca-1b32-4e17-a21b-a50e16960e96","ios":"levelo://app?vid=50f3a6ca-1b32-4e17-a21b-a50e16960e96"},"vehicle_type_id":"4","last_reported":1744521402,"current_range_meters":18800,"station_id":"","pricing_plan_id":"cebpf4jnsgd1na2vs0mg"},{"bike_id":"48f0c18f-0c70-4259-b4c4-7d5a12de3de1","system_id":"levelo_inurba_marseille","lat":43.30312,"lon":5.36912,"is_reserved":false,"is_disabled":false,"rental_uris":{"android":"levelo://app?vid=48f0c18f-0c70-4259-b4c4-7d5a12de3de1","ios":"levelo://app?vid=48f0c18f-0c70-4259-b4c4-7d5a12de3de1"},"vehicle_type_id":"4","last_reported":1744521402,"current_range_meters":18800,"station_id":"ce4bgqh2rcd13ifvqc5g","pricing_plan_id":"cebpf4jnsgd1na2vs0mg"},{"bike_id":"d06291ab-e60c-4ee9-a2f8-f55c784c28fe","system_id":"levelo_inurba_marseille","lat":43.2117,"lon":5.35083,"is_reserved":false,"is_disabled":false,"rental_uris":{"android":"levelo://app?vid=d06291ab-e60c-4ee9-a2f8-f55c784c28fe","ios":"levelo://app?vid=d06291ab-e60c-4ee9-a2f8-f55c784c28fe"},"vehicle_type_id":"4","last_reported":1744521402,"current_range_meters":18800,"station_id":"","pricing_plan_id":"cebpf4jnsgd1na2vs0mg"},{"bike_id":"935a7e55-4cea-4394-8ed2-15f7e1ee706c","system_id":"levelo_inurba_marseille","lat":43.27246,"lon":5.43152,"is_reserved":false,"is_disabled":false,"rental_uris":{"android":"levelo://app?vid=935a7e55-4cea-4394-8ed2-15f7e1ee706c","ios":"levelo://app?vid=935a7e55-4cea-4394-8ed2-15f7e1ee706c"},"vehicle_type_id":"4","last_reported":1744521402,"current_range_meters":19200,"station_id":"","pricing_plan_id":"cebpf4jnsgd1na2vs0mg"},{"bike_id":"da48e56b-5b98-4592-a2ea-cf5907cac18b","system_id":"levelo_inurba_marseille","lat":43.337652,"lon":5.374374,"is_reserved":false,"is_disabled":false,"rental_uris":{"android":"levelo://app?vid=da48e56b-5b98-4592-a2ea-cf5907cac18b","ios":"levelo://app?vid=da48e56b-5b98-4592-a2ea-cf5907cac18b"},"vehicle_type_id":"4","last_reported":1744521402,"current_range_meters":19200,"station_id":"","pricing_plan_id":"cebpf4jnsgd1na2vs0mg"},{"bike_id":"29c09acb-5867-4a7b-9a44-5870f89ee4ed","system_id":"levelo_inurba_marseille","lat":43.280729,"lon":5.396465,"is_reserved":false,"is_disabled":false,"rental_uris":{"android":"levelo://app?vid=29c09acb-5867-4a7b-9a44-5870f89ee4ed","ios":"levelo://app?vid=29c09acb-5867-4a7b-9a44-5870f89ee4ed"},"vehicle_type_id":"4","last_reported":1744521402,"current_range_meters":19200,"station_id":"ce4bho12rcd13ifvqh2g","pricing_plan_id":"cebpf4jnsgd1na2vs0mg"},{"bike_id":"c45e9a79-19ad-4505-9951-92a9d61bff69","system_id":"levelo_inurba_marseille","lat":43.27946,"lon":5.41046,"is_reserved":false,"is_disabled":false,"rental_uris":{"android":"levelo://app?vid=c45e9a79-19ad-4505-9951-92a9d61bff69","ios":"levelo://app?vid=c45e9a79-19ad-4505-9951-92a9d61bff69"},"vehicle_type_id":"4","last_reported":1744521402,"current_range_meters":19200,"station_id":"ce4bhnp2rcd13ifvqh0g","pricing_plan_id":"cebpf4jnsgd1na2vs0mg"},{"bike_id":"ee3d94e1-9536-48aa-8307-1c3318b457b7","system_id":"levelo_inurba_marseille","lat":43.2844,"lon":5.359,"is_reserved":false,"is_disabled":false,"rental_uris":{"android":"levelo://app?vid=ee3d94e1-9536-48aa-8307-1c3318b457b7","ios":"levelo://app?vid=ee3d94e1-9536-48aa-8307-1c3318b457b7"},"vehicle_type_id":"4","last_reported":1744521402,"current_range_meters":19200,"station_id":"ce4bhah2rcd13ifvqei0","pricing_plan_id":"cebpf4jnsgd1na2vs0mg"},{"bike_id":"d67b0876-a2c1-44c0-8039-0e3711da0d8b","system_id":"levelo_inurba_marseille","lat":43.31501,"lon":5.37256,"is_reserved":false,"is_disabled":false,"rental_uris":{"android":"levelo://app?vid=d67b0876-a2c1-44c0-8039-0e3711da0d8b","ios":"levelo://app?vid=d67b0876-a2c1-44c0-8039-0e3711da0d8b"},"vehicle_type_id":"4","last_reported":1744521402,"current_range_meters":19200,"station_id":"ce4bgt12rcd13ifvqcd0","pricing_plan_id":"cebpf4jnsgd1na2vs0mg"},{"bike_id":"240e4230-360a-4697-92a8-c58de50431cd","system_id":"levelo_inurba_marseille","lat":43.27882,"lon":5.37994,"is_reserved":false,"is_disabled":false,"rental_uris":{"android":"levelo://app?vid=240e4230-360a-4697-92a8-c58de50431cd","ios":"levelo://app?vid=240e4230-360a-4697-92a8-c58de50431cd"},"vehicle_type_id":"4","last_reported":1744521402,"current_range_meters":19200,"station_id":"ce4bhf92rcd13ifvqf50","pricing_plan_id":"cebpf4jnsgd1na2vs0mg"},{"bike_id":"6fb2d173-587a-45e5-be62-78a354257611","system_id":"levelo_inurba_marseille","lat":43.26558,"lon":5.37284,"is_reserved":false,"is_disabled":false,"rental_uris":{"android":"levelo://app?vid=6fb2d173-587a-45e5-be62-78a354257611","ios":"levelo://app?vid=6fb2d173-587a-45e5-be62-78a354257611"},"vehicle_type_id":"4","last_reported":1744521402,"current_range_meters":19600,"station_id":"ce4bhg12rcd13ifvqf70","pricing_plan_id":"cebpf4jnsgd1na2vs0mg"},{"bike_id":"8279a196-5a2c-4f8d-b59a-abd4366ee289","system_id":"levelo_inurba_marseille","lat":43.31167,"lon":5.38725,"is_reserved":false,"is_disabled":false,"rental_uris":{"android":"levelo://app?vid=8279a196-5a2c-4f8d-b59a-abd4366ee289","ios":"levelo://app?vid=8279a196-5a2c-4f8d-b59a-abd4366ee289"},"vehicle_type_id":"4","last_reported":1744521402,"current_range_meters":19600,"station_id":"ce4bgv12rcd13ifvqcp0","pricing_plan_id":"cebpf4jnsgd1na2vs0mg"},{"bike_id":"e23a2fbf-390c-4634-8902-fbe9c490d2fe","system_id":"levelo_inurba_marseille","lat":43.25938,"lon":5.40868,"is_reserved":false,"is_disabled":false,"rental_uris":{"android":"levelo://app?vid=e23a2fbf-390c-4634-8902-fbe9c490d2fe","ios":"levelo://app?vid=e23a2fbf-390c-4634-8902-fbe9c490d2fe"},"vehicle_type_id":"4","last_reported":1744521402,"current_range_meters":19600,"station_id":"ce4bhm92rcd13ifvqglg","pricing_plan_id":"cebpf4jnsgd1na2vs0mg"},{"bike_id":"b8151092-3a09-483d-9f0c-52e7f9296325","system_id":"levelo_inurba_marseille","lat":43.29443,"lon":5.39724,"is_reserved":false,"is_disabled":false,"rental_uris":{"android":"levelo://app?vid=b8151092-3a09-483d-9f0c-52e7f9296325","ios":"levelo://app?vid=b8151092-3a09-483d-9f0c-52e7f9296325"},"vehicle_type_id":"4","last_reported":1744521402,"current_range_meters":19600,"station_id":"ce4bh3h2rcd13ifvqdo0","pricing_plan_id":"cebpf4jnsgd1na2vs0mg"},{"bike_id":"0a8339a1-91ab-44f5-b9ac-8d40fc0dc4c1","system_id":"levelo_inurba_marseille","lat":43.30306,"lon":5.36894,"is_reserved":false,"is_disabled":false,"rental_uris":{"android":"levelo://app?vid=0a8339a1-91ab-44f5-b9ac-8d40fc0dc4c1","ios":"levelo://app?vid=0a8339a1-91ab-44f5-b9ac-8d40fc0dc4c1"},"vehicle_type_id":"4","last_reported":1744521402,"current_range_meters":19600,"station_id":"ce4bgqh2rcd13ifvqc5g","pricing_plan_id":"cebpf4jnsgd1na2vs0mg"},{"bike_id":"275b2f9d-a544-4c9f-a636-113086869ebd","system_id":"levelo_inurba_marseille","lat":43.31694,"lon":5.43683,"is_reserved":false,"is_disabled":false,"rental_uris":{"android":"levelo://app?vid=275b2f9d-a544-4c9f-a636-113086869ebd","ios":"levelo://app?vid=275b2f9d-a544-4c9f-a636-113086869ebd"},"vehicle_type_id":"4","last_reported":1744521402,"current_range_meters":20000,"station_id":"ce4bhp92rcd13ifvqhcg","pricing_plan_id":"cebpf4jnsgd1na2vs0mg"},{"bike_id":"3f89f6d9-7a29-42a4-8a0a-9c6ae3f14d61","system_id":"levelo_inurba_marseille","lat":43.30178,"lon":5.36619,"is_reserved":false,"is_disabled":false,"rental_uris":{"android":"levelo://app?vid=3f89f6d9-7a29-42a4-8a0a-9c6ae3f14d61","ios":"levelo://app?vid=3f89f6d9-7a29-42a4-8a0a-9c6ae3f14d61"},"vehicle_type_id":"4","last_reported":1744521402,"current_range_meters":20000,"station_id":"ce4bgrh2rcd13ifvqc8g","pricing_plan_id":"cebpf4jnsgd1na2vs0mg"},{"bike_id":"d929549f-7f87-4ba4-a302-5d535df0aff6","system_id":"levelo_inurba_marseille","lat":43.29199,"lon":5.39318,"is_reserved":false,"is_disabled":false,"rental_uris":{"android":"levelo://app?vid=d929549f-7f87-4ba4-a302-5d535df0aff6","ios":"levelo://app?vid=d929549f-7f87-4ba4-a302-5d535df0aff6"},"vehicle_type_id":"4","last_reported":1744521402,"current_range_meters":20000,"station_id":"ce4bh192rcd13ifvqdd0","pricing_plan_id":"cebpf4jnsgd1na2vs0mg"},