{"last_updated":1751393661,"ttl":60,"version":"2.2","data":{"bikes":[{"bike_id":"3da29fb8-fc97-44c6-b9ac-31dd456b2fd4","system_id":"levelo_inurba_marseille","lat":43.33771,"lon":5.37424,"is_reserved":false,"is_disabled":true,"rental_uris":{"android":"levelo://app?vid=3da29fb8-fc97-44c6-b9ac-31dd456b2fd4","ios":"levelo://app?vid=3da29fb8-fc97-44c6-b9ac-31dd456b2fd4"},"vehicle_type_id":"4","last_reported":1751393661,"current_range_meters":0,"station_id":"","pricing_plan_id":"cebpf4jnsgd1na2vs0mg"},{"bike_id":"01861ad8-a8d7-4be6-816e-651927c87584","system_id":"levelo_inurba_marseille","lat":43.33751,"lon":5.37456,"is_reserved":false,"is_disabled":true,"rental_uris":{"android":"levelo://app?vid=01861ad8-a8d7-4be6-816e-651927c87584","ios":"levelo://app?vid=01861ad8-a8d7-4be6-816e-651927c87584"},"vehicle_type_id":"4","last_reported":1751393661,"current_range_meters":0,"station_id":"","pricing_plan_id":"cebpf4jnsgd1na2vs0mg"},{"bike_id":"aacf0286-b8b3-4dcc-99df-3c0d92efa356","system_id":"levelo_inurba_marseille","lat":43.32613,"lon":5.37499,"is_reserved":false,"is_disabled":true,"rental_uris":{"android":"levelo://app?vid=aacf0286-b8b3-4dcc-99df-3c0d92efa356","ios":"levelo://app?vid=aacf0286-b8b3-4dcc-99df-3c0d92efa356"},"vehicle_type_id":"4","last_reported":1751393661,"current_range_meters":0,"station_id":"","pricing_plan_id":"cebpf4jnsgd1na2vs0mg"},{"bike_id":"f3bb54e5-5710-469b-95d1-519f2df26e28","system_id":"levelo_inurba_marseille","lat":43.30276,"lon":5.38184,"is_reserved":false,"is_disabled":true,"rental_uris":{"android":"levelo://app?vid=f3bb54e5-5710-469b-95d1-519f2df26e28","ios":"levelo://app?vid=f3bb54e5-5710-469b-95d1-519f2df26e28"},"vehicle_type_id":"4","last_reported":1751393661,"current_range_meters":0,"station_id":"","pricing_plan_id":"cebpf4jnsgd1na2vs0mg"},{"bike_id":"3168b9fb-97d2-4a0e-b7ee-673bb8cf7525","system_id":"levelo_inurba_marseille","lat":43.27782,"lon":5.35561,"is_reserved":false,"is_disabled":true,"rental_uris":{"android":"levelo://app?vid=3168b9fb-97d2-4a0e-b7ee-673bb8cf7525","ios":"levelo://app?vid=3168b9fb-97d2-4a0e-b7ee-673bb8cf7525"},"vehicle_type_id":"4","last_reported":1751393661,"current_range_meters":0,"station_id":"","pricing_plan_id":"cebpf4jnsgd1na2vs0mg"},{"bike_id":"1d934d30-6a85-4b30-9a35-9bb4ad4cb2ca","system_id":"levelo_inurba_marseille","lat":43.327214,"lon":5.4237,"is_reserved":false,"is_disabled":true,"rental_uris":{"android":"levelo://app?vid=1d934d30-6a85-4b30-9a35-9bb4ad4cb2ca","ios":"levelo://app?vid=1d934d30-6a85-4b30-9a35-9bb4ad4cb2ca"},"vehicle_type_id":"4","last_reported":1751393661,"current_range_meters":0,"station_id":"","pricing_plan_id":"cebpf4jnsgd1na2vs0mg"},{"bike_id":"3378c13c-e4e0-45be-9bfe-f3a4bc2c600e","system_id":"levelo_inurba_marseille","lat":43.29784,"lon":5.4598,"is_reserved":false,"is_disabled":true,"rental_uris":{"android":"levelo://app?vid=3378c13c-e4e0-45be-9bfe-f3a4bc2c600e","ios":"levelo://app?vid=3378c13c-e4e0-45be-9bfe-f3a4bc2c600e"},"vehicle_type_id":"4","last_reported":1751393661,"current_range_meters":0,"station_id":"","pricing_plan_id":"cebpf4jnsgd1na2vs0mg"},{"bike_id":"2ccccc82-c8a9-4c3b-909d-52c0bf697aa3","system_id":"levelo_inurba_marseille","lat":43.276035,"lon":5.358616,"is_reserved":false,"is_disabled":true,"rental_uris":{"android":"levelo://app?vid=2ccccc82-c8a9-4c3b-909d-52c0bf697aa3","ios":"levelo://app?vid=2ccccc82-c8a9-4c3b-909d-52c0bf697aa3"},"vehicle_type_id":"4","last_reported":1751393661,"current_range_meters":0,"station_id":"","pricing_plan_id":"cebpf4jnsgd1na2vs0mg"},{"bike_id":"c9700359-7f1e-4ea5-8eb5-d9c4ea1b8ef7","system_id":"levelo_inurba_marseille","lat":43.26327,"lon":5.37362,"is_reserved":false,"is_disabled":true,"rental_uris":{"android":"levelo://app?vid=c9700359-7f1e-4ea5-8eb5-d9c4ea1b8ef7","ios":"levelo://app?vid=c9700359-7f1e-4ea5-8eb5-d9c4ea1b8ef7"},"vehicle_type_id":"4","last_reported":1751393661,"current_range_meters":0,"station_id":"","pricing_plan_id":"cebpf4jnsgd1na2vs0mg"},{"bike_id":"95c69415-2845-4124-9fbc-8e2f89cb3a35","system_id":"levelo_inurba_marseille","lat":43.293091,"lon":5.371784,"is_reserved":false,"is_disabled":true,"rental_uris":{"android":"levelo://app?vid=95c69415-2845-4124-9fbc-8e2f89cb3a35","ios":"levelo://app?vid=95c69415-2845-4124-9fbc-8e2f89cb3a35"},"vehicle_type_id":"4","last_reported":1751393661,"current_range_meters":0,"station_id":"","pricing_plan_id":"cebpf4jnsgd1na2vs0mg"},{"bike_id":"3035be0e-7c3d-4f7d-a1cb-7a1af59e497b","system_id":"levelo_inurba_marseille","lat":43.29679,"lon":5.36004,"is_reserved":false,"is_disabled":true,"rental_uris":{"android":"levelo://app?vid=3035be0e-7c3d-4f7d-a1cb-7a1af59e497b","ios":"levelo://app?vid=3035be0e-7c3d-4f7d-a1cb-7a1af59e497b"},"vehicle_type_id":"4","last_reported":1751393661,"current_range_meters":0,"station_id":"","pricing_plan_id":"cebpf4jnsgd1na2vs0mg"},{"bike_id":"46ed2b9f-1912-466e-b039-bc4b03b9c281","system_id":"levelo_inurba_marseille","lat":43.23775,"lon":5.36168,"is_reserved":false,"is_disabled":true,"rental_uris":{"android":"levelo://app?vid=46ed2b9f-1912-466e-b039-bc4b03b9c281","ios":"levelo://app?vid=46ed2b9f-1912-466e-b039-bc4b03b9c281"},"vehicle_type_id":"4","last_reported":1751393661,"current_range_meters":0,"station_id":"","pricing_plan_id":"cebpf4jnsgd1na2vs0mg"},{"bike_id":"fc922827-a560-40b3-a464-7d96a560fe74","system_id":"levelo_inurba_marseille","lat":43.31367,"lon":5.38495,"is_reserved":false,"is_disabled":true,"rental_uris":{"android":"levelo://app?vid=fc922827-a560-40b3-a464-7d96a560fe74","ios":"levelo://app?vid=fc922827-a560-40b3-a464-7d96a560fe74"},"vehicle_type_id":"4","last_reported":1751393661,"current_range_meters":0,"station_id":"ce4bgt92rcd13ifvqcf0","pricing_plan_id":"cebpf4jnsgd1na2vs0mg"},{"bike_id":"4e2a0ba2-7444-424b-979c-a1789744888f","system_id":"levelo_inurba_marseille","lat":43.291513,"lon":5.399928,"is_reserved":false,"is_disabled":true,"rental_uris":{"android":"levelo://app?vid=4e2a0ba2-7444-424b-979c-a1789744888f","ios":"levelo://app?vid=4e2a0ba2-7444-424b-979c-a1789744888f"},"vehicle_type_id":"4","last_reported":1751393661,"current_range_meters":0,"station_id":"ce4bh392rcd13ifvqdm0","pricing_plan_id":"cebpf4jnsgd1na2vs0mg"},{"bike_id":"ea3bdad5-3bbe-4cd2-afe1-5b12261fad54","system_id":"levelo_inurba_marseille","lat":43.28694,"lon":5.374,"is_reserved":false,"is_disabled":true,"rental_uris":{"android":"levelo://app?vid=ea3bdad5-3bbe-4cd2-afe1-5b12261fad54","ios":"levelo://app?vid=ea3bdad5-3bbe-4cd2-afe1-5b12261fad54"},"vehicle_type_id":"4","last_reported":1751393661,"current_range_meters":0,"station_id":"ce4bh3p2rcd13ifvqdq0","pricing_plan_id":"cebpf4jnsgd1na2vs0mg"},{"bike_id":"06ead579-8483-4fb5-889d-5c4db9dd6768","system_id":"levelo_inurba_marseille","lat":43.284765,"lon":5.385655,"is_reserved":false,"is_disabled":true,"rental_uris":{"android":"levelo://app?vid=06ead579-8483-4fb5-889d-5c4db9dd6768","ios":"levelo://app?vid=06ead579-8483-4fb5-889d-5c4db9dd6768"},"vehicle_type_id":"4","last_reported":1751393661,"current_range_meters":0,"station_id":"ce4bh8p2rcd13ifvqeb0","pricing_plan_id":"cebpf4jnsgd1na2vs0mg"},{"bike_id":"f7182412-ae42-4306-9902-7d9b01396a0a","system_id":"levelo_inurba_marseille","lat":43.28157,"lon":5.42643,"is_reserved":false,"is_disabled":true,"rental_uris":{"android":"levelo://app?vid=f7182412-ae42-4306-9902-7d9b01396a0a","ios":"levelo://app?vid=f7182412-ae42-4306-9902-7d9b01396a0a"},"vehicle_type_id":"4","last_reported":1751393661,"current_range_meters":0,"station_id":"ce4bhnh2rcd13ifvqgug","pricing_plan_id":"cebpf4jnsgd1na2vs0mg"},{"bike_id":"2cee1932-1f06-4d42-8702-186fb6817fe6","system_id":"levelo_inurba_marseille","lat":43.30376,"lon":5.42485,"is_reserved":false,"is_disabled":true,"rental_uris":{"android":"levelo://app?vid=2cee1932-1f06-4d42-8702-186fb6817fe6","ios":"levelo://app?vid=2cee1932-1f06-4d42-8702-186fb6817fe6"},"vehicle_type_id":"4","last_reported":1751393661,"current_range_meters":0,"station_id":"ce4bhoh2rcd13ifvqh6g","pricing_plan_id":"cebpf4jnsgd1na2vs0mg"},{"bike_id":"e1a382cd-f04b-4bf6-bb67-2ed3a181b292","system_id":"levelo_inurba_marseille","lat":43.3043,"lon":5.41319,"is_reserved":false,"is_disabled":true,"rental_uris":{"android":"levelo://app?vid=e1a382cd-f04b-4bf6-bb67-2ed3a181b292","ios":"levelo://app?vid=e1a382cd-f04b-4bf6-bb67-2ed3a181b292"},"vehicle_type_id":"4","last_reported":1751393661,"current_range_meters":0,"station_id":"ce4bhop2rcd13ifvqh8g","pricing_plan_id":"cebpf4jnsgd1na2vs0mg"},{"bike_id":"de1988bc-a9c8-4b00-9533-fbec8ecf6830","system_id":"levelo_inurba_marseille","lat":43.32129,"lon":5.36756,"is_reserved":false,"is_disabled":true,"rental_uris":{"android":"levelo://app?vid=de1988bc-a9c8-4b00-9533-fbec8ecf6830","ios":"levelo://app?vid=de1988bc-a9c8-4b00-9533-fbec8ecf6830"},"vehicle_type_id":"4","last_reported":1751393661,"current_range_meters":0,"station_id":"ce4bhrh2rcd13ifvqhug","pricing_plan_id":"cebpf4jnsgd1na2vs0mg"},{"bike_id":"9ea9b2f2-da6c-427c-b4f4-742ad87b4a40","system_id":"levelo_inurba_marseille","lat":43.32359,"lon":5.36742,"is_reserved":false,"is_disabled":true,"rental_uris":{"android":"levelo://app?vid=9ea9b2f2-da6c-427c-b4f4-742ad87b4a40","ios":"levelo://app?vid=9ea9b2f2-da6c-427c-b4f4-742ad87b4a40"},"vehicle_type_id":"4","last_reported":1751393661,"current_range_meters":0,"station_id":"ce4bhsh2rcd13ifvqi2g","pricing_plan_id":"cebpf4jnsgd1na2vs0mg"},{"bike_id":"5535b375-88a8-48f2-9bbe-c408367e409a","system_id":"levelo_inurba_marseille","lat":43.31363,"lon":5.38357,"is_reserved":false,"is_disabled":true,"rental_uris":{"android":"levelo://app?vid=5535b375-88a8-48f2-9bbe-c408367e409a","ios":"levelo://app?vid=5535b375-88a8-48f2-9bbe-c408367e409a"},"vehicle_type_id":"4","last_reported":1751393661,"current_range_meters":400,"station_id":"","pricing_plan_id":"cebpf4jnsgd1na2vs0mg"},{"bike_id":"4fb5ef5d-c051-429c-ba1f-26b3489d9af5","system_id":"levelo_inurba_marseille","lat":43.27528,"lon":5.38418,"is_reserved":false,"is_disabled":true,"rental_uris":{"android":"levelo://app?vid=4fb5ef5d-c051-429c-ba1f-26b3489d9af5","ios":"levelo://app?vid=4fb5ef5d-c051-429c-ba1f-26b3489d9af5"},"vehicle_type_id":"4","last_reported":1751393661,"current_range_meters":400,"station_id":"","pricing_plan_id":"cebpf4jnsgd1na2vs0mg"},{"bike_id":"5b8b4988-a90b-4136-8502-fac7815c9ef0","system_id":"levelo_inurba_marseille","lat":43.29718,"lon":5.36616,"is_reserved":false,"is_disabled":true,"rental_uris":{"android":"levelo://app?vid=5b8b4988-a90b-4136-8502-fac7815c9ef0","ios":"levelo://app?vid=5b8b4988-a90b-4136-8502-fac7815c9ef0"},"vehicle_type_id":"4","last_reported":1751393661,"current_range_meters":400,"station_id":"ce4bgn12rcd13ifvqbt0","pricing_plan_id":"cebpf4jnsgd1na2vs0mg"},{"bike_id":"6462b52d-442f-488d-a19d-b62f072cf13a","system_id":"levelo_inurba_marseille","lat":43.29625,"lon":5.371633,"is_reserved":false,"is_disabled":true,"rental_uris":{"android":"levelo://app?vid=6462b52d-442f-488d-a19d-b62f072cf13a","ios":"levelo://app?vid=6462b52d-442f-488d-a19d-b62f072cf13a"},"vehicle_type_id":"4","last_reported":1751393661,"current_range_meters":400,"station_id":"ce4bgnh2rcd13ifvqc0g","pricing_plan_id":"cebpf4jnsgd1na2vs0mg"},{"bike_id":"747c5397-b520-4bd2-a916-da633bde1099","system_id":"levelo_inurba_marseille","lat":43.29012,"lon":5.35622,"is_reserved":false,"is_disabled":true,"rental_uris":{"android":"levelo://app?vid=747c5397-b520-4bd2-a916-da633bde1099","ios":"levelo://app?vid=747c5397-b520-4bd2-a916-da633bde1099"},"vehicle_type_id":"4","last_reported":1751393661,"current_range_meters":400,"station_id":"ce4bhb92rcd13ifvqen0","pricing_plan_id":"cebpf4jnsgd1na2vs0mg"},{"bike_id":"8d5ddb25-3daa-4060-b3b9-d94b04e62973","system_id":"levelo_inurba_marseille","lat":43.2731,"lon":5.39077,"is_reserved":false,"is_disabled":true,"rental_uris":{"android":"levelo://app?vid=8d5ddb25-3daa-4060-b3b9-d94b04e62973","ios":"levelo://app?vid=8d5ddb25-3daa-4060-b3b9-d94b04e62973"},"vehicle_type_id":"4","last_reported":1751393661,"current_range_meters":400,"station_id":"ce4bhgp2rcd13ifvqfe0","pricing_plan_id":"cebpf4jnsgd1na2vs0mg"},{"bike_id":"7f5b3905-5037-47f8-8d92-44470d0e1a11","system_id":"levelo_inurba_marseille","lat":43.27057,"lon":5.40246,"is_reserved":false,"is_disabled":true,"rental_uris":{"android":"levelo://app?vid=7f5b3905-5037-47f8-8d92-44470d0e1a11","ios":"levelo://app?vid=7f5b3905-5037-47f8-8d92-44470d0e1a11"},"vehicle_type_id":"4","last_reported":1751393661,"current_range_meters":400,"station_id":"ce4bhk92rcd13ifvqgc0","pricing_plan_id":"cebpf4jnsgd1na2vs0mg"},{"bike_id":"9eff3269-9c2f-4a40-83f5-38db3b98552c","system_id":"levelo_inurba_marseille","lat":43.292032,"lon":5.35804,"is_reserved":false,"is_disabled":true,"rental_uris":{"android":"levelo://app?vid=9eff3269-9c2f-4a40-83f5-38db3b98552c","ios":"levelo://app?vid=9eff3269-9c2f-4a40-83f5-38db3b98552c"},"vehicle_type_id":"4","last_reported":1751393661,"current_range_meters":800,"station_id":"","pricing_plan_id":"cebpf4jnsgd1na2vs0mg"},{"bike_id":"093c2c98-a9b7-475c-8ac5-d9229bfa5b7c","system_id":"levelo_inurba_marseille","lat":43.241715,"lon":5.364,"is_reserved":false,"is_disabled":true,"rental_uris":{"android":"levelo://app?vid=093c2c98-a9b7-475c-8ac5-d9229bfa5b7c","ios":"levelo://app?vid=093c2c98-a9b7-475c-8ac5-d9229bfa5b7c"},"vehicle_type_id":"4","last_reported":1751393661,"current_range_meters":800,"station_id":"ce4bgkh2rcd13ifvqbl0","pricing_plan_id":"cebpf4jnsgd1na2vs0mg"},{"bike_id":"e1063568-600f-4b6f-b1f3-b2b5520db92d","system_id":"levelo_inurba_marseille","lat":43.29423,"lon":5.38613,"is_reserved":false,"is_disabled":true,"rental_uris":{"android":"levelo://app?vid=e1063568-600f-4b6f-b1f3-b2b5520db92d","ios":"levelo://app?vid=e1063568-600f-4b6f-b1f3-b2b5520db92d"},"vehicle_type_id":"4","last_reported":1751393661,"current_range_meters":800,"station_id":"ce4bh2h2rcd13ifvqdh0","pricing_plan_id":"cebpf4jnsgd1na2vs0mg"},{"bike_id":"9d28cc2b-75cf-48da-94ab-a9605c991787","system_id":"levelo_inurba_marseille","lat":43.28696,"lon":5.37928,"is_reserved":false,"is_disabled":true,"rental_uris":{"android":"levelo://app?vid=9d28cc2b-75cf-48da-94ab-a9605c991787","ios":"levelo://app?vid=9d28cc2b-75cf-48da-94ab-a9605c991787"},"vehicle_type_id":"4","last_reported":1751393661,"current_range_meters":800,"station_id":"ce4bh9p2rcd13ifvqec0","pricing_plan_id":"cebpf4jnsgd1na2vs0mg"},{"bike_id":"02ef0993-02d2-4850-8181-c1a47b0ff6e1","system_id":"levelo_inurba_marseille","lat":43.28076,"lon":5.39646,"is_reserved":false,"is_disabled":true,"rental_uris":{"android":"levelo://app?vid=02ef0993-02d2-4850-8181-c1a47b0ff6e1","ios":"levelo://app?vid=02ef0993-02d2-4850-8181-c1a47b0ff6e1"},"vehicle_type_id":"4","last_reported":1751393661,"current_range_meters":800,"station_id":"ce4bho12rcd13ifvqh2g","pricing_plan_id":"cebpf4jnsgd1na2vs0mg"},{"bike_id":"6346854d-967c-470e-9bcf-0ee9cbb31745","system_id":"levelo_inurba_marseille","lat":43.269244,"lon":5.420267,"is_reserved":false,"is_disabled":true,"rental_uris":{"android":"levelo://app?vid=6346854d-967c-470e-9bcf-0ee9cbb31745","ios":"levelo://app?vid=6346854d-967c-470e-9bcf-0ee9cbb31745"},"vehicle_type_id":"4","last_reported":1751393661,"current_range_meters":1200,"station_id":"","pricing_plan_id":"cebpf4jnsgd1na2vs0mg"},{"bike_id":"20a68e5f-4ed7-4bef-a5f8-9752db7468b8","system_id":"levelo_inurba_marseille","lat":43.29934,"lon":5.36551,"is_reserved":false,"is_disabled":true,"rental_uris":{"android":"levelo://app?vid=20a68e5f-4ed7-4bef-a5f8-9752db7468b8","ios":"levelo://app?vid=20a68e5f-4ed7-4bef-a5f8-9752db7468b8"},"vehicle_type_id":"4","last_reported":1751393661,"current_range_meters":1200,"station_id":"ce4bgm92rcd13ifvqbr0","pricing_plan_id":"cebpf4jnsgd1na2vs0mg"},{"bike_id":"371c8e1e-7ca4-4c5d-96e2-495ea5dc804f","system_id":"levelo_inurba_marseille","lat":43.29865,"lon":5.39734,"is_reserved":false,"is_disabled":true,"rental_uris":{"android":"levelo://app?vid=371c8e1e-7ca4-4c5d-96e2-495ea5dc804f","ios":"levelo://app?vid=371c8e1e-7ca4-4c5d-96e2-495ea5dc804f"},"vehicle_type_id":"4","last_reported":1751393661,"current_range_meters":1200,"station_id":"ce4bh0h2rcd13ifvqd50","pricing_plan_id":"cebpf4jnsgd1na2vs0mg"},{"bike_id":"7093f4a9-b461-4f46-8bac-1f85e6aa8d87","system_id":"levelo_inurba_marseille","lat":43.255023,"lon":5.376514,"is_reserved":false,"is_disabled":true,"rental_uris":{"android":"levelo://app?vid=7093f4a9-b461-4f46-8bac-1f85e6aa8d87","ios":"levelo://app?vid=7093f4a9-b461-4f46-8bac-1f85e6aa8d87"},"vehicle_type_id":"4","last_reported":1751393661,"current_range_meters":1200,"station_id":"ce4bhh12rcd13ifvqff0","pricing_plan_id":"cebpf4jnsgd1na2vs0mg"},{"bike_id":"0137fde0-0d43-4d45-967b-1e7ecbc7c683","system_id":"levelo_inurba_marseille","lat":43.25584,"lon":5.38239,"is_reserved":false,"is_disabled":false,"rental_uris":{"android":"levelo://app?vid=0137fde0-0d43-4d45-967b-1e7ecbc7c683","ios":"levelo://app?vid=0137fde0-0d43-4d45-967b-1e7ecbc7c683"},"vehicle_type_id":"4","last_reported":1751393661,"current_range_meters":1200,"station_id":"ce4bhih2rcd13ifvqfs0","pricing_plan_id":"cebpf4jnsgd1na2vs0mg"},{"bike_id":"c675cc91-10db-4326-9d49-caaeead295c7","system_id":"levelo_inurba_marseille","lat":43.28223,"lon":5.36993,"is_reserved":false,"is_disabled":true,"rental_uris":{"android":"levelo://app?vid=c675cc91-10db-4326-9d49-caaeead295c7","ios":"levelo://app?vid=c675cc91-10db-4326-9d49-caaeead295c7"},"vehicle_type_id":"4","last_reported":1751393661,"current_range_meters":1600,"station_id":"","pricing_plan_id":"cebpf4jnsgd1na2vs0mg"},{"bike_id":"0b553146-0d27-4dc8-83c8-3e8fccc63ff2","system_id":"levelo_inurba_marseille","lat":43.29214,"lon":5.37495,"is_reserved":false,"is_disabled":true,"rental_uris":{"android":"levelo://app?vid=0b553146-0d27-4dc8-83c8-3e8fccc63ff2","ios":"levelo://app?vid=0b553146-0d27-4dc8-83c8-3e8fccc63ff2"},"vehicle_type_id":"4","last_reported":1751393661,"current_range_meters":1600,"station_id":"","pricing_plan_id":"cebpf4jnsgd1na2vs0mg"},{"bike_id":"b51251dc-26e7-4b1a-abb9-27bf30afdb7f","system_id":"levelo_inurba_marseille","lat":43.30449,"lon":5.38894,"is_reserved":false,"is_disabled":true,"rental_uris":{"android":"levelo://app?vid=b51251dc-26e7-4b1a-abb9-27bf30afdb7f","ios":"levelo://app?vid=b51251dc-26e7-4b1a-abb9-27bf30afdb7f"},"vehicle_type_id":"4","last_reported":1751393661,"current_range_meters":1600,"station_id":"ce4bgk12rcd13ifvqbi0","pricing_plan_id":"cebpf4jnsgd1na2vs0mg"},{"bike_id":"470439c3-0807-4cca-9d03-3bf286ed20a9","system_id":"levelo_inurba_marseille","lat":43.30878,"lon":5.37182,"is_reserved":false,"is_disabled":true,"rental_uris":{"android":"levelo://app?vid=470439c3-0807-4cca-9d03-3bf286ed20a9","ios":"levelo://app?vid=470439c3-0807-4cca-9d03-3bf286ed20a9"},"vehicle_type_id":"4","last_reported":1751393661,"current_range_meters":1600,"station_id":"ce4bguh2rcd13ifvqckg","pricing_plan_id":"cebpf4jnsgd1na2vs0mg"},{"bike_id":"b430e201-5f48-410c-b50b-dbcbfc542045","system_id":"levelo_inurba_marseille","lat":43.28075,"lon":5.39654,"is_reserved":false,"is_disabled":true,"rental_uris":{"android":"levelo://app?vid=b430e201-5f48-410c-b50b-dbcbfc542045","ios":"levelo://app?vid=b430e201-5f48-410c-b50b-dbcbfc542045"},"vehicle_type_id":"4","last_reported":1751393661,"current_range_meters":1600,"station_id":"ce4bho12rcd13ifvqh2g","pricing_plan_id":"cebpf4jnsgd1na2vs0mg"},{"bike_id":"7547e1e4-2d85-4907-971d-6c8e5c4cb529","system_id":"levelo_inurba_marseille","lat":43.25368,"lon":5.37519,"is_reserved":false,"is_disabled":true,"rental_uris":{"android":"levelo://app?vid=7547e1e4-2d85-4907-971d-6c8e5c4cb529","ios":"levelo://app?vid=7547e1e4-2d85-4907-971d-6c8e5c4cb529"},"vehicle_type_id":"4","last_reported":1751393661,"current_range_meters":2000,"station_id":"","pricing_plan_id":"cebpf4jnsgd1na2vs0mg"},{"bike_id":"e5a91c12-a9d1-463a-8abe-d0dd37cf3197","system_id":"levelo_inurba_marseille","lat":43.29821,"lon":5.37731,"is_reserved":false,"is_disabled":true,"rental_uris":{"android":"levelo://app?vid=e5a91c12-a9d1-463a-8abe-d0dd37cf3197","ios":"levelo://app?vid=e5a91c12-a9d1-463a-8abe-d0dd37cf3197"},"vehicle_type_id":"4","last_reported":1751393661,"current_range_meters":2000,"station_id":"","pricing_plan_id":"cebpf4jnsgd1na2vs0mg"},{"bike_id":"f0f77af8-4702-40fb-9157-098651832454","system_id":"levelo_inurba_marseille","lat":43.34143,"lon":5.40907,"is_reserved":false,"is_disabled":false,"rental_uris":{"android":"levelo://app?vid=f0f77af8-4702-40fb-9157-098651832454","ios":"levelo://app?vid=f0f77af8-4702-40fb-9157-098651832454"},"vehicle_type_id":"4","last_reported":1751393661,"current_range_meters":2800,"station_id":"ce4bhqh2rcd13ifvqhlg","pricing_plan_id":"cebpf4jnsgd1na2vs0mg"},{"bike_id":"f86809a0-4760-4fc9-bf12-eea4957a26be","system_id":"levelo_inurba_marseille","lat":43.30141,"lon":5.3807,"is_reserved":false,"is_disabled":false,"rental_uris":{"android":"levelo://app?vid=f86809a0-4760-4fc9-bf12-eea4957a26be","ios":"levelo://app?vid=f86809a0-4760-4fc9-bf12-eea4957a26be"},"vehicle_type_id":"4","last_reported":1751393661,"current_range_meters":3200,"station_id":"ce4bgjp2rcd13ifvqbh0","pricing_plan_id":"cebpf4jnsgd1na2vs0mg"},{"bike_id":"d7e13f4d-96b6-4d14-9faf-b3c99eb9b5e5","system_id":"levelo_inurba_marseille","lat":43.30927,"lon":5.40145,"is_reserved":false,"is_disabled":false,"rental_uris":{"android":"levelo://app?vid=d7e13f4d-96b6-4d14-9faf-b3c99eb9b5e5","ios":"levelo://app?vid=d7e13f4d-96b6-4d14-9faf-b3c99eb9b5e5"},"vehicle_type_id":"4","last_reported":1751393661,"current_range_meters":3200,"station_id":"ce4bgvp2rcd13ifvqct0","pricing_plan_id":"cebpf4jnsgd1na2vs0mg"},{"bike_id":"b740d0e5-18ed-4c1d-9420-57d5ea29f19a","system_id":"levelo_inurba_marseille","lat":43.29512,"lon":5.39402,"is_reserved":false,"is_disabled":false,"rental_uris":{"android":"levelo://app?vid=b740d0e5-18ed-4c1d-9420-57d5ea29f19a","ios":"levelo://app?vid=b740d0e5-18ed-4c1d-9420-57d5ea29f19a"},"vehicle_type_id":"4","last_reported":1751393661,"current_range_meters":3200,"station_id":"ce4bh292rcd13ifvqdf0","pricing_plan_id":"cebpf4jnsgd1na2vs0mg"},{"bike_id":"26483bb6-71a6-4882-a894-10bb5a3fddef","system_id":"levelo_inurba_marseille","lat":43.29846,"lon":5.36276,"is_reserved":false,"is_disabled":false,"rental_uris":{"android":"levelo://app?vid=26483bb6-71a6-4882-a894-10bb5a3fddef","ios":"levelo://app?vid=26483bb6-71a6-4882-a894-10bb5a3fddef"},"vehicle_type_id":"4","last_reported":1751393661,"current_range_meters":3600,"station_id":"ce4bgpp2rcd13ifvqc3g","pricing_plan_id":"cebpf4jnsgd1na2vs0mg"},{"bike_id":"d776d3b1-3d00-403c-a488-4221c3518621","system_id":"levelo_inurba_marseille","lat":43.2738,"lon":5.36252,"is_reserved":false,"is_disabled":false,"rental_uris":{"android":"levelo://app?vid=d776d3b1-3d00-403c-a488-4221c3518621","ios":"levelo://app?vid=d776d3b1-3d00-403c-a488-4221c3518621"},"vehicle_type_id":"4","last_reported":1751393661,"current_range_meters":3600,"station_id":"ce4bhbh2rcd13ifvqeo0","pricing_plan_id":"cebpf4jnsgd1na2vs0mg"},{"bike_id":"19919ee7-aaf5-4830-acd4-13bbdec6c87c","system_id":"levelo_inurba_marseille","lat":43.255814,"lon":5.382457,"is_reserved":false,"is_disabled":false,"rental_uris":{"android":"levelo://app?vid=19919ee7-aaf5-4830-acd4-13bbdec6c87c","ios":"levelo://app?vid=19919ee7-aaf5-4830-acd4-13bbdec6c87c"},"vehicle_type_id":"4","last_reported":1751393661,"current_range_meters":3600,"station_id":"ce4bhih2rcd13ifvqfs0","pricing_plan_id":"cebpf4jnsgd1na2vs0mg"},{"bike_id":"1a46dd08-ac94-4c75-8f2e-e8413f2967de","system_id":"levelo_inurba_marseille","lat":43.29842,"lon":5.36278,"is_reserved":false,"is_disabled":false,"rental_uris":{"android":"levelo://app?vid=1a46dd08-ac94-4c75-8f2e-e8413f2967de","ios":"levelo://app?vid=1a46dd08-ac94-4c75-8f2e-e8413f2967de"},"vehicle_type_id":"4","last_reported":1751393661,"current_range_meters":4000,"station_id":"ce4bgpp2rcd13ifvqc3g","pricing_plan_id":"cebpf4jnsgd1na2vs0mg"},{"bike_id":"5ecdd3a9-9535-41d2-951e-38406ef32bdb","system_id":"levelo_inurba_marseille","lat":43.31084,"lon":5.4243,"is_reserved":false,"is_disabled":false,"rental_uris":{"android":"levelo://app?vid=5ecdd3a9-9535-41d2-951e-38406ef32bdb","ios":"levelo://app?vid=5ecdd3a9-9535-41d2-951e-38406ef32bdb"},"vehicle_type_id":"4","last_reported":1751393661,"current_range_meters":4000,"station_id":"ce4bhp92rcd13ifvqhag","pricing_plan_id":"cebpf4jnsgd1na2vs0mg"},{"bike_id":"dfdf8417-5f29-473b-8c82-67d5c9d498de","system_id":"levelo_inurba_marseille","lat":43.26801,"lon":5.40275,"is_reserved":false,"is_disabled":false,"rental_uris":{"android":"levelo://app?vid=dfdf8417-5f29-473b-8c82-67d5c9d498de","ios":"levelo://app?vid=dfdf8417-5f29-473b-8c82-67d5c9d498de"},"vehicle_type_id":"4","last_reported":1751393661,"current_range_meters":4000,"station_id":"ce501612rcd8frsf0b60","pricing_plan_id":"cebpf4jnsgd1na2vs0mg"},{"bike_id":"8188e16a-647b-4126-a684-4fd9c69b6177","system_id":"levelo_inurba_marseille","lat":43.24169,"lon":5.36395,"is_reserved":false,"is_disabled":false,"rental_uris":{"android":"levelo://app?vid=8188e16a-647b-4126-a684-4fd9c69b6177","ios":"levelo://app?vid=8188e16a-647b-4126-a684-4fd9c69b6177"},"vehicle_type_id":"4","last_reported":1751393661,"current_range_meters":4400,"station_id":"cpo36qri1sfpv3e86is0","pricing_plan_id":"cebpf4jnsgd1na2vs0mg"},{"bike_id":"162af4e6-d224-4240-aeac-6cb0ae06de53","system_id":"levelo_inurba_marseille","lat":43.29947,"lon":5.3783,"is_reserved":false,"is_disabled":false,"rental_uris":{"android":"levelo://app?vid=162af4e6-d224-4240-aeac-6cb0ae06de53","ios":"levelo://app?vid=162af4e6-d224-4240-aeac-6cb0ae06de53"},"vehicle_type_id":"4","last_reported":1751393661,"current_range_meters":4800,"station_id":"","pricing_plan_id":"cebpf4jnsgd1na2vs0mg"},{"bike_id":"82522992-39cd-4cc1-bf11-bf1394360248","system_id":"levelo_inurba_marseille","lat":43.3153,"lon":5.37463,"is_reserved":false,"is_disabled":false,"rental_uris":{"android":"levelo://app?vid=82522992-39cd-4cc1-bf11-bf1394360248","ios":"levelo://app?vid=82522992-39cd-4cc1-bf11-bf1394360248"},"vehicle_type_id":"4","last_reported":1751393661,"current_range_meters":4800,"station_id":"","pricing_plan_id":"cebpf4jnsgd1na2vs0mg"},{"bike_id":"01b6b08d-28f4-4c64-9523-5149fc0d5224","system_id":"levelo_inurba_marseille","lat":43.29959,"lon":5.38486,"is_reserved":false,"is_disabled":false,"rental_uris":{"android":"levelo://app?vid=01b6b08d-28f4-4c64-9523-5149fc0d5224","ios":"levelo://app?vid=01b6b08d-28f4-4c64-9523-5149fc0d5224"},"vehicle_type_id":"4","last_reported":1751393661,"current_range_meters":4800,"station_id":"ce4bgj92rcd13ifvqbd0","pricing_plan_id":"cebpf4jnsgd1na2vs0mg"},{"bike_id":"c812648b-fb9b-4185-835c-e69313170382","system_id":"levelo_inurba_marseille","lat":43.27603,"lon":5.36103,"is_reserved":false,"is_disabled":false,"rental_uris":{"android":"levelo://app?vid=c812648b-fb9b-4185-835c-e69313170382","ios":"levelo://app?vid=c812648b-fb9b-4185-835c-e69313170382"},"vehicle_type_id":"4","last_reported":1751393661,"current_range_meters":4800,"station_id":"ce4bgj92rcd13ifvqbe0","pricing_plan_id":"cebpf4jnsgd1na2vs0mg"},{"bike_id":"694657d8-86e1-4d19-9dd7-ab59cbddd1b4","system_id":"levelo_inurba_marseille","lat":43.27814,"lon":5.40709,"is_reserved":false,"is_disabled":false,"rental_uris":{"android":"levelo://app?vid=694657d8-86e1-4d19-9dd7-ab59cbddd1b4","ios":"levelo://app?vid=694657d8-86e1-4d19-9dd7-ab59cbddd1b4"},"vehicle_type_id":"4","last_reported":1751393661,"current_range_meters":4800,"station_id":"ce4bhnh2rcd13ifvqgtg","pricing_plan_id":"cebpf4jnsgd1na2vs0mg"},{"bike_id":"56da13b0-025a-4ef2-9608-c71069fd75ad","system_id":"levelo_inurba_marseille","lat":43.24169,"lon":5.36395,"is_reserved":false,"is_disabled":false,"rental_uris":{"android":"levelo://app?vid=56da13b0-025a-4ef2-9608-c71069fd75ad","ios":"levelo://app?vid=56da13b0-025a-4ef2-9608-c71069fd75ad"},"vehicle_type_id":"4","last_reported":1751393661,"current_range_meters":4800,"station_id":"cpo36qri1sfpv3e86is0","pricing_plan_id":"cebpf4jnsgd1na2vs0mg"},{"bike_id":"e229baad-645b-42b9-8660-3714b2ad1020","system_id":"levelo_inurba_marseille","lat":43.3032,"lon":5.36893,"is_reserved":false,"is_disabled":false,"rental_uris":{"android":"levelo://app?vid=e229baad-645b-42b9-8660-3714b2ad1020","ios":"levelo://app?vid=e229baad-645b-42b9-8660-3714b2ad1020"},"vehicle_type_id":"4","last_reported":1751393661,"current_range_meters":5600,"station_id":"ce4bgqh2rcd13ifvqc5g","pricing_plan_id":"cebpf4jnsgd1na2vs0mg"},{"bike_id":"9f9d2920-274b-4e08-af8e-daa857f3349d","system_id":"levelo_inurba_marseille","lat":43.31493,"lon":5.37304,"is_reserved":false,"is_disabled":false,"rental_uris":{"android":"levelo://app?vid=9f9d2920-274b-4e08-af8e-daa857f3349d","ios":"levelo://app?vid=9f9d2920-274b-4e08-af8e-daa857f3349d"},"vehicle_type_id":"4","last_reported":1751393661,"current_range_meters":5600,"station_id":"ce4bgt12rcd13ifvqcd0","pricing_plan_id":"cebpf4jnsgd1na2vs0mg"},{"bike_id":"c19ac8ed-2b4c-4ea2-a70a-3436461290de","system_id":"levelo_inurba_marseille","lat":43.27371,"lon":5.36246,"is_reserved":false,"is_disabled":false,"rental_uris":{"android":"levelo://app?vid=c19ac8ed-2b4c-4ea2-a70a-3436461290de","ios":"levelo://app?vid=c19ac8ed-2b4c-4ea2-a70a-3436461290de"},"vehicle_type_id":"4","last_reported":1751393661,"current_range_meters":5600,"station_id":"ce4bhbh2rcd13ifvqeo0","pricing_plan_id":"cebpf4jnsgd1na2vs0mg"},{"bike_id":"05a46e58-dffa-4150-b434-a50556785ed5","system_id":"levelo_inurba_marseille","lat":43.27619,"lon":5.36107,"is_reserved":false,"is_disabled":false,"rental_uris":{"android":"levelo://app?vid=05a46e58-dffa-4150-b434-a50556785ed5","ios":"levelo://app?vid=05a46e58-dffa-4150-b434-a50556785ed5"},"vehicle_type_id":"4","last_reported":1751393661,"current_range_meters":6000,"station_id":"ce4bgj92rcd13ifvqbe0","pricing_plan_id":"cebpf4jnsgd1na2vs0mg"},{"bike_id":"73dbe1bd-10e8-4b25-95c4-db50a0117a48","system_id":"levelo_inurba_marseille","lat":43.31178,"lon":5.38732,"is_reserved":false,"is_disabled":false,"rental_uris":{"android":"levelo://app?vid=73dbe1bd-10e8-4b25-95c4-db50a0117a48","ios":"levelo://app?vid=73dbe1bd-10e8-4b25-95c4-db50a0117a48"},"vehicle_type_id":"4","last_reported":1751393661,"current_range_meters":6000,"station_id":"ce4bgv12rcd13ifvqcp0","pricing_plan_id":"cebpf4jnsgd1na2vs0mg"},{"bike_id":"dfd578c6-3028-47d8-bab5-a52655cbc8c2","system_id":"levelo_inurba_marseille","lat":43.21754,"lon":5.34609,"is_reserved":false,"is_disabled":false,"rental_uris":{"android":"levelo://app?vid=dfd578c6-3028-47d8-bab5-a52655cbc8c2","ios":"levelo://app?vid=dfd578c6-3028-47d8-bab5-a52655cbc8c2"},"vehicle_type_id":"4","last_reported":1751393661,"current_range_meters":6000,"station_id":"st_cvj6r9ubvosntc0bgbag","pricing_plan_id":"cebpf4jnsgd1na2vs0mg"},{"bike_id":"6abfa348-d305-489d-b791-feb11c7e02ba","system_id":"levelo_inurba_marseille","lat":43.30255,"lon":5.40072,"is_reserved":false,"is_disabled":false,"rental_uris":{"android":"levelo://app?vid=6abfa348-d305-489d-b791-feb11c7e02ba","ios":"levelo://app?vid=6abfa348-d305-489d-b791-feb11c7e02ba"},"vehicle_type_id":"4","last_reported":1751393661,"current_range_meters":6400,"station_id":"ce4bgvh2rcd13ifvqcs0","pricing_plan_id":"cebpf4jnsgd1na2vs0mg"},{"bike_id":"f5c16f07-bc6f-4121-91a7-5ad90eec4f34","system_id":"levelo_inurba_marseille","lat":43.31188,"lon":5.37338,"is_reserved":false,"is_disabled":false,"rental_uris":{"android":"levelo://app?vid=f5c16f07-bc6f-4121-91a7-5ad90eec4f34","ios":"levelo://app?vid=f5c16f07-bc6f-4121-91a7-5ad90eec4f34"},"vehicle_type_id":"4","last_reported":1751393661,"current_range_meters":6800,"station_id":"","pricing_plan_id":"cebpf4jnsgd1na2vs0mg"},{"bike_id":"6080e335-ba7e-45fd-b7fa-4a244e5ee3c3","system_id":"levelo_inurba_marseille","lat":43.299789,"lon":5.384852,"is_reserved":false,"is_disabled":false,"rental_uris":{"android":"levelo://app?vid=6080e335-ba7e-45fd-b7fa-4a244e5ee3c3","ios":"levelo://app?vid=6080e335-ba7e-45fd-b7fa-4a244e5ee3c3"},"vehicle_type_id":"4","last_reported":1751393661,"current_range_meters":6800,"station_id":"ce4bgj92rcd13ifvqbd0","pricing_plan_id":"cebpf4jnsgd1na2vs0mg"},{"bike_id":"69ccb601-0626-403c-bb47-ad2a0197e32c","system_id":"levelo_inurba_marseille","lat":43.31492,"lon":5.37304,"is_reserved":false,"is_disabled":false,"rental_uris":{"android":"levelo://app?vid=69ccb601-0626-403c-bb47-ad2a0197e32c","ios":"levelo://app?vid=69ccb601-0626-403c-bb47-ad2a0197e32c"},"vehicle_type_id":"4","last_reported":1751393661,"current_range_meters":6800,"station_id":"ce4bgt12rcd13ifvqcd0","pricing_plan_id":"cebpf4jnsgd1na2vs0mg"},{"bike_id":"8f791033-4a67-4f5b-afa9-387dbf72c686","system_id":"levelo_inurba_marseille","lat":43.28865,"lon":5.35853,"is_reserved":false,"is_disabled":false,"rental_uris":{"android":"levelo://app?vid=8f791033-4a67-4f5b-afa9-387dbf72c686","ios":"levelo://app?vid=8f791033-4a67-4f5b-afa9-387dbf72c686"},"vehicle_type_id":"4","last_reported":1751393661,"current_range_meters":6800,"station_id":"ce4bhb12rcd13ifvqem0","pricing_plan_id":"cebpf4jnsgd1na2vs0mg"},{"bike_id":"a21c25ce-affb-4227-9729-731b63d9cc0f","system_id":"levelo_inurba_marseille","lat":43.26215,"lon":5.37438,"is_reserved":false,"is_disabled":false,"rental_uris":{"android":"levelo://app?vid=a21c25ce-affb-4227-9729-731b63d9cc0f","ios":"levelo://app?vid=a21c25ce-affb-4227-9729-731b63d9cc0f"},"vehicle_type_id":"4","last_reported":1751393661,"current_range_meters":6800,"station_id":"ce4bhgp2rcd13ifvqfc0","pricing_plan_id":"cebpf4jnsgd1na2vs0mg"},{"bike_id":"df5858b0-15af-4ac0-831b-855f712ce1a3","system_id":"levelo_inurba_marseille","lat":43.25103,"lon":5.40295,"is_reserved":false,"is_disabled":false,"rental_uris":{"android":"levelo://app?vid=df5858b0-15af-4ac0-831b-855f712ce1a3","ios":"levelo://app?vid=df5858b0-15af-4ac0-831b-855f712ce1a3"},"vehicle_type_id":"4","last_reported":1751393661,"current_range_meters":6800,"station_id":"ce4bhlh2rcd13ifvqgig","pricing_plan_id":"cebpf4jnsgd1na2vs0mg"},{"bike_id":"11590693-8f59-403f-8233-36266dcb0ddf","system_id":"levelo_inurba_marseille","lat":43.21754,"lon":5.3459,"is_reserved":false,"is_disabled":false,"rental_uris":{"android":"levelo://app?vid=11590693-8f59-403f-8233-36266dcb0ddf","ios":"levelo://app?vid=11590693-8f59-403f-8233-36266dcb0ddf"},"vehicle_type_id":"4","last_reported":1751393661,"current_range_meters":6800,"station_id":"st_cvj6r9ubvosntc0bgbag","pricing_plan_id":"cebpf4jnsgd1na2vs0mg"},{"bike_id":"a2017121-8342-439c-9853-789b6ff0806f","system_id":"levelo_inurba_marseille","lat":43.21229,"lon":5.35038,"is_reserved":false,"is_disabled":false,"rental_uris":{"android":"levelo://app?vid=a2017121-8342-439c-9853-789b6ff0806f","ios":"levelo://app?vid=a2017121-8342-439c-9853-789b6ff0806f"},"vehicle_type_id":"4","last_reported":1751393661,"current_range_meters":7200,"station_id":"","pricing_plan_id":"cebpf4jnsgd1na2vs0mg"},{"bike_id":"43fcb430-53f7-4349-b49c-62f8e6ea8db4","system_id":"levelo_inurba_marseille","lat":43.28456,"lon":5.43679,"is_reserved":false,"is_disabled":false,"rental_uris":{"android":"levelo://app?vid=43fcb430-53f7-4349-b49c-62f8e6ea8db4","ios":"levelo://app?vid=43fcb430-53f7-4349-b49c-62f8e6ea8db4"},"vehicle_type_id":"4","last_reported":1751393661,"current_range_meters":7200,"station_id":"","pricing_plan_id":"cebpf4jnsgd1na2vs0mg"},{"bike_id":"053e5000-7d88-4622-be2b-608f186dff8e","system_id":"levelo_inurba_marseille","lat":43.2901,"lon":5.35611,"is_reserved":false,"is_disabled":false,"rental_uris":{"android":"levelo://app?vid=053e5000-7d88-4622-be2b-608f186dff8e","ios":"levelo://app?vid=053e5000-7d88-4622-be2b-608f186dff8e"},"vehicle_type_id":"4","last_reported":1751393661,"current_range_meters":7200,"station_id":"ce4bhb92rcd13ifvqen0","pricing_plan_id":"cebpf4jnsgd1na2vs0mg"},{"bike_id":"0c6ae301-229f-4f7c-8819-5d4b02135b47","system_id":"levelo_inurba_marseille","lat":43.26942,"lon":5.40243,"is_reserved":false,"is_disabled":false,"rental_uris":{"android":"levelo://app?vid=0c6ae301-229f-4f7c-8819-5d4b02135b47","ios":"levelo://app?vid=0c6ae301-229f-4f7c-8819-5d4b02135b47"},"vehicle_type_id":"4","last_reported":1751393661,"current_range_meters":7200,"station_id":"cjm6bp8fraef2m0cb0m0","pricing_plan_id":"cebpf4jnsgd1na2vs0mg"},{"bike_id":"f02db0e7-9fc1-4c1c-be86-b8ab4519dfca","system_id":"levelo_inurba_marseille","lat":43.25139,"lon":5.40394,"is_reserved":false,"is_disabled":false,"rental_uris":{"android":"levelo://app?vid=f02db0e7-9fc1-4c1c-be86-b8ab4519dfca","ios":"levelo://app?vid=f02db0e7-9fc1-4c1c-be86-b8ab4519dfca"},"vehicle_type_id":"4","last_reported":1751393661,"current_range_meters":8000,"station_id":"","pricing_plan_id":"cebpf4jnsgd1na2vs0mg"},{"bike_id":"a90b8d7c-37fd-48a3-b51c-c6f4ab67fafd","system_id":"levelo_inurba_marseille","lat":43.25727,"lon":5.41105,"is_reserved":false,"is_disabled":false,"rental_uris":{"android":"levelo://app?vid=a90b8d7c-37fd-48a3-b51c-c6f4ab67fafd","ios":"levelo://app?vid=a90b8d7c-37fd-48a3-b51c-c6f4ab67fafd"},"vehicle_type_id":"4","last_reported":1751393661,"current_range_meters":8400,"station_id":"ce4bhkp2rcd13ifvqgd0","pricing_plan_id":"cebpf4jnsgd1na2vs0mg"},{"bike_id":"528c96a0-c895-42dc-9cb3-689fcbb509fc","system_id":"levelo_inurba_marseille","lat":43.31537,"lon":5.38029,"is_reserved":false,"is_disabled":false,"rental_uris":{"android":"levelo://app?vid=528c96a0-c895-42dc-9cb3-689fcbb509fc","ios":"levelo://app?vid=528c96a0-c895-42dc-9cb3-689fcbb509fc"},"vehicle_type_id":"4","last_reported":1751393661,"current_range_meters":8400,"station_id":"ce4bhsp2rcd13ifvqi50","pricing_plan_id":"cebpf4jnsgd1na2vs0mg"},{"bike_id":"8252b44a-d048-4379-9209-2efa2e627825","system_id":"levelo_inurba_marseille","lat":43.2924,"lon":5.40562,"is_reserved":false,"is_disabled":false,"rental_uris":{"android":"levelo://app?vid=8252b44a-d048-4379-9209-2efa2e627825","ios":"levelo://app?vid=8252b44a-d048-4379-9209-2efa2e627825"},"vehicle_type_id":"4","last_reported":1751393661,"current_range_meters":8800,"station_id":"","pricing_plan_id":"cebpf4jnsgd1na2vs0mg"},{"bike_id":"860ecc02-a6d5-4fbe-ada6-b9197deada15","system_id":"levelo_inurba_marseille","lat":43.32549,"lon":5.38964,"is_reserved":false,"is_disabled":false,"rental_uris":{"android":"levelo://app?vid=860ecc02-a6d5-4fbe-ada6-b9197deada15","ios":"levelo://app?vid=860ecc02-a6d5-4fbe-ada6-b9197deada15"},"vehicle_type_id":"4","last_reported":1751393661,"current_range_meters":8800,"station_id":"","pricing_plan_id":"cebpf4jnsgd1na2vs0mg"},{"bike_id":"f60c58a5-3c9c-40a6-9690-25ae159763aa","system_id":"levelo_inurba_marseille","lat":43.29043,"lon":5.38119,"is_reserved":false,"is_disabled":false,"rental_uris":{"android":"levelo://app?vid=f60c58a5-3c9c-40a6-9690-25ae159763aa","ios":"levelo://app?vid=f60c58a5-3c9c-40a6-9690-25ae159763aa"},"vehicle_type_id":"4","last_reported":1751393661,"current_range_meters":8800,"station_id":"ce4bh4p2rcd13ifvqe1g","pricing_plan_id":"cebpf4jnsgd1na2vs0mg"},{"bike_id":"20744361-10b4-466b-8c27-65d989ee9863","system_id":"levelo_inurba_marseille","lat":43.28619,"lon":5.35111,"is_reserved":false,"is_disabled":false,"rental_uris":{"android":"levelo://app?vid=20744361-10b4-466b-8c27-65d989ee9863","ios":"levelo://app?vid=20744361-10b4-466b-8c27-65d989ee9863"},"vehicle_type_id":"4","last_reported":1751393661,"current_range_meters":8800,"station_id":"ce4bhch2rcd13ifvqeug","pricing_plan_id":"cebpf4jnsgd1na2vs0mg"},{"bike_id":"6a0b89c2-53b9-4cf5-bef9-66cd22d28ccd","system_id":"levelo_inurba_marseille","lat":43.26209,"lon":5.3744,"is_reserved":false,"is_disabled":false,"rental_uris":{"android":"levelo://app?vid=6a0b89c2-53b9-4cf5-bef9-66cd22d28ccd","ios":"levelo://app?vid=6a0b89c2-53b9-4cf5-bef9-66cd22d28ccd"},"vehicle_type_id":"4","last_reported":1751393661,"current_range_meters":8800,"station_id":"ce4bhgp2rcd13ifvqfc0","pricing_plan_id":"cebpf4jnsgd1na2vs0mg"},{"bike_id":"07778bc8-b31d-42eb-92b2-7fa43f6755aa","system_id":"levelo_inurba_marseille","lat":43.27835,"lon":5.39216,"is_reserved":false,"is_disabled":false,"rental_uris":{"android":"levelo://app?vid=07778bc8-b31d-42eb-92b2-7fa43f6755aa","ios":"levelo://app?vid=07778bc8-b31d-42eb-92b2-7fa43f6755aa"},"vehicle_type_id":"4","last_reported":1751393661,"current_range_meters":8800,"station_id":"ce4bhjp2rcd13ifvqga0","pricing_plan_id":"cebpf4jnsgd1na2vs0mg"},{"bike_id":"252598c3-3c4a-4eff-a16e-1ef0af2219e3","system_id":"levelo_inurba_marseille","lat":43.28155,"lon":5.4264,"is_reserved":false,"is_disabled":false,"rental_uris":{"android":"levelo://app?vid=252598c3-3c4a-4eff-a16e-1ef0af2219e3","ios":"levelo://app?vid=252598c3-3c4a-4eff-a16e-1ef0af2219e3"},"vehicle_type_id":"4","last_reported":1751393661,"current_range_meters":8800,"station_id":"ce4bhnh2rcd13ifvqgug","pricing_plan_id":"cebpf4jnsgd1na2vs0mg"},{"bike_id":"becf88ff-ace8-41ba-8854-b05a74a51f74","system_id":"levelo_inurba_marseille","lat":43.31883,"lon":5.40737,"is_reserved":false,"is_disabled":false,"rental_uris":{"android":"levelo://app?vid=becf88ff-ace8-41ba-8854-b05a74a51f74","ios":"levelo://app?vid=becf88ff-ace8-41ba-8854-b05a74a51f74"},"vehicle_type_id":"4","last_reported":1751393661,"current_range_meters":8800,"station_id":"ce4bhq12rcd13ifvqhig","pricing_plan_id":"cebpf4jnsgd1na2vs0mg"},{"bike_id":"14b63f6e-607e-4fe4-a31b-e49f3d3264d3","system_id":"levelo_inurba_marseille","lat":43.32294,"lon":5.38272,"is_reserved":false,"is_disabled":false,"rental_uris":{"android":"levelo://app?vid=14b63f6e-607e-4fe4-a31b-e49f3d3264d3","ios":"levelo://app?vid=14b63f6e-607e-4fe4-a31b-e49f3d3264d3"},"vehicle_type_id":"4","last_reported":1751393661,"current_range_meters":8800,"station_id":"ce4bhr12rcd13ifvqhqg","pricing_plan_id":"cebpf4jnsgd1na2vs0mg"},{"bike_id":"08846d3c-5437-4166-a6f8-98b6e45ce096","system_id":"levelo_inurba_marseille","lat":43.29571,"lon":5.39982,"is_reserved":false,"is_disabled":false,"rental_uris":{"android":"levelo://app?vid=08846d3c-5437-4166-a6f8-98b6e45ce096","ios":"levelo://app?vid=08846d3c-5437-4166-a6f8-98b6e45ce096"},"vehicle_type_id":"4","last_reported":1751393661,"current_range_meters":9200,"station_id":"ce4bh312rcd13ifvqdj0","pricing_plan_id":"cebpf4jnsgd1na2vs0mg"},{"bike_id":"f54568da-17e1-494f-9b79-075c724f82e3","system_id":"levelo_inurba_marseille","lat":43.25497,"lon":5.37647,"is_reserved":false,"is_disabled":false,"rental_uris":{"android":"levelo://app?vid=f54568da-17e1-494f-9b79-075c724f82e3","ios":"levelo://app?vid=f54568da-17e1-494f-9b79-075c724f82e3"},"vehicle_type_id":"4","last_reported":1751393661,"current_range_meters":9200,"station_id":"ce4bhh12rcd13ifvqff0","pricing_plan_id":"cebpf4jnsgd1na2vs0mg"},{"bike_id":"b725a8e3-08bc-4ff2-ae6a-723b6a9e40d0","system_id":"levelo_inurba_marseille","lat":43.26207,"lon":5.37913,"is_reserved":false,"is_disabled":false,"rental_uris":{"android":"levelo://app?vid=b725a8e3-08bc-4ff2-ae6a-723b6a9e40d0","ios":"levelo://app?vid=b725a8e3-08bc-4ff2-ae6a-723b6a9e40d0"},"vehicle_type_id":"4","last_reported":1751393661,"current_range_meters":9200,"station_id":"ce4bhjp2rcd13ifvqg90","pricing_plan_id":"cebpf4jnsgd1na2vs0mg"},{"bike_id":"6b04a8db-f012-4ea9-88f5-d59ff3f24fd9","system_id":"levelo_inurba_marseille","lat":43.29903,"lon":5.43674,"is_reserved":false,"is_disabled":false,"rental_uris":{"android":"levelo://app?vid=6b04a8db-f012-4ea9-88f5-d59ff3f24fd9","ios":"levelo://app?vid=6b04a8db-f012-4ea9-88f5-d59ff3f24fd9"},"vehicle_type_id":"4","last_reported":1751393661,"current_range_meters":9200,"station_id":"ce4bhpp2rcd13ifvqhfg","pricing_plan_id":"cebpf4jnsgd1na2vs0mg"},{"bike_id":"8e35fc35-dbd1-4387-8dcc-c4cb07b610fb","system_id":"levelo_inurba_marseille","lat":43.31994,"lon":5.38164,"is_reserved":false,"is_disabled":false,"rental_uris":{"android":"levelo://app?vid=8e35fc35-dbd1-4387-8dcc-c4cb07b610fb","ios":"levelo://app?vid=8e35fc35-dbd1-4387-8dcc-c4cb07b610fb"},"vehicle_type_id":"4","last_reported":1751393661,"current_range_meters":9200,"station_id":"ce4bhr12rcd13ifvqhpg","pricing_plan_id":"cebpf4jnsgd1na2vs0mg"},{"bike_id":"306eb33e-8f50-4c2b-8c1d-e3c1d1d6a295","system_id":"levelo_inurba_marseille","lat":43.31547,"lon":5.38025,"is_reserved":false,"is_disabled":false,"rental_uris":{"android":"levelo://app?vid=306eb33e-8f50-4c2b-8c1d-e3c1d1d6a295","ios":"levelo://app?vid=306eb33e-8f50-4c2b-8c1d-e3c1d1d6a295"},"vehicle_type_id":"4","last_reported":1751393661,"current_range_meters":9200,"station_id":"ce4bhsp2rcd13ifvqi50","pricing_plan_id":"cebpf4jnsgd1na2vs0mg"},{"bike_id":"b2ec7371-4e1a-4f7b-ae6c-60c5a54c237b","system_id":"levelo_inurba_marseille","lat":43.212356,"lon":5.35073,"is_reserved":false,"is_disabled":false,"rental_uris":{"android":"levelo://app?vid=b2ec7371-4e1a-4f7b-ae6c-60c5a54c237b","ios":"levelo://app?vid=b2ec7371-4e1a-4f7b-ae6c-60c5a54c237b"},"vehicle_type_id":"4","last_reported":1751393661,"current_range_meters":9600,"station_id":"","pricing_plan_id":"cebpf4jnsgd1na2vs0mg"},{"bike_id":"533e436b-7060-40f0-b39e-65ab22b8697d","system_id":"levelo_inurba_marseille","lat":43.2827,"lon":5.3506,"is_reserved":false,"is_disabled":false,"rental_uris":{"android":"levelo://app?vid=533e436b-7060-40f0-b39e-65ab22b8697d","ios":"levelo://app?vid=533e436b-7060-40f0-b39e-65ab22b8697d"},"vehicle_type_id":"4","last_reported":1751393661,"current_range_meters":9600,"station_id":"ce4bhbp2rcd13ifvqerg","pricing_plan_id":"cebpf4jnsgd1na2vs0mg"},{"bike_id":"33446206-1957-4657-9acf-19dca7180168","system_id":"levelo_inurba_marseille","lat":43.26195,"lon":5.37448,"is_reserved":false,"is_disabled":false,"rental_uris":{"android":"levelo://app?vid=33446206-1957-4657-9acf-19dca7180168","ios":"levelo://app?vid=33446206-1957-4657-9acf-19dca7180168"},"vehicle_type_id":"4","last_reported":1751393661,"current_range_meters":9600,"station_id":"ce4bhgp2rcd13ifvqfc0","pricing_plan_id":"cebpf4jnsgd1na2vs0mg"},{"bike_id":"897936ce-0b4c-4588-866b-5964da1b1523","system_id":"levelo_inurba_marseille","lat":43.27066,"lon":5.42271,"is_reserved":false,"is_disabled":false,"rental_uris":{"android":"levelo://app?vid=897936ce-0b4c-4588-866b-5964da1b1523","ios":"levelo://app?vid=897936ce-0b4c-4588-866b-5964da1b1523"},"vehicle_type_id":"4","last_reported":1751393661,"current_range_meters":9600,"station_id":"ce4bhk92rcd13ifvqgb0","pricing_plan_id":"cebpf4jnsgd1na2vs0mg"},{"bike_id":"1529f1c4-89b1-4a5b-aa6e-1b93231ae05a","system_id":"levelo_inurba_marseille","lat":43.31527,"lon":5.3803,"is_reserved":false,"is_disabled":false,"rental_uris":{"android":"levelo://app?vid=1529f1c4-89b1-4a5b-aa6e-1b93231ae05a","ios":"levelo://app?vid=1529f1c4-89b1-4a5b-aa6e-1b93231ae05a"},"vehicle_type_id":"4","last_reported":1751393661,"current_range_meters":9600,"station_id":"ce4bhsp2rcd13ifvqi50","pricing_plan_id":"cebpf4jnsgd1na2vs0mg"},{"bike_id":"5fba6177-aa78-4856-9366-e4781b44d7ab","system_id":"levelo_inurba_marseille","lat":43.23191,"lon":5.35558,"is_reserved":false,"is_disabled":false,"rental_uris":{"android":"levelo://app?vid=5fba6177-aa78-4856-9366-e4781b44d7ab","ios":"levelo://app?vid=5fba6177-aa78-4856-9366-e4781b44d7ab"},"vehicle_type_id":"4","last_reported":1751393661,"current_range_meters":9600,"station_id":"ce4bhu92rcd13ifvqi70","pricing_plan_id":"cebpf4jnsgd1na2vs0mg"},{"bike_id":"768b7ffe-4e12-4d61-aa82-7373bd1422bc","system_id":"levelo_inurba_marseille","lat":43.29529,"lon":5.3854,"is_reserved":false,"is_disabled":false,"rental_uris":{"android":"levelo://app?vid=768b7ffe-4e12-4d61-aa82-7373bd1422bc","ios":"levelo://app?vid=768b7ffe-4e12-4d61-aa82-7373bd1422bc"},"vehicle_type_id":"4","last_reported":1751393661,"current_range_meters":10000,"station_id":"ce4bgih2rcd13ifvqba0","pricing_plan_id":"cebpf4jnsgd1na2vs0mg"},{"bike_id":"00cbd3e8-f5fb-417b-8bc8-c852bb8cc6fc","system_id":"levelo_inurba_marseille","lat":43.294141,"lon":5.386816,"is_reserved":false,"is_disabled":false,"rental_uris":{"android":"levelo://app?vid=00cbd3e8-f5fb-417b-8bc8-c852bb8cc6fc","ios":"levelo://app?vid=00cbd3e8-f5fb-417b-8bc8-c852bb8cc6fc"},"vehicle_type_id":"4","last_reported":1751393661,"current_range_meters":10000,"station_id":"ce4bgih2rcd13ifvqba0","pricing_plan_id":"cebpf4jnsgd1na2vs0mg"},{"bike_id":"78d12b79-d8f2-43b1-9786-ca70a1e91157","system_id":"levelo_inurba_marseille","lat":43.30307,"lon":5.368896,"is_reserved":false,"is_disabled":false,"rental_uris":{"android":"levelo://app?vid=78d12b79-d8f2-43b1-9786-ca70a1e91157","ios":"levelo://app?vid=78d12b79-d8f2-43b1-9786-ca70a1e91157"},"vehicle_type_id":"4","last_reported":1751393661,"current_range_meters":10000,"station_id":"ce4bgqh2rcd13ifvqc5g","pricing_plan_id":"cebpf4jnsgd1na2vs0mg"},{"bike_id":"fe69472d-c21a-491e-86f2-d6d2e849a241","system_id":"levelo_inurba_marseille","lat":43.28616,"lon":5.35095,"is_reserved":false,"is_disabled":false,"rental_uris":{"android":"levelo://app?vid=fe69472d-c21a-491e-86f2-d6d2e849a241","ios":"levelo://app?vid=fe69472d-c21a-491e-86f2-d6d2e849a241"},"vehicle_type_id":"4","last_reported":1751393661,"current_range_meters":10000,"station_id":"ce4bhch2rcd13ifvqeug","pricing_plan_id":"cebpf4jnsgd1na2vs0mg"},{"bike_id":"8fb72fa9-b78e-4af6-82f5-d33e8af1b452","system_id":"levelo_inurba_marseille","lat":43.247682,"lon":5.374225,"is_reserved":false,"is_disabled":false,"rental_uris":{"android":"levelo://app?vid=8fb72fa9-b78e-4af6-82f5-d33e8af1b452","ios":"levelo://app?vid=8fb72fa9-b78e-4af6-82f5-d33e8af1b452"},"vehicle_type_id":"4","last_reported":1751393661,"current_range_meters":10000,"station_id":"ce4bhgh2rcd13ifvqfb0","pricing_plan_id":"cebpf4jnsgd1na2vs0mg"},{"bike_id":"3785b536-371c-4bc9-ad0a-4973aeedff7c","system_id":"levelo_inurba_marseille","lat":43.25495,"lon":5.37646,"is_reserved":false,"is_disabled":false,"rental_uris":{"android":"levelo://app?vid=3785b536-371c-4bc9-ad0a-4973aeedff7c","ios":"levelo://app?vid=3785b536-371c-4bc9-ad0a-4973aeedff7c"},"vehicle_type_id":"4","last_reported":1751393661,"current_range_meters":10000,"station_id":"ce4bhh12rcd13ifvqff0","pricing_plan_id":"cebpf4jnsgd1na2vs0mg"},{"bike_id":"8f10a9ab-b2d1-48a1-84c5-75424f1b18f7","system_id":"levelo_inurba_marseille","lat":43.21195,"lon":5.35072,"is_reserved":false,"is_disabled":false,"rental_uris":{"android":"levelo://app?vid=8f10a9ab-b2d1-48a1-84c5-75424f1b18f7","ios":"levelo://app?vid=8f10a9ab-b2d1-48a1-84c5-75424f1b18f7"},"vehicle_type_id":"4","last_reported":1751393661,"current_range_meters":10000,"station_id":"st_cvj6sg6p6f1abm77japg","pricing_plan_id":"cebpf4jnsgd1na2vs0mg"},{"bike_id":"740ac0ef-610d-411b-99f7-b82d79bc2c50","system_id":"levelo_inurba_marseille","lat":43.293096,"lon":5.371781,"is_reserved":false,"is_disabled":false,"rental_uris":{"android":"levelo://app?vid=740ac0ef-610d-411b-99f7-b82d79bc2c50","ios":"levelo://app?vid=740ac0ef-610d-411b-99f7-b82d79bc2c50"},"vehicle_type_id":"4","last_reported":1751393661,"current_range_meters":10800,"station_id":"ce4bgh92rcd13ifvqb40","pricing_plan_id":"cebpf4jnsgd1na2vs0mg"},{"bike_id":"82f98311-6b9a-4562-955b-b127f9ce0f29","system_id":"levelo_inurba_marseille","lat":43.28621,"lon":5.35108,"is_reserved":false,"is_disabled":false,"rental_uris":{"android":"levelo://app?vid=82f98311-6b9a-4562-955b-b127f9ce0f29","ios":"levelo://app?vid=82f98311-6b9a-4562-955b-b127f9ce0f29"},"vehicle_type_id":"4","last_reported":1751393661,"current_range_meters":10800,"station_id":"ce4bhch2rcd13ifvqeug","pricing_plan_id":"cebpf4jnsgd1na2vs0mg"},{"bike_id":"3522b5fa-04f1-4639-bee8-dce946564556","system_id":"levelo_inurba_marseille","lat":43.25108,"lon":5.40331,"is_reserved":false,"is_disabled":false,"rental_uris":{"android":"levelo://app?vid=3522b5fa-04f1-4639-bee8-dce946564556","ios":"levelo://app?vid=3522b5fa-04f1-4639-bee8-dce946564556"},"vehicle_type_id":"4","last_reported":1751393661,"current_range_meters":10800,"station_id":"ce4bhlh2rcd13ifvqgig","pricing_plan_id":"cebpf4jnsgd1na2vs0mg"},{"bike_id":"877a3f78-5530-4ad6-94f8-4b9ae05c46da","system_id":"levelo_inurba_marseille","lat":43.23151,"lon":5.43688,"is_reserved":false,"is_disabled":false,"rental_uris":{"android":"levelo://app?vid=877a3f78-5530-4ad6-94f8-4b9ae05c46da","ios":"levelo://app?vid=877a3f78-5530-4ad6-94f8-4b9ae05c46da"},"vehicle_type_id":"4","last_reported":1751393661,"current_range_meters":10800,"station_id":"ce4bhmp2rcd13ifvqgog","pricing_plan_id":"cebpf4jnsgd1na2vs0mg"},{"bike_id":"3e8ac56a-9b55-4417-a4ae-9d90eed8a817","system_id":"levelo_inurba_marseille","lat":43.32055,"lon":5.41543,"is_reserved":false,"is_disabled":false,"rental_uris":{"android":"levelo://app?vid=3e8ac56a-9b55-4417-a4ae-9d90eed8a817","ios":"levelo://app?vid=3e8ac56a-9b55-4417-a4ae-9d90eed8a817"},"vehicle_type_id":"4","last_reported":1751393661,"current_range_meters":10800,"station_id":"ce4bhq92rcd13ifvqhkg","pricing_plan_id":"cebpf4jnsgd1na2vs0mg"},{"bike_id":"9137aeea-8cb9-4a10-8602-50487c7f006c","system_id":"levelo_inurba_marseille","lat":43.28711,"lon":5.40004,"is_reserved":false,"is_disabled":false,"rental_uris":{"android":"levelo://app?vid=9137aeea-8cb9-4a10-8602-50487c7f006c","ios":"levelo://app?vid=9137aeea-8cb9-4a10-8602-50487c7f006c"},"vehicle_type_id":"4","last_reported":1751393661,"current_range_meters":11200,"station_id":"ce4bho92rcd13ifvqh3g","pricing_plan_id":"cebpf4jnsgd1na2vs0mg"},{"bike_id":"b28aa0a0-791c-4a08-9a16-c7bf6ea0ed5a","system_id":"levelo_inurba_marseille","lat":43.22515,"lon":5.34768,"is_reserved":false,"is_disabled":false,"rental_uris":{"android":"levelo://app?vid=b28aa0a0-791c-4a08-9a16-c7bf6ea0ed5a","ios":"levelo://app?vid=b28aa0a0-791c-4a08-9a16-c7bf6ea0ed5a"},"vehicle_type_id":"4","last_reported":1751393661,"current_range_meters":11200,"station_id":"st_cvj5dfep6f1abm77gieg","pricing_plan_id":"cebpf4jnsgd1na2vs0mg"},{"bike_id":"c2b72fe0-bae6-4c7b-ad48-9e771b203dc8","system_id":"levelo_inurba_marseille","lat":43.313536,"lon":5.384625,"is_reserved":false,"is_disabled":false,"rental_uris":{"android":"levelo://app?vid=c2b72fe0-bae6-4c7b-ad48-9e771b203dc8","ios":"levelo://app?vid=c2b72fe0-bae6-4c7b-ad48-9e771b203dc8"},"vehicle_type_id":"4","last_reported":1751393661,"current_range_meters":11600,"station_id":"ce4bgt92rcd13ifvqcf0","pricing_plan_id":"cebpf4jnsgd1na2vs0mg"},{"bike_id":"2b051b97-cd2b-4c4b-99f1-42c2f572b63e","system_id":"levelo_inurba_marseille","lat":43.27372,"lon":5.36243,"is_reserved":false,"is_disabled":false,"rental_uris":{"android":"levelo://app?vid=2b051b97-cd2b-4c4b-99f1-42c2f572b63e","ios":"levelo://app?vid=2b051b97-cd2b-4c4b-99f1-42c2f572b63e"},"vehicle_type_id":"4","last_reported":1751393661,"current_range_meters":11600,"station_id":"ce4bhbh2rcd13ifvqeo0","pricing_plan_id":"cebpf4jnsgd1na2vs0mg"},{"bike_id":"27e3b2c9-110a-4b9f-ab6b-cabab85b55cf","system_id":"levelo_inurba_marseille","lat":43.27377,"lon":5.36254,"is_reserved":false,"is_disabled":false,"rental_uris":{"android":"levelo://app?vid=27e3b2c9-110a-4b9f-ab6b-cabab85b55cf","ios":"levelo://app?vid=27e3b2c9-110a-4b9f-ab6b-cabab85b55cf"},"vehicle_type_id":"4","last_reported":1751393661,"current_range_meters":11600,"station_id":"ce4bhbh2rcd13ifvqeo0","pricing_plan_id":"cebpf4jnsgd1na2vs0mg"},{"bike_id":"c8d22af3-962c-4207-92a8-4bbce068467f","system_id":"levelo_inurba_marseille","lat":43.28409,"lon":5.35005,"is_reserved":false,"is_disabled":false,"rental_uris":{"android":"levelo://app?vid=c8d22af3-962c-4207-92a8-4bbce068467f","ios":"levelo://app?vid=c8d22af3-962c-4207-92a8-4bbce068467f"},"vehicle_type_id":"4","last_reported":1751393661,"current_range_meters":11600,"station_id":"ce4bhbh2rcd13ifvqepg","pricing_plan_id":"cebpf4jnsgd1na2vs0mg"},{"bike_id":"bdc9577e-e8fa-4f06-963d-d64236829630","system_id":"levelo_inurba_marseille","lat":43.30377,"lon":5.4249,"is_reserved":false,"is_disabled":false,"rental_uris":{"android":"levelo://app?vid=bdc9577e-e8fa-4f06-963d-d64236829630","ios":"levelo://app?vid=bdc9577e-e8fa-4f06-963d-d64236829630"},"vehicle_type_id":"4","last_reported":1751393661,"current_range_meters":11600,"station_id":"ce4bhoh2rcd13ifvqh6g","pricing_plan_id":"cebpf4jnsgd1na2vs0mg"},{"bike_id":"b58fcd9c-f51e-487c-9cf1-49362eb3ef58","system_id":"levelo_inurba_marseille","lat":43.26264,"lon":5.37403,"is_reserved":false,"is_disabled":false,"rental_uris":{"android":"levelo://app?vid=b58fcd9c-f51e-487c-9cf1-49362eb3ef58","ios":"levelo://app?vid=b58fcd9c-f51e-487c-9cf1-49362eb3ef58"},"vehicle_type_id":"4","last_reported":1751393661,"current_range_meters":12000,"station_id":"","pricing_plan_id":"cebpf4jnsgd1na2vs0mg"},{"bike_id":"2726f14f-8d32-4e17-9b3e-62cc809675e1","system_id":"levelo_inurba_marseille","lat":43.321055,"lon":5.367788,"is_reserved":false,"is_disabled":false,"rental_uris":{"android":"levelo://app?vid=2726f14f-8d32-4e17-9b3e-62cc809675e1","ios":"levelo://app?vid=2726f14f-8d32-4e17-9b3e-62cc809675e1"},"vehicle_type_id":"4","last_reported":1751393661,"current_range_meters":12000,"station_id":"ce4bhrh2rcd13ifvqhug","pricing_plan_id":"cebpf4jnsgd1na2vs0mg"},{"bike_id":"5631c7ea-fb56-4ee9-8df0-6e0aa2f0ff30","system_id":"levelo_inurba_marseille","lat":43.24189,"lon":5.36369,"is_reserved":false,"is_disabled":false,"rental_uris":{"android":"levelo://app?vid=5631c7ea-fb56-4ee9-8df0-6e0aa2f0ff30","ios":"levelo://app?vid=5631c7ea-fb56-4ee9-8df0-6e0aa2f0ff30"},"vehicle_type_id":"4","last_reported":1751393661,"current_range_meters":12000,"station_id":"cpo36qri1sfpv3e86is0","pricing_plan_id":"cebpf4jnsgd1na2vs0mg"},{"bike_id":"ea959782-4591-4525-a547-71aa5dc459bd","system_id":"levelo_inurba_marseille","lat":43.2863,"lon":5.3509,"is_reserved":false,"is_disabled":false,"rental_uris":{"android":"levelo://app?vid=ea959782-4591-4525-a547-71aa5dc459bd","ios":"levelo://app?vid=ea959782-4591-4525-a547-71aa5dc459bd"},"vehicle_type_id":"4","last_reported":1751393661,"current_range_meters":12400,"station_id":"ce4bhch2rcd13ifvqeug","pricing_plan_id":"cebpf4jnsgd1na2vs0mg"},{"bike_id":"d8e26f78-9250-47e5-a184-50c308355141","system_id":"levelo_inurba_marseille","lat":43.26035,"lon":5.37541,"is_reserved":false,"is_disabled":false,"rental_uris":{"android":"levelo://app?vid=d8e26f78-9250-47e5-a184-50c308355141","ios":"levelo://app?vid=d8e26f78-9250-47e5-a184-50c308355141"},"vehicle_type_id":"4","last_reported":1751393661,"current_range_meters":12400,"station_id":"ce4bhgh2rcd13ifvqfa0","pricing_plan_id":"cebpf4jnsgd1na2vs0mg"},{"bike_id":"5cf4ba3a-9136-40a7-9083-41e98ddb7fd2","system_id":"levelo_inurba_marseille","lat":43.31533,"lon":5.380299,"is_reserved":false,"is_disabled":false,"rental_uris":{"android":"levelo://app?vid=5cf4ba3a-9136-40a7-9083-41e98ddb7fd2","ios":"levelo://app?vid=5cf4ba3a-9136-40a7-9083-41e98ddb7fd2"},"vehicle_type_id":"4","last_reported":1751393661,"current_range_meters":12400,"station_id":"ce4bhsp2rcd13ifvqi50","pricing_plan_id":"cebpf4jnsgd1na2vs0mg"},{"bike_id":"34ef8d19-abd3-418b-af23-9942dadb071a","system_id":"levelo_inurba_marseille","lat":43.211908,"lon":5.35067,"is_reserved":false,"is_disabled":false,"rental_uris":{"android":"levelo://app?vid=34ef8d19-abd3-418b-af23-9942dadb071a","ios":"levelo://app?vid=34ef8d19-abd3-418b-af23-9942dadb071a"},"vehicle_type_id":"4","last_reported":1751393661,"current_range_meters":12400,"station_id":"st_cvj6sg6p6f1abm77japg","pricing_plan_id":"cebpf4jnsgd1na2vs0mg"},{"bike_id":"df4497a6-5211-44f9-b40a-6baa3ffbdc6c","system_id":"levelo_inurba_marseille","lat":43.28623,"lon":5.35102,"is_reserved":false,"is_disabled":false,"rental_uris":{"android":"levelo://app?vid=df4497a6-5211-44f9-b40a-6baa3ffbdc6c","ios":"levelo://app?vid=df4497a6-5211-44f9-b40a-6baa3ffbdc6c"},"vehicle_type_id":"4","last_reported":1751393661,"current_range_meters":12800,"station_id":"ce4bhch2rcd13ifvqeug","pricing_plan_id":"cebpf4jnsgd1na2vs0mg"},{"bike_id":"c8888005-1a11-4ff3-a914-5330d050040e","system_id":"levelo_inurba_marseille","lat":43.28617,"lon":5.35099,"is_reserved":false,"is_disabled":false,"rental_uris":{"android":"levelo://app?vid=c8888005-1a11-4ff3-a914-5330d050040e","ios":"levelo://app?vid=c8888005-1a11-4ff3-a914-5330d050040e"},"vehicle_type_id":"4","last_reported":1751393661,"current_range_meters":12800,"station_id":"ce4bhch2rcd13ifvqeug","pricing_plan_id":"cebpf4jnsgd1na2vs0mg"},{"bike_id":"81992fe8-b1ca-4291-86c6-3056f2675e75","system_id":"levelo_inurba_marseille","lat":43.28437,"lon":5.34983,"is_reserved":false,"is_disabled":false,"rental_uris":{"android":"levelo://app?vid=81992fe8-b1ca-4291-86c6-3056f2675e75","ios":"levelo://app?vid=81992fe8-b1ca-4291-86c6-3056f2675e75"},"vehicle_type_id":"4","last_reported":1751393661,"current_range_meters":13600,"station_id":"ce4bhbh2rcd13ifvqepg","pricing_plan_id":"cebpf4jnsgd1na2vs0mg"},{"bike_id":"fe9ae489-5638-4995-88c4-f830a2fa5b0c","system_id":"levelo_inurba_marseille","lat":43.28156,"lon":5.42648,"is_reserved":false,"is_disabled":false,"rental_uris":{"android":"levelo://app?vid=fe9ae489-5638-4995-88c4-f830a2fa5b0c","ios":"levelo://app?vid=fe9ae489-5638-4995-88c4-f830a2fa5b0c"},"vehicle_type_id":"4","last_reported":1751393661,"current_range_meters":13600,"station_id":"ce4bhnh2rcd13ifvqgug","pricing_plan_id":"cebpf4jnsgd1na2vs0mg"},{"bike_id":"c0228700-5312-4a39-89af-ec53a5d729c5","system_id":"levelo_inurba_marseille","lat":43.28304,"lon":5.43241,"is_reserved":false,"is_disabled":false,"rental_uris":{"android":"levelo://app?vid=c0228700-5312-4a39-89af-ec53a5d729c5","ios":"levelo://app?vid=c0228700-5312-4a39-89af-ec53a5d729c5"},"vehicle_type_id":"4","last_reported":1751393661,"current_range_meters":14000,"station_id":"","pricing_plan_id":"cebpf4jnsgd1na2vs0mg"},{"bike_id":"c61036a9-1a66-4480-8bd4-cd2fb585b287","system_id":"levelo_inurba_marseille","lat":43.269816,"lon":5.405552,"is_reserved":false,"is_disabled":false,"rental_uris":{"android":"levelo://app?vid=c61036a9-1a66-4480-8bd4-cd2fb585b287","ios":"levelo://app?vid=c61036a9-1a66-4480-8bd4-cd2fb585b287"},"vehicle_type_id":"4","last_reported":1751393661,"current_range_meters":14000,"station_id":"","pricing_plan_id":"cebpf4jnsgd1na2vs0mg"},{"bike_id":"b52d6b86-9077-4452-89c5-b3a84ca0a422","system_id":"levelo_inurba_marseille","lat":43.28855,"lon":5.35841,"is_reserved":false,"is_disabled":false,"rental_uris":{"android":"levelo://app?vid=b52d6b86-9077-4452-89c5-b3a84ca0a422","ios":"levelo://app?vid=b52d6b86-9077-4452-89c5-b3a84ca0a422"},"vehicle_type_id":"4","last_reported":1751393661,"current_range_meters":14000,"station_id":"ce4bhb12rcd13ifvqem0","pricing_plan_id":"cebpf4jnsgd1na2vs0mg"},{"bike_id":"5ff643b2-ceaf-4da3-974c-bb84c287f26e","system_id":"levelo_inurba_marseille","lat":43.27369,"lon":5.36241,"is_reserved":false,"is_disabled":false,"rental_uris":{"android":"levelo://app?vid=5ff643b2-ceaf-4da3-974c-bb84c287f26e","ios":"levelo://app?vid=5ff643b2-ceaf-4da3-974c-bb84c287f26e"},"vehicle_type_id":"4","last_reported":1751393661,"current_range_meters":14000,"station_id":"ce4bhbh2rcd13ifvqeo0","pricing_plan_id":"cebpf4jnsgd1na2vs0mg"},{"bike_id":"c9c105f9-0237-44ff-ba3a-0e13e99086a3","system_id":"levelo_inurba_marseille","lat":43.28419,"lon":5.3497,"is_reserved":false,"is_disabled":false,"rental_uris":{"android":"levelo://app?vid=c9c105f9-0237-44ff-ba3a-0e13e99086a3","ios":"levelo://app?vid=c9c105f9-0237-44ff-ba3a-0e13e99086a3"},"vehicle_type_id":"4","last_reported":1751393661,"current_range_meters":14000,"station_id":"ce4bhbh2rcd13ifvqepg","pricing_plan_id":"cebpf4jnsgd1na2vs0mg"},{"bike_id":"56d3de08-12a7-4dea-a817-9cf3afdd62f6","system_id":"levelo_inurba_marseille","lat":43.25494,"lon":5.37646,"is_reserved":false,"is_disabled":false,"rental_uris":{"android":"levelo://app?vid=56d3de08-12a7-4dea-a817-9cf3afdd62f6","ios":"levelo://app?vid=56d3de08-12a7-4dea-a817-9cf3afdd62f6"},"vehicle_type_id":"4","last_reported":1751393661,"current_range_meters":14000,"station_id":"ce4bhh12rcd13ifvqff0","pricing_plan_id":"cebpf4jnsgd1na2vs0mg"},{"bike_id":"65945ded-d469-47d4-bf97-e782bb88d6cf","system_id":"levelo_inurba_marseille","lat":43.23197,"lon":5.35544,"is_reserved":false,"is_disabled":false,"rental_uris":{"android":"levelo://app?vid=65945ded-d469-47d4-bf97-e782bb88d6cf","ios":"levelo://app?vid=65945ded-d469-47d4-bf97-e782bb88d6cf"},"vehicle_type_id":"4","last_reported":1751393661,"current_range_meters":14000,"station_id":"ce4bhu92rcd13ifvqi70","pricing_plan_id":"cebpf4jnsgd1na2vs0mg"},{"bike_id":"6d2dafdb-3fed-4910-a6db-83a1227c7e5c","system_id":"levelo_inurba_marseille","lat":43.28419,"lon":5.34992,"is_reserved":false,"is_disabled":false,"rental_uris":{"android":"levelo://app?vid=6d2dafdb-3fed-4910-a6db-83a1227c7e5c","ios":"levelo://app?vid=6d2dafdb-3fed-4910-a6db-83a1227c7e5c"},"vehicle_type_id":"4","last_reported":1751393661,"current_range_meters":14400,"station_id":"ce4bhbh2rcd13ifvqepg","pricing_plan_id":"cebpf4jnsgd1na2vs0mg"},{"bike_id":"aae11252-3d45-45e5-a32a-3cde8805070e","system_id":"levelo_inurba_marseille","lat":43.28422,"lon":5.34978,"is_reserved":false,"is_disabled":false,"rental_uris":{"android":"levelo://app?vid=aae11252-3d45-45e5-a32a-3cde8805070e","ios":"levelo://app?vid=aae11252-3d45-45e5-a32a-3cde8805070e"},"vehicle_type_id":"4","last_reported":1751393661,"current_range_meters":14400,"station_id":"ce4bhbh2rcd13ifvqepg","pricing_plan_id":"cebpf4jnsgd1na2vs0mg"},{"bike_id":"498b7bb1-b713-4d30-9a74-30bf5f4e1db6","system_id":"levelo_inurba_marseille","lat":43.29223,"lon":5.36047,"is_reserved":false,"is_disabled":false,"rental_uris":{"android":"levelo://app?vid=498b7bb1-b713-4d30-9a74-30bf5f4e1db6","ios":"levelo://app?vid=498b7bb1-b713-4d30-9a74-30bf5f4e1db6"},"vehicle_type_id":"4","last_reported":1751393661,"current_range_meters":14400,"station_id":"ce4bhbh2rcd13ifvqeqg","pricing_plan_id":"cebpf4jnsgd1na2vs0mg"},{"bike_id":"6b4f0000-619e-4272-8960-23e15a591cf5","system_id":"levelo_inurba_marseille","lat":43.28619,"lon":5.35101,"is_reserved":false,"is_disabled":false,"rental_uris":{"android":"levelo://app?vid=6b4f0000-619e-4272-8960-23e15a591cf5","ios":"levelo://app?vid=6b4f0000-619e-4272-8960-23e15a591cf5"},"vehicle_type_id":"4","last_reported":1751393661,"current_range_meters":14400,"station_id":"ce4bhch2rcd13ifvqeug","pricing_plan_id":"cebpf4jnsgd1na2vs0mg"},{"bike_id":"3d03fb95-8e3b-4596-876f-491b9dec2687","system_id":"levelo_inurba_marseille","lat":43.262168,"lon":5.374407,"is_reserved":false,"is_disabled":false,"rental_uris":{"android":"levelo://app?vid=3d03fb95-8e3b-4596-876f-491b9dec2687","ios":"levelo://app?vid=3d03fb95-8e3b-4596-876f-491b9dec2687"},"vehicle_type_id":"4","last_reported":1751393661,"current_range_meters":14400,"station_id":"ce4bhgp2rcd13ifvqfc0","pricing_plan_id":"cebpf4jnsgd1na2vs0mg"},{"bike_id":"6335e18e-9829-4571-82f7-23b6ce10fe5e","system_id":"levelo_inurba_marseille","lat":43.24172,"lon":5.36385,"is_reserved":false,"is_disabled":false,"rental_uris":{"android":"levelo://app?vid=6335e18e-9829-4571-82f7-23b6ce10fe5e","ios":"levelo://app?vid=6335e18e-9829-4571-82f7-23b6ce10fe5e"},"vehicle_type_id":"4","last_reported":1751393661,"current_range_meters":14400,"station_id":"cpo36qri1sfpv3e86is0","pricing_plan_id":"cebpf4jnsgd1na2vs0mg"},{"bike_id":"86fa6ce7-8cbe-47ff-b5d3-c2b4938fd05c","system_id":"levelo_inurba_marseille","lat":43.21198,"lon":5.3509,"is_reserved":false,"is_disabled":false,"rental_uris":{"android":"levelo://app?vid=86fa6ce7-8cbe-47ff-b5d3-c2b4938fd05c","ios":"levelo://app?vid=86fa6ce7-8cbe-47ff-b5d3-c2b4938fd05c"},"vehicle_type_id":"4","last_reported":1751393661,"current_range_meters":14800,"station_id":"","pricing_plan_id":"cebpf4jnsgd1na2vs0mg"},{"bike_id":"6f5b38b0-c8b7-42ab-a114-d904ae4095f5","system_id":"levelo_inurba_marseille","lat":43.27616,"lon":5.36095,"is_reserved":false,"is_disabled":false,"rental_uris":{"android":"levelo://app?vid=6f5b38b0-c8b7-42ab-a114-d904ae4095f5","ios":"levelo://app?vid=6f5b38b0-c8b7-42ab-a114-d904ae4095f5"},"vehicle_type_id":"4","last_reported":1751393661,"current_range_meters":14800,"station_id":"ce4bgj92rcd13ifvqbe0","pricing_plan_id":"cebpf4jnsgd1na2vs0mg"},{"bike_id":"e1917940-cc37-4d7e-9846-a0245b399512","system_id":"levelo_inurba_marseille","lat":43.27374,"lon":5.36261,"is_reserved":false,"is_disabled":false,"rental_uris":{"android":"levelo://app?vid=e1917940-cc37-4d7e-9846-a0245b399512","ios":"levelo://app?vid=e1917940-cc37-4d7e-9846-a0245b399512"},"vehicle_type_id":"4","last_reported":1751393661,"current_range_meters":14800,"station_id":"ce4bhbh2rcd13ifvqeo0","pricing_plan_id":"cebpf4jnsgd1na2vs0mg"},{"bike_id":"9eb07496-515a-424d-a1b3-7c6177672a79","system_id":"levelo_inurba_marseille","lat":43.2738,"lon":5.36233,"is_reserved":false,"is_disabled":false,"rental_uris":{"android":"levelo://app?vid=9eb07496-515a-424d-a1b3-7c6177672a79","ios":"levelo://app?vid=9eb07496-515a-424d-a1b3-7c6177672a79"},"vehicle_type_id":"4","last_reported":1751393661,"current_range_meters":14800,"station_id":"ce4bhbh2rcd13ifvqeo0","pricing_plan_id":"cebpf4jnsgd1na2vs0mg"},{"bike_id":"9ffd93c8-b37e-4b37-b9ec-0f419d38372a","system_id":"levelo_inurba_marseille","lat":43.23153,"lon":5.43712,"is_reserved":false,"is_disabled":false,"rental_uris":{"android":"levelo://app?vid=9ffd93c8-b37e-4b37-b9ec-0f419d38372a","ios":"levelo://app?vid=9ffd93c8-b37e-4b37-b9ec-0f419d38372a"},"vehicle_type_id":"4","last_reported":1751393661,"current_range_meters":14800,"station_id":"ce4bhmp2rcd13ifvqgog","pricing_plan_id":"cebpf4jnsgd1na2vs0mg"},{"bike_id":"592a2345-2c9a-4b28-ae93-b9c92dde2ee0","system_id":"levelo_inurba_marseille","lat":43.28696,"lon":5.39982,"is_reserved":false,"is_disabled":false,"rental_uris":{"android":"levelo://app?vid=592a2345-2c9a-4b28-ae93-b9c92dde2ee0","ios":"levelo://app?vid=592a2345-2c9a-4b28-ae93-b9c92dde2ee0"},"vehicle_type_id":"4","last_reported":1751393661,"current_range_meters":14800,"station_id":"ce4bho92rcd13ifvqh3g","pricing_plan_id":"cebpf4jnsgd1na2vs0mg"},{"bike_id":"9eb7b207-9f04-4b9c-8bef-9397f8361032","system_id":"levelo_inurba_marseille","lat":43.31535,"lon":5.38023,"is_reserved":false,"is_disabled":false,"rental_uris":{"android":"levelo://app?vid=9eb7b207-9f04-4b9c-8bef-9397f8361032","ios":"levelo://app?vid=9eb7b207-9f04-4b9c-8bef-9397f8361032"},"vehicle_type_id":"4","last_reported":1751393661,"current_range_meters":14800,"station_id":"ce4bhsp2rcd13ifvqi50","pricing_plan_id":"cebpf4jnsgd1na2vs0mg"},{"bike_id":"db4d778a-d018-4a01-882b-1c3ea7453fd0","system_id":"levelo_inurba_marseille","lat":43.296173,"lon":5.381431,"is_reserved":false,"is_disabled":false,"rental_uris":{"android":"levelo://app?vid=db4d778a-d018-4a01-882b-1c3ea7453fd0","ios":"levelo://app?vid=db4d778a-d018-4a01-882b-1c3ea7453fd0"},"vehicle_type_id":"4","last_reported":1751393661,"current_range_meters":15200,"station_id":"ce4bgl12rcd13ifvqbo0","pricing_plan_id":"cebpf4jnsgd1na2vs0mg"},{"bike_id":"c8c5b8ae-b61b-46e3-80cf-c90432990df3","system_id":"levelo_inurba_marseille","lat":43.28421,"lon":5.37501,"is_reserved":false,"is_disabled":false,"rental_uris":{"android":"levelo://app?vid=c8c5b8ae-b61b-46e3-80cf-c90432990df3","ios":"levelo://app?vid=c8c5b8ae-b61b-46e3-80cf-c90432990df3"},"vehicle_type_id":"4","last_reported":1751393661,"current_range_meters":15200,"station_id":"ce4bh412rcd13ifvqds0","pricing_plan_id":"cebpf4jnsgd1na2vs0mg"},{"bike_id":"376cf440-277a-4353-8f75-f1a85781ee06","system_id":"levelo_inurba_marseille","lat":43.293009,"lon":5.374617,"is_reserved":false,"is_disabled":false,"rental_uris":{"android":"levelo://app?vid=376cf440-277a-4353-8f75-f1a85781ee06","ios":"levelo://app?vid=376cf440-277a-4353-8f75-f1a85781ee06"},"vehicle_type_id":"4","last_reported":1751393661,"current_range_meters":16000,"station_id":"","pricing_plan_id":"cebpf4jnsgd1na2vs0mg"},{"bike_id":"539ed013-9e80-448a-999f-a7819f54786a","system_id":"levelo_inurba_marseille","lat":43.290309,"lon":5.375668,"is_reserved":false,"is_disabled":false,"rental_uris":{"android":"levelo://app?vid=539ed013-9e80-448a-999f-a7819f54786a","ios":"levelo://app?vid=539ed013-9e80-448a-999f-a7819f54786a"},"vehicle_type_id":"4","last_reported":1751393661,"current_range_meters":16000,"station_id":"","pricing_plan_id":"cebpf4jnsgd1na2vs0mg"},{"bike_id":"39b6888d-58e4-4d91-b73c-294945f07694","system_id":"levelo_inurba_marseille","lat":43.27617,"lon":5.3611,"is_reserved":false,"is_disabled":false,"rental_uris":{"android":"levelo://app?vid=39b6888d-58e4-4d91-b73c-294945f07694","ios":"levelo://app?vid=39b6888d-58e4-4d91-b73c-294945f07694"},"vehicle_type_id":"4","last_reported":1751393661,"current_range_meters":16000,"station_id":"ce4bgj92rcd13ifvqbe0","pricing_plan_id":"cebpf4jnsgd1na2vs0mg"},{"bike_id":"1bd133a6-32c5-4068-8cff-ddbe80fd0c31","system_id":"levelo_inurba_marseille","lat":43.2738,"lon":5.362703,"is_reserved":false,"is_disabled":false,"rental_uris":{"android":"levelo://app?vid=1bd133a6-32c5-4068-8cff-ddbe80fd0c31","ios":"levelo://app?vid=1bd133a6-32c5-4068-8cff-ddbe80fd0c31"},"vehicle_type_id":"4","last_reported":1751393661,"current_range_meters":16000,"station_id":"ce4bhbh2rcd13ifvqeo0","pricing_plan_id":"cebpf4jnsgd1na2vs0mg"},{"bike_id":"df9ecd7f-0000-4b5a-88bb-cca2b3f25bf8","system_id":"levelo_inurba_marseille","lat":43.24664,"lon":5.38906,"is_reserved":false,"is_disabled":false,"rental_uris":{"android":"levelo://app?vid=df9ecd7f-0000-4b5a-88bb-cca2b3f25bf8","ios":"levelo://app?vid=df9ecd7f-0000-4b5a-88bb-cca2b3f25bf8"},"vehicle_type_id":"4","last_reported":1751393661,"current_range_meters":16000,"station_id":"ce4bhg12rcd13ifvqf60","pricing_plan_id":"cebpf4jnsgd1na2vs0mg"},{"bike_id":"a49e12f4-bea0-4cfb-b8b6-33ed0b394c5b","system_id":"levelo_inurba_marseille","lat":43.24653,"lon":5.38893,"is_reserved":false,"is_disabled":false,"rental_uris":{"android":"levelo://app?vid=a49e12f4-bea0-4cfb-b8b6-33ed0b394c5b","ios":"levelo://app?vid=a49e12f4-bea0-4cfb-b8b6-33ed0b394c5b"},"vehicle_type_id":"4","last_reported":1751393661,"current_range_meters":16000,"station_id":"ce4bhg12rcd13ifvqf60","pricing_plan_id":"cebpf4jnsgd1na2vs0mg"},{"bike_id":"3636b38f-01f6-4e16-bd93-7f786b2a0289","system_id":"levelo_inurba_marseille","lat":43.26195,"lon":5.37448,"is_reserved":false,"is_disabled":false,"rental_uris":{"android":"levelo://app?vid=3636b38f-01f6-4e16-bd93-7f786b2a0289","ios":"levelo://app?vid=3636b38f-01f6-4e16-bd93-7f786b2a0289"},"vehicle_type_id":"4","last_reported":1751393661,"current_range_meters":16000,"station_id":"ce4bhgp2rcd13ifvqfc0","pricing_plan_id":"cebpf4jnsgd1na2vs0mg"},{"bike_id":"4885ce13-1691-4ab1-8f84-23edfb3318ba","system_id":"levelo_inurba_marseille","lat":43.23197,"lon":5.35546,"is_reserved":false,"is_disabled":false,"rental_uris":{"android":"levelo://app?vid=4885ce13-1691-4ab1-8f84-23edfb3318ba","ios":"levelo://app?vid=4885ce13-1691-4ab1-8f84-23edfb3318ba"},"vehicle_type_id":"4","last_reported":1751393661,"current_range_meters":16000,"station_id":"ce4bhu92rcd13ifvqi70","pricing_plan_id":"cebpf4jnsgd1na2vs0mg"},{"bike_id":"9bd0f57a-6c4c-4a64-9cc4-8a220fb4bcdd","system_id":"levelo_inurba_marseille","lat":43.23054,"lon":5.35491,"is_reserved":false,"is_disabled":false,"rental_uris":{"android":"levelo://app?vid=9bd0f57a-6c4c-4a64-9cc4-8a220fb4bcdd","ios":"levelo://app?vid=9bd0f57a-6c4c-4a64-9cc4-8a220fb4bcdd"},"vehicle_type_id":"4","last_reported":1751393661,"current_range_meters":16000,"station_id":"cpo3342slgdg3j2ifvpg","pricing_plan_id":"cebpf4jnsgd1na2vs0mg"},{"bike_id":"3f0d1be3-df8c-406a-874a-8ed33449ff76","system_id":"levelo_inurba_marseille","lat":43.29108,"lon":5.35585,"is_reserved":false,"is_disabled":false,"rental_uris":{"android":"levelo://app?vid=3f0d1be3-df8c-406a-874a-8ed33449ff76","ios":"levelo://app?vid=3f0d1be3-df8c-406a-874a-8ed33449ff76"},"vehicle_type_id":"4","last_reported":1751393661,"current_range_meters":16400,"station_id":"","pricing_plan_id":"cebpf4jnsgd1na2vs0mg"},{"bike_id":"60aed5b4-04a7-4930-a9c4-5540cdbcfb8b","system_id":"levelo_inurba_marseille","lat":43.33779,"lon":5.37432,"is_reserved":false,"is_disabled":false,"rental_uris":{"android":"levelo://app?vid=60aed5b4-04a7-4930-a9c4-5540cdbcfb8b","ios":"levelo://app?vid=60aed5b4-04a7-4930-a9c4-5540cdbcfb8b"},"vehicle_type_id":"4","last_reported":1751393661,"current_range_meters":16400,"station_id":"","pricing_plan_id":"cebpf4jnsgd1na2vs0mg"},{"bike_id":"a0cef316-ad95-4855-8f78-a31341a2b90e","system_id":"levelo_inurba_marseille","lat":43.31279,"lon":5.37883,"is_reserved":false,"is_disabled":false,"rental_uris":{"android":"levelo://app?vid=a0cef316-ad95-4855-8f78-a31341a2b90e","ios":"levelo://app?vid=a0cef316-ad95-4855-8f78-a31341a2b90e"},"vehicle_type_id":"4","last_reported":1751393661,"current_range_meters":16400,"station_id":"","pricing_plan_id":"cebpf4jnsgd1na2vs0mg"},{"bike_id":"1515ff60-a568-42a6-a725-4aeb6dc85800","system_id":"levelo_inurba_marseille","lat":43.292633,"lon":5.376344,"is_reserved":false,"is_disabled":false,"rental_uris":{"android":"levelo://app?vid=1515ff60-a568-42a6-a725-4aeb6dc85800","ios":"levelo://app?vid=1515ff60-a568-42a6-a725-4aeb6dc85800"},"vehicle_type_id":"4","last_reported":1751393661,"current_range_meters":16400,"station_id":"ce4bgi12rcd13ifvqb80","pricing_plan_id":"cebpf4jnsgd1na2vs0mg"},{"bike_id":"7532fcf3-af60-4a22-8fb4-5e0c610773ce","system_id":"levelo_inurba_marseille","lat":43.31079,"lon":5.38358,"is_reserved":false,"is_disabled":false,"rental_uris":{"android":"levelo://app?vid=7532fcf3-af60-4a22-8fb4-5e0c610773ce","ios":"levelo://app?vid=7532fcf3-af60-4a22-8fb4-5e0c610773ce"},"vehicle_type_id":"4","last_reported":1751393661,"current_range_meters":16400,"station_id":"ce4bgv92rcd13ifvqcr0","pricing_plan_id":"cebpf4jnsgd1na2vs0mg"},{"bike_id":"13cfaeb4-4a0c-4726-a045-850c28fdddcf","system_id":"levelo_inurba_marseille","lat":43.28429,"lon":5.34999,"is_reserved":false,"is_disabled":false,"rental_uris":{"android":"levelo://app?vid=13cfaeb4-4a0c-4726-a045-850c28fdddcf","ios":"levelo://app?vid=13cfaeb4-4a0c-4726-a045-850c28fdddcf"},"vehicle_type_id":"4","last_reported":1751393661,"current_range_meters":16400,"station_id":"ce4bhbh2rcd13ifvqepg","pricing_plan_id":"cebpf4jnsgd1na2vs0mg"},{"bike_id":"a34e6786-b006-48ad-94d8-bad1c2cc64ee","system_id":"levelo_inurba_marseille","lat":43.28284,"lon":5.35061,"is_reserved":false,"is_disabled":false,"rental_uris":{"android":"levelo://app?vid=a34e6786-b006-48ad-94d8-bad1c2cc64ee","ios":"levelo://app?vid=a34e6786-b006-48ad-94d8-bad1c2cc64ee"},"vehicle_type_id":"4","last_reported":1751393661,"current_range_meters":16400,"station_id":"ce4bhbp2rcd13ifvqerg","pricing_plan_id":"cebpf4jnsgd1na2vs0mg"},{"bike_id":"f4342283-a0b3-4624-a504-c81955d9dc94","system_id":"levelo_inurba_marseille","lat":43.28276,"lon":5.35061,"is_reserved":false,"is_disabled":false,"rental_uris":{"android":"levelo://app?vid=f4342283-a0b3-4624-a504-c81955d9dc94","ios":"levelo://app?vid=f4342283-a0b3-4624-a504-c81955d9dc94"},"vehicle_type_id":"4","last_reported":1751393661,"current_range_meters":16400,"station_id":"ce4bhbp2rcd13ifvqerg","pricing_plan_id":"cebpf4jnsgd1na2vs0mg"},{"bike_id":"1b1d2a55-7937-4e4f-8e1d-0772a66cddb7","system_id":"levelo_inurba_marseille","lat":43.28613,"lon":5.35097,"is_reserved":false,"is_disabled":false,"rental_uris":{"android":"levelo://app?vid=1b1d2a55-7937-4e4f-8e1d-0772a66cddb7","ios":"levelo://app?vid=1b1d2a55-7937-4e4f-8e1d-0772a66cddb7"},"vehicle_type_id":"4","last_reported":1751393661,"current_range_meters":16400,"station_id":"ce4bhch2rcd13ifvqeug","pricing_plan_id":"cebpf4jnsgd1na2vs0mg"},{"bike_id":"71d88de6-a58d-4b56-83a0-96c91fd2a357","system_id":"levelo_inurba_marseille","lat":43.28617,"lon":5.35098,"is_reserved":false,"is_disabled":false,"rental_uris":{"android":"levelo://app?vid=71d88de6-a58d-4b56-83a0-96c91fd2a357","ios":"levelo://app?vid=71d88de6-a58d-4b56-83a0-96c91fd2a357"},"vehicle_type_id":"4","last_reported":1751393661,"current_range_meters":16400,"station_id":"ce4bhch2rcd13ifvqeug","pricing_plan_id":"cebpf4jnsgd1na2vs0mg"},{"bike_id":"6c124b47-0683-47f1-b3b4-7281f296c87c","system_id":"levelo_inurba_marseille","lat":43.30733,"lon":5.424453,"is_reserved":false,"is_disabled":false,"rental_uris":{"android":"levelo://app?vid=6c124b47-0683-47f1-b3b4-7281f296c87c","ios":"levelo://app?vid=6c124b47-0683-47f1-b3b4-7281f296c87c"},"vehicle_type_id":"4","last_reported":1751393661,"current_range_meters":16400,"station_id":"st_cvj6ca6bvosntc0bfgr0","pricing_plan_id":"cebpf4jnsgd1na2vs0mg"},{"bike_id":"0c1b4f74-5294-4b59-932d-b742ce647d9e","system_id":"levelo_inurba_marseille","lat":43.21202,"lon":5.35057,"is_reserved":false,"is_disabled":false,"rental_uris":{"android":"levelo://app?vid=0c1b4f74-5294-4b59-932d-b742ce647d9e","ios":"levelo://app?vid=0c1b4f74-5294-4b59-932d-b742ce647d9e"},"vehicle_type_id":"4","last_reported":1751393661,"current_range_meters":16400,"station_id":"st_cvj6sg6p6f1abm77japg","pricing_plan_id":"cebpf4jnsgd1na2vs0mg"},{"bike_id":"8a74f5cd-9efa-4362-bea7-a32db4dcc85c","system_id":"levelo_inurba_marseille","lat":43.211859,"lon":5.350701,"is_reserved":false,"is_disabled":false,"rental_uris":{"android":"levelo://app?vid=8a74f5cd-9efa-4362-bea7-a32db4dcc85c","ios":"levelo://app?vid=8a74f5cd-9efa-4362-bea7-a32db4dcc85c"},"vehicle_type_id":"4","last_reported":1751393661,"current_range_meters":16400,"station_id":"st_cvj6sg6p6f1abm77japg","pricing_plan_id":"cebpf4jnsgd1na2vs0mg"},{"bike_id":"edd3f5ea-c0b4-44a7-96c4-f5251efb23ed","system_id":"levelo_inurba_marseille","lat":43.28413,"lon":5.34991,"is_reserved":false,"is_disabled":false,"rental_uris":{"android":"levelo://app?vid=edd3f5ea-c0b4-44a7-96c4-f5251efb23ed","ios":"levelo://app?vid=edd3f5ea-c0b4-44a7-96c4-f5251efb23ed"},"vehicle_type_id":"4","last_reported":1751393661,"current_range_meters":16800,"station_id":"ce4bhbh2rcd13ifvqepg","pricing_plan_id":"cebpf4jnsgd1na2vs0mg"},{"bike_id":"45f99077-360c-45b1-9b80-064d3bafedec","system_id":"levelo_inurba_marseille","lat":43.28276,"lon":5.35069,"is_reserved":false,"is_disabled":false,"rental_uris":{"android":"levelo://app?vid=45f99077-360c-45b1-9b80-064d3bafedec","ios":"levelo://app?vid=45f99077-360c-45b1-9b80-064d3bafedec"},"vehicle_type_id":"4","last_reported":1751393661,"current_range_meters":16800,"station_id":"ce4bhbp2rcd13ifvqerg","pricing_plan_id":"cebpf4jnsgd1na2vs0mg"},{"bike_id":"c2cc3873-3136-4ba7-984d-6514f2a6bcc2","system_id":"levelo_inurba_marseille","lat":43.26692,"lon":5.3827,"is_reserved":false,"is_disabled":false,"rental_uris":{"android":"levelo://app?vid=c2cc3873-3136-4ba7-984d-6514f2a6bcc2","ios":"levelo://app?vid=c2cc3873-3136-4ba7-984d-6514f2a6bcc2"},"vehicle_type_id":"4","last_reported":1751393661,"current_range_meters":16800,"station_id":"ce4bhg92rcd13ifvqf90","pricing_plan_id":"cebpf4jnsgd1na2vs0mg"},{"bike_id":"79731cb3-beca-4911-967f-e759b6fe8234","system_id":"levelo_inurba_marseille","lat":43.2417,"lon":5.36397,"is_reserved":false,"is_disabled":false,"rental_uris":{"android":"levelo://app?vid=79731cb3-beca-4911-967f-e759b6fe8234","ios":"levelo://app?vid=79731cb3-beca-4911-967f-e759b6fe8234"},"vehicle_type_id":"4","last_reported":1751393661,"current_range_meters":16800,"station_id":"cpo36qri1sfpv3e86is0","pricing_plan_id":"cebpf4jnsgd1na2vs0mg"},{"bike_id":"700f356a-f724-40f4-8e59-7c8f93ae3f72","system_id":"levelo_inurba_marseille","lat":43.32339,"lon":5.36761,"is_reserved":false,"is_disabled":false,"rental_uris":{"android":"levelo://app?vid=700f356a-f724-40f4-8e59-7c8f93ae3f72","ios":"levelo://app?vid=700f356a-f724-40f4-8e59-7c8f93ae3f72"},"vehicle_type_id":"4","last_reported":1751393661,"current_range_meters":17200,"station_id":"","pricing_plan_id":"cebpf4jnsgd1na2vs0mg"},{"bike_id":"b3cc34d2-7bfd-4de7-9831-10c534161c56","system_id":"levelo_inurba_marseille","lat":43.29966,"lon":5.38499,"is_reserved":false,"is_disabled":false,"rental_uris":{"android":"levelo://app?vid=b3cc34d2-7bfd-4de7-9831-10c534161c56","ios":"levelo://app?vid=b3cc34d2-7bfd-4de7-9831-10c534161c56"},"vehicle_type_id":"4","last_reported":1751393661,"current_range_meters":17200,"station_id":"ce4bgj92rcd13ifvqbd0","pricing_plan_id":"cebpf4jnsgd1na2vs0mg"},{"bike_id":"3e68e6b5-f7dd-4895-96d4-76eb7d1dfe2b","system_id":"levelo_inurba_marseille","lat":43.27387,"lon":5.36256,"is_reserved":false,"is_disabled":false,"rental_uris":{"android":"levelo://app?vid=3e68e6b5-f7dd-4895-96d4-76eb7d1dfe2b","ios":"levelo://app?vid=3e68e6b5-f7dd-4895-96d4-76eb7d1dfe2b"},"vehicle_type_id":"4","last_reported":1751393661,"current_range_meters":17200,"station_id":"ce4bhbh2rcd13ifvqeo0","pricing_plan_id":"cebpf4jnsgd1na2vs0mg"},{"bike_id":"27ee8c69-20b9-425a-ae6a-518170670268","system_id":"levelo_inurba_marseille","lat":43.28422,"lon":5.34982,"is_reserved":false,"is_disabled":false,"rental_uris":{"android":"levelo://app?vid=27ee8c69-20b9-425a-ae6a-518170670268","ios":"levelo://app?vid=27ee8c69-20b9-425a-ae6a-518170670268"},"vehicle_type_id":"4","last_reported":1751393661,"current_range_meters":17200,"station_id":"ce4bhbh2rcd13ifvqepg","pricing_plan_id":"cebpf4jnsgd1na2vs0mg"},{"bike_id":"1e6b9f52-da41-4d6b-90e7-4aee7cbf4f90","system_id":"levelo_inurba_marseille","lat":43.28663,"lon":5.35116,"is_reserved":false,"is_disabled":false,"rental_uris":{"android":"levelo://app?vid=1e6b9f52-da41-4d6b-90e7-4aee7cbf4f90","ios":"levelo://app?vid=1e6b9f52-da41-4d6b-90e7-4aee7cbf4f90"},"vehicle_type_id":"4","last_reported":1751393661,"current_range_meters":17200,"station_id":"ce4bhch2rcd13ifvqeug","pricing_plan_id":"cebpf4jnsgd1na2vs0mg"},{"bike_id":"2cad92bf-219e-4ba4-99b9-8f64d81aac34","system_id":"levelo_inurba_marseille","lat":43.33588,"lon":5.41034,"is_reserved":false,"is_disabled":false,"rental_uris":{"android":"levelo://app?vid=2cad92bf-219e-4ba4-99b9-8f64d81aac34","ios":"levelo://app?vid=2cad92bf-219e-4ba4-99b9-8f64d81aac34"},"vehicle_type_id":"4","last_reported":1751393661,"current_range_meters":17200,"station_id":"ce4bhqh2rcd13ifvqhmg","pricing_plan_id":"cebpf4jnsgd1na2vs0mg"},{"bike_id":"fdcc33b3-b27b-4fd9-90cb-c9421efe9db6","system_id":"levelo_inurba_marseille","lat":43.27822,"lon":5.41438,"is_reserved":false,"is_disabled":false,"rental_uris":{"android":"levelo://app?vid=fdcc33b3-b27b-4fd9-90cb-c9421efe9db6","ios":"levelo://app?vid=fdcc33b3-b27b-4fd9-90cb-c9421efe9db6"},"vehicle_type_id":"4","last_reported":1751393661,"current_range_meters":17600,"station_id":"","pricing_plan_id":"cebpf4jnsgd1na2vs0mg"},{"bike_id":"f00e3044-9bd1-48b5-b342-151af21b34fa","system_id":"levelo_inurba_marseille","lat":43.29981,"lon":5.374219,"is_reserved":false,"is_disabled":false,"rental_uris":{"android":"levelo://app?vid=f00e3044-9bd1-48b5-b342-151af21b34fa","ios":"levelo://app?vid=f00e3044-9bd1-48b5-b342-151af21b34fa"},"vehicle_type_id":"4","last_reported":1751393661,"current_range_meters":17600,"station_id":"","pricing_plan_id":"cebpf4jnsgd1na2vs0mg"},{"bike_id":"f2f4d984-5460-4e1e-a60d-14e2b345a288","system_id":"levelo_inurba_marseille","lat":43.2762,"lon":5.36096,"is_reserved":false,"is_disabled":false,"rental_uris":{"android":"levelo://app?vid=f2f4d984-5460-4e1e-a60d-14e2b345a288","ios":"levelo://app?vid=f2f4d984-5460-4e1e-a60d-14e2b345a288"},"vehicle_type_id":"4","last_reported":1751393661,"current_range_meters":17600,"station_id":"ce4bgj92rcd13ifvqbe0","pricing_plan_id":"cebpf4jnsgd1na2vs0mg"},{"bike_id":"7602910a-4b6c-416a-9775-c22c923f55d8","system_id":"levelo_inurba_marseille","lat":43.28444,"lon":5.3496,"is_reserved":false,"is_disabled":false,"rental_uris":{"android":"levelo://app?vid=7602910a-4b6c-416a-9775-c22c923f55d8","ios":"levelo://app?vid=7602910a-4b6c-416a-9775-c22c923f55d8"},"vehicle_type_id":"4","last_reported":1751393661,"current_range_meters":17600,"station_id":"ce4bhbh2rcd13ifvqepg","pricing_plan_id":"cebpf4jnsgd1na2vs0mg"},{"bike_id":"06582479-ddab-442b-aa48-7598470b3769","system_id":"levelo_inurba_marseille","lat":43.28447,"lon":5.34957,"is_reserved":false,"is_disabled":false,"rental_uris":{"android":"levelo://app?vid=06582479-ddab-442b-aa48-7598470b3769","ios":"levelo://app?vid=06582479-ddab-442b-aa48-7598470b3769"},"vehicle_type_id":"4","last_reported":1751393661,"current_range_meters":17600,"station_id":"ce4bhbh2rcd13ifvqepg","pricing_plan_id":"cebpf4jnsgd1na2vs0mg"},{"bike_id":"aec15981-ed44-480f-bc86-6e53a0b930d8","system_id":"levelo_inurba_marseille","lat":43.28613,"lon":5.35103,"is_reserved":false,"is_disabled":false,"rental_uris":{"android":"levelo://app?vid=aec15981-ed44-480f-bc86-6e53a0b930d8","ios":"levelo://app?vid=aec15981-ed44-480f-bc86-6e53a0b930d8"},"vehicle_type_id":"4","last_reported":1751393661,"current_range_meters":17600,"station_id":"ce4bhch2rcd13ifvqeug","pricing_plan_id":"cebpf4jnsgd1na2vs0mg"},{"bike_id":"8727e767-a3c7-4c45-aefa-d603a6b525f4","system_id":"levelo_inurba_marseille","lat":43.26196,"lon":5.37901,"is_reserved":false,"is_disabled":false,"rental_uris":{"android":"levelo://app?vid=8727e767-a3c7-4c45-aefa-d603a6b525f4","ios":"levelo://app?vid=8727e767-a3c7-4c45-aefa-d603a6b525f4"},"vehicle_type_id":"4","last_reported":1751393661,"current_range_meters":17600,"station_id":"ce4bhjp2rcd13ifvqg90","pricing_plan_id":"cebpf4jnsgd1na2vs0mg"},{"bike_id":"d0f90c24-dd03-411b-9731-55305f76b7c8","system_id":"levelo_inurba_marseille","lat":43.21214,"lon":5.35088,"is_reserved":false,"is_disabled":false,"rental_uris":{"android":"levelo://app?vid=d0f90c24-dd03-411b-9731-55305f76b7c8","ios":"levelo://app?vid=d0f90c24-dd03-411b-9731-55305f76b7c8"},"vehicle_type_id":"4","last_reported":1751393661,"current_range_meters":17600,"station_id":"st_cvj6sg6p6f1abm77japg","pricing_plan_id":"cebpf4jnsgd1na2vs0mg"},{"bike_id":"336949c2-8153-44fd-9fba-b021979430ac","system_id":"levelo_inurba_marseille","lat":43.28418,"lon":5.34977,"is_reserved":false,"is_disabled":false,"rental_uris":{"android":"levelo://app?vid=336949c2-8153-44fd-9fba-b021979430ac","ios":"levelo://app?vid=336949c2-8153-44fd-9fba-b021979430ac"},"vehicle_type_id":"4","last_reported":1751393661,"current_range_meters":18000,"station_id":"ce4bhbh2rcd13ifvqepg","pricing_plan_id":"cebpf4jnsgd1na2vs0mg"},{"bike_id":"30041a26-1d65-4935-a219-0d41a87097df","system_id":"levelo_inurba_marseille","lat":43.29225,"lon":5.36067,"is_reserved":false,"is_disabled":false,"rental_uris":{"android":"levelo://app?vid=30041a26-1d65-4935-a219-0d41a87097df","ios":"levelo://app?vid=30041a26-1d65-4935-a219-0d41a87097df"},"vehicle_type_id":"4","last_reported":1751393661,"current_range_meters":18000,"station_id":"ce4bhbh2rcd13ifvqeqg","pricing_plan_id":"cebpf4jnsgd1na2vs0mg"},{"bike_id":"628a2f20-5d49-454c-81f6-0eb8e4ac8a6b","system_id":"levelo_inurba_marseille","lat":43.28273,"lon":5.35069,"is_reserved":false,"is_disabled":false,"rental_uris":{"android":"levelo://app?vid=628a2f20-5d49-454c-81f6-0eb8e4ac8a6b","ios":"levelo://app?vid=628a2f20-5d49-454c-81f6-0eb8e4ac8a6b"},"vehicle_type_id":"4","last_reported":1751393661,"current_range_meters":18000,"station_id":"ce4bhbp2rcd13ifvqerg","pricing_plan_id":"cebpf4jnsgd1na2vs0mg"},{"bike_id":"d8f4e68a-05c3-4caa-aa92-c12d8cb440f9","system_id":"levelo_inurba_marseille","lat":43.23953,"lon":5.36623,"is_reserved":false,"is_disabled":false,"rental_uris":{"android":"levelo://app?vid=d8f4e68a-05c3-4caa-aa92-c12d8cb440f9","ios":"levelo://app?vid=d8f4e68a-05c3-4caa-aa92-c12d8cb440f9"},"vehicle_type_id":"4","last_reported":1751393661,"current_range_meters":18000,"station_id":"ce4bhi12rcd13ifvqfp0","pricing_plan_id":"cebpf4jnsgd1na2vs0mg"},{"bike_id":"81b9753f-aa28-4513-89a4-3ee72628d38d","system_id":"levelo_inurba_marseille","lat":43.32121,"lon":5.36779,"is_reserved":false,"is_disabled":false,"rental_uris":{"android":"levelo://app?vid=81b9753f-aa28-4513-89a4-3ee72628d38d","ios":"levelo://app?vid=81b9753f-aa28-4513-89a4-3ee72628d38d"},"vehicle_type_id":"4","last_reported":1751393661,"current_range_meters":18000,"station_id":"ce4bhrh2rcd13ifvqhug","pricing_plan_id":"cebpf4jnsgd1na2vs0mg"},{"bike_id":"c888eb4b-e413-4a4a-93d6-47a0718eab44","system_id":"levelo_inurba_marseille","lat":43.24163,"lon":5.36397,"is_reserved":false,"is_disabled":false,"rental_uris":{"android":"levelo://app?vid=c888eb4b-e413-4a4a-93d6-47a0718eab44","ios":"levelo://app?vid=c888eb4b-e413-4a4a-93d6-47a0718eab44"},"vehicle_type_id":"4","last_reported":1751393661,"current_range_meters":18000,"station_id":"cpo36qri1sfpv3e86is0","pricing_plan_id":"cebpf4jnsgd1na2vs0mg"},{"bike_id":"dbe6a7d8-6edc-4015-8658-f68eeb46a661","system_id":"levelo_inurba_marseille","lat":43.33575,"lon":5.39867,"is_reserved":false,"is_disabled":false,"rental_uris":{"android":"levelo://app?vid=dbe6a7d8-6edc-4015-8658-f68eeb46a661","ios":"levelo://app?vid=dbe6a7d8-6edc-4015-8658-f68eeb46a661"},"vehicle_type_id":"4","last_reported":1751393661,"current_range_meters":18800,"station_id":"","pricing_plan_id":"cebpf4jnsgd1na2vs0mg"},{"bike_id":"f9594dfc-dd46-4608-bd36-ae68347e80fb","system_id":"levelo_inurba_marseille","lat":43.29966,"lon":5.38504,"is_reserved":false,"is_disabled":false,"rental_uris":{"android":"levelo://app?vid=f9594dfc-dd46-4608-bd36-ae68347e80fb","ios":"levelo://app?vid=f9594dfc-dd46-4608-bd36-ae68347e80fb"},"vehicle_type_id":"4","last_reported":1751393661,"current_range_meters":18800,"station_id":"ce4bgj92rcd13ifvqbd0","pricing_plan_id":"cebpf4jnsgd1na2vs0mg"},{"bike_id":"cdefd0f3-45d8-4797-9e60-cc06ff75f38f","system_id":"levelo_inurba_marseille","lat":43.2972,"lon":5.37686,"is_reserved":false,"is_disabled":false,"rental_uris":{"android":"levelo://app?vid=cdefd0f3-45d8-4797-9e60-cc06ff75f38f","ios":"levelo://app?vid=cdefd0f3-45d8-4797-9e60-cc06ff75f38f"},"vehicle_type_id":"4","last_reported":1751393661,"current_range_meters":18800,"station_id":"ce4bgkh2rcd13ifvqbl0","pricing_plan_id":"cebpf4jnsgd1na2vs0mg"},{"bike_id":"77dbff9d-b090-48f7-a3f3-8d26a3c274c1","system_id":"levelo_inurba_marseille","lat":43.27374,"lon":5.36258,"is_reserved":false,"is_disabled":false,"rental_uris":{"android":"levelo://app?vid=77dbff9d-b090-48f7-a3f3-8d26a3c274c1","ios":"levelo://app?vid=77dbff9d-b090-48f7-a3f3-8d26a3c274c1"},"vehicle_type_id":"4","last_reported":1751393661,"current_range_meters":18800,"station_id":"ce4bhbh2rcd13ifvqeo0","pricing_plan_id":"cebpf4jnsgd1na2vs0mg"},{"bike_id":"8e62ef33-e8b8-4f7c-85c1-3adcc9b1160f","system_id":"levelo_inurba_marseille","lat":43.27384,"lon":5.36249,"is_reserved":false,"is_disabled":false,"rental_uris":{"android":"levelo://app?vid=8e62ef33-e8b8-4f7c-85c1-3adcc9b1160f","ios":"levelo://app?vid=8e62ef33-e8b8-4f7c-85c1-3adcc9b1160f"},"vehicle_type_id":"4","last_reported":1751393661,"current_range_meters":18800,"station_id":"ce4bhbh2rcd13ifvqeo0","pricing_plan_id":"cebpf4jnsgd1na2vs0mg"},{"bike_id":"cdf71ee8-826e-4ff2-95a9-25a3162f310d","system_id":"levelo_inurba_marseille","lat":43.28612,"lon":5.35107,"is_reserved":false,"is_disabled":false,"rental_uris":{"android":"levelo://app?vid=cdf71ee8-826e-4ff2-95a9-25a3162f310d","ios":"levelo://app?vid=cdf71ee8-826e-4ff2-95a9-25a3162f310d"},"vehicle_type_id":"4","last_reported":1751393661,"current_range_meters":18800,"station_id":"ce4bhch2rcd13ifvqeug","pricing_plan_id":"cebpf4jnsgd1na2vs0mg"},{"bike_id":"186fb1c5-7b63-4c56-bd0c-d25199a9d131","system_id":"levelo_inurba_marseille","lat":43.28612,"lon":5.35106,"is_reserved":false,"is_disabled":false,"rental_uris":{"android":"levelo://app?vid=186fb1c5-7b63-4c56-bd0c-d25199a9d131","ios":"levelo://app?vid=186fb1c5-7b63-4c56-bd0c-d25199a9d131"},"vehicle_type_id":"4","last_reported":1751393661,"current_range_meters":18800,"station_id":"ce4bhch2rcd13ifvqeug","pricing_plan_id":"cebpf4jnsgd1na2vs0mg"},{"bike_id":"81c8180c-fbb4-475e-b542-ebaf0d473aaa","system_id":"levelo_inurba_marseille","lat":43.28618,"lon":5.35112,"is_reserved":false,"is_disabled":false,"rental_uris":{"android":"levelo://app?vid=81c8180c-fbb4-475e-b542-ebaf0d473aaa","ios":"levelo://app?vid=81c8180c-fbb4-475e-b542-ebaf0d473aaa"},"vehicle_type_id":"4","last_reported":1751393661,"current_range_meters":18800,"station_id":"ce4bhch2rcd13ifvqeug","pricing_plan_id":"cebpf4jnsgd1na2vs0mg"},{"bike_id":"a27ff6b4-e899-4c5e-8bea-60a658eb8afc","system_id":"levelo_inurba_marseille","lat":43.28616,"lon":5.35099,"is_reserved":false,"is_disabled":false,"rental_uris":{"android":"levelo://app?vid=a27ff6b4-e899-4c5e-8bea-60a658eb8afc","ios":"levelo://app?vid=a27ff6b4-e899-4c5e-8bea-60a658eb8afc"},"vehicle_type_id":"4","last_reported":1751393661,"current_range_meters":18800,"station_id":"ce4bhch2rcd13ifvqeug","pricing_plan_id":"cebpf4jnsgd1na2vs0mg"},{"bike_id":"64e9eb71-b869-43d8-8109-182338e1e072","system_id":"levelo_inurba_marseille","lat":43.24389,"lon":5.37055,"is_reserved":false,"is_disabled":false,"rental_uris":{"android":"levelo://app?vid=64e9eb71-b869-43d8-8109-182338e1e072","ios":"levelo://app?vid=64e9eb71-b869-43d8-8109-182338e1e072"},"vehicle_type_id":"4","last_reported":1751393661,"current_range_meters":18800,"station_id":"ce4bhhh2rcd13ifvqfk0","pricing_plan_id":"cebpf4jnsgd1na2vs0mg"},{"bike_id":"dc575496-fa6e-40b9-b9e1-f4cb1d0647a8","system_id":"levelo_inurba_marseille","lat":43.31997,"lon":5.38169,"is_reserved":false,"is_disabled":false,"rental_uris":{"android":"levelo://app?vid=dc575496-fa6e-40b9-b9e1-f4cb1d0647a8","ios":"levelo://app?vid=dc575496-fa6e-40b9-b9e1-f4cb1d0647a8"},"vehicle_type_id":"4","last_reported":1751393661,"current_range_meters":18800,"station_id":"ce4bhr12rcd13ifvqhpg","pricing_plan_id":"cebpf4jnsgd1na2vs0mg"},{"bike_id":"cfc0aa67-590a-4038-b894-cb7b8f074cc7","system_id":"levelo_inurba_marseille","lat":43.21756,"lon":5.34592,"is_reserved":false,"is_disabled":false,"rental_uris":{"android":"levelo://app?vid=cfc0aa67-590a-4038-b894-cb7b8f074cc7","ios":"levelo://app?vid=cfc0aa67-590a-4038-b894-cb7b8f074cc7"},"vehicle_type_id":"4","last_reported":1751393661,"current_range_meters":18800,"station_id":"st_cvj6r9ubvosntc0bgbag","pricing_plan_id":"cebpf4jnsgd1na2vs0mg"},{"bike_id":"7e62b058-a7ed-4634-80f1-04d3de596de7","system_id":"levelo_inurba_marseille","lat":43.29847,"lon":5.36804,"is_reserved":false,"is_disabled":false,"rental_uris":{"android":"levelo://app?vid=7e62b058-a7ed-4634-80f1-04d3de596de7","ios":"levelo://app?vid=7e62b058-a7ed-4634-80f1-04d3de596de7"},"vehicle_type_id":"4","last_reported":1751393661,"current_range_meters":19200,"station_id":"","pricing_plan_id":"cebpf4jnsgd1na2vs0mg"},{"bike_id":"32e95b8a-2368-4221-8e36-d2eb0c4c23b7","system_id":"levelo_inurba_marseille","lat":43.27404,"lon":5.36259,"is_reserved":false,"is_disabled":false,"rental_uris":{"android":"levelo://app?vid=32e95b8a-2368-4221-8e36-d2eb0c4c23b7","ios":"levelo://app?vid=32e95b8a-2368-4221-8e36-d2eb0c4c23b7"},"vehicle_type_id":"4","last_reported":1751393661,"current_range_meters":19200,"station_id":"ce4bhbh2rcd13ifvqeo0","pricing_plan_id":"cebpf4jnsgd1na2vs0mg"},{"bike_id":"50b82030-7151-4ba0-a981-9eb0853b7d5d","system_id":"levelo_inurba_marseille","lat":43.28618,"lon":5.351,"is_reserved":false,"is_disabled":false,"rental_uris":{"android":"levelo://app?vid=50b82030-7151-4ba0-a981-9eb0853b7d5d","ios":"levelo://app?vid=50b82030-7151-4ba0-a981-9eb0853b7d5d"},"vehicle_type_id":"4","last_reported":1751393661,"current_range_meters":19200,"station_id":"ce4bhch2rcd13ifvqeug","pricing_plan_id":"cebpf4jnsgd1na2vs0mg"},{"bike_id":"a9c84572-7f9c-4fe2-af34-9288548a808b","system_id":"levelo_inurba_marseille","lat":43.25501,"lon":5.37649,"is_reserved":false,"is_disabled":false,"rental_uris":{"android":"levelo://app?vid=a9c84572-7f9c-4fe2-af34-9288548a808b","ios":"levelo://app?vid=a9c84572-7f9c-4fe2-af34-9288548a808b"},"vehicle_type_id":"4","last_reported":1751393661,"current_range_meters":19200,"station_id":"ce4bhh12rcd13ifvqff0","pricing_plan_id":"cebpf4jnsgd1na2vs0mg"},{"bike_id":"d94dd096-10fc-4e57-b3f9-d972629a418e","system_id":"levelo_inurba_marseille","lat":43.25834,"lon":5.39414,"is_reserved":false,"is_disabled":false,"rental_uris":{"android":"levelo://app?vid=d94dd096-10fc-4e57-b3f9-d972629a418e","ios":"levelo://app?vid=d94dd096-10fc-4e57-b3f9-d972629a418e"},"vehicle_type_id":"4","last_reported":1751393661,"current_range_meters":19200,"station_id":"ce4bhip2rcd13ifvqft0","pricing_plan_id":"cebpf4jnsgd1na2vs0mg"},{"bike_id":"dc4251f3-81b6-4e41-b5a5-62a769c36411","system_id":"levelo_inurba_marseille","lat":43.241853,"lon":5.363893,"is_reserved":false,"is_disabled":false,"rental_uris":{"android":"levelo://app?vid=dc4251f3-81b6-4e41-b5a5-62a769c36411","ios":"levelo://app?vid=dc4251f3-81b6-4e41-b5a5-62a769c36411"},"vehicle_type_id":"4","last_reported":1751393661,"current_range_meters":19200,"station_id":"cpo36qri1sfpv3e86is0","pricing_plan_id":"cebpf4jnsgd1na2vs0mg"},{"bike_id":"ef0ef60d-4545-477d-931e-0baeced3b7b5","system_id":"levelo_inurba_marseille","lat":43.24168,"lon":5.3639,"is_reserved":false,"is_disabled":false,"rental_uris":{"android":"levelo://app?vid=ef0ef60d-4545-477d-931e-0baeced3b7b5","ios":"levelo://app?vid=ef0ef60d-4545-477d-931e-0baeced3b7b5"},