{"last_updated":1753564195,"ttl":60,"version":"2.2","data":{"bikes":[{"bike_id":"4d8ecd55-c994-4217-8b4e-80af89d594af","system_id":"levelo_inurba_marseille","lat":43.32657,"lon":5.40996,"is_reserved":false,"is_disabled":false,"rental_uris":{"android":"levelo://app?vid=4d8ecd55-c994-4217-8b4e-80af89d594af","ios":"levelo://app?vid=4d8ecd55-c994-4217-8b4e-80af89d594af"},"vehicle_type_id":"4","last_reported":1753564195,"current_range_meters":2800,"station_id":"ce4bhpp2rcd13ifvqhgg","pricing_plan_id":"cebpf4jnsgd1na2vs0mg"},{"bike_id":"e19cd9bd-8f1f-4909-a624-5af678243303","system_id":"levelo_inurba_marseille","lat":43.29078,"lon":5.398759,"is_reserved":false,"is_disabled":false,"rental_uris":{"android":"levelo://app?vid=e19cd9bd-8f1f-4909-a624-5af678243303","ios":"levelo://app?vid=e19cd9bd-8f1f-4909-a624-5af678243303"},"vehicle_type_id":"4","last_reported":1753564195,"current_range_meters":2800,"station_id":"","pricing_plan_id":"cebpf4jnsgd1na2vs0mg"},{"bike_id":"5a690032-7efd-48cf-8114-359e228c6fe6","system_id":"levelo_inurba_marseille","lat":43.32331,"lon":5.40623,"is_reserved":false,"is_disabled":false,"rental_uris":{"android":"levelo://app?vid=5a690032-7efd-48cf-8114-359e228c6fe6","ios":"levelo://app?vid=5a690032-7efd-48cf-8114-359e228c6fe6"},"vehicle_type_id":"4","last_reported":1753564195,"current_range_meters":3200,"station_id":"ce4bhq92rcd13ifvqhjg","pricing_plan_id":"cebpf4jnsgd1na2vs0mg"},{"bike_id":"bf158499-abf4-4716-ad20-df229fb20126","system_id":"levelo_inurba_marseille","lat":43.22498,"lon":5.34783,"is_reserved":false,"is_disabled":true,"rental_uris":{"android":"levelo://app?vid=bf158499-abf4-4716-ad20-df229fb20126","ios":"levelo://app?vid=bf158499-abf4-4716-ad20-df229fb20126"},"vehicle_type_id":"4","last_reported":1753564195,"current_range_meters":3200,"station_id":"st_cvj5dfep6f1abm77gieg","pricing_plan_id":"cebpf4jnsgd1na2vs0mg"},{"bike_id":"a9bcff15-70d8-4922-b020-1a5b437dd9fd","system_id":"levelo_inurba_marseille","lat":43.21382,"lon":5.35003,"is_reserved":false,"is_disabled":false,"rental_uris":{"android":"levelo://app?vid=a9bcff15-70d8-4922-b020-1a5b437dd9fd","ios":"levelo://app?vid=a9bcff15-70d8-4922-b020-1a5b437dd9fd"},"vehicle_type_id":"4","last_reported":1753564195,"current_range_meters":3600,"station_id":"","pricing_plan_id":"cebpf4jnsgd1na2vs0mg"},{"bike_id":"f28d2bb9-4217-4196-a573-ba6f4c172497","system_id":"levelo_inurba_marseille","lat":43.2816,"lon":5.36102,"is_reserved":false,"is_disabled":false,"rental_uris":{"android":"levelo://app?vid=f28d2bb9-4217-4196-a573-ba6f4c172497","ios":"levelo://app?vid=f28d2bb9-4217-4196-a573-ba6f4c172497"},"vehicle_type_id":"4","last_reported":1753564195,"current_range_meters":3600,"station_id":"","pricing_plan_id":"cebpf4jnsgd1na2vs0mg"},{"bike_id":"f664f4a1-567d-4751-90d8-b87cfe6ce66c","system_id":"levelo_inurba_marseille","lat":43.289465,"lon":5.363859,"is_reserved":false,"is_disabled":false,"rental_uris":{"android":"levelo://app?vid=f664f4a1-567d-4751-90d8-b87cfe6ce66c","ios":"levelo://app?vid=f664f4a1-567d-4751-90d8-b87cfe6ce66c"},"vehicle_type_id":"4","last_reported":1753564195,"current_range_meters":3200,"station_id":"ce4bhc92rcd13ifvqetg","pricing_plan_id":"cebpf4jnsgd1na2vs0mg"},{"bike_id":"b19249d8-f386-4307-afb8-c3fceb1d300d","system_id":"levelo_inurba_marseille","lat":43.312737,"lon":5.401759,"is_reserved":false,"is_disabled":false,"rental_uris":{"android":"levelo://app?vid=b19249d8-f386-4307-afb8-c3fceb1d300d","ios":"levelo://app?vid=b19249d8-f386-4307-afb8-c3fceb1d300d"},"vehicle_type_id":"4","last_reported":1753564195,"current_range_meters":4000,"station_id":"ce4bh092rcd13ifvqd30","pricing_plan_id":"cebpf4jnsgd1na2vs0mg"},{"bike_id":"d694f5c9-a5a3-4810-860c-e24e8ea23e52","system_id":"levelo_inurba_marseille","lat":43.29787,"lon":5.39344,"is_reserved":false,"is_disabled":false,"rental_uris":{"android":"levelo://app?vid=d694f5c9-a5a3-4810-860c-e24e8ea23e52","ios":"levelo://app?vid=d694f5c9-a5a3-4810-860c-e24e8ea23e52"},"vehicle_type_id":"4","last_reported":1753564195,"current_range_meters":4000,"station_id":"chh1huq6cuj3fo74tm60","pricing_plan_id":"cebpf4jnsgd1na2vs0mg"},{"bike_id":"03f3f97c-7d12-45a2-afbe-58b694b3e7a3","system_id":"levelo_inurba_marseille","lat":43.27071,"lon":5.42284,"is_reserved":false,"is_disabled":false,"rental_uris":{"android":"levelo://app?vid=03f3f97c-7d12-45a2-afbe-58b694b3e7a3","ios":"levelo://app?vid=03f3f97c-7d12-45a2-afbe-58b694b3e7a3"},"vehicle_type_id":"4","last_reported":1753564195,"current_range_meters":4800,"station_id":"ce4bhk92rcd13ifvqgb0","pricing_plan_id":"cebpf4jnsgd1na2vs0mg"},{"bike_id":"ff30a5ee-0e9d-4bfa-a593-c7beaf9df463","system_id":"levelo_inurba_marseille","lat":43.33529,"lon":5.36214,"is_reserved":false,"is_disabled":false,"rental_uris":{"android":"levelo://app?vid=ff30a5ee-0e9d-4bfa-a593-c7beaf9df463","ios":"levelo://app?vid=ff30a5ee-0e9d-4bfa-a593-c7beaf9df463"},"vehicle_type_id":"4","last_reported":1753564195,"current_range_meters":4800,"station_id":"","pricing_plan_id":"cebpf4jnsgd1na2vs0mg"},{"bike_id":"16e240e6-63c7-4b23-964f-08ab33e9fd7c","system_id":"levelo_inurba_marseille","lat":43.26019,"lon":5.37549,"is_reserved":false,"is_disabled":false,"rental_uris":{"android":"levelo://app?vid=16e240e6-63c7-4b23-964f-08ab33e9fd7c","ios":"levelo://app?vid=16e240e6-63c7-4b23-964f-08ab33e9fd7c"},"vehicle_type_id":"4","last_reported":1753564195,"current_range_meters":5600,"station_id":"ce4bhgh2rcd13ifvqfa0","pricing_plan_id":"cebpf4jnsgd1na2vs0mg"},{"bike_id":"6af7a72a-189c-4dbc-9282-a956426542ba","system_id":"levelo_inurba_marseille","lat":43.22512,"lon":5.34779,"is_reserved":false,"is_disabled":false,"rental_uris":{"android":"levelo://app?vid=6af7a72a-189c-4dbc-9282-a956426542ba","ios":"levelo://app?vid=6af7a72a-189c-4dbc-9282-a956426542ba"},"vehicle_type_id":"4","last_reported":1753564195,"current_range_meters":5600,"station_id":"","pricing_plan_id":"cebpf4jnsgd1na2vs0mg"},{"bike_id":"89dcea3a-f7f7-44b2-9d2c-a3300861829d","system_id":"levelo_inurba_marseille","lat":43.27864,"lon":5.3972,"is_reserved":false,"is_disabled":false,"rental_uris":{"android":"levelo://app?vid=89dcea3a-f7f7-44b2-9d2c-a3300861829d","ios":"levelo://app?vid=89dcea3a-f7f7-44b2-9d2c-a3300861829d"},"vehicle_type_id":"4","last_reported":1753564195,"current_range_meters":5600,"station_id":"","pricing_plan_id":"cebpf4jnsgd1na2vs0mg"},{"bike_id":"ddb41611-b336-4121-ad5c-d2ee92e95b9c","system_id":"levelo_inurba_marseille","lat":43.30728,"lon":5.4245,"is_reserved":false,"is_disabled":false,"rental_uris":{"android":"levelo://app?vid=ddb41611-b336-4121-ad5c-d2ee92e95b9c","ios":"levelo://app?vid=ddb41611-b336-4121-ad5c-d2ee92e95b9c"},"vehicle_type_id":"4","last_reported":1753564195,"current_range_meters":6000,"station_id":"st_cvj6ca6bvosntc0bfgr0","pricing_plan_id":"cebpf4jnsgd1na2vs0mg"},{"bike_id":"4a12b5a2-e9f0-4ab7-9dcd-d91be8d5e3b0","system_id":"levelo_inurba_marseille","lat":43.30545,"lon":5.36539,"is_reserved":false,"is_disabled":true,"rental_uris":{"android":"levelo://app?vid=4a12b5a2-e9f0-4ab7-9dcd-d91be8d5e3b0","ios":"levelo://app?vid=4a12b5a2-e9f0-4ab7-9dcd-d91be8d5e3b0"},"vehicle_type_id":"4","last_reported":1753564195,"current_range_meters":6000,"station_id":"ce4bgs12rcd13ifvqcag","pricing_plan_id":"cebpf4jnsgd1na2vs0mg"},{"bike_id":"be1f46e1-b208-4477-ac0e-0e8346ce7117","system_id":"levelo_inurba_marseille","lat":43.22501,"lon":5.34777,"is_reserved":false,"is_disabled":false,"rental_uris":{"android":"levelo://app?vid=be1f46e1-b208-4477-ac0e-0e8346ce7117","ios":"levelo://app?vid=be1f46e1-b208-4477-ac0e-0e8346ce7117"},"vehicle_type_id":"4","last_reported":1753564195,"current_range_meters":6400,"station_id":"st_cvj5dfep6f1abm77gieg","pricing_plan_id":"cebpf4jnsgd1na2vs0mg"},{"bike_id":"818f6ca4-8bc8-4e12-bac0-b1aeaf7ffdc0","system_id":"levelo_inurba_marseille","lat":43.29298,"lon":5.37464,"is_reserved":false,"is_disabled":false,"rental_uris":{"android":"levelo://app?vid=818f6ca4-8bc8-4e12-bac0-b1aeaf7ffdc0","ios":"levelo://app?vid=818f6ca4-8bc8-4e12-bac0-b1aeaf7ffdc0"},"vehicle_type_id":"4","last_reported":1753564195,"current_range_meters":6400,"station_id":"ce4bgi12rcd13ifvqb70","pricing_plan_id":"cebpf4jnsgd1na2vs0mg"},{"bike_id":"14e655de-992a-4e88-90b2-c8fd2553bcfc","system_id":"levelo_inurba_marseille","lat":43.29527,"lon":5.38541,"is_reserved":false,"is_disabled":false,"rental_uris":{"android":"levelo://app?vid=14e655de-992a-4e88-90b2-c8fd2553bcfc","ios":"levelo://app?vid=14e655de-992a-4e88-90b2-c8fd2553bcfc"},"vehicle_type_id":"4","last_reported":1753564195,"current_range_meters":6400,"station_id":"ce4bgih2rcd13ifvqba0","pricing_plan_id":"cebpf4jnsgd1na2vs0mg"},{"bike_id":"9653cd3a-baf9-408d-ae4c-edbf8fb13e8d","system_id":"levelo_inurba_marseille","lat":43.31354,"lon":5.385,"is_reserved":false,"is_disabled":false,"rental_uris":{"android":"levelo://app?vid=9653cd3a-baf9-408d-ae4c-edbf8fb13e8d","ios":"levelo://app?vid=9653cd3a-baf9-408d-ae4c-edbf8fb13e8d"},"vehicle_type_id":"4","last_reported":1753564195,"current_range_meters":6400,"station_id":"ce4bgt92rcd13ifvqcf0","pricing_plan_id":"cebpf4jnsgd1na2vs0mg"},{"bike_id":"c82cb832-4003-436b-b8ad-2f9963141ae0","system_id":"levelo_inurba_marseille","lat":43.2963,"lon":5.36885,"is_reserved":false,"is_disabled":false,"rental_uris":{"android":"levelo://app?vid=c82cb832-4003-436b-b8ad-2f9963141ae0","ios":"levelo://app?vid=c82cb832-4003-436b-b8ad-2f9963141ae0"},"vehicle_type_id":"4","last_reported":1753564195,"current_range_meters":6400,"station_id":"","pricing_plan_id":"cebpf4jnsgd1na2vs0mg"},{"bike_id":"659696a2-3854-4019-bdd0-5ad56ba4750d","system_id":"levelo_inurba_marseille","lat":43.28145,"lon":5.42638,"is_reserved":false,"is_disabled":true,"rental_uris":{"android":"levelo://app?vid=659696a2-3854-4019-bdd0-5ad56ba4750d","ios":"levelo://app?vid=659696a2-3854-4019-bdd0-5ad56ba4750d"},"vehicle_type_id":"4","last_reported":1753564195,"current_range_meters":6800,"station_id":"ce4bhnh2rcd13ifvqgug","pricing_plan_id":"cebpf4jnsgd1na2vs0mg"},{"bike_id":"9556f6fd-cc42-4cc7-b77f-6b0d5c6d9408","system_id":"levelo_inurba_marseille","lat":43.260315,"lon":5.375416,"is_reserved":false,"is_disabled":false,"rental_uris":{"android":"levelo://app?vid=9556f6fd-cc42-4cc7-b77f-6b0d5c6d9408","ios":"levelo://app?vid=9556f6fd-cc42-4cc7-b77f-6b0d5c6d9408"},"vehicle_type_id":"4","last_reported":1753564195,"current_range_meters":6800,"station_id":"cpo3532slgdg3j2ikp40","pricing_plan_id":"cebpf4jnsgd1na2vs0mg"},{"bike_id":"ac3ae55b-c759-4ea4-8abd-298fbeb52638","system_id":"levelo_inurba_marseille","lat":43.32109,"lon":5.3678,"is_reserved":false,"is_disabled":false,"rental_uris":{"android":"levelo://app?vid=ac3ae55b-c759-4ea4-8abd-298fbeb52638","ios":"levelo://app?vid=ac3ae55b-c759-4ea4-8abd-298fbeb52638"},"vehicle_type_id":"4","last_reported":1753564195,"current_range_meters":6800,"station_id":"ce4bhrh2rcd13ifvqhug","pricing_plan_id":"cebpf4jnsgd1na2vs0mg"},{"bike_id":"fe165cbd-2aa7-40d4-b28e-c33848c088c9","system_id":"levelo_inurba_marseille","lat":43.29606,"lon":5.38021,"is_reserved":false,"is_disabled":false,"rental_uris":{"android":"levelo://app?vid=fe165cbd-2aa7-40d4-b28e-c33848c088c9","ios":"levelo://app?vid=fe165cbd-2aa7-40d4-b28e-c33848c088c9"},"vehicle_type_id":"4","last_reported":1753564195,"current_range_meters":6800,"station_id":"","pricing_plan_id":"cebpf4jnsgd1na2vs0mg"},{"bike_id":"5918fd43-a3a6-4417-9091-c7c3fdf8aa7e","system_id":"levelo_inurba_marseille","lat":43.2315,"lon":5.43711,"is_reserved":false,"is_disabled":false,"rental_uris":{"android":"levelo://app?vid=5918fd43-a3a6-4417-9091-c7c3fdf8aa7e","ios":"levelo://app?vid=5918fd43-a3a6-4417-9091-c7c3fdf8aa7e"},"vehicle_type_id":"4","last_reported":1753564195,"current_range_meters":7200,"station_id":"ce4bhmp2rcd13ifvqgog","pricing_plan_id":"cebpf4jnsgd1na2vs0mg"},{"bike_id":"4d59e1de-b26d-45e9-93ba-2895a9a1ffbd","system_id":"levelo_inurba_marseille","lat":43.29526,"lon":5.38664,"is_reserved":false,"is_disabled":false,"rental_uris":{"android":"levelo://app?vid=4d59e1de-b26d-45e9-93ba-2895a9a1ffbd","ios":"levelo://app?vid=4d59e1de-b26d-45e9-93ba-2895a9a1ffbd"},"vehicle_type_id":"4","last_reported":1753564195,"current_range_meters":7200,"station_id":"","pricing_plan_id":"cebpf4jnsgd1na2vs0mg"},{"bike_id":"18571e77-ec28-44fc-9bbf-9dc96a941dbd","system_id":"levelo_inurba_marseille","lat":43.284973,"lon":5.385624,"is_reserved":false,"is_disabled":false,"rental_uris":{"android":"levelo://app?vid=18571e77-ec28-44fc-9bbf-9dc96a941dbd","ios":"levelo://app?vid=18571e77-ec28-44fc-9bbf-9dc96a941dbd"},"vehicle_type_id":"4","last_reported":1753564195,"current_range_meters":7200,"station_id":"ce4bh8p2rcd13ifvqeb0","pricing_plan_id":"cebpf4jnsgd1na2vs0mg"},{"bike_id":"f123af25-f5e1-4535-bf9a-e453fb7322cc","system_id":"levelo_inurba_marseille","lat":43.275299,"lon":5.409015,"is_reserved":false,"is_disabled":false,"rental_uris":{"android":"levelo://app?vid=f123af25-f5e1-4535-bf9a-e453fb7322cc","ios":"levelo://app?vid=f123af25-f5e1-4535-bf9a-e453fb7322cc"},"vehicle_type_id":"4","last_reported":1753564195,"current_range_meters":7200,"station_id":"","pricing_plan_id":"cebpf4jnsgd1na2vs0mg"},{"bike_id":"078febbd-6d49-4abf-8b46-d33f87f8da46","system_id":"levelo_inurba_marseille","lat":43.25452,"lon":5.38007,"is_reserved":false,"is_disabled":false,"rental_uris":{"android":"levelo://app?vid=078febbd-6d49-4abf-8b46-d33f87f8da46","ios":"levelo://app?vid=078febbd-6d49-4abf-8b46-d33f87f8da46"},"vehicle_type_id":"4","last_reported":1753564195,"current_range_meters":7200,"station_id":"","pricing_plan_id":"cebpf4jnsgd1na2vs0mg"},{"bike_id":"4177c350-b39d-4243-a455-e13f00e80b0a","system_id":"levelo_inurba_marseille","lat":43.2619,"lon":5.37453,"is_reserved":false,"is_disabled":true,"rental_uris":{"android":"levelo://app?vid=4177c350-b39d-4243-a455-e13f00e80b0a","ios":"levelo://app?vid=4177c350-b39d-4243-a455-e13f00e80b0a"},"vehicle_type_id":"4","last_reported":1753564195,"current_range_meters":7200,"station_id":"ce4bhgp2rcd13ifvqfc0","pricing_plan_id":"cebpf4jnsgd1na2vs0mg"},{"bike_id":"8b454f8e-a2cc-4f8a-9b75-defe6a01169e","system_id":"levelo_inurba_marseille","lat":43.28733,"lon":5.37499,"is_reserved":false,"is_disabled":false,"rental_uris":{"android":"levelo://app?vid=8b454f8e-a2cc-4f8a-9b75-defe6a01169e","ios":"levelo://app?vid=8b454f8e-a2cc-4f8a-9b75-defe6a01169e"},"vehicle_type_id":"4","last_reported":1753564195,"current_range_meters":7200,"station_id":"","pricing_plan_id":"cebpf4jnsgd1na2vs0mg"},{"bike_id":"7f4f0067-a392-462c-8835-dcb2ff844b9f","system_id":"levelo_inurba_marseille","lat":43.2927,"lon":5.36845,"is_reserved":false,"is_disabled":false,"rental_uris":{"android":"levelo://app?vid=7f4f0067-a392-462c-8835-dcb2ff844b9f","ios":"levelo://app?vid=7f4f0067-a392-462c-8835-dcb2ff844b9f"},"vehicle_type_id":"4","last_reported":1753564195,"current_range_meters":7200,"station_id":"ce4bhbp2rcd13ifvqesg","pricing_plan_id":"cebpf4jnsgd1na2vs0mg"},{"bike_id":"565789d8-7466-44ff-af8c-36a1424783b6","system_id":"levelo_inurba_marseille","lat":43.28348,"lon":5.38104,"is_reserved":false,"is_disabled":false,"rental_uris":{"android":"levelo://app?vid=565789d8-7466-44ff-af8c-36a1424783b6","ios":"levelo://app?vid=565789d8-7466-44ff-af8c-36a1424783b6"},"vehicle_type_id":"4","last_reported":1753564195,"current_range_meters":7200,"station_id":"ce4bh412rcd13ifvqdr0","pricing_plan_id":"cebpf4jnsgd1na2vs0mg"},{"bike_id":"c1dcf064-7633-4f3e-9c7d-cf25342fb85f","system_id":"levelo_inurba_marseille","lat":43.272072,"lon":5.391808,"is_reserved":false,"is_disabled":true,"rental_uris":{"android":"levelo://app?vid=c1dcf064-7633-4f3e-9c7d-cf25342fb85f","ios":"levelo://app?vid=c1dcf064-7633-4f3e-9c7d-cf25342fb85f"},"vehicle_type_id":"4","last_reported":1753564195,"current_range_meters":7200,"station_id":"ce4bhhp2rcd13ifvqfm0","pricing_plan_id":"cebpf4jnsgd1na2vs0mg"},{"bike_id":"68efc304-0d41-4c98-a023-943580f46380","system_id":"levelo_inurba_marseille","lat":43.22504,"lon":5.348,"is_reserved":false,"is_disabled":true,"rental_uris":{"android":"levelo://app?vid=68efc304-0d41-4c98-a023-943580f46380","ios":"levelo://app?vid=68efc304-0d41-4c98-a023-943580f46380"},"vehicle_type_id":"4","last_reported":1753564195,"current_range_meters":8000,"station_id":"st_cvj5dfep6f1abm77gieg","pricing_plan_id":"cebpf4jnsgd1na2vs0mg"},{"bike_id":"ec42fb6b-075e-444d-9f5b-c4f4aa64b3be","system_id":"levelo_inurba_marseille","lat":43.28932,"lon":5.36638,"is_reserved":false,"is_disabled":false,"rental_uris":{"android":"levelo://app?vid=ec42fb6b-075e-444d-9f5b-c4f4aa64b3be","ios":"levelo://app?vid=ec42fb6b-075e-444d-9f5b-c4f4aa64b3be"},"vehicle_type_id":"4","last_reported":1753564195,"current_range_meters":8000,"station_id":"ce4bhap2rcd13ifvqek0","pricing_plan_id":"cebpf4jnsgd1na2vs0mg"},{"bike_id":"845562e7-8619-4aab-88d9-46e2b2779b2c","system_id":"levelo_inurba_marseille","lat":43.23192,"lon":5.39991,"is_reserved":false,"is_disabled":false,"rental_uris":{"android":"levelo://app?vid=845562e7-8619-4aab-88d9-46e2b2779b2c","ios":"levelo://app?vid=845562e7-8619-4aab-88d9-46e2b2779b2c"},"vehicle_type_id":"4","last_reported":1753564195,"current_range_meters":8000,"station_id":"ce4bhn12rcd13ifvqgqg","pricing_plan_id":"cebpf4jnsgd1na2vs0mg"},{"bike_id":"3373b990-855a-4413-88e1-982f325228bc","system_id":"levelo_inurba_marseille","lat":43.29592,"lon":5.38014,"is_reserved":false,"is_disabled":false,"rental_uris":{"android":"levelo://app?vid=3373b990-855a-4413-88e1-982f325228bc","ios":"levelo://app?vid=3373b990-855a-4413-88e1-982f325228bc"},"vehicle_type_id":"4","last_reported":1753564195,"current_range_meters":8000,"station_id":"","pricing_plan_id":"cebpf4jnsgd1na2vs0mg"},{"bike_id":"1e0003b3-1f6d-4275-8955-7fad6a5814dc","system_id":"levelo_inurba_marseille","lat":43.30929,"lon":5.40144,"is_reserved":false,"is_disabled":false,"rental_uris":{"android":"levelo://app?vid=1e0003b3-1f6d-4275-8955-7fad6a5814dc","ios":"levelo://app?vid=1e0003b3-1f6d-4275-8955-7fad6a5814dc"},"vehicle_type_id":"4","last_reported":1753564195,"current_range_meters":8400,"station_id":"ce4bgvp2rcd13ifvqct0","pricing_plan_id":"cebpf4jnsgd1na2vs0mg"},{"bike_id":"02ad9c89-0406-4b96-a530-c10fdce1f041","system_id":"levelo_inurba_marseille","lat":43.25468,"lon":5.41602,"is_reserved":false,"is_disabled":false,"rental_uris":{"android":"levelo://app?vid=02ad9c89-0406-4b96-a530-c10fdce1f041","ios":"levelo://app?vid=02ad9c89-0406-4b96-a530-c10fdce1f041"},"vehicle_type_id":"4","last_reported":1753564195,"current_range_meters":8400,"station_id":"","pricing_plan_id":"cebpf4jnsgd1na2vs0mg"},{"bike_id":"50d39dcc-9320-406e-b18d-92ea2a889e7a","system_id":"levelo_inurba_marseille","lat":43.2962,"lon":5.37726,"is_reserved":false,"is_disabled":false,"rental_uris":{"android":"levelo://app?vid=50d39dcc-9320-406e-b18d-92ea2a889e7a","ios":"levelo://app?vid=50d39dcc-9320-406e-b18d-92ea2a889e7a"},"vehicle_type_id":"4","last_reported":1753564195,"current_range_meters":8400,"station_id":"ce4bgi92rcd13ifvqb90","pricing_plan_id":"cebpf4jnsgd1na2vs0mg"},{"bike_id":"f2192a33-fb69-4d0a-9d56-9c133668a3db","system_id":"levelo_inurba_marseille","lat":43.29526,"lon":5.3796,"is_reserved":false,"is_disabled":false,"rental_uris":{"android":"levelo://app?vid=f2192a33-fb69-4d0a-9d56-9c133668a3db","ios":"levelo://app?vid=f2192a33-fb69-4d0a-9d56-9c133668a3db"},"vehicle_type_id":"4","last_reported":1753564195,"current_range_meters":8400,"station_id":"","pricing_plan_id":"cebpf4jnsgd1na2vs0mg"},{"bike_id":"204957e6-036b-4b75-8de8-4489e6a95839","system_id":"levelo_inurba_marseille","lat":43.295524,"lon":5.381686,"is_reserved":false,"is_disabled":false,"rental_uris":{"android":"levelo://app?vid=204957e6-036b-4b75-8de8-4489e6a95839","ios":"levelo://app?vid=204957e6-036b-4b75-8de8-4489e6a95839"},"vehicle_type_id":"4","last_reported":1753564195,"current_range_meters":8000,"station_id":"ce4bgl12rcd13ifvqbo0","pricing_plan_id":"cebpf4jnsgd1na2vs0mg"},{"bike_id":"34a93ae8-e8a4-46ba-a1d2-6cef3f2cf6d0","system_id":"levelo_inurba_marseille","lat":43.29969,"lon":5.37176,"is_reserved":false,"is_disabled":false,"rental_uris":{"android":"levelo://app?vid=34a93ae8-e8a4-46ba-a1d2-6cef3f2cf6d0","ios":"levelo://app?vid=34a93ae8-e8a4-46ba-a1d2-6cef3f2cf6d0"},"vehicle_type_id":"4","last_reported":1753564195,"current_range_meters":8800,"station_id":"ce4bgr92rcd13ifvqc7g","pricing_plan_id":"cebpf4jnsgd1na2vs0mg"},{"bike_id":"43cf4049-15dd-4e8c-88a8-61cd8dc10bf5","system_id":"levelo_inurba_marseille","lat":43.33234,"lon":5.37869,"is_reserved":false,"is_disabled":false,"rental_uris":{"android":"levelo://app?vid=43cf4049-15dd-4e8c-88a8-61cd8dc10bf5","ios":"levelo://app?vid=43cf4049-15dd-4e8c-88a8-61cd8dc10bf5"},"vehicle_type_id":"4","last_reported":1753564195,"current_range_meters":8800,"station_id":"","pricing_plan_id":"cebpf4jnsgd1na2vs0mg"},{"bike_id":"acdc15f3-f881-4795-bd43-7b1b297ebaa4","system_id":"levelo_inurba_marseille","lat":43.27062,"lon":5.42274,"is_reserved":false,"is_disabled":true,"rental_uris":{"android":"levelo://app?vid=acdc15f3-f881-4795-bd43-7b1b297ebaa4","ios":"levelo://app?vid=acdc15f3-f881-4795-bd43-7b1b297ebaa4"},"vehicle_type_id":"4","last_reported":1753564195,"current_range_meters":8800,"station_id":"ce4bhk92rcd13ifvqgb0","pricing_plan_id":"cebpf4jnsgd1na2vs0mg"},{"bike_id":"3ef72bb7-fe1e-4de0-993a-abe70d469f2a","system_id":"levelo_inurba_marseille","lat":43.29877,"lon":5.3765,"is_reserved":false,"is_disabled":false,"rental_uris":{"android":"levelo://app?vid=3ef72bb7-fe1e-4de0-993a-abe70d469f2a","ios":"levelo://app?vid=3ef72bb7-fe1e-4de0-993a-abe70d469f2a"},"vehicle_type_id":"4","last_reported":1753564195,"current_range_meters":8800,"station_id":"","pricing_plan_id":"cebpf4jnsgd1na2vs0mg"},{"bike_id":"e5b215f7-9ac1-46b3-bdaf-32c91b8cf732","system_id":"levelo_inurba_marseille","lat":43.29888,"lon":5.40218,"is_reserved":false,"is_disabled":false,"rental_uris":{"android":"levelo://app?vid=e5b215f7-9ac1-46b3-bdaf-32c91b8cf732","ios":"levelo://app?vid=e5b215f7-9ac1-46b3-bdaf-32c91b8cf732"},"vehicle_type_id":"4","last_reported":1753564195,"current_range_meters":8800,"station_id":"","pricing_plan_id":"cebpf4jnsgd1na2vs0mg"},{"bike_id":"a0d60e44-246d-4cc0-aef3-dc664879b373","system_id":"levelo_inurba_marseille","lat":43.2175,"lon":5.34605,"is_reserved":false,"is_disabled":true,"rental_uris":{"android":"levelo://app?vid=a0d60e44-246d-4cc0-aef3-dc664879b373","ios":"levelo://app?vid=a0d60e44-246d-4cc0-aef3-dc664879b373"},"vehicle_type_id":"4","last_reported":1753564195,"current_range_meters":9200,"station_id":"st_cvj6r9ubvosntc0bgbag","pricing_plan_id":"cebpf4jnsgd1na2vs0mg"},{"bike_id":"636a1f60-6a39-42c8-ae46-fd9c16ca81f9","system_id":"levelo_inurba_marseille","lat":43.25138,"lon":5.40335,"is_reserved":false,"is_disabled":false,"rental_uris":{"android":"levelo://app?vid=636a1f60-6a39-42c8-ae46-fd9c16ca81f9","ios":"levelo://app?vid=636a1f60-6a39-42c8-ae46-fd9c16ca81f9"},"vehicle_type_id":"4","last_reported":1753564195,"current_range_meters":9200,"station_id":"ce4bhlh2rcd13ifvqgig","pricing_plan_id":"cebpf4jnsgd1na2vs0mg"},{"bike_id":"d497f12f-5992-41a8-98c2-97b5a77e0468","system_id":"levelo_inurba_marseille","lat":43.28415,"lon":5.37522,"is_reserved":false,"is_disabled":false,"rental_uris":{"android":"levelo://app?vid=d497f12f-5992-41a8-98c2-97b5a77e0468","ios":"levelo://app?vid=d497f12f-5992-41a8-98c2-97b5a77e0468"},"vehicle_type_id":"4","last_reported":1753564195,"current_range_meters":9200,"station_id":"ce4bh412rcd13ifvqds0","pricing_plan_id":"cebpf4jnsgd1na2vs0mg"},{"bike_id":"ab991371-506a-411d-b1d8-1efc5ac7cde6","system_id":"levelo_inurba_marseille","lat":43.22775,"lon":5.3519,"is_reserved":false,"is_disabled":false,"rental_uris":{"android":"levelo://app?vid=ab991371-506a-411d-b1d8-1efc5ac7cde6","ios":"levelo://app?vid=ab991371-506a-411d-b1d8-1efc5ac7cde6"},"vehicle_type_id":"4","last_reported":1753564195,"current_range_meters":9200,"station_id":"","pricing_plan_id":"cebpf4jnsgd1na2vs0mg"},{"bike_id":"75a52d90-a84e-49e8-9197-7fd3f8d0259a","system_id":"levelo_inurba_marseille","lat":43.26223,"lon":5.37482,"is_reserved":false,"is_disabled":true,"rental_uris":{"android":"levelo://app?vid=75a52d90-a84e-49e8-9197-7fd3f8d0259a","ios":"levelo://app?vid=75a52d90-a84e-49e8-9197-7fd3f8d0259a"},"vehicle_type_id":"4","last_reported":1753564195,"current_range_meters":9200,"station_id":"","pricing_plan_id":"cebpf4jnsgd1na2vs0mg"},{"bike_id":"dcb155a7-89f0-4bfb-a080-a31908c2fed3","system_id":"levelo_inurba_marseille","lat":43.290833,"lon":5.38128,"is_reserved":false,"is_disabled":false,"rental_uris":{"android":"levelo://app?vid=dcb155a7-89f0-4bfb-a080-a31908c2fed3","ios":"levelo://app?vid=dcb155a7-89f0-4bfb-a080-a31908c2fed3"},"vehicle_type_id":"4","last_reported":1753564195,"current_range_meters":9200,"station_id":"ce4bh512rcd13ifvqe2g","pricing_plan_id":"cebpf4jnsgd1na2vs0mg"},{"bike_id":"ef592710-f4a1-404c-9095-9497f4271d1e","system_id":"levelo_inurba_marseille","lat":43.29526,"lon":5.38545,"is_reserved":false,"is_disabled":false,"rental_uris":{"android":"levelo://app?vid=ef592710-f4a1-404c-9095-9497f4271d1e","ios":"levelo://app?vid=ef592710-f4a1-404c-9095-9497f4271d1e"},"vehicle_type_id":"4","last_reported":1753564195,"current_range_meters":9200,"station_id":"ce4bgih2rcd13ifvqba0","pricing_plan_id":"cebpf4jnsgd1na2vs0mg"},{"bike_id":"a358290d-d571-468c-a890-3954a657c6fc","system_id":"levelo_inurba_marseille","lat":43.27494,"lon":5.4245,"is_reserved":false,"is_disabled":false,"rental_uris":{"android":"levelo://app?vid=a358290d-d571-468c-a890-3954a657c6fc","ios":"levelo://app?vid=a358290d-d571-468c-a890-3954a657c6fc"},"vehicle_type_id":"4","last_reported":1753564195,"current_range_meters":8800,"station_id":"ce4bhn92rcd13ifvqgrg","pricing_plan_id":"cebpf4jnsgd1na2vs0mg"},{"bike_id":"a3fe9995-2e3e-423b-9540-429a92fa997e","system_id":"levelo_inurba_marseille","lat":43.30155,"lon":5.37202,"is_reserved":false,"is_disabled":false,"rental_uris":{"android":"levelo://app?vid=a3fe9995-2e3e-423b-9540-429a92fa997e","ios":"levelo://app?vid=a3fe9995-2e3e-423b-9540-429a92fa997e"},"vehicle_type_id":"4","last_reported":1753564195,"current_range_meters":9200,"station_id":"","pricing_plan_id":"cebpf4jnsgd1na2vs0mg"},{"bike_id":"8b0c6d13-807e-48d4-95c1-9dd1c54cb5c4","system_id":"levelo_inurba_marseille","lat":43.30144,"lon":5.39851,"is_reserved":false,"is_disabled":false,"rental_uris":{"android":"levelo://app?vid=8b0c6d13-807e-48d4-95c1-9dd1c54cb5c4","ios":"levelo://app?vid=8b0c6d13-807e-48d4-95c1-9dd1c54cb5c4"},"vehicle_type_id":"4","last_reported":1753564195,"current_range_meters":9600,"station_id":"ce4bh0h2rcd13ifvqd40","pricing_plan_id":"cebpf4jnsgd1na2vs0mg"},{"bike_id":"22dca147-1260-44d8-822d-d9d1d50cce31","system_id":"levelo_inurba_marseille","lat":43.27478,"lon":5.39618,"is_reserved":false,"is_disabled":false,"rental_uris":{"android":"levelo://app?vid=22dca147-1260-44d8-822d-d9d1d50cce31","ios":"levelo://app?vid=22dca147-1260-44d8-822d-d9d1d50cce31"},"vehicle_type_id":"4","last_reported":1753564195,"current_range_meters":9600,"station_id":"","pricing_plan_id":"cebpf4jnsgd1na2vs0mg"},{"bike_id":"b5bdf37f-0ab4-441a-844f-e51dbfb5b2a3","system_id":"levelo_inurba_marseille","lat":43.27939,"lon":5.41051,"is_reserved":false,"is_disabled":false,"rental_uris":{"android":"levelo://app?vid=b5bdf37f-0ab4-441a-844f-e51dbfb5b2a3","ios":"levelo://app?vid=b5bdf37f-0ab4-441a-844f-e51dbfb5b2a3"},"vehicle_type_id":"4","last_reported":1753564195,"current_range_meters":9600,"station_id":"ce4bhnp2rcd13ifvqh0g","pricing_plan_id":"cebpf4jnsgd1na2vs0mg"},{"bike_id":"64fb8bc2-1d90-4608-a519-44146b3d6adf","system_id":"levelo_inurba_marseille","lat":43.28866,"lon":5.36208,"is_reserved":false,"is_disabled":false,"rental_uris":{"android":"levelo://app?vid=64fb8bc2-1d90-4608-a519-44146b3d6adf","ios":"levelo://app?vid=64fb8bc2-1d90-4608-a519-44146b3d6adf"},"vehicle_type_id":"4","last_reported":1753564195,"current_range_meters":9600,"station_id":"","pricing_plan_id":"cebpf4jnsgd1na2vs0mg"},{"bike_id":"11f90f91-795d-4e4c-8acd-ca86fec62210","system_id":"levelo_inurba_marseille","lat":43.2705,"lon":5.40265,"is_reserved":false,"is_disabled":false,"rental_uris":{"android":"levelo://app?vid=11f90f91-795d-4e4c-8acd-ca86fec62210","ios":"levelo://app?vid=11f90f91-795d-4e4c-8acd-ca86fec62210"},"vehicle_type_id":"4","last_reported":1753564195,"current_range_meters":9600,"station_id":"ce4bhk92rcd13ifvqgc0","pricing_plan_id":"cebpf4jnsgd1na2vs0mg"},{"bike_id":"12d3c0dd-2dda-4fa7-89a3-815b5c322b1f","system_id":"levelo_inurba_marseille","lat":43.29171,"lon":5.37157,"is_reserved":false,"is_disabled":false,"rental_uris":{"android":"levelo://app?vid=12d3c0dd-2dda-4fa7-89a3-815b5c322b1f","ios":"levelo://app?vid=12d3c0dd-2dda-4fa7-89a3-815b5c322b1f"},"vehicle_type_id":"4","last_reported":1753564195,"current_range_meters":9600,"station_id":"ce4bha92rcd13ifvqeh0","pricing_plan_id":"cebpf4jnsgd1na2vs0mg"},{"bike_id":"295de28f-5469-421c-873e-076d2fbd1d95","system_id":"levelo_inurba_marseille","lat":43.28607,"lon":5.37051,"is_reserved":false,"is_disabled":false,"rental_uris":{"android":"levelo://app?vid=295de28f-5469-421c-873e-076d2fbd1d95","ios":"levelo://app?vid=295de28f-5469-421c-873e-076d2fbd1d95"},"vehicle_type_id":"4","last_reported":1753564195,"current_range_meters":9600,"station_id":"ce4bht12rcd13ifvqi60","pricing_plan_id":"cebpf4jnsgd1na2vs0mg"},{"bike_id":"98f0b28d-74f2-4fac-8da1-e9242c40fc9c","system_id":"levelo_inurba_marseille","lat":43.309281,"lon":5.401431,"is_reserved":false,"is_disabled":false,"rental_uris":{"android":"levelo://app?vid=98f0b28d-74f2-4fac-8da1-e9242c40fc9c","ios":"levelo://app?vid=98f0b28d-74f2-4fac-8da1-e9242c40fc9c"},"vehicle_type_id":"4","last_reported":1753564195,"current_range_meters":9600,"station_id":"ce4bgvp2rcd13ifvqct0","pricing_plan_id":"cebpf4jnsgd1na2vs0mg"},{"bike_id":"527f9dd1-96a3-440c-a8fc-5e1e197563f1","system_id":"levelo_inurba_marseille","lat":43.30535,"lon":5.38423,"is_reserved":false,"is_disabled":false,"rental_uris":{"android":"levelo://app?vid=527f9dd1-96a3-440c-a8fc-5e1e197563f1","ios":"levelo://app?vid=527f9dd1-96a3-440c-a8fc-5e1e197563f1"},"vehicle_type_id":"4","last_reported":1753564195,"current_range_meters":10000,"station_id":"ce4bgg92rcd13ifvqb30","pricing_plan_id":"cebpf4jnsgd1na2vs0mg"},{"bike_id":"65a8ad05-f522-4873-a934-26463edb271a","system_id":"levelo_inurba_marseille","lat":43.29262,"lon":5.38434,"is_reserved":false,"is_disabled":false,"rental_uris":{"android":"levelo://app?vid=65a8ad05-f522-4873-a934-26463edb271a","ios":"levelo://app?vid=65a8ad05-f522-4873-a934-26463edb271a"},"vehicle_type_id":"4","last_reported":1753564195,"current_range_meters":10000,"station_id":"ce4bh692rcd13ifvqea0","pricing_plan_id":"cebpf4jnsgd1na2vs0mg"},{"bike_id":"8aec49e9-2a7c-473f-936a-01f180d46c56","system_id":"levelo_inurba_marseille","lat":43.225044,"lon":5.347839,"is_reserved":false,"is_disabled":false,"rental_uris":{"android":"levelo://app?vid=8aec49e9-2a7c-473f-936a-01f180d46c56","ios":"levelo://app?vid=8aec49e9-2a7c-473f-936a-01f180d46c56"},"vehicle_type_id":"4","last_reported":1753564195,"current_range_meters":10000,"station_id":"st_cvj5dfep6f1abm77gieg","pricing_plan_id":"cebpf4jnsgd1na2vs0mg"},{"bike_id":"a7bf5d38-832b-46da-969b-5cbb24fa60df","system_id":"levelo_inurba_marseille","lat":43.29257,"lon":5.38431,"is_reserved":false,"is_disabled":false,"rental_uris":{"android":"levelo://app?vid=a7bf5d38-832b-46da-969b-5cbb24fa60df","ios":"levelo://app?vid=a7bf5d38-832b-46da-969b-5cbb24fa60df"},"vehicle_type_id":"4","last_reported":1753564195,"current_range_meters":10000,"station_id":"ce4bh692rcd13ifvqea0","pricing_plan_id":"cebpf4jnsgd1na2vs0mg"},{"bike_id":"fa80fa4d-8a9a-40b9-a68d-765c604a210b","system_id":"levelo_inurba_marseille","lat":43.28169,"lon":5.42604,"is_reserved":false,"is_disabled":false,"rental_uris":{"android":"levelo://app?vid=fa80fa4d-8a9a-40b9-a68d-765c604a210b","ios":"levelo://app?vid=fa80fa4d-8a9a-40b9-a68d-765c604a210b"},"vehicle_type_id":"4","last_reported":1753564195,"current_range_meters":10000,"station_id":"ce4bhnh2rcd13ifvqgug","pricing_plan_id":"cebpf4jnsgd1na2vs0mg"},{"bike_id":"6ab0b13c-2ff1-417a-acfd-489d6800d4c9","system_id":"levelo_inurba_marseille","lat":43.27389,"lon":5.36294,"is_reserved":false,"is_disabled":true,"rental_uris":{"android":"levelo://app?vid=6ab0b13c-2ff1-417a-acfd-489d6800d4c9","ios":"levelo://app?vid=6ab0b13c-2ff1-417a-acfd-489d6800d4c9"},"vehicle_type_id":"4","last_reported":1753564195,"current_range_meters":10000,"station_id":"ce4bhbh2rcd13ifvqeo0","pricing_plan_id":"cebpf4jnsgd1na2vs0mg"},{"bike_id":"e8fbe1e0-a8be-42a5-9db7-cae606f8e27c","system_id":"levelo_inurba_marseille","lat":43.34974,"lon":5.35083,"is_reserved":false,"is_disabled":false,"rental_uris":{"android":"levelo://app?vid=e8fbe1e0-a8be-42a5-9db7-cae606f8e27c","ios":"levelo://app?vid=e8fbe1e0-a8be-42a5-9db7-cae606f8e27c"},"vehicle_type_id":"4","last_reported":1753564195,"current_range_meters":10800,"station_id":"","pricing_plan_id":"cebpf4jnsgd1na2vs0mg"},{"bike_id":"de99b14c-9afd-4bdd-bc56-50354c110c3d","system_id":"levelo_inurba_marseille","lat":43.25467,"lon":5.37687,"is_reserved":false,"is_disabled":false,"rental_uris":{"android":"levelo://app?vid=de99b14c-9afd-4bdd-bc56-50354c110c3d","ios":"levelo://app?vid=de99b14c-9afd-4bdd-bc56-50354c110c3d"},"vehicle_type_id":"4","last_reported":1753564195,"current_range_meters":10800,"station_id":"","pricing_plan_id":"cebpf4jnsgd1na2vs0mg"},{"bike_id":"01919711-51c0-4b9e-863e-584f9a31b4ec","system_id":"levelo_inurba_marseille","lat":43.29897,"lon":5.39724,"is_reserved":false,"is_disabled":true,"rental_uris":{"android":"levelo://app?vid=01919711-51c0-4b9e-863e-584f9a31b4ec","ios":"levelo://app?vid=01919711-51c0-4b9e-863e-584f9a31b4ec"},"vehicle_type_id":"4","last_reported":1753564195,"current_range_meters":10800,"station_id":"ce4bh0h2rcd13ifvqd50","pricing_plan_id":"cebpf4jnsgd1na2vs0mg"},{"bike_id":"754f55fa-9cec-441a-8b6d-fedcd1f0cfca","system_id":"levelo_inurba_marseille","lat":43.2949,"lon":5.38456,"is_reserved":false,"is_disabled":false,"rental_uris":{"android":"levelo://app?vid=754f55fa-9cec-441a-8b6d-fedcd1f0cfca","ios":"levelo://app?vid=754f55fa-9cec-441a-8b6d-fedcd1f0cfca"},"vehicle_type_id":"4","last_reported":1753564195,"current_range_meters":10800,"station_id":"","pricing_plan_id":"cebpf4jnsgd1na2vs0mg"},{"bike_id":"49745255-e461-4259-a8da-aac100b677a5","system_id":"levelo_inurba_marseille","lat":43.29343,"lon":5.37192,"is_reserved":false,"is_disabled":false,"rental_uris":{"android":"levelo://app?vid=49745255-e461-4259-a8da-aac100b677a5","ios":"levelo://app?vid=49745255-e461-4259-a8da-aac100b677a5"},"vehicle_type_id":"4","last_reported":1753564195,"current_range_meters":10800,"station_id":"ce4bgh92rcd13ifvqb40","pricing_plan_id":"cebpf4jnsgd1na2vs0mg"},{"bike_id":"a4a48f44-e792-4fd0-82f8-399ea740a344","system_id":"levelo_inurba_marseille","lat":43.30787,"lon":5.37649,"is_reserved":false,"is_disabled":false,"rental_uris":{"android":"levelo://app?vid=a4a48f44-e792-4fd0-82f8-399ea740a344","ios":"levelo://app?vid=a4a48f44-e792-4fd0-82f8-399ea740a344"},"vehicle_type_id":"4","last_reported":1753564195,"current_range_meters":10000,"station_id":"ce4bgv92rcd13ifvqcq0","pricing_plan_id":"cebpf4jnsgd1na2vs0mg"},{"bike_id":"73925dde-7d42-48d8-a0ff-958907b37938","system_id":"levelo_inurba_marseille","lat":43.29597,"lon":5.38104,"is_reserved":false,"is_disabled":false,"rental_uris":{"android":"levelo://app?vid=73925dde-7d42-48d8-a0ff-958907b37938","ios":"levelo://app?vid=73925dde-7d42-48d8-a0ff-958907b37938"},"vehicle_type_id":"4","last_reported":1753564195,"current_range_meters":11200,"station_id":"ce4bgl12rcd13ifvqbo0","pricing_plan_id":"cebpf4jnsgd1na2vs0mg"},{"bike_id":"f2c0d178-a474-46a0-b002-379a7a30c411","system_id":"levelo_inurba_marseille","lat":43.29398,"lon":5.37642,"is_reserved":false,"is_disabled":false,"rental_uris":{"android":"levelo://app?vid=f2c0d178-a474-46a0-b002-379a7a30c411","ios":"levelo://app?vid=f2c0d178-a474-46a0-b002-379a7a30c411"},"vehicle_type_id":"4","last_reported":1753564195,"current_range_meters":11200,"station_id":"","pricing_plan_id":"cebpf4jnsgd1na2vs0mg"},{"bike_id":"c6daf510-0330-4b83-8882-83dd2b7582bb","system_id":"levelo_inurba_marseille","lat":43.30299,"lon":5.39225,"is_reserved":false,"is_disabled":false,"rental_uris":{"android":"levelo://app?vid=c6daf510-0330-4b83-8882-83dd2b7582bb","ios":"levelo://app?vid=c6daf510-0330-4b83-8882-83dd2b7582bb"},"vehicle_type_id":"4","last_reported":1753564195,"current_range_meters":11200,"station_id":"ce4bgkh2rcd13ifvqbk0","pricing_plan_id":"cebpf4jnsgd1na2vs0mg"},{"bike_id":"5ce41e94-8fb1-4089-a61a-987d066ff238","system_id":"levelo_inurba_marseille","lat":43.23149,"lon":5.43717,"is_reserved":false,"is_disabled":false,"rental_uris":{"android":"levelo://app?vid=5ce41e94-8fb1-4089-a61a-987d066ff238","ios":"levelo://app?vid=5ce41e94-8fb1-4089-a61a-987d066ff238"},"vehicle_type_id":"4","last_reported":1753564195,"current_range_meters":11200,"station_id":"ce4bhmp2rcd13ifvqgog","pricing_plan_id":"cebpf4jnsgd1na2vs0mg"},{"bike_id":"9bff4c30-7d52-4173-88ba-afd3702b54f6","system_id":"levelo_inurba_marseille","lat":43.27963,"lon":5.41679,"is_reserved":false,"is_disabled":false,"rental_uris":{"android":"levelo://app?vid=9bff4c30-7d52-4173-88ba-afd3702b54f6","ios":"levelo://app?vid=9bff4c30-7d52-4173-88ba-afd3702b54f6"},"vehicle_type_id":"4","last_reported":1753564195,"current_range_meters":11200,"station_id":"ce4bho12rcd13ifvqh1g","pricing_plan_id":"cebpf4jnsgd1na2vs0mg"},{"bike_id":"57755280-973c-4ff3-9c25-8f15e2c5b510","system_id":"levelo_inurba_marseille","lat":43.31872,"lon":5.37373,"is_reserved":false,"is_disabled":false,"rental_uris":{"android":"levelo://app?vid=57755280-973c-4ff3-9c25-8f15e2c5b510","ios":"levelo://app?vid=57755280-973c-4ff3-9c25-8f15e2c5b510"},"vehicle_type_id":"4","last_reported":1753564195,"current_range_meters":11200,"station_id":"","pricing_plan_id":"cebpf4jnsgd1na2vs0mg"},{"bike_id":"29b04cad-1697-44bc-b474-255fd056ecfb","system_id":"levelo_inurba_marseille","lat":43.23147,"lon":5.4372,"is_reserved":false,"is_disabled":false,"rental_uris":{"android":"levelo://app?vid=29b04cad-1697-44bc-b474-255fd056ecfb","ios":"levelo://app?vid=29b04cad-1697-44bc-b474-255fd056ecfb"},"vehicle_type_id":"4","last_reported":1753564195,"current_range_meters":11200,"station_id":"ce4bhmp2rcd13ifvqgog","pricing_plan_id":"cebpf4jnsgd1na2vs0mg"},{"bike_id":"e3bc958a-601f-4119-86c9-7ff019fbb043","system_id":"levelo_inurba_marseille","lat":43.29169,"lon":5.37162,"is_reserved":false,"is_disabled":false,"rental_uris":{"android":"levelo://app?vid=e3bc958a-601f-4119-86c9-7ff019fbb043","ios":"levelo://app?vid=e3bc958a-601f-4119-86c9-7ff019fbb043"},"vehicle_type_id":"4","last_reported":1753564195,"current_range_meters":11200,"station_id":"ce4bha92rcd13ifvqeh0","pricing_plan_id":"cebpf4jnsgd1na2vs0mg"},{"bike_id":"09447d92-0522-480e-b6b5-24959949ccf9","system_id":"levelo_inurba_marseille","lat":43.32416,"lon":5.36806,"is_reserved":false,"is_disabled":false,"rental_uris":{"android":"levelo://app?vid=09447d92-0522-480e-b6b5-24959949ccf9","ios":"levelo://app?vid=09447d92-0522-480e-b6b5-24959949ccf9"},"vehicle_type_id":"4","last_reported":1753564195,"current_range_meters":11600,"station_id":"","pricing_plan_id":"cebpf4jnsgd1na2vs0mg"},{"bike_id":"b5aab1b5-818a-4dfd-b7ae-70df5639e329","system_id":"levelo_inurba_marseille","lat":43.27059,"lon":5.42286,"is_reserved":false,"is_disabled":false,"rental_uris":{"android":"levelo://app?vid=b5aab1b5-818a-4dfd-b7ae-70df5639e329","ios":"levelo://app?vid=b5aab1b5-818a-4dfd-b7ae-70df5639e329"},"vehicle_type_id":"4","last_reported":1753564195,"current_range_meters":11600,"station_id":"ce4bhk92rcd13ifvqgb0","pricing_plan_id":"cebpf4jnsgd1na2vs0mg"},{"bike_id":"22c18818-21ba-4c9a-84b8-e03ade2dba42","system_id":"levelo_inurba_marseille","lat":43.29534,"lon":5.385346,"is_reserved":false,"is_disabled":false,"rental_uris":{"android":"levelo://app?vid=22c18818-21ba-4c9a-84b8-e03ade2dba42","ios":"levelo://app?vid=22c18818-21ba-4c9a-84b8-e03ade2dba42"},"vehicle_type_id":"4","last_reported":1753564195,"current_range_meters":11600,"station_id":"ce4bgih2rcd13ifvqba0","pricing_plan_id":"cebpf4jnsgd1na2vs0mg"},{"bike_id":"de80e1f8-f338-4fdf-a46a-fb5d0e7700ed","system_id":"levelo_inurba_marseille","lat":43.2396,"lon":5.36637,"is_reserved":false,"is_disabled":false,"rental_uris":{"android":"levelo://app?vid=de80e1f8-f338-4fdf-a46a-fb5d0e7700ed","ios":"levelo://app?vid=de80e1f8-f338-4fdf-a46a-fb5d0e7700ed"},"vehicle_type_id":"4","last_reported":1753564195,"current_range_meters":11600,"station_id":"ce4bhi12rcd13ifvqfp0","pricing_plan_id":"cebpf4jnsgd1na2vs0mg"},{"bike_id":"ba8a4fd4-1ed0-4e88-9411-11459225781d","system_id":"levelo_inurba_marseille","lat":43.29781,"lon":5.37115,"is_reserved":false,"is_disabled":false,"rental_uris":{"android":"levelo://app?vid=ba8a4fd4-1ed0-4e88-9411-11459225781d","ios":"levelo://app?vid=ba8a4fd4-1ed0-4e88-9411-11459225781d"},"vehicle_type_id":"4","last_reported":1753564195,"current_range_meters":11600,"station_id":"ce4bgop2rcd13ifvqc1g","pricing_plan_id":"cebpf4jnsgd1na2vs0mg"},{"bike_id":"1bd499a3-561d-4879-8ab0-5f538c66a5f1","system_id":"levelo_inurba_marseille","lat":43.251,"lon":5.40331,"is_reserved":false,"is_disabled":false,"rental_uris":{"android":"levelo://app?vid=1bd499a3-561d-4879-8ab0-5f538c66a5f1","ios":"levelo://app?vid=1bd499a3-561d-4879-8ab0-5f538c66a5f1"},"vehicle_type_id":"4","last_reported":1753564195,"current_range_meters":11600,"station_id":"ce4bhlh2rcd13ifvqgig","pricing_plan_id":"cebpf4jnsgd1na2vs0mg"},{"bike_id":"7308e317-7728-4b1b-9e5b-888404d1ac18","system_id":"levelo_inurba_marseille","lat":43.295268,"lon":5.385389,"is_reserved":false,"is_disabled":false,"rental_uris":{"android":"levelo://app?vid=7308e317-7728-4b1b-9e5b-888404d1ac18","ios":"levelo://app?vid=7308e317-7728-4b1b-9e5b-888404d1ac18"},"vehicle_type_id":"4","last_reported":1753564195,"current_range_meters":11600,"station_id":"ce4bgih2rcd13ifvqba0","pricing_plan_id":"cebpf4jnsgd1na2vs0mg"},{"bike_id":"d3797457-ac44-4168-8546-2d7c03b52863","system_id":"levelo_inurba_marseille","lat":43.25114,"lon":5.40323,"is_reserved":false,"is_disabled":false,"rental_uris":{"android":"levelo://app?vid=d3797457-ac44-4168-8546-2d7c03b52863","ios":"levelo://app?vid=d3797457-ac44-4168-8546-2d7c03b52863"},"vehicle_type_id":"4","last_reported":1753564195,"current_range_meters":11200,"station_id":"ce4bhlh2rcd13ifvqgig","pricing_plan_id":"cebpf4jnsgd1na2vs0mg"},{"bike_id":"704cc7cb-6a85-4714-a0d8-3259ee1f4f6b","system_id":"levelo_inurba_marseille","lat":43.29476,"lon":5.38669,"is_reserved":false,"is_disabled":false,"rental_uris":{"android":"levelo://app?vid=704cc7cb-6a85-4714-a0d8-3259ee1f4f6b","ios":"levelo://app?vid=704cc7cb-6a85-4714-a0d8-3259ee1f4f6b"},"vehicle_type_id":"4","last_reported":1753564195,"current_range_meters":12000,"station_id":"","pricing_plan_id":"cebpf4jnsgd1na2vs0mg"},{"bike_id":"fa38850d-1101-4056-a874-887fac42d81d","system_id":"levelo_inurba_marseille","lat":43.30328,"lon":5.40448,"is_reserved":false,"is_disabled":false,"rental_uris":{"android":"levelo://app?vid=fa38850d-1101-4056-a874-887fac42d81d","ios":"levelo://app?vid=fa38850d-1101-4056-a874-887fac42d81d"},"vehicle_type_id":"4","last_reported":1753564195,"current_range_meters":12000,"station_id":"ce4bh012rcd13ifvqd10","pricing_plan_id":"cebpf4jnsgd1na2vs0mg"},{"bike_id":"80cda384-a0de-4854-88d7-81c5eb0a10d1","system_id":"levelo_inurba_marseille","lat":43.289325,"lon":5.363994,"is_reserved":false,"is_disabled":true,"rental_uris":{"android":"levelo://app?vid=80cda384-a0de-4854-88d7-81c5eb0a10d1","ios":"levelo://app?vid=80cda384-a0de-4854-88d7-81c5eb0a10d1"},"vehicle_type_id":"4","last_reported":1753564195,"current_range_meters":12000,"station_id":"ce4bhc92rcd13ifvqetg","pricing_plan_id":"cebpf4jnsgd1na2vs0mg"},{"bike_id":"6a98125e-45a9-4823-a753-8c4730e4de7d","system_id":"levelo_inurba_marseille","lat":43.30535,"lon":5.36519,"is_reserved":false,"is_disabled":false,"rental_uris":{"android":"levelo://app?vid=6a98125e-45a9-4823-a753-8c4730e4de7d","ios":"levelo://app?vid=6a98125e-45a9-4823-a753-8c4730e4de7d"},"vehicle_type_id":"4","last_reported":1753564195,"current_range_meters":12400,"station_id":"ce4bgs12rcd13ifvqcag","pricing_plan_id":"cebpf4jnsgd1na2vs0mg"},{"bike_id":"5829631d-b946-4dbc-8534-8519d7d1014f","system_id":"levelo_inurba_marseille","lat":43.27999,"lon":5.41664,"is_reserved":false,"is_disabled":false,"rental_uris":{"android":"levelo://app?vid=5829631d-b946-4dbc-8534-8519d7d1014f","ios":"levelo://app?vid=5829631d-b946-4dbc-8534-8519d7d1014f"},"vehicle_type_id":"4","last_reported":1753564195,"current_range_meters":12000,"station_id":"ce4bho12rcd13ifvqh1g","pricing_plan_id":"cebpf4jnsgd1na2vs0mg"},{"bike_id":"d00b6abc-174d-48a1-8e37-47955a519e3f","system_id":"levelo_inurba_marseille","lat":43.22941,"lon":5.3538,"is_reserved":false,"is_disabled":false,"rental_uris":{"android":"levelo://app?vid=d00b6abc-174d-48a1-8e37-47955a519e3f","ios":"levelo://app?vid=d00b6abc-174d-48a1-8e37-47955a519e3f"},"vehicle_type_id":"4","last_reported":1753564195,"current_range_meters":12400,"station_id":"cpo3532slgdg3j2ikp40","pricing_plan_id":"cebpf4jnsgd1na2vs0mg"},{"bike_id":"b0c426d7-f261-4d60-b26f-f28d276342e2","system_id":"levelo_inurba_marseille","lat":43.30297,"lon":5.36907,"is_reserved":false,"is_disabled":false,"rental_uris":{"android":"levelo://app?vid=b0c426d7-f261-4d60-b26f-f28d276342e2","ios":"levelo://app?vid=b0c426d7-f261-4d60-b26f-f28d276342e2"},"vehicle_type_id":"4","last_reported":1753564195,"current_range_meters":12400,"station_id":"ce4bgqh2rcd13ifvqc5g","pricing_plan_id":"cebpf4jnsgd1na2vs0mg"},{"bike_id":"b9847878-debf-4a46-8473-4ced677d311a","system_id":"levelo_inurba_marseille","lat":43.27997,"lon":5.41667,"is_reserved":false,"is_disabled":false,"rental_uris":{"android":"levelo://app?vid=b9847878-debf-4a46-8473-4ced677d311a","ios":"levelo://app?vid=b9847878-debf-4a46-8473-4ced677d311a"},"vehicle_type_id":"4","last_reported":1753564195,"current_range_meters":12000,"station_id":"ce4bho12rcd13ifvqh1g","pricing_plan_id":"cebpf4jnsgd1na2vs0mg"},{"bike_id":"09274d47-00e7-49f6-88ca-225bd32d3046","system_id":"levelo_inurba_marseille","lat":43.28671,"lon":5.38664,"is_reserved":false,"is_disabled":false,"rental_uris":{"android":"levelo://app?vid=09274d47-00e7-49f6-88ca-225bd32d3046","ios":"levelo://app?vid=09274d47-00e7-49f6-88ca-225bd32d3046"},"vehicle_type_id":"4","last_reported":1753564195,"current_range_meters":12400,"station_id":"ce4bh492rcd13ifvqdug","pricing_plan_id":"cebpf4jnsgd1na2vs0mg"},{"bike_id":"4fb944f4-df89-4c8e-8dea-e95b2a7ae9af","system_id":"levelo_inurba_marseille","lat":43.295987,"lon":5.381018,"is_reserved":false,"is_disabled":false,"rental_uris":{"android":"levelo://app?vid=4fb944f4-df89-4c8e-8dea-e95b2a7ae9af","ios":"levelo://app?vid=4fb944f4-df89-4c8e-8dea-e95b2a7ae9af"},"vehicle_type_id":"4","last_reported":1753564195,"current_range_meters":12400,"station_id":"ce4bgl12rcd13ifvqbo0","pricing_plan_id":"cebpf4jnsgd1na2vs0mg"},{"bike_id":"c579ff75-cd9b-45c6-a6dc-35ac53a5f916","system_id":"levelo_inurba_marseille","lat":43.27945,"lon":5.41054,"is_reserved":false,"is_disabled":false,"rental_uris":{"android":"levelo://app?vid=c579ff75-cd9b-45c6-a6dc-35ac53a5f916","ios":"levelo://app?vid=c579ff75-cd9b-45c6-a6dc-35ac53a5f916"},"vehicle_type_id":"4","last_reported":1753564195,"current_range_meters":12400,"station_id":"ce4bhnp2rcd13ifvqh0g","pricing_plan_id":"cebpf4jnsgd1na2vs0mg"},{"bike_id":"5b7c6d31-8404-4ad7-b3a0-bb615bbfa75f","system_id":"levelo_inurba_marseille","lat":43.299165,"lon":5.381431,"is_reserved":false,"is_disabled":false,"rental_uris":{"android":"levelo://app?vid=5b7c6d31-8404-4ad7-b3a0-bb615bbfa75f","ios":"levelo://app?vid=5b7c6d31-8404-4ad7-b3a0-bb615bbfa75f"},"vehicle_type_id":"4","last_reported":1753564195,"current_range_meters":12000,"station_id":"ce4bgj12rcd13ifvqbc0","pricing_plan_id":"cebpf4jnsgd1na2vs0mg"},{"bike_id":"f7359c97-f954-4939-9b42-a9aafe1bf6d6","system_id":"levelo_inurba_marseille","lat":43.26025,"lon":5.37545,"is_reserved":false,"is_disabled":false,"rental_uris":{"android":"levelo://app?vid=f7359c97-f954-4939-9b42-a9aafe1bf6d6","ios":"levelo://app?vid=f7359c97-f954-4939-9b42-a9aafe1bf6d6"},"vehicle_type_id":"4","last_reported":1753564195,"current_range_meters":12400,"station_id":"ce4bhgh2rcd13ifvqfa0","pricing_plan_id":"cebpf4jnsgd1na2vs0mg"},{"bike_id":"dd5b3db2-62f9-4716-992d-435138b6493d","system_id":"levelo_inurba_marseille","lat":43.30806,"lon":5.38161,"is_reserved":false,"is_disabled":true,"rental_uris":{"android":"levelo://app?vid=dd5b3db2-62f9-4716-992d-435138b6493d","ios":"levelo://app?vid=dd5b3db2-62f9-4716-992d-435138b6493d"},"vehicle_type_id":"4","last_reported":1753564195,"current_range_meters":12400,"station_id":"ce4bgt12rcd13ifvqce0","pricing_plan_id":"cebpf4jnsgd1na2vs0mg"},{"bike_id":"ea761412-1eeb-4678-b313-5e00a37595da","system_id":"levelo_inurba_marseille","lat":43.29528,"lon":5.3853,"is_reserved":false,"is_disabled":false,"rental_uris":{"android":"levelo://app?vid=ea761412-1eeb-4678-b313-5e00a37595da","ios":"levelo://app?vid=ea761412-1eeb-4678-b313-5e00a37595da"},"vehicle_type_id":"4","last_reported":1753564195,"current_range_meters":12400,"station_id":"ce4bgih2rcd13ifvqba0","pricing_plan_id":"cebpf4jnsgd1na2vs0mg"},{"bike_id":"6cffb222-61df-47e0-905f-174b3137f3e3","system_id":"levelo_inurba_marseille","lat":43.26029,"lon":5.37552,"is_reserved":false,"is_disabled":false,"rental_uris":{"android":"levelo://app?vid=6cffb222-61df-47e0-905f-174b3137f3e3","ios":"levelo://app?vid=6cffb222-61df-47e0-905f-174b3137f3e3"},"vehicle_type_id":"4","last_reported":1753564195,"current_range_meters":12400,"station_id":"ce4bhgh2rcd13ifvqfa0","pricing_plan_id":"cebpf4jnsgd1na2vs0mg"},{"bike_id":"d40c058e-9844-4ba4-8ac9-7ba6c489825b","system_id":"levelo_inurba_marseille","lat":43.2925,"lon":5.3844,"is_reserved":false,"is_disabled":false,"rental_uris":{"android":"levelo://app?vid=d40c058e-9844-4ba4-8ac9-7ba6c489825b","ios":"levelo://app?vid=d40c058e-9844-4ba4-8ac9-7ba6c489825b"},"vehicle_type_id":"4","last_reported":1753564195,"current_range_meters":12400,"station_id":"ce4bh692rcd13ifvqea0","pricing_plan_id":"cebpf4jnsgd1na2vs0mg"},{"bike_id":"ba93bb28-cf26-4afd-a786-6bc2f811c4cb","system_id":"levelo_inurba_marseille","lat":43.32413,"lon":5.40412,"is_reserved":false,"is_disabled":false,"rental_uris":{"android":"levelo://app?vid=ba93bb28-cf26-4afd-a786-6bc2f811c4cb","ios":"levelo://app?vid=ba93bb28-cf26-4afd-a786-6bc2f811c4cb"},"vehicle_type_id":"4","last_reported":1753564195,"current_range_meters":12800,"station_id":"","pricing_plan_id":"cebpf4jnsgd1na2vs0mg"},{"bike_id":"c3c2652b-f2d7-4ed4-89ec-9559feb01451","system_id":"levelo_inurba_marseille","lat":43.29226,"lon":5.360481,"is_reserved":false,"is_disabled":true,"rental_uris":{"android":"levelo://app?vid=c3c2652b-f2d7-4ed4-89ec-9559feb01451","ios":"levelo://app?vid=c3c2652b-f2d7-4ed4-89ec-9559feb01451"},"vehicle_type_id":"4","last_reported":1753564195,"current_range_meters":12800,"station_id":"ce4bhbh2rcd13ifvqeqg","pricing_plan_id":"cebpf4jnsgd1na2vs0mg"},{"bike_id":"1b4f060d-024e-4b5b-a67b-2d78d44d6edb","system_id":"levelo_inurba_marseille","lat":43.22501,"lon":5.34772,"is_reserved":false,"is_disabled":true,"rental_uris":{"android":"levelo://app?vid=1b4f060d-024e-4b5b-a67b-2d78d44d6edb","ios":"levelo://app?vid=1b4f060d-024e-4b5b-a67b-2d78d44d6edb"},"vehicle_type_id":"4","last_reported":1753564195,"current_range_meters":12800,"station_id":"st_cvj5dfep6f1abm77gieg","pricing_plan_id":"cebpf4jnsgd1na2vs0mg"},{"bike_id":"0c8a95ee-b778-4943-94d5-cc97657b7aeb","system_id":"levelo_inurba_marseille","lat":43.2849,"lon":5.38574,"is_reserved":false,"is_disabled":false,"rental_uris":{"android":"levelo://app?vid=0c8a95ee-b778-4943-94d5-cc97657b7aeb","ios":"levelo://app?vid=0c8a95ee-b778-4943-94d5-cc97657b7aeb"},"vehicle_type_id":"4","last_reported":1753564195,"current_range_meters":12800,"station_id":"ce4bh8p2rcd13ifvqeb0","pricing_plan_id":"cebpf4jnsgd1na2vs0mg"},{"bike_id":"c5a641a7-8dad-4962-9605-1730f12704c9","system_id":"levelo_inurba_marseille","lat":43.30455,"lon":5.37901,"is_reserved":false,"is_disabled":false,"rental_uris":{"android":"levelo://app?vid=c5a641a7-8dad-4962-9605-1730f12704c9","ios":"levelo://app?vid=c5a641a7-8dad-4962-9605-1730f12704c9"},"vehicle_type_id":"4","last_reported":1753564195,"current_range_meters":12800,"station_id":"ce4bgup2rcd13ifvqcn0","pricing_plan_id":"cebpf4jnsgd1na2vs0mg"},{"bike_id":"2fa9dd39-7ea8-42db-9ead-ca5e3675e815","system_id":"levelo_inurba_marseille","lat":43.30194,"lon":5.3947,"is_reserved":false,"is_disabled":true,"rental_uris":{"android":"levelo://app?vid=2fa9dd39-7ea8-42db-9ead-ca5e3675e815","ios":"levelo://app?vid=2fa9dd39-7ea8-42db-9ead-ca5e3675e815"},"vehicle_type_id":"4","last_reported":1753564195,"current_range_meters":12800,"station_id":"ce4bh0p2rcd13ifvqd70","pricing_plan_id":"cebpf4jnsgd1na2vs0mg"},{"bike_id":"2a0bb915-bfe7-4dbd-b1f6-e675f8d62b69","system_id":"levelo_inurba_marseille","lat":43.29523,"lon":5.38544,"is_reserved":false,"is_disabled":false,"rental_uris":{"android":"levelo://app?vid=2a0bb915-bfe7-4dbd-b1f6-e675f8d62b69","ios":"levelo://app?vid=2a0bb915-bfe7-4dbd-b1f6-e675f8d62b69"},"vehicle_type_id":"4","last_reported":1753564195,"current_range_meters":12800,"station_id":"ce4bgih2rcd13ifvqba0","pricing_plan_id":"cebpf4jnsgd1na2vs0mg"},{"bike_id":"8aaee75d-7ea8-43e0-8a73-b78122e45eaa","system_id":"levelo_inurba_marseille","lat":43.26565,"lon":5.37317,"is_reserved":false,"is_disabled":false,"rental_uris":{"android":"levelo://app?vid=8aaee75d-7ea8-43e0-8a73-b78122e45eaa","ios":"levelo://app?vid=8aaee75d-7ea8-43e0-8a73-b78122e45eaa"},"vehicle_type_id":"4","last_reported":1753564195,"current_range_meters":12800,"station_id":"ce4bhg12rcd13ifvqf70","pricing_plan_id":"cebpf4jnsgd1na2vs0mg"},{"bike_id":"3208490e-29c8-4fe1-bdea-6e125229cc6e","system_id":"levelo_inurba_marseille","lat":43.29259,"lon":5.38431,"is_reserved":false,"is_disabled":false,"rental_uris":{"android":"levelo://app?vid=3208490e-29c8-4fe1-bdea-6e125229cc6e","ios":"levelo://app?vid=3208490e-29c8-4fe1-bdea-6e125229cc6e"},"vehicle_type_id":"4","last_reported":1753564195,"current_range_meters":12800,"station_id":"ce4bh692rcd13ifvqea0","pricing_plan_id":"cebpf4jnsgd1na2vs0mg"},{"bike_id":"d8ede7a6-2370-4585-9b4e-834634539090","system_id":"levelo_inurba_marseille","lat":43.22496,"lon":5.34793,"is_reserved":false,"is_disabled":false,"rental_uris":{"android":"levelo://app?vid=d8ede7a6-2370-4585-9b4e-834634539090","ios":"levelo://app?vid=d8ede7a6-2370-4585-9b4e-834634539090"},"vehicle_type_id":"4","last_reported":1753564195,"current_range_meters":13600,"station_id":"st_cvj5dfep6f1abm77gieg","pricing_plan_id":"cebpf4jnsgd1na2vs0mg"},{"bike_id":"f77038c9-677c-46b6-a7bd-c66a19e57f2f","system_id":"levelo_inurba_marseille","lat":43.25492,"lon":5.37652,"is_reserved":false,"is_disabled":false,"rental_uris":{"android":"levelo://app?vid=f77038c9-677c-46b6-a7bd-c66a19e57f2f","ios":"levelo://app?vid=f77038c9-677c-46b6-a7bd-c66a19e57f2f"},"vehicle_type_id":"4","last_reported":1753564195,"current_range_meters":14800,"station_id":"ce4bhh12rcd13ifvqff0","pricing_plan_id":"cebpf4jnsgd1na2vs0mg"},{"bike_id":"da2dca42-f134-4e4a-82a2-b995476c594c","system_id":"levelo_inurba_marseille","lat":43.2958,"lon":5.37509,"is_reserved":false,"is_disabled":false,"rental_uris":{"android":"levelo://app?vid=da2dca42-f134-4e4a-82a2-b995476c594c","ios":"levelo://app?vid=da2dca42-f134-4e4a-82a2-b995476c594c"},"vehicle_type_id":"4","last_reported":1753564195,"current_range_meters":13600,"station_id":"ce4bgh92rcd13ifvqb50","pricing_plan_id":"cebpf4jnsgd1na2vs0mg"},{"bike_id":"d5a63dee-a415-40f6-88a8-f1d25d6ddaa1","system_id":"levelo_inurba_marseille","lat":43.290311,"lon":5.399895,"is_reserved":false,"is_disabled":true,"rental_uris":{"android":"levelo://app?vid=d5a63dee-a415-40f6-88a8-f1d25d6ddaa1","ios":"levelo://app?vid=d5a63dee-a415-40f6-88a8-f1d25d6ddaa1"},"vehicle_type_id":"4","last_reported":1753564195,"current_range_meters":13600,"station_id":"ce4bh392rcd13ifvqdm0","pricing_plan_id":"cebpf4jnsgd1na2vs0mg"},{"bike_id":"4f069cb2-e85f-44ab-8659-b3444c19b657","system_id":"levelo_inurba_marseille","lat":43.23179,"lon":5.35591,"is_reserved":false,"is_disabled":false,"rental_uris":{"android":"levelo://app?vid=4f069cb2-e85f-44ab-8659-b3444c19b657","ios":"levelo://app?vid=4f069cb2-e85f-44ab-8659-b3444c19b657"},"vehicle_type_id":"4","last_reported":1753564195,"current_range_meters":13600,"station_id":"ce4bhu92rcd13ifvqi70","pricing_plan_id":"cebpf4jnsgd1na2vs0mg"},{"bike_id":"61cd7fe3-237f-4708-afc7-dd8a81b4454c","system_id":"levelo_inurba_marseille","lat":43.22925,"lon":5.35377,"is_reserved":false,"is_disabled":false,"rental_uris":{"android":"levelo://app?vid=61cd7fe3-237f-4708-afc7-dd8a81b4454c","ios":"levelo://app?vid=61cd7fe3-237f-4708-afc7-dd8a81b4454c"},"vehicle_type_id":"4","last_reported":1753564195,"current_range_meters":14000,"station_id":"cpo3532slgdg3j2ikp40","pricing_plan_id":"cebpf4jnsgd1na2vs0mg"},{"bike_id":"c151f0ea-151e-40ef-85ad-03da6ea95fb7","system_id":"levelo_inurba_marseille","lat":43.29517,"lon":5.3854,"is_reserved":false,"is_disabled":false,"rental_uris":{"android":"levelo://app?vid=c151f0ea-151e-40ef-85ad-03da6ea95fb7","ios":"levelo://app?vid=c151f0ea-151e-40ef-85ad-03da6ea95fb7"},"vehicle_type_id":"4","last_reported":1753564195,"current_range_meters":13600,"station_id":"ce4bgih2rcd13ifvqba0","pricing_plan_id":"cebpf4jnsgd1na2vs0mg"},{"bike_id":"3e7f512d-c1e0-49b1-a237-1dd2b80e25e7","system_id":"levelo_inurba_marseille","lat":43.24059,"lon":5.37765,"is_reserved":false,"is_disabled":false,"rental_uris":{"android":"levelo://app?vid=3e7f512d-c1e0-49b1-a237-1dd2b80e25e7","ios":"levelo://app?vid=3e7f512d-c1e0-49b1-a237-1dd2b80e25e7"},"vehicle_type_id":"4","last_reported":1753564195,"current_range_meters":13600,"station_id":"ce4bhnp2rcd13ifvqgvg","pricing_plan_id":"cebpf4jnsgd1na2vs0mg"},{"bike_id":"ccceff92-72aa-4eb3-a467-85a2bd8173fd","system_id":"levelo_inurba_marseille","lat":43.262009,"lon":5.374481,"is_reserved":false,"is_disabled":false,"rental_uris":{"android":"levelo://app?vid=ccceff92-72aa-4eb3-a467-85a2bd8173fd","ios":"levelo://app?vid=ccceff92-72aa-4eb3-a467-85a2bd8173fd"},"vehicle_type_id":"4","last_reported":1753564195,"current_range_meters":13600,"station_id":"ce4bhgp2rcd13ifvqfc0","pricing_plan_id":"cebpf4jnsgd1na2vs0mg"},{"bike_id":"73745872-0a21-4db0-b330-8e0de96feed8","system_id":"levelo_inurba_marseille","lat":43.2619,"lon":5.37458,"is_reserved":false,"is_disabled":false,"rental_uris":{"android":"levelo://app?vid=73745872-0a21-4db0-b330-8e0de96feed8","ios":"levelo://app?vid=73745872-0a21-4db0-b330-8e0de96feed8"},"vehicle_type_id":"4","last_reported":1753564195,"current_range_meters":13600,"station_id":"ce4bhgp2rcd13ifvqfc0","pricing_plan_id":"cebpf4jnsgd1na2vs0mg"},{"bike_id":"7e65c5ea-0429-45f5-a396-bd32e67f0744","system_id":"levelo_inurba_marseille","lat":43.33474,"lon":5.40052,"is_reserved":false,"is_disabled":false,"rental_uris":{"android":"levelo://app?vid=7e65c5ea-0429-45f5-a396-bd32e67f0744","ios":"levelo://app?vid=7e65c5ea-0429-45f5-a396-bd32e67f0744"},"vehicle_type_id":"4","last_reported":1753564195,"current_range_meters":13600,"station_id":"","pricing_plan_id":"cebpf4jnsgd1na2vs0mg"},{"bike_id":"9377d52d-7c04-4205-81e5-05265b3eabff","system_id":"levelo_inurba_marseille","lat":43.28707,"lon":5.37945,"is_reserved":false,"is_disabled":true,"rental_uris":{"android":"levelo://app?vid=9377d52d-7c04-4205-81e5-05265b3eabff","ios":"levelo://app?vid=9377d52d-7c04-4205-81e5-05265b3eabff"},"vehicle_type_id":"4","last_reported":1753564195,"current_range_meters":14000,"station_id":"ce4bh9p2rcd13ifvqec0","pricing_plan_id":"cebpf4jnsgd1na2vs0mg"},{"bike_id":"71946e5b-f718-4338-95f7-1c4ec6479f04","system_id":"levelo_inurba_marseille","lat":43.26212,"lon":5.37444,"is_reserved":false,"is_disabled":false,"rental_uris":{"android":"levelo://app?vid=71946e5b-f718-4338-95f7-1c4ec6479f04","ios":"levelo://app?vid=71946e5b-f718-4338-95f7-1c4ec6479f04"},"vehicle_type_id":"4","last_reported":1753564195,"current_range_meters":14000,"station_id":"ce4bhgp2rcd13ifvqfc0","pricing_plan_id":"cebpf4jnsgd1na2vs0mg"},{"bike_id":"d0baa8b1-b99a-47f3-ae48-567215ce63aa","system_id":"levelo_inurba_marseille","lat":43.29093,"lon":5.3814,"is_reserved":false,"is_disabled":true,"rental_uris":{"android":"levelo://app?vid=d0baa8b1-b99a-47f3-ae48-567215ce63aa","ios":"levelo://app?vid=d0baa8b1-b99a-47f3-ae48-567215ce63aa"},"vehicle_type_id":"4","last_reported":1753564195,"current_range_meters":14000,"station_id":"ce4bh512rcd13ifvqe2g","pricing_plan_id":"cebpf4jnsgd1na2vs0mg"},{"bike_id":"eac4cc60-22eb-4c19-8634-602fc320a42e","system_id":"levelo_inurba_marseille","lat":43.293649,"lon":5.378358,"is_reserved":false,"is_disabled":false,"rental_uris":{"android":"levelo://app?vid=eac4cc60-22eb-4c19-8634-602fc320a42e","ios":"levelo://app?vid=eac4cc60-22eb-4c19-8634-602fc320a42e"},"vehicle_type_id":"4","last_reported":1753564195,"current_range_meters":14000,"station_id":"ce4bgjh2rcd13ifvqbf0","pricing_plan_id":"cebpf4jnsgd1na2vs0mg"},{"bike_id":"f3d9f4e3-18e1-46b0-943e-1414afeca2da","system_id":"levelo_inurba_marseille","lat":43.22923,"lon":5.35389,"is_reserved":false,"is_disabled":false,"rental_uris":{"android":"levelo://app?vid=f3d9f4e3-18e1-46b0-943e-1414afeca2da","ios":"levelo://app?vid=f3d9f4e3-18e1-46b0-943e-1414afeca2da"},"vehicle_type_id":"4","last_reported":1753564195,"current_range_meters":14000,"station_id":"cpo3532slgdg3j2ikp40","pricing_plan_id":"cebpf4jnsgd1na2vs0mg"},{"bike_id":"9f9e78e2-6c79-483e-93d9-768a82fc7218","system_id":"levelo_inurba_marseille","lat":43.30458,"lon":5.37906,"is_reserved":false,"is_disabled":false,"rental_uris":{"android":"levelo://app?vid=9f9e78e2-6c79-483e-93d9-768a82fc7218","ios":"levelo://app?vid=9f9e78e2-6c79-483e-93d9-768a82fc7218"},"vehicle_type_id":"4","last_reported":1753564195,"current_range_meters":13600,"station_id":"ce4bgup2rcd13ifvqcn0","pricing_plan_id":"cebpf4jnsgd1na2vs0mg"},{"bike_id":"4ec2ea85-cdae-4090-8b53-dd38eb6bc485","system_id":"levelo_inurba_marseille","lat":43.290283,"lon":5.3865,"is_reserved":false,"is_disabled":false,"rental_uris":{"android":"levelo://app?vid=4ec2ea85-cdae-4090-8b53-dd38eb6bc485","ios":"levelo://app?vid=4ec2ea85-cdae-4090-8b53-dd38eb6bc485"},"vehicle_type_id":"4","last_reported":1753564195,"current_range_meters":14000,"station_id":"ce4bh4p2rcd13ifvqe0g","pricing_plan_id":"cebpf4jnsgd1na2vs0mg"},{"bike_id":"a1d5115b-997f-44a5-8b4b-21cb29757407","system_id":"levelo_inurba_marseille","lat":43.31211,"lon":5.37322,"is_reserved":false,"is_disabled":false,"rental_uris":{"android":"levelo://app?vid=a1d5115b-997f-44a5-8b4b-21cb29757407","ios":"levelo://app?vid=a1d5115b-997f-44a5-8b4b-21cb29757407"},"vehicle_type_id":"4","last_reported":1753564195,"current_range_meters":14000,"station_id":"","pricing_plan_id":"cebpf4jnsgd1na2vs0mg"},{"bike_id":"c34587a8-a019-4b34-8b52-b2a04d65fdd5","system_id":"levelo_inurba_marseille","lat":43.26026,"lon":5.37559,"is_reserved":false,"is_disabled":false,"rental_uris":{"android":"levelo://app?vid=c34587a8-a019-4b34-8b52-b2a04d65fdd5","ios":"levelo://app?vid=c34587a8-a019-4b34-8b52-b2a04d65fdd5"},"vehicle_type_id":"4","last_reported":1753564195,"current_range_meters":14000,"station_id":"ce4bhgh2rcd13ifvqfa0","pricing_plan_id":"cebpf4jnsgd1na2vs0mg"},{"bike_id":"df0f791d-69db-4d83-b453-7bc2067da214","system_id":"levelo_inurba_marseille","lat":43.23051,"lon":5.35485,"is_reserved":false,"is_disabled":false,"rental_uris":{"android":"levelo://app?vid=df0f791d-69db-4d83-b453-7bc2067da214","ios":"levelo://app?vid=df0f791d-69db-4d83-b453-7bc2067da214"},"vehicle_type_id":"4","last_reported":1753564195,"current_range_meters":14000,"station_id":"cpo3342slgdg3j2ifvpg","pricing_plan_id":"cebpf4jnsgd1na2vs0mg"},{"bike_id":"481ac0fb-00e6-4499-98db-12144824b27f","system_id":"levelo_inurba_marseille","lat":43.26215,"lon":5.37439,"is_reserved":false,"is_disabled":false,"rental_uris":{"android":"levelo://app?vid=481ac0fb-00e6-4499-98db-12144824b27f","ios":"levelo://app?vid=481ac0fb-00e6-4499-98db-12144824b27f"},"vehicle_type_id":"4","last_reported":1753564195,"current_range_meters":14000,"station_id":"ce4bhgp2rcd13ifvqfc0","pricing_plan_id":"cebpf4jnsgd1na2vs0mg"},{"bike_id":"a7d896f9-ed90-400f-b521-60f094bf2ab7","system_id":"levelo_inurba_marseille","lat":43.21193,"lon":5.35066,"is_reserved":false,"is_disabled":false,"rental_uris":{"android":"levelo://app?vid=a7d896f9-ed90-400f-b521-60f094bf2ab7","ios":"levelo://app?vid=a7d896f9-ed90-400f-b521-60f094bf2ab7"},"vehicle_type_id":"4","last_reported":1753564195,"current_range_meters":14400,"station_id":"st_cvj6sg6p6f1abm77japg","pricing_plan_id":"cebpf4jnsgd1na2vs0mg"},{"bike_id":"f7dc90f9-7086-4f5a-bb41-7595205e7655","system_id":"levelo_inurba_marseille","lat":43.29983,"lon":5.371757,"is_reserved":false,"is_disabled":false,"rental_uris":{"android":"levelo://app?vid=f7dc90f9-7086-4f5a-bb41-7595205e7655","ios":"levelo://app?vid=f7dc90f9-7086-4f5a-bb41-7595205e7655"},"vehicle_type_id":"4","last_reported":1753564195,"current_range_meters":14400,"station_id":"ce4bgr92rcd13ifvqc7g","pricing_plan_id":"cebpf4jnsgd1na2vs0mg"},{"bike_id":"574e80df-b5d8-46a6-b824-a9157b819efc","system_id":"levelo_inurba_marseille","lat":43.29192,"lon":5.39323,"is_reserved":false,"is_disabled":false,"rental_uris":{"android":"levelo://app?vid=574e80df-b5d8-46a6-b824-a9157b819efc","ios":"levelo://app?vid=574e80df-b5d8-46a6-b824-a9157b819efc"},"vehicle_type_id":"4","last_reported":1753564195,"current_range_meters":14000,"station_id":"ce4bh192rcd13ifvqdd0","pricing_plan_id":"cebpf4jnsgd1na2vs0mg"},{"bike_id":"898d1f8e-e261-4f25-9386-a6825028d102","system_id":"levelo_inurba_marseille","lat":43.29054,"lon":5.4739,"is_reserved":false,"is_disabled":false,"rental_uris":{"android":"levelo://app?vid=898d1f8e-e261-4f25-9386-a6825028d102","ios":"levelo://app?vid=898d1f8e-e261-4f25-9386-a6825028d102"},"vehicle_type_id":"4","last_reported":1753564195,"current_range_meters":14400,"station_id":"","pricing_plan_id":"cebpf4jnsgd1na2vs0mg"},{"bike_id":"b895b54e-07d8-473e-85aa-63378254c806","system_id":"levelo_inurba_marseille","lat":43.22917,"lon":5.35379,"is_reserved":false,"is_disabled":false,"rental_uris":{"android":"levelo://app?vid=b895b54e-07d8-473e-85aa-63378254c806","ios":"levelo://app?vid=b895b54e-07d8-473e-85aa-63378254c806"},"vehicle_type_id":"4","last_reported":1753564195,"current_range_meters":14400,"station_id":"cpo3532slgdg3j2ikp40","pricing_plan_id":"cebpf4jnsgd1na2vs0mg"},{"bike_id":"7f6fc764-d909-4303-b80c-9dd85295ece1","system_id":"levelo_inurba_marseille","lat":43.31359,"lon":5.38492,"is_reserved":false,"is_disabled":false,"rental_uris":{"android":"levelo://app?vid=7f6fc764-d909-4303-b80c-9dd85295ece1","ios":"levelo://app?vid=7f6fc764-d909-4303-b80c-9dd85295ece1"},"vehicle_type_id":"4","last_reported":1753564195,"current_range_meters":14400,"station_id":"ce4bgt92rcd13ifvqcf0","pricing_plan_id":"cebpf4jnsgd1na2vs0mg"},{"bike_id":"a05343f6-5345-451e-92c9-8d14b4ec04eb","system_id":"levelo_inurba_marseille","lat":43.314919,"lon":5.373082,"is_reserved":false,"is_disabled":false,"rental_uris":{"android":"levelo://app?vid=a05343f6-5345-451e-92c9-8d14b4ec04eb","ios":"levelo://app?vid=a05343f6-5345-451e-92c9-8d14b4ec04eb"},"vehicle_type_id":"4","last_reported":1753564195,"current_range_meters":14400,"station_id":"","pricing_plan_id":"cebpf4jnsgd1na2vs0mg"},{"bike_id":"8a43fd17-f37d-4efa-9c86-e96e90492052","system_id":"levelo_inurba_marseille","lat":43.2482,"lon":5.37464,"is_reserved":false,"is_disabled":false,"rental_uris":{"android":"levelo://app?vid=8a43fd17-f37d-4efa-9c86-e96e90492052","ios":"levelo://app?vid=8a43fd17-f37d-4efa-9c86-e96e90492052"},"vehicle_type_id":"4","last_reported":1753564195,"current_range_meters":14400,"station_id":"ce4bhgh2rcd13ifvqfb0","pricing_plan_id":"cebpf4jnsgd1na2vs0mg"},{"bike_id":"69200c84-081f-4b97-a6de-909915e72026","system_id":"levelo_inurba_marseille","lat":43.295283,"lon":5.385462,"is_reserved":false,"is_disabled":false,"rental_uris":{"android":"levelo://app?vid=69200c84-081f-4b97-a6de-909915e72026","ios":"levelo://app?vid=69200c84-081f-4b97-a6de-909915e72026"},"vehicle_type_id":"4","last_reported":1753564195,"current_range_meters":14400,"station_id":"ce4bgih2rcd13ifvqba0","pricing_plan_id":"cebpf4jnsgd1na2vs0mg"},{"bike_id":"1e5c96a6-9d0f-4d5f-85ef-5a5f8ac0317a","system_id":"levelo_inurba_marseille","lat":43.3344,"lon":5.39131,"is_reserved":false,"is_disabled":false,"rental_uris":{"android":"levelo://app?vid=1e5c96a6-9d0f-4d5f-85ef-5a5f8ac0317a","ios":"levelo://app?vid=1e5c96a6-9d0f-4d5f-85ef-5a5f8ac0317a"},"vehicle_type_id":"4","last_reported":1753564195,"current_range_meters":14400,"station_id":"","pricing_plan_id":"cebpf4jnsgd1na2vs0mg"},{"bike_id":"c5794c7a-bb35-409f-9175-7d8933c8fd68","system_id":"levelo_inurba_marseille","lat":43.31099,"lon":5.396,"is_reserved":false,"is_disabled":false,"rental_uris":{"android":"levelo://app?vid=c5794c7a-bb35-409f-9175-7d8933c8fd68","ios":"levelo://app?vid=c5794c7a-bb35-409f-9175-7d8933c8fd68"},"vehicle_type_id":"4","last_reported":1753564195,"current_range_meters":14400,"station_id":"","pricing_plan_id":"cebpf4jnsgd1na2vs0mg"},{"bike_id":"8d801f83-3686-49fa-a7fd-3701c57be20d","system_id":"levelo_inurba_marseille","lat":43.24073,"lon":5.37762,"is_reserved":false,"is_disabled":false,"rental_uris":{"android":"levelo://app?vid=8d801f83-3686-49fa-a7fd-3701c57be20d","ios":"levelo://app?vid=8d801f83-3686-49fa-a7fd-3701c57be20d"},"vehicle_type_id":"4","last_reported":1753564195,"current_range_meters":14400,"station_id":"ce4bhnp2rcd13ifvqgvg","pricing_plan_id":"cebpf4jnsgd1na2vs0mg"},{"bike_id":"432e665f-757b-4f99-9559-d8b5ef330e75","system_id":"levelo_inurba_marseille","lat":43.3088,"lon":5.372,"is_reserved":false,"is_disabled":false,"rental_uris":{"android":"levelo://app?vid=432e665f-757b-4f99-9559-d8b5ef330e75","ios":"levelo://app?vid=432e665f-757b-4f99-9559-d8b5ef330e75"},"vehicle_type_id":"4","last_reported":1753564195,"current_range_meters":14400,"station_id":"ce4bguh2rcd13ifvqckg","pricing_plan_id":"cebpf4jnsgd1na2vs0mg"},{"bike_id":"0c11f6c1-8064-42f4-a9d5-3b25c443f052","system_id":"levelo_inurba_marseille","lat":43.22921,"lon":5.35382,"is_reserved":false,"is_disabled":false,"rental_uris":{"android":"levelo://app?vid=0c11f6c1-8064-42f4-a9d5-3b25c443f052","ios":"levelo://app?vid=0c11f6c1-8064-42f4-a9d5-3b25c443f052"},"vehicle_type_id":"4","last_reported":1753564195,"current_range_meters":14800,"station_id":"cpo3532slgdg3j2ikp40","pricing_plan_id":"cebpf4jnsgd1na2vs0mg"},{"bike_id":"9dfdeb8a-ee13-4931-94b4-ad2b5f23aa4b","system_id":"levelo_inurba_marseille","lat":43.23185,"lon":5.40011,"is_reserved":false,"is_disabled":true,"rental_uris":{"android":"levelo://app?vid=9dfdeb8a-ee13-4931-94b4-ad2b5f23aa4b","ios":"levelo://app?vid=9dfdeb8a-ee13-4931-94b4-ad2b5f23aa4b"},"vehicle_type_id":"4","last_reported":1753564195,"current_range_meters":15200,"station_id":"ce4bhn12rcd13ifvqgqg","pricing_plan_id":"cebpf4jnsgd1na2vs0mg"},{"bike_id":"bdc8ef21-146d-46ff-9c91-249dba0037c7","system_id":"levelo_inurba_marseille","lat":43.22925,"lon":5.3538,"is_reserved":false,"is_disabled":false,"rental_uris":{"android":"levelo://app?vid=bdc8ef21-146d-46ff-9c91-249dba0037c7","ios":"levelo://app?vid=bdc8ef21-146d-46ff-9c91-249dba0037c7"},"vehicle_type_id":"4","last_reported":1753564195,"current_range_meters":14800,"station_id":"cpo3532slgdg3j2ikp40","pricing_plan_id":"cebpf4jnsgd1na2vs0mg"},{"bike_id":"5b0fd53b-e2e8-4712-8ae1-12dc1280b452","system_id":"levelo_inurba_marseille","lat":43.29538,"lon":5.3853,"is_reserved":false,"is_disabled":false,"rental_uris":{"android":"levelo://app?vid=5b0fd53b-e2e8-4712-8ae1-12dc1280b452","ios":"levelo://app?vid=5b0fd53b-e2e8-4712-8ae1-12dc1280b452"},"vehicle_type_id":"4","last_reported":1753564195,"current_range_meters":14800,"station_id":"ce4bgih2rcd13ifvqba0","pricing_plan_id":"cebpf4jnsgd1na2vs0mg"},{"bike_id":"93edfebe-3d64-4f42-bb7d-14244296c803","system_id":"levelo_inurba_marseille","lat":43.27043,"lon":5.40259,"is_reserved":false,"is_disabled":false,"rental_uris":{"android":"levelo://app?vid=93edfebe-3d64-4f42-bb7d-14244296c803","ios":"levelo://app?vid=93edfebe-3d64-4f42-bb7d-14244296c803"},"vehicle_type_id":"4","last_reported":1753564195,"current_range_meters":14800,"station_id":"ce4bhk92rcd13ifvqgc0","pricing_plan_id":"cebpf4jnsgd1na2vs0mg"},{"bike_id":"43dbc09e-d0e4-4ddb-bafe-4f55874d23a9","system_id":"levelo_inurba_marseille","lat":43.30233,"lon":5.38235,"is_reserved":false,"is_disabled":false,"rental_uris":{"android":"levelo://app?vid=43dbc09e-d0e4-4ddb-bafe-4f55874d23a9","ios":"levelo://app?vid=43dbc09e-d0e4-4ddb-bafe-4f55874d23a9"},"vehicle_type_id":"4","last_reported":1753564195,"current_range_meters":14800,"station_id":"","pricing_plan_id":"cebpf4jnsgd1na2vs0mg"},{"bike_id":"15f3c594-4abb-452d-801d-4636525cd85b","system_id":"levelo_inurba_marseille","lat":43.29563,"lon":5.37501,"is_reserved":false,"is_disabled":false,"rental_uris":{"android":"levelo://app?vid=15f3c594-4abb-452d-801d-4636525cd85b","ios":"levelo://app?vid=15f3c594-4abb-452d-801d-4636525cd85b"},"vehicle_type_id":"4","last_reported":1753564195,"current_range_meters":14800,"station_id":"ce4bgh92rcd13ifvqb50","pricing_plan_id":"cebpf4jnsgd1na2vs0mg"},{"bike_id":"34e576b0-08df-48bd-a565-bfd4db197df8","system_id":"levelo_inurba_marseille","lat":43.29537,"lon":5.38526,"is_reserved":false,"is_disabled":false,"rental_uris":{"android":"levelo://app?vid=34e576b0-08df-48bd-a565-bfd4db197df8","ios":"levelo://app?vid=34e576b0-08df-48bd-a565-bfd4db197df8"},"vehicle_type_id":"4","last_reported":1753564195,"current_range_meters":15200,"station_id":"ce4bgih2rcd13ifvqba0","pricing_plan_id":"cebpf4jnsgd1na2vs0mg"},{"bike_id":"02cab979-ccb2-40ce-bd89-cd624415fc04","system_id":"levelo_inurba_marseille","lat":43.27776,"lon":5.39945,"is_reserved":false,"is_disabled":false,"rental_uris":{"android":"levelo://app?vid=02cab979-ccb2-40ce-bd89-cd624415fc04","ios":"levelo://app?vid=02cab979-ccb2-40ce-bd89-cd624415fc04"},"vehicle_type_id":"4","last_reported":1753564195,"current_range_meters":15200,"station_id":"","pricing_plan_id":"cebpf4jnsgd1na2vs0mg"},{"bike_id":"1533361c-c8b0-46c4-bb07-47847e110ffc","system_id":"levelo_inurba_marseille","lat":43.28168,"lon":5.4263,"is_reserved":false,"is_disabled":false,"rental_uris":{"android":"levelo://app?vid=1533361c-c8b0-46c4-bb07-47847e110ffc","ios":"levelo://app?vid=1533361c-c8b0-46c4-bb07-47847e110ffc"},"vehicle_type_id":"4","last_reported":1753564195,"current_range_meters":15200,"station_id":"ce4bhnh2rcd13ifvqgug","pricing_plan_id":"cebpf4jnsgd1na2vs0mg"},{"bike_id":"831a3cf2-acf1-4d34-a389-e78eddcf9ddd","system_id":"levelo_inurba_marseille","lat":43.29532,"lon":5.385388,"is_reserved":false,"is_disabled":false,"rental_uris":{"android":"levelo://app?vid=831a3cf2-acf1-4d34-a389-e78eddcf9ddd","ios":"levelo://app?vid=831a3cf2-acf1-4d34-a389-e78eddcf9ddd"},"vehicle_type_id":"4","last_reported":1753564195,"current_range_meters":15200,"station_id":"ce4bgih2rcd13ifvqba0","pricing_plan_id":"cebpf4jnsgd1na2vs0mg"},{"bike_id":"76874c93-4196-48c1-b4ce-9dc79e3034f2","system_id":"levelo_inurba_marseille","lat":43.31761,"lon":5.39027,"is_reserved":false,"is_disabled":false,"rental_uris":{"android":"levelo://app?vid=76874c93-4196-48c1-b4ce-9dc79e3034f2","ios":"levelo://app?vid=76874c93-4196-48c1-b4ce-9dc79e3034f2"},"vehicle_type_id":"4","last_reported":1753564195,"current_range_meters":16000,"station_id":"ce4bhqp2rcd13ifvqhng","pricing_plan_id":"cebpf4jnsgd1na2vs0mg"},{"bike_id":"aba58f33-bf28-4448-8af1-021d8e5460f0","system_id":"levelo_inurba_marseille","lat":43.29606,"lon":5.37706,"is_reserved":false,"is_disabled":false,"rental_uris":{"android":"levelo://app?vid=aba58f33-bf28-4448-8af1-021d8e5460f0","ios":"levelo://app?vid=aba58f33-bf28-4448-8af1-021d8e5460f0"},"vehicle_type_id":"4","last_reported":1753564195,"current_range_meters":16000,"station_id":"ce4bgi92rcd13ifvqb90","pricing_plan_id":"cebpf4jnsgd1na2vs0mg"},{"bike_id":"54405b04-0f04-4c64-af8f-9ccbb34ae9ba","system_id":"levelo_inurba_marseille","lat":43.28033,"lon":5.36937,"is_reserved":false,"is_disabled":false,"rental_uris":{"android":"levelo://app?vid=54405b04-0f04-4c64-af8f-9ccbb34ae9ba","ios":"levelo://app?vid=54405b04-0f04-4c64-af8f-9ccbb34ae9ba"},"vehicle_type_id":"4","last_reported":1753564195,"current_range_meters":16000,"station_id":"ce4bha12rcd13ifvqef0","pricing_plan_id":"cebpf4jnsgd1na2vs0mg"},{"bike_id":"05aa8176-1c8c-4ae8-ac3a-11e087a3eba6","system_id":"levelo_inurba_marseille","lat":43.30304,"lon":5.369,"is_reserved":false,"is_disabled":false,"rental_uris":{"android":"levelo://app?vid=05aa8176-1c8c-4ae8-ac3a-11e087a3eba6","ios":"levelo://app?vid=05aa8176-1c8c-4ae8-ac3a-11e087a3eba6"},"vehicle_type_id":"4","last_reported":1753564195,"current_range_meters":16000,"station_id":"ce4bgqh2rcd13ifvqc5g","pricing_plan_id":"cebpf4jnsgd1na2vs0mg"},{"bike_id":"ebedf560-2962-4a10-89df-c049dab8b897","system_id":"levelo_inurba_marseille","lat":43.28439,"lon":5.39205,"is_reserved":false,"is_disabled":false,"rental_uris":{"android":"levelo://app?vid=ebedf560-2962-4a10-89df-c049dab8b897","ios":"levelo://app?vid=ebedf560-2962-4a10-89df-c049dab8b897"},"vehicle_type_id":"4","last_reported":1753564195,"current_range_meters":16000,"station_id":"ce4bhoh2rcd13ifvqh5g","pricing_plan_id":"cebpf4jnsgd1na2vs0mg"},{"bike_id":"34548b8f-e100-4e4a-8029-be796de7a083","system_id":"levelo_inurba_marseille","lat":43.28449,"lon":5.35887,"is_reserved":false,"is_disabled":false,"rental_uris":{"android":"levelo://app?vid=34548b8f-e100-4e4a-8029-be796de7a083","ios":"levelo://app?vid=34548b8f-e100-4e4a-8029-be796de7a083"},"vehicle_type_id":"4","last_reported":1753564195,"current_range_meters":16000,"station_id":"ce4bhah2rcd13ifvqei0","pricing_plan_id":"cebpf4jnsgd1na2vs0mg"},{"bike_id":"b9d90a33-242e-4108-916f-926fe59baba6","system_id":"levelo_inurba_marseille","lat":43.261942,"lon":5.374459,"is_reserved":false,"is_disabled":false,"rental_uris":{"android":"levelo://app?vid=b9d90a33-242e-4108-916f-926fe59baba6","ios":"levelo://app?vid=b9d90a33-242e-4108-916f-926fe59baba6"},"vehicle_type_id":"4","last_reported":1753564195,"current_range_meters":16000,"station_id":"ce4bhgp2rcd13ifvqfc0","pricing_plan_id":"cebpf4jnsgd1na2vs0mg"},{"bike_id":"c3f920a0-181a-4f3b-8bbe-5050b7e98056","system_id":"levelo_inurba_marseille","lat":43.29255,"lon":5.38458,"is_reserved":false,"is_disabled":false,"rental_uris":{"android":"levelo://app?vid=c3f920a0-181a-4f3b-8bbe-5050b7e98056","ios":"levelo://app?vid=c3f920a0-181a-4f3b-8bbe-5050b7e98056"},"vehicle_type_id":"4","last_reported":1753564195,"current_range_meters":16000,"station_id":"ce4bh692rcd13ifvqea0","pricing_plan_id":"cebpf4jnsgd1na2vs0mg"},{"bike_id":"fc5f8be1-50ab-444f-af79-b3eb4befa998","system_id":"levelo_inurba_marseille","lat":43.29106,"lon":5.38129,"is_reserved":false,"is_disabled":false,"rental_uris":{"android":"levelo://app?vid=fc5f8be1-50ab-444f-af79-b3eb4befa998","ios":"levelo://app?vid=fc5f8be1-50ab-444f-af79-b3eb4befa998"},"vehicle_type_id":"4","last_reported":1753564195,"current_range_meters":16400,"station_id":"ce4bh512rcd13ifvqe2g","pricing_plan_id":"cebpf4jnsgd1na2vs0mg"},{"bike_id":"7bbfaa2d-c1c3-425c-bc52-d79e792eba71","system_id":"levelo_inurba_marseille","lat":43.29028,"lon":5.38649,"is_reserved":false,"is_disabled":false,"rental_uris":{"android":"levelo://app?vid=7bbfaa2d-c1c3-425c-bc52-d79e792eba71","ios":"levelo://app?vid=7bbfaa2d-c1c3-425c-bc52-d79e792eba71"},"vehicle_type_id":"4","last_reported":1753564195,"current_range_meters":16400,"station_id":"ce4bh4p2rcd13ifvqe0g","pricing_plan_id":"cebpf4jnsgd1na2vs0mg"},{"bike_id":"34a06ca1-6ed0-4d6c-b5e5-b429f450161e","system_id":"levelo_inurba_marseille","lat":43.29605,"lon":5.37749,"is_reserved":false,"is_disabled":false,"rental_uris":{"android":"levelo://app?vid=34a06ca1-6ed0-4d6c-b5e5-b429f450161e","ios":"levelo://app?vid=34a06ca1-6ed0-4d6c-b5e5-b429f450161e"},"vehicle_type_id":"4","last_reported":1753564195,"current_range_meters":16400,"station_id":"ce4bgi92rcd13ifvqb90","pricing_plan_id":"cebpf4jnsgd1na2vs0mg"},{"bike_id":"6c38f903-98fc-43f2-b709-3b1e9132591a","system_id":"levelo_inurba_marseille","lat":43.29589,"lon":5.37511,"is_reserved":false,"is_disabled":false,"rental_uris":{"android":"levelo://app?vid=6c38f903-98fc-43f2-b709-3b1e9132591a","ios":"levelo://app?vid=6c38f903-98fc-43f2-b709-3b1e9132591a"},"vehicle_type_id":"4","last_reported":1753564195,"current_range_meters":16400,"station_id":"ce4bgh92rcd13ifvqb50","pricing_plan_id":"cebpf4jnsgd1na2vs0mg"},{"bike_id":"957e7b45-0490-4fcf-af4e-ef2a5915bf5e","system_id":"levelo_inurba_marseille","lat":43.26207,"lon":5.37448,"is_reserved":false,"is_disabled":false,"rental_uris":{"android":"levelo://app?vid=957e7b45-0490-4fcf-af4e-ef2a5915bf5e","ios":"levelo://app?vid=957e7b45-0490-4fcf-af4e-ef2a5915bf5e"},"vehicle_type_id":"4","last_reported":1753564195,"current_range_meters":16400,"station_id":"ce4bhgp2rcd13ifvqfc0","pricing_plan_id":"cebpf4jnsgd1na2vs0mg"},{"bike_id":"adbc006e-c51d-4434-863c-610344ea30cd","system_id":"levelo_inurba_marseille","lat":43.21765,"lon":5.3461,"is_reserved":false,"is_disabled":true,"rental_uris":{"android":"levelo://app?vid=adbc006e-c51d-4434-863c-610344ea30cd","ios":"levelo://app?vid=adbc006e-c51d-4434-863c-610344ea30cd"},"vehicle_type_id":"4","last_reported":1753564195,"current_range_meters":16400,"station_id":"st_cvj6r9ubvosntc0bgbag","pricing_plan_id":"cebpf4jnsgd1na2vs0mg"},{"bike_id":"9188366a-c6a3-4354-b558-553177316347","system_id":"levelo_inurba_marseille","lat":43.26192,"lon":5.37458,"is_reserved":false,"is_disabled":true,"rental_uris":{"android":"levelo://app?vid=9188366a-c6a3-4354-b558-553177316347","ios":"levelo://app?vid=9188366a-c6a3-4354-b558-553177316347"},"vehicle_type_id":"4","last_reported":1753564195,"current_range_meters":16400,"station_id":"ce4bhgp2rcd13ifvqfc0","pricing_plan_id":"cebpf4jnsgd1na2vs0mg"},{"bike_id":"07bdf7f4-31e3-4166-8507-4452a98400cb","system_id":"levelo_inurba_marseille","lat":43.2622,"lon":5.37461,"is_reserved":false,"is_disabled":false,"rental_uris":{"android":"levelo://app?vid=07bdf7f4-31e3-4166-8507-4452a98400cb","ios":"levelo://app?vid=07bdf7f4-31e3-4166-8507-4452a98400cb"},"vehicle_type_id":"4","last_reported":1753564195,"current_range_meters":16400,"station_id":"ce4bhgp2rcd13ifvqfc0","pricing_plan_id":"cebpf4jnsgd1na2vs0mg"},{"bike_id":"d08af546-f672-4cdc-ae0a-11c744e804ce","system_id":"levelo_inurba_marseille","lat":43.27806,"lon":5.40723,"is_reserved":false,"is_disabled":false,"rental_uris":{"android":"levelo://app?vid=d08af546-f672-4cdc-ae0a-11c744e804ce","ios":"levelo://app?vid=d08af546-f672-4cdc-ae0a-11c744e804ce"},"vehicle_type_id":"4","last_reported":1753564195,"current_range_meters":16400,"station_id":"ce4bhnh2rcd13ifvqgtg","pricing_plan_id":"cebpf4jnsgd1na2vs0mg"},{"bike_id":"d37022ff-e2cc-4be9-8286-4924267be13a","system_id":"levelo_inurba_marseille","lat":43.23185,"lon":5.39982,"is_reserved":false,"is_disabled":false,"rental_uris":{"android":"levelo://app?vid=d37022ff-e2cc-4be9-8286-4924267be13a","ios":"levelo://app?vid=d37022ff-e2cc-4be9-8286-4924267be13a"},"vehicle_type_id":"4","last_reported":1753564195,"current_range_meters":16400,"station_id":"ce4bhn12rcd13ifvqgqg","pricing_plan_id":"cebpf4jnsgd1na2vs0mg"},{"bike_id":"90b0ef2d-fda9-41b1-8f39-20fc5c736165","system_id":"levelo_inurba_marseille","lat":43.2707,"lon":5.40257,"is_reserved":false,"is_disabled":false,"rental_uris":{"android":"levelo://app?vid=90b0ef2d-fda9-41b1-8f39-20fc5c736165","ios":"levelo://app?vid=90b0ef2d-fda9-41b1-8f39-20fc5c736165"},"vehicle_type_id":"4","last_reported":1753564195,"current_range_meters":16400,"station_id":"ce4bhk92rcd13ifvqgc0","pricing_plan_id":"cebpf4jnsgd1na2vs0mg"},{"bike_id":"fcb7c335-518f-4881-a4aa-d1677bb42176","system_id":"levelo_inurba_marseille","lat":43.28459,"lon":5.35897,"is_reserved":false,"is_disabled":false,"rental_uris":{"android":"levelo://app?vid=fcb7c335-518f-4881-a4aa-d1677bb42176","ios":"levelo://app?vid=fcb7c335-518f-4881-a4aa-d1677bb42176"},"vehicle_type_id":"4","last_reported":1753564195,"current_range_meters":16400,"station_id":"ce4bhah2rcd13ifvqei0","pricing_plan_id":"cebpf4jnsgd1na2vs0mg"},{"bike_id":"0882cb1f-3452-4948-9092-ae8b81ea7cab","system_id":"levelo_inurba_marseille","lat":43.29264,"lon":5.38438,"is_reserved":false,"is_disabled":false,"rental_uris":{"android":"levelo://app?vid=0882cb1f-3452-4948-9092-ae8b81ea7cab","ios":"levelo://app?vid=0882cb1f-3452-4948-9092-ae8b81ea7cab"},"vehicle_type_id":"4","last_reported":1753564195,"current_range_meters":16800,"station_id":"ce4bh692rcd13ifvqea0","pricing_plan_id":"cebpf4jnsgd1na2vs0mg"},{"bike_id":"8d53ef43-e114-4d24-90c3-a4f2ea53f7b0","system_id":"levelo_inurba_marseille","lat":43.27897,"lon":5.38013,"is_reserved":false,"is_disabled":false,"rental_uris":{"android":"levelo://app?vid=8d53ef43-e114-4d24-90c3-a4f2ea53f7b0","ios":"levelo://app?vid=8d53ef43-e114-4d24-90c3-a4f2ea53f7b0"},"vehicle_type_id":"4","last_reported":1753564195,"current_range_meters":16400,"station_id":"ce4bhf92rcd13ifvqf50","pricing_plan_id":"cebpf4jnsgd1na2vs0mg"},{"bike_id":"91064eda-5fec-478e-816b-d7098544c408","system_id":"levelo_inurba_marseille","lat":43.25492,"lon":5.37649,"is_reserved":false,"is_disabled":false,"rental_uris":{"android":"levelo://app?vid=91064eda-5fec-478e-816b-d7098544c408","ios":"levelo://app?vid=91064eda-5fec-478e-816b-d7098544c408"},"vehicle_type_id":"4","last_reported":1753564195,"current_range_meters":17600,"station_id":"ce4bhh12rcd13ifvqff0","pricing_plan_id":"cebpf4jnsgd1na2vs0mg"},{"bike_id":"e666153e-0d94-49fc-a285-a6a2347ef6ad","system_id":"levelo_inurba_marseille","lat":43.26956,"lon":5.38632,"is_reserved":false,"is_disabled":true,"rental_uris":{"android":"levelo://app?vid=e666153e-0d94-49fc-a285-a6a2347ef6ad","ios":"levelo://app?vid=e666153e-0d94-49fc-a285-a6a2347ef6ad"},"vehicle_type_id":"4","last_reported":1753564195,"current_range_meters":16800,"station_id":"ce4bhh92rcd13ifvqfh0","pricing_plan_id":"cebpf4jnsgd1na2vs0mg"},{"bike_id":"ae855f90-a9e5-448b-83e3-7aabd2bf7444","system_id":"levelo_inurba_marseille","lat":43.3043,"lon":5.39756,"is_reserved":false,"is_disabled":false,"rental_uris":{"android":"levelo://app?vid=ae855f90-a9e5-448b-83e3-7aabd2bf7444","ios":"levelo://app?vid=ae855f90-a9e5-448b-83e3-7aabd2bf7444"},"vehicle_type_id":"4","last_reported":1753564195,"current_range_meters":16400,"station_id":"ce4bh092rcd13ifvqd20","pricing_plan_id":"cebpf4jnsgd1na2vs0mg"},{"bike_id":"092445da-6c69-438d-914a-76950a2eb10d","system_id":"levelo_inurba_marseille","lat":43.32368,"lon":5.38851,"is_reserved":false,"is_disabled":false,"rental_uris":{"android":"levelo://app?vid=092445da-6c69-438d-914a-76950a2eb10d","ios":"levelo://app?vid=092445da-6c69-438d-914a-76950a2eb10d"},"vehicle_type_id":"4","last_reported":1753564195,"current_range_meters":16800,"station_id":"ce4bhqp2rcd13ifvqhog","pricing_plan_id":"cebpf4jnsgd1na2vs0mg"},{"bike_id":"9106f4a3-0d86-4897-abcd-79d70c5a09e4","system_id":"levelo_inurba_marseille","lat":43.29525,"lon":5.38538,"is_reserved":false,"is_disabled":false,"rental_uris":{"android":"levelo://app?vid=9106f4a3-0d86-4897-abcd-79d70c5a09e4","ios":"levelo://app?vid=9106f4a3-0d86-4897-abcd-79d70c5a09e4"},"vehicle_type_id":"4","last_reported":1753564195,"current_range_meters":16800,"station_id":"ce4bgih2rcd13ifvqba0","pricing_plan_id":"cebpf4jnsgd1na2vs0mg"},{"bike_id":"8512b265-75e1-49d7-bb7d-bd988c357d7c","system_id":"levelo_inurba_marseille","lat":43.28696,"lon":5.39978,"is_reserved":false,"is_disabled":true,"rental_uris":{"android":"levelo://app?vid=8512b265-75e1-49d7-bb7d-bd988c357d7c","ios":"levelo://app?vid=8512b265-75e1-49d7-bb7d-bd988c357d7c"},"vehicle_type_id":"4","last_reported":1753564195,"current_range_meters":16800,"station_id":"ce4bho92rcd13ifvqh3g","pricing_plan_id":"cebpf4jnsgd1na2vs0mg"},{"bike_id":"295c9f40-ca7e-484c-8f1d-8e8d40a1416a","system_id":"levelo_inurba_marseille","lat":43.29532,"lon":5.38527,"is_reserved":false,"is_disabled":false,"rental_uris":{"android":"levelo://app?vid=295c9f40-ca7e-484c-8f1d-8e8d40a1416a","ios":"levelo://app?vid=295c9f40-ca7e-484c-8f1d-8e8d40a1416a"},"vehicle_type_id":"4","last_reported":1753564195,"current_range_meters":16800,"station_id":"ce4bgih2rcd13ifvqba0","pricing_plan_id":"cebpf4jnsgd1na2vs0mg"},{"bike_id":"abc74d39-904a-4d38-90f7-6fa3f40e70c0","system_id":"levelo_inurba_marseille","lat":43.30133,"lon":5.38778,"is_reserved":false,"is_disabled":false,"rental_uris":{"android":"levelo://app?vid=abc74d39-904a-4d38-90f7-6fa3f40e70c0","ios":"levelo://app?vid=abc74d39-904a-4d38-90f7-6fa3f40e70c0"},"vehicle_type_id":"4","last_reported":1753564195,"current_range_meters":17200,"station_id":"ce4bghh2rcd13ifvqb60","pricing_plan_id":"cebpf4jnsgd1na2vs0mg"},{"bike_id":"d2f2ecd2-8fe9-46fa-90d2-70b7311a3a6e","system_id":"levelo_inurba_marseille","lat":43.2826,"lon":5.35071,"is_reserved":false,"is_disabled":false,"rental_uris":{"android":"levelo://app?vid=d2f2ecd2-8fe9-46fa-90d2-70b7311a3a6e","ios":"levelo://app?vid=d2f2ecd2-8fe9-46fa-90d2-70b7311a3a6e"},"vehicle_type_id":"4","last_reported":1753564195,"current_range_meters":17200,"station_id":"","pricing_plan_id":"cebpf4jnsgd1na2vs0mg"},{"bike_id":"484ce80f-12be-41fa-9586-784b84db2ffe","system_id":"levelo_inurba_marseille","lat":43.24814,"lon":5.37462,"is_reserved":false,"is_disabled":false,"rental_uris":{"android":"levelo://app?vid=484ce80f-12be-41fa-9586-784b84db2ffe","ios":"levelo://app?vid=484ce80f-12be-41fa-9586-784b84db2ffe"},"vehicle_type_id":"4","last_reported":1753564195,"current_range_meters":17200,"station_id":"ce4bhgh2rcd13ifvqfb0","pricing_plan_id":"cebpf4jnsgd1na2vs0mg"},{"bike_id":"38a98bcb-971f-44f1-a245-adaa4f1149a5","system_id":"levelo_inurba_marseille","lat":43.255,"lon":5.37653,"is_reserved":false,"is_disabled":false,"rental_uris":{"android":"levelo://app?vid=38a98bcb-971f-44f1-a245-adaa4f1149a5","ios":"levelo://app?vid=38a98bcb-971f-44f1-a245-adaa4f1149a5"},"vehicle_type_id":"4","last_reported":1753564195,"current_range_meters":17200,"station_id":"ce4bhh12rcd13ifvqff0","pricing_plan_id":"cebpf4jnsgd1na2vs0mg"},{"bike_id":"e5bee780-2d4f-4c03-87c3-b7a71ad729d9","system_id":"levelo_inurba_marseille","lat":43.29597,"lon":5.38097,"is_reserved":false,"is_disabled":false,"rental_uris":{"android":"levelo://app?vid=e5bee780-2d4f-4c03-87c3-b7a71ad729d9","ios":"levelo://app?vid=e5bee780-2d4f-4c03-87c3-b7a71ad729d9"},"vehicle_type_id":"4","last_reported":1753564195,"current_range_meters":17200,"station_id":"ce4bgl12rcd13ifvqbo0","pricing_plan_id":"cebpf4jnsgd1na2vs0mg"},{"bike_id":"32ec7568-b371-45c2-97d0-0fdb8db5c32c","system_id":"levelo_inurba_marseille","lat":43.26551,"lon":5.37286,"is_reserved":false,"is_disabled":false,"rental_uris":{"android":"levelo://app?vid=32ec7568-b371-45c2-97d0-0fdb8db5c32c","ios":"levelo://app?vid=32ec7568-b371-45c2-97d0-0fdb8db5c32c"},"vehicle_type_id":"4","last_reported":1753564195,"current_range_meters":17200,"station_id":"ce4bhg12rcd13ifvqf70","pricing_plan_id":"cebpf4jnsgd1na2vs0mg"},{"bike_id":"25bae460-a8be-463f-b248-e2f9e2a11e6a","system_id":"levelo_inurba_marseille","lat":43.290283,"lon":5.386461,"is_reserved":false,"is_disabled":false,"rental_uris":{"android":"levelo://app?vid=25bae460-a8be-463f-b248-e2f9e2a11e6a","ios":"levelo://app?vid=25bae460-a8be-463f-b248-e2f9e2a11e6a"},"vehicle_type_id":"4","last_reported":1753564195,"current_range_meters":17200,"station_id":"ce4bh4p2rcd13ifvqe0g","pricing_plan_id":"cebpf4jnsgd1na2vs0mg"},{"bike_id":"b3e573da-2e2c-48b3-a491-5f2ef167040c","system_id":"levelo_inurba_marseille","lat":43.297934,"lon":5.393537,"is_reserved":false,"is_disabled":false,"rental_uris":{"android":"levelo://app?vid=b3e573da-2e2c-48b3-a491-5f2ef167040c","ios":"levelo://app?vid=b3e573da-2e2c-48b3-a491-5f2ef167040c"},"vehicle_type_id":"4","last_reported":1753564195,"current_range_meters":17200,"station_id":"chh1huq6cuj3fo74tm60","pricing_plan_id":"cebpf4jnsgd1na2vs0mg"},{"bike_id":"0b6e37e1-db39-4d64-9941-7e484c9ea038","system_id":"levelo_inurba_marseille","lat":43.29614,"lon":5.37716,"is_reserved":false,"is_disabled":true,"rental_uris":{"android":"levelo://app?vid=0b6e37e1-db39-4d64-9941-7e484c9ea038","ios":"levelo://app?vid=0b6e37e1-db39-4d64-9941-7e484c9ea038"},"vehicle_type_id":"4","last_reported":1753564195,"current_range_meters":17200,"station_id":"","pricing_plan_id":"cebpf4jnsgd1na2vs0mg"},{"bike_id":"2d3c8f18-a1f1-4e52-9db5-8b774a548037","system_id":"levelo_inurba_marseille","lat":43.29246,"lon":5.38444,"is_reserved":false,"is_disabled":false,"rental_uris":{"android":"levelo://app?vid=2d3c8f18-a1f1-4e52-9db5-8b774a548037","ios":"levelo://app?vid=2d3c8f18-a1f1-4e52-9db5-8b774a548037"},"vehicle_type_id":"4","last_reported":1753564195,"current_range_meters":17200,"station_id":"ce4bh692rcd13ifvqea0","pricing_plan_id":"cebpf4jnsgd1na2vs0mg"},{"bike_id":"2598e986-7932-4935-a8a1-f877a3a17381","system_id":"levelo_inurba_marseille","lat":43.28963,"lon":5.37844,"is_reserved":false,"is_disabled":false,"rental_uris":{"android":"levelo://app?vid=2598e986-7932-4935-a8a1-f877a3a17381","ios":"levelo://app?vid=2598e986-7932-4935-a8a1-f877a3a17381"},"vehicle_type_id":"4","last_reported":1753564195,"current_range_meters":17200,"station_id":"ce4bh9p2rcd13ifvqed0","pricing_plan_id":"cebpf4jnsgd1na2vs0mg"},{"bike_id":"0cf4166d-fc45-4e28-8e82-8bb1e727d791","system_id":"levelo_inurba_marseille","lat":43.299683,"lon":5.386239,"is_reserved":false,"is_disabled":false,"rental_uris":{"android":"levelo://app?vid=0cf4166d-fc45-4e28-8e82-8bb1e727d791","ios":"levelo://app?vid=0cf4166d-fc45-4e28-8e82-8bb1e727d791"},"vehicle_type_id":"4","last_reported":1753564195,"current_range_meters":17600,"station_id":"","pricing_plan_id":"cebpf4jnsgd1na2vs0mg"},{"bike_id":"d4fb13b1-3328-4ea9-98da-c9743c282a19","system_id":"levelo_inurba_marseille","lat":43.29253,"lon":5.38461,"is_reserved":false,"is_disabled":false,"rental_uris":{"android":"levelo://app?vid=d4fb13b1-3328-4ea9-98da-c9743c282a19","ios":"levelo://app?vid=d4fb13b1-3328-4ea9-98da-c9743c282a19"},"vehicle_type_id":"4","last_reported":1753564195,"current_range_meters":17600,"station_id":"ce4bh692rcd13ifvqea0","pricing_plan_id":"cebpf4jnsgd1na2vs0mg"},{"bike_id":"107ba082-8472-4660-beff-73f1171569c8","system_id":"levelo_inurba_marseille","lat":43.2847,"lon":5.38413,"is_reserved":false,"is_disabled":false,"rental_uris":{"android":"levelo://app?vid=107ba082-8472-4660-beff-73f1171569c8","ios":"levelo://app?vid=107ba082-8472-4660-beff-73f1171569c8"},"vehicle_type_id":"4","last_reported":1753564195,"current_range_meters":17600,"station_id":"ce4bh512rcd13ifvqe3g","pricing_plan_id":"cebpf4jnsgd1na2vs0mg"},{"bike_id":"01b9152b-1fb2-4f06-a370-771644f3e0dc","system_id":"levelo_inurba_marseille","lat":43.31357,"lon":5.38505,"is_reserved":false,"is_disabled":false,"rental_uris":{"android":"levelo://app?vid=01b9152b-1fb2-4f06-a370-771644f3e0dc","ios":"levelo://app?vid=01b9152b-1fb2-4f06-a370-771644f3e0dc"},"vehicle_type_id":"4","last_reported":1753564195,"current_range_meters":17600,"station_id":"ce4bgt92rcd13ifvqcf0","pricing_plan_id":"cebpf4jnsgd1na2vs0mg"},{"bike_id":"b64dad25-8e0d-4258-bfd2-304c64c6d313","system_id":"levelo_inurba_marseille","lat":43.31686,"lon":5.378,"is_reserved":false,"is_disabled":false,"rental_uris":{"android":"levelo://app?vid=b64dad25-8e0d-4258-bfd2-304c64c6d313","ios":"levelo://app?vid=b64dad25-8e0d-4258-bfd2-304c64c6d313"},"vehicle_type_id":"4","last_reported":1753564195,"current_range_meters":17600,"station_id":"","pricing_plan_id":"cebpf4jnsgd1na2vs0mg"},{"bike_id":"55661540-733b-4bd0-ad5d-bb688398f06e","system_id":"levelo_inurba_marseille","lat":43.22511,"lon":5.34783,"is_reserved":false,"is_disabled":false,"rental_uris":{"android":"levelo://app?vid=55661540-733b-4bd0-ad5d-bb688398f06e","ios":"levelo://app?vid=55661540-733b-4bd0-ad5d-bb688398f06e"},"vehicle_type_id":"4","last_reported":1753564195,"current_range_meters":17600,"station_id":"st_cvj5dfep6f1abm77gieg","pricing_plan_id":"cebpf4jnsgd1na2vs0mg"},{"bike_id":"d2c71c5c-62f8-434c-886c-68865709a4dd","system_id":"levelo_inurba_marseille","lat":43.26209,"lon":5.37441,"is_reserved":false,"is_disabled":false,"rental_uris":{"android":"levelo://app?vid=d2c71c5c-62f8-434c-886c-68865709a4dd","ios":"levelo://app?vid=d2c71c5c-62f8-434c-886c-68865709a4dd"},"vehicle_type_id":"4","last_reported":1753564195,"current_range_meters":17600,"station_id":"ce4bhgp2rcd13ifvqfc0","pricing_plan_id":"cebpf4jnsgd1na2vs0mg"},{"bike_id":"a7e4a6c3-ad45-4ba6-91d2-4ec56a92fe4c","system_id":"levelo_inurba_marseille","lat":43.29517,"lon":5.37496,"is_reserved":false,"is_disabled":true,"rental_uris":{"android":"levelo://app?vid=a7e4a6c3-ad45-4ba6-91d2-4ec56a92fe4c","ios":"levelo://app?vid=a7e4a6c3-ad45-4ba6-91d2-4ec56a92fe4c"},"vehicle_type_id":"4","last_reported":1753564195,"current_range_meters":17600,"station_id":"ce4bgkp2rcd13ifvqbmg","pricing_plan_id":"cebpf4jnsgd1na2vs0mg"},{"bike_id":"f02b83bb-4b03-4237-9009-a0e83b32204f","system_id":"levelo_inurba_marseille","lat":43.3233,"lon":5.40625,"is_reserved":false,"is_disabled":false,"rental_uris":{"android":"levelo://app?vid=f02b83bb-4b03-4237-9009-a0e83b32204f","ios":"levelo://app?vid=f02b83bb-4b03-4237-9009-a0e83b32204f"},"vehicle_type_id":"4","last_reported":1753564195,"current_range_meters":17600,"station_id":"ce4bhq92rcd13ifvqhjg","pricing_plan_id":"cebpf4jnsgd1na2vs0mg"},{"bike_id":"2532ebb9-5235-4429-937b-647cefe2a37b","system_id":"levelo_inurba_marseille","lat":43.24811,"lon":5.37451,"is_reserved":false,"is_disabled":false,"rental_uris":{"android":"levelo://app?vid=2532ebb9-5235-4429-937b-647cefe2a37b","ios":"levelo://app?vid=2532ebb9-5235-4429-937b-647cefe2a37b"},"vehicle_type_id":"4","last_reported":1753564195,"current_range_meters":18000,"station_id":"ce4bhgh2rcd13ifvqfb0","pricing_plan_id":"cebpf4jnsgd1na2vs0mg"},{"bike_id":"28591454-0b48-49da-b7f4-27327b8949f4","system_id":"levelo_inurba_marseille","lat":43.2953,"lon":5.38568,"is_reserved":false,"is_disabled":false,"rental_uris":{"android":"levelo://app?vid=28591454-0b48-49da-b7f4-27327b8949f4","ios":"levelo://app?vid=28591454-0b48-49da-b7f4-27327b8949f4"},"vehicle_type_id":"4","last_reported":1753564195,"current_range_meters":18000,"station_id":"ce4bgih2rcd13ifvqba0","pricing_plan_id":"cebpf4jnsgd1na2vs0mg"},{"bike_id":"b994b83e-efd6-4b10-a752-daee246b28e3","system_id":"levelo_inurba_marseille","lat":43.26951,"lon":5.38632,"is_reserved":false,"is_disabled":false,"rental_uris":{"android":"levelo://app?vid=b994b83e-efd6-4b10-a752-daee246b28e3","ios":"levelo://app?vid=b994b83e-efd6-4b10-a752-daee246b28e3"},"vehicle_type_id":"4","last_reported":1753564195,"current_range_meters":18000,"station_id":"ce4bhh92rcd13ifvqfh0","pricing_plan_id":"cebpf4jnsgd1na2vs0mg"},{"bike_id":"70381b97-b2ee-4f26-8f16-caf046608e7f","system_id":"levelo_inurba_marseille","lat":43.27986,"lon":5.40013,"is_reserved":false,"is_disabled":true,"rental_uris":{"android":"levelo://app?vid=70381b97-b2ee-4f26-8f16-caf046608e7f","ios":"levelo://app?vid=70381b97-b2ee-4f26-8f16-caf046608e7f"},"vehicle_type_id":"4","last_reported":1753564195,"current_range_meters":18000,"station_id":"ce4bho92rcd13ifvqh4g","pricing_plan_id":"cebpf4jnsgd1na2vs0mg"},{"bike_id":"9c310fef-46e7-4b3a-bcae-2cffaef651e5","system_id":"levelo_inurba_marseille","lat":43.29577,"lon":5.38093,"is_reserved":false,"is_disabled":false,"rental_uris":{"android":"levelo://app?vid=9c310fef-46e7-4b3a-bcae-2cffaef651e5","ios":"levelo://app?vid=9c310fef-46e7-4b3a-bcae-2cffaef651e5"},"vehicle_type_id":"4","last_reported":1753564195,"current_range_meters":18000,"station_id":"ce4bgl12rcd13ifvqbo0","pricing_plan_id":"cebpf4jnsgd1na2vs0mg"},{"bike_id":"f9666092-9473-434c-98ab-188985dc04c7","system_id":"levelo_inurba_marseille","lat":43.29531,"lon":5.38545,"is_reserved":false,"is_disabled":false,"rental_uris":{"android":"levelo://app?vid=f9666092-9473-434c-98ab-188985dc04c7","ios":"levelo://app?vid=f9666092-9473-434c-98ab-188985dc04c7"},