{"last_updated":1768311234,"ttl":60,"version":"2.2","data":{"bikes":[{"bike_id":"7b6f12be-65ff-469f-954c-5bc823eb23e6","system_id":"levelo_inurba_marseille","lat":43.32502,"lon":5.36441,"is_reserved":false,"is_disabled":false,"rental_uris":{"android":"levelo://app?vid=7b6f12be-65ff-469f-954c-5bc823eb23e6","ios":"levelo://app?vid=7b6f12be-65ff-469f-954c-5bc823eb23e6"},"vehicle_type_id":"4","last_reported":1768311235,"current_range_meters":2800,"station_id":"","pricing_plan_id":"cebpf4jnsgd1na2vs0mg"},{"bike_id":"5b74f76c-7655-4a1b-bf0f-ee1d1ac9b692","system_id":"levelo_inurba_marseille","lat":43.3138,"lon":5.36807,"is_reserved":false,"is_disabled":false,"rental_uris":{"android":"levelo://app?vid=5b74f76c-7655-4a1b-bf0f-ee1d1ac9b692","ios":"levelo://app?vid=5b74f76c-7655-4a1b-bf0f-ee1d1ac9b692"},"vehicle_type_id":"4","last_reported":1768311235,"current_range_meters":2800,"station_id":"","pricing_plan_id":"cebpf4jnsgd1na2vs0mg"},{"bike_id":"604fbab3-766e-4a5c-9101-64b3884a0459","system_id":"levelo_inurba_marseille","lat":43.24663,"lon":5.38155,"is_reserved":false,"is_disabled":false,"rental_uris":{"android":"levelo://app?vid=604fbab3-766e-4a5c-9101-64b3884a0459","ios":"levelo://app?vid=604fbab3-766e-4a5c-9101-64b3884a0459"},"vehicle_type_id":"4","last_reported":1768311235,"current_range_meters":2800,"station_id":"ce4bhih2rcd13ifvqfr0","pricing_plan_id":"cebpf4jnsgd1na2vs0mg"},{"bike_id":"867b130f-e42d-4064-8fb6-c617116fbb81","system_id":"levelo_inurba_marseille","lat":43.25005,"lon":5.38918,"is_reserved":false,"is_disabled":false,"rental_uris":{"android":"levelo://app?vid=867b130f-e42d-4064-8fb6-c617116fbb81","ios":"levelo://app?vid=867b130f-e42d-4064-8fb6-c617116fbb81"},"vehicle_type_id":"4","last_reported":1768311235,"current_range_meters":2800,"station_id":"ce4bhgp2rcd13ifvqfd0","pricing_plan_id":"cebpf4jnsgd1na2vs0mg"},{"bike_id":"a3b66a73-aef3-42a6-bf24-ef2935218f23","system_id":"levelo_inurba_marseille","lat":43.32359,"lon":5.36742,"is_reserved":false,"is_disabled":false,"rental_uris":{"android":"levelo://app?vid=a3b66a73-aef3-42a6-bf24-ef2935218f23","ios":"levelo://app?vid=a3b66a73-aef3-42a6-bf24-ef2935218f23"},"vehicle_type_id":"4","last_reported":1768311235,"current_range_meters":2800,"station_id":"ce4bhsh2rcd13ifvqi2g","pricing_plan_id":"cebpf4jnsgd1na2vs0mg"},{"bike_id":"74f6ddd5-35b7-405c-8efa-f84a9fe67e1b","system_id":"levelo_inurba_marseille","lat":43.279444,"lon":5.410426,"is_reserved":false,"is_disabled":false,"rental_uris":{"android":"levelo://app?vid=74f6ddd5-35b7-405c-8efa-f84a9fe67e1b","ios":"levelo://app?vid=74f6ddd5-35b7-405c-8efa-f84a9fe67e1b"},"vehicle_type_id":"4","last_reported":1768311235,"current_range_meters":2800,"station_id":"ce4bhnp2rcd13ifvqh0g","pricing_plan_id":"cebpf4jnsgd1na2vs0mg"},{"bike_id":"8049ab61-e378-4478-bef4-ac0f529d7d1a","system_id":"levelo_inurba_marseille","lat":43.23188,"lon":5.35558,"is_reserved":false,"is_disabled":false,"rental_uris":{"android":"levelo://app?vid=8049ab61-e378-4478-bef4-ac0f529d7d1a","ios":"levelo://app?vid=8049ab61-e378-4478-bef4-ac0f529d7d1a"},"vehicle_type_id":"4","last_reported":1768311235,"current_range_meters":2800,"station_id":"ce4bhu92rcd13ifvqi70","pricing_plan_id":"cebpf4jnsgd1na2vs0mg"},{"bike_id":"822bf8c4-2107-4985-9caf-c60c9968427e","system_id":"levelo_inurba_marseille","lat":43.28466,"lon":5.48361,"is_reserved":false,"is_disabled":false,"rental_uris":{"android":"levelo://app?vid=822bf8c4-2107-4985-9caf-c60c9968427e","ios":"levelo://app?vid=822bf8c4-2107-4985-9caf-c60c9968427e"},"vehicle_type_id":"4","last_reported":1768311235,"current_range_meters":2800,"station_id":"","pricing_plan_id":"cebpf4jnsgd1na2vs0mg"},{"bike_id":"1c19694b-6f9b-41c6-a73c-90ea98c0ef52","system_id":"levelo_inurba_marseille","lat":43.29717,"lon":5.37709,"is_reserved":false,"is_disabled":false,"rental_uris":{"android":"levelo://app?vid=1c19694b-6f9b-41c6-a73c-90ea98c0ef52","ios":"levelo://app?vid=1c19694b-6f9b-41c6-a73c-90ea98c0ef52"},"vehicle_type_id":"4","last_reported":1768311235,"current_range_meters":2800,"station_id":"ce4bgkh2rcd13ifvqbl0","pricing_plan_id":"cebpf4jnsgd1na2vs0mg"},{"bike_id":"b81a771e-796c-40e5-98d5-2c3857393d80","system_id":"levelo_inurba_marseille","lat":43.28484,"lon":5.4839,"is_reserved":false,"is_disabled":false,"rental_uris":{"android":"levelo://app?vid=b81a771e-796c-40e5-98d5-2c3857393d80","ios":"levelo://app?vid=b81a771e-796c-40e5-98d5-2c3857393d80"},"vehicle_type_id":"4","last_reported":1768311235,"current_range_meters":2800,"station_id":"st_d3svhcjqgbts73a3dn0g","pricing_plan_id":"cebpf4jnsgd1na2vs0mg"},{"bike_id":"1ce376bc-d16e-43ee-bdf2-f7acab613f89","system_id":"levelo_inurba_marseille","lat":43.25316,"lon":5.376,"is_reserved":false,"is_disabled":false,"rental_uris":{"android":"levelo://app?vid=1ce376bc-d16e-43ee-bdf2-f7acab613f89","ios":"levelo://app?vid=1ce376bc-d16e-43ee-bdf2-f7acab613f89"},"vehicle_type_id":"4","last_reported":1768311235,"current_range_meters":2800,"station_id":"","pricing_plan_id":"cebpf4jnsgd1na2vs0mg"},{"bike_id":"d075bf54-e83d-4ed1-a82b-2c90eb177a6a","system_id":"levelo_inurba_marseille","lat":43.29516,"lon":5.39037,"is_reserved":false,"is_disabled":false,"rental_uris":{"android":"levelo://app?vid=d075bf54-e83d-4ed1-a82b-2c90eb177a6a","ios":"levelo://app?vid=d075bf54-e83d-4ed1-a82b-2c90eb177a6a"},"vehicle_type_id":"4","last_reported":1768311235,"current_range_meters":3200,"station_id":"ce4bh3p2rcd13ifvqdp0","pricing_plan_id":"cebpf4jnsgd1na2vs0mg"},{"bike_id":"38f4a987-dd83-438a-8fb1-86586e5ae543","system_id":"levelo_inurba_marseille","lat":43.240726,"lon":5.377662,"is_reserved":false,"is_disabled":false,"rental_uris":{"android":"levelo://app?vid=38f4a987-dd83-438a-8fb1-86586e5ae543","ios":"levelo://app?vid=38f4a987-dd83-438a-8fb1-86586e5ae543"},"vehicle_type_id":"4","last_reported":1768311235,"current_range_meters":3200,"station_id":"","pricing_plan_id":"cebpf4jnsgd1na2vs0mg"},{"bike_id":"d1d7ed20-2fc0-4bb0-b335-bddc0f061a5f","system_id":"levelo_inurba_marseille","lat":43.31022,"lon":5.3714,"is_reserved":false,"is_disabled":false,"rental_uris":{"android":"levelo://app?vid=d1d7ed20-2fc0-4bb0-b335-bddc0f061a5f","ios":"levelo://app?vid=d1d7ed20-2fc0-4bb0-b335-bddc0f061a5f"},"vehicle_type_id":"4","last_reported":1768311235,"current_range_meters":3200,"station_id":"st_d4kl2rp97mjs73e7tdfg","pricing_plan_id":"cebpf4jnsgd1na2vs0mg"},{"bike_id":"cd0221e4-8d5e-4481-a072-4408c503f646","system_id":"levelo_inurba_marseille","lat":43.27995,"lon":5.41669,"is_reserved":false,"is_disabled":false,"rental_uris":{"android":"levelo://app?vid=cd0221e4-8d5e-4481-a072-4408c503f646","ios":"levelo://app?vid=cd0221e4-8d5e-4481-a072-4408c503f646"},"vehicle_type_id":"4","last_reported":1768311235,"current_range_meters":3200,"station_id":"ce4bho12rcd13ifvqh1g","pricing_plan_id":"cebpf4jnsgd1na2vs0mg"},{"bike_id":"682a25db-2229-438e-a91a-bd8e0ed43f7f","system_id":"levelo_inurba_marseille","lat":43.3017,"lon":5.37114,"is_reserved":false,"is_disabled":false,"rental_uris":{"android":"levelo://app?vid=682a25db-2229-438e-a91a-bd8e0ed43f7f","ios":"levelo://app?vid=682a25db-2229-438e-a91a-bd8e0ed43f7f"},"vehicle_type_id":"4","last_reported":1768311235,"current_range_meters":3600,"station_id":"","pricing_plan_id":"cebpf4jnsgd1na2vs0mg"},{"bike_id":"48e0d58e-bd7e-4b90-92d4-898fdf7abd39","system_id":"levelo_inurba_marseille","lat":43.30868,"lon":5.40597,"is_reserved":false,"is_disabled":false,"rental_uris":{"android":"levelo://app?vid=48e0d58e-bd7e-4b90-92d4-898fdf7abd39","ios":"levelo://app?vid=48e0d58e-bd7e-4b90-92d4-898fdf7abd39"},"vehicle_type_id":"4","last_reported":1768311235,"current_range_meters":3600,"station_id":"","pricing_plan_id":"cebpf4jnsgd1na2vs0mg"},{"bike_id":"bad9d05b-2efd-4707-af1a-d48b0eeaba21","system_id":"levelo_inurba_marseille","lat":43.24462,"lon":5.42533,"is_reserved":false,"is_disabled":false,"rental_uris":{"android":"levelo://app?vid=bad9d05b-2efd-4707-af1a-d48b0eeaba21","ios":"levelo://app?vid=bad9d05b-2efd-4707-af1a-d48b0eeaba21"},"vehicle_type_id":"4","last_reported":1768311235,"current_range_meters":3600,"station_id":"st_d4a3vfp97mjs738cd8kg","pricing_plan_id":"cebpf4jnsgd1na2vs0mg"},{"bike_id":"7fb0d18d-87f0-4490-ac9a-259338a041dc","system_id":"levelo_inurba_marseille","lat":43.23527,"lon":5.35949,"is_reserved":false,"is_disabled":false,"rental_uris":{"android":"levelo://app?vid=7fb0d18d-87f0-4490-ac9a-259338a041dc","ios":"levelo://app?vid=7fb0d18d-87f0-4490-ac9a-259338a041dc"},"vehicle_type_id":"4","last_reported":1768311235,"current_range_meters":3600,"station_id":"","pricing_plan_id":"cebpf4jnsgd1na2vs0mg"},{"bike_id":"f2feb58b-2e1d-410d-a362-6a4d0a6ad00a","system_id":"levelo_inurba_marseille","lat":43.26925,"lon":5.40257,"is_reserved":false,"is_disabled":false,"rental_uris":{"android":"levelo://app?vid=f2feb58b-2e1d-410d-a362-6a4d0a6ad00a","ios":"levelo://app?vid=f2feb58b-2e1d-410d-a362-6a4d0a6ad00a"},"vehicle_type_id":"4","last_reported":1768311235,"current_range_meters":3600,"station_id":"cjm6bp8fraef2m0cb0m0","pricing_plan_id":"cebpf4jnsgd1na2vs0mg"},{"bike_id":"38d076d2-a3a0-46d0-b800-0eaafad476d4","system_id":"levelo_inurba_marseille","lat":43.2821,"lon":5.40373,"is_reserved":false,"is_disabled":false,"rental_uris":{"android":"levelo://app?vid=38d076d2-a3a0-46d0-b800-0eaafad476d4","ios":"levelo://app?vid=38d076d2-a3a0-46d0-b800-0eaafad476d4"},"vehicle_type_id":"4","last_reported":1768311235,"current_range_meters":3600,"station_id":"","pricing_plan_id":"cebpf4jnsgd1na2vs0mg"},{"bike_id":"4202e215-6f29-4f58-ace8-2e6289f05e81","system_id":"levelo_inurba_marseille","lat":43.2396,"lon":5.36622,"is_reserved":false,"is_disabled":false,"rental_uris":{"android":"levelo://app?vid=4202e215-6f29-4f58-ace8-2e6289f05e81","ios":"levelo://app?vid=4202e215-6f29-4f58-ace8-2e6289f05e81"},"vehicle_type_id":"4","last_reported":1768311235,"current_range_meters":3600,"station_id":"ce4bhi12rcd13ifvqfp0","pricing_plan_id":"cebpf4jnsgd1na2vs0mg"},{"bike_id":"9597063b-2148-4279-89c5-adbac1f60cd3","system_id":"levelo_inurba_marseille","lat":43.29166,"lon":5.37149,"is_reserved":false,"is_disabled":false,"rental_uris":{"android":"levelo://app?vid=9597063b-2148-4279-89c5-adbac1f60cd3","ios":"levelo://app?vid=9597063b-2148-4279-89c5-adbac1f60cd3"},"vehicle_type_id":"4","last_reported":1768311235,"current_range_meters":4000,"station_id":"ce4bha92rcd13ifvqeh0","pricing_plan_id":"cebpf4jnsgd1na2vs0mg"},{"bike_id":"a38bcbb1-c226-4bc2-8672-2e7d0273da8d","system_id":"levelo_inurba_marseille","lat":43.32345,"lon":5.36745,"is_reserved":false,"is_disabled":false,"rental_uris":{"android":"levelo://app?vid=a38bcbb1-c226-4bc2-8672-2e7d0273da8d","ios":"levelo://app?vid=a38bcbb1-c226-4bc2-8672-2e7d0273da8d"},"vehicle_type_id":"4","last_reported":1768311235,"current_range_meters":4000,"station_id":"ce4bhsh2rcd13ifvqi2g","pricing_plan_id":"cebpf4jnsgd1na2vs0mg"},{"bike_id":"e3615a85-f48a-4303-a1b7-ba1422ee46f8","system_id":"levelo_inurba_marseille","lat":43.29968,"lon":5.41322,"is_reserved":false,"is_disabled":false,"rental_uris":{"android":"levelo://app?vid=e3615a85-f48a-4303-a1b7-ba1422ee46f8","ios":"levelo://app?vid=e3615a85-f48a-4303-a1b7-ba1422ee46f8"},"vehicle_type_id":"4","last_reported":1768311235,"current_range_meters":4000,"station_id":"ce4bhp12rcd13ifvqh9g","pricing_plan_id":"cebpf4jnsgd1na2vs0mg"},{"bike_id":"2455333c-abb5-40b2-83d1-6df58226f70a","system_id":"levelo_inurba_marseille","lat":43.32922,"lon":5.38965,"is_reserved":false,"is_disabled":false,"rental_uris":{"android":"levelo://app?vid=2455333c-abb5-40b2-83d1-6df58226f70a","ios":"levelo://app?vid=2455333c-abb5-40b2-83d1-6df58226f70a"},"vehicle_type_id":"4","last_reported":1768311235,"current_range_meters":4000,"station_id":"","pricing_plan_id":"cebpf4jnsgd1na2vs0mg"},{"bike_id":"9bd81498-1c2d-46cc-b134-62e2c3cd9ba1","system_id":"levelo_inurba_marseille","lat":43.28859,"lon":5.42521,"is_reserved":false,"is_disabled":false,"rental_uris":{"android":"levelo://app?vid=9bd81498-1c2d-46cc-b134-62e2c3cd9ba1","ios":"levelo://app?vid=9bd81498-1c2d-46cc-b134-62e2c3cd9ba1"},"vehicle_type_id":"4","last_reported":1768311235,"current_range_meters":4000,"station_id":"st_d3b462108ojc7389ooeg","pricing_plan_id":"cebpf4jnsgd1na2vs0mg"},{"bike_id":"bb872cf3-111a-4da5-8326-64266a28cac2","system_id":"levelo_inurba_marseille","lat":43.26068,"lon":5.39402,"is_reserved":false,"is_disabled":false,"rental_uris":{"android":"levelo://app?vid=bb872cf3-111a-4da5-8326-64266a28cac2","ios":"levelo://app?vid=bb872cf3-111a-4da5-8326-64266a28cac2"},"vehicle_type_id":"4","last_reported":1768311235,"current_range_meters":4000,"station_id":"ce4bhh92rcd13ifvqfj0","pricing_plan_id":"cebpf4jnsgd1na2vs0mg"},{"bike_id":"c8f97057-827a-4c4d-ae60-8be35a8b09aa","system_id":"levelo_inurba_marseille","lat":43.318682,"lon":5.39986,"is_reserved":false,"is_disabled":false,"rental_uris":{"android":"levelo://app?vid=c8f97057-827a-4c4d-ae60-8be35a8b09aa","ios":"levelo://app?vid=c8f97057-827a-4c4d-ae60-8be35a8b09aa"},"vehicle_type_id":"4","last_reported":1768311235,"current_range_meters":4000,"station_id":"ce4bgih2rcd13ifvqba0","pricing_plan_id":"cebpf4jnsgd1na2vs0mg"},{"bike_id":"f004ee19-dac9-45ea-befd-074810e081a3","system_id":"levelo_inurba_marseille","lat":43.289474,"lon":5.378453,"is_reserved":false,"is_disabled":false,"rental_uris":{"android":"levelo://app?vid=f004ee19-dac9-45ea-befd-074810e081a3","ios":"levelo://app?vid=f004ee19-dac9-45ea-befd-074810e081a3"},"vehicle_type_id":"4","last_reported":1768311235,"current_range_meters":4000,"station_id":"ce4bh9p2rcd13ifvqec0","pricing_plan_id":"cebpf4jnsgd1na2vs0mg"},{"bike_id":"9f295e7a-65c6-4272-9043-5a3d89670383","system_id":"levelo_inurba_marseille","lat":43.248077,"lon":5.374576,"is_reserved":false,"is_disabled":false,"rental_uris":{"android":"levelo://app?vid=9f295e7a-65c6-4272-9043-5a3d89670383","ios":"levelo://app?vid=9f295e7a-65c6-4272-9043-5a3d89670383"},"vehicle_type_id":"4","last_reported":1768311235,"current_range_meters":4000,"station_id":"ce4bhgh2rcd13ifvqfb0","pricing_plan_id":"cebpf4jnsgd1na2vs0mg"},{"bike_id":"fc74934f-bed9-4e56-8f3d-2d18a9106550","system_id":"levelo_inurba_marseille","lat":43.240833,"lon":5.37753,"is_reserved":false,"is_disabled":false,"rental_uris":{"android":"levelo://app?vid=fc74934f-bed9-4e56-8f3d-2d18a9106550","ios":"levelo://app?vid=fc74934f-bed9-4e56-8f3d-2d18a9106550"},"vehicle_type_id":"4","last_reported":1768311235,"current_range_meters":4000,"station_id":"ce4bhnp2rcd13ifvqgvg","pricing_plan_id":"cebpf4jnsgd1na2vs0mg"},{"bike_id":"db182b38-fee4-46bf-93fb-ced6dd6ca22e","system_id":"levelo_inurba_marseille","lat":43.26928,"lon":5.38901,"is_reserved":false,"is_disabled":false,"rental_uris":{"android":"levelo://app?vid=db182b38-fee4-46bf-93fb-ced6dd6ca22e","ios":"levelo://app?vid=db182b38-fee4-46bf-93fb-ced6dd6ca22e"},"vehicle_type_id":"4","last_reported":1768311235,"current_range_meters":4000,"station_id":"ce4bhhh2rcd13ifvqfl0","pricing_plan_id":"cebpf4jnsgd1na2vs0mg"},{"bike_id":"e17a9c82-8846-45df-b367-7545f106e168","system_id":"levelo_inurba_marseille","lat":43.31329,"lon":5.38424,"is_reserved":false,"is_disabled":false,"rental_uris":{"android":"levelo://app?vid=e17a9c82-8846-45df-b367-7545f106e168","ios":"levelo://app?vid=e17a9c82-8846-45df-b367-7545f106e168"},"vehicle_type_id":"4","last_reported":1768311235,"current_range_meters":4400,"station_id":"","pricing_plan_id":"cebpf4jnsgd1na2vs0mg"},{"bike_id":"4e3d6d82-906c-4359-bb4c-5b997113e1ff","system_id":"levelo_inurba_marseille","lat":43.3054,"lon":5.36511,"is_reserved":false,"is_disabled":false,"rental_uris":{"android":"levelo://app?vid=4e3d6d82-906c-4359-bb4c-5b997113e1ff","ios":"levelo://app?vid=4e3d6d82-906c-4359-bb4c-5b997113e1ff"},"vehicle_type_id":"4","last_reported":1768311235,"current_range_meters":4400,"station_id":"ce4bgs12rcd13ifvqcag","pricing_plan_id":"cebpf4jnsgd1na2vs0mg"},{"bike_id":"d57094ce-7af8-428e-9753-4201f05f4a86","system_id":"levelo_inurba_marseille","lat":43.24813,"lon":5.374605,"is_reserved":false,"is_disabled":false,"rental_uris":{"android":"levelo://app?vid=d57094ce-7af8-428e-9753-4201f05f4a86","ios":"levelo://app?vid=d57094ce-7af8-428e-9753-4201f05f4a86"},"vehicle_type_id":"4","last_reported":1768311235,"current_range_meters":4400,"station_id":"ce4bhgh2rcd13ifvqfb0","pricing_plan_id":"cebpf4jnsgd1na2vs0mg"},{"bike_id":"f3260bf6-b6e1-4b69-a585-0ec627cbc07a","system_id":"levelo_inurba_marseille","lat":43.28975,"lon":5.37833,"is_reserved":false,"is_disabled":false,"rental_uris":{"android":"levelo://app?vid=f3260bf6-b6e1-4b69-a585-0ec627cbc07a","ios":"levelo://app?vid=f3260bf6-b6e1-4b69-a585-0ec627cbc07a"},"vehicle_type_id":"4","last_reported":1768311235,"current_range_meters":4400,"station_id":"ce4bh9p2rcd13ifvqed0","pricing_plan_id":"cebpf4jnsgd1na2vs0mg"},{"bike_id":"fd5c22af-551e-4b5c-a587-8bd6f93a7d5e","system_id":"levelo_inurba_marseille","lat":43.27945,"lon":5.41031,"is_reserved":false,"is_disabled":false,"rental_uris":{"android":"levelo://app?vid=fd5c22af-551e-4b5c-a587-8bd6f93a7d5e","ios":"levelo://app?vid=fd5c22af-551e-4b5c-a587-8bd6f93a7d5e"},"vehicle_type_id":"4","last_reported":1768311235,"current_range_meters":4400,"station_id":"","pricing_plan_id":"cebpf4jnsgd1na2vs0mg"},{"bike_id":"1bc4dd22-8b42-4ae1-b96e-ede97fc223cf","system_id":"levelo_inurba_marseille","lat":43.29898,"lon":5.37797,"is_reserved":false,"is_disabled":false,"rental_uris":{"android":"levelo://app?vid=1bc4dd22-8b42-4ae1-b96e-ede97fc223cf","ios":"levelo://app?vid=1bc4dd22-8b42-4ae1-b96e-ede97fc223cf"},"vehicle_type_id":"4","last_reported":1768311235,"current_range_meters":4400,"station_id":"","pricing_plan_id":"cebpf4jnsgd1na2vs0mg"},{"bike_id":"62a6a880-8c2f-4973-954e-dca5b666173d","system_id":"levelo_inurba_marseille","lat":43.29961,"lon":5.37353,"is_reserved":false,"is_disabled":false,"rental_uris":{"android":"levelo://app?vid=62a6a880-8c2f-4973-954e-dca5b666173d","ios":"levelo://app?vid=62a6a880-8c2f-4973-954e-dca5b666173d"},"vehicle_type_id":"4","last_reported":1768311235,"current_range_meters":4400,"station_id":"","pricing_plan_id":"cebpf4jnsgd1na2vs0mg"},{"bike_id":"f49b5bee-e2f5-416e-ae69-8940360ec155","system_id":"levelo_inurba_marseille","lat":43.3015,"lon":5.38077,"is_reserved":false,"is_disabled":false,"rental_uris":{"android":"levelo://app?vid=f49b5bee-e2f5-416e-ae69-8940360ec155","ios":"levelo://app?vid=f49b5bee-e2f5-416e-ae69-8940360ec155"},"vehicle_type_id":"4","last_reported":1768311235,"current_range_meters":4400,"station_id":"ce4bgjp2rcd13ifvqbh0","pricing_plan_id":"cebpf4jnsgd1na2vs0mg"},{"bike_id":"6545afba-279f-4bbb-9cca-8da25bea068c","system_id":"levelo_inurba_marseille","lat":43.29805,"lon":5.380901,"is_reserved":false,"is_disabled":false,"rental_uris":{"android":"levelo://app?vid=6545afba-279f-4bbb-9cca-8da25bea068c","ios":"levelo://app?vid=6545afba-279f-4bbb-9cca-8da25bea068c"},"vehicle_type_id":"4","last_reported":1768311235,"current_range_meters":4400,"station_id":"ce4bgip2rcd13ifvqbb0","pricing_plan_id":"cebpf4jnsgd1na2vs0mg"},{"bike_id":"f054574f-f7a6-495c-9faa-e164013165bc","system_id":"levelo_inurba_marseille","lat":43.262,"lon":5.37466,"is_reserved":false,"is_disabled":false,"rental_uris":{"android":"levelo://app?vid=f054574f-f7a6-495c-9faa-e164013165bc","ios":"levelo://app?vid=f054574f-f7a6-495c-9faa-e164013165bc"},"vehicle_type_id":"4","last_reported":1768311235,"current_range_meters":4400,"station_id":"ce4bhgp2rcd13ifvqfc0","pricing_plan_id":"cebpf4jnsgd1na2vs0mg"},{"bike_id":"dba3ea84-ee0d-4112-9480-aa105d1334d0","system_id":"levelo_inurba_marseille","lat":43.30794,"lon":5.38165,"is_reserved":false,"is_disabled":false,"rental_uris":{"android":"levelo://app?vid=dba3ea84-ee0d-4112-9480-aa105d1334d0","ios":"levelo://app?vid=dba3ea84-ee0d-4112-9480-aa105d1334d0"},"vehicle_type_id":"4","last_reported":1768311235,"current_range_meters":4400,"station_id":"ce4bgt12rcd13ifvqce0","pricing_plan_id":"cebpf4jnsgd1na2vs0mg"},{"bike_id":"1fab451c-a69a-44ca-b2c3-fe8939fd9580","system_id":"levelo_inurba_marseille","lat":43.31519,"lon":5.41401,"is_reserved":false,"is_disabled":false,"rental_uris":{"android":"levelo://app?vid=1fab451c-a69a-44ca-b2c3-fe8939fd9580","ios":"levelo://app?vid=1fab451c-a69a-44ca-b2c3-fe8939fd9580"},"vehicle_type_id":"4","last_reported":1768311235,"current_range_meters":4400,"station_id":"","pricing_plan_id":"cebpf4jnsgd1na2vs0mg"},{"bike_id":"43d3b9e7-83f7-459f-bc0d-be5aa703d3f4","system_id":"levelo_inurba_marseille","lat":43.29603,"lon":5.37715,"is_reserved":false,"is_disabled":false,"rental_uris":{"android":"levelo://app?vid=43d3b9e7-83f7-459f-bc0d-be5aa703d3f4","ios":"levelo://app?vid=43d3b9e7-83f7-459f-bc0d-be5aa703d3f4"},"vehicle_type_id":"4","last_reported":1768311235,"current_range_meters":4400,"station_id":"ce4bgi92rcd13ifvqb90","pricing_plan_id":"cebpf4jnsgd1na2vs0mg"},{"bike_id":"a27f6a61-689d-49de-951e-01c7ddaa0581","system_id":"levelo_inurba_marseille","lat":43.2417,"lon":5.36399,"is_reserved":false,"is_disabled":false,"rental_uris":{"android":"levelo://app?vid=a27f6a61-689d-49de-951e-01c7ddaa0581","ios":"levelo://app?vid=a27f6a61-689d-49de-951e-01c7ddaa0581"},"vehicle_type_id":"4","last_reported":1768311235,"current_range_meters":4800,"station_id":"cpo36qri1sfpv3e86is0","pricing_plan_id":"cebpf4jnsgd1na2vs0mg"},{"bike_id":"47fa8c07-02d3-44db-8c89-106a6ddb4f66","system_id":"levelo_inurba_marseille","lat":43.2954,"lon":5.3854,"is_reserved":false,"is_disabled":false,"rental_uris":{"android":"levelo://app?vid=47fa8c07-02d3-44db-8c89-106a6ddb4f66","ios":"levelo://app?vid=47fa8c07-02d3-44db-8c89-106a6ddb4f66"},"vehicle_type_id":"4","last_reported":1768311235,"current_range_meters":4800,"station_id":"ce4bgih2rcd13ifvqba0","pricing_plan_id":"cebpf4jnsgd1na2vs0mg"},{"bike_id":"56e2f5fb-8c94-4356-9657-fb849f723f51","system_id":"levelo_inurba_marseille","lat":43.29742,"lon":5.36632,"is_reserved":false,"is_disabled":false,"rental_uris":{"android":"levelo://app?vid=56e2f5fb-8c94-4356-9657-fb849f723f51","ios":"levelo://app?vid=56e2f5fb-8c94-4356-9657-fb849f723f51"},"vehicle_type_id":"4","last_reported":1768311235,"current_range_meters":4800,"station_id":"ce4bgn12rcd13ifvqbt0","pricing_plan_id":"cebpf4jnsgd1na2vs0mg"},{"bike_id":"c9aa61c2-bf79-4eea-867a-5fdf9f19baaf","system_id":"levelo_inurba_marseille","lat":43.25513,"lon":5.37655,"is_reserved":false,"is_disabled":false,"rental_uris":{"android":"levelo://app?vid=c9aa61c2-bf79-4eea-867a-5fdf9f19baaf","ios":"levelo://app?vid=c9aa61c2-bf79-4eea-867a-5fdf9f19baaf"},"vehicle_type_id":"4","last_reported":1768311235,"current_range_meters":4800,"station_id":"ce4bhh12rcd13ifvqff0","pricing_plan_id":"cebpf4jnsgd1na2vs0mg"},{"bike_id":"c5b0e4e4-c0dd-441f-992f-a632a50a9951","system_id":"levelo_inurba_marseille","lat":43.27624,"lon":5.36106,"is_reserved":false,"is_disabled":false,"rental_uris":{"android":"levelo://app?vid=c5b0e4e4-c0dd-441f-992f-a632a50a9951","ios":"levelo://app?vid=c5b0e4e4-c0dd-441f-992f-a632a50a9951"},"vehicle_type_id":"4","last_reported":1768311235,"current_range_meters":4800,"station_id":"ce4bgj92rcd13ifvqbe0","pricing_plan_id":"cebpf4jnsgd1na2vs0mg"},{"bike_id":"84951559-d076-4e70-a7a4-2e39152a2686","system_id":"levelo_inurba_marseille","lat":43.2841,"lon":5.35011,"is_reserved":false,"is_disabled":false,"rental_uris":{"android":"levelo://app?vid=84951559-d076-4e70-a7a4-2e39152a2686","ios":"levelo://app?vid=84951559-d076-4e70-a7a4-2e39152a2686"},"vehicle_type_id":"4","last_reported":1768311235,"current_range_meters":4800,"station_id":"ce4bhbh2rcd13ifvqepg","pricing_plan_id":"cebpf4jnsgd1na2vs0mg"},{"bike_id":"ba9aa4b5-9ae3-4347-ba16-0b79f803aee5","system_id":"levelo_inurba_marseille","lat":43.29851,"lon":5.40903,"is_reserved":false,"is_disabled":false,"rental_uris":{"android":"levelo://app?vid=ba9aa4b5-9ae3-4347-ba16-0b79f803aee5","ios":"levelo://app?vid=ba9aa4b5-9ae3-4347-ba16-0b79f803aee5"},"vehicle_type_id":"4","last_reported":1768311235,"current_range_meters":4800,"station_id":"","pricing_plan_id":"cebpf4jnsgd1na2vs0mg"},{"bike_id":"c4719649-1dbc-4c5a-b782-8fce65146957","system_id":"levelo_inurba_marseille","lat":43.28552,"lon":5.44078,"is_reserved":false,"is_disabled":false,"rental_uris":{"android":"levelo://app?vid=c4719649-1dbc-4c5a-b782-8fce65146957","ios":"levelo://app?vid=c4719649-1dbc-4c5a-b782-8fce65146957"},"vehicle_type_id":"4","last_reported":1768311235,"current_range_meters":4800,"station_id":"st_d3j3df2ikq2c7380ej80","pricing_plan_id":"cebpf4jnsgd1na2vs0mg"},{"bike_id":"9c6ac982-85bd-4de8-bac0-c36b3d884f3d","system_id":"levelo_inurba_marseille","lat":43.32129,"lon":5.36814,"is_reserved":false,"is_disabled":false,"rental_uris":{"android":"levelo://app?vid=9c6ac982-85bd-4de8-bac0-c36b3d884f3d","ios":"levelo://app?vid=9c6ac982-85bd-4de8-bac0-c36b3d884f3d"},"vehicle_type_id":"4","last_reported":1768311235,"current_range_meters":4800,"station_id":"ce4bhrh2rcd13ifvqhug","pricing_plan_id":"cebpf4jnsgd1na2vs0mg"},{"bike_id":"63b1856a-5e73-4949-8313-642a7aae66aa","system_id":"levelo_inurba_marseille","lat":43.229228,"lon":5.353789,"is_reserved":false,"is_disabled":false,"rental_uris":{"android":"levelo://app?vid=63b1856a-5e73-4949-8313-642a7aae66aa","ios":"levelo://app?vid=63b1856a-5e73-4949-8313-642a7aae66aa"},"vehicle_type_id":"4","last_reported":1768311235,"current_range_meters":4800,"station_id":"cpo3532slgdg3j2ikp40","pricing_plan_id":"cebpf4jnsgd1na2vs0mg"},{"bike_id":"f51dc72f-678e-4f06-a74d-58fc8553e175","system_id":"levelo_inurba_marseille","lat":43.26377,"lon":5.41084,"is_reserved":false,"is_disabled":false,"rental_uris":{"android":"levelo://app?vid=f51dc72f-678e-4f06-a74d-58fc8553e175","ios":"levelo://app?vid=f51dc72f-678e-4f06-a74d-58fc8553e175"},"vehicle_type_id":"4","last_reported":1768311235,"current_range_meters":4800,"station_id":"st_d4e5ca6na9uc73bfl5fg","pricing_plan_id":"cebpf4jnsgd1na2vs0mg"},{"bike_id":"1b1a670a-fcf4-4828-aa79-e1b72cfec18c","system_id":"levelo_inurba_marseille","lat":43.2319,"lon":5.35533,"is_reserved":false,"is_disabled":false,"rental_uris":{"android":"levelo://app?vid=1b1a670a-fcf4-4828-aa79-e1b72cfec18c","ios":"levelo://app?vid=1b1a670a-fcf4-4828-aa79-e1b72cfec18c"},"vehicle_type_id":"4","last_reported":1768311235,"current_range_meters":4800,"station_id":"ce4bhu92rcd13ifvqi70","pricing_plan_id":"cebpf4jnsgd1na2vs0mg"},{"bike_id":"4b7e622a-4d92-44a0-b6d5-24d6b5445f5c","system_id":"levelo_inurba_marseille","lat":43.3268,"lon":5.39557,"is_reserved":false,"is_disabled":false,"rental_uris":{"android":"levelo://app?vid=4b7e622a-4d92-44a0-b6d5-24d6b5445f5c","ios":"levelo://app?vid=4b7e622a-4d92-44a0-b6d5-24d6b5445f5c"},"vehicle_type_id":"4","last_reported":1768311235,"current_range_meters":4800,"station_id":"","pricing_plan_id":"cebpf4jnsgd1na2vs0mg"},{"bike_id":"13662eef-e481-4035-87f4-e29bc7b1f8a5","system_id":"levelo_inurba_marseille","lat":43.31062,"lon":5.38364,"is_reserved":false,"is_disabled":false,"rental_uris":{"android":"levelo://app?vid=13662eef-e481-4035-87f4-e29bc7b1f8a5","ios":"levelo://app?vid=13662eef-e481-4035-87f4-e29bc7b1f8a5"},"vehicle_type_id":"4","last_reported":1768311235,"current_range_meters":4800,"station_id":"ce4bgv92rcd13ifvqcr0","pricing_plan_id":"cebpf4jnsgd1na2vs0mg"},{"bike_id":"cdb7f885-d79c-4a7f-be8b-87d7e51ae524","system_id":"levelo_inurba_marseille","lat":43.30666,"lon":5.40514,"is_reserved":false,"is_disabled":false,"rental_uris":{"android":"levelo://app?vid=cdb7f885-d79c-4a7f-be8b-87d7e51ae524","ios":"levelo://app?vid=cdb7f885-d79c-4a7f-be8b-87d7e51ae524"},"vehicle_type_id":"4","last_reported":1768311235,"current_range_meters":4800,"station_id":"ce4bh112rcd13ifvqda0","pricing_plan_id":"cebpf4jnsgd1na2vs0mg"},{"bike_id":"f004cde4-4021-474c-a31a-7d2186825331","system_id":"levelo_inurba_marseille","lat":43.273754,"lon":5.3626,"is_reserved":false,"is_disabled":false,"rental_uris":{"android":"levelo://app?vid=f004cde4-4021-474c-a31a-7d2186825331","ios":"levelo://app?vid=f004cde4-4021-474c-a31a-7d2186825331"},"vehicle_type_id":"4","last_reported":1768311235,"current_range_meters":4800,"station_id":"","pricing_plan_id":"cebpf4jnsgd1na2vs0mg"},{"bike_id":"73995964-5fd9-40f3-be62-12151c415e47","system_id":"levelo_inurba_marseille","lat":43.24998,"lon":5.38937,"is_reserved":false,"is_disabled":false,"rental_uris":{"android":"levelo://app?vid=73995964-5fd9-40f3-be62-12151c415e47","ios":"levelo://app?vid=73995964-5fd9-40f3-be62-12151c415e47"},"vehicle_type_id":"4","last_reported":1768311235,"current_range_meters":5600,"station_id":"ce4bhgp2rcd13ifvqfd0","pricing_plan_id":"cebpf4jnsgd1na2vs0mg"},{"bike_id":"0fafc9bc-eab3-4497-b4de-e36867104d5a","system_id":"levelo_inurba_marseille","lat":43.260662,"lon":5.393966,"is_reserved":false,"is_disabled":false,"rental_uris":{"android":"levelo://app?vid=0fafc9bc-eab3-4497-b4de-e36867104d5a","ios":"levelo://app?vid=0fafc9bc-eab3-4497-b4de-e36867104d5a"},"vehicle_type_id":"4","last_reported":1768311235,"current_range_meters":5600,"station_id":"ce4bhh92rcd13ifvqfj0","pricing_plan_id":"cebpf4jnsgd1na2vs0mg"},{"bike_id":"c4fcc189-751d-4eb2-af69-d5ccf6bfb543","system_id":"levelo_inurba_marseille","lat":43.28479,"lon":5.48402,"is_reserved":false,"is_disabled":false,"rental_uris":{"android":"levelo://app?vid=c4fcc189-751d-4eb2-af69-d5ccf6bfb543","ios":"levelo://app?vid=c4fcc189-751d-4eb2-af69-d5ccf6bfb543"},"vehicle_type_id":"4","last_reported":1768311235,"current_range_meters":5600,"station_id":"","pricing_plan_id":"cebpf4jnsgd1na2vs0mg"},{"bike_id":"aa71df00-ac67-458a-bb07-9f22d4867495","system_id":"levelo_inurba_marseille","lat":43.243869,"lon":5.37073,"is_reserved":false,"is_disabled":false,"rental_uris":{"android":"levelo://app?vid=aa71df00-ac67-458a-bb07-9f22d4867495","ios":"levelo://app?vid=aa71df00-ac67-458a-bb07-9f22d4867495"},"vehicle_type_id":"4","last_reported":1768311235,"current_range_meters":5600,"station_id":"ce4bhhh2rcd13ifvqfk0","pricing_plan_id":"cebpf4jnsgd1na2vs0mg"},{"bike_id":"f177f7bc-1ed5-42e0-a608-82886412a4e4","system_id":"levelo_inurba_marseille","lat":43.23963,"lon":5.36623,"is_reserved":false,"is_disabled":false,"rental_uris":{"android":"levelo://app?vid=f177f7bc-1ed5-42e0-a608-82886412a4e4","ios":"levelo://app?vid=f177f7bc-1ed5-42e0-a608-82886412a4e4"},"vehicle_type_id":"4","last_reported":1768311235,"current_range_meters":5600,"station_id":"ce4bhi12rcd13ifvqfp0","pricing_plan_id":"cebpf4jnsgd1na2vs0mg"},{"bike_id":"16ea66e5-251a-444d-98e4-061b3f94ec8b","system_id":"levelo_inurba_marseille","lat":43.26679,"lon":5.38253,"is_reserved":false,"is_disabled":false,"rental_uris":{"android":"levelo://app?vid=16ea66e5-251a-444d-98e4-061b3f94ec8b","ios":"levelo://app?vid=16ea66e5-251a-444d-98e4-061b3f94ec8b"},"vehicle_type_id":"4","last_reported":1768311235,"current_range_meters":5600,"station_id":"ce4bhg92rcd13ifvqf90","pricing_plan_id":"cebpf4jnsgd1na2vs0mg"},{"bike_id":"e0390093-e93c-4352-a447-1922bd291a25","system_id":"levelo_inurba_marseille","lat":43.241593,"lon":5.364043,"is_reserved":false,"is_disabled":false,"rental_uris":{"android":"levelo://app?vid=e0390093-e93c-4352-a447-1922bd291a25","ios":"levelo://app?vid=e0390093-e93c-4352-a447-1922bd291a25"},"vehicle_type_id":"4","last_reported":1768311235,"current_range_meters":5600,"station_id":"cpo36qri1sfpv3e86is0","pricing_plan_id":"cebpf4jnsgd1na2vs0mg"},{"bike_id":"a8e78fea-0021-4289-ba11-696f08378aa4","system_id":"levelo_inurba_marseille","lat":43.31351,"lon":5.36738,"is_reserved":false,"is_disabled":false,"rental_uris":{"android":"levelo://app?vid=a8e78fea-0021-4289-ba11-696f08378aa4","ios":"levelo://app?vid=a8e78fea-0021-4289-ba11-696f08378aa4"},"vehicle_type_id":"4","last_reported":1768311235,"current_range_meters":5600,"station_id":"ce4bgr92rcd13ifvqc6g","pricing_plan_id":"cebpf4jnsgd1na2vs0mg"},{"bike_id":"fbaef028-ec74-4c9f-8bef-75df8753715b","system_id":"levelo_inurba_marseille","lat":43.28945,"lon":5.37042,"is_reserved":false,"is_disabled":false,"rental_uris":{"android":"levelo://app?vid=fbaef028-ec74-4c9f-8bef-75df8753715b","ios":"levelo://app?vid=fbaef028-ec74-4c9f-8bef-75df8753715b"},"vehicle_type_id":"4","last_reported":1768311235,"current_range_meters":5600,"station_id":"","pricing_plan_id":"cebpf4jnsgd1na2vs0mg"},{"bike_id":"e7f880b9-9ced-4dbf-8dbc-b70fe3a8fb49","system_id":"levelo_inurba_marseille","lat":43.32356,"lon":5.36731,"is_reserved":false,"is_disabled":false,"rental_uris":{"android":"levelo://app?vid=e7f880b9-9ced-4dbf-8dbc-b70fe3a8fb49","ios":"levelo://app?vid=e7f880b9-9ced-4dbf-8dbc-b70fe3a8fb49"},"vehicle_type_id":"4","last_reported":1768311235,"current_range_meters":5600,"station_id":"ce4bhsh2rcd13ifvqi2g","pricing_plan_id":"cebpf4jnsgd1na2vs0mg"},{"bike_id":"2cc9db73-43c9-4a56-a963-4c4c6878c41f","system_id":"levelo_inurba_marseille","lat":43.23842,"lon":5.36647,"is_reserved":false,"is_disabled":false,"rental_uris":{"android":"levelo://app?vid=2cc9db73-43c9-4a56-a963-4c4c6878c41f","ios":"levelo://app?vid=2cc9db73-43c9-4a56-a963-4c4c6878c41f"},"vehicle_type_id":"4","last_reported":1768311235,"current_range_meters":5600,"station_id":"","pricing_plan_id":"cebpf4jnsgd1na2vs0mg"},{"bike_id":"8b08bb50-6a89-4b43-8d1d-7b39db0febba","system_id":"levelo_inurba_marseille","lat":43.239665,"lon":5.366309,"is_reserved":false,"is_disabled":false,"rental_uris":{"android":"levelo://app?vid=8b08bb50-6a89-4b43-8d1d-7b39db0febba","ios":"levelo://app?vid=8b08bb50-6a89-4b43-8d1d-7b39db0febba"},"vehicle_type_id":"4","last_reported":1768311235,"current_range_meters":5600,"station_id":"ce4bhi12rcd13ifvqfp0","pricing_plan_id":"cebpf4jnsgd1na2vs0mg"},{"bike_id":"a5fdd8c3-d5e0-4c98-a5d1-c952389257b2","system_id":"levelo_inurba_marseille","lat":43.24619,"lon":5.43158,"is_reserved":false,"is_disabled":false,"rental_uris":{"android":"levelo://app?vid=a5fdd8c3-d5e0-4c98-a5d1-c952389257b2","ios":"levelo://app?vid=a5fdd8c3-d5e0-4c98-a5d1-c952389257b2"},"vehicle_type_id":"4","last_reported":1768311235,"current_range_meters":5600,"station_id":"st_d2m6c4gdas8pm72e190g","pricing_plan_id":"cebpf4jnsgd1na2vs0mg"},{"bike_id":"4a3b0477-d90c-4182-b557-af13efc5ae23","system_id":"levelo_inurba_marseille","lat":43.28373,"lon":5.38634,"is_reserved":false,"is_disabled":false,"rental_uris":{"android":"levelo://app?vid=4a3b0477-d90c-4182-b557-af13efc5ae23","ios":"levelo://app?vid=4a3b0477-d90c-4182-b557-af13efc5ae23"},"vehicle_type_id":"4","last_reported":1768311235,"current_range_meters":5600,"station_id":"ce4bh492rcd13ifvqdvg","pricing_plan_id":"cebpf4jnsgd1na2vs0mg"},{"bike_id":"b659a5a2-a6de-438e-b560-ec4a8dc93085","system_id":"levelo_inurba_marseille","lat":43.26219,"lon":5.40421,"is_reserved":false,"is_disabled":false,"rental_uris":{"android":"levelo://app?vid=b659a5a2-a6de-438e-b560-ec4a8dc93085","ios":"levelo://app?vid=b659a5a2-a6de-438e-b560-ec4a8dc93085"},"vehicle_type_id":"4","last_reported":1768311235,"current_range_meters":5600,"station_id":"ce4bhmh2rcd13ifvqgmg","pricing_plan_id":"cebpf4jnsgd1na2vs0mg"},{"bike_id":"695815da-b5ce-45a2-bc73-ba8aa9d651c6","system_id":"levelo_inurba_marseille","lat":43.24669,"lon":5.38147,"is_reserved":false,"is_disabled":false,"rental_uris":{"android":"levelo://app?vid=695815da-b5ce-45a2-bc73-ba8aa9d651c6","ios":"levelo://app?vid=695815da-b5ce-45a2-bc73-ba8aa9d651c6"},"vehicle_type_id":"4","last_reported":1768311235,"current_range_meters":5600,"station_id":"ce4bhih2rcd13ifvqfr0","pricing_plan_id":"cebpf4jnsgd1na2vs0mg"},{"bike_id":"0e7aa57a-77c1-40b0-a4eb-63a9b6c73c36","system_id":"levelo_inurba_marseille","lat":43.31421,"lon":5.36749,"is_reserved":false,"is_disabled":false,"rental_uris":{"android":"levelo://app?vid=0e7aa57a-77c1-40b0-a4eb-63a9b6c73c36","ios":"levelo://app?vid=0e7aa57a-77c1-40b0-a4eb-63a9b6c73c36"},"vehicle_type_id":"4","last_reported":1768311235,"current_range_meters":6000,"station_id":"ce4bgr92rcd13ifvqc6g","pricing_plan_id":"cebpf4jnsgd1na2vs0mg"},{"bike_id":"15b21ccb-bd0e-47c3-8259-e27d2855772d","system_id":"levelo_inurba_marseille","lat":43.24616,"lon":5.38403,"is_reserved":false,"is_disabled":false,"rental_uris":{"android":"levelo://app?vid=15b21ccb-bd0e-47c3-8259-e27d2855772d","ios":"levelo://app?vid=15b21ccb-bd0e-47c3-8259-e27d2855772d"},"vehicle_type_id":"4","last_reported":1768311235,"current_range_meters":6000,"station_id":"","pricing_plan_id":"cebpf4jnsgd1na2vs0mg"},{"bike_id":"130dad21-3d53-4048-8b02-dd5b70e1e0a2","system_id":"levelo_inurba_marseille","lat":43.29072,"lon":5.39984,"is_reserved":false,"is_disabled":false,"rental_uris":{"android":"levelo://app?vid=130dad21-3d53-4048-8b02-dd5b70e1e0a2","ios":"levelo://app?vid=130dad21-3d53-4048-8b02-dd5b70e1e0a2"},"vehicle_type_id":"4","last_reported":1768311235,"current_range_meters":6000,"station_id":"ce4bh392rcd13ifvqdm0","pricing_plan_id":"cebpf4jnsgd1na2vs0mg"},{"bike_id":"b72b93cb-6c8e-4cf4-ac55-2a683c755517","system_id":"levelo_inurba_marseille","lat":43.29289,"lon":5.36855,"is_reserved":false,"is_disabled":false,"rental_uris":{"android":"levelo://app?vid=b72b93cb-6c8e-4cf4-ac55-2a683c755517","ios":"levelo://app?vid=b72b93cb-6c8e-4cf4-ac55-2a683c755517"},"vehicle_type_id":"4","last_reported":1768311235,"current_range_meters":6000,"station_id":"ce4bhbp2rcd13ifvqesg","pricing_plan_id":"cebpf4jnsgd1na2vs0mg"},{"bike_id":"7b7c4d5a-48b0-4253-8d68-ce9bdb9244be","system_id":"levelo_inurba_marseille","lat":43.26562,"lon":5.3725,"is_reserved":false,"is_disabled":false,"rental_uris":{"android":"levelo://app?vid=7b7c4d5a-48b0-4253-8d68-ce9bdb9244be","ios":"levelo://app?vid=7b7c4d5a-48b0-4253-8d68-ce9bdb9244be"},"vehicle_type_id":"4","last_reported":1768311235,"current_range_meters":6000,"station_id":"ce4bhg12rcd13ifvqf70","pricing_plan_id":"cebpf4jnsgd1na2vs0mg"},{"bike_id":"889365ac-dd9e-4bc8-95c4-120ab5729ad1","system_id":"levelo_inurba_marseille","lat":43.25581,"lon":5.38248,"is_reserved":false,"is_disabled":false,"rental_uris":{"android":"levelo://app?vid=889365ac-dd9e-4bc8-95c4-120ab5729ad1","ios":"levelo://app?vid=889365ac-dd9e-4bc8-95c4-120ab5729ad1"},"vehicle_type_id":"4","last_reported":1768311235,"current_range_meters":6000,"station_id":"ce4bhih2rcd13ifvqfs0","pricing_plan_id":"cebpf4jnsgd1na2vs0mg"},{"bike_id":"312681fa-4d84-401f-8387-2d987d0df7e0","system_id":"levelo_inurba_marseille","lat":43.323529,"lon":5.367405,"is_reserved":false,"is_disabled":false,"rental_uris":{"android":"levelo://app?vid=312681fa-4d84-401f-8387-2d987d0df7e0","ios":"levelo://app?vid=312681fa-4d84-401f-8387-2d987d0df7e0"},"vehicle_type_id":"4","last_reported":1768311235,"current_range_meters":6000,"station_id":"ce4bhsh2rcd13ifvqi2g","pricing_plan_id":"cebpf4jnsgd1na2vs0mg"},{"bike_id":"c982d76b-7fd6-451c-9063-ebda7a233a9e","system_id":"levelo_inurba_marseille","lat":43.27021,"lon":5.40361,"is_reserved":false,"is_disabled":false,"rental_uris":{"android":"levelo://app?vid=c982d76b-7fd6-451c-9063-ebda7a233a9e","ios":"levelo://app?vid=c982d76b-7fd6-451c-9063-ebda7a233a9e"},"vehicle_type_id":"4","last_reported":1768311235,"current_range_meters":6000,"station_id":"","pricing_plan_id":"cebpf4jnsgd1na2vs0mg"},{"bike_id":"d3cdfa33-4e30-4b19-bd72-22c74d7cf36c","system_id":"levelo_inurba_marseille","lat":43.25504,"lon":5.37633,"is_reserved":false,"is_disabled":false,"rental_uris":{"android":"levelo://app?vid=d3cdfa33-4e30-4b19-bd72-22c74d7cf36c","ios":"levelo://app?vid=d3cdfa33-4e30-4b19-bd72-22c74d7cf36c"},"vehicle_type_id":"4","last_reported":1768311235,"current_range_meters":6000,"station_id":"ce4bhh12rcd13ifvqff0","pricing_plan_id":"cebpf4jnsgd1na2vs0mg"},{"bike_id":"98381cda-b3a9-4a41-913e-3012641b7216","system_id":"levelo_inurba_marseille","lat":43.29831,"lon":5.37655,"is_reserved":false,"is_disabled":false,"rental_uris":{"android":"levelo://app?vid=98381cda-b3a9-4a41-913e-3012641b7216","ios":"levelo://app?vid=98381cda-b3a9-4a41-913e-3012641b7216"},"vehicle_type_id":"4","last_reported":1768311235,"current_range_meters":6000,"station_id":"","pricing_plan_id":"cebpf4jnsgd1na2vs0mg"},{"bike_id":"b60c8777-50a1-4187-b012-61c8b2392d61","system_id":"levelo_inurba_marseille","lat":43.24166,"lon":5.36402,"is_reserved":false,"is_disabled":false,"rental_uris":{"android":"levelo://app?vid=b60c8777-50a1-4187-b012-61c8b2392d61","ios":"levelo://app?vid=b60c8777-50a1-4187-b012-61c8b2392d61"},"vehicle_type_id":"4","last_reported":1768311235,"current_range_meters":6000,"station_id":"cpo36qri1sfpv3e86is0","pricing_plan_id":"cebpf4jnsgd1na2vs0mg"},{"bike_id":"73159171-0e70-4889-87e6-07eac0d40625","system_id":"levelo_inurba_marseille","lat":43.22566,"lon":5.41621,"is_reserved":false,"is_disabled":false,"rental_uris":{"android":"levelo://app?vid=73159171-0e70-4889-87e6-07eac0d40625","ios":"levelo://app?vid=73159171-0e70-4889-87e6-07eac0d40625"},"vehicle_type_id":"4","last_reported":1768311235,"current_range_meters":6000,"station_id":"st_d2o4gvlbi1j2169b742g","pricing_plan_id":"cebpf4jnsgd1na2vs0mg"},{"bike_id":"397ab187-fc7e-4b08-94c8-d7a1cbd7c07b","system_id":"levelo_inurba_marseille","lat":43.29326,"lon":5.37499,"is_reserved":false,"is_disabled":false,"rental_uris":{"android":"levelo://app?vid=397ab187-fc7e-4b08-94c8-d7a1cbd7c07b","ios":"levelo://app?vid=397ab187-fc7e-4b08-94c8-d7a1cbd7c07b"},"vehicle_type_id":"4","last_reported":1768311235,"current_range_meters":6400,"station_id":"ce4bgi12rcd13ifvqb70","pricing_plan_id":"cebpf4jnsgd1na2vs0mg"},{"bike_id":"af0b862d-1b21-408c-b115-209a492a88a8","system_id":"levelo_inurba_marseille","lat":43.32355,"lon":5.36756,"is_reserved":false,"is_disabled":false,"rental_uris":{"android":"levelo://app?vid=af0b862d-1b21-408c-b115-209a492a88a8","ios":"levelo://app?vid=af0b862d-1b21-408c-b115-209a492a88a8"},"vehicle_type_id":"4","last_reported":1768311235,"current_range_meters":6400,"station_id":"ce4bhsh2rcd13ifvqi2g","pricing_plan_id":"cebpf4jnsgd1na2vs0mg"},{"bike_id":"3131342a-e8d7-4b61-a752-64517a314409","system_id":"levelo_inurba_marseille","lat":43.24104,"lon":5.37756,"is_reserved":false,"is_disabled":false,"rental_uris":{"android":"levelo://app?vid=3131342a-e8d7-4b61-a752-64517a314409","ios":"levelo://app?vid=3131342a-e8d7-4b61-a752-64517a314409"},"vehicle_type_id":"4","last_reported":1768311235,"current_range_meters":6400,"station_id":"ce4bhnp2rcd13ifvqgvg","pricing_plan_id":"cebpf4jnsgd1na2vs0mg"},{"bike_id":"50df1513-8882-4403-8f50-7facfcd0de34","system_id":"levelo_inurba_marseille","lat":43.24165,"lon":5.36409,"is_reserved":false,"is_disabled":false,"rental_uris":{"android":"levelo://app?vid=50df1513-8882-4403-8f50-7facfcd0de34","ios":"levelo://app?vid=50df1513-8882-4403-8f50-7facfcd0de34"},"vehicle_type_id":"4","last_reported":1768311235,"current_range_meters":6400,"station_id":"cpo36qri1sfpv3e86is0","pricing_plan_id":"cebpf4jnsgd1na2vs0mg"},{"bike_id":"776bdba4-3761-419b-be7d-03785f338691","system_id":"levelo_inurba_marseille","lat":43.28862,"lon":5.39316,"is_reserved":false,"is_disabled":false,"rental_uris":{"android":"levelo://app?vid=776bdba4-3761-419b-be7d-03785f338691","ios":"levelo://app?vid=776bdba4-3761-419b-be7d-03785f338691"},"vehicle_type_id":"4","last_reported":1768311235,"current_range_meters":6400,"station_id":"ce4bh2p2rcd13ifvqdi0","pricing_plan_id":"cebpf4jnsgd1na2vs0mg"},{"bike_id":"4fcf8939-d9e5-44a3-8f16-b04dcd32071a","system_id":"levelo_inurba_marseille","lat":43.24163,"lon":5.36406,"is_reserved":false,"is_disabled":false,"rental_uris":{"android":"levelo://app?vid=4fcf8939-d9e5-44a3-8f16-b04dcd32071a","ios":"levelo://app?vid=4fcf8939-d9e5-44a3-8f16-b04dcd32071a"},"vehicle_type_id":"4","last_reported":1768311235,"current_range_meters":6400,"station_id":"cpo36qri1sfpv3e86is0","pricing_plan_id":"cebpf4jnsgd1na2vs0mg"},{"bike_id":"ce421665-3c26-4baa-b8ec-61eb8aef5e07","system_id":"levelo_inurba_marseille","lat":43.28033,"lon":5.40781,"is_reserved":false,"is_disabled":false,"rental_uris":{"android":"levelo://app?vid=ce421665-3c26-4baa-b8ec-61eb8aef5e07","ios":"levelo://app?vid=ce421665-3c26-4baa-b8ec-61eb8aef5e07"},"vehicle_type_id":"4","last_reported":1768311235,"current_range_meters":6400,"station_id":"","pricing_plan_id":"cebpf4jnsgd1na2vs0mg"},{"bike_id":"a83e853f-4b6a-4d34-9968-a57f5523d6f3","system_id":"levelo_inurba_marseille","lat":43.25759,"lon":5.394315,"is_reserved":false,"is_disabled":false,"rental_uris":{"android":"levelo://app?vid=a83e853f-4b6a-4d34-9968-a57f5523d6f3","ios":"levelo://app?vid=a83e853f-4b6a-4d34-9968-a57f5523d6f3"},"vehicle_type_id":"4","last_reported":1768311235,"current_range_meters":6400,"station_id":"ce4bhip2rcd13ifvqft0","pricing_plan_id":"cebpf4jnsgd1na2vs0mg"},{"bike_id":"b3940cd9-99e9-416d-932b-b96244c66170","system_id":"levelo_inurba_marseille","lat":43.31291,"lon":5.36733,"is_reserved":false,"is_disabled":false,"rental_uris":{"android":"levelo://app?vid=b3940cd9-99e9-416d-932b-b96244c66170","ios":"levelo://app?vid=b3940cd9-99e9-416d-932b-b96244c66170"},"vehicle_type_id":"4","last_reported":1768311235,"current_range_meters":6400,"station_id":"","pricing_plan_id":"cebpf4jnsgd1na2vs0mg"},{"bike_id":"d21624bd-c474-47d2-a770-cf5d5a2cb126","system_id":"levelo_inurba_marseille","lat":43.24471,"lon":5.42543,"is_reserved":false,"is_disabled":false,"rental_uris":{"android":"levelo://app?vid=d21624bd-c474-47d2-a770-cf5d5a2cb126","ios":"levelo://app?vid=d21624bd-c474-47d2-a770-cf5d5a2cb126"},"vehicle_type_id":"4","last_reported":1768311235,"current_range_meters":6400,"station_id":"st_d4a3vfp97mjs738cd8kg","pricing_plan_id":"cebpf4jnsgd1na2vs0mg"},{"bike_id":"1dba3e81-740c-4446-a739-c7a379d3755e","system_id":"levelo_inurba_marseille","lat":43.3054,"lon":5.36538,"is_reserved":false,"is_disabled":false,"rental_uris":{"android":"levelo://app?vid=1dba3e81-740c-4446-a739-c7a379d3755e","ios":"levelo://app?vid=1dba3e81-740c-4446-a739-c7a379d3755e"},"vehicle_type_id":"4","last_reported":1768311235,"current_range_meters":6400,"station_id":"ce4bgs12rcd13ifvqcag","pricing_plan_id":"cebpf4jnsgd1na2vs0mg"},{"bike_id":"b088ad58-7f41-4ab8-80da-21ba2cb9e467","system_id":"levelo_inurba_marseille","lat":43.2255,"lon":5.41627,"is_reserved":false,"is_disabled":false,"rental_uris":{"android":"levelo://app?vid=b088ad58-7f41-4ab8-80da-21ba2cb9e467","ios":"levelo://app?vid=b088ad58-7f41-4ab8-80da-21ba2cb9e467"},"vehicle_type_id":"4","last_reported":1768311235,"current_range_meters":6400,"station_id":"st_d2o4gvlbi1j2169b742g","pricing_plan_id":"cebpf4jnsgd1na2vs0mg"},{"bike_id":"595f8829-62a4-4a13-ad26-5528ec3934d4","system_id":"levelo_inurba_marseille","lat":43.29833,"lon":5.38133,"is_reserved":false,"is_disabled":false,"rental_uris":{"android":"levelo://app?vid=595f8829-62a4-4a13-ad26-5528ec3934d4","ios":"levelo://app?vid=595f8829-62a4-4a13-ad26-5528ec3934d4"},"vehicle_type_id":"4","last_reported":1768311235,"current_range_meters":6400,"station_id":"ce4bgip2rcd13ifvqbb0","pricing_plan_id":"cebpf4jnsgd1na2vs0mg"},{"bike_id":"e5b92296-b086-419a-a871-19aeb3f2fd08","system_id":"levelo_inurba_marseille","lat":43.30232,"lon":5.37353,"is_reserved":false,"is_disabled":false,"rental_uris":{"android":"levelo://app?vid=e5b92296-b086-419a-a871-19aeb3f2fd08","ios":"levelo://app?vid=e5b92296-b086-419a-a871-19aeb3f2fd08"},"vehicle_type_id":"4","last_reported":1768311235,"current_range_meters":6400,"station_id":"","pricing_plan_id":"cebpf4jnsgd1na2vs0mg"},{"bike_id":"f72a0330-2774-442c-a3bd-2da9f092a731","system_id":"levelo_inurba_marseille","lat":43.32366,"lon":5.36768,"is_reserved":false,"is_disabled":false,"rental_uris":{"android":"levelo://app?vid=f72a0330-2774-442c-a3bd-2da9f092a731","ios":"levelo://app?vid=f72a0330-2774-442c-a3bd-2da9f092a731"},"vehicle_type_id":"4","last_reported":1768311235,"current_range_meters":6400,"station_id":"ce4bhsh2rcd13ifvqi2g","pricing_plan_id":"cebpf4jnsgd1na2vs0mg"},{"bike_id":"7d765bc6-1e34-4bae-a937-9fc18e24d829","system_id":"levelo_inurba_marseille","lat":43.269401,"lon":5.402554,"is_reserved":false,"is_disabled":false,"rental_uris":{"android":"levelo://app?vid=7d765bc6-1e34-4bae-a937-9fc18e24d829","ios":"levelo://app?vid=7d765bc6-1e34-4bae-a937-9fc18e24d829"},"vehicle_type_id":"4","last_reported":1768311235,"current_range_meters":6400,"station_id":"cjm6bp8fraef2m0cb0m0","pricing_plan_id":"cebpf4jnsgd1na2vs0mg"},{"bike_id":"1a6bbecc-4c05-4ed6-a5b2-e1153d8d8eec","system_id":"levelo_inurba_marseille","lat":43.29679,"lon":5.37299,"is_reserved":false,"is_disabled":false,"rental_uris":{"android":"levelo://app?vid=1a6bbecc-4c05-4ed6-a5b2-e1153d8d8eec","ios":"levelo://app?vid=1a6bbecc-4c05-4ed6-a5b2-e1153d8d8eec"},"vehicle_type_id":"4","last_reported":1768311235,"current_range_meters":6800,"station_id":"ce4bgk12rcd13ifvqbj0","pricing_plan_id":"cebpf4jnsgd1na2vs0mg"},{"bike_id":"b563b9ee-f431-483e-9b3a-89ae67e2e8da","system_id":"levelo_inurba_marseille","lat":43.26228,"lon":5.37929,"is_reserved":false,"is_disabled":true,"rental_uris":{"android":"levelo://app?vid=b563b9ee-f431-483e-9b3a-89ae67e2e8da","ios":"levelo://app?vid=b563b9ee-f431-483e-9b3a-89ae67e2e8da"},"vehicle_type_id":"4","last_reported":1768311235,"current_range_meters":6800,"station_id":"ce4bhjp2rcd13ifvqg90","pricing_plan_id":"cebpf4jnsgd1na2vs0mg"},{"bike_id":"6846db8e-90fb-4e30-93fa-8789900d77b9","system_id":"levelo_inurba_marseille","lat":43.25911,"lon":5.40881,"is_reserved":false,"is_disabled":false,"rental_uris":{"android":"levelo://app?vid=6846db8e-90fb-4e30-93fa-8789900d77b9","ios":"levelo://app?vid=6846db8e-90fb-4e30-93fa-8789900d77b9"},"vehicle_type_id":"4","last_reported":1768311235,"current_range_meters":6800,"station_id":"ce4bhm92rcd13ifvqglg","pricing_plan_id":"cebpf4jnsgd1na2vs0mg"},{"bike_id":"d06fb8ff-b65e-46fe-ba3f-114fbfe14af3","system_id":"levelo_inurba_marseille","lat":43.26694,"lon":5.39943,"is_reserved":false,"is_disabled":false,"rental_uris":{"android":"levelo://app?vid=d06fb8ff-b65e-46fe-ba3f-114fbfe14af3","ios":"levelo://app?vid=d06fb8ff-b65e-46fe-ba3f-114fbfe14af3"},"vehicle_type_id":"4","last_reported":1768311235,"current_range_meters":6800,"station_id":"","pricing_plan_id":"cebpf4jnsgd1na2vs0mg"},{"bike_id":"7d0e7a7d-96db-49d8-a2e7-61cbdc2de6d0","system_id":"levelo_inurba_marseille","lat":43.30567,"lon":5.36528,"is_reserved":false,"is_disabled":false,"rental_uris":{"android":"levelo://app?vid=7d0e7a7d-96db-49d8-a2e7-61cbdc2de6d0","ios":"levelo://app?vid=7d0e7a7d-96db-49d8-a2e7-61cbdc2de6d0"},"vehicle_type_id":"4","last_reported":1768311235,"current_range_meters":6800,"station_id":"ce4bgs12rcd13ifvqcag","pricing_plan_id":"cebpf4jnsgd1na2vs0mg"},{"bike_id":"f7d36b9d-bf7c-43f6-b8d1-8e54d4f4e01e","system_id":"levelo_inurba_marseille","lat":43.315151,"lon":5.380328,"is_reserved":false,"is_disabled":false,"rental_uris":{"android":"levelo://app?vid=f7d36b9d-bf7c-43f6-b8d1-8e54d4f4e01e","ios":"levelo://app?vid=f7d36b9d-bf7c-43f6-b8d1-8e54d4f4e01e"},"vehicle_type_id":"4","last_reported":1768311235,"current_range_meters":6800,"station_id":"ce4bghh2rcd13ifvqb60","pricing_plan_id":"cebpf4jnsgd1na2vs0mg"},{"bike_id":"dbca4029-d08e-4725-b682-eaca4b614f30","system_id":"levelo_inurba_marseille","lat":43.32339,"lon":5.36717,"is_reserved":false,"is_disabled":false,"rental_uris":{"android":"levelo://app?vid=dbca4029-d08e-4725-b682-eaca4b614f30","ios":"levelo://app?vid=dbca4029-d08e-4725-b682-eaca4b614f30"},"vehicle_type_id":"4","last_reported":1768311235,"current_range_meters":6800,"station_id":"ce4bhsh2rcd13ifvqi2g","pricing_plan_id":"cebpf4jnsgd1na2vs0mg"},{"bike_id":"72ba4c8c-7e12-408c-a0ed-7cc605d4463c","system_id":"levelo_inurba_marseille","lat":43.25339,"lon":5.42167,"is_reserved":false,"is_disabled":false,"rental_uris":{"android":"levelo://app?vid=72ba4c8c-7e12-408c-a0ed-7cc605d4463c","ios":"levelo://app?vid=72ba4c8c-7e12-408c-a0ed-7cc605d4463c"},"vehicle_type_id":"4","last_reported":1768311235,"current_range_meters":6800,"station_id":"st_d2m65c5bi1j21697t3ng","pricing_plan_id":"cebpf4jnsgd1na2vs0mg"},{"bike_id":"73220d44-cfc8-4a61-ad7c-e12bb2c20f84","system_id":"levelo_inurba_marseille","lat":43.32455,"lon":5.36551,"is_reserved":false,"is_disabled":false,"rental_uris":{"android":"levelo://app?vid=73220d44-cfc8-4a61-ad7c-e12bb2c20f84","ios":"levelo://app?vid=73220d44-cfc8-4a61-ad7c-e12bb2c20f84"},"vehicle_type_id":"4","last_reported":1768311235,"current_range_meters":6800,"station_id":"ce4bhs12rcd13ifvqhvg","pricing_plan_id":"cebpf4jnsgd1na2vs0mg"},{"bike_id":"bffb78f7-b742-4fba-aefa-35e3dafb5f8e","system_id":"levelo_inurba_marseille","lat":43.28024,"lon":5.394145,"is_reserved":false,"is_disabled":false,"rental_uris":{"android":"levelo://app?vid=bffb78f7-b742-4fba-aefa-35e3dafb5f8e","ios":"levelo://app?vid=bffb78f7-b742-4fba-aefa-35e3dafb5f8e"},"vehicle_type_id":"4","last_reported":1768311235,"current_range_meters":6800,"station_id":"ce4bhjp2rcd13ifvqga0","pricing_plan_id":"cebpf4jnsgd1na2vs0mg"},{"bike_id":"4cb30b4e-064c-40c7-a5c1-9289f43630e1","system_id":"levelo_inurba_marseille","lat":43.27677,"lon":5.38915,"is_reserved":false,"is_disabled":false,"rental_uris":{"android":"levelo://app?vid=4cb30b4e-064c-40c7-a5c1-9289f43630e1","ios":"levelo://app?vid=4cb30b4e-064c-40c7-a5c1-9289f43630e1"},"vehicle_type_id":"4","last_reported":1768311235,"current_range_meters":6800,"station_id":"ce4bhi12rcd13ifvqfo0","pricing_plan_id":"cebpf4jnsgd1na2vs0mg"},{"bike_id":"e7077856-9009-4ce4-8ea1-5cdd0a9f0d4d","system_id":"levelo_inurba_marseille","lat":43.27619,"lon":5.36095,"is_reserved":false,"is_disabled":false,"rental_uris":{"android":"levelo://app?vid=e7077856-9009-4ce4-8ea1-5cdd0a9f0d4d","ios":"levelo://app?vid=e7077856-9009-4ce4-8ea1-5cdd0a9f0d4d"},"vehicle_type_id":"4","last_reported":1768311235,"current_range_meters":6800,"station_id":"ce4bgj92rcd13ifvqbe0","pricing_plan_id":"cebpf4jnsgd1na2vs0mg"},{"bike_id":"253bfd9e-7e5c-4e43-a236-079ba855b451","system_id":"levelo_inurba_marseille","lat":43.23152,"lon":5.43699,"is_reserved":false,"is_disabled":false,"rental_uris":{"android":"levelo://app?vid=253bfd9e-7e5c-4e43-a236-079ba855b451","ios":"levelo://app?vid=253bfd9e-7e5c-4e43-a236-079ba855b451"},"vehicle_type_id":"4","last_reported":1768311235,"current_range_meters":6800,"station_id":"ce4bhmp2rcd13ifvqgog","pricing_plan_id":"cebpf4jnsgd1na2vs0mg"},{"bike_id":"b65e3a30-6633-4daa-ab02-cef4aa5a078d","system_id":"levelo_inurba_marseille","lat":43.30312,"lon":5.3689,"is_reserved":false,"is_disabled":false,"rental_uris":{"android":"levelo://app?vid=b65e3a30-6633-4daa-ab02-cef4aa5a078d","ios":"levelo://app?vid=b65e3a30-6633-4daa-ab02-cef4aa5a078d"},"vehicle_type_id":"4","last_reported":1768311235,"current_range_meters":6800,"station_id":"ce4bgqh2rcd13ifvqc5g","pricing_plan_id":"cebpf4jnsgd1na2vs0mg"},{"bike_id":"28388a32-f584-4a6e-a4b4-ab94abec33ff","system_id":"levelo_inurba_marseille","lat":43.27496,"lon":5.42461,"is_reserved":false,"is_disabled":false,"rental_uris":{"android":"levelo://app?vid=28388a32-f584-4a6e-a4b4-ab94abec33ff","ios":"levelo://app?vid=28388a32-f584-4a6e-a4b4-ab94abec33ff"},"vehicle_type_id":"4","last_reported":1768311235,"current_range_meters":6800,"station_id":"ce4bhn92rcd13ifvqgrg","pricing_plan_id":"cebpf4jnsgd1na2vs0mg"},{"bike_id":"40a5f518-4ec1-4f9c-ada8-7bc0d6856aa5","system_id":"levelo_inurba_marseille","lat":43.241691,"lon":5.36396,"is_reserved":false,"is_disabled":false,"rental_uris":{"android":"levelo://app?vid=40a5f518-4ec1-4f9c-ada8-7bc0d6856aa5","ios":"levelo://app?vid=40a5f518-4ec1-4f9c-ada8-7bc0d6856aa5"},"vehicle_type_id":"4","last_reported":1768311235,"current_range_meters":6800,"station_id":"cpo36qri1sfpv3e86is0","pricing_plan_id":"cebpf4jnsgd1na2vs0mg"},{"bike_id":"c0dc06c7-cce6-4b09-a523-d9388899fc7f","system_id":"levelo_inurba_marseille","lat":43.2557,"lon":5.38228,"is_reserved":false,"is_disabled":false,"rental_uris":{"android":"levelo://app?vid=c0dc06c7-cce6-4b09-a523-d9388899fc7f","ios":"levelo://app?vid=c0dc06c7-cce6-4b09-a523-d9388899fc7f"},"vehicle_type_id":"4","last_reported":1768311235,"current_range_meters":6800,"station_id":"ce4bhih2rcd13ifvqfs0","pricing_plan_id":"cebpf4jnsgd1na2vs0mg"},{"bike_id":"571284aa-339b-4ff7-b3ba-aff03f624836","system_id":"levelo_inurba_marseille","lat":43.29262,"lon":5.37628,"is_reserved":false,"is_disabled":false,"rental_uris":{"android":"levelo://app?vid=571284aa-339b-4ff7-b3ba-aff03f624836","ios":"levelo://app?vid=571284aa-339b-4ff7-b3ba-aff03f624836"},"vehicle_type_id":"4","last_reported":1768311235,"current_range_meters":6800,"station_id":"ce4bgi12rcd13ifvqb80","pricing_plan_id":"cebpf4jnsgd1na2vs0mg"},{"bike_id":"725558b1-3a15-4f38-8c18-ee0a96f9ef90","system_id":"levelo_inurba_marseille","lat":43.31221,"lon":5.38168,"is_reserved":false,"is_disabled":false,"rental_uris":{"android":"levelo://app?vid=725558b1-3a15-4f38-8c18-ee0a96f9ef90","ios":"levelo://app?vid=725558b1-3a15-4f38-8c18-ee0a96f9ef90"},"vehicle_type_id":"4","last_reported":1768311235,"current_range_meters":6800,"station_id":"","pricing_plan_id":"cebpf4jnsgd1na2vs0mg"},{"bike_id":"573219be-8449-4b0b-914b-5825e3035243","system_id":"levelo_inurba_marseille","lat":43.231963,"lon":5.355576,"is_reserved":false,"is_disabled":false,"rental_uris":{"android":"levelo://app?vid=573219be-8449-4b0b-914b-5825e3035243","ios":"levelo://app?vid=573219be-8449-4b0b-914b-5825e3035243"},"vehicle_type_id":"4","last_reported":1768311235,"current_range_meters":6800,"station_id":"ce4bhu92rcd13ifvqi70","pricing_plan_id":"cebpf4jnsgd1na2vs0mg"},{"bike_id":"f5dde059-ee19-48d0-980a-d08505591369","system_id":"levelo_inurba_marseille","lat":43.28034,"lon":5.36951,"is_reserved":false,"is_disabled":false,"rental_uris":{"android":"levelo://app?vid=f5dde059-ee19-48d0-980a-d08505591369","ios":"levelo://app?vid=f5dde059-ee19-48d0-980a-d08505591369"},"vehicle_type_id":"4","last_reported":1768311235,"current_range_meters":6800,"station_id":"ce4bha12rcd13ifvqef0","pricing_plan_id":"cebpf4jnsgd1na2vs0mg"},{"bike_id":"6ad2ac5d-0d69-4ff0-8680-3b5339e0db0c","system_id":"levelo_inurba_marseille","lat":43.2667,"lon":5.38286,"is_reserved":false,"is_disabled":false,"rental_uris":{"android":"levelo://app?vid=6ad2ac5d-0d69-4ff0-8680-3b5339e0db0c","ios":"levelo://app?vid=6ad2ac5d-0d69-4ff0-8680-3b5339e0db0c"},"vehicle_type_id":"4","last_reported":1768311235,"current_range_meters":7200,"station_id":"ce4bhg92rcd13ifvqf90","pricing_plan_id":"cebpf4jnsgd1na2vs0mg"},{"bike_id":"1068c03d-6af9-4e70-83a5-0ae8df79c951","system_id":"levelo_inurba_marseille","lat":43.265558,"lon":5.372827,"is_reserved":false,"is_disabled":false,"rental_uris":{"android":"levelo://app?vid=1068c03d-6af9-4e70-83a5-0ae8df79c951","ios":"levelo://app?vid=1068c03d-6af9-4e70-83a5-0ae8df79c951"},"vehicle_type_id":"4","last_reported":1768311235,"current_range_meters":7200,"station_id":"ce4bhg12rcd13ifvqf70","pricing_plan_id":"cebpf4jnsgd1na2vs0mg"},{"bike_id":"c7b78d8c-afdc-4315-bd30-67f555082a14","system_id":"levelo_inurba_marseille","lat":43.28501,"lon":5.38566,"is_reserved":false,"is_disabled":false,"rental_uris":{"android":"levelo://app?vid=c7b78d8c-afdc-4315-bd30-67f555082a14","ios":"levelo://app?vid=c7b78d8c-afdc-4315-bd30-67f555082a14"},"vehicle_type_id":"4","last_reported":1768311235,"current_range_meters":7200,"station_id":"ce4bh8p2rcd13ifvqeb0","pricing_plan_id":"cebpf4jnsgd1na2vs0mg"},{"bike_id":"0af2e9a9-67f2-424c-9c61-d5f1c2c48c7b","system_id":"levelo_inurba_marseille","lat":43.25928,"lon":5.40901,"is_reserved":false,"is_disabled":false,"rental_uris":{"android":"levelo://app?vid=0af2e9a9-67f2-424c-9c61-d5f1c2c48c7b","ios":"levelo://app?vid=0af2e9a9-67f2-424c-9c61-d5f1c2c48c7b"},"vehicle_type_id":"4","last_reported":1768311235,"current_range_meters":7200,"station_id":"ce4bhm92rcd13ifvqglg","pricing_plan_id":"cebpf4jnsgd1na2vs0mg"},{"bike_id":"ec3166a5-ef8b-4787-8617-84123a7e0e0d","system_id":"levelo_inurba_marseille","lat":43.23176,"lon":5.39995,"is_reserved":false,"is_disabled":false,"rental_uris":{"android":"levelo://app?vid=ec3166a5-ef8b-4787-8617-84123a7e0e0d","ios":"levelo://app?vid=ec3166a5-ef8b-4787-8617-84123a7e0e0d"},"vehicle_type_id":"4","last_reported":1768311235,"current_range_meters":7200,"station_id":"ce4bhn12rcd13ifvqgqg","pricing_plan_id":"cebpf4jnsgd1na2vs0mg"},{"bike_id":"8125e88c-461b-4905-b86d-3923932af4fb","system_id":"levelo_inurba_marseille","lat":43.27991,"lon":5.40025,"is_reserved":false,"is_disabled":false,"rental_uris":{"android":"levelo://app?vid=8125e88c-461b-4905-b86d-3923932af4fb","ios":"levelo://app?vid=8125e88c-461b-4905-b86d-3923932af4fb"},"vehicle_type_id":"4","last_reported":1768311235,"current_range_meters":7200,"station_id":"ce4bho92rcd13ifvqh4g","pricing_plan_id":"cebpf4jnsgd1na2vs0mg"},{"bike_id":"dc2113b1-2f8d-4c2f-ab99-e0406a41f773","system_id":"levelo_inurba_marseille","lat":43.24808,"lon":5.37455,"is_reserved":false,"is_disabled":false,"rental_uris":{"android":"levelo://app?vid=dc2113b1-2f8d-4c2f-ab99-e0406a41f773","ios":"levelo://app?vid=dc2113b1-2f8d-4c2f-ab99-e0406a41f773"},"vehicle_type_id":"4","last_reported":1768311235,"current_range_meters":7200,"station_id":"ce4bhgh2rcd13ifvqfb0","pricing_plan_id":"cebpf4jnsgd1na2vs0mg"},{"bike_id":"b2dce88c-db5a-428a-8463-1e85e5fdb211","system_id":"levelo_inurba_marseille","lat":43.29004,"lon":5.35592,"is_reserved":false,"is_disabled":false,"rental_uris":{"android":"levelo://app?vid=b2dce88c-db5a-428a-8463-1e85e5fdb211","ios":"levelo://app?vid=b2dce88c-db5a-428a-8463-1e85e5fdb211"},"vehicle_type_id":"4","last_reported":1768311235,"current_range_meters":7200,"station_id":"ce4bhb92rcd13ifvqen0","pricing_plan_id":"cebpf4jnsgd1na2vs0mg"},{"bike_id":"40c6fab1-fc17-4c7a-8060-24756a12055b","system_id":"levelo_inurba_marseille","lat":43.31358,"lon":5.36731,"is_reserved":false,"is_disabled":false,"rental_uris":{"android":"levelo://app?vid=40c6fab1-fc17-4c7a-8060-24756a12055b","ios":"levelo://app?vid=40c6fab1-fc17-4c7a-8060-24756a12055b"},"vehicle_type_id":"4","last_reported":1768311235,"current_range_meters":7200,"station_id":"ce4bgr92rcd13ifvqc6g","pricing_plan_id":"cebpf4jnsgd1na2vs0mg"},{"bike_id":"88de65bc-f1ab-4009-9187-4c5979b992e7","system_id":"levelo_inurba_marseille","lat":43.28991,"lon":5.39044,"is_reserved":false,"is_disabled":false,"rental_uris":{"android":"levelo://app?vid=88de65bc-f1ab-4009-9187-4c5979b992e7","ios":"levelo://app?vid=88de65bc-f1ab-4009-9187-4c5979b992e7"},"vehicle_type_id":"4","last_reported":1768311235,"current_range_meters":7200,"station_id":"","pricing_plan_id":"cebpf4jnsgd1na2vs0mg"},{"bike_id":"e4e80814-ae14-41f0-9b96-4c5947e9470b","system_id":"levelo_inurba_marseille","lat":43.24405,"lon":5.37069,"is_reserved":false,"is_disabled":false,"rental_uris":{"android":"levelo://app?vid=e4e80814-ae14-41f0-9b96-4c5947e9470b","ios":"levelo://app?vid=e4e80814-ae14-41f0-9b96-4c5947e9470b"},"vehicle_type_id":"4","last_reported":1768311235,"current_range_meters":7200,"station_id":"ce4bhhh2rcd13ifvqfk0","pricing_plan_id":"cebpf4jnsgd1na2vs0mg"},{"bike_id":"cb7933d8-d861-42e2-9166-370355de4b93","system_id":"levelo_inurba_marseille","lat":43.25747,"lon":5.41081,"is_reserved":false,"is_disabled":false,"rental_uris":{"android":"levelo://app?vid=cb7933d8-d861-42e2-9166-370355de4b93","ios":"levelo://app?vid=cb7933d8-d861-42e2-9166-370355de4b93"},"vehicle_type_id":"4","last_reported":1768311235,"current_range_meters":7200,"station_id":"ce4bhkp2rcd13ifvqgd0","pricing_plan_id":"cebpf4jnsgd1na2vs0mg"},{"bike_id":"e171e7e2-3bd5-4df8-ba94-8c663077fc99","system_id":"levelo_inurba_marseille","lat":43.325229,"lon":5.368778,"is_reserved":false,"is_disabled":false,"rental_uris":{"android":"levelo://app?vid=e171e7e2-3bd5-4df8-ba94-8c663077fc99","ios":"levelo://app?vid=e171e7e2-3bd5-4df8-ba94-8c663077fc99"},"vehicle_type_id":"4","last_reported":1768311235,"current_range_meters":7200,"station_id":"","pricing_plan_id":"cebpf4jnsgd1na2vs0mg"},{"bike_id":"28ca0282-9e08-44e7-a420-cbadd2ae594a","system_id":"levelo_inurba_marseille","lat":43.32617,"lon":5.36182,"is_reserved":false,"is_disabled":false,"rental_uris":{"android":"levelo://app?vid=28ca0282-9e08-44e7-a420-cbadd2ae594a","ios":"levelo://app?vid=28ca0282-9e08-44e7-a420-cbadd2ae594a"},"vehicle_type_id":"4","last_reported":1768311235,"current_range_meters":7200,"station_id":"","pricing_plan_id":"cebpf4jnsgd1na2vs0mg"},{"bike_id":"2921a8b2-62fb-48f5-b4c2-edc6f49f6f7f","system_id":"levelo_inurba_marseille","lat":43.261897,"lon":5.374497,"is_reserved":false,"is_disabled":false,"rental_uris":{"android":"levelo://app?vid=2921a8b2-62fb-48f5-b4c2-edc6f49f6f7f","ios":"levelo://app?vid=2921a8b2-62fb-48f5-b4c2-edc6f49f6f7f"},"vehicle_type_id":"4","last_reported":1768311235,"current_range_meters":7200,"station_id":"ce4bhgp2rcd13ifvqfc0","pricing_plan_id":"cebpf4jnsgd1na2vs0mg"},{"bike_id":"b99a9135-a609-4f31-8229-5031d5c53d46","system_id":"levelo_inurba_marseille","lat":43.297623,"lon":5.42783,"is_reserved":false,"is_disabled":false,"rental_uris":{"android":"levelo://app?vid=b99a9135-a609-4f31-8229-5031d5c53d46","ios":"levelo://app?vid=b99a9135-a609-4f31-8229-5031d5c53d46"},"vehicle_type_id":"4","last_reported":1768311235,"current_range_meters":8000,"station_id":"st_d3md5207bmas73dh9klg","pricing_plan_id":"cebpf4jnsgd1na2vs0mg"},{"bike_id":"459ceeec-6531-408e-af1d-7d8585dacaef","system_id":"levelo_inurba_marseille","lat":43.25523,"lon":5.3766,"is_reserved":false,"is_disabled":false,"rental_uris":{"android":"levelo://app?vid=459ceeec-6531-408e-af1d-7d8585dacaef","ios":"levelo://app?vid=459ceeec-6531-408e-af1d-7d8585dacaef"},"vehicle_type_id":"4","last_reported":1768311235,"current_range_meters":8000,"station_id":"ce4bhh12rcd13ifvqff0","pricing_plan_id":"cebpf4jnsgd1na2vs0mg"},{"bike_id":"b0095239-c820-40e6-89d3-03d2f7cec2e4","system_id":"levelo_inurba_marseille","lat":43.28907,"lon":5.36622,"is_reserved":false,"is_disabled":false,"rental_uris":{"android":"levelo://app?vid=b0095239-c820-40e6-89d3-03d2f7cec2e4","ios":"levelo://app?vid=b0095239-c820-40e6-89d3-03d2f7cec2e4"},"vehicle_type_id":"4","last_reported":1768311235,"current_range_meters":8000,"station_id":"ce4bhap2rcd13ifvqek0","pricing_plan_id":"cebpf4jnsgd1na2vs0mg"},{"bike_id":"64e147a8-1bbb-419c-b69b-662d9db7e72a","system_id":"levelo_inurba_marseille","lat":43.25885,"lon":5.39923,"is_reserved":false,"is_disabled":true,"rental_uris":{"android":"levelo://app?vid=64e147a8-1bbb-419c-b69b-662d9db7e72a","ios":"levelo://app?vid=64e147a8-1bbb-419c-b69b-662d9db7e72a"},"vehicle_type_id":"4","last_reported":1768311235,"current_range_meters":8000,"station_id":"ce4bhl92rcd13ifvqghg","pricing_plan_id":"cebpf4jnsgd1na2vs0mg"},{"bike_id":"dc2e72fe-caf4-4d2f-991e-42441efcbc35","system_id":"levelo_inurba_marseille","lat":43.24471,"lon":5.42544,"is_reserved":false,"is_disabled":false,"rental_uris":{"android":"levelo://app?vid=dc2e72fe-caf4-4d2f-991e-42441efcbc35","ios":"levelo://app?vid=dc2e72fe-caf4-4d2f-991e-42441efcbc35"},"vehicle_type_id":"4","last_reported":1768311235,"current_range_meters":8000,"station_id":"st_d4a3vfp97mjs738cd8kg","pricing_plan_id":"cebpf4jnsgd1na2vs0mg"},{"bike_id":"83029d34-3b86-4276-93d0-001e8e0b129e","system_id":"levelo_inurba_marseille","lat":43.28988,"lon":5.37544,"is_reserved":false,"is_disabled":false,"rental_uris":{"android":"levelo://app?vid=83029d34-3b86-4276-93d0-001e8e0b129e","ios":"levelo://app?vid=83029d34-3b86-4276-93d0-001e8e0b129e"},"vehicle_type_id":"4","last_reported":1768311235,"current_range_meters":8000,"station_id":"","pricing_plan_id":"cebpf4jnsgd1na2vs0mg"},{"bike_id":"f11786fe-49f2-4e0b-ba3e-36e01d90a23e","system_id":"levelo_inurba_marseille","lat":43.295294,"lon":5.385488,"is_reserved":false,"is_disabled":false,"rental_uris":{"android":"levelo://app?vid=f11786fe-49f2-4e0b-ba3e-36e01d90a23e","ios":"levelo://app?vid=f11786fe-49f2-4e0b-ba3e-36e01d90a23e"},"vehicle_type_id":"4","last_reported":1768311235,"current_range_meters":8000,"station_id":"ce4bgih2rcd13ifvqba0","pricing_plan_id":"cebpf4jnsgd1na2vs0mg"},{"bike_id":"4dfe9ca0-aabd-4a4a-b9fc-bf27934c9ca2","system_id":"levelo_inurba_marseille","lat":43.31041,"lon":5.37168,"is_reserved":false,"is_disabled":false,"rental_uris":{"android":"levelo://app?vid=4dfe9ca0-aabd-4a4a-b9fc-bf27934c9ca2","ios":"levelo://app?vid=4dfe9ca0-aabd-4a4a-b9fc-bf27934c9ca2"},"vehicle_type_id":"4","last_reported":1768311235,"current_range_meters":8000,"station_id":"st_d4kl2rp97mjs73e7tdfg","pricing_plan_id":"cebpf4jnsgd1na2vs0mg"},{"bike_id":"8b6f14a9-4b2d-4346-8f9f-8765e86f93c5","system_id":"levelo_inurba_marseille","lat":43.30548,"lon":5.38429,"is_reserved":false,"is_disabled":false,"rental_uris":{"android":"levelo://app?vid=8b6f14a9-4b2d-4346-8f9f-8765e86f93c5","ios":"levelo://app?vid=8b6f14a9-4b2d-4346-8f9f-8765e86f93c5"},"vehicle_type_id":"4","last_reported":1768311235,"current_range_meters":8000,"station_id":"ce4bgg92rcd13ifvqb30","pricing_plan_id":"cebpf4jnsgd1na2vs0mg"},{"bike_id":"d53c37d0-76d2-4df3-965d-7d19a6e2a5ff","system_id":"levelo_inurba_marseille","lat":43.29273,"lon":5.36849,"is_reserved":false,"is_disabled":false,"rental_uris":{"android":"levelo://app?vid=d53c37d0-76d2-4df3-965d-7d19a6e2a5ff","ios":"levelo://app?vid=d53c37d0-76d2-4df3-965d-7d19a6e2a5ff"},"vehicle_type_id":"4","last_reported":1768311235,"current_range_meters":8000,"station_id":"","pricing_plan_id":"cebpf4jnsgd1na2vs0mg"},{"bike_id":"1a410dc3-ec66-418e-b61d-e6ababbd00ea","system_id":"levelo_inurba_marseille","lat":43.25511,"lon":5.37667,"is_reserved":false,"is_disabled":false,"rental_uris":{"android":"levelo://app?vid=1a410dc3-ec66-418e-b61d-e6ababbd00ea","ios":"levelo://app?vid=1a410dc3-ec66-418e-b61d-e6ababbd00ea"},"vehicle_type_id":"4","last_reported":1768311235,"current_range_meters":8000,"station_id":"ce4bhh12rcd13ifvqff0","pricing_plan_id":"cebpf4jnsgd1na2vs0mg"},{"bike_id":"f5b50dfe-3b71-4c5e-9103-196dde2e66e3","system_id":"levelo_inurba_marseille","lat":43.31414,"lon":5.36751,"is_reserved":false,"is_disabled":false,"rental_uris":{"android":"levelo://app?vid=f5b50dfe-3b71-4c5e-9103-196dde2e66e3","ios":"levelo://app?vid=f5b50dfe-3b71-4c5e-9103-196dde2e66e3"},"vehicle_type_id":"4","last_reported":1768311235,"current_range_meters":8000,"station_id":"","pricing_plan_id":"cebpf4jnsgd1na2vs0mg"},{"bike_id":"53c7dd1f-4abe-4453-a53a-19f6a40f62e8","system_id":"levelo_inurba_marseille","lat":43.28609,"lon":5.39895,"is_reserved":false,"is_disabled":false,"rental_uris":{"android":"levelo://app?vid=53c7dd1f-4abe-4453-a53a-19f6a40f62e8","ios":"levelo://app?vid=53c7dd1f-4abe-4453-a53a-19f6a40f62e8"},"vehicle_type_id":"4","last_reported":1768311235,"current_range_meters":8000,"station_id":"st_d4a7ka997mjs738ck50g","pricing_plan_id":"cebpf4jnsgd1na2vs0mg"},{"bike_id":"04a5f40a-18e6-4e68-aa9d-28adcc3c8c49","system_id":"levelo_inurba_marseille","lat":43.231506,"lon":5.437128,"is_reserved":false,"is_disabled":false,"rental_uris":{"android":"levelo://app?vid=04a5f40a-18e6-4e68-aa9d-28adcc3c8c49","ios":"levelo://app?vid=04a5f40a-18e6-4e68-aa9d-28adcc3c8c49"},"vehicle_type_id":"4","last_reported":1768311235,"current_range_meters":8000,"station_id":"ce4bhmp2rcd13ifvqgog","pricing_plan_id":"cebpf4jnsgd1na2vs0mg"},{"bike_id":"35ec3b8e-e652-4929-aab7-9563a05529be","system_id":"levelo_inurba_marseille","lat":43.30155,"lon":5.37407,"is_reserved":false,"is_disabled":false,"rental_uris":{"android":"levelo://app?vid=35ec3b8e-e652-4929-aab7-9563a05529be","ios":"levelo://app?vid=35ec3b8e-e652-4929-aab7-9563a05529be"},"vehicle_type_id":"4","last_reported":1768311235,"current_range_meters":8000,"station_id":"ce4bgs92rcd13ifvqcc0","pricing_plan_id":"cebpf4jnsgd1na2vs0mg"},{"bike_id":"4e7caf59-c9ef-4187-8d4e-454378bfca5a","system_id":"levelo_inurba_marseille","lat":43.29902,"lon":5.43664,"is_reserved":false,"is_disabled":false,"rental_uris":{"android":"levelo://app?vid=4e7caf59-c9ef-4187-8d4e-454378bfca5a","ios":"levelo://app?vid=4e7caf59-c9ef-4187-8d4e-454378bfca5a"},"vehicle_type_id":"4","last_reported":1768311235,"current_range_meters":8000,"station_id":"ce4bhpp2rcd13ifvqhfg","pricing_plan_id":"cebpf4jnsgd1na2vs0mg"},{"bike_id":"a701274b-baae-4465-83b6-97b2b3f97e3e","system_id":"levelo_inurba_marseille","lat":43.2848,"lon":5.4839,"is_reserved":false,"is_disabled":false,"rental_uris":{"android":"levelo://app?vid=a701274b-baae-4465-83b6-97b2b3f97e3e","ios":"levelo://app?vid=a701274b-baae-4465-83b6-97b2b3f97e3e"},"vehicle_type_id":"4","last_reported":1768311235,"current_range_meters":8000,"station_id":"","pricing_plan_id":"cebpf4jnsgd1na2vs0mg"},{"bike_id":"8283c47e-859a-4bce-893c-13739ded4e31","system_id":"levelo_inurba_marseille","lat":43.27968,"lon":5.41037,"is_reserved":false,"is_disabled":false,"rental_uris":{"android":"levelo://app?vid=8283c47e-859a-4bce-893c-13739ded4e31","ios":"levelo://app?vid=8283c47e-859a-4bce-893c-13739ded4e31"},"vehicle_type_id":"4","last_reported":1768311235,"current_range_meters":8000,"station_id":"ce4bhnp2rcd13ifvqh0g","pricing_plan_id":"cebpf4jnsgd1na2vs0mg"},{"bike_id":"4decab12-4aea-443b-993f-b32cadac6871","system_id":"levelo_inurba_marseille","lat":43.23969,"lon":5.36622,"is_reserved":false,"is_disabled":false,"rental_uris":{"android":"levelo://app?vid=4decab12-4aea-443b-993f-b32cadac6871","ios":"levelo://app?vid=4decab12-4aea-443b-993f-b32cadac6871"},"vehicle_type_id":"4","last_reported":1768311235,"current_range_meters":8000,"station_id":"ce4bhi12rcd13ifvqfp0","pricing_plan_id":"cebpf4jnsgd1na2vs0mg"},{"bike_id":"8dd1de03-db4d-4ee0-a83c-49af5a854fab","system_id":"levelo_inurba_marseille","lat":43.28824,"lon":5.42633,"is_reserved":false,"is_disabled":false,"rental_uris":{"android":"levelo://app?vid=8dd1de03-db4d-4ee0-a83c-49af5a854fab","ios":"levelo://app?vid=8dd1de03-db4d-4ee0-a83c-49af5a854fab"},"vehicle_type_id":"4","last_reported":1768311235,"current_range_meters":8000,"station_id":"","pricing_plan_id":"cebpf4jnsgd1na2vs0mg"},{"bike_id":"108f5d03-c905-459c-be79-104fc27dad8d","system_id":"levelo_inurba_marseille","lat":43.29792,"lon":5.38118,"is_reserved":false,"is_disabled":false,"rental_uris":{"android":"levelo://app?vid=108f5d03-c905-459c-be79-104fc27dad8d","ios":"levelo://app?vid=108f5d03-c905-459c-be79-104fc27dad8d"},"vehicle_type_id":"4","last_reported":1768311235,"current_range_meters":8000,"station_id":"ce4bgip2rcd13ifvqbb0","pricing_plan_id":"cebpf4jnsgd1na2vs0mg"},{"bike_id":"22e07c03-7cc2-4f12-9e49-6993b190163f","system_id":"levelo_inurba_marseille","lat":43.299,"lon":5.39672,"is_reserved":false,"is_disabled":false,"rental_uris":{"android":"levelo://app?vid=22e07c03-7cc2-4f12-9e49-6993b190163f","ios":"levelo://app?vid=22e07c03-7cc2-4f12-9e49-6993b190163f"},"vehicle_type_id":"4","last_reported":1768311235,"current_range_meters":8000,"station_id":"","pricing_plan_id":"cebpf4jnsgd1na2vs0mg"},{"bike_id":"d837fa6c-222e-496d-8553-222c58e024bd","system_id":"levelo_inurba_marseille","lat":43.22932,"lon":5.35384,"is_reserved":false,"is_disabled":false,"rental_uris":{"android":"levelo://app?vid=d837fa6c-222e-496d-8553-222c58e024bd","ios":"levelo://app?vid=d837fa6c-222e-496d-8553-222c58e024bd"},"vehicle_type_id":"4","last_reported":1768311235,"current_range_meters":8000,"station_id":"cpo3532slgdg3j2ikp40","pricing_plan_id":"cebpf4jnsgd1na2vs0mg"},{"bike_id":"f5edf181-ba13-4720-a750-b48045bc1ee3","system_id":"levelo_inurba_marseille","lat":43.25935,"lon":5.40899,"is_reserved":false,"is_disabled":false,"rental_uris":{"android":"levelo://app?vid=f5edf181-ba13-4720-a750-b48045bc1ee3","ios":"levelo://app?vid=f5edf181-ba13-4720-a750-b48045bc1ee3"},"vehicle_type_id":"4","last_reported":1768311235,"current_range_meters":8000,"station_id":"ce4bhm92rcd13ifvqglg","pricing_plan_id":"cebpf4jnsgd1na2vs0mg"},{"bike_id":"a1c0de8e-df3d-4943-80ce-f2503cdac0a0","system_id":"levelo_inurba_marseille","lat":43.31348,"lon":5.36726,"is_reserved":false,"is_disabled":false,"rental_uris":{"android":"levelo://app?vid=a1c0de8e-df3d-4943-80ce-f2503cdac0a0","ios":"levelo://app?vid=a1c0de8e-df3d-4943-80ce-f2503cdac0a0"},"vehicle_type_id":"4","last_reported":1768311235,"current_range_meters":8000,"station_id":"ce4bgr92rcd13ifvqc6g","pricing_plan_id":"cebpf4jnsgd1na2vs0mg"},{"bike_id":"a3f7f0a2-84e8-4600-ac6a-a70fb12b7c90","system_id":"levelo_inurba_marseille","lat":43.24387,"lon":5.37049,"is_reserved":false,"is_disabled":false,"rental_uris":{"android":"levelo://app?vid=a3f7f0a2-84e8-4600-ac6a-a70fb12b7c90","ios":"levelo://app?vid=a3f7f0a2-84e8-4600-ac6a-a70fb12b7c90"},"vehicle_type_id":"4","last_reported":1768311235,"current_range_meters":8400,"station_id":"ce4bhhh2rcd13ifvqfk0","pricing_plan_id":"cebpf4jnsgd1na2vs0mg"},{"bike_id":"eaa12c7d-9ceb-4fcf-8441-5efb65234d28","system_id":"levelo_inurba_marseille","lat":43.2479,"lon":5.37462,"is_reserved":false,"is_disabled":false,"rental_uris":{"android":"levelo://app?vid=eaa12c7d-9ceb-4fcf-8441-5efb65234d28","ios":"levelo://app?vid=eaa12c7d-9ceb-4fcf-8441-5efb65234d28"},"vehicle_type_id":"4","last_reported":1768311235,"current_range_meters":8400,"station_id":"ce4bhgh2rcd13ifvqfb0","pricing_plan_id":"cebpf4jnsgd1na2vs0mg"},{"bike_id":"5b027b49-ddf4-41e2-96f1-1cc8b60b6d10","system_id":"levelo_inurba_marseille","lat":43.22534,"lon":5.34836,"is_reserved":false,"is_disabled":false,"rental_uris":{"android":"levelo://app?vid=5b027b49-ddf4-41e2-96f1-1cc8b60b6d10","ios":"levelo://app?vid=5b027b49-ddf4-41e2-96f1-1cc8b60b6d10"},"vehicle_type_id":"4","last_reported":1768311235,"current_range_meters":8400,"station_id":"st_cvj5dfep6f1abm77gieg","pricing_plan_id":"cebpf4jnsgd1na2vs0mg"},{"bike_id":"99475782-9f22-4001-a2ed-de835e3c7087","system_id":"levelo_inurba_marseille","lat":43.29279,"lon":5.40928,"is_reserved":false,"is_disabled":true,"rental_uris":{"android":"levelo://app?vid=99475782-9f22-4001-a2ed-de835e3c7087","ios":"levelo://app?vid=99475782-9f22-4001-a2ed-de835e3c7087"},"vehicle_type_id":"4","last_reported":1768311235,"current_range_meters":8400,"station_id":"ce4bh192rcd13ifvqdc0","pricing_plan_id":"cebpf4jnsgd1na2vs0mg"},{"bike_id":"6f4a55ac-099c-48d9-b272-a990abfd52a1","system_id":"levelo_inurba_marseille","lat":43.26561,"lon":5.37293,"is_reserved":false,"is_disabled":false,"rental_uris":{"android":"levelo://app?vid=6f4a55ac-099c-48d9-b272-a990abfd52a1","ios":"levelo://app?vid=6f4a55ac-099c-48d9-b272-a990abfd52a1"},"vehicle_type_id":"4","last_reported":1768311235,"current_range_meters":8400,"station_id":"ce4bhg12rcd13ifvqf70","pricing_plan_id":"cebpf4jnsgd1na2vs0mg"},{"bike_id":"1871e0c7-ef88-44e9-99e1-0df673e67e2d","system_id":"levelo_inurba_marseille","lat":43.24399,"lon":5.3707,"is_reserved":false,"is_disabled":false,"rental_uris":{"android":"levelo://app?vid=1871e0c7-ef88-44e9-99e1-0df673e67e2d","ios":"levelo://app?vid=1871e0c7-ef88-44e9-99e1-0df673e67e2d"},"vehicle_type_id":"4","last_reported":1768311235,"current_range_meters":8400,"station_id":"ce4bhhh2rcd13ifvqfk0","pricing_plan_id":"cebpf4jnsgd1na2vs0mg"},{"bike_id":"a17cc6ee-d889-4b4c-b8b9-758246faa400","system_id":"levelo_inurba_marseille","lat":43.28533,"lon":5.44129,"is_reserved":false,"is_disabled":false,"rental_uris":{"android":"levelo://app?vid=a17cc6ee-d889-4b4c-b8b9-758246faa400","ios":"levelo://app?vid=a17cc6ee-d889-4b4c-b8b9-758246faa400"},"vehicle_type_id":"4","last_reported":1768311235,"current_range_meters":8400,"station_id":"st_d3j3df2ikq2c7380ej80","pricing_plan_id":"cebpf4jnsgd1na2vs0mg"},{"bike_id":"0b9fb0e1-958e-4d37-8a77-cfcb3dd5be0a","system_id":"levelo_inurba_marseille","lat":43.2378,"lon":5.36615,"is_reserved":false,"is_disabled":false,"rental_uris":{"android":"levelo://app?vid=0b9fb0e1-958e-4d37-8a77-cfcb3dd5be0a","ios":"levelo://app?vid=0b9fb0e1-958e-4d37-8a77-cfcb3dd5be0a"},"vehicle_type_id":"4","last_reported":1768311235,"current_range_meters":8400,"station_id":"st_d3nk18o9ro0c73en2l3g","pricing_plan_id":"cebpf4jnsgd1na2vs0mg"},{"bike_id":"25377a8a-f8c0-42a5-8439-f16217ba2e63","system_id":"levelo_inurba_marseille","lat":43.3289,"lon":5.39175,"is_reserved":false,"is_disabled":false,"rental_uris":{"android":"levelo://app?vid=25377a8a-f8c0-42a5-8439-f16217ba2e63","ios":"levelo://app?vid=25377a8a-f8c0-42a5-8439-f16217ba2e63"},"vehicle_type_id":"4","last_reported":1768311235,"current_range_meters":8400,"station_id":"","pricing_plan_id":"cebpf4jnsgd1na2vs0mg"},{"bike_id":"3881337f-ef7f-4b7c-be0b-974709680e52","system_id":"levelo_inurba_marseille","lat":43.30261,"lon":5.3691,"is_reserved":false,"is_disabled":false,"rental_uris":{"android":"levelo://app?vid=3881337f-ef7f-4b7c-be0b-974709680e52","ios":"levelo://app?vid=3881337f-ef7f-4b7c-be0b-974709680e52"},"vehicle_type_id":"4","last_reported":1768311235,"current_range_meters":8800,"station_id":"ce4bgqh2rcd13ifvqc5g","pricing_plan_id":"cebpf4jnsgd1na2vs0mg"},{"bike_id":"0e5df7ef-4f3f-4918-aa70-7dd918ba921c","system_id":"levelo_inurba_marseille","lat":43.323522,"lon":5.367365,"is_reserved":false,"is_disabled":false,"rental_uris":{"android":"levelo://app?vid=0e5df7ef-4f3f-4918-aa70-7dd918ba921c","ios":"levelo://app?vid=0e5df7ef-4f3f-4918-aa70-7dd918ba921c"},"vehicle_type_id":"4","last_reported":1768311235,"current_range_meters":8800,"station_id":"ce4bhsh2rcd13ifvqi2g","pricing_plan_id":"cebpf4jnsgd1na2vs0mg"},{"bike_id":"87237d20-145e-49ff-83c9-3e0a80130e54","system_id":"levelo_inurba_marseille","lat":43.285238,"lon":5.440966,"is_reserved":false,"is_disabled":false,"rental_uris":{"android":"levelo://app?vid=87237d20-145e-49ff-83c9-3e0a80130e54","ios":"levelo://app?vid=87237d20-145e-49ff-83c9-3e0a80130e54"},"vehicle_type_id":"4","last_reported":1768311235,"current_range_meters":8800,"station_id":"st_d3j3df2ikq2c7380ej80","pricing_plan_id":"cebpf4jnsgd1na2vs0mg"},{"bike_id":"58d01081-65c0-482a-b977-f0dfd8895a04","system_id":"levelo_inurba_marseille","lat":43.28221,"lon":5.43008,"is_reserved":false,"is_disabled":false,"rental_uris":{"android":"levelo://app?vid=58d01081-65c0-482a-b977-f0dfd8895a04","ios":"levelo://app?vid=58d01081-65c0-482a-b977-f0dfd8895a04"},"vehicle_type_id":"4","last_reported":1768311235,"current_range_meters":8800,"station_id":"","pricing_plan_id":"cebpf4jnsgd1na2vs0mg"},{"bike_id":"0ca2dd70-5720-4ed2-94a6-4139d6e22f65","system_id":"levelo_inurba_marseille","lat":43.29081,"lon":5.38133,"is_reserved":false,"is_disabled":false,"rental_uris":{"android":"levelo://app?vid=0ca2dd70-5720-4ed2-94a6-4139d6e22f65","ios":"levelo://app?vid=0ca2dd70-5720-4ed2-94a6-4139d6e22f65"},"vehicle_type_id":"4","last_reported":1768311235,"current_range_meters":8800,"station_id":"ce4bh512rcd13ifvqe2g","pricing_plan_id":"cebpf4jnsgd1na2vs0mg"},{"bike_id":"a8391018-3556-4ffb-8d1c-791324d0e007","system_id":"levelo_inurba_marseille","lat":43.28283,"lon":5.35079,"is_reserved":false,"is_disabled":false,"rental_uris":{"android":"levelo://app?vid=a8391018-3556-4ffb-8d1c-791324d0e007","ios":"levelo://app?vid=a8391018-3556-4ffb-8d1c-791324d0e007"},"vehicle_type_id":"4","last_reported":1768311235,"current_range_meters":8800,"station_id":"ce4bhbp2rcd13ifvqerg","pricing_plan_id":"cebpf4jnsgd1na2vs0mg"},{"bike_id":"1b652514-1232-46b8-8e6c-48cd584369c2","system_id":"levelo_inurba_marseille","lat":43.26938,"lon":5.40277,"is_reserved":false,"is_disabled":false,"rental_uris":{"android":"levelo://app?vid=1b652514-1232-46b8-8e6c-48cd584369c2","ios":"levelo://app?vid=1b652514-1232-46b8-8e6c-48cd584369c2"},"vehicle_type_id":"4","last_reported":1768311235,"current_range_meters":8800,"station_id":"cjm6bp8fraef2m0cb0m0","pricing_plan_id":"cebpf4jnsgd1na2vs0mg"},{"bike_id":"8fd806c9-6515-4473-9594-1a51d8717d0d","system_id":"levelo_inurba_marseille","lat":43.23959,"lon":5.36632,"is_reserved":false,"is_disabled":false,"rental_uris":{"android":"levelo://app?vid=8fd806c9-6515-4473-9594-1a51d8717d0d","ios":"levelo://app?vid=8fd806c9-6515-4473-9594-1a51d8717d0d"},"vehicle_type_id":"4","last_reported":1768311235,"current_range_meters":8800,"station_id":"ce4bhi12rcd13ifvqfp0","pricing_plan_id":"cebpf4jnsgd1na2vs0mg"},{"bike_id":"186a214f-62c4-43b2-baa8-4dd517bf21b4","system_id":"levelo_inurba_marseille","lat":43.29535,"lon":5.3854,"is_reserved":false,"is_disabled":false,"rental_uris":{"android":"levelo://app?vid=186a214f-62c4-43b2-baa8-4dd517bf21b4","ios":"levelo://app?vid=186a214f-62c4-43b2-baa8-4dd517bf21b4"},"vehicle_type_id":"4","last_reported":1768311235,"current_range_meters":8800,"station_id":"ce4bgih2rcd13ifvqba0","pricing_plan_id":"cebpf4jnsgd1na2vs0mg"},{"bike_id":"24283deb-d455-4941-86df-ef97844bfb83","system_id":"levelo_inurba_marseille","lat":43.23159,"lon":5.43712,"is_reserved":false,"is_disabled":false,"rental_uris":{"android":"levelo://app?vid=24283deb-d455-4941-86df-ef97844bfb83","ios":"levelo://app?vid=24283deb-d455-4941-86df-ef97844bfb83"},"vehicle_type_id":"4","last_reported":1768311235,"current_range_meters":8800,"station_id":"ce4bhmp2rcd13ifvqgog","pricing_plan_id":"cebpf4jnsgd1na2vs0mg"},{"bike_id":"f1e7d6e0-da4c-41e1-9e09-b8395a021998","system_id":"levelo_inurba_marseille","lat":43.29303,"lon":5.36848,"is_reserved":false,"is_disabled":false,"rental_uris":{"android":"levelo://app?vid=f1e7d6e0-da4c-41e1-9e09-b8395a021998","ios":"levelo://app?vid=f1e7d6e0-da4c-41e1-9e09-b8395a021998"},"vehicle_type_id":"4","last_reported":1768311235,"current_range_meters":8800,"station_id":"ce4bhbp2rcd13ifvqesg","pricing_plan_id":"cebpf4jnsgd1na2vs0mg"},{"bike_id":"b4a9b861-fb63-44fd-ad85-c7b2758ab1bb","system_id":"levelo_inurba_marseille","lat":43.29761,"lon":5.42783,"is_reserved":false,"is_disabled":false,"rental_uris":{"android":"levelo://app?vid=b4a9b861-fb63-44fd-ad85-c7b2758ab1bb","ios":"levelo://app?vid=b4a9b861-fb63-44fd-ad85-c7b2758ab1bb"},"vehicle_type_id":"4","last_reported":1768311235,"current_range_meters":8800,"station_id":"st_d3md5207bmas73dh9klg","pricing_plan_id":"cebpf4jnsgd1na2vs0mg"},{"bike_id":"9dd907f2-f108-466a-8abb-7ae74aaeafb7","system_id":"levelo_inurba_marseille","lat":43.237912,"lon":5.366333,"is_reserved":false,"is_disabled":false,"rental_uris":{"android":"levelo://app?vid=9dd907f2-f108-466a-8abb-7ae74aaeafb7","ios":"levelo://app?vid=9dd907f2-f108-466a-8abb-7ae74aaeafb7"},"vehicle_type_id":"4","last_reported":1768311235,"current_range_meters":8800,"station_id":"st_d3nk18o9ro0c73en2l3g","pricing_plan_id":"cebpf4jnsgd1na2vs0mg"},{"bike_id":"4e5cd568-543b-4610-b469-0382d7dac3b6","system_id":"levelo_inurba_marseille","lat":43.25941,"lon":5.40902,"is_reserved":false,"is_disabled":false,"rental_uris":{"android":"levelo://app?vid=4e5cd568-543b-4610-b469-0382d7dac3b6","ios":"levelo://app?vid=4e5cd568-543b-4610-b469-0382d7dac3b6"},"vehicle_type_id":"4","last_reported":1768311235,"current_range_meters":8800,"station_id":"","pricing_plan_id":"cebpf4jnsgd1na2vs0mg"},{"bike_id":"a2b8e70d-5dfb-4230-ae5a-24f06aba12a3","system_id":"levelo_inurba_marseille","lat":43.2848,"lon":5.48389,"is_reserved":false,"is_disabled":false,"rental_uris":{"android":"levelo://app?vid=a2b8e70d-5dfb-4230-ae5a-24f06aba12a3","ios":"levelo://app?vid=a2b8e70d-5dfb-4230-ae5a-24f06aba12a3"},"vehicle_type_id":"4","last_reported":1768311235,"current_range_meters":8800,"station_id":"","pricing_plan_id":"cebpf4jnsgd1na2vs0mg"},{"bike_id":"c5098129-0aca-4658-8f1e-ce747d82e73f","system_id":"levelo_inurba_marseille","lat":43.28393,"lon":5.37513,"is_reserved":false,"is_disabled":false,"rental_uris":{"android":"levelo://app?vid=c5098129-0aca-4658-8f1e-ce747d82e73f","ios":"levelo://app?vid=c5098129-0aca-4658-8f1e-ce747d82e73f"},"vehicle_type_id":"4","last_reported":1768311235,"current_range_meters":8800,"station_id":"ce4bh412rcd13ifvqds0","pricing_plan_id":"cebpf4jnsgd1na2vs0mg"},{"bike_id":"10e7ab4f-9703-493d-b7c0-21855d1cad26","system_id":"levelo_inurba_marseille","lat":43.2383,"lon":5.36635,"is_reserved":false,"is_disabled":false,"rental_uris":{"android":"levelo://app?vid=10e7ab4f-9703-493d-b7c0-21855d1cad26","ios":"levelo://app?vid=10e7ab4f-9703-493d-b7c0-21855d1cad26"},"vehicle_type_id":"4","last_reported":1768311235,"current_range_meters":9200,"station_id":"st_d3nk18o9ro0c73en2l3g","pricing_plan_id":"cebpf4jnsgd1na2vs0mg"},{"bike_id":"4c4b6c3f-d08e-48b3-980a-e515197a545a","system_id":"levelo_inurba_marseille","lat":43.29505,"lon":5.39035,"is_reserved":false,"is_disabled":false,"rental_uris":{"android":"levelo://app?vid=4c4b6c3f-d08e-48b3-980a-e515197a545a","ios":"levelo://app?vid=4c4b6c3f-d08e-48b3-980a-e515197a545a"},"vehicle_type_id":"4","last_reported":1768311235,"current_range_meters":9200,"station_id":"ce4bh3p2rcd13ifvqdp0","pricing_plan_id":"cebpf4jnsgd1na2vs0mg"},{"bike_id":"ec88d3a3-6246-43f2-8039-0fedcd998d90","system_id":"levelo_inurba_marseille","lat":43.26543,"lon":5.37174,"is_reserved":false,"is_disabled":false,"rental_uris":{"android":"levelo://app?vid=ec88d3a3-6246-43f2-8039-0fedcd998d90","ios":"levelo://app?vid=ec88d3a3-6246-43f2-8039-0fedcd998d90"},"vehicle_type_id":"4","last_reported":1768311235,"current_range_meters":9200,"station_id":"","pricing_plan_id":"cebpf4jnsgd1na2vs0mg"},{"bike_id":"df18e084-a87b-4725-8ec8-1282613db9cc","system_id":"levelo_inurba_marseille","lat":43.30159,"lon":5.38077,"is_reserved":false,"is_disabled":false,"rental_uris":{"android":"levelo://app?vid=df18e084-a87b-4725-8ec8-1282613db9cc","ios":"levelo://app?vid=df18e084-a87b-4725-8ec8-1282613db9cc"},"vehicle_type_id":"4","last_reported":1768311235,"current_range_meters":9200,"station_id":"ce4bgjp2rcd13ifvqbh0","pricing_plan_id":"cebpf4jnsgd1na2vs0mg"},{"bike_id":"17d2feef-4e10-45c1-b8f9-6bc8b64939c3","system_id":"levelo_inurba_marseille","lat":43.24672,"lon":5.3816,"is_reserved":false,"is_disabled":false,"rental_uris":{"android":"levelo://app?vid=17d2feef-4e10-45c1-b8f9-6bc8b64939c3","ios":"levelo://app?vid=17d2feef-4e10-45c1-b8f9-6bc8b64939c3"},"vehicle_type_id":"4","last_reported":1768311235,"current_range_meters":9200,"station_id":"ce4bhih2rcd13ifvqfr0","pricing_plan_id":"cebpf4jnsgd1na2vs0mg"},{"bike_id":"53558fc4-dcfc-4add-af9a-00b42b64a9db","system_id":"levelo_inurba_marseille","lat":43.23746,"lon":5.3664,"is_reserved":false,"is_disabled":false,"rental_uris":{"android":"levelo://app?vid=53558fc4-dcfc-4add-af9a-00b42b64a9db","ios":"levelo://app?vid=53558fc4-dcfc-4add-af9a-00b42b64a9db"},"vehicle_type_id":"4","last_reported":1768311235,"current_range_meters":9200,"station_id":"st_d3nk18o9ro0c73en2l3g","pricing_plan_id":"cebpf4jnsgd1na2vs0mg"},{"bike_id":"9b5af17d-963d-4337-ba4a-df5a54e9cf3a","system_id":"levelo_inurba_marseille","lat":43.32473,"lon":5.38286,"is_reserved":false,"is_disabled":false,"rental_uris":{"android":"levelo://app?vid=9b5af17d-963d-4337-ba4a-df5a54e9cf3a","ios":"levelo://app?vid=9b5af17d-963d-4337-ba4a-df5a54e9cf3a"},"vehicle_type_id":"4","last_reported":1768311235,"current_range_meters":9200,"station_id":"st_d4asgbiv49dc73anf9m0","pricing_plan_id":"cebpf4jnsgd1na2vs0mg"},{"bike_id":"e7e28ba2-3e4e-422f-a879-66249a6c54a4","system_id":"levelo_inurba_marseille","lat":43.30281,"lon":5.37255,"is_reserved":false,"is_disabled":false,"rental_uris":{"android":"levelo://app?vid=e7e28ba2-3e4e-422f-a879-66249a6c54a4","ios":"levelo://app?vid=e7e28ba2-3e4e-422f-a879-66249a6c54a4"},"vehicle_type_id":"4","last_reported":1768311235,"current_range_meters":9200,"station_id":"","pricing_plan_id":"cebpf4jnsgd1na2vs0mg"},{"bike_id":"4b298b32-8650-4848-9e52-bfd6feef7bd7","system_id":"levelo_inurba_marseille","lat":43.294911,"lon":5.43309,"is_reserved":false,"is_disabled":false,"rental_uris":{"android":"levelo://app?vid=4b298b32-8650-4848-9e52-bfd6feef7bd7","ios":"levelo://app?vid=4b298b32-8650-4848-9e52-bfd6feef7bd7"},"vehicle_type_id":"4","last_reported":1768311235,"current_range_meters":9200,"station_id":"st_d3j5ugp08ojc73fj9d10","pricing_plan_id":"cebpf4jnsgd1na2vs0mg"},{"bike_id":"61547623-329d-489e-b362-c83b298363d0","system_id":"levelo_inurba_marseille","lat":43.2511,"lon":5.40334,"is_reserved":false,"is_disabled":false,"rental_uris":{"android":"levelo://app?vid=61547623-329d-489e-b362-c83b298363d0","ios":"levelo://app?vid=61547623-329d-489e-b362-c83b298363d0"},"vehicle_type_id":"4","last_reported":1768311235,"current_range_meters":9600,"station_id":"ce4bhlh2rcd13ifvqgig","pricing_plan_id":"cebpf4jnsgd1na2vs0mg"},{"bike_id":"166632b1-b6f1-4a03-bf2c-f2753dbfdf9b","system_id":"levelo_inurba_marseille","lat":43.288664,"lon":5.425177,"is_reserved":false,"is_disabled":false,"rental_uris":{"android":"levelo://app?vid=166632b1-b6f1-4a03-bf2c-f2753dbfdf9b","ios":"levelo://app?vid=166632b1-b6f1-4a03-bf2c-f2753dbfdf9b"},"vehicle_type_id":"4","last_reported":1768311235,"current_range_meters":9600,"station_id":"st_d3b462108ojc7389ooeg","pricing_plan_id":"cebpf4jnsgd1na2vs0mg"},{"bike_id":"b4dc94ea-322e-4d04-bd61-57a7e6b5626a","system_id":"levelo_inurba_marseille","lat":43.29554,"lon":5.36763,"is_reserved":false,"is_disabled":false,"rental_uris":{"android":"levelo://app?vid=b4dc94ea-322e-4d04-bd61-57a7e6b5626a","ios":"levelo://app?vid=b4dc94ea-322e-4d04-bd61-57a7e6b5626a"},"vehicle_type_id":"4","last_reported":1768311235,"current_range_meters":9600,"station_id":"ce4bgph2rcd13ifvqc2g","pricing_plan_id":"cebpf4jnsgd1na2vs0mg"},{"bike_id":"aac2fe7d-d2df-46e8-9a19-247b66bd07b6","system_id":"levelo_inurba_marseille","lat":43.24054,"lon":5.3768,"is_reserved":false,"is_disabled":false,"rental_uris":{"android":"levelo://app?vid=aac2fe7d-d2df-46e8-9a19-247b66bd07b6","ios":"levelo://app?vid=aac2fe7d-d2df-46e8-9a19-247b66bd07b6"},"vehicle_type_id":"4","last_reported":1768311235,"current_range_meters":9600,"station_id":"ce4bhnp2rcd13ifvqgvg","pricing_plan_id":"cebpf4jnsgd1na2vs0mg"},{"bike_id":"28efb918-45c5-4269-bea8-c5f7921c7a7d","system_id":"levelo_inurba_marseille","lat":43.25493,"lon":5.3765,"is_reserved":false,"is_disabled":false,"rental_uris":{"android":"levelo://app?vid=28efb918-45c5-4269-bea8-c5f7921c7a7d","ios":"levelo://app?vid=28efb918-45c5-4269-bea8-c5f7921c7a7d"},"vehicle_type_id":"4","last_reported":1768311235,"current_range_meters":9600,"station_id":"ce4bhh12rcd13ifvqff0","pricing_plan_id":"cebpf4jnsgd1na2vs0mg"},{"bike_id":"e6b959f6-64ad-45cf-b2c4-fcdba9ad3b64","system_id":"levelo_inurba_marseille","lat":43.298038,"lon":5.381129,"is_reserved":false,"is_disabled":false,"rental_uris":{"android":"levelo://app?vid=e6b959f6-64ad-45cf-b2c4-fcdba9ad3b64","ios":"levelo://app?vid=e6b959f6-64ad-45cf-b2c4-fcdba9ad3b64"},"vehicle_type_id":"4","last_reported":1768311235,"current_range_meters":9600,"station_id":"ce4bgip2rcd13ifvqbb0","pricing_plan_id":"cebpf4jnsgd1na2vs0mg"},{"bike_id":"8f2f456c-5f7e-46cb-8705-fdd62c3276a8","system_id":"levelo_inurba_marseille","lat":43.3059,"lon":5.39352,"is_reserved":false,"is_disabled":false,"rental_uris":{"android":"levelo://app?vid=8f2f456c-5f7e-46cb-8705-fdd62c3276a8","ios":"levelo://app?vid=8f2f456c-5f7e-46cb-8705-fdd62c3276a8"},"vehicle_type_id":"4","last_reported":1768311235,"current_range_meters":9600,"station_id":"ce4bh0p2rcd13ifvqd80","pricing_plan_id":"cebpf4jnsgd1na2vs0mg"},{"bike_id":"05d57eef-c65b-4641-bdb1-227c824d905d","system_id":"levelo_inurba_marseille","lat":43.28327,"lon":5.38846,"is_reserved":false,"is_disabled":true,"rental_uris":{"android":"levelo://app?vid=05d57eef-c65b-4641-bdb1-227c824d905d","ios":"levelo://app?vid=05d57eef-c65b-4641-bdb1-227c824d905d"},"vehicle_type_id":"4","last_reported":1768311235,"current_range_meters":9600,"station_id":"ce4bh492rcd13ifvqdvg","pricing_plan_id":"cebpf4jnsgd1na2vs0mg"},{"bike_id":"39e9687f-8ed2-4e0f-ac46-a85a84abc099","system_id":"levelo_inurba_marseille","lat":43.245348,"lon":5.395334,"is_reserved":false,"is_disabled":false,"rental_uris":{"android":"levelo://app?vid=39e9687f-8ed2-4e0f-ac46-a85a84abc099","ios":"levelo://app?vid=39e9687f-8ed2-4e0f-ac46-a85a84abc099"},"vehicle_type_id":"4","last_reported":1768311235,"current_range_meters":9600,"station_id":"ce4bhlp2rcd13ifvqgjg","pricing_plan_id":"cebpf4jnsgd1na2vs0mg"},{"bike_id":"e1aaebb3-5db6-4c6e-ad54-e024332b8248","system_id":"levelo_inurba_marseille","lat":43.28426,"lon":5.34972,"is_reserved":false,"is_disabled":false,"rental_uris":{"android":"levelo://app?vid=e1aaebb3-5db6-4c6e-ad54-e024332b8248","ios":"levelo://app?vid=e1aaebb3-5db6-4c6e-ad54-e024332b8248"},"vehicle_type_id":"4","last_reported":1768311235,"current_range_meters":10000,"station_id":"ce4bhbh2rcd13ifvqepg","pricing_plan_id":"cebpf4jnsgd1na2vs0mg"},{"bike_id":"15dad9e1-f250-49d2-9e5c-6dd9d242af0a","system_id":"levelo_inurba_marseille","lat":43.312307,"lon":5.368594,"is_reserved":false,"is_disabled":false,"rental_uris":{"android":"levelo://app?vid=15dad9e1-f250-49d2-9e5c-6dd9d242af0a","ios":"levelo://app?vid=15dad9e1-f250-49d2-9e5c-6dd9d242af0a"},"vehicle_type_id":"4","last_reported":1768311235,"current_range_meters":10000,"station_id":"ce4bgl92rcd13ifvqbq0","pricing_plan_id":"cebpf4jnsgd1na2vs0mg"},{"bike_id":"43957bbb-a5bf-4b3a-8306-c940c14f55a1","system_id":"levelo_inurba_marseille","lat":43.285288,"lon":5.441115,"is_reserved":false,"is_disabled":false,"rental_uris":{"android":"levelo://app?vid=43957bbb-a5bf-4b3a-8306-c940c14f55a1","ios":"levelo://app?vid=43957bbb-a5bf-4b3a-8306-c940c14f55a1"},"vehicle_type_id":"4","last_reported":1768311235,"current_range_meters":10000,"station_id":"st_d3j3df2ikq2c7380ej80","pricing_plan_id":"cebpf4jnsgd1na2vs0mg"},{"bike_id":"dadd3643-d3f2-43cc-93ba-a611d7b33fea","system_id":"levelo_inurba_marseille","lat":43.27979,"lon":5.41648,"is_reserved":false,"is_disabled":false,"rental_uris":{"android":"levelo://app?vid=dadd3643-d3f2-43cc-93ba-a611d7b33fea","ios":"levelo://app?vid=dadd3643-d3f2-43cc-93ba-a611d7b33fea"},"vehicle_type_id":"4","last_reported":1768311235,"current_range_meters":10000,"station_id":"ce4bho12rcd13ifvqh1g","pricing_plan_id":"cebpf4jnsgd1na2vs0mg"},{"bike_id":"b07d2b98-6097-4b4e-a6e2-345e5aa494ac","system_id":"levelo_inurba_marseille","lat":43.23775,"lon":5.36635,"is_reserved":false,"is_disabled":false,"rental_uris":{"android":"levelo://app?vid=b07d2b98-6097-4b4e-a6e2-345e5aa494ac","ios":"levelo://app?vid=b07d2b98-6097-4b4e-a6e2-345e5aa494ac"},"vehicle_type_id":"4","last_reported":1768311235,"current_range_meters":10000,"station_id":"st_d3nk18o9ro0c73en2l3g","pricing_plan_id":"cebpf4jnsgd1na2vs0mg"},{"bike_id":"477f956f-8ae0-4c37-bf44-34473ef75fe3","system_id":"levelo_inurba_marseille","lat":43.246371,"lon":5.389014,"is_reserved":false,"is_disabled":false,"rental_uris":{"android":"levelo://app?vid=477f956f-8ae0-4c37-bf44-34473ef75fe3","ios":"levelo://app?vid=477f956f-8ae0-4c37-bf44-34473ef75fe3"},"vehicle_type_id":"4","last_reported":1768311235,"current_range_meters":10000,"station_id":"ce4bhg12rcd13ifvqf60","pricing_plan_id":"cebpf4jnsgd1na2vs0mg"},{"bike_id":"737ed20c-4f87-451a-bc22-15e8ae5406ff","system_id":"levelo_inurba_marseille","lat":43.31385,"lon":5.36698,"is_reserved":false,"is_disabled":false,"rental_uris":{"android":"levelo://app?vid=737ed20c-4f87-451a-bc22-15e8ae5406ff","ios":"levelo://app?vid=737ed20c-4f87-451a-bc22-15e8ae5406ff"},"vehicle_type_id":"4","last_reported":1768311235,"current_range_meters":10000,"station_id":"","pricing_plan_id":"cebpf4jnsgd1na2vs0mg"},{"bike_id":"135724df-1c8a-44de-83d3-d3c3aa7e6aa0","system_id":"levelo_inurba_marseille","lat":43.249925,"lon":5.389349,"is_reserved":false,"is_disabled":false,"rental_uris":{"android":"levelo://app?vid=135724df-1c8a-44de-83d3-d3c3aa7e6aa0","ios":"levelo://app?vid=135724df-1c8a-44de-83d3-d3c3aa7e6aa0"},"vehicle_type_id":"4","last_reported":1768311235,"current_range_meters":10000,"station_id":"ce4bhgp2rcd13ifvqfd0","pricing_plan_id":"cebpf4jnsgd1na2vs0mg"},{"bike_id":"238f9851-38cc-4739-9e57-318ffb2a6625","system_id":"levelo_inurba_marseille","lat":43.24159,"lon":5.36404,"is_reserved":false,"is_disabled":true,"rental_uris":{"android":"levelo://app?vid=238f9851-38cc-4739-9e57-318ffb2a6625","ios":"levelo://app?vid=238f9851-38cc-4739-9e57-318ffb2a6625"},"vehicle_type_id":"4","last_reported":1768311235,"current_range_meters":10000,"station_id":"cpo36qri1sfpv3e86is0","pricing_plan_id":"cebpf4jnsgd1na2vs0mg"},{"bike_id":"fb01367e-e2bf-4929-8d89-dc46e243038c","system_id":"levelo_inurba_marseille","lat":43.280019,"lon":5.41662,"is_reserved":false,"is_disabled":false,"rental_uris":{"android":"levelo://app?vid=fb01367e-e2bf-4929-8d89-dc46e243038c","ios":"levelo://app?vid=fb01367e-e2bf-4929-8d89-dc46e243038c"},"vehicle_type_id":"4","last_reported":1768311235,"current_range_meters":10000,"station_id":"ce4bho12rcd13ifvqh1g","pricing_plan_id":"cebpf4jnsgd1na2vs0mg"},{"bike_id":"46a8543e-d1fa-47b5-9d49-b59928b46ad6","system_id":"levelo_inurba_marseille","lat":43.337444,"lon":5.374475,"is_reserved":false,"is_disabled":false,"rental_uris":{"android":"levelo://app?vid=46a8543e-d1fa-47b5-9d49-b59928b46ad6","ios":"levelo://app?vid=46a8543e-d1fa-47b5-9d49-b59928b46ad6"},