{"last_updated":1687723660,"ttl":30,"version":"2.2","data":{"bikes":[{"bike_id":"a97ded2a-63e3-4a99-97db-dc8dade902d8","system_id":"levelo_inurba_marseille","lat":43.31237,"lon":5.36922,"is_reserved":false,"is_disabled":false,"rental_uris":{"android":"levelo://app?vid=a97ded2a-63e3-4a99-97db-dc8dade902d8","ios":"levelo://app?vid=a97ded2a-63e3-4a99-97db-dc8dade902d8"},"vehicle_type_id":"4","last_reported":1687723660,"current_range_meters":18800,"station_id":"","pricing_plan_id":"free"},{"bike_id":"2362d78b-e06a-4866-a0a1-7346cde59c6d","system_id":"levelo_inurba_marseille","lat":43.31629,"lon":5.36639,"is_reserved":false,"is_disabled":false,"rental_uris":{"android":"levelo://app?vid=2362d78b-e06a-4866-a0a1-7346cde59c6d","ios":"levelo://app?vid=2362d78b-e06a-4866-a0a1-7346cde59c6d"},"vehicle_type_id":"4","last_reported":1687723660,"current_range_meters":15200,"station_id":"","pricing_plan_id":"free"},{"bike_id":"3a27414f-83be-495e-827e-a76011701dba","system_id":"levelo_inurba_marseille","lat":43.314811,"lon":5.373104,"is_reserved":false,"is_disabled":false,"rental_uris":{"android":"levelo://app?vid=3a27414f-83be-495e-827e-a76011701dba","ios":"levelo://app?vid=3a27414f-83be-495e-827e-a76011701dba"},"vehicle_type_id":"4","last_reported":1687723660,"current_range_meters":8000,"station_id":"ce4bgt12rcd13ifvqcd0","pricing_plan_id":"free"},{"bike_id":"e35186f0-6fa6-4c54-9af0-b9cc1b619333","system_id":"levelo_inurba_marseille","lat":43.30544,"lon":5.36699,"is_reserved":false,"is_disabled":false,"rental_uris":{"android":"levelo://app?vid=e35186f0-6fa6-4c54-9af0-b9cc1b619333","ios":"levelo://app?vid=e35186f0-6fa6-4c54-9af0-b9cc1b619333"},"vehicle_type_id":"4","last_reported":1687723660,"current_range_meters":8000,"station_id":"","pricing_plan_id":"free"},{"bike_id":"838570f8-1703-4c53-adf4-ee0bae6b792a","system_id":"levelo_inurba_marseille","lat":43.305712,"lon":5.365641,"is_reserved":false,"is_disabled":false,"rental_uris":{"android":"levelo://app?vid=838570f8-1703-4c53-adf4-ee0bae6b792a","ios":"levelo://app?vid=838570f8-1703-4c53-adf4-ee0bae6b792a"},"vehicle_type_id":"4","last_reported":1687723660,"current_range_meters":1600,"station_id":"ce4bgs12rcd13ifvqcag","pricing_plan_id":"free"},{"bike_id":"a6284f89-33f6-446c-b638-bb2930439cf0","system_id":"levelo_inurba_marseille","lat":43.305706,"lon":5.365654,"is_reserved":false,"is_disabled":false,"rental_uris":{"android":"levelo://app?vid=a6284f89-33f6-446c-b638-bb2930439cf0","ios":"levelo://app?vid=a6284f89-33f6-446c-b638-bb2930439cf0"},"vehicle_type_id":"4","last_reported":1687723660,"current_range_meters":7600,"station_id":"ce4bgs12rcd13ifvqcag","pricing_plan_id":"free"},{"bike_id":"790c3bfe-693a-473e-a83c-04b2dc1d2230","system_id":"levelo_inurba_marseille","lat":43.305368,"lon":5.367343,"is_reserved":false,"is_disabled":false,"rental_uris":{"android":"levelo://app?vid=790c3bfe-693a-473e-a83c-04b2dc1d2230","ios":"levelo://app?vid=790c3bfe-693a-473e-a83c-04b2dc1d2230"},"vehicle_type_id":"4","last_reported":1687723660,"current_range_meters":4400,"station_id":"ce4bgrp2rcd13ifvqc9g","pricing_plan_id":"free"},{"bike_id":"421701da-3f52-48df-8747-a8947f1366fa","system_id":"levelo_inurba_marseille","lat":43.305989,"lon":5.37225,"is_reserved":false,"is_disabled":false,"rental_uris":{"android":"levelo://app?vid=421701da-3f52-48df-8747-a8947f1366fa","ios":"levelo://app?vid=421701da-3f52-48df-8747-a8947f1366fa"},"vehicle_type_id":"4","last_reported":1687723660,"current_range_meters":8400,"station_id":"ce4bgqh2rcd13ifvqc4g","pricing_plan_id":"free"},{"bike_id":"4716d8e4-8ec4-4bab-8787-a593f8a560e2","system_id":"levelo_inurba_marseille","lat":43.31718,"lon":5.37733,"is_reserved":false,"is_disabled":false,"rental_uris":{"android":"levelo://app?vid=4716d8e4-8ec4-4bab-8787-a593f8a560e2","ios":"levelo://app?vid=4716d8e4-8ec4-4bab-8787-a593f8a560e2"},"vehicle_type_id":"4","last_reported":1687723660,"current_range_meters":18800,"station_id":"ce4bgth2rcd13ifvqch0","pricing_plan_id":"free"},{"bike_id":"cb8b1387-d8af-42e0-b4a9-acc526dd9ff5","system_id":"levelo_inurba_marseille","lat":43.31776,"lon":5.37786,"is_reserved":false,"is_disabled":false,"rental_uris":{"android":"levelo://app?vid=cb8b1387-d8af-42e0-b4a9-acc526dd9ff5","ios":"levelo://app?vid=cb8b1387-d8af-42e0-b4a9-acc526dd9ff5"},"vehicle_type_id":"4","last_reported":1687723660,"current_range_meters":22800,"station_id":"","pricing_plan_id":"free"},{"bike_id":"cee9fc20-054e-4647-9bb1-66bdcbeb6e9c","system_id":"levelo_inurba_marseille","lat":43.303046,"lon":5.368981,"is_reserved":false,"is_disabled":false,"rental_uris":{"android":"levelo://app?vid=cee9fc20-054e-4647-9bb1-66bdcbeb6e9c","ios":"levelo://app?vid=cee9fc20-054e-4647-9bb1-66bdcbeb6e9c"},"vehicle_type_id":"4","last_reported":1687723660,"current_range_meters":0,"station_id":"ce4bgqh2rcd13ifvqc5g","pricing_plan_id":"free"},{"bike_id":"4fd5be37-41da-4acc-a9e7-f845c6cee45c","system_id":"levelo_inurba_marseille","lat":43.31529,"lon":5.38031,"is_reserved":false,"is_disabled":false,"rental_uris":{"android":"levelo://app?vid=4fd5be37-41da-4acc-a9e7-f845c6cee45c","ios":"levelo://app?vid=4fd5be37-41da-4acc-a9e7-f845c6cee45c"},"vehicle_type_id":"4","last_reported":1687723660,"current_range_meters":11600,"station_id":"ce4bhsp2rcd13ifvqi50","pricing_plan_id":"free"},{"bike_id":"a90606b8-7ae5-4cc6-88df-275537a20d60","system_id":"levelo_inurba_marseille","lat":43.315289,"lon":5.380349,"is_reserved":false,"is_disabled":false,"rental_uris":{"android":"levelo://app?vid=a90606b8-7ae5-4cc6-88df-275537a20d60","ios":"levelo://app?vid=a90606b8-7ae5-4cc6-88df-275537a20d60"},"vehicle_type_id":"4","last_reported":1687723660,"current_range_meters":0,"station_id":"ce4bhsp2rcd13ifvqi50","pricing_plan_id":"free"},{"bike_id":"708b7446-5001-4766-9e6c-5ef85b8fb228","system_id":"levelo_inurba_marseille","lat":43.315293,"lon":5.380349,"is_reserved":false,"is_disabled":false,"rental_uris":{"android":"levelo://app?vid=708b7446-5001-4766-9e6c-5ef85b8fb228","ios":"levelo://app?vid=708b7446-5001-4766-9e6c-5ef85b8fb228"},"vehicle_type_id":"4","last_reported":1687723660,"current_range_meters":800,"station_id":"ce4bhsp2rcd13ifvqi50","pricing_plan_id":"free"},{"bike_id":"0b3a595f-e364-4a9c-bed9-7b29e0182973","system_id":"levelo_inurba_marseille","lat":43.31555,"lon":5.38057,"is_reserved":false,"is_disabled":false,"rental_uris":{"android":"levelo://app?vid=0b3a595f-e364-4a9c-bed9-7b29e0182973","ios":"levelo://app?vid=0b3a595f-e364-4a9c-bed9-7b29e0182973"},"vehicle_type_id":"4","last_reported":1687723660,"current_range_meters":9200,"station_id":"","pricing_plan_id":"free"},{"bike_id":"ddb84a91-9bfa-4d4f-9cbf-fe10d93ff35f","system_id":"levelo_inurba_marseille","lat":43.301939,"lon":5.366286,"is_reserved":false,"is_disabled":false,"rental_uris":{"android":"levelo://app?vid=ddb84a91-9bfa-4d4f-9cbf-fe10d93ff35f","ios":"levelo://app?vid=ddb84a91-9bfa-4d4f-9cbf-fe10d93ff35f"},"vehicle_type_id":"4","last_reported":1687723660,"current_range_meters":23600,"station_id":"ce4bgrh2rcd13ifvqc8g","pricing_plan_id":"free"},{"bike_id":"70040348-f626-4441-8acf-a1f0e0b429b2","system_id":"levelo_inurba_marseille","lat":43.30806,"lon":5.38153,"is_reserved":false,"is_disabled":false,"rental_uris":{"android":"levelo://app?vid=70040348-f626-4441-8acf-a1f0e0b429b2","ios":"levelo://app?vid=70040348-f626-4441-8acf-a1f0e0b429b2"},"vehicle_type_id":"4","last_reported":1687723660,"current_range_meters":21200,"station_id":"ce4bgt12rcd13ifvqce0","pricing_plan_id":"free"},{"bike_id":"7961c058-6bbf-43fe-9e62-f3ba9264f471","system_id":"levelo_inurba_marseille","lat":43.30209,"lon":5.37398,"is_reserved":false,"is_disabled":false,"rental_uris":{"android":"levelo://app?vid=7961c058-6bbf-43fe-9e62-f3ba9264f471","ios":"levelo://app?vid=7961c058-6bbf-43fe-9e62-f3ba9264f471"},"vehicle_type_id":"4","last_reported":1687723660,"current_range_meters":4000,"station_id":"","pricing_plan_id":"free"},{"bike_id":"a0e644db-bb0c-4897-8749-a1072ee0bc63","system_id":"levelo_inurba_marseille","lat":43.304606,"lon":5.379026,"is_reserved":false,"is_disabled":false,"rental_uris":{"android":"levelo://app?vid=a0e644db-bb0c-4897-8749-a1072ee0bc63","ios":"levelo://app?vid=a0e644db-bb0c-4897-8749-a1072ee0bc63"},"vehicle_type_id":"4","last_reported":1687723660,"current_range_meters":3200,"station_id":"ce4bgup2rcd13ifvqcn0","pricing_plan_id":"free"},{"bike_id":"60628906-8033-4d50-b717-fbf6f6ea86e9","system_id":"levelo_inurba_marseille","lat":43.304606,"lon":5.379026,"is_reserved":false,"is_disabled":false,"rental_uris":{"android":"levelo://app?vid=60628906-8033-4d50-b717-fbf6f6ea86e9","ios":"levelo://app?vid=60628906-8033-4d50-b717-fbf6f6ea86e9"},"vehicle_type_id":"4","last_reported":1687723660,"current_range_meters":0,"station_id":"ce4bgup2rcd13ifvqcn0","pricing_plan_id":"free"},{"bike_id":"8de0e1de-b798-47ae-a580-7e3a332227e3","system_id":"levelo_inurba_marseille","lat":43.30143,"lon":5.37413,"is_reserved":false,"is_disabled":false,"rental_uris":{"android":"levelo://app?vid=8de0e1de-b798-47ae-a580-7e3a332227e3","ios":"levelo://app?vid=8de0e1de-b798-47ae-a580-7e3a332227e3"},"vehicle_type_id":"4","last_reported":1687723660,"current_range_meters":4400,"station_id":"ce4bgs92rcd13ifvqcc0","pricing_plan_id":"free"},{"bike_id":"11aaa9ef-be1a-4ced-b064-fd6dba2d7f2d","system_id":"levelo_inurba_marseille","lat":43.30273,"lon":5.37714,"is_reserved":false,"is_disabled":false,"rental_uris":{"android":"levelo://app?vid=11aaa9ef-be1a-4ced-b064-fd6dba2d7f2d","ios":"levelo://app?vid=11aaa9ef-be1a-4ced-b064-fd6dba2d7f2d"},"vehicle_type_id":"4","last_reported":1687723660,"current_range_meters":4400,"station_id":"ce4bguh2rcd13ifvqcj0","pricing_plan_id":"free"},{"bike_id":"e5564a1b-7eaa-42d7-9eac-0b69cc97b61e","system_id":"levelo_inurba_marseille","lat":43.319935,"lon":5.381699,"is_reserved":false,"is_disabled":false,"rental_uris":{"android":"levelo://app?vid=e5564a1b-7eaa-42d7-9eac-0b69cc97b61e","ios":"levelo://app?vid=e5564a1b-7eaa-42d7-9eac-0b69cc97b61e"},"vehicle_type_id":"4","last_reported":1687723660,"current_range_meters":14000,"station_id":"ce4bhr12rcd13ifvqhpg","pricing_plan_id":"free"},{"bike_id":"7e9a47a8-5d6c-4e19-9cd5-24ee65ebc02d","system_id":"levelo_inurba_marseille","lat":43.31996,"lon":5.38151,"is_reserved":false,"is_disabled":false,"rental_uris":{"android":"levelo://app?vid=7e9a47a8-5d6c-4e19-9cd5-24ee65ebc02d","ios":"levelo://app?vid=7e9a47a8-5d6c-4e19-9cd5-24ee65ebc02d"},"vehicle_type_id":"4","last_reported":1687723660,"current_range_meters":26400,"station_id":"ce4bhr12rcd13ifvqhpg","pricing_plan_id":"free"},{"bike_id":"9fb2af00-a3bb-4d59-9a9c-bf6fb58d47f0","system_id":"levelo_inurba_marseille","lat":43.31996,"lon":5.38153,"is_reserved":false,"is_disabled":false,"rental_uris":{"android":"levelo://app?vid=9fb2af00-a3bb-4d59-9a9c-bf6fb58d47f0","ios":"levelo://app?vid=9fb2af00-a3bb-4d59-9a9c-bf6fb58d47f0"},"vehicle_type_id":"4","last_reported":1687723660,"current_range_meters":28800,"station_id":"ce4bhr12rcd13ifvqhpg","pricing_plan_id":"free"},{"bike_id":"e38717ae-c7f5-4ce6-854c-e3e79116dd3b","system_id":"levelo_inurba_marseille","lat":43.32001,"lon":5.38151,"is_reserved":false,"is_disabled":false,"rental_uris":{"android":"levelo://app?vid=e38717ae-c7f5-4ce6-854c-e3e79116dd3b","ios":"levelo://app?vid=e38717ae-c7f5-4ce6-854c-e3e79116dd3b"},"vehicle_type_id":"4","last_reported":1687723660,"current_range_meters":5600,"station_id":"ce4bhr12rcd13ifvqhpg","pricing_plan_id":"free"},{"bike_id":"bf2839f3-a748-4c0e-9acf-d1cd0e5123de","system_id":"levelo_inurba_marseille","lat":43.313571,"lon":5.384829,"is_reserved":false,"is_disabled":false,"rental_uris":{"android":"levelo://app?vid=bf2839f3-a748-4c0e-9acf-d1cd0e5123de","ios":"levelo://app?vid=bf2839f3-a748-4c0e-9acf-d1cd0e5123de"},"vehicle_type_id":"4","last_reported":1687723660,"current_range_meters":1200,"station_id":"ce4bgt92rcd13ifvqcf0","pricing_plan_id":"free"},{"bike_id":"f057f616-cebd-476b-b5e8-aad758d340f1","system_id":"levelo_inurba_marseille","lat":43.313571,"lon":5.384829,"is_reserved":false,"is_disabled":false,"rental_uris":{"android":"levelo://app?vid=f057f616-cebd-476b-b5e8-aad758d340f1","ios":"levelo://app?vid=f057f616-cebd-476b-b5e8-aad758d340f1"},"vehicle_type_id":"4","last_reported":1687723660,"current_range_meters":6000,"station_id":"ce4bgt92rcd13ifvqcf0","pricing_plan_id":"free"},{"bike_id":"8f4bd9af-421c-44c4-be14-95353f8164b4","system_id":"levelo_inurba_marseille","lat":43.313571,"lon":5.384829,"is_reserved":false,"is_disabled":false,"rental_uris":{"android":"levelo://app?vid=8f4bd9af-421c-44c4-be14-95353f8164b4","ios":"levelo://app?vid=8f4bd9af-421c-44c4-be14-95353f8164b4"},"vehicle_type_id":"4","last_reported":1687723660,"current_range_meters":0,"station_id":"ce4bgt92rcd13ifvqcf0","pricing_plan_id":"free"},{"bike_id":"832ca773-66d7-4453-94c4-9a306782dec8","system_id":"levelo_inurba_marseille","lat":43.313571,"lon":5.384829,"is_reserved":false,"is_disabled":false,"rental_uris":{"android":"levelo://app?vid=832ca773-66d7-4453-94c4-9a306782dec8","ios":"levelo://app?vid=832ca773-66d7-4453-94c4-9a306782dec8"},"vehicle_type_id":"4","last_reported":1687723660,"current_range_meters":25600,"station_id":"ce4bgt92rcd13ifvqcf0","pricing_plan_id":"free"},{"bike_id":"294a8ac8-0f9e-47b8-af6f-597e5af2f0d7","system_id":"levelo_inurba_marseille","lat":43.30654,"lon":5.3831,"is_reserved":false,"is_disabled":false,"rental_uris":{"android":"levelo://app?vid=294a8ac8-0f9e-47b8-af6f-597e5af2f0d7","ios":"levelo://app?vid=294a8ac8-0f9e-47b8-af6f-597e5af2f0d7"},"vehicle_type_id":"4","last_reported":1687723660,"current_range_meters":3200,"station_id":"","pricing_plan_id":"free"},{"bike_id":"cb5e60c6-5472-4933-a97c-011277668bc5","system_id":"levelo_inurba_marseille","lat":43.29844,"lon":5.36269,"is_reserved":false,"is_disabled":false,"rental_uris":{"android":"levelo://app?vid=cb5e60c6-5472-4933-a97c-011277668bc5","ios":"levelo://app?vid=cb5e60c6-5472-4933-a97c-011277668bc5"},"vehicle_type_id":"4","last_reported":1687723660,"current_range_meters":8400,"station_id":"ce4bgpp2rcd13ifvqc3g","pricing_plan_id":"free"},{"bike_id":"a9da1a25-bc10-4b7a-9673-2d3f496340b2","system_id":"levelo_inurba_marseille","lat":43.305364,"lon":5.384119,"is_reserved":false,"is_disabled":false,"rental_uris":{"android":"levelo://app?vid=a9da1a25-bc10-4b7a-9673-2d3f496340b2","ios":"levelo://app?vid=a9da1a25-bc10-4b7a-9673-2d3f496340b2"},"vehicle_type_id":"4","last_reported":1687723660,"current_range_meters":2800,"station_id":"ce4bgg92rcd13ifvqb30","pricing_plan_id":"free"},{"bike_id":"f7b863dd-e198-464b-9612-ed58b35c6e6c","system_id":"levelo_inurba_marseille","lat":43.311722,"lon":5.387247,"is_reserved":false,"is_disabled":false,"rental_uris":{"android":"levelo://app?vid=f7b863dd-e198-464b-9612-ed58b35c6e6c","ios":"levelo://app?vid=f7b863dd-e198-464b-9612-ed58b35c6e6c"},"vehicle_type_id":"4","last_reported":1687723660,"current_range_meters":18400,"station_id":"ce4bgv12rcd13ifvqcp0","pricing_plan_id":"free"},{"bike_id":"1580a472-182f-4d91-8a6c-4c3a23a9c034","system_id":"levelo_inurba_marseille","lat":43.302,"lon":5.3821,"is_reserved":false,"is_disabled":false,"rental_uris":{"android":"levelo://app?vid=1580a472-182f-4d91-8a6c-4c3a23a9c034","ios":"levelo://app?vid=1580a472-182f-4d91-8a6c-4c3a23a9c034"},"vehicle_type_id":"4","last_reported":1687723660,"current_range_meters":12400,"station_id":"","pricing_plan_id":"free"},{"bike_id":"5108659d-1431-4d89-a11a-e27336cba391","system_id":"levelo_inurba_marseille","lat":43.328371,"lon":5.366912,"is_reserved":false,"is_disabled":false,"rental_uris":{"android":"levelo://app?vid=5108659d-1431-4d89-a11a-e27336cba391","ios":"levelo://app?vid=5108659d-1431-4d89-a11a-e27336cba391"},"vehicle_type_id":"4","last_reported":1687723661,"current_range_meters":7200,"station_id":"ce4bhs92rcd13ifvqi0g","pricing_plan_id":"free"},{"bike_id":"84310711-9ffd-45bf-a8e1-79683581878e","system_id":"levelo_inurba_marseille","lat":43.32825,"lon":5.36686,"is_reserved":false,"is_disabled":false,"rental_uris":{"android":"levelo://app?vid=84310711-9ffd-45bf-a8e1-79683581878e","ios":"levelo://app?vid=84310711-9ffd-45bf-a8e1-79683581878e"},"vehicle_type_id":"4","last_reported":1687723661,"current_range_meters":20400,"station_id":"ce4bhs92rcd13ifvqi0g","pricing_plan_id":"free"},{"bike_id":"be4c2b1e-4409-4655-b800-08e6615894b0","system_id":"levelo_inurba_marseille","lat":43.328371,"lon":5.366912,"is_reserved":false,"is_disabled":false,"rental_uris":{"android":"levelo://app?vid=be4c2b1e-4409-4655-b800-08e6615894b0","ios":"levelo://app?vid=be4c2b1e-4409-4655-b800-08e6615894b0"},"vehicle_type_id":"4","last_reported":1687723661,"current_range_meters":6400,"station_id":"ce4bhs92rcd13ifvqi0g","pricing_plan_id":"free"},{"bike_id":"c0ba4054-03d2-4233-93b4-0461723bc0b5","system_id":"levelo_inurba_marseille","lat":43.328371,"lon":5.366912,"is_reserved":false,"is_disabled":false,"rental_uris":{"android":"levelo://app?vid=c0ba4054-03d2-4233-93b4-0461723bc0b5","ios":"levelo://app?vid=c0ba4054-03d2-4233-93b4-0461723bc0b5"},"vehicle_type_id":"4","last_reported":1687723661,"current_range_meters":0,"station_id":"ce4bhs92rcd13ifvqi0g","pricing_plan_id":"free"},{"bike_id":"8cd194c3-4946-47d4-8472-6a93aa928d08","system_id":"levelo_inurba_marseille","lat":43.3283,"lon":5.36682,"is_reserved":false,"is_disabled":false,"rental_uris":{"android":"levelo://app?vid=8cd194c3-4946-47d4-8472-6a93aa928d08","ios":"levelo://app?vid=8cd194c3-4946-47d4-8472-6a93aa928d08"},"vehicle_type_id":"4","last_reported":1687723661,"current_range_meters":24800,"station_id":"ce4bhs92rcd13ifvqi0g","pricing_plan_id":"free"},{"bike_id":"9823f69b-7618-447c-88b9-9a8290da0996","system_id":"levelo_inurba_marseille","lat":43.32833,"lon":5.36684,"is_reserved":false,"is_disabled":false,"rental_uris":{"android":"levelo://app?vid=9823f69b-7618-447c-88b9-9a8290da0996","ios":"levelo://app?vid=9823f69b-7618-447c-88b9-9a8290da0996"},"vehicle_type_id":"4","last_reported":1687723661,"current_range_meters":8400,"station_id":"ce4bhs92rcd13ifvqi0g","pricing_plan_id":"free"},{"bike_id":"8b17aad1-d072-4063-bcd5-d1dd5ac05981","system_id":"levelo_inurba_marseille","lat":43.32833,"lon":5.36677,"is_reserved":false,"is_disabled":false,"rental_uris":{"android":"levelo://app?vid=8b17aad1-d072-4063-bcd5-d1dd5ac05981","ios":"levelo://app?vid=8b17aad1-d072-4063-bcd5-d1dd5ac05981"},"vehicle_type_id":"4","last_reported":1687723661,"current_range_meters":30000,"station_id":"ce4bhs92rcd13ifvqi0g","pricing_plan_id":"free"},{"bike_id":"8d98417a-cbe4-4269-8bc9-598373a7d5de","system_id":"levelo_inurba_marseille","lat":43.3285,"lon":5.36285,"is_reserved":false,"is_disabled":false,"rental_uris":{"android":"levelo://app?vid=8d98417a-cbe4-4269-8bc9-598373a7d5de","ios":"levelo://app?vid=8d98417a-cbe4-4269-8bc9-598373a7d5de"},"vehicle_type_id":"4","last_reported":1687723661,"current_range_meters":16000,"station_id":"","pricing_plan_id":"free"},{"bike_id":"9f59b092-c451-49a4-870f-a9213b90e767","system_id":"levelo_inurba_marseille","lat":43.32944,"lon":5.36647,"is_reserved":false,"is_disabled":false,"rental_uris":{"android":"levelo://app?vid=9f59b092-c451-49a4-870f-a9213b90e767","ios":"levelo://app?vid=9f59b092-c451-49a4-870f-a9213b90e767"},"vehicle_type_id":"4","last_reported":1687723661,"current_range_meters":800,"station_id":"","pricing_plan_id":"free"},{"bike_id":"bc25b23d-809f-4d83-b69f-c3850def36ca","system_id":"levelo_inurba_marseille","lat":43.296219,"lon":5.371484,"is_reserved":false,"is_disabled":false,"rental_uris":{"android":"levelo://app?vid=bc25b23d-809f-4d83-b69f-c3850def36ca","ios":"levelo://app?vid=bc25b23d-809f-4d83-b69f-c3850def36ca"},"vehicle_type_id":"4","last_reported":1687723661,"current_range_meters":23600,"station_id":"ce4bgk12rcd13ifvqbj0","pricing_plan_id":"free"},{"bike_id":"1fd1e7db-50bb-4465-8719-911be8c34480","system_id":"levelo_inurba_marseille","lat":43.296131,"lon":5.370773,"is_reserved":false,"is_disabled":false,"rental_uris":{"android":"levelo://app?vid=1fd1e7db-50bb-4465-8719-911be8c34480","ios":"levelo://app?vid=1fd1e7db-50bb-4465-8719-911be8c34480"},"vehicle_type_id":"4","last_reported":1687723661,"current_range_meters":12000,"station_id":"ce4bgnh2rcd13ifvqc0g","pricing_plan_id":"free"},{"bike_id":"72ef44a8-ccd9-4c81-af91-61ec618552fd","system_id":"levelo_inurba_marseille","lat":43.29718,"lon":5.37685,"is_reserved":false,"is_disabled":false,"rental_uris":{"android":"levelo://app?vid=72ef44a8-ccd9-4c81-af91-61ec618552fd","ios":"levelo://app?vid=72ef44a8-ccd9-4c81-af91-61ec618552fd"},"vehicle_type_id":"4","last_reported":1687723661,"current_range_meters":15600,"station_id":"","pricing_plan_id":"free"},{"bike_id":"041bc147-ef2f-419b-bb81-deca3bdf89e2","system_id":"levelo_inurba_marseille","lat":43.29611,"lon":5.36046,"is_reserved":false,"is_disabled":false,"rental_uris":{"android":"levelo://app?vid=041bc147-ef2f-419b-bb81-deca3bdf89e2","ios":"levelo://app?vid=041bc147-ef2f-419b-bb81-deca3bdf89e2"},"vehicle_type_id":"4","last_reported":1687723661,"current_range_meters":2000,"station_id":"","pricing_plan_id":"free"},{"bike_id":"637c29e8-3938-47be-a174-0d2a813135f4","system_id":"levelo_inurba_marseille","lat":43.309589,"lon":5.390258,"is_reserved":false,"is_disabled":false,"rental_uris":{"android":"levelo://app?vid=637c29e8-3938-47be-a174-0d2a813135f4","ios":"levelo://app?vid=637c29e8-3938-47be-a174-0d2a813135f4"},"vehicle_type_id":"4","last_reported":1687723661,"current_range_meters":11600,"station_id":"ce4bgup2rcd13ifvqco0","pricing_plan_id":"free"},{"bike_id":"c79951fb-decf-4678-ba93-6148b6d53564","system_id":"levelo_inurba_marseille","lat":43.299028,"lon":5.381509,"is_reserved":false,"is_disabled":false,"rental_uris":{"android":"levelo://app?vid=c79951fb-decf-4678-ba93-6148b6d53564","ios":"levelo://app?vid=c79951fb-decf-4678-ba93-6148b6d53564"},"vehicle_type_id":"4","last_reported":1687723661,"current_range_meters":15600,"station_id":"ce4bgj12rcd13ifvqbc0","pricing_plan_id":"free"},{"bike_id":"3bfba9e6-c19d-4dc4-93dc-c87a91daeaa6","system_id":"levelo_inurba_marseille","lat":43.317557,"lon":5.390173,"is_reserved":false,"is_disabled":false,"rental_uris":{"android":"levelo://app?vid=3bfba9e6-c19d-4dc4-93dc-c87a91daeaa6","ios":"levelo://app?vid=3bfba9e6-c19d-4dc4-93dc-c87a91daeaa6"},"vehicle_type_id":"4","last_reported":1687723661,"current_range_meters":0,"station_id":"ce4bhqp2rcd13ifvqhng","pricing_plan_id":"free"},{"bike_id":"3ecb1419-ec96-4c17-8e0a-de207f3a5e04","system_id":"levelo_inurba_marseille","lat":43.317557,"lon":5.390173,"is_reserved":false,"is_disabled":false,"rental_uris":{"android":"levelo://app?vid=3ecb1419-ec96-4c17-8e0a-de207f3a5e04","ios":"levelo://app?vid=3ecb1419-ec96-4c17-8e0a-de207f3a5e04"},"vehicle_type_id":"4","last_reported":1687723661,"current_range_meters":30000,"station_id":"ce4bhqp2rcd13ifvqhng","pricing_plan_id":"free"},{"bike_id":"4ee2e845-b7e0-4a97-b81e-b7a91c481129","system_id":"levelo_inurba_marseille","lat":43.296248,"lon":5.377574,"is_reserved":false,"is_disabled":false,"rental_uris":{"android":"levelo://app?vid=4ee2e845-b7e0-4a97-b81e-b7a91c481129","ios":"levelo://app?vid=4ee2e845-b7e0-4a97-b81e-b7a91c481129"},"vehicle_type_id":"4","last_reported":1687723661,"current_range_meters":0,"station_id":"ce4bgi92rcd13ifvqb90","pricing_plan_id":"free"},{"bike_id":"22b1496a-c5aa-479d-98f1-523f5ea70a36","system_id":"levelo_inurba_marseille","lat":43.29606,"lon":5.37731,"is_reserved":false,"is_disabled":false,"rental_uris":{"android":"levelo://app?vid=22b1496a-c5aa-479d-98f1-523f5ea70a36","ios":"levelo://app?vid=22b1496a-c5aa-479d-98f1-523f5ea70a36"},"vehicle_type_id":"4","last_reported":1687723661,"current_range_meters":2400,"station_id":"","pricing_plan_id":"free"},{"bike_id":"53b86de2-3e4e-4ec9-a8b8-5c45e30fd601","system_id":"levelo_inurba_marseille","lat":43.29539,"lon":5.37506,"is_reserved":false,"is_disabled":false,"rental_uris":{"android":"levelo://app?vid=53b86de2-3e4e-4ec9-a8b8-5c45e30fd601","ios":"levelo://app?vid=53b86de2-3e4e-4ec9-a8b8-5c45e30fd601"},"vehicle_type_id":"4","last_reported":1687723661,"current_range_meters":6000,"station_id":"ce4bgkp2rcd13ifvqbmg","pricing_plan_id":"free"},{"bike_id":"02058e73-03e8-48d5-953d-353c0edada40","system_id":"levelo_inurba_marseille","lat":43.299717,"lon":5.384845,"is_reserved":false,"is_disabled":false,"rental_uris":{"android":"levelo://app?vid=02058e73-03e8-48d5-953d-353c0edada40","ios":"levelo://app?vid=02058e73-03e8-48d5-953d-353c0edada40"},"vehicle_type_id":"4","last_reported":1687723661,"current_range_meters":0,"station_id":"ce4bgj92rcd13ifvqbd0","pricing_plan_id":"free"},{"bike_id":"f5cb7ad1-8b43-4595-bd1f-fee159de5733","system_id":"levelo_inurba_marseille","lat":43.299724,"lon":5.384848,"is_reserved":false,"is_disabled":false,"rental_uris":{"android":"levelo://app?vid=f5cb7ad1-8b43-4595-bd1f-fee159de5733","ios":"levelo://app?vid=f5cb7ad1-8b43-4595-bd1f-fee159de5733"},"vehicle_type_id":"4","last_reported":1687723661,"current_range_meters":3200,"station_id":"ce4bgj92rcd13ifvqbd0","pricing_plan_id":"free"},{"bike_id":"2d0c369d-2cb5-4e48-bea9-5765e9d89cf4","system_id":"levelo_inurba_marseille","lat":43.32367,"lon":5.388836,"is_reserved":false,"is_disabled":false,"rental_uris":{"android":"levelo://app?vid=2d0c369d-2cb5-4e48-bea9-5765e9d89cf4","ios":"levelo://app?vid=2d0c369d-2cb5-4e48-bea9-5765e9d89cf4"},"vehicle_type_id":"4","last_reported":1687723661,"current_range_meters":14000,"station_id":"ce4bhqp2rcd13ifvqhog","pricing_plan_id":"free"},{"bike_id":"f8b75470-30e0-4426-a8e3-8578c064d86f","system_id":"levelo_inurba_marseille","lat":43.32367,"lon":5.388836,"is_reserved":false,"is_disabled":false,"rental_uris":{"android":"levelo://app?vid=f8b75470-30e0-4426-a8e3-8578c064d86f","ios":"levelo://app?vid=f8b75470-30e0-4426-a8e3-8578c064d86f"},"vehicle_type_id":"4","last_reported":1687723661,"current_range_meters":2000,"station_id":"ce4bhqp2rcd13ifvqhog","pricing_plan_id":"free"},{"bike_id":"47274d14-05f9-4676-9d7a-13e812c41f71","system_id":"levelo_inurba_marseille","lat":43.32367,"lon":5.388836,"is_reserved":false,"is_disabled":false,"rental_uris":{"android":"levelo://app?vid=47274d14-05f9-4676-9d7a-13e812c41f71","ios":"levelo://app?vid=47274d14-05f9-4676-9d7a-13e812c41f71"},"vehicle_type_id":"4","last_reported":1687723661,"current_range_meters":22000,"station_id":"ce4bhqp2rcd13ifvqhog","pricing_plan_id":"free"},{"bike_id":"0b04b9fe-d496-4208-a0ab-06556ff04c58","system_id":"levelo_inurba_marseille","lat":43.305994,"lon":5.393687,"is_reserved":false,"is_disabled":false,"rental_uris":{"android":"levelo://app?vid=0b04b9fe-d496-4208-a0ab-06556ff04c58","ios":"levelo://app?vid=0b04b9fe-d496-4208-a0ab-06556ff04c58"},"vehicle_type_id":"4","last_reported":1687723661,"current_range_meters":6000,"station_id":"ce4bh0p2rcd13ifvqd80","pricing_plan_id":"free"},{"bike_id":"5cbaa9ad-7e49-436a-8d33-258fdb26cf41","system_id":"levelo_inurba_marseille","lat":43.305994,"lon":5.393687,"is_reserved":false,"is_disabled":false,"rental_uris":{"android":"levelo://app?vid=5cbaa9ad-7e49-436a-8d33-258fdb26cf41","ios":"levelo://app?vid=5cbaa9ad-7e49-436a-8d33-258fdb26cf41"},"vehicle_type_id":"4","last_reported":1687723661,"current_range_meters":10000,"station_id":"ce4bh0p2rcd13ifvqd80","pricing_plan_id":"free"},{"bike_id":"1f421785-5820-4db5-9a24-ead6d7e14e6e","system_id":"levelo_inurba_marseille","lat":43.2936,"lon":5.37835,"is_reserved":false,"is_disabled":false,"rental_uris":{"android":"levelo://app?vid=1f421785-5820-4db5-9a24-ead6d7e14e6e","ios":"levelo://app?vid=1f421785-5820-4db5-9a24-ead6d7e14e6e"},"vehicle_type_id":"4","last_reported":1687723661,"current_range_meters":28800,"station_id":"ce4bgjh2rcd13ifvqbf0","pricing_plan_id":"free"},{"bike_id":"9b31ba1e-28f1-4e55-a18e-672a018958cb","system_id":"levelo_inurba_marseille","lat":43.29257,"lon":5.35969,"is_reserved":false,"is_disabled":false,"rental_uris":{"android":"levelo://app?vid=9b31ba1e-28f1-4e55-a18e-672a018958cb","ios":"levelo://app?vid=9b31ba1e-28f1-4e55-a18e-672a018958cb"},"vehicle_type_id":"4","last_reported":1687723661,"current_range_meters":14400,"station_id":"","pricing_plan_id":"free"},{"bike_id":"330938fd-88c0-4be8-a842-88394afae957","system_id":"levelo_inurba_marseille","lat":43.2936,"lon":5.37835,"is_reserved":false,"is_disabled":false,"rental_uris":{"android":"levelo://app?vid=330938fd-88c0-4be8-a842-88394afae957","ios":"levelo://app?vid=330938fd-88c0-4be8-a842-88394afae957"},"vehicle_type_id":"4","last_reported":1687723661,"current_range_meters":6400,"station_id":"ce4bgjh2rcd13ifvqbf0","pricing_plan_id":"free"},{"bike_id":"fae6d042-eb49-48e8-8f87-e9f8edba6994","system_id":"levelo_inurba_marseille","lat":43.298764,"lon":5.388973,"is_reserved":false,"is_disabled":false,"rental_uris":{"android":"levelo://app?vid=fae6d042-eb49-48e8-8f87-e9f8edba6994","ios":"levelo://app?vid=fae6d042-eb49-48e8-8f87-e9f8edba6994"},"vehicle_type_id":"4","last_reported":1687723661,"current_range_meters":10400,"station_id":"ce4bh392rcd13ifvqdl0","pricing_plan_id":"free"},{"bike_id":"bc7073f4-4c6d-422f-924a-3cad71517802","system_id":"levelo_inurba_marseille","lat":43.309038,"lon":5.396546,"is_reserved":false,"is_disabled":false,"rental_uris":{"android":"levelo://app?vid=bc7073f4-4c6d-422f-924a-3cad71517802","ios":"levelo://app?vid=bc7073f4-4c6d-422f-924a-3cad71517802"},"vehicle_type_id":"4","last_reported":1687723661,"current_range_meters":9200,"station_id":"ce4bh012rcd13ifvqcv0","pricing_plan_id":"free"},{"bike_id":"11b32d42-3534-4f4b-807c-4c1bae185dec","system_id":"levelo_inurba_marseille","lat":43.313291,"lon":5.396838,"is_reserved":false,"is_disabled":false,"rental_uris":{"android":"levelo://app?vid=11b32d42-3534-4f4b-807c-4c1bae185dec","ios":"levelo://app?vid=11b32d42-3534-4f4b-807c-4c1bae185dec"},"vehicle_type_id":"4","last_reported":1687723661,"current_range_meters":16400,"station_id":"ce4bgvp2rcd13ifvqcu0","pricing_plan_id":"free"},{"bike_id":"07f59fbe-a8ea-4638-8515-37e1b5bcdbfa","system_id":"levelo_inurba_marseille","lat":43.313291,"lon":5.396838,"is_reserved":false,"is_disabled":false,"rental_uris":{"android":"levelo://app?vid=07f59fbe-a8ea-4638-8515-37e1b5bcdbfa","ios":"levelo://app?vid=07f59fbe-a8ea-4638-8515-37e1b5bcdbfa"},"vehicle_type_id":"4","last_reported":1687723661,"current_range_meters":8000,"station_id":"ce4bgvp2rcd13ifvqcu0","pricing_plan_id":"free"},{"bike_id":"f7ff86ff-a9d1-468f-9fd2-d34e00499165","system_id":"levelo_inurba_marseille","lat":43.29529,"lon":5.385581,"is_reserved":false,"is_disabled":false,"rental_uris":{"android":"levelo://app?vid=f7ff86ff-a9d1-468f-9fd2-d34e00499165","ios":"levelo://app?vid=f7ff86ff-a9d1-468f-9fd2-d34e00499165"},"vehicle_type_id":"4","last_reported":1687723661,"current_range_meters":24000,"station_id":"ce4bgih2rcd13ifvqba0","pricing_plan_id":"free"},{"bike_id":"2a057db6-b6f1-41c1-b9da-75e66223fd5b","system_id":"levelo_inurba_marseille","lat":43.29529,"lon":5.385581,"is_reserved":false,"is_disabled":false,"rental_uris":{"android":"levelo://app?vid=2a057db6-b6f1-41c1-b9da-75e66223fd5b","ios":"levelo://app?vid=2a057db6-b6f1-41c1-b9da-75e66223fd5b"},"vehicle_type_id":"4","last_reported":1687723661,"current_range_meters":15200,"station_id":"ce4bgih2rcd13ifvqba0","pricing_plan_id":"free"},{"bike_id":"76901805-0ac6-4847-a121-ce20baaef1da","system_id":"levelo_inurba_marseille","lat":43.290327,"lon":5.375711,"is_reserved":false,"is_disabled":false,"rental_uris":{"android":"levelo://app?vid=76901805-0ac6-4847-a121-ce20baaef1da","ios":"levelo://app?vid=76901805-0ac6-4847-a121-ce20baaef1da"},"vehicle_type_id":"4","last_reported":1687723661,"current_range_meters":19600,"station_id":"ce4bh692rcd13ifvqe90","pricing_plan_id":"free"},{"bike_id":"c2c64789-6c53-4507-9ddb-d45f6fade8a5","system_id":"levelo_inurba_marseille","lat":43.289184,"lon":5.366408,"is_reserved":false,"is_disabled":false,"rental_uris":{"android":"levelo://app?vid=c2c64789-6c53-4507-9ddb-d45f6fade8a5","ios":"levelo://app?vid=c2c64789-6c53-4507-9ddb-d45f6fade8a5"},"vehicle_type_id":"4","last_reported":1687723661,"current_range_meters":23600,"station_id":"ce4bhap2rcd13ifvqek0","pricing_plan_id":"free"},{"bike_id":"7d0b6dcd-e066-435b-8f19-4aceb2fedd86","system_id":"levelo_inurba_marseille","lat":43.29419,"lon":5.38628,"is_reserved":false,"is_disabled":false,"rental_uris":{"android":"levelo://app?vid=7d0b6dcd-e066-435b-8f19-4aceb2fedd86","ios":"levelo://app?vid=7d0b6dcd-e066-435b-8f19-4aceb2fedd86"},"vehicle_type_id":"4","last_reported":1687723661,"current_range_meters":7600,"station_id":"ce4bh2h2rcd13ifvqdh0","pricing_plan_id":"free"},{"bike_id":"20b2702a-2cf1-439f-b7da-41f192fa1a0a","system_id":"levelo_inurba_marseille","lat":43.29411,"lon":5.38614,"is_reserved":false,"is_disabled":false,"rental_uris":{"android":"levelo://app?vid=20b2702a-2cf1-439f-b7da-41f192fa1a0a","ios":"levelo://app?vid=20b2702a-2cf1-439f-b7da-41f192fa1a0a"},"vehicle_type_id":"4","last_reported":1687723661,"current_range_meters":14400,"station_id":"","pricing_plan_id":"free"},{"bike_id":"c99d3f35-4ee8-4798-9477-667e7f688008","system_id":"levelo_inurba_marseille","lat":43.28942,"lon":5.36634,"is_reserved":false,"is_disabled":false,"rental_uris":{"android":"levelo://app?vid=c99d3f35-4ee8-4798-9477-667e7f688008","ios":"levelo://app?vid=c99d3f35-4ee8-4798-9477-667e7f688008"},"vehicle_type_id":"4","last_reported":1687723661,"current_range_meters":27600,"station_id":"ce4bhap2rcd13ifvqek0","pricing_plan_id":"free"},{"bike_id":"87a64a83-47b1-434e-8562-f680eea69630","system_id":"levelo_inurba_marseille","lat":43.292644,"lon":5.384257,"is_reserved":false,"is_disabled":false,"rental_uris":{"android":"levelo://app?vid=87a64a83-47b1-434e-8562-f680eea69630","ios":"levelo://app?vid=87a64a83-47b1-434e-8562-f680eea69630"},"vehicle_type_id":"4","last_reported":1687723661,"current_range_meters":1200,"station_id":"ce4bh692rcd13ifvqea0","pricing_plan_id":"free"},{"bike_id":"2b20ddc7-06d7-476e-9f95-274941a8a4b3","system_id":"levelo_inurba_marseille","lat":43.292642,"lon":5.384254,"is_reserved":false,"is_disabled":false,"rental_uris":{"android":"levelo://app?vid=2b20ddc7-06d7-476e-9f95-274941a8a4b3","ios":"levelo://app?vid=2b20ddc7-06d7-476e-9f95-274941a8a4b3"},"vehicle_type_id":"4","last_reported":1687723661,"current_range_meters":12000,"station_id":"ce4bh692rcd13ifvqea0","pricing_plan_id":"free"},{"bike_id":"910a43b0-28e4-4763-b889-937235fc3fc1","system_id":"levelo_inurba_marseille","lat":43.292642,"lon":5.384254,"is_reserved":false,"is_disabled":false,"rental_uris":{"android":"levelo://app?vid=910a43b0-28e4-4763-b889-937235fc3fc1","ios":"levelo://app?vid=910a43b0-28e4-4763-b889-937235fc3fc1"},"vehicle_type_id":"4","last_reported":1687723661,"current_range_meters":25200,"station_id":"ce4bh692rcd13ifvqea0","pricing_plan_id":"free"},{"bike_id":"59901a51-4528-4b0d-ad24-51d7f7c6398c","system_id":"levelo_inurba_marseille","lat":43.30425,"lon":5.39751,"is_reserved":false,"is_disabled":false,"rental_uris":{"android":"levelo://app?vid=59901a51-4528-4b0d-ad24-51d7f7c6398c","ios":"levelo://app?vid=59901a51-4528-4b0d-ad24-51d7f7c6398c"},"vehicle_type_id":"4","last_reported":1687723661,"current_range_meters":0,"station_id":"","pricing_plan_id":"free"},{"bike_id":"ce053c1f-9adc-4bf5-8823-9fc545216b8e","system_id":"levelo_inurba_marseille","lat":43.292644,"lon":5.384257,"is_reserved":false,"is_disabled":false,"rental_uris":{"android":"levelo://app?vid=ce053c1f-9adc-4bf5-8823-9fc545216b8e","ios":"levelo://app?vid=ce053c1f-9adc-4bf5-8823-9fc545216b8e"},"vehicle_type_id":"4","last_reported":1687723661,"current_range_meters":22400,"station_id":"ce4bh692rcd13ifvqea0","pricing_plan_id":"free"},{"bike_id":"818d7638-60cd-4ed1-b511-ee4eed048494","system_id":"levelo_inurba_marseille","lat":43.33039,"lon":5.38919,"is_reserved":false,"is_disabled":false,"rental_uris":{"android":"levelo://app?vid=818d7638-60cd-4ed1-b511-ee4eed048494","ios":"levelo://app?vid=818d7638-60cd-4ed1-b511-ee4eed048494"},"vehicle_type_id":"4","last_reported":1687723661,"current_range_meters":18000,"station_id":"ce4bhr92rcd13ifvqhrg","pricing_plan_id":"free"},{"bike_id":"3f039326-0f68-4a25-9a33-caaed65fc37c","system_id":"levelo_inurba_marseille","lat":43.290103,"lon":5.356114,"is_reserved":false,"is_disabled":false,"rental_uris":{"android":"levelo://app?vid=3f039326-0f68-4a25-9a33-caaed65fc37c","ios":"levelo://app?vid=3f039326-0f68-4a25-9a33-caaed65fc37c"},"vehicle_type_id":"4","last_reported":1687723661,"current_range_meters":24400,"station_id":"ce4bhb92rcd13ifvqen0","pricing_plan_id":"free"},{"bike_id":"0bcf4aa1-b17e-4290-a017-fd8db1c73ca0","system_id":"levelo_inurba_marseille","lat":43.290995,"lon":5.381361,"is_reserved":false,"is_disabled":false,"rental_uris":{"android":"levelo://app?vid=0bcf4aa1-b17e-4290-a017-fd8db1c73ca0","ios":"levelo://app?vid=0bcf4aa1-b17e-4290-a017-fd8db1c73ca0"},"vehicle_type_id":"4","last_reported":1687723661,"current_range_meters":1200,"station_id":"ce4bh512rcd13ifvqe2g","pricing_plan_id":"free"},{"bike_id":"2780d116-cdad-4df7-89e0-a4105bbd8647","system_id":"levelo_inurba_marseille","lat":43.29798,"lon":5.3934,"is_reserved":false,"is_disabled":false,"rental_uris":{"android":"levelo://app?vid=2780d116-cdad-4df7-89e0-a4105bbd8647","ios":"levelo://app?vid=2780d116-cdad-4df7-89e0-a4105bbd8647"},"vehicle_type_id":"4","last_reported":1687723661,"current_range_meters":4400,"station_id":"chh1huq6cuj3fo74tm60","pricing_plan_id":"free"},{"bike_id":"87b1df15-ffe4-4c81-80c6-2b9135af80c5","system_id":"levelo_inurba_marseille","lat":43.297815,"lon":5.393548,"is_reserved":false,"is_disabled":false,"rental_uris":{"android":"levelo://app?vid=87b1df15-ffe4-4c81-80c6-2b9135af80c5","ios":"levelo://app?vid=87b1df15-ffe4-4c81-80c6-2b9135af80c5"},"vehicle_type_id":"4","last_reported":1687723661,"current_range_meters":22000,"station_id":"chh1huq6cuj3fo74tm60","pricing_plan_id":"free"},{"bike_id":"15bf089a-9f1a-4749-ad22-20311b6c7930","system_id":"levelo_inurba_marseille","lat":43.297815,"lon":5.393548,"is_reserved":false,"is_disabled":false,"rental_uris":{"android":"levelo://app?vid=15bf089a-9f1a-4749-ad22-20311b6c7930","ios":"levelo://app?vid=15bf089a-9f1a-4749-ad22-20311b6c7930"},"vehicle_type_id":"4","last_reported":1687723661,"current_range_meters":11600,"station_id":"chh1huq6cuj3fo74tm60","pricing_plan_id":"free"},{"bike_id":"b7ca036e-2294-4e9f-a3bc-80959c86bc34","system_id":"levelo_inurba_marseille","lat":43.29517,"lon":5.39036,"is_reserved":false,"is_disabled":false,"rental_uris":{"android":"levelo://app?vid=b7ca036e-2294-4e9f-a3bc-80959c86bc34","ios":"levelo://app?vid=b7ca036e-2294-4e9f-a3bc-80959c86bc34"},"vehicle_type_id":"4","last_reported":1687723661,"current_range_meters":14800,"station_id":"ce4bh3p2rcd13ifvqdp0","pricing_plan_id":"free"},{"bike_id":"c9da34c5-17de-496b-aed1-0a27c795bea8","system_id":"levelo_inurba_marseille","lat":43.2901,"lon":5.381269,"is_reserved":false,"is_disabled":false,"rental_uris":{"android":"levelo://app?vid=c9da34c5-17de-496b-aed1-0a27c795bea8","ios":"levelo://app?vid=c9da34c5-17de-496b-aed1-0a27c795bea8"},"vehicle_type_id":"4","last_reported":1687723661,"current_range_meters":15200,"station_id":"ce4bh4p2rcd13ifvqe1g","pricing_plan_id":"free"},{"bike_id":"37362a46-5a21-4a8f-8439-5e4ba3e178bf","system_id":"levelo_inurba_marseille","lat":43.2901,"lon":5.381269,"is_reserved":false,"is_disabled":false,"rental_uris":{"android":"levelo://app?vid=37362a46-5a21-4a8f-8439-5e4ba3e178bf","ios":"levelo://app?vid=37362a46-5a21-4a8f-8439-5e4ba3e178bf"},"vehicle_type_id":"4","last_reported":1687723661,"current_range_meters":0,"station_id":"ce4bh4p2rcd13ifvqe1g","pricing_plan_id":"free"},{"bike_id":"c180ae38-f769-441f-8a55-5a6e4930e6ad","system_id":"levelo_inurba_marseille","lat":43.3375,"lon":5.37439,"is_reserved":false,"is_disabled":false,"rental_uris":{"android":"levelo://app?vid=c180ae38-f769-441f-8a55-5a6e4930e6ad","ios":"levelo://app?vid=c180ae38-f769-441f-8a55-5a6e4930e6ad"},"vehicle_type_id":"4","last_reported":1687723661,"current_range_meters":19600,"station_id":"","pricing_plan_id":"free"},{"bike_id":"42467928-9718-4905-a83f-4a0a594fb894","system_id":"levelo_inurba_marseille","lat":43.33749,"lon":5.37467,"is_reserved":false,"is_disabled":false,"rental_uris":{"android":"levelo://app?vid=42467928-9718-4905-a83f-4a0a594fb894","ios":"levelo://app?vid=42467928-9718-4905-a83f-4a0a594fb894"},"vehicle_type_id":"4","last_reported":1687723661,"current_range_meters":24800,"station_id":"","pricing_plan_id":"free"},{"bike_id":"3f8a925a-6a54-4259-a38f-9cf091aab246","system_id":"levelo_inurba_marseille","lat":43.29225,"lon":5.3876,"is_reserved":false,"is_disabled":false,"rental_uris":{"android":"levelo://app?vid=3f8a925a-6a54-4259-a38f-9cf091aab246","ios":"levelo://app?vid=3f8a925a-6a54-4259-a38f-9cf091aab246"},"vehicle_type_id":"4","last_reported":1687723661,"current_range_meters":14800,"station_id":"","pricing_plan_id":"free"},{"bike_id":"7d731757-9037-44c4-878a-0e7642453270","system_id":"levelo_inurba_marseille","lat":43.28761,"lon":5.37332,"is_reserved":false,"is_disabled":false,"rental_uris":{"android":"levelo://app?vid=7d731757-9037-44c4-878a-0e7642453270","ios":"levelo://app?vid=7d731757-9037-44c4-878a-0e7642453270"},"vehicle_type_id":"4","last_reported":1687723661,"current_range_meters":0,"station_id":"","pricing_plan_id":"free"},{"bike_id":"f3fbba3e-7a9b-4403-9fa0-39de38b47729","system_id":"levelo_inurba_marseille","lat":43.301117,"lon":5.398795,"is_reserved":false,"is_disabled":false,"rental_uris":{"android":"levelo://app?vid=f3fbba3e-7a9b-4403-9fa0-39de38b47729","ios":"levelo://app?vid=f3fbba3e-7a9b-4403-9fa0-39de38b47729"},"vehicle_type_id":"4","last_reported":1687723661,"current_range_meters":23200,"station_id":"ce4bh0h2rcd13ifvqd40","pricing_plan_id":"free"},{"bike_id":"dc685299-3321-483a-94c8-4b1f0788ecf9","system_id":"levelo_inurba_marseille","lat":43.30139,"lon":5.39851,"is_reserved":false,"is_disabled":false,"rental_uris":{"android":"levelo://app?vid=dc685299-3321-483a-94c8-4b1f0788ecf9","ios":"levelo://app?vid=dc685299-3321-483a-94c8-4b1f0788ecf9"},"vehicle_type_id":"4","last_reported":1687723661,"current_range_meters":2000,"station_id":"","pricing_plan_id":"free"},{"bike_id":"d36d6496-6c2b-471e-8925-af4a195efd59","system_id":"levelo_inurba_marseille","lat":43.301117,"lon":5.398795,"is_reserved":false,"is_disabled":false,"rental_uris":{"android":"levelo://app?vid=d36d6496-6c2b-471e-8925-af4a195efd59","ios":"levelo://app?vid=d36d6496-6c2b-471e-8925-af4a195efd59"},"vehicle_type_id":"4","last_reported":1687723661,"current_range_meters":23200,"station_id":"ce4bh0h2rcd13ifvqd40","pricing_plan_id":"free"},{"bike_id":"5890bf60-a488-4738-b333-f06a8af5384d","system_id":"levelo_inurba_marseille","lat":43.30131,"lon":5.39865,"is_reserved":false,"is_disabled":false,"rental_uris":{"android":"levelo://app?vid=5890bf60-a488-4738-b333-f06a8af5384d","ios":"levelo://app?vid=5890bf60-a488-4738-b333-f06a8af5384d"},"vehicle_type_id":"4","last_reported":1687723661,"current_range_meters":0,"station_id":"ce4bh0h2rcd13ifvqd40","pricing_plan_id":"free"},{"bike_id":"ef808a0f-af8c-4c89-9958-0a0550040019","system_id":"levelo_inurba_marseille","lat":43.30139,"lon":5.39873,"is_reserved":false,"is_disabled":false,"rental_uris":{"android":"levelo://app?vid=ef808a0f-af8c-4c89-9958-0a0550040019","ios":"levelo://app?vid=ef808a0f-af8c-4c89-9958-0a0550040019"},"vehicle_type_id":"4","last_reported":1687723661,"current_range_meters":27200,"station_id":"","pricing_plan_id":"free"},{"bike_id":"4031a71b-30e4-4a19-863b-8f9ed086bbff","system_id":"levelo_inurba_marseille","lat":43.30129,"lon":5.39867,"is_reserved":false,"is_disabled":false,"rental_uris":{"android":"levelo://app?vid=4031a71b-30e4-4a19-863b-8f9ed086bbff","ios":"levelo://app?vid=4031a71b-30e4-4a19-863b-8f9ed086bbff"},"vehicle_type_id":"4","last_reported":1687723661,"current_range_meters":26400,"station_id":"","pricing_plan_id":"free"},{"bike_id":"a70759f2-8c02-48e9-9445-270a715fb452","system_id":"levelo_inurba_marseille","lat":43.301117,"lon":5.398795,"is_reserved":false,"is_disabled":false,"rental_uris":{"android":"levelo://app?vid=a70759f2-8c02-48e9-9445-270a715fb452","ios":"levelo://app?vid=a70759f2-8c02-48e9-9445-270a715fb452"},"vehicle_type_id":"4","last_reported":1687723661,"current_range_meters":13200,"station_id":"ce4bh0h2rcd13ifvqd40","pricing_plan_id":"free"},{"bike_id":"c506a433-7813-48ae-9235-f43fc68a8f88","system_id":"levelo_inurba_marseille","lat":43.28714,"lon":5.36239,"is_reserved":false,"is_disabled":false,"rental_uris":{"android":"levelo://app?vid=c506a433-7813-48ae-9235-f43fc68a8f88","ios":"levelo://app?vid=c506a433-7813-48ae-9235-f43fc68a8f88"},"vehicle_type_id":"4","last_reported":1687723661,"current_range_meters":6400,"station_id":"","pricing_plan_id":"free"},{"bike_id":"d5a106c6-369c-444c-91b3-7c01c56ba7f8","system_id":"levelo_inurba_marseille","lat":43.286961,"lon":5.373785,"is_reserved":false,"is_disabled":false,"rental_uris":{"android":"levelo://app?vid=d5a106c6-369c-444c-91b3-7c01c56ba7f8","ios":"levelo://app?vid=d5a106c6-369c-444c-91b3-7c01c56ba7f8"},"vehicle_type_id":"4","last_reported":1687723661,"current_range_meters":29600,"station_id":"ce4bh3p2rcd13ifvqdq0","pricing_plan_id":"free"},{"bike_id":"b0553f83-db2b-4ec3-b215-12c99c205005","system_id":"levelo_inurba_marseille","lat":43.298681,"lon":5.397225,"is_reserved":false,"is_disabled":false,"rental_uris":{"android":"levelo://app?vid=b0553f83-db2b-4ec3-b215-12c99c205005","ios":"levelo://app?vid=b0553f83-db2b-4ec3-b215-12c99c205005"},"vehicle_type_id":"4","last_reported":1687723661,"current_range_meters":8400,"station_id":"ce4bh0h2rcd13ifvqd50","pricing_plan_id":"free"},{"bike_id":"82f83f79-3807-4882-9781-390d810bf5a8","system_id":"levelo_inurba_marseille","lat":43.286591,"lon":5.363346,"is_reserved":false,"is_disabled":false,"rental_uris":{"android":"levelo://app?vid=82f83f79-3807-4882-9781-390d810bf5a8","ios":"levelo://app?vid=82f83f79-3807-4882-9781-390d810bf5a8"},"vehicle_type_id":"4","last_reported":1687723661,"current_range_meters":6800,"station_id":"ce4bhah2rcd13ifvqej0","pricing_plan_id":"free"},{"bike_id":"9f1d47a8-c1ae-4560-be5f-c4f43fb02438","system_id":"levelo_inurba_marseille","lat":43.286591,"lon":5.363346,"is_reserved":false,"is_disabled":false,"rental_uris":{"android":"levelo://app?vid=9f1d47a8-c1ae-4560-be5f-c4f43fb02438","ios":"levelo://app?vid=9f1d47a8-c1ae-4560-be5f-c4f43fb02438"},"vehicle_type_id":"4","last_reported":1687723661,"current_range_meters":28400,"station_id":"ce4bhah2rcd13ifvqej0","pricing_plan_id":"free"},{"bike_id":"c66614ba-ab77-4383-80f7-46060f8858c1","system_id":"levelo_inurba_marseille","lat":43.286961,"lon":5.373785,"is_reserved":false,"is_disabled":false,"rental_uris":{"android":"levelo://app?vid=c66614ba-ab77-4383-80f7-46060f8858c1","ios":"levelo://app?vid=c66614ba-ab77-4383-80f7-46060f8858c1"},"vehicle_type_id":"4","last_reported":1687723661,"current_range_meters":2000,"station_id":"ce4bh3p2rcd13ifvqdq0","pricing_plan_id":"free"},{"bike_id":"9cec1af9-ddfc-43c5-9631-15a81bab4ecf","system_id":"levelo_inurba_marseille","lat":43.286961,"lon":5.373785,"is_reserved":false,"is_disabled":false,"rental_uris":{"android":"levelo://app?vid=9cec1af9-ddfc-43c5-9631-15a81bab4ecf","ios":"levelo://app?vid=9cec1af9-ddfc-43c5-9631-15a81bab4ecf"},"vehicle_type_id":"4","last_reported":1687723661,"current_range_meters":26800,"station_id":"ce4bh3p2rcd13ifvqdq0","pricing_plan_id":"free"},{"bike_id":"e24d21f0-191a-45d2-8aeb-0545153f8c57","system_id":"levelo_inurba_marseille","lat":43.298681,"lon":5.397225,"is_reserved":false,"is_disabled":false,"rental_uris":{"android":"levelo://app?vid=e24d21f0-191a-45d2-8aeb-0545153f8c57","ios":"levelo://app?vid=e24d21f0-191a-45d2-8aeb-0545153f8c57"},"vehicle_type_id":"4","last_reported":1687723661,"current_range_meters":5600,"station_id":"ce4bh0h2rcd13ifvqd50","pricing_plan_id":"free"},{"bike_id":"9bee00b2-39d4-4da8-a19e-e8554849ab4a","system_id":"levelo_inurba_marseille","lat":43.295196,"lon":5.39397,"is_reserved":false,"is_disabled":false,"rental_uris":{"android":"levelo://app?vid=9bee00b2-39d4-4da8-a19e-e8554849ab4a","ios":"levelo://app?vid=9bee00b2-39d4-4da8-a19e-e8554849ab4a"},"vehicle_type_id":"4","last_reported":1687723661,"current_range_meters":14800,"station_id":"ce4bh292rcd13ifvqdf0","pricing_plan_id":"free"},{"bike_id":"2d258086-1719-48fd-a725-43e0e8cc31a5","system_id":"levelo_inurba_marseille","lat":43.295194,"lon":5.39397,"is_reserved":false,"is_disabled":false,"rental_uris":{"android":"levelo://app?vid=2d258086-1719-48fd-a725-43e0e8cc31a5","ios":"levelo://app?vid=2d258086-1719-48fd-a725-43e0e8cc31a5"},"vehicle_type_id":"4","last_reported":1687723661,"current_range_meters":13200,"station_id":"ce4bh292rcd13ifvqdf0","pricing_plan_id":"free"},{"bike_id":"56eaa9dd-70b9-4e0a-ba1d-361a4d4958e1","system_id":"levelo_inurba_marseille","lat":43.290345,"lon":5.38646,"is_reserved":false,"is_disabled":false,"rental_uris":{"android":"levelo://app?vid=56eaa9dd-70b9-4e0a-ba1d-361a4d4958e1","ios":"levelo://app?vid=56eaa9dd-70b9-4e0a-ba1d-361a4d4958e1"},"vehicle_type_id":"4","last_reported":1687723661,"current_range_meters":27200,"station_id":"ce4bh4p2rcd13ifvqe0g","pricing_plan_id":"free"},{"bike_id":"eda377e8-afab-4ce1-803c-b21532ac1abe","system_id":"levelo_inurba_marseille","lat":43.29036,"lon":5.38649,"is_reserved":false,"is_disabled":false,"rental_uris":{"android":"levelo://app?vid=eda377e8-afab-4ce1-803c-b21532ac1abe","ios":"levelo://app?vid=eda377e8-afab-4ce1-803c-b21532ac1abe"},"vehicle_type_id":"4","last_reported":1687723661,"current_range_meters":400,"station_id":"ce4bh4p2rcd13ifvqe0g","pricing_plan_id":"free"},{"bike_id":"4b7d5ada-c0df-489f-a20c-65f457aba958","system_id":"levelo_inurba_marseille","lat":43.302759,"lon":5.400793,"is_reserved":false,"is_disabled":false,"rental_uris":{"android":"levelo://app?vid=4b7d5ada-c0df-489f-a20c-65f457aba958","ios":"levelo://app?vid=4b7d5ada-c0df-489f-a20c-65f457aba958"},"vehicle_type_id":"4","last_reported":1687723661,"current_range_meters":2000,"station_id":"ce4bgvh2rcd13ifvqcs0","pricing_plan_id":"free"},{"bike_id":"7b059d2f-f9a5-4d48-932d-acaf143574a5","system_id":"levelo_inurba_marseille","lat":43.290336,"lon":5.386425,"is_reserved":false,"is_disabled":false,"rental_uris":{"android":"levelo://app?vid=7b059d2f-f9a5-4d48-932d-acaf143574a5","ios":"levelo://app?vid=7b059d2f-f9a5-4d48-932d-acaf143574a5"},"vehicle_type_id":"4","last_reported":1687723661,"current_range_meters":9600,"station_id":"ce4bh4p2rcd13ifvqe0g","pricing_plan_id":"free"},{"bike_id":"1ae38f23-f1ec-4236-b4cc-9467ce2817f6","system_id":"levelo_inurba_marseille","lat":43.302759,"lon":5.400793,"is_reserved":false,"is_disabled":false,"rental_uris":{"android":"levelo://app?vid=1ae38f23-f1ec-4236-b4cc-9467ce2817f6","ios":"levelo://app?vid=1ae38f23-f1ec-4236-b4cc-9467ce2817f6"},"vehicle_type_id":"4","last_reported":1687723661,"current_range_meters":12400,"station_id":"ce4bgvh2rcd13ifvqcs0","pricing_plan_id":"free"},{"bike_id":"a317d320-63d1-4e54-a687-5458e4c0f7ee","system_id":"levelo_inurba_marseille","lat":43.302759,"lon":5.400793,"is_reserved":false,"is_disabled":false,"rental_uris":{"android":"levelo://app?vid=a317d320-63d1-4e54-a687-5458e4c0f7ee","ios":"levelo://app?vid=a317d320-63d1-4e54-a687-5458e4c0f7ee"},"vehicle_type_id":"4","last_reported":1687723661,"current_range_meters":13600,"station_id":"ce4bgvh2rcd13ifvqcs0","pricing_plan_id":"free"},{"bike_id":"417e4604-e7b7-4dc7-a775-585aed5351b8","system_id":"levelo_inurba_marseille","lat":43.28613,"lon":5.37059,"is_reserved":false,"is_disabled":false,"rental_uris":{"android":"levelo://app?vid=417e4604-e7b7-4dc7-a775-585aed5351b8","ios":"levelo://app?vid=417e4604-e7b7-4dc7-a775-585aed5351b8"},"vehicle_type_id":"4","last_reported":1687723661,"current_range_meters":7600,"station_id":"ce4bht12rcd13ifvqi60","pricing_plan_id":"free"},{"bike_id":"5e0e9d0d-8ca1-45e9-be88-7da021293758","system_id":"levelo_inurba_marseille","lat":43.28612,"lon":5.37062,"is_reserved":false,"is_disabled":false,"rental_uris":{"android":"levelo://app?vid=5e0e9d0d-8ca1-45e9-be88-7da021293758","ios":"levelo://app?vid=5e0e9d0d-8ca1-45e9-be88-7da021293758"},"vehicle_type_id":"4","last_reported":1687723661,"current_range_meters":7200,"station_id":"ce4bht12rcd13ifvqi60","pricing_plan_id":"free"},{"bike_id":"7d024650-5431-4595-9821-68a45a66cc6d","system_id":"levelo_inurba_marseille","lat":43.28611,"lon":5.37068,"is_reserved":false,"is_disabled":false,"rental_uris":{"android":"levelo://app?vid=7d024650-5431-4595-9821-68a45a66cc6d","ios":"levelo://app?vid=7d024650-5431-4595-9821-68a45a66cc6d"},"vehicle_type_id":"4","last_reported":1687723661,"current_range_meters":20000,"station_id":"ce4bht12rcd13ifvqi60","pricing_plan_id":"free"},{"bike_id":"e28a144c-7b76-4698-b455-435d6c7efee8","system_id":"levelo_inurba_marseille","lat":43.2861,"lon":5.37061,"is_reserved":false,"is_disabled":false,"rental_uris":{"android":"levelo://app?vid=e28a144c-7b76-4698-b455-435d6c7efee8","ios":"levelo://app?vid=e28a144c-7b76-4698-b455-435d6c7efee8"},"vehicle_type_id":"4","last_reported":1687723661,"current_range_meters":0,"station_id":"ce4bht12rcd13ifvqi60","pricing_plan_id":"free"},{"bike_id":"dafeadd9-cda8-4e5b-a28b-a60b0b68a73d","system_id":"levelo_inurba_marseille","lat":43.286039,"lon":5.370681,"is_reserved":false,"is_disabled":false,"rental_uris":{"android":"levelo://app?vid=dafeadd9-cda8-4e5b-a28b-a60b0b68a73d","ios":"levelo://app?vid=dafeadd9-cda8-4e5b-a28b-a60b0b68a73d"},"vehicle_type_id":"4","last_reported":1687723661,"current_range_meters":12000,"station_id":"ce4bht12rcd13ifvqi60","pricing_plan_id":"free"},{"bike_id":"429f64d7-8baa-43fd-8cad-3c2a1fcc8b4d","system_id":"levelo_inurba_marseille","lat":43.28604,"lon":5.37072,"is_reserved":false,"is_disabled":false,"rental_uris":{"android":"levelo://app?vid=429f64d7-8baa-43fd-8cad-3c2a1fcc8b4d","ios":"levelo://app?vid=429f64d7-8baa-43fd-8cad-3c2a1fcc8b4d"},"vehicle_type_id":"4","last_reported":1687723661,"current_range_meters":10400,"station_id":"ce4bht12rcd13ifvqi60","pricing_plan_id":"free"},{"bike_id":"a199ae5e-44c6-416e-acdf-5b3a6e2e997d","system_id":"levelo_inurba_marseille","lat":43.286039,"lon":5.370679,"is_reserved":false,"is_disabled":false,"rental_uris":{"android":"levelo://app?vid=a199ae5e-44c6-416e-acdf-5b3a6e2e997d","ios":"levelo://app?vid=a199ae5e-44c6-416e-acdf-5b3a6e2e997d"},"vehicle_type_id":"4","last_reported":1687723661,"current_range_meters":22000,"station_id":"ce4bht12rcd13ifvqi60","pricing_plan_id":"free"},{"bike_id":"dfd6f13d-b94c-44bc-a604-08df8a62b190","system_id":"levelo_inurba_marseille","lat":43.287184,"lon":5.37937,"is_reserved":false,"is_disabled":false,"rental_uris":{"android":"levelo://app?vid=dfd6f13d-b94c-44bc-a604-08df8a62b190","ios":"levelo://app?vid=dfd6f13d-b94c-44bc-a604-08df8a62b190"},"vehicle_type_id":"4","last_reported":1687723661,"current_range_meters":21600,"station_id":"ce4bh9p2rcd13ifvqec0","pricing_plan_id":"free"},{"bike_id":"c0c24f78-945c-446a-86f7-3499ea77a70c","system_id":"levelo_inurba_marseille","lat":43.28588,"lon":5.37444,"is_reserved":false,"is_disabled":false,"rental_uris":{"android":"levelo://app?vid=c0c24f78-945c-446a-86f7-3499ea77a70c","ios":"levelo://app?vid=c0c24f78-945c-446a-86f7-3499ea77a70c"},"vehicle_type_id":"4","last_reported":1687723661,"current_range_meters":0,"station_id":"","pricing_plan_id":"free"},{"bike_id":"a62b9055-af07-430e-88f9-9875c7e94949","system_id":"levelo_inurba_marseille","lat":43.3165,"lon":5.40433,"is_reserved":false,"is_disabled":false,"rental_uris":{"android":"levelo://app?vid=a62b9055-af07-430e-88f9-9875c7e94949","ios":"levelo://app?vid=a62b9055-af07-430e-88f9-9875c7e94949"},"vehicle_type_id":"4","last_reported":1687723661,"current_range_meters":9600,"station_id":"","pricing_plan_id":"free"},{"bike_id":"ab5206d6-a5b6-4c6c-9c20-a5fa472a4bef","system_id":"levelo_inurba_marseille","lat":43.31649,"lon":5.40434,"is_reserved":false,"is_disabled":false,"rental_uris":{"android":"levelo://app?vid=ab5206d6-a5b6-4c6c-9c20-a5fa472a4bef","ios":"levelo://app?vid=ab5206d6-a5b6-4c6c-9c20-a5fa472a4bef"},"vehicle_type_id":"4","last_reported":1687723661,"current_range_meters":2000,"station_id":"ce4bh012rcd13ifvqd00","pricing_plan_id":"free"},{"bike_id":"10058ad8-dd3b-43c7-9fac-75486cb18a39","system_id":"levelo_inurba_marseille","lat":43.3165,"lon":5.40439,"is_reserved":false,"is_disabled":false,"rental_uris":{"android":"levelo://app?vid=10058ad8-dd3b-43c7-9fac-75486cb18a39","ios":"levelo://app?vid=10058ad8-dd3b-43c7-9fac-75486cb18a39"},"vehicle_type_id":"4","last_reported":1687723661,"current_range_meters":9600,"station_id":"ce4bh012rcd13ifvqd00","pricing_plan_id":"free"},{"bike_id":"d69fed3a-efe9-46fb-b1dc-1240b8978d3e","system_id":"levelo_inurba_marseille","lat":43.316517,"lon":5.404375,"is_reserved":false,"is_disabled":false,"rental_uris":{"android":"levelo://app?vid=d69fed3a-efe9-46fb-b1dc-1240b8978d3e","ios":"levelo://app?vid=d69fed3a-efe9-46fb-b1dc-1240b8978d3e"},"vehicle_type_id":"4","last_reported":1687723661,"current_range_meters":12800,"station_id":"ce4bh012rcd13ifvqd00","pricing_plan_id":"free"},{"bike_id":"9a20184a-8508-49a8-82da-c5644b07b243","system_id":"levelo_inurba_marseille","lat":43.291994,"lon":5.392907,"is_reserved":false,"is_disabled":false,"rental_uris":{"android":"levelo://app?vid=9a20184a-8508-49a8-82da-c5644b07b243","ios":"levelo://app?vid=9a20184a-8508-49a8-82da-c5644b07b243"},"vehicle_type_id":"4","last_reported":1687723661,"current_range_meters":0,"station_id":"ce4bh192rcd13ifvqdd0","pricing_plan_id":"free"},{"bike_id":"6fabe770-3172-4593-82b2-39f657ca59b6","system_id":"levelo_inurba_marseille","lat":43.292011,"lon":5.393279,"is_reserved":false,"is_disabled":false,"rental_uris":{"android":"levelo://app?vid=6fabe770-3172-4593-82b2-39f657ca59b6","ios":"levelo://app?vid=6fabe770-3172-4593-82b2-39f657ca59b6"},"vehicle_type_id":"4","last_reported":1687723661,"current_range_meters":14000,"station_id":"","pricing_plan_id":"free"},{"bike_id":"2b2aca02-76ea-4e28-b148-c52749a26682","system_id":"levelo_inurba_marseille","lat":43.291994,"lon":5.392907,"is_reserved":false,"is_disabled":false,"rental_uris":{"android":"levelo://app?vid=2b2aca02-76ea-4e28-b148-c52749a26682","ios":"levelo://app?vid=2b2aca02-76ea-4e28-b148-c52749a26682"},"vehicle_type_id":"4","last_reported":1687723661,"current_range_meters":10000,"station_id":"ce4bh192rcd13ifvqdd0","pricing_plan_id":"free"},{"bike_id":"ca1f753a-a2a3-46ba-9cbf-81c444b9fbdb","system_id":"levelo_inurba_marseille","lat":43.284534,"lon":5.358662,"is_reserved":false,"is_disabled":false,"rental_uris":{"android":"levelo://app?vid=ca1f753a-a2a3-46ba-9cbf-81c444b9fbdb","ios":"levelo://app?vid=ca1f753a-a2a3-46ba-9cbf-81c444b9fbdb"},"vehicle_type_id":"4","last_reported":1687723661,"current_range_meters":18400,"station_id":"ce4bhah2rcd13ifvqei0","pricing_plan_id":"free"},{"bike_id":"21d79d44-b53a-413d-8606-ef5e577265b0","system_id":"levelo_inurba_marseille","lat":43.294314,"lon":5.397498,"is_reserved":false,"is_disabled":false,"rental_uris":{"android":"levelo://app?vid=21d79d44-b53a-413d-8606-ef5e577265b0","ios":"levelo://app?vid=21d79d44-b53a-413d-8606-ef5e577265b0"},"vehicle_type_id":"4","last_reported":1687723661,"current_range_meters":19200,"station_id":"ce4bh3h2rcd13ifvqdo0","pricing_plan_id":"free"},{"bike_id":"72011abf-f9d0-41ef-b510-0596bd07ec2d","system_id":"levelo_inurba_marseille","lat":43.294314,"lon":5.397498,"is_reserved":false,"is_disabled":false,"rental_uris":{"android":"levelo://app?vid=72011abf-f9d0-41ef-b510-0596bd07ec2d","ios":"levelo://app?vid=72011abf-f9d0-41ef-b510-0596bd07ec2d"},"vehicle_type_id":"4","last_reported":1687723661,"current_range_meters":16000,"station_id":"ce4bh3h2rcd13ifvqdo0","pricing_plan_id":"free"},{"bike_id":"b13c091d-d512-40af-ac27-32fdcabad3d8","system_id":"levelo_inurba_marseille","lat":43.285856,"lon":5.350771,"is_reserved":false,"is_disabled":false,"rental_uris":{"android":"levelo://app?vid=b13c091d-d512-40af-ac27-32fdcabad3d8","ios":"levelo://app?vid=b13c091d-d512-40af-ac27-32fdcabad3d8"},"vehicle_type_id":"4","last_reported":1687723661,"current_range_meters":20400,"station_id":"ce4bhch2rcd13ifvqeug","pricing_plan_id":"free"},{"bike_id":"3b76c8dc-9e9c-4aab-af9d-d48745b7d3d3","system_id":"levelo_inurba_marseille","lat":43.28413,"lon":5.37518,"is_reserved":false,"is_disabled":false,"rental_uris":{"android":"levelo://app?vid=3b76c8dc-9e9c-4aab-af9d-d48745b7d3d3","ios":"levelo://app?vid=3b76c8dc-9e9c-4aab-af9d-d48745b7d3d3"},"vehicle_type_id":"4","last_reported":1687723661,"current_range_meters":28400,"station_id":"ce4bh412rcd13ifvqds0","pricing_plan_id":"free"},{"bike_id":"f69d8fc5-d34d-4d83-9fcc-490896008dce","system_id":"levelo_inurba_marseille","lat":43.28411,"lon":5.37508,"is_reserved":false,"is_disabled":false,"rental_uris":{"android":"levelo://app?vid=f69d8fc5-d34d-4d83-9fcc-490896008dce","ios":"levelo://app?vid=f69d8fc5-d34d-4d83-9fcc-490896008dce"},"vehicle_type_id":"4","last_reported":1687723661,"current_range_meters":400,"station_id":"ce4bh412rcd13ifvqds0","pricing_plan_id":"free"},{"bike_id":"90fe198c-22e0-496d-a55f-12554f77b71f","system_id":"levelo_inurba_marseille","lat":43.28409,"lon":5.37522,"is_reserved":false,"is_disabled":false,"rental_uris":{"android":"levelo://app?vid=90fe198c-22e0-496d-a55f-12554f77b71f","ios":"levelo://app?vid=90fe198c-22e0-496d-a55f-12554f77b71f"},"vehicle_type_id":"4","last_reported":1687723661,"current_range_meters":29200,"station_id":"ce4bh412rcd13ifvqds0","pricing_plan_id":"free"},{"bike_id":"716b370f-b3ba-4b8f-aac0-848603a1e17b","system_id":"levelo_inurba_marseille","lat":43.28405,"lon":5.37516,"is_reserved":false,"is_disabled":false,"rental_uris":{"android":"levelo://app?vid=716b370f-b3ba-4b8f-aac0-848603a1e17b","ios":"levelo://app?vid=716b370f-b3ba-4b8f-aac0-848603a1e17b"},"vehicle_type_id":"4","last_reported":1687723661,"current_range_meters":10400,"station_id":"ce4bh412rcd13ifvqds0","pricing_plan_id":"free"},{"bike_id":"de2c0504-09de-4049-a3c6-42796352b4c8","system_id":"levelo_inurba_marseille","lat":43.28404,"lon":5.37511,"is_reserved":false,"is_disabled":false,"rental_uris":{"android":"levelo://app?vid=de2c0504-09de-4049-a3c6-42796352b4c8","ios":"levelo://app?vid=de2c0504-09de-4049-a3c6-42796352b4c8"},"vehicle_type_id":"4","last_reported":1687723661,"current_range_meters":6000,"station_id":"ce4bh412rcd13ifvqds0","pricing_plan_id":"free"},{"bike_id":"53911e78-7853-42da-8e1d-80457cc462a0","system_id":"levelo_inurba_marseille","lat":43.28405,"lon":5.37519,"is_reserved":false,"is_disabled":false,"rental_uris":{"android":"levelo://app?vid=53911e78-7853-42da-8e1d-80457cc462a0","ios":"levelo://app?vid=53911e78-7853-42da-8e1d-80457cc462a0"},"vehicle_type_id":"4","last_reported":1687723661,"current_range_meters":5600,"station_id":"ce4bh412rcd13ifvqds0","pricing_plan_id":"free"},{"bike_id":"1eb1199d-d7e1-4907-9572-9b3f000da44e","system_id":"levelo_inurba_marseille","lat":43.295713,"lon":5.399639,"is_reserved":false,"is_disabled":false,"rental_uris":{"android":"levelo://app?vid=1eb1199d-d7e1-4907-9572-9b3f000da44e","ios":"levelo://app?vid=1eb1199d-d7e1-4907-9572-9b3f000da44e"},"vehicle_type_id":"4","last_reported":1687723661,"current_range_meters":25200,"station_id":"ce4bh312rcd13ifvqdj0","pricing_plan_id":"free"},{"bike_id":"026e40a9-050b-4810-80f8-b8f074da73af","system_id":"levelo_inurba_marseille","lat":43.295713,"lon":5.399639,"is_reserved":false,"is_disabled":false,"rental_uris":{"android":"levelo://app?vid=026e40a9-050b-4810-80f8-b8f074da73af","ios":"levelo://app?vid=026e40a9-050b-4810-80f8-b8f074da73af"},"vehicle_type_id":"4","last_reported":1687723661,"current_range_meters":22400,"station_id":"ce4bh312rcd13ifvqdj0","pricing_plan_id":"free"},{"bike_id":"1f160f2d-9495-4f78-9529-83101a687127","system_id":"levelo_inurba_marseille","lat":43.295713,"lon":5.399639,"is_reserved":false,"is_disabled":false,"rental_uris":{"android":"levelo://app?vid=1f160f2d-9495-4f78-9529-83101a687127","ios":"levelo://app?vid=1f160f2d-9495-4f78-9529-83101a687127"},"vehicle_type_id":"4","last_reported":1687723661,"current_range_meters":14000,"station_id":"ce4bh312rcd13ifvqdj0","pricing_plan_id":"free"},{"bike_id":"a6c23d8e-2130-4531-bfd8-a574f6d9c81e","system_id":"levelo_inurba_marseille","lat":43.286595,"lon":5.386795,"is_reserved":false,"is_disabled":false,"rental_uris":{"android":"levelo://app?vid=a6c23d8e-2130-4531-bfd8-a574f6d9c81e","ios":"levelo://app?vid=a6c23d8e-2130-4531-bfd8-a574f6d9c81e"},"vehicle_type_id":"4","last_reported":1687723661,"current_range_meters":20000,"station_id":"ce4bh492rcd13ifvqdug","pricing_plan_id":"free"},{"bike_id":"614c5bf7-e6ec-49f5-9fa2-519bc8305492","system_id":"levelo_inurba_marseille","lat":43.286595,"lon":5.386795,"is_reserved":false,"is_disabled":false,"rental_uris":{"android":"levelo://app?vid=614c5bf7-e6ec-49f5-9fa2-519bc8305492","ios":"levelo://app?vid=614c5bf7-e6ec-49f5-9fa2-519bc8305492"},"vehicle_type_id":"4","last_reported":1687723661,"current_range_meters":17200,"station_id":"ce4bh492rcd13ifvqdug","pricing_plan_id":"free"},{"bike_id":"2c537d49-fa70-46c2-9e4a-d6cad81959ca","system_id":"levelo_inurba_marseille","lat":43.286595,"lon":5.386795,"is_reserved":false,"is_disabled":false,"rental_uris":{"android":"levelo://app?vid=2c537d49-fa70-46c2-9e4a-d6cad81959ca","ios":"levelo://app?vid=2c537d49-fa70-46c2-9e4a-d6cad81959ca"},"vehicle_type_id":"4","last_reported":1687723661,"current_range_meters":30400,"station_id":"ce4bh492rcd13ifvqdug","pricing_plan_id":"free"},{"bike_id":"a41a52f6-434f-482a-a248-b7c7b11cf313","system_id":"levelo_inurba_marseille","lat":43.323464,"lon":5.406297,"is_reserved":false,"is_disabled":false,"rental_uris":{"android":"levelo://app?vid=a41a52f6-434f-482a-a248-b7c7b11cf313","ios":"levelo://app?vid=a41a52f6-434f-482a-a248-b7c7b11cf313"},"vehicle_type_id":"4","last_reported":1687723661,"current_range_meters":1200,"station_id":"ce4bhq92rcd13ifvqhjg","pricing_plan_id":"free"},{"bike_id":"7e6cb372-9588-4181-9b99-a184e64ca937","system_id":"levelo_inurba_marseille","lat":43.323464,"lon":5.406297,"is_reserved":false,"is_disabled":false,"rental_uris":{"android":"levelo://app?vid=7e6cb372-9588-4181-9b99-a184e64ca937","ios":"levelo://app?vid=7e6cb372-9588-4181-9b99-a184e64ca937"},"vehicle_type_id":"4","last_reported":1687723661,"current_range_meters":20400,"station_id":"ce4bhq92rcd13ifvqhjg","pricing_plan_id":"free"},{"bike_id":"7c0bbcf9-4499-4a1e-be6b-effe1f6db7d4","system_id":"levelo_inurba_marseille","lat":43.323464,"lon":5.406297,"is_reserved":false,"is_disabled":false,"rental_uris":{"android":"levelo://app?vid=7c0bbcf9-4499-4a1e-be6b-effe1f6db7d4","ios":"levelo://app?vid=7c0bbcf9-4499-4a1e-be6b-effe1f6db7d4"},"vehicle_type_id":"4","last_reported":1687723661,"current_range_meters":31200,"station_id":"ce4bhq92rcd13ifvqhjg","pricing_plan_id":"free"},{"bike_id":"1dbfac4a-5e90-45d5-87e9-f9009d3e353b","system_id":"levelo_inurba_marseille","lat":43.323464,"lon":5.406297,"is_reserved":false,"is_disabled":false,"rental_uris":{"android":"levelo://app?vid=1dbfac4a-5e90-45d5-87e9-f9009d3e353b","ios":"levelo://app?vid=1dbfac4a-5e90-45d5-87e9-f9009d3e353b"},"vehicle_type_id":"4","last_reported":1687723661,"current_range_meters":7600,"station_id":"ce4bhq92rcd13ifvqhjg","pricing_plan_id":"free"},{"bike_id":"3f98ba13-4f79-469b-8c9e-47709eb69c6c","system_id":"levelo_inurba_marseille","lat":43.323464,"lon":5.406297,"is_reserved":false,"is_disabled":false,"rental_uris":{"android":"levelo://app?vid=3f98ba13-4f79-469b-8c9e-47709eb69c6c","ios":"levelo://app?vid=3f98ba13-4f79-469b-8c9e-47709eb69c6c"},"vehicle_type_id":"4","last_reported":1687723661,"current_range_meters":14800,"station_id":"ce4bhq92rcd13ifvqhjg","pricing_plan_id":"free"},{"bike_id":"8d1163da-0867-44f2-86ca-4675d37cea35","system_id":"levelo_inurba_marseille","lat":43.284793,"lon":5.384113,"is_reserved":false,"is_disabled":false,"rental_uris":{"android":"levelo://app?vid=8d1163da-0867-44f2-86ca-4675d37cea35","ios":"levelo://app?vid=8d1163da-0867-44f2-86ca-4675d37cea35"},"vehicle_type_id":"4","last_reported":1687723661,"current_range_meters":8000,"station_id":"ce4bh512rcd13ifvqe3g","pricing_plan_id":"free"},{"bike_id":"c2043324-8176-4cae-a14c-54633ce5a83a","system_id":"levelo_inurba_marseille","lat":43.284793,"lon":5.384113,"is_reserved":false,"is_disabled":false,"rental_uris":{"android":"levelo://app?vid=c2043324-8176-4cae-a14c-54633ce5a83a","ios":"levelo://app?vid=c2043324-8176-4cae-a14c-54633ce5a83a"},"vehicle_type_id":"4","last_reported":1687723661,"current_range_meters":0,"station_id":"ce4bh512rcd13ifvqe3g","pricing_plan_id":"free"},{"bike_id":"440b09f4-6f34-4f73-8768-3b01593a6bc1","system_id":"levelo_inurba_marseille","lat":43.284793,"lon":5.384113,"is_reserved":false,"is_disabled":false,"rental_uris":{"android":"levelo://app?vid=440b09f4-6f34-4f73-8768-3b01593a6bc1","ios":"levelo://app?vid=440b09f4-6f34-4f73-8768-3b01593a6bc1"},"vehicle_type_id":"4","last_reported":1687723661,"current_range_meters":5600,"station_id":"ce4bh512rcd13ifvqe3g","pricing_plan_id":"free"},{"bike_id":"20bdda2a-91f3-417e-922e-0c91e8bd2e65","system_id":"levelo_inurba_marseille","lat":43.284787,"lon":5.384116,"is_reserved":false,"is_disabled":false,"rental_uris":{"android":"levelo://app?vid=20bdda2a-91f3-417e-922e-0c91e8bd2e65","ios":"levelo://app?vid=20bdda2a-91f3-417e-922e-0c91e8bd2e65"},"vehicle_type_id":"4","last_reported":1687723661,"current_range_meters":23600,"station_id":"ce4bh512rcd13ifvqe3g","pricing_plan_id":"free"},{"bike_id":"014f544a-290f-4854-b75e-68dcb583000f","system_id":"levelo_inurba_marseille","lat":43.288497,"lon":5.393089,"is_reserved":false,"is_disabled":false,"rental_uris":{"android":"levelo://app?vid=014f544a-290f-4854-b75e-68dcb583000f","ios":"levelo://app?vid=014f544a-290f-4854-b75e-68dcb583000f"},"vehicle_type_id":"4","last_reported":1687723661,"current_range_meters":0,"station_id":"ce4bh2p2rcd13ifvqdi0","pricing_plan_id":"free"},{"bike_id":"772d609f-5823-4588-8a04-c94098da53aa","system_id":"levelo_inurba_marseille","lat":43.288497,"lon":5.393089,"is_reserved":false,"is_disabled":false,"rental_uris":{"android":"levelo://app?vid=772d609f-5823-4588-8a04-c94098da53aa","ios":"levelo://app?vid=772d609f-5823-4588-8a04-c94098da53aa"},"vehicle_type_id":"4","last_reported":1687723661,"current_range_meters":24000,"station_id":"ce4bh2p2rcd13ifvqdi0","pricing_plan_id":"free"},{"bike_id":"97bfc843-1a8a-4e7a-b8a1-de071d8aec02","system_id":"levelo_inurba_marseille","lat":43.288497,"lon":5.393089,"is_reserved":false,"is_disabled":false,"rental_uris":{"android":"levelo://app?vid=97bfc843-1a8a-4e7a-b8a1-de071d8aec02","ios":"levelo://app?vid=97bfc843-1a8a-4e7a-b8a1-de071d8aec02"},"vehicle_type_id":"4","last_reported":1687723661,"current_range_meters":18800,"station_id":"ce4bh2p2rcd13ifvqdi0","pricing_plan_id":"free"},{"bike_id":"6d9bb676-eb1c-4cbb-8ea0-1f90c90fc363","system_id":"levelo_inurba_marseille","lat":43.283494,"lon":5.380945,"is_reserved":false,"is_disabled":false,"rental_uris":{"android":"levelo://app?vid=6d9bb676-eb1c-4cbb-8ea0-1f90c90fc363","ios":"levelo://app?vid=6d9bb676-eb1c-4cbb-8ea0-1f90c90fc363"},"vehicle_type_id":"4","last_reported":1687723661,"current_range_meters":24400,"station_id":"ce4bh412rcd13ifvqdr0","pricing_plan_id":"free"},{"bike_id":"b4c950db-352f-4a1a-8e3c-c05101a6dad0","system_id":"levelo_inurba_marseille","lat":43.288501,"lon":5.393087,"is_reserved":false,"is_disabled":false,"rental_uris":{"android":"levelo://app?vid=b4c950db-352f-4a1a-8e3c-c05101a6dad0","ios":"levelo://app?vid=b4c950db-352f-4a1a-8e3c-c05101a6dad0"},"vehicle_type_id":"4","last_reported":1687723661,"current_range_meters":31200,"station_id":"ce4bh2p2rcd13ifvqdi0","pricing_plan_id":"free"},{"bike_id":"3db881e9-bc27-4920-b8bb-0f719f40c737","system_id":"levelo_inurba_marseille","lat":43.28842,"lon":5.39306,"is_reserved":false,"is_disabled":false,"rental_uris":{"android":"levelo://app?vid=3db881e9-bc27-4920-b8bb-0f719f40c737","ios":"levelo://app?vid=3db881e9-bc27-4920-b8bb-0f719f40c737"},"vehicle_type_id":"4","last_reported":1687723661,"current_range_meters":4000,"station_id":"ce4bh2p2rcd13ifvqdi0","pricing_plan_id":"free"},{"bike_id":"187e34a6-e6f7-4ac0-911a-f4cbf35b6a43","system_id":"levelo_inurba_marseille","lat":43.32031,"lon":5.40968,"is_reserved":false,"is_disabled":false,"rental_uris":{"android":"levelo://app?vid=187e34a6-e6f7-4ac0-911a-f4cbf35b6a43","ios":"levelo://app?vid=187e34a6-e6f7-4ac0-911a-f4cbf35b6a43"},"vehicle_type_id":"4","last_reported":1687723661,"current_range_meters":2800,"station_id":"","pricing_plan_id":"free"},{"bike_id":"4a98cd46-f1a7-438a-b818-41dc03fa5e30","system_id":"levelo_inurba_marseille","lat":43.281044,"lon":5.378308,"is_reserved":false,"is_disabled":false,"rental_uris":{"android":"levelo://app?vid=4a98cd46-f1a7-438a-b818-41dc03fa5e30","ios":"levelo://app?vid=4a98cd46-f1a7-438a-b818-41dc03fa5e30"},"vehicle_type_id":"4","last_reported":1687723661,"current_range_meters":2000,"station_id":"ce4bha12rcd13ifvqee0","pricing_plan_id":"free"},{"bike_id":"52a76acd-2615-4133-96d7-c86180c51cf0","system_id":"levelo_inurba_marseille","lat":43.29627,"lon":5.40591,"is_reserved":false,"is_disabled":false,"rental_uris":{"android":"levelo://app?vid=52a76acd-2615-4133-96d7-c86180c51cf0","ios":"levelo://app?vid=52a76acd-2615-4133-96d7-c86180c51cf0"},"vehicle_type_id":"4","last_reported":1687723661,"current_range_meters":10400,"station_id":"ce4bh0h2rcd13ifvqd60","pricing_plan_id":"free"},{"bike_id":"a2ae2fd0-2548-40af-96aa-960ad470232e","system_id":"levelo_inurba_marseille","lat":43.296263,"lon":5.40601,"is_reserved":false,"is_disabled":false,"rental_uris":{"android":"levelo://app?vid=a2ae2fd0-2548-40af-96aa-960ad470232e","ios":"levelo://app?vid=a2ae2fd0-2548-40af-96aa-960ad470232e"},"vehicle_type_id":"4","last_reported":1687723661,"current_range_meters":3600,"station_id":"ce4bh0h2rcd13ifvqd60","pricing_plan_id":"free"},{"bike_id":"0da03cc0-b5d1-4512-bddd-5cb465515330","system_id":"levelo_inurba_marseille","lat":43.29389,"lon":5.40411,"is_reserved":false,"is_disabled":false,"rental_uris":{"android":"levelo://app?vid=0da03cc0-b5d1-4512-bddd-5cb465515330","ios":"levelo://app?vid=0da03cc0-b5d1-4512-bddd-5cb465515330"},"vehicle_type_id":"4","last_reported":1687723661,"current_range_meters":21600,"station_id":"","pricing_plan_id":"free"},{"bike_id":"a96039f3-e5ad-4e34-929f-452055baa5d1","system_id":"levelo_inurba_marseille","lat":43.326605,"lon":5.409903,"is_reserved":false,"is_disabled":false,"rental_uris":{"android":"levelo://app?vid=a96039f3-e5ad-4e34-929f-452055baa5d1","ios":"levelo://app?vid=a96039f3-e5ad-4e34-929f-452055baa5d1"},"vehicle_type_id":"4","last_reported":1687723661,"current_range_meters":30000,"station_id":"ce4bhpp2rcd13ifvqhgg","pricing_plan_id":"free"},{"bike_id":"7f4e5f33-3d6b-4470-b773-9bb881f7fc86","system_id":"levelo_inurba_marseille","lat":43.326551,"lon":5.409982,"is_reserved":false,"is_disabled":false,"rental_uris":{"android":"levelo://app?vid=7f4e5f33-3d6b-4470-b773-9bb881f7fc86","ios":"levelo://app?vid=7f4e5f33-3d6b-4470-b773-9bb881f7fc86"},"vehicle_type_id":"4","last_reported":1687723661,"current_range_meters":0,"station_id":"ce4bhpp2rcd13ifvqhgg","pricing_plan_id":"free"},{"bike_id":"bcebf6c1-9d86-4359-93f0-04aac321ddc4","system_id":"levelo_inurba_marseille","lat":43.304188,"lon":5.412904,"is_reserved":false,"is_disabled":false,"rental_uris":{"android":"levelo://app?vid=bcebf6c1-9d86-4359-93f0-04aac321ddc4","ios":"levelo://app?vid=bcebf6c1-9d86-4359-93f0-04aac321ddc4"},"vehicle_type_id":"4","last_reported":1687723661,"current_range_meters":10400,"station_id":"ce4bhop2rcd13ifvqh8g","pricing_plan_id":"free"},{"bike_id":"e7535495-e36b-4d58-9379-208399c57368","system_id":"levelo_inurba_marseille","lat":43.279087,"lon":5.380114,"is_reserved":false,"is_disabled":false,"rental_uris":{"android":"levelo://app?vid=e7535495-e36b-4d58-9379-208399c57368","ios":"levelo://app?vid=e7535495-e36b-4d58-9379-208399c57368"},"vehicle_type_id":"4","last_reported":1687723661,"current_range_meters":9200,"station_id":"ce4bhf92rcd13ifvqf50","pricing_plan_id":"free"},{"bike_id":"e2909745-5335-4913-b05e-aff179272771","system_id":"levelo_inurba_marseille","lat":43.279087,"lon":5.380114,"is_reserved":false,"is_disabled":false,"rental_uris":{"android":"levelo://app?vid=e2909745-5335-4913-b05e-aff179272771","ios":"levelo://app?vid=e2909745-5335-4913-b05e-aff179272771"},"vehicle_type_id":"4","last_reported":1687723661,"current_range_meters":20800,"station_id":"ce4bhf92rcd13ifvqf50","pricing_plan_id":"free"},{"bike_id":"9e3a51f7-d088-4023-80eb-12060ef3be3b","system_id":"levelo_inurba_marseille","lat":43.279087,"lon":5.380114,"is_reserved":false,"is_disabled":false,"rental_uris":{"android":"levelo://app?vid=9e3a51f7-d088-4023-80eb-12060ef3be3b","ios":"levelo://app?vid=9e3a51f7-d088-4023-80eb-12060ef3be3b"},"vehicle_type_id":"4","last_reported":1687723661,"current_range_meters":17600,"station_id":"ce4bhf92rcd13ifvqf50","pricing_plan_id":"free"},{"bike_id":"738c286a-a6ad-4c29-93a7-9c37b39eb575","system_id":"levelo_inurba_marseille","lat":43.279087,"lon":5.380114,"is_reserved":false,"is_disabled":false,"rental_uris":{"android":"levelo://app?vid=738c286a-a6ad-4c29-93a7-9c37b39eb575","ios":"levelo://app?vid=738c286a-a6ad-4c29-93a7-9c37b39eb575"},"vehicle_type_id":"4","last_reported":1687723661,"current_range_meters":15200,"station_id":"ce4bhf92rcd13ifvqf50","pricing_plan_id":"free"},{"bike_id":"6b2ab17b-9a31-4771-a569-6e7e4fdcf702","system_id":"levelo_inurba_marseille","lat":43.28702,"lon":5.39979,"is_reserved":false,"is_disabled":false,"rental_uris":{"android":"levelo://app?vid=6b2ab17b-9a31-4771-a569-6e7e4fdcf702","ios":"levelo://app?vid=6b2ab17b-9a31-4771-a569-6e7e4fdcf702"},"vehicle_type_id":"4","last_reported":1687723661,"current_range_meters":13600,"station_id":"ce4bho92rcd13ifvqh3g","pricing_plan_id":"free"},{"bike_id":"ea3537e7-9f21-4d52-8b79-6e4f5affe63f","system_id":"levelo_inurba_marseille","lat":43.287154,"lon":5.399979,"is_reserved":false,"is_disabled":false,"rental_uris":{"android":"levelo://app?vid=ea3537e7-9f21-4d52-8b79-6e4f5affe63f","ios":"levelo://app?vid=ea3537e7-9f21-4d52-8b79-6e4f5affe63f"},"vehicle_type_id":"4","last_reported":1687723661,"current_range_meters":7200,"station_id":"ce4bho92rcd13ifvqh3g","pricing_plan_id":"free"},{"bike_id":"50fd953c-9754-45f4-aec7-ae52bb9eb6fe","system_id":"levelo_inurba_marseille","lat":43.287154,"lon":5.399979,"is_reserved":false,"is_disabled":false,"rental_uris":{"android":"levelo://app?vid=50fd953c-9754-45f4-aec7-ae52bb9eb6fe","ios":"levelo://app?vid=50fd953c-9754-45f4-aec7-ae52bb9eb6fe"},"vehicle_type_id":"4","last_reported":1687723661,"current_range_meters":31200,"station_id":"ce4bho92rcd13ifvqh3g","pricing_plan_id":"free"},{"bike_id":"ca915294-e392-4284-a505-93b4a79ac515","system_id":"levelo_inurba_marseille","lat":43.32041,"lon":5.41547,"is_reserved":false,"is_disabled":false,"rental_uris":{"android":"levelo://app?vid=ca915294-e392-4284-a505-93b4a79ac515","ios":"levelo://app?vid=ca915294-e392-4284-a505-93b4a79ac515"},"vehicle_type_id":"4","last_reported":1687723661,"current_range_meters":0,"station_id":"ce4bhq92rcd13ifvqhkg","pricing_plan_id":"free"},{"bike_id":"39384a08-1956-4d60-995e-f6a1d34f3f82","system_id":"levelo_inurba_marseille","lat":43.292569,"lon":5.409107,"is_reserved":false,"is_disabled":false,"rental_uris":{"android":"levelo://app?vid=39384a08-1956-4d60-995e-f6a1d34f3f82","ios":"levelo://app?vid=39384a08-1956-4d60-995e-f6a1d34f3f82"},"vehicle_type_id":"4","last_reported":1687723661,"current_range_meters":1600,"station_id":"ce4bh192rcd13ifvqdc0","pricing_plan_id":"free"},{"bike_id":"51c13d08-1c39-401a-b4bc-d4a9d99dd5ca","system_id":"levelo_inurba_marseille","lat":43.32542,"lon":5.4143,"is_reserved":false,"is_disabled":false,"rental_uris":{"android":"levelo://app?vid=51c13d08-1c39-401a-b4bc-d4a9d99dd5ca","ios":"levelo://app?vid=51c13d08-1c39-401a-b4bc-d4a9d99dd5ca"},"vehicle_type_id":"4","last_reported":1687723661,"current_range_meters":16800,"station_id":"","pricing_plan_id":"free"},{"bike_id":"6b081579-5bc6-4147-a52b-60a25fbaf4d1","system_id":"levelo_inurba_marseille","lat":43.32546,"lon":5.41437,"is_reserved":false,"is_disabled":false,"rental_uris":{"android":"levelo://app?vid=6b081579-5bc6-4147-a52b-60a25fbaf4d1","ios":"levelo://app?vid=6b081579-5bc6-4147-a52b-60a25fbaf4d1"},"vehicle_type_id":"4","last_reported":1687723661,"current_range_meters":30000,"station_id":"ce4bhq12rcd13ifvqhhg","pricing_plan_id":"free"},{"bike_id":"f67ead30-0153-4f69-a4fd-94abf7f256b1","system_id":"levelo_inurba_marseille","lat":43.292569,"lon":5.409107,"is_reserved":false,"is_disabled":false,"rental_uris":{"android":"levelo://app?vid=f67ead30-0153-4f69-a4fd-94abf7f256b1","ios":"levelo://app?vid=f67ead30-0153-4f69-a4fd-94abf7f256b1"},"vehicle_type_id":"4","last_reported":1687723661,"current_range_meters":27600,"station_id":"ce4bh192rcd13ifvqdc0","pricing_plan_id":"free"},{"bike_id":"a403c57d-ce60-4de6-bfe8-4869b34791af","system_id":"levelo_inurba_marseille","lat":43.276179,"lon":5.361009,"is_reserved":false,"is_disabled":false,"rental_uris":{"android":"levelo://app?vid=a403c57d-ce60-4de6-bfe8-4869b34791af","ios":"levelo://app?vid=a403c57d-ce60-4de6-bfe8-4869b34791af"},"vehicle_type_id":"4","last_reported":1687723661,"current_range_meters":16400,"station_id":"ce4bgj92rcd13ifvqbe0","pricing_plan_id":"free"},{"bike_id":"4d634807-a4e9-4096-a6d0-29ff038660c3","system_id":"levelo_inurba_marseille","lat":43.280784,"lon":5.396622,"is_reserved":false,"is_disabled":false,"rental_uris":{"android":"levelo://app?vid=4d634807-a4e9-4096-a6d0-29ff038660c3","ios":"levelo://app?vid=4d634807-a4e9-4096-a6d0-29ff038660c3"},"vehicle_type_id":"4","last_reported":1687723661,"current_range_meters":12000,"station_id":"ce4bho12rcd13ifvqh2g","pricing_plan_id":"free"},{"bike_id":"20e9cca1-9c20-4699-8c2f-4515b49dcf6c","system_id":"levelo_inurba_marseille","lat":43.280784,"lon":5.396622,"is_reserved":false,"is_disabled":false,"rental_uris":{"android":"levelo://app?vid=20e9cca1-9c20-4699-8c2f-4515b49dcf6c","ios":"levelo://app?vid=20e9cca1-9c20-4699-8c2f-4515b49dcf6c"},"vehicle_type_id":"4","last_reported":1687723661,"current_range_meters":2000,"station_id":"ce4bho12rcd13ifvqh2g","pricing_plan_id":"free"},{"bike_id":"c071dea1-67c9-4a00-9c4f-681bc8a436fc","system_id":"levelo_inurba_marseille","lat":43.280784,"lon":5.396622,"is_reserved":false,"is_disabled":false,"rental_uris":{"android":"levelo://app?vid=c071dea1-67c9-4a00-9c4f-681bc8a436fc","ios":"levelo://app?vid=c071dea1-67c9-4a00-9c4f-681bc8a436fc"},"vehicle_type_id":"4","last_reported":1687723661,"current_range_meters":18000,"station_id":"ce4bho12rcd13ifvqh2g","pricing_plan_id":"free"},{"bike_id":"d12e25ee-18f1-4cd3-b6e3-173ce696758b","system_id":"levelo_inurba_marseille","lat":43.280784,"lon":5.396622,"is_reserved":false,"is_disabled":false,"rental_uris":{"android":"levelo://app?vid=d12e25ee-18f1-4cd3-b6e3-173ce696758b","ios":"levelo://app?vid=d12e25ee-18f1-4cd3-b6e3-173ce696758b"},"vehicle_type_id":"4","last_reported":1687723661,"current_range_meters":10000,"station_id":"ce4bho12rcd13ifvqh2g","pricing_plan_id":"free"},{"bike_id":"4adb7052-e3b3-475b-bfac-98bbda1178b9","system_id":"levelo_inurba_marseille","lat":43.280753,"lon":5.396568,"is_reserved":false,"is_disabled":false,"rental_uris":{"android":"levelo://app?vid=4adb7052-e3b3-475b-bfac-98bbda1178b9","ios":"levelo://app?vid=4adb7052-e3b3-475b-bfac-98bbda1178b9"},"vehicle_type_id":"4","last_reported":1687723661,"current_range_meters":2400,"station_id":"ce4bho12rcd13ifvqh2g","pricing_plan_id":"free"},{"bike_id":"f1bf90f3-75c0-47ca-a754-e87f93cf5f5a","system_id":"levelo_inurba_marseille","lat":43.278399,"lon":5.392139,"is_reserved":false,"is_disabled":false,"rental_uris":{"android":"levelo://app?vid=f1bf90f3-75c0-47ca-a754-e87f93cf5f5a","ios":"levelo://app?vid=f1bf90f3-75c0-47ca-a754-e87f93cf5f5a"},"vehicle_type_id":"4","last_reported":1687723661,"current_range_meters":26400,"station_id":"ce4bhjp2rcd13ifvqga0","pricing_plan_id":"free"},{"bike_id":"b8e261b2-5033-418c-8349-1c534f3a3d44","system_id":"levelo_inurba_marseille","lat":43.33612,"lon":5.410321,"is_reserved":false,"is_disabled":false,"rental_uris":{"android":"levelo://app?vid=b8e261b2-5033-418c-8349-1c534f3a3d44","ios":"levelo://app?vid=b8e261b2-5033-418c-8349-1c534f3a3d44"},"vehicle_type_id":"4","last_reported":1687723661,"current_range_meters":4400,"station_id":"ce4bhqh2rcd13ifvqhmg","pricing_plan_id":"free"},{"bike_id":"7f5dea7e-ecdb-41ca-bfb9-6216bb8f5b36","system_id":"levelo_inurba_marseille","lat":43.33612,"lon":5.410321,"is_reserved":false,"is_disabled":false,"rental_uris":{"android":"levelo://app?vid=7f5dea7e-ecdb-41ca-bfb9-6216bb8f5b36","ios":"levelo://app?vid=7f5dea7e-ecdb-41ca-bfb9-6216bb8f5b36"},"vehicle_type_id":"4","last_reported":1687723661,"current_range_meters":14000,"station_id":"ce4bhqh2rcd13ifvqhmg","pricing_plan_id":"free"},{"bike_id":"9f3db0a4-63b4-4dc1-8e5f-d42d6781149c","system_id":"levelo_inurba_marseille","lat":43.33608,"lon":5.41032,"is_reserved":false,"is_disabled":false,"rental_uris":{"android":"levelo://app?vid=9f3db0a4-63b4-4dc1-8e5f-d42d6781149c","ios":"levelo://app?vid=9f3db0a4-63b4-4dc1-8e5f-d42d6781149c"},"vehicle_type_id":"4","last_reported":1687723661,"current_range_meters":7200,"station_id":"ce4bhqh2rcd13ifvqhmg","pricing_plan_id":"free"},{"bike_id":"4e90f120-ce76-41c5-9621-2e5dea8559f0","system_id":"levelo_inurba_marseille","lat":43.276771,"lon":5.388799,"is_reserved":false,"is_disabled":false,"rental_uris":{"android":"levelo://app?vid=4e90f120-ce76-41c5-9621-2e5dea8559f0","ios":"levelo://app?vid=4e90f120-ce76-41c5-9621-2e5dea8559f0"},"vehicle_type_id":"4","last_reported":1687723661,"current_range_meters":400,"station_id":"ce4bhi12rcd13ifvqfo0","pricing_plan_id":"free"},{"bike_id":"c2e91a31-73bd-4044-8317-1659adab25e5","system_id":"levelo_inurba_marseille","lat":43.27557,"lon":5.38583,"is_reserved":false,"is_disabled":false,"rental_uris":{"android":"levelo://app?vid=c2e91a31-73bd-4044-8317-1659adab25e5","ios":"levelo://app?vid=c2e91a31-73bd-4044-8317-1659adab25e5"},"vehicle_type_id":"4","last_reported":1687723661,"current_range_meters":24400,"station_id":"","pricing_plan_id":"free"},{"bike_id":"c0e950ed-aea1-4939-a34d-a0494748ad20","system_id":"levelo_inurba_marseille","lat":43.310785,"lon":5.424305,"is_reserved":false,"is_disabled":false,"rental_uris":{"android":"levelo://app?vid=c0e950ed-aea1-4939-a34d-a0494748ad20","ios":"levelo://app?vid=c0e950ed-aea1-4939-a34d-a0494748ad20"},"vehicle_type_id":"4","last_reported":1687723661,"current_range_meters":15200,"station_id":"ce4bhp92rcd13ifvqhag","pricing_plan_id":"free"},{"bike_id":"a8d3126d-d26a-4893-a5bf-0ce1fed4c079","system_id":"levelo_inurba_marseille","lat":43.310785,"lon":5.424305,"is_reserved":false,"is_disabled":false,"rental_uris":{"android":"levelo://app?vid=a8d3126d-d26a-4893-a5bf-0ce1fed4c079","ios":"levelo://app?vid=a8d3126d-d26a-4893-a5bf-0ce1fed4c079"},"vehicle_type_id":"4","last_reported":1687723661,"current_range_meters":18000,"station_id":"ce4bhp92rcd13ifvqhag","pricing_plan_id":"free"},{"bike_id":"01208fbe-9431-4ed6-ac1f-e90329c35bdb","system_id":"levelo_inurba_marseille","lat":43.26955,"lon":5.36633,"is_reserved":false,"is_disabled":false,"rental_uris":{"android":"levelo://app?vid=01208fbe-9431-4ed6-ac1f-e90329c35bdb","ios":"levelo://app?vid=01208fbe-9431-4ed6-ac1f-e90329c35bdb"},"vehicle_type_id":"4","last_reported":1687723661,"current_range_meters":0,"station_id":"","pricing_plan_id":"free"},{"bike_id":"7ba2fd51-8a33-46e6-bdfa-ebc37cad61ba","system_id":"levelo_inurba_marseille","lat":43.295523,"lon":5.422926,"is_reserved":false,"is_disabled":false,"rental_uris":{"android":"levelo://app?vid=7ba2fd51-8a33-46e6-bdfa-ebc37cad61ba","ios":"levelo://app?vid=7ba2fd51-8a33-46e6-bdfa-ebc37cad61ba"},"vehicle_type_id":"4","last_reported":1687723661,"current_range_meters":28800,"station_id":"ce4bhph2rcd13ifvqhdg","pricing_plan_id":"free"},{"bike_id":"4fa21102-9c5c-4785-8da0-3d7f957b0c31","system_id":"levelo_inurba_marseille","lat":43.272118,"lon":5.391758,"is_reserved":false,"is_disabled":false,"rental_uris":{"android":"levelo://app?vid=4fa21102-9c5c-4785-8da0-3d7f957b0c31","ios":"levelo://app?vid=4fa21102-9c5c-4785-8da0-3d7f957b0c31"},"vehicle_type_id":"4","last_reported":1687723661,"current_range_meters":28400,"station_id":"ce4bhhp2rcd13ifvqfm0","pricing_plan_id":"free"},{"bike_id":"778a9efe-3ea8-4377-a914-d0cf0c2fa472","system_id":"levelo_inurba_marseille","lat":43.27813,"lon":5.4071,"is_reserved":false,"is_disabled":false,"rental_uris":{"android":"levelo://app?vid=778a9efe-3ea8-4377-a914-d0cf0c2fa472","ios":"levelo://app?vid=778a9efe-3ea8-4377-a914-d0cf0c2fa472"},"vehicle_type_id":"4","last_reported":1687723661,"current_range_meters":15600,"station_id":"ce4bhnh2rcd13ifvqgtg","pricing_plan_id":"free"},{"bike_id":"db7032bc-f1b3-4967-809c-a073636d91ed","system_id":"levelo_inurba_marseille","lat":43.27811,"lon":5.4071,"is_reserved":false,"is_disabled":false,"rental_uris":{"android":"levelo://app?vid=db7032bc-f1b3-4967-809c-a073636d91ed","ios":"levelo://app?vid=db7032bc-f1b3-4967-809c-a073636d91ed"},"vehicle_type_id":"4","last_reported":1687723661,"current_range_meters":0,"station_id":"ce4bhnh2rcd13ifvqgtg","pricing_plan_id":"free"},{"bike_id":"bf9ec188-b698-4462-8d3a-f8015929715b","system_id":"levelo_inurba_marseille","lat":43.2695,"lon":5.38631,"is_reserved":false,"is_disabled":false,"rental_uris":{"android":"levelo://app?vid=bf9ec188-b698-4462-8d3a-f8015929715b","ios":"levelo://app?vid=bf9ec188-b698-4462-8d3a-f8015929715b"},"vehicle_type_id":"4","last_reported":1687723661,"current_range_meters":22000,"station_id":"ce4bhh92rcd13ifvqfh0","pricing_plan_id":"free"},{"bike_id":"8d68d9d8-7a84-4ac6-a1db-83cba6ce3936","system_id":"levelo_inurba_marseille","lat":43.27119,"lon":5.39237,"is_reserved":false,"is_disabled":false,"rental_uris":{"android":"levelo://app?vid=8d68d9d8-7a84-4ac6-a1db-83cba6ce3936","ios":"levelo://app?vid=8d68d9d8-7a84-4ac6-a1db-83cba6ce3936"},"vehicle_type_id":"4","last_reported":1687723661,"current_range_meters":19200,"station_id":"","pricing_plan_id":"free"},{"bike_id":"65c8cc80-be25-49e6-ad40-651c3463db06","system_id":"levelo_inurba_marseille","lat":43.27996,"lon":5.416624,"is_reserved":false,"is_disabled":false,"rental_uris":{"android":"levelo://app?vid=65c8cc80-be25-49e6-ad40-651c3463db06","ios":"levelo://app?vid=65c8cc80-be25-49e6-ad40-651c3463db06"},"vehicle_type_id":"4","last_reported":1687723661,"current_range_meters":11600,"station_id":"ce4bho12rcd13ifvqh1g","pricing_plan_id":"free"},{"bike_id":"ae7d7c71-e604-43c3-9e35-f5723b256526","system_id":"levelo_inurba_marseille","lat":43.27996,"lon":5.41666,"is_reserved":false,"is_disabled":false,"rental_uris":{"android":"levelo://app?vid=ae7d7c71-e604-43c3-9e35-f5723b256526","ios":"levelo://app?vid=ae7d7c71-e604-43c3-9e35-f5723b256526"},"vehicle_type_id":"4","last_reported":1687723661,"current_range_meters":21600,"station_id":"ce4bho12rcd13ifvqh1g","pricing_plan_id":"free"},{"bike_id":"01c23e8e-a5c3-4095-baec-ba079e09b35f","system_id":"levelo_inurba_marseille","lat":43.308,"lon":5.43518,"is_reserved":false,"is_disabled":false,"rental_uris":{"android":"levelo://app?vid=01c23e8e-a5c3-4095-baec-ba079e09b35f","ios":"levelo://app?vid=01c23e8e-a5c3-4095-baec-ba079e09b35f"},"vehicle_type_id":"4","last_reported":1687723661,"current_range_meters":12000,"station_id":"ce4bhhh2rcd13ifvqfk0","pricing_plan_id":"free"},{"bike_id":"edc3ebe4-9a7c-43b9-bd79-3b964ef5926b","system_id":"levelo_inurba_marseille","lat":43.30795,"lon":5.43524,"is_reserved":false,"is_disabled":false,"rental_uris":{"android":"levelo://app?vid=edc3ebe4-9a7c-43b9-bd79-3b964ef5926b","ios":"levelo://app?vid=edc3ebe4-9a7c-43b9-bd79-3b964ef5926b"},"vehicle_type_id":"4","last_reported":1687723661,"current_range_meters":26800,"station_id":"ce4bhph2rcd13ifvqheg","pricing_plan_id":"free"},{"bike_id":"d4f264e3-ecf8-4f1c-bc2e-778acd680520","system_id":"levelo_inurba_marseille","lat":43.30795,"lon":5.43527,"is_reserved":false,"is_disabled":false,"rental_uris":{"android":"levelo://app?vid=d4f264e3-ecf8-4f1c-bc2e-778acd680520","ios":"levelo://app?vid=d4f264e3-ecf8-4f1c-bc2e-778acd680520"},"vehicle_type_id":"4","last_reported":1687723661,"current_range_meters":10800,"station_id":"ce4bhph2rcd13ifvqheg","pricing_plan_id":"free"},{"bike_id":"46e67c8b-b6c3-4c76-8fb1-57c130e6fc17","system_id":"levelo_inurba_marseille","lat":43.308051,"lon":5.43527,"is_reserved":false,"is_disabled":false,"rental_uris":{"android":"levelo://app?vid=46e67c8b-b6c3-4c76-8fb1-57c130e6fc17","ios":"levelo://app?vid=46e67c8b-b6c3-4c76-8fb1-57c130e6fc17"},"vehicle_type_id":"4","last_reported":1687723661,"current_range_meters":16800,"station_id":"ce4bhph2rcd13ifvqheg","pricing_plan_id":"free"},{"bike_id":"d58f4cc1-2d37-4eb6-bbc4-2a14eb70ffa2","system_id":"levelo_inurba_marseille","lat":43.265569,"lon":5.390047,"is_reserved":false,"is_disabled":false,"rental_uris":{"android":"levelo://app?vid=d58f4cc1-2d37-4eb6-bbc4-2a14eb70ffa2","ios":"levelo://app?vid=d58f4cc1-2d37-4eb6-bbc4-2a14eb70ffa2"},"vehicle_type_id":"4","last_reported":1687723661,"current_range_meters":22400,"station_id":"ce4bhe12rcd13ifvqf30","pricing_plan_id":"free"},{"bike_id":"e5d77c18-81e0-4e45-b332-b3ea5edd29c2","system_id":"levelo_inurba_marseille","lat":43.265569,"lon":5.390047,"is_reserved":false,"is_disabled":false,"rental_uris":{"android":"levelo://app?vid=e5d77c18-81e0-4e45-b332-b3ea5edd29c2","ios":"levelo://app?vid=e5d77c18-81e0-4e45-b332-b3ea5edd29c2"},"vehicle_type_id":"4","last_reported":1687723661,"current_range_meters":30800,"station_id":"ce4bhe12rcd13ifvqf30","pricing_plan_id":"free"},{"bike_id":"cf870dbc-0fba-4502-8723-9ad0b9dcd213","system_id":"levelo_inurba_marseille","lat":43.265569,"lon":5.390047,"is_reserved":false,"is_disabled":false,"rental_uris":{"android":"levelo://app?vid=cf870dbc-0fba-4502-8723-9ad0b9dcd213","ios":"levelo://app?vid=cf870dbc-0fba-4502-8723-9ad0b9dcd213"},"vehicle_type_id":"4","last_reported":1687723661,"current_range_meters":31200,"station_id":"ce4bhe12rcd13ifvqf30","pricing_plan_id":"free"},{"bike_id":"6cf3f233-127a-46b2-95a4-7f2d08b76903","system_id":"levelo_inurba_marseille","lat":43.267959,"lon":5.402685,"is_reserved":false,"is_disabled":false,"rental_uris":{"android":"levelo://app?vid=6cf3f233-127a-46b2-95a4-7f2d08b76903","ios":"levelo://app?vid=6cf3f233-127a-46b2-95a4-7f2d08b76903"},"vehicle_type_id":"4","last_reported":1687723661,"current_range_meters":6000,"station_id":"ce501612rcd8frsf0b60","pricing_plan_id":"free"},{"bike_id":"7a2ce82a-b3e0-4c93-9292-31bddb82acb6","system_id":"levelo_inurba_marseille","lat":43.262012,"lon":5.379307,"is_reserved":false,"is_disabled":false,"rental_uris":{"android":"levelo://app?vid=7a2ce82a-b3e0-4c93-9292-31bddb82acb6","ios":"levelo://app?vid=7a2ce82a-b3e0-4c93-9292-31bddb82acb6"},"vehicle_type_id":"4","last_reported":1687723661,"current_range_meters":10800,"station_id":"ce4bhjp2rcd13ifvqg90","pricing_plan_id":"free"},{"bike_id":"706f1e63-4b9b-4ed4-8714-318dc8df2989","system_id":"levelo_inurba_marseille","lat":43.271368,"lon":5.40928,"is_reserved":false,"is_disabled":false,"rental_uris":{"android":"levelo://app?vid=706f1e63-4b9b-4ed4-8714-318dc8df2989","ios":"levelo://app?vid=706f1e63-4b9b-4ed4-8714-318dc8df2989"},"vehicle_type_id":"4","last_reported":1687723661,"current_range_meters":12400,"station_id":"ce4bhl12rcd13ifvqgf0","pricing_plan_id":"free"},{"bike_id":"ee702e8f-e758-4ec6-8687-b60325356c4e","system_id":"levelo_inurba_marseille","lat":43.271368,"lon":5.40928,"is_reserved":false,"is_disabled":false,"rental_uris":{"android":"levelo://app?vid=ee702e8f-e758-4ec6-8687-b60325356c4e","ios":"levelo://app?vid=ee702e8f-e758-4ec6-8687-b60325356c4e"},"vehicle_type_id":"4","last_reported":1687723661,"current_range_meters":28400,"station_id":"ce4bhl12rcd13ifvqgf0","pricing_plan_id":"free"},{"bike_id":"86ddb545-993a-4fa5-838a-4cf61ca8aaea","system_id":"levelo_inurba_marseille","lat":43.267959,"lon":5.402685,"is_reserved":false,"is_disabled":false,"rental_uris":{"android":"levelo://app?vid=86ddb545-993a-4fa5-838a-4cf61ca8aaea","ios":"levelo://app?vid=86ddb545-993a-4fa5-838a-4cf61ca8aaea"},"vehicle_type_id":"4","last_reported":1687723661,"current_range_meters":4800,"station_id":"ce501612rcd8frsf0b60","pricing_plan_id":"free"},{"bike_id":"04088dd4-3b68-4538-98cc-65594ceccdc7","system_id":"levelo_inurba_marseille","lat":43.267959,"lon":5.402687,"is_reserved":false,"is_disabled":false,"rental_uris":{"android":"levelo://app?vid=04088dd4-3b68-4538-98cc-65594ceccdc7","ios":"levelo://app?vid=04088dd4-3b68-4538-98cc-65594ceccdc7"},"vehicle_type_id":"4","last_reported":1687723661,"current_range_meters":15600,"station_id":"ce501612rcd8frsf0b60","pricing_plan_id":"free"},{"bike_id":"ae583b3e-e8fa-4935-a5b3-7dd21a7bebeb","system_id":"levelo_inurba_marseille","lat":43.26803,"lon":5.40268,"is_reserved":false,"is_disabled":false,"rental_uris":{"android":"levelo://app?vid=ae583b3e-e8fa-4935-a5b3-7dd21a7bebeb","ios":"levelo://app?vid=ae583b3e-e8fa-4935-a5b3-7dd21a7bebeb"},"vehicle_type_id":"4","last_reported":1687723661,"current_range_meters":1200,"station_id":"ce501612rcd8frsf0b60","pricing_plan_id":"free"},{"bike_id":"2397ed9f-2cbd-41d9-9c4e-5d7540b6365d","system_id":"levelo_inurba_marseille","lat":43.26042,"lon":5.37256,"is_reserved":false,"is_disabled":false,"rental_uris":{"android":"levelo://app?vid=2397ed9f-2cbd-41d9-9c4e-5d7540b6365d","ios":"levelo://app?vid=2397ed9f-2cbd-41d9-9c4e-5d7540b6365d"},"vehicle_type_id":"4","last_reported":1687723661,"current_range_meters":21600,"station_id":"","pricing_plan_id":"free"},{"bike_id":"6078cd24-5711-409a-8ffa-29bd26ad9c29","system_id":"levelo_inurba_marseille","lat":43.298768,"lon":5.43643,"is_reserved":false,"is_disabled":false,"rental_uris":{"android":"levelo://app?vid=6078cd24-5711-409a-8ffa-29bd26ad9c29","ios":"levelo://app?vid=6078cd24-5711-409a-8ffa-29bd26ad9c29"},"vehicle_type_id":"4","last_reported":1687723661,"current_range_meters":30000,"station_id":"ce4bhpp2rcd13ifvqhfg","pricing_plan_id":"free"},{"bike_id":"055a308f-85c6-45cf-b61e-a1cb9037d321","system_id":"levelo_inurba_marseille","lat":43.26039,"lon":5.37421,"is_reserved":false,"is_disabled":false,"rental_uris":{"android":"levelo://app?vid=055a308f-85c6-45cf-b61e-a1cb9037d321","ios":"levelo://app?vid=055a308f-85c6-45cf-b61e-a1cb9037d321"},"vehicle_type_id":"4","last_reported":1687723661,"current_range_meters":0,"station_id":"","pricing_plan_id":"free"},{"bike_id":"b1d431ca-5d94-4e42-8d8c-cced3ea8b845","system_id":"levelo_inurba_marseille","lat":43.30098,"lon":5.43957,"is_reserved":false,"is_disabled":false,"rental_uris":{"android":"levelo://app?vid=b1d431ca-5d94-4e42-8d8c-cced3ea8b845","ios":"levelo://app?vid=b1d431ca-5d94-4e42-8d8c-cced3ea8b845"},"vehicle_type_id":"4","last_reported":1687723661,"current_range_meters":16800,"station_id":"","pricing_plan_id":"free"},{"bike_id":"f2a5eda5-0228-47ff-ad6d-f33d8cc7c037","system_id":"levelo_inurba_marseille","lat":43.26055,"lon":5.39395,"is_reserved":false,"is_disabled":false,"rental_uris":{"android":"levelo://app?vid=f2a5eda5-0228-47ff-ad6d-f33d8cc7c037","ios":"levelo://app?vid=f2a5eda5-0228-47ff-ad6d-f33d8cc7c037"},"vehicle_type_id":"4","last_reported":1687723661,"current_range_meters":30400,"station_id":"ce4bhh92rcd13ifvqfj0","pricing_plan_id":"free"},{"bike_id":"c509c272-74e3-419b-925d-d4cdd737bd3f","system_id":"levelo_inurba_marseille","lat":43.27499,"lon":5.42449,"is_reserved":false,"is_disabled":false,"rental_uris":{"android":"levelo://app?vid=c509c272-74e3-419b-925d-d4cdd737bd3f","ios":"levelo://app?vid=c509c272-74e3-419b-925d-d4cdd737bd3f"},"vehicle_type_id":"4","last_reported":1687723661,"current_range_meters":26400,"station_id":"ce4bhn92rcd13ifvqgrg","pricing_plan_id":"free"},{"bike_id":"abe207a3-4e0e-434c-afba-c5a243bfe3d5","system_id":"levelo_inurba_marseille","lat":43.27498,"lon":5.42452,"is_reserved":false,"is_disabled":false,"rental_uris":{"android":"levelo://app?vid=abe207a3-4e0e-434c-afba-c5a243bfe3d5","ios":"levelo://app?vid=abe207a3-4e0e-434c-afba-c5a243bfe3d5"},"vehicle_type_id":"4","last_reported":1687723661,"current_range_meters":31200,"station_id":"ce4bhn92rcd13ifvqgrg","pricing_plan_id":"free"},