{"last_updated":1743278972,"ttl":60,"version":"2.2","data":{"bikes":[{"bike_id":"b10ef664-6c03-42d8-8895-87a25927647b","system_id":"levelo_inurba_marseille","lat":43.31755,"lon":5.39016,"is_reserved":false,"is_disabled":false,"rental_uris":{"android":"levelo://app?vid=b10ef664-6c03-42d8-8895-87a25927647b","ios":"levelo://app?vid=b10ef664-6c03-42d8-8895-87a25927647b"},"vehicle_type_id":"4","last_reported":1743278972,"current_range_meters":2800,"station_id":"ce4bhqp2rcd13ifvqhng","pricing_plan_id":"cebpf4jnsgd1na2vs0mg"},{"bike_id":"ca8eaaa3-6706-4232-a20d-36c548bc4e48","system_id":"levelo_inurba_marseille","lat":43.27932,"lon":5.3955,"is_reserved":false,"is_disabled":false,"rental_uris":{"android":"levelo://app?vid=ca8eaaa3-6706-4232-a20d-36c548bc4e48","ios":"levelo://app?vid=ca8eaaa3-6706-4232-a20d-36c548bc4e48"},"vehicle_type_id":"4","last_reported":1743278972,"current_range_meters":2800,"station_id":"ce4bhf92rcd13ifvqf40","pricing_plan_id":"cebpf4jnsgd1na2vs0mg"},{"bike_id":"b56cacdd-5552-42d1-aa86-8838a2338381","system_id":"levelo_inurba_marseille","lat":43.27942,"lon":5.41043,"is_reserved":false,"is_disabled":false,"rental_uris":{"android":"levelo://app?vid=b56cacdd-5552-42d1-aa86-8838a2338381","ios":"levelo://app?vid=b56cacdd-5552-42d1-aa86-8838a2338381"},"vehicle_type_id":"4","last_reported":1743278972,"current_range_meters":2800,"station_id":"ce4bhnp2rcd13ifvqh0g","pricing_plan_id":"cebpf4jnsgd1na2vs0mg"},{"bike_id":"49a51163-dbbe-4808-a755-fd57cbf7fbd6","system_id":"levelo_inurba_marseille","lat":43.292931,"lon":5.374663,"is_reserved":false,"is_disabled":false,"rental_uris":{"android":"levelo://app?vid=49a51163-dbbe-4808-a755-fd57cbf7fbd6","ios":"levelo://app?vid=49a51163-dbbe-4808-a755-fd57cbf7fbd6"},"vehicle_type_id":"4","last_reported":1743278972,"current_range_meters":2800,"station_id":"ce4bgi12rcd13ifvqb70","pricing_plan_id":"cebpf4jnsgd1na2vs0mg"},{"bike_id":"e13c5804-8cfa-4e19-af0d-8fc5e4ec2833","system_id":"levelo_inurba_marseille","lat":43.31065,"lon":5.38351,"is_reserved":false,"is_disabled":false,"rental_uris":{"android":"levelo://app?vid=e13c5804-8cfa-4e19-af0d-8fc5e4ec2833","ios":"levelo://app?vid=e13c5804-8cfa-4e19-af0d-8fc5e4ec2833"},"vehicle_type_id":"4","last_reported":1743278972,"current_range_meters":2800,"station_id":"ce4bgv92rcd13ifvqcr0","pricing_plan_id":"cebpf4jnsgd1na2vs0mg"},{"bike_id":"eabe884e-dff1-46f8-9312-5ab1f8f15492","system_id":"levelo_inurba_marseille","lat":43.29245,"lon":5.36062,"is_reserved":false,"is_disabled":true,"rental_uris":{"android":"levelo://app?vid=eabe884e-dff1-46f8-9312-5ab1f8f15492","ios":"levelo://app?vid=eabe884e-dff1-46f8-9312-5ab1f8f15492"},"vehicle_type_id":"4","last_reported":1743278972,"current_range_meters":2800,"station_id":"ce4bhbh2rcd13ifvqeqg","pricing_plan_id":"cebpf4jnsgd1na2vs0mg"},{"bike_id":"c468d058-54f8-4597-8808-d07cc97dea88","system_id":"levelo_inurba_marseille","lat":43.29979,"lon":5.38488,"is_reserved":false,"is_disabled":false,"rental_uris":{"android":"levelo://app?vid=c468d058-54f8-4597-8808-d07cc97dea88","ios":"levelo://app?vid=c468d058-54f8-4597-8808-d07cc97dea88"},"vehicle_type_id":"4","last_reported":1743278972,"current_range_meters":2000,"station_id":"ce4bgj92rcd13ifvqbd0","pricing_plan_id":"cebpf4jnsgd1na2vs0mg"},{"bike_id":"f39b779d-aed8-49c3-847a-24b4757e70bf","system_id":"levelo_inurba_marseille","lat":43.290271,"lon":5.386379,"is_reserved":false,"is_disabled":false,"rental_uris":{"android":"levelo://app?vid=f39b779d-aed8-49c3-847a-24b4757e70bf","ios":"levelo://app?vid=f39b779d-aed8-49c3-847a-24b4757e70bf"},"vehicle_type_id":"4","last_reported":1743278972,"current_range_meters":3200,"station_id":"ce4bgkp2rcd13ifvqbmg","pricing_plan_id":"cebpf4jnsgd1na2vs0mg"},{"bike_id":"d3868e2f-dab3-4246-bfe9-a13d675d2804","system_id":"levelo_inurba_marseille","lat":43.29308,"lon":5.37181,"is_reserved":false,"is_disabled":false,"rental_uris":{"android":"levelo://app?vid=d3868e2f-dab3-4246-bfe9-a13d675d2804","ios":"levelo://app?vid=d3868e2f-dab3-4246-bfe9-a13d675d2804"},"vehicle_type_id":"4","last_reported":1743278972,"current_range_meters":3200,"station_id":"ce4bgh92rcd13ifvqb40","pricing_plan_id":"cebpf4jnsgd1na2vs0mg"},{"bike_id":"3e87c5b6-72fd-4db0-8652-21e052fe278c","system_id":"levelo_inurba_marseille","lat":43.2694,"lon":5.40289,"is_reserved":false,"is_disabled":false,"rental_uris":{"android":"levelo://app?vid=3e87c5b6-72fd-4db0-8652-21e052fe278c","ios":"levelo://app?vid=3e87c5b6-72fd-4db0-8652-21e052fe278c"},"vehicle_type_id":"4","last_reported":1743278972,"current_range_meters":3200,"station_id":"cjm6bp8fraef2m0cb0m0","pricing_plan_id":"cebpf4jnsgd1na2vs0mg"},{"bike_id":"21de5a6e-c99a-45ae-aeef-eb801debcb02","system_id":"levelo_inurba_marseille","lat":43.31275,"lon":5.38324,"is_reserved":false,"is_disabled":false,"rental_uris":{"android":"levelo://app?vid=21de5a6e-c99a-45ae-aeef-eb801debcb02","ios":"levelo://app?vid=21de5a6e-c99a-45ae-aeef-eb801debcb02"},"vehicle_type_id":"4","last_reported":1743278972,"current_range_meters":3200,"station_id":"","pricing_plan_id":"cebpf4jnsgd1na2vs0mg"},{"bike_id":"bfbb382a-b8f6-4088-ba91-0addbd72f2b4","system_id":"levelo_inurba_marseille","lat":43.30947,"lon":5.39036,"is_reserved":false,"is_disabled":false,"rental_uris":{"android":"levelo://app?vid=bfbb382a-b8f6-4088-ba91-0addbd72f2b4","ios":"levelo://app?vid=bfbb382a-b8f6-4088-ba91-0addbd72f2b4"},"vehicle_type_id":"4","last_reported":1743278972,"current_range_meters":3200,"station_id":"ce4bgup2rcd13ifvqco0","pricing_plan_id":"cebpf4jnsgd1na2vs0mg"},{"bike_id":"cb7c69dd-32bc-454a-8d4f-45f2eebbbd24","system_id":"levelo_inurba_marseille","lat":43.29531,"lon":5.38532,"is_reserved":false,"is_disabled":false,"rental_uris":{"android":"levelo://app?vid=cb7c69dd-32bc-454a-8d4f-45f2eebbbd24","ios":"levelo://app?vid=cb7c69dd-32bc-454a-8d4f-45f2eebbbd24"},"vehicle_type_id":"4","last_reported":1743278972,"current_range_meters":3200,"station_id":"ce4bgih2rcd13ifvqba0","pricing_plan_id":"cebpf4jnsgd1na2vs0mg"},{"bike_id":"c886a0b7-d094-4b8c-bebf-f183fc824e38","system_id":"levelo_inurba_marseille","lat":43.27799,"lon":5.39224,"is_reserved":false,"is_disabled":false,"rental_uris":{"android":"levelo://app?vid=c886a0b7-d094-4b8c-bebf-f183fc824e38","ios":"levelo://app?vid=c886a0b7-d094-4b8c-bebf-f183fc824e38"},"vehicle_type_id":"4","last_reported":1743278972,"current_range_meters":3200,"station_id":"ce4bhjp2rcd13ifvqga0","pricing_plan_id":"cebpf4jnsgd1na2vs0mg"},{"bike_id":"c35f7468-1371-4b51-bf37-de9b928bcd7e","system_id":"levelo_inurba_marseille","lat":43.27932,"lon":5.41245,"is_reserved":false,"is_disabled":false,"rental_uris":{"android":"levelo://app?vid=c35f7468-1371-4b51-bf37-de9b928bcd7e","ios":"levelo://app?vid=c35f7468-1371-4b51-bf37-de9b928bcd7e"},"vehicle_type_id":"4","last_reported":1743278972,"current_range_meters":3200,"station_id":"","pricing_plan_id":"cebpf4jnsgd1na2vs0mg"},{"bike_id":"a92d2a51-989e-45ce-914a-1d3947c5b6f6","system_id":"levelo_inurba_marseille","lat":43.28359,"lon":5.39836,"is_reserved":false,"is_disabled":false,"rental_uris":{"android":"levelo://app?vid=a92d2a51-989e-45ce-914a-1d3947c5b6f6","ios":"levelo://app?vid=a92d2a51-989e-45ce-914a-1d3947c5b6f6"},"vehicle_type_id":"4","last_reported":1743278972,"current_range_meters":3200,"station_id":"","pricing_plan_id":"cebpf4jnsgd1na2vs0mg"},{"bike_id":"bf486d29-80ae-43fc-9394-756ed3e2b73e","system_id":"levelo_inurba_marseille","lat":43.27992,"lon":5.40022,"is_reserved":false,"is_disabled":true,"rental_uris":{"android":"levelo://app?vid=bf486d29-80ae-43fc-9394-756ed3e2b73e","ios":"levelo://app?vid=bf486d29-80ae-43fc-9394-756ed3e2b73e"},"vehicle_type_id":"4","last_reported":1743278972,"current_range_meters":3600,"station_id":"ce4bho92rcd13ifvqh4g","pricing_plan_id":"cebpf4jnsgd1na2vs0mg"},{"bike_id":"953c41b8-7bed-436c-b6ea-3d6d2c26586e","system_id":"levelo_inurba_marseille","lat":43.29816,"lon":5.38102,"is_reserved":false,"is_disabled":false,"rental_uris":{"android":"levelo://app?vid=953c41b8-7bed-436c-b6ea-3d6d2c26586e","ios":"levelo://app?vid=953c41b8-7bed-436c-b6ea-3d6d2c26586e"},"vehicle_type_id":"4","last_reported":1743278972,"current_range_meters":3600,"station_id":"ce4bgip2rcd13ifvqbb0","pricing_plan_id":"cebpf4jnsgd1na2vs0mg"},{"bike_id":"86d934b7-5ded-4d2c-9e61-a1761db0d6f6","system_id":"levelo_inurba_marseille","lat":43.23959,"lon":5.36639,"is_reserved":false,"is_disabled":false,"rental_uris":{"android":"levelo://app?vid=86d934b7-5ded-4d2c-9e61-a1761db0d6f6","ios":"levelo://app?vid=86d934b7-5ded-4d2c-9e61-a1761db0d6f6"},"vehicle_type_id":"4","last_reported":1743278972,"current_range_meters":3600,"station_id":"ce4bhi12rcd13ifvqfp0","pricing_plan_id":"cebpf4jnsgd1na2vs0mg"},{"bike_id":"91dc9ae2-ef8d-4ab1-84b7-a5d89f736e21","system_id":"levelo_inurba_marseille","lat":43.25581,"lon":5.3825,"is_reserved":false,"is_disabled":true,"rental_uris":{"android":"levelo://app?vid=91dc9ae2-ef8d-4ab1-84b7-a5d89f736e21","ios":"levelo://app?vid=91dc9ae2-ef8d-4ab1-84b7-a5d89f736e21"},"vehicle_type_id":"4","last_reported":1743278972,"current_range_meters":3600,"station_id":"ce4bhih2rcd13ifvqfs0","pricing_plan_id":"cebpf4jnsgd1na2vs0mg"},{"bike_id":"ddc0ca4e-2279-4853-9e60-b4a681843bad","system_id":"levelo_inurba_marseille","lat":43.31266,"lon":5.40181,"is_reserved":false,"is_disabled":false,"rental_uris":{"android":"levelo://app?vid=ddc0ca4e-2279-4853-9e60-b4a681843bad","ios":"levelo://app?vid=ddc0ca4e-2279-4853-9e60-b4a681843bad"},"vehicle_type_id":"4","last_reported":1743278972,"current_range_meters":3600,"station_id":"ce4bh092rcd13ifvqd30","pricing_plan_id":"cebpf4jnsgd1na2vs0mg"},{"bike_id":"4b43b828-4d4b-4554-80cc-193e099cf825","system_id":"levelo_inurba_marseille","lat":43.31488,"lon":5.37296,"is_reserved":false,"is_disabled":false,"rental_uris":{"android":"levelo://app?vid=4b43b828-4d4b-4554-80cc-193e099cf825","ios":"levelo://app?vid=4b43b828-4d4b-4554-80cc-193e099cf825"},"vehicle_type_id":"4","last_reported":1743278972,"current_range_meters":4400,"station_id":"ce4bgt12rcd13ifvqcd0","pricing_plan_id":"cebpf4jnsgd1na2vs0mg"},{"bike_id":"4a42ca1e-41e4-4233-a4bb-a180f04564d6","system_id":"levelo_inurba_marseille","lat":43.29173,"lon":5.37137,"is_reserved":false,"is_disabled":false,"rental_uris":{"android":"levelo://app?vid=4a42ca1e-41e4-4233-a4bb-a180f04564d6","ios":"levelo://app?vid=4a42ca1e-41e4-4233-a4bb-a180f04564d6"},"vehicle_type_id":"4","last_reported":1743278972,"current_range_meters":4400,"station_id":"ce4bha92rcd13ifvqeh0","pricing_plan_id":"cebpf4jnsgd1na2vs0mg"},{"bike_id":"271ba379-4959-4468-8512-16fd962f6127","system_id":"levelo_inurba_marseille","lat":43.31174,"lon":5.38727,"is_reserved":false,"is_disabled":false,"rental_uris":{"android":"levelo://app?vid=271ba379-4959-4468-8512-16fd962f6127","ios":"levelo://app?vid=271ba379-4959-4468-8512-16fd962f6127"},"vehicle_type_id":"4","last_reported":1743278972,"current_range_meters":4400,"station_id":"ce4bgv12rcd13ifvqcp0","pricing_plan_id":"cebpf4jnsgd1na2vs0mg"},{"bike_id":"c82bf580-4ff0-4e08-8c02-2cfdbcdaf680","system_id":"levelo_inurba_marseille","lat":43.24821,"lon":5.37448,"is_reserved":false,"is_disabled":false,"rental_uris":{"android":"levelo://app?vid=c82bf580-4ff0-4e08-8c02-2cfdbcdaf680","ios":"levelo://app?vid=c82bf580-4ff0-4e08-8c02-2cfdbcdaf680"},"vehicle_type_id":"4","last_reported":1743278972,"current_range_meters":4400,"station_id":"ce4bhgh2rcd13ifvqfb0","pricing_plan_id":"cebpf4jnsgd1na2vs0mg"},{"bike_id":"656966cc-72f0-489c-a31b-56d8dd10d8ab","system_id":"levelo_inurba_marseille","lat":43.28354,"lon":5.3811,"is_reserved":false,"is_disabled":false,"rental_uris":{"android":"levelo://app?vid=656966cc-72f0-489c-a31b-56d8dd10d8ab","ios":"levelo://app?vid=656966cc-72f0-489c-a31b-56d8dd10d8ab"},"vehicle_type_id":"4","last_reported":1743278972,"current_range_meters":4800,"station_id":"ce4bh412rcd13ifvqdr0","pricing_plan_id":"cebpf4jnsgd1na2vs0mg"},{"bike_id":"d7c9e49f-9da5-4b2e-bae8-8dbfb05890a7","system_id":"levelo_inurba_marseille","lat":43.33366,"lon":5.40117,"is_reserved":false,"is_disabled":false,"rental_uris":{"android":"levelo://app?vid=d7c9e49f-9da5-4b2e-bae8-8dbfb05890a7","ios":"levelo://app?vid=d7c9e49f-9da5-4b2e-bae8-8dbfb05890a7"},"vehicle_type_id":"4","last_reported":1743278972,"current_range_meters":4800,"station_id":"","pricing_plan_id":"cebpf4jnsgd1na2vs0mg"},{"bike_id":"7be6dcd3-6b59-448b-b0e4-dc7574975526","system_id":"levelo_inurba_marseille","lat":43.30929,"lon":5.39004,"is_reserved":false,"is_disabled":false,"rental_uris":{"android":"levelo://app?vid=7be6dcd3-6b59-448b-b0e4-dc7574975526","ios":"levelo://app?vid=7be6dcd3-6b59-448b-b0e4-dc7574975526"},"vehicle_type_id":"4","last_reported":1743278972,"current_range_meters":4800,"station_id":"ce4bgup2rcd13ifvqco0","pricing_plan_id":"cebpf4jnsgd1na2vs0mg"},{"bike_id":"861ae205-c318-4688-ac53-947993e1b65f","system_id":"levelo_inurba_marseille","lat":43.24092,"lon":5.36437,"is_reserved":false,"is_disabled":false,"rental_uris":{"android":"levelo://app?vid=861ae205-c318-4688-ac53-947993e1b65f","ios":"levelo://app?vid=861ae205-c318-4688-ac53-947993e1b65f"},"vehicle_type_id":"4","last_reported":1743278972,"current_range_meters":4800,"station_id":"","pricing_plan_id":"cebpf4jnsgd1na2vs0mg"},{"bike_id":"d07bbd57-ed1b-4c94-b97a-239f7ec7154d","system_id":"levelo_inurba_marseille","lat":43.31166,"lon":5.38708,"is_reserved":false,"is_disabled":false,"rental_uris":{"android":"levelo://app?vid=d07bbd57-ed1b-4c94-b97a-239f7ec7154d","ios":"levelo://app?vid=d07bbd57-ed1b-4c94-b97a-239f7ec7154d"},"vehicle_type_id":"4","last_reported":1743278972,"current_range_meters":4800,"station_id":"ce4bgv12rcd13ifvqcp0","pricing_plan_id":"cebpf4jnsgd1na2vs0mg"},{"bike_id":"599ab4ec-12da-469c-8457-9a6320b82ec6","system_id":"levelo_inurba_marseille","lat":43.29175,"lon":5.37156,"is_reserved":false,"is_disabled":false,"rental_uris":{"android":"levelo://app?vid=599ab4ec-12da-469c-8457-9a6320b82ec6","ios":"levelo://app?vid=599ab4ec-12da-469c-8457-9a6320b82ec6"},"vehicle_type_id":"4","last_reported":1743278972,"current_range_meters":4800,"station_id":"ce4bha92rcd13ifvqeh0","pricing_plan_id":"cebpf4jnsgd1na2vs0mg"},{"bike_id":"53ca8648-c4ac-4f84-9554-feae1f1ef983","system_id":"levelo_inurba_marseille","lat":43.28671,"lon":5.38658,"is_reserved":false,"is_disabled":false,"rental_uris":{"android":"levelo://app?vid=53ca8648-c4ac-4f84-9554-feae1f1ef983","ios":"levelo://app?vid=53ca8648-c4ac-4f84-9554-feae1f1ef983"},"vehicle_type_id":"4","last_reported":1743278972,"current_range_meters":5600,"station_id":"ce4bh492rcd13ifvqdug","pricing_plan_id":"cebpf4jnsgd1na2vs0mg"},{"bike_id":"bfd81d1c-5b43-450e-824a-aa07f4666cfc","system_id":"levelo_inurba_marseille","lat":43.24819,"lon":5.37449,"is_reserved":false,"is_disabled":false,"rental_uris":{"android":"levelo://app?vid=bfd81d1c-5b43-450e-824a-aa07f4666cfc","ios":"levelo://app?vid=bfd81d1c-5b43-450e-824a-aa07f4666cfc"},"vehicle_type_id":"4","last_reported":1743278972,"current_range_meters":5600,"station_id":"ce4bhgh2rcd13ifvqfb0","pricing_plan_id":"cebpf4jnsgd1na2vs0mg"},{"bike_id":"c1b67603-d51e-4af2-bf28-3eb5747efda7","system_id":"levelo_inurba_marseille","lat":43.33019,"lon":5.39035,"is_reserved":false,"is_disabled":false,"rental_uris":{"android":"levelo://app?vid=c1b67603-d51e-4af2-bf28-3eb5747efda7","ios":"levelo://app?vid=c1b67603-d51e-4af2-bf28-3eb5747efda7"},"vehicle_type_id":"4","last_reported":1743278972,"current_range_meters":5600,"station_id":"ce4bhr92rcd13ifvqhrg","pricing_plan_id":"cebpf4jnsgd1na2vs0mg"},{"bike_id":"c665550f-8aad-4598-ba63-43c7c0e6be29","system_id":"levelo_inurba_marseille","lat":43.3038,"lon":5.42476,"is_reserved":false,"is_disabled":false,"rental_uris":{"android":"levelo://app?vid=c665550f-8aad-4598-ba63-43c7c0e6be29","ios":"levelo://app?vid=c665550f-8aad-4598-ba63-43c7c0e6be29"},"vehicle_type_id":"4","last_reported":1743278972,"current_range_meters":5600,"station_id":"ce4bhoh2rcd13ifvqh6g","pricing_plan_id":"cebpf4jnsgd1na2vs0mg"},{"bike_id":"5035eaaf-4c4b-4740-b3e0-521452716a6f","system_id":"levelo_inurba_marseille","lat":43.26206,"lon":5.37444,"is_reserved":false,"is_disabled":false,"rental_uris":{"android":"levelo://app?vid=5035eaaf-4c4b-4740-b3e0-521452716a6f","ios":"levelo://app?vid=5035eaaf-4c4b-4740-b3e0-521452716a6f"},"vehicle_type_id":"4","last_reported":1743278972,"current_range_meters":5600,"station_id":"ce4bhgp2rcd13ifvqfc0","pricing_plan_id":"cebpf4jnsgd1na2vs0mg"},{"bike_id":"971c92cb-66df-438d-9a85-e63af939e6ff","system_id":"levelo_inurba_marseille","lat":43.28615,"lon":5.35093,"is_reserved":false,"is_disabled":true,"rental_uris":{"android":"levelo://app?vid=971c92cb-66df-438d-9a85-e63af939e6ff","ios":"levelo://app?vid=971c92cb-66df-438d-9a85-e63af939e6ff"},"vehicle_type_id":"4","last_reported":1743278972,"current_range_meters":5600,"station_id":"ce4bhch2rcd13ifvqeug","pricing_plan_id":"cebpf4jnsgd1na2vs0mg"},{"bike_id":"cef8343e-fea8-4d57-bb1c-b1de939e7ceb","system_id":"levelo_inurba_marseille","lat":43.2706,"lon":5.40256,"is_reserved":false,"is_disabled":false,"rental_uris":{"android":"levelo://app?vid=cef8343e-fea8-4d57-bb1c-b1de939e7ceb","ios":"levelo://app?vid=cef8343e-fea8-4d57-bb1c-b1de939e7ceb"},"vehicle_type_id":"4","last_reported":1743278972,"current_range_meters":5600,"station_id":"ce4bhk92rcd13ifvqgc0","pricing_plan_id":"cebpf4jnsgd1na2vs0mg"},{"bike_id":"d61791f1-d0bc-4c79-a7b0-034264919f60","system_id":"levelo_inurba_marseille","lat":43.25119,"lon":5.40317,"is_reserved":false,"is_disabled":false,"rental_uris":{"android":"levelo://app?vid=d61791f1-d0bc-4c79-a7b0-034264919f60","ios":"levelo://app?vid=d61791f1-d0bc-4c79-a7b0-034264919f60"},"vehicle_type_id":"4","last_reported":1743278972,"current_range_meters":4800,"station_id":"ce4bhlh2rcd13ifvqgig","pricing_plan_id":"cebpf4jnsgd1na2vs0mg"},{"bike_id":"e4f5bd25-cc91-41ef-a765-c96c0f6c9180","system_id":"levelo_inurba_marseille","lat":43.2985,"lon":5.36287,"is_reserved":false,"is_disabled":false,"rental_uris":{"android":"levelo://app?vid=e4f5bd25-cc91-41ef-a765-c96c0f6c9180","ios":"levelo://app?vid=e4f5bd25-cc91-41ef-a765-c96c0f6c9180"},"vehicle_type_id":"4","last_reported":1743278972,"current_range_meters":6000,"station_id":"ce4bgpp2rcd13ifvqc3g","pricing_plan_id":"cebpf4jnsgd1na2vs0mg"},{"bike_id":"09938869-da87-44f5-b214-329cc751ae73","system_id":"levelo_inurba_marseille","lat":43.31532,"lon":5.37242,"is_reserved":false,"is_disabled":false,"rental_uris":{"android":"levelo://app?vid=09938869-da87-44f5-b214-329cc751ae73","ios":"levelo://app?vid=09938869-da87-44f5-b214-329cc751ae73"},"vehicle_type_id":"4","last_reported":1743278972,"current_range_meters":6000,"station_id":"","pricing_plan_id":"cebpf4jnsgd1na2vs0mg"},{"bike_id":"5110505c-5690-44af-bbd0-24562b3108c3","system_id":"levelo_inurba_marseille","lat":43.29532,"lon":5.39026,"is_reserved":false,"is_disabled":true,"rental_uris":{"android":"levelo://app?vid=5110505c-5690-44af-bbd0-24562b3108c3","ios":"levelo://app?vid=5110505c-5690-44af-bbd0-24562b3108c3"},"vehicle_type_id":"4","last_reported":1743278972,"current_range_meters":6000,"station_id":"ce4bh3p2rcd13ifvqdp0","pricing_plan_id":"cebpf4jnsgd1na2vs0mg"},{"bike_id":"90df0f14-f996-423e-b605-53c2c708242e","system_id":"levelo_inurba_marseille","lat":43.31704,"lon":5.40519,"is_reserved":false,"is_disabled":false,"rental_uris":{"android":"levelo://app?vid=90df0f14-f996-423e-b605-53c2c708242e","ios":"levelo://app?vid=90df0f14-f996-423e-b605-53c2c708242e"},"vehicle_type_id":"4","last_reported":1743278972,"current_range_meters":6000,"station_id":"ce4bh012rcd13ifvqd00","pricing_plan_id":"cebpf4jnsgd1na2vs0mg"},{"bike_id":"ad9a233d-7fa9-4124-9034-b1a8ddc1c8f3","system_id":"levelo_inurba_marseille","lat":43.23188,"lon":5.39988,"is_reserved":false,"is_disabled":false,"rental_uris":{"android":"levelo://app?vid=ad9a233d-7fa9-4124-9034-b1a8ddc1c8f3","ios":"levelo://app?vid=ad9a233d-7fa9-4124-9034-b1a8ddc1c8f3"},"vehicle_type_id":"4","last_reported":1743278972,"current_range_meters":6400,"station_id":"ce4bhn12rcd13ifvqgqg","pricing_plan_id":"cebpf4jnsgd1na2vs0mg"},{"bike_id":"bfbfca12-d4d2-4d74-b23f-680f24e799d6","system_id":"levelo_inurba_marseille","lat":43.32325,"lon":5.37537,"is_reserved":false,"is_disabled":false,"rental_uris":{"android":"levelo://app?vid=bfbfca12-d4d2-4d74-b23f-680f24e799d6","ios":"levelo://app?vid=bfbfca12-d4d2-4d74-b23f-680f24e799d6"},"vehicle_type_id":"4","last_reported":1743278972,"current_range_meters":6400,"station_id":"","pricing_plan_id":"cebpf4jnsgd1na2vs0mg"},{"bike_id":"d52a49fe-432a-4490-9df8-b2bc6bc83c67","system_id":"levelo_inurba_marseille","lat":43.29001,"lon":5.37544,"is_reserved":false,"is_disabled":false,"rental_uris":{"android":"levelo://app?vid=d52a49fe-432a-4490-9df8-b2bc6bc83c67","ios":"levelo://app?vid=d52a49fe-432a-4490-9df8-b2bc6bc83c67"},"vehicle_type_id":"4","last_reported":1743278972,"current_range_meters":6400,"station_id":"ce4bh692rcd13ifvqe90","pricing_plan_id":"cebpf4jnsgd1na2vs0mg"},{"bike_id":"bacd29ef-9e1d-4d44-a02c-60ef13cc2277","system_id":"levelo_inurba_marseille","lat":43.29413,"lon":5.38642,"is_reserved":false,"is_disabled":false,"rental_uris":{"android":"levelo://app?vid=bacd29ef-9e1d-4d44-a02c-60ef13cc2277","ios":"levelo://app?vid=bacd29ef-9e1d-4d44-a02c-60ef13cc2277"},"vehicle_type_id":"4","last_reported":1743278972,"current_range_meters":6400,"station_id":"ce4bh2h2rcd13ifvqdh0","pricing_plan_id":"cebpf4jnsgd1na2vs0mg"},{"bike_id":"43d3f610-2ea9-4eda-a4c8-e3f9706bb87c","system_id":"levelo_inurba_marseille","lat":43.30452,"lon":5.37341,"is_reserved":false,"is_disabled":false,"rental_uris":{"android":"levelo://app?vid=43d3f610-2ea9-4eda-a4c8-e3f9706bb87c","ios":"levelo://app?vid=43d3f610-2ea9-4eda-a4c8-e3f9706bb87c"},"vehicle_type_id":"4","last_reported":1743278972,"current_range_meters":6400,"station_id":"","pricing_plan_id":"cebpf4jnsgd1na2vs0mg"},{"bike_id":"8427ec08-8450-4262-9ece-c82d8c8ff9a5","system_id":"levelo_inurba_marseille","lat":43.30944,"lon":5.39054,"is_reserved":false,"is_disabled":false,"rental_uris":{"android":"levelo://app?vid=8427ec08-8450-4262-9ece-c82d8c8ff9a5","ios":"levelo://app?vid=8427ec08-8450-4262-9ece-c82d8c8ff9a5"},"vehicle_type_id":"4","last_reported":1743278972,"current_range_meters":6800,"station_id":"ce4bgup2rcd13ifvqco0","pricing_plan_id":"cebpf4jnsgd1na2vs0mg"},{"bike_id":"2864b3a0-86c2-4365-9c4a-2b8afd66be56","system_id":"levelo_inurba_marseille","lat":43.3095,"lon":5.39043,"is_reserved":false,"is_disabled":false,"rental_uris":{"android":"levelo://app?vid=2864b3a0-86c2-4365-9c4a-2b8afd66be56","ios":"levelo://app?vid=2864b3a0-86c2-4365-9c4a-2b8afd66be56"},"vehicle_type_id":"4","last_reported":1743278972,"current_range_meters":6800,"station_id":"ce4bgup2rcd13ifvqco0","pricing_plan_id":"cebpf4jnsgd1na2vs0mg"},{"bike_id":"8764e9cc-6a27-4832-baae-2810aa897615","system_id":"levelo_inurba_marseille","lat":43.30334,"lon":5.4119,"is_reserved":false,"is_disabled":false,"rental_uris":{"android":"levelo://app?vid=8764e9cc-6a27-4832-baae-2810aa897615","ios":"levelo://app?vid=8764e9cc-6a27-4832-baae-2810aa897615"},"vehicle_type_id":"4","last_reported":1743278972,"current_range_meters":6800,"station_id":"ce4bhop2rcd13ifvqh8g","pricing_plan_id":"cebpf4jnsgd1na2vs0mg"},{"bike_id":"fe763fb4-7bf6-467e-a4df-199deba8197f","system_id":"levelo_inurba_marseille","lat":43.29883,"lon":5.38905,"is_reserved":false,"is_disabled":false,"rental_uris":{"android":"levelo://app?vid=fe763fb4-7bf6-467e-a4df-199deba8197f","ios":"levelo://app?vid=fe763fb4-7bf6-467e-a4df-199deba8197f"},"vehicle_type_id":"4","last_reported":1743278972,"current_range_meters":6800,"station_id":"ce4bh392rcd13ifvqdl0","pricing_plan_id":"cebpf4jnsgd1na2vs0mg"},{"bike_id":"929cf576-be90-4201-8f34-7ae87659e741","system_id":"levelo_inurba_marseille","lat":43.29524,"lon":5.39386,"is_reserved":false,"is_disabled":false,"rental_uris":{"android":"levelo://app?vid=929cf576-be90-4201-8f34-7ae87659e741","ios":"levelo://app?vid=929cf576-be90-4201-8f34-7ae87659e741"},"vehicle_type_id":"4","last_reported":1743278972,"current_range_meters":6800,"station_id":"ce4bh292rcd13ifvqdf0","pricing_plan_id":"cebpf4jnsgd1na2vs0mg"},{"bike_id":"a0da8d2e-24fb-499a-a995-a0d0426d3f27","system_id":"levelo_inurba_marseille","lat":43.29169,"lon":5.3716,"is_reserved":false,"is_disabled":false,"rental_uris":{"android":"levelo://app?vid=a0da8d2e-24fb-499a-a995-a0d0426d3f27","ios":"levelo://app?vid=a0da8d2e-24fb-499a-a995-a0d0426d3f27"},"vehicle_type_id":"4","last_reported":1743278972,"current_range_meters":6800,"station_id":"ce4bha92rcd13ifvqeh0","pricing_plan_id":"cebpf4jnsgd1na2vs0mg"},{"bike_id":"cd2dc4de-70a1-432b-8900-303cf935d2f7","system_id":"levelo_inurba_marseille","lat":43.24835,"lon":5.37446,"is_reserved":false,"is_disabled":false,"rental_uris":{"android":"levelo://app?vid=cd2dc4de-70a1-432b-8900-303cf935d2f7","ios":"levelo://app?vid=cd2dc4de-70a1-432b-8900-303cf935d2f7"},"vehicle_type_id":"4","last_reported":1743278972,"current_range_meters":6800,"station_id":"","pricing_plan_id":"cebpf4jnsgd1na2vs0mg"},{"bike_id":"6d5a147c-377f-4f3b-a065-ec2a5dd5c534","system_id":"levelo_inurba_marseille","lat":43.30892,"lon":5.37194,"is_reserved":false,"is_disabled":false,"rental_uris":{"android":"levelo://app?vid=6d5a147c-377f-4f3b-a065-ec2a5dd5c534","ios":"levelo://app?vid=6d5a147c-377f-4f3b-a065-ec2a5dd5c534"},"vehicle_type_id":"4","last_reported":1743278972,"current_range_meters":7200,"station_id":"ce4bguh2rcd13ifvqckg","pricing_plan_id":"cebpf4jnsgd1na2vs0mg"},{"bike_id":"1b4e5c48-f3b8-4ca5-9244-3815d3918bd4","system_id":"levelo_inurba_marseille","lat":43.32371,"lon":5.38878,"is_reserved":false,"is_disabled":false,"rental_uris":{"android":"levelo://app?vid=1b4e5c48-f3b8-4ca5-9244-3815d3918bd4","ios":"levelo://app?vid=1b4e5c48-f3b8-4ca5-9244-3815d3918bd4"},"vehicle_type_id":"4","last_reported":1743278972,"current_range_meters":7200,"station_id":"ce4bhqp2rcd13ifvqhog","pricing_plan_id":"cebpf4jnsgd1na2vs0mg"},{"bike_id":"f47eba55-a588-4033-a3dc-992c836c995d","system_id":"levelo_inurba_marseille","lat":43.31692,"lon":5.40515,"is_reserved":false,"is_disabled":false,"rental_uris":{"android":"levelo://app?vid=f47eba55-a588-4033-a3dc-992c836c995d","ios":"levelo://app?vid=f47eba55-a588-4033-a3dc-992c836c995d"},"vehicle_type_id":"4","last_reported":1743278972,"current_range_meters":7200,"station_id":"ce4bh012rcd13ifvqd00","pricing_plan_id":"cebpf4jnsgd1na2vs0mg"},{"bike_id":"75cc05d3-74c4-4e8d-a3c6-dd269f319c25","system_id":"levelo_inurba_marseille","lat":43.27949,"lon":5.41054,"is_reserved":false,"is_disabled":false,"rental_uris":{"android":"levelo://app?vid=75cc05d3-74c4-4e8d-a3c6-dd269f319c25","ios":"levelo://app?vid=75cc05d3-74c4-4e8d-a3c6-dd269f319c25"},"vehicle_type_id":"4","last_reported":1743278972,"current_range_meters":7200,"station_id":"ce4bhnp2rcd13ifvqh0g","pricing_plan_id":"cebpf4jnsgd1na2vs0mg"},{"bike_id":"7b67fa6b-8fa7-4ca8-a597-e2d617a422ec","system_id":"levelo_inurba_marseille","lat":43.32319,"lon":5.38862,"is_reserved":false,"is_disabled":false,"rental_uris":{"android":"levelo://app?vid=7b67fa6b-8fa7-4ca8-a597-e2d617a422ec","ios":"levelo://app?vid=7b67fa6b-8fa7-4ca8-a597-e2d617a422ec"},"vehicle_type_id":"4","last_reported":1743278972,"current_range_meters":7200,"station_id":"","pricing_plan_id":"cebpf4jnsgd1na2vs0mg"},{"bike_id":"6082a6d8-29f3-4441-bd82-d0f95ead75d7","system_id":"levelo_inurba_marseille","lat":43.23185,"lon":5.35542,"is_reserved":false,"is_disabled":false,"rental_uris":{"android":"levelo://app?vid=6082a6d8-29f3-4441-bd82-d0f95ead75d7","ios":"levelo://app?vid=6082a6d8-29f3-4441-bd82-d0f95ead75d7"},"vehicle_type_id":"4","last_reported":1743278972,"current_range_meters":7200,"station_id":"ce4bhu92rcd13ifvqi70","pricing_plan_id":"cebpf4jnsgd1na2vs0mg"},{"bike_id":"fd5a39dd-96b5-442c-99c4-5577adc0b24b","system_id":"levelo_inurba_marseille","lat":43.2319,"lon":5.39955,"is_reserved":false,"is_disabled":false,"rental_uris":{"android":"levelo://app?vid=fd5a39dd-96b5-442c-99c4-5577adc0b24b","ios":"levelo://app?vid=fd5a39dd-96b5-442c-99c4-5577adc0b24b"},"vehicle_type_id":"4","last_reported":1743278972,"current_range_meters":7200,"station_id":"ce4bhn12rcd13ifvqgqg","pricing_plan_id":"cebpf4jnsgd1na2vs0mg"},{"bike_id":"8f272909-c529-4e7e-bf7e-16230ef4ff1d","system_id":"levelo_inurba_marseille","lat":43.23149,"lon":5.43707,"is_reserved":false,"is_disabled":false,"rental_uris":{"android":"levelo://app?vid=8f272909-c529-4e7e-bf7e-16230ef4ff1d","ios":"levelo://app?vid=8f272909-c529-4e7e-bf7e-16230ef4ff1d"},"vehicle_type_id":"4","last_reported":1743278972,"current_range_meters":7200,"station_id":"ce4bhmp2rcd13ifvqgog","pricing_plan_id":"cebpf4jnsgd1na2vs0mg"},{"bike_id":"8d6abdef-27aa-4d1b-9448-656a6296f19d","system_id":"levelo_inurba_marseille","lat":43.24171,"lon":5.39726,"is_reserved":false,"is_disabled":false,"rental_uris":{"android":"levelo://app?vid=8d6abdef-27aa-4d1b-9448-656a6296f19d","ios":"levelo://app?vid=8d6abdef-27aa-4d1b-9448-656a6296f19d"},"vehicle_type_id":"4","last_reported":1743278972,"current_range_meters":7200,"station_id":"ce4bhn12rcd13ifvqgpg","pricing_plan_id":"cebpf4jnsgd1na2vs0mg"},{"bike_id":"d5ffff0a-47db-470d-a1ce-99a37bfcd090","system_id":"levelo_inurba_marseille","lat":43.2862,"lon":5.35102,"is_reserved":false,"is_disabled":false,"rental_uris":{"android":"levelo://app?vid=d5ffff0a-47db-470d-a1ce-99a37bfcd090","ios":"levelo://app?vid=d5ffff0a-47db-470d-a1ce-99a37bfcd090"},"vehicle_type_id":"4","last_reported":1743278972,"current_range_meters":7200,"station_id":"ce4bhch2rcd13ifvqeug","pricing_plan_id":"cebpf4jnsgd1na2vs0mg"},{"bike_id":"0558bc66-2825-46b4-8c35-dfa19eca05b8","system_id":"levelo_inurba_marseille","lat":43.24402,"lon":5.37039,"is_reserved":false,"is_disabled":false,"rental_uris":{"android":"levelo://app?vid=0558bc66-2825-46b4-8c35-dfa19eca05b8","ios":"levelo://app?vid=0558bc66-2825-46b4-8c35-dfa19eca05b8"},"vehicle_type_id":"4","last_reported":1743278972,"current_range_meters":7200,"station_id":"ce4bhhh2rcd13ifvqfk0","pricing_plan_id":"cebpf4jnsgd1na2vs0mg"},{"bike_id":"f0c94876-4d0d-4ad3-b840-262f0e18580e","system_id":"levelo_inurba_marseille","lat":43.32106,"lon":5.36779,"is_reserved":false,"is_disabled":false,"rental_uris":{"android":"levelo://app?vid=f0c94876-4d0d-4ad3-b840-262f0e18580e","ios":"levelo://app?vid=f0c94876-4d0d-4ad3-b840-262f0e18580e"},"vehicle_type_id":"4","last_reported":1743278972,"current_range_meters":7200,"station_id":"ce4bhrh2rcd13ifvqhug","pricing_plan_id":"cebpf4jnsgd1na2vs0mg"},{"bike_id":"8636753c-793a-4788-872b-3fef2cc432a9","system_id":"levelo_inurba_marseille","lat":43.24676,"lon":5.38155,"is_reserved":false,"is_disabled":false,"rental_uris":{"android":"levelo://app?vid=8636753c-793a-4788-872b-3fef2cc432a9","ios":"levelo://app?vid=8636753c-793a-4788-872b-3fef2cc432a9"},"vehicle_type_id":"4","last_reported":1743278972,"current_range_meters":7200,"station_id":"ce4bhih2rcd13ifvqfr0","pricing_plan_id":"cebpf4jnsgd1na2vs0mg"},{"bike_id":"ac3bccc2-0067-481e-9d5d-692e3a369e7a","system_id":"levelo_inurba_marseille","lat":43.30605,"lon":5.39359,"is_reserved":false,"is_disabled":false,"rental_uris":{"android":"levelo://app?vid=ac3bccc2-0067-481e-9d5d-692e3a369e7a","ios":"levelo://app?vid=ac3bccc2-0067-481e-9d5d-692e3a369e7a"},"vehicle_type_id":"4","last_reported":1743278972,"current_range_meters":7200,"station_id":"ce4bh0p2rcd13ifvqd80","pricing_plan_id":"cebpf4jnsgd1na2vs0mg"},{"bike_id":"e79338af-0895-4308-a3fe-9096a9d613a3","system_id":"levelo_inurba_marseille","lat":43.29882,"lon":5.38908,"is_reserved":false,"is_disabled":false,"rental_uris":{"android":"levelo://app?vid=e79338af-0895-4308-a3fe-9096a9d613a3","ios":"levelo://app?vid=e79338af-0895-4308-a3fe-9096a9d613a3"},"vehicle_type_id":"4","last_reported":1743278972,"current_range_meters":6800,"station_id":"ce4bh392rcd13ifvqdl0","pricing_plan_id":"cebpf4jnsgd1na2vs0mg"},{"bike_id":"e01c9823-0a87-4f6a-9fc0-a543ab594bf9","system_id":"levelo_inurba_marseille","lat":43.29929,"lon":5.36549,"is_reserved":false,"is_disabled":false,"rental_uris":{"android":"levelo://app?vid=e01c9823-0a87-4f6a-9fc0-a543ab594bf9","ios":"levelo://app?vid=e01c9823-0a87-4f6a-9fc0-a543ab594bf9"},"vehicle_type_id":"4","last_reported":1743278972,"current_range_meters":7200,"station_id":"ce4bgm92rcd13ifvqbr0","pricing_plan_id":"cebpf4jnsgd1na2vs0mg"},{"bike_id":"4777850e-a840-44f2-a6a5-fd44a1ac41d3","system_id":"levelo_inurba_marseille","lat":43.28724,"lon":5.39988,"is_reserved":false,"is_disabled":true,"rental_uris":{"android":"levelo://app?vid=4777850e-a840-44f2-a6a5-fd44a1ac41d3","ios":"levelo://app?vid=4777850e-a840-44f2-a6a5-fd44a1ac41d3"},"vehicle_type_id":"4","last_reported":1743278972,"current_range_meters":8000,"station_id":"ce4bho92rcd13ifvqh3g","pricing_plan_id":"cebpf4jnsgd1na2vs0mg"},{"bike_id":"983c4c9f-ee1a-4d13-8ce7-bfd36c479f46","system_id":"levelo_inurba_marseille","lat":43.24167,"lon":5.36394,"is_reserved":false,"is_disabled":false,"rental_uris":{"android":"levelo://app?vid=983c4c9f-ee1a-4d13-8ce7-bfd36c479f46","ios":"levelo://app?vid=983c4c9f-ee1a-4d13-8ce7-bfd36c479f46"},"vehicle_type_id":"4","last_reported":1743278972,"current_range_meters":8000,"station_id":"cpo36qri1sfpv3e86is0","pricing_plan_id":"cebpf4jnsgd1na2vs0mg"},{"bike_id":"d110ea9c-afe8-47f1-b008-e66bc6e44a55","system_id":"levelo_inurba_marseille","lat":43.28411,"lon":5.35007,"is_reserved":false,"is_disabled":false,"rental_uris":{"android":"levelo://app?vid=d110ea9c-afe8-47f1-b008-e66bc6e44a55","ios":"levelo://app?vid=d110ea9c-afe8-47f1-b008-e66bc6e44a55"},"vehicle_type_id":"4","last_reported":1743278972,"current_range_meters":8000,"station_id":"ce4bhbh2rcd13ifvqepg","pricing_plan_id":"cebpf4jnsgd1na2vs0mg"},{"bike_id":"b7ca0d96-e60f-4d1f-bc4a-ce97b1e8cceb","system_id":"levelo_inurba_marseille","lat":43.27829,"lon":5.39219,"is_reserved":false,"is_disabled":false,"rental_uris":{"android":"levelo://app?vid=b7ca0d96-e60f-4d1f-bc4a-ce97b1e8cceb","ios":"levelo://app?vid=b7ca0d96-e60f-4d1f-bc4a-ce97b1e8cceb"},"vehicle_type_id":"4","last_reported":1743278972,"current_range_meters":8000,"station_id":"ce4bhjp2rcd13ifvqga0","pricing_plan_id":"cebpf4jnsgd1na2vs0mg"},{"bike_id":"b5ace6c6-32e3-486d-9744-efb1ce0dfa9d","system_id":"levelo_inurba_marseille","lat":43.28906,"lon":5.37102,"is_reserved":false,"is_disabled":true,"rental_uris":{"android":"levelo://app?vid=b5ace6c6-32e3-486d-9744-efb1ce0dfa9d","ios":"levelo://app?vid=b5ace6c6-32e3-486d-9744-efb1ce0dfa9d"},"vehicle_type_id":"4","last_reported":1743278972,"current_range_meters":8000,"station_id":"","pricing_plan_id":"cebpf4jnsgd1na2vs0mg"},{"bike_id":"87fc32a8-b064-4884-b590-9fc1ae32af5f","system_id":"levelo_inurba_marseille","lat":43.31891,"lon":5.37942,"is_reserved":false,"is_disabled":false,"rental_uris":{"android":"levelo://app?vid=87fc32a8-b064-4884-b590-9fc1ae32af5f","ios":"levelo://app?vid=87fc32a8-b064-4884-b590-9fc1ae32af5f"},"vehicle_type_id":"4","last_reported":1743278972,"current_range_meters":8000,"station_id":"","pricing_plan_id":"cebpf4jnsgd1na2vs0mg"},{"bike_id":"067b4f1d-9103-4472-9d36-15c7ffd463e7","system_id":"levelo_inurba_marseille","lat":43.25472,"lon":5.37657,"is_reserved":false,"is_disabled":false,"rental_uris":{"android":"levelo://app?vid=067b4f1d-9103-4472-9d36-15c7ffd463e7","ios":"levelo://app?vid=067b4f1d-9103-4472-9d36-15c7ffd463e7"},"vehicle_type_id":"4","last_reported":1743278972,"current_range_meters":8000,"station_id":"ce4bhh12rcd13ifvqff0","pricing_plan_id":"cebpf4jnsgd1na2vs0mg"},{"bike_id":"897c0b50-c5d1-426a-8708-0401c90fc4df","system_id":"levelo_inurba_marseille","lat":43.26694,"lon":5.3827,"is_reserved":false,"is_disabled":false,"rental_uris":{"android":"levelo://app?vid=897c0b50-c5d1-426a-8708-0401c90fc4df","ios":"levelo://app?vid=897c0b50-c5d1-426a-8708-0401c90fc4df"},"vehicle_type_id":"4","last_reported":1743278972,"current_range_meters":8000,"station_id":"ce4bhg92rcd13ifvqf90","pricing_plan_id":"cebpf4jnsgd1na2vs0mg"},{"bike_id":"e4614adf-59ca-49c9-9f29-fb2629aacd37","system_id":"levelo_inurba_marseille","lat":43.28772,"lon":5.34973,"is_reserved":false,"is_disabled":false,"rental_uris":{"android":"levelo://app?vid=e4614adf-59ca-49c9-9f29-fb2629aacd37","ios":"levelo://app?vid=e4614adf-59ca-49c9-9f29-fb2629aacd37"},"vehicle_type_id":"4","last_reported":1743278972,"current_range_meters":8000,"station_id":"","pricing_plan_id":"cebpf4jnsgd1na2vs0mg"},{"bike_id":"f6925b6c-b8ce-4863-9174-75310d39c7e8","system_id":"levelo_inurba_marseille","lat":43.229126,"lon":5.353455,"is_reserved":false,"is_disabled":false,"rental_uris":{"android":"levelo://app?vid=f6925b6c-b8ce-4863-9174-75310d39c7e8","ios":"levelo://app?vid=f6925b6c-b8ce-4863-9174-75310d39c7e8"},"vehicle_type_id":"4","last_reported":1743278972,"current_range_meters":8000,"station_id":"cpo3532slgdg3j2ikp40","pricing_plan_id":"cebpf4jnsgd1na2vs0mg"},{"bike_id":"86402da5-f9ef-43b6-a281-06ce7c4c3160","system_id":"levelo_inurba_marseille","lat":43.28625,"lon":5.35107,"is_reserved":false,"is_disabled":false,"rental_uris":{"android":"levelo://app?vid=86402da5-f9ef-43b6-a281-06ce7c4c3160","ios":"levelo://app?vid=86402da5-f9ef-43b6-a281-06ce7c4c3160"},"vehicle_type_id":"4","last_reported":1743278972,"current_range_meters":8400,"station_id":"ce4bhch2rcd13ifvqeug","pricing_plan_id":"cebpf4jnsgd1na2vs0mg"},{"bike_id":"87419da9-2756-4467-ad1c-32791a7059fe","system_id":"levelo_inurba_marseille","lat":43.3088,"lon":5.39665,"is_reserved":false,"is_disabled":false,"rental_uris":{"android":"levelo://app?vid=87419da9-2756-4467-ad1c-32791a7059fe","ios":"levelo://app?vid=87419da9-2756-4467-ad1c-32791a7059fe"},"vehicle_type_id":"4","last_reported":1743278972,"current_range_meters":8000,"station_id":"ce4bh012rcd13ifvqcv0","pricing_plan_id":"cebpf4jnsgd1na2vs0mg"},{"bike_id":"b1ecd358-38ec-4753-8af1-9b87454b444a","system_id":"levelo_inurba_marseille","lat":43.28631,"lon":5.35099,"is_reserved":false,"is_disabled":false,"rental_uris":{"android":"levelo://app?vid=b1ecd358-38ec-4753-8af1-9b87454b444a","ios":"levelo://app?vid=b1ecd358-38ec-4753-8af1-9b87454b444a"},"vehicle_type_id":"4","last_reported":1743278972,"current_range_meters":8400,"station_id":"ce4bhch2rcd13ifvqeug","pricing_plan_id":"cebpf4jnsgd1na2vs0mg"},{"bike_id":"a36a9ec1-537e-4091-9d7a-dd0444d14e10","system_id":"levelo_inurba_marseille","lat":43.24813,"lon":5.37498,"is_reserved":false,"is_disabled":false,"rental_uris":{"android":"levelo://app?vid=a36a9ec1-537e-4091-9d7a-dd0444d14e10","ios":"levelo://app?vid=a36a9ec1-537e-4091-9d7a-dd0444d14e10"},"vehicle_type_id":"4","last_reported":1743278972,"current_range_meters":8400,"station_id":"ce4bhgh2rcd13ifvqfb0","pricing_plan_id":"cebpf4jnsgd1na2vs0mg"},{"bike_id":"cb0fbdca-c9b7-42c5-a416-ec0198564b78","system_id":"levelo_inurba_marseille","lat":43.29422,"lon":5.38629,"is_reserved":false,"is_disabled":false,"rental_uris":{"android":"levelo://app?vid=cb0fbdca-c9b7-42c5-a416-ec0198564b78","ios":"levelo://app?vid=cb0fbdca-c9b7-42c5-a416-ec0198564b78"},"vehicle_type_id":"4","last_reported":1743278972,"current_range_meters":8400,"station_id":"","pricing_plan_id":"cebpf4jnsgd1na2vs0mg"},{"bike_id":"1a8ec8fe-cd0f-44f4-9a76-dfc354a60ccc","system_id":"levelo_inurba_marseille","lat":43.23959,"lon":5.3663,"is_reserved":false,"is_disabled":false,"rental_uris":{"android":"levelo://app?vid=1a8ec8fe-cd0f-44f4-9a76-dfc354a60ccc","ios":"levelo://app?vid=1a8ec8fe-cd0f-44f4-9a76-dfc354a60ccc"},"vehicle_type_id":"4","last_reported":1743278972,"current_range_meters":8400,"station_id":"ce4bhi12rcd13ifvqfp0","pricing_plan_id":"cebpf4jnsgd1na2vs0mg"},{"bike_id":"6145254f-f2bf-466c-86d5-66f4c642de5e","system_id":"levelo_inurba_marseille","lat":43.33017,"lon":5.39044,"is_reserved":false,"is_disabled":false,"rental_uris":{"android":"levelo://app?vid=6145254f-f2bf-466c-86d5-66f4c642de5e","ios":"levelo://app?vid=6145254f-f2bf-466c-86d5-66f4c642de5e"},"vehicle_type_id":"4","last_reported":1743278972,"current_range_meters":8400,"station_id":"ce4bhr92rcd13ifvqhrg","pricing_plan_id":"cebpf4jnsgd1na2vs0mg"},{"bike_id":"d14cdd1e-f0b3-48a5-be5e-77128af69a2d","system_id":"levelo_inurba_marseille","lat":43.28648,"lon":5.35098,"is_reserved":false,"is_disabled":false,"rental_uris":{"android":"levelo://app?vid=d14cdd1e-f0b3-48a5-be5e-77128af69a2d","ios":"levelo://app?vid=d14cdd1e-f0b3-48a5-be5e-77128af69a2d"},"vehicle_type_id":"4","last_reported":1743278972,"current_range_meters":8400,"station_id":"ce4bhch2rcd13ifvqeug","pricing_plan_id":"cebpf4jnsgd1na2vs0mg"},{"bike_id":"80c7fdd8-69cd-4a2e-bd16-2e9773a45b49","system_id":"levelo_inurba_marseille","lat":43.30099,"lon":5.39076,"is_reserved":false,"is_disabled":false,"rental_uris":{"android":"levelo://app?vid=80c7fdd8-69cd-4a2e-bd16-2e9773a45b49","ios":"levelo://app?vid=80c7fdd8-69cd-4a2e-bd16-2e9773a45b49"},"vehicle_type_id":"4","last_reported":1743278972,"current_range_meters":8800,"station_id":"ce4bh192rcd13ifvqdb0","pricing_plan_id":"cebpf4jnsgd1na2vs0mg"},{"bike_id":"96fa1290-e699-40b9-9109-379d3b77c6fb","system_id":"levelo_inurba_marseille","lat":43.33751,"lon":5.39183,"is_reserved":false,"is_disabled":false,"rental_uris":{"android":"levelo://app?vid=96fa1290-e699-40b9-9109-379d3b77c6fb","ios":"levelo://app?vid=96fa1290-e699-40b9-9109-379d3b77c6fb"},"vehicle_type_id":"4","last_reported":1743278972,"current_range_meters":8800,"station_id":"ce4bhr92rcd13ifvqhsg","pricing_plan_id":"cebpf4jnsgd1na2vs0mg"},{"bike_id":"47475a94-c966-4e94-adab-cd0008807d22","system_id":"levelo_inurba_marseille","lat":43.29523,"lon":5.39394,"is_reserved":false,"is_disabled":false,"rental_uris":{"android":"levelo://app?vid=47475a94-c966-4e94-adab-cd0008807d22","ios":"levelo://app?vid=47475a94-c966-4e94-adab-cd0008807d22"},"vehicle_type_id":"4","last_reported":1743278972,"current_range_meters":8800,"station_id":"ce4bh292rcd13ifvqdf0","pricing_plan_id":"cebpf4jnsgd1na2vs0mg"},{"bike_id":"296d0da0-4cc4-40ab-acd1-7c240f5eee02","system_id":"levelo_inurba_marseille","lat":43.30579,"lon":5.37658,"is_reserved":false,"is_disabled":false,"rental_uris":{"android":"levelo://app?vid=296d0da0-4cc4-40ab-acd1-7c240f5eee02","ios":"levelo://app?vid=296d0da0-4cc4-40ab-acd1-7c240f5eee02"},"vehicle_type_id":"4","last_reported":1743278972,"current_range_meters":8800,"station_id":"","pricing_plan_id":"cebpf4jnsgd1na2vs0mg"},{"bike_id":"4b2323ae-94b8-41f7-9062-4d9bd4bd549e","system_id":"levelo_inurba_marseille","lat":43.24176,"lon":5.36404,"is_reserved":false,"is_disabled":false,"rental_uris":{"android":"levelo://app?vid=4b2323ae-94b8-41f7-9062-4d9bd4bd549e","ios":"levelo://app?vid=4b2323ae-94b8-41f7-9062-4d9bd4bd549e"},"vehicle_type_id":"4","last_reported":1743278972,"current_range_meters":8800,"station_id":"cpo36qri1sfpv3e86is0","pricing_plan_id":"cebpf4jnsgd1na2vs0mg"},{"bike_id":"9f35d0f4-4b8c-4206-bc1b-287d632c69e7","system_id":"levelo_inurba_marseille","lat":43.29264,"lon":5.38449,"is_reserved":false,"is_disabled":false,"rental_uris":{"android":"levelo://app?vid=9f35d0f4-4b8c-4206-bc1b-287d632c69e7","ios":"levelo://app?vid=9f35d0f4-4b8c-4206-bc1b-287d632c69e7"},"vehicle_type_id":"4","last_reported":1743278972,"current_range_meters":8800,"station_id":"ce4bh692rcd13ifvqea0","pricing_plan_id":"cebpf4jnsgd1na2vs0mg"},{"bike_id":"ead4c104-8a40-4fb6-98aa-c7ada2ea4e52","system_id":"levelo_inurba_marseille","lat":43.2979,"lon":5.38108,"is_reserved":false,"is_disabled":false,"rental_uris":{"android":"levelo://app?vid=ead4c104-8a40-4fb6-98aa-c7ada2ea4e52","ios":"levelo://app?vid=ead4c104-8a40-4fb6-98aa-c7ada2ea4e52"},"vehicle_type_id":"4","last_reported":1743278972,"current_range_meters":8800,"station_id":"ce4bgip2rcd13ifvqbb0","pricing_plan_id":"cebpf4jnsgd1na2vs0mg"},{"bike_id":"d74db411-6506-45af-b6cf-69c9600e9252","system_id":"levelo_inurba_marseille","lat":43.32364,"lon":5.38882,"is_reserved":false,"is_disabled":false,"rental_uris":{"android":"levelo://app?vid=d74db411-6506-45af-b6cf-69c9600e9252","ios":"levelo://app?vid=d74db411-6506-45af-b6cf-69c9600e9252"},"vehicle_type_id":"4","last_reported":1743278972,"current_range_meters":8800,"station_id":"ce4bhqp2rcd13ifvqhog","pricing_plan_id":"cebpf4jnsgd1na2vs0mg"},{"bike_id":"4586e23a-2d77-446c-8e8c-a15b6ae5de02","system_id":"levelo_inurba_marseille","lat":43.28595,"lon":5.38149,"is_reserved":false,"is_disabled":false,"rental_uris":{"android":"levelo://app?vid=4586e23a-2d77-446c-8e8c-a15b6ae5de02","ios":"levelo://app?vid=4586e23a-2d77-446c-8e8c-a15b6ae5de02"},"vehicle_type_id":"4","last_reported":1743278972,"current_range_meters":8800,"station_id":"","pricing_plan_id":"cebpf4jnsgd1na2vs0mg"},{"bike_id":"e098fe3e-cff8-4a3a-9aa4-63c76b98eb0b","system_id":"levelo_inurba_marseille","lat":43.298812,"lon":5.388958,"is_reserved":false,"is_disabled":false,"rental_uris":{"android":"levelo://app?vid=e098fe3e-cff8-4a3a-9aa4-63c76b98eb0b","ios":"levelo://app?vid=e098fe3e-cff8-4a3a-9aa4-63c76b98eb0b"},"vehicle_type_id":"4","last_reported":1743278972,"current_range_meters":8800,"station_id":"ce4bh392rcd13ifvqdl0","pricing_plan_id":"cebpf4jnsgd1na2vs0mg"},{"bike_id":"75a2b3e7-1b46-40af-aa39-761a03f28c75","system_id":"levelo_inurba_marseille","lat":43.30938,"lon":5.39039,"is_reserved":false,"is_disabled":false,"rental_uris":{"android":"levelo://app?vid=75a2b3e7-1b46-40af-aa39-761a03f28c75","ios":"levelo://app?vid=75a2b3e7-1b46-40af-aa39-761a03f28c75"},"vehicle_type_id":"4","last_reported":1743278972,"current_range_meters":8800,"station_id":"ce4bgup2rcd13ifvqco0","pricing_plan_id":"cebpf4jnsgd1na2vs0mg"},{"bike_id":"3b9e2dbb-dda4-4ed5-8aef-7e67e6437f0d","system_id":"levelo_inurba_marseille","lat":43.33331,"lon":5.40143,"is_reserved":false,"is_disabled":false,"rental_uris":{"android":"levelo://app?vid=3b9e2dbb-dda4-4ed5-8aef-7e67e6437f0d","ios":"levelo://app?vid=3b9e2dbb-dda4-4ed5-8aef-7e67e6437f0d"},"vehicle_type_id":"4","last_reported":1743278972,"current_range_meters":8800,"station_id":"","pricing_plan_id":"cebpf4jnsgd1na2vs0mg"},{"bike_id":"b939bb21-1fef-452c-8346-293b93b9f44d","system_id":"levelo_inurba_marseille","lat":43.29912,"lon":5.38131,"is_reserved":false,"is_disabled":false,"rental_uris":{"android":"levelo://app?vid=b939bb21-1fef-452c-8346-293b93b9f44d","ios":"levelo://app?vid=b939bb21-1fef-452c-8346-293b93b9f44d"},"vehicle_type_id":"4","last_reported":1743278972,"current_range_meters":9200,"station_id":"ce4bgj12rcd13ifvqbc0","pricing_plan_id":"cebpf4jnsgd1na2vs0mg"},{"bike_id":"060c2f75-ad6e-48e9-b1c7-2e2cbd662a3b","system_id":"levelo_inurba_marseille","lat":43.28359,"lon":5.38106,"is_reserved":false,"is_disabled":false,"rental_uris":{"android":"levelo://app?vid=060c2f75-ad6e-48e9-b1c7-2e2cbd662a3b","ios":"levelo://app?vid=060c2f75-ad6e-48e9-b1c7-2e2cbd662a3b"},"vehicle_type_id":"4","last_reported":1743278972,"current_range_meters":8800,"station_id":"ce4bh412rcd13ifvqdr0","pricing_plan_id":"cebpf4jnsgd1na2vs0mg"},{"bike_id":"002e376d-65b1-4ec9-bfee-78aff2d8798d","system_id":"levelo_inurba_marseille","lat":43.29299,"lon":5.37171,"is_reserved":false,"is_disabled":false,"rental_uris":{"android":"levelo://app?vid=002e376d-65b1-4ec9-bfee-78aff2d8798d","ios":"levelo://app?vid=002e376d-65b1-4ec9-bfee-78aff2d8798d"},"vehicle_type_id":"4","last_reported":1743278972,"current_range_meters":9200,"station_id":"ce4bgh92rcd13ifvqb40","pricing_plan_id":"cebpf4jnsgd1na2vs0mg"},{"bike_id":"77eed676-a1ab-4e56-81a4-2c20da9f73fa","system_id":"levelo_inurba_marseille","lat":43.3013,"lon":5.3741,"is_reserved":false,"is_disabled":false,"rental_uris":{"android":"levelo://app?vid=77eed676-a1ab-4e56-81a4-2c20da9f73fa","ios":"levelo://app?vid=77eed676-a1ab-4e56-81a4-2c20da9f73fa"},"vehicle_type_id":"4","last_reported":1743278972,"current_range_meters":9200,"station_id":"ce4bgs92rcd13ifvqcc0","pricing_plan_id":"cebpf4jnsgd1na2vs0mg"},{"bike_id":"43228cf7-b173-4030-b1c1-8f7de2a73718","system_id":"levelo_inurba_marseille","lat":43.29029,"lon":5.37571,"is_reserved":false,"is_disabled":false,"rental_uris":{"android":"levelo://app?vid=43228cf7-b173-4030-b1c1-8f7de2a73718","ios":"levelo://app?vid=43228cf7-b173-4030-b1c1-8f7de2a73718"},"vehicle_type_id":"4","last_reported":1743278972,"current_range_meters":9200,"station_id":"ce4bh692rcd13ifvqe90","pricing_plan_id":"cebpf4jnsgd1na2vs0mg"},{"bike_id":"f201a67e-2664-476b-aef3-64547c4ba210","system_id":"levelo_inurba_marseille","lat":43.26563,"lon":5.39002,"is_reserved":false,"is_disabled":false,"rental_uris":{"android":"levelo://app?vid=f201a67e-2664-476b-aef3-64547c4ba210","ios":"levelo://app?vid=f201a67e-2664-476b-aef3-64547c4ba210"},"vehicle_type_id":"4","last_reported":1743278972,"current_range_meters":9200,"station_id":"ce4bhe12rcd13ifvqf30","pricing_plan_id":"cebpf4jnsgd1na2vs0mg"},{"bike_id":"a46eee69-d8c0-4672-bd70-3458f8a9f5f5","system_id":"levelo_inurba_marseille","lat":43.28353,"lon":5.38098,"is_reserved":false,"is_disabled":false,"rental_uris":{"android":"levelo://app?vid=a46eee69-d8c0-4672-bd70-3458f8a9f5f5","ios":"levelo://app?vid=a46eee69-d8c0-4672-bd70-3458f8a9f5f5"},"vehicle_type_id":"4","last_reported":1743278972,"current_range_meters":9200,"station_id":"ce4bh412rcd13ifvqdr0","pricing_plan_id":"cebpf4jnsgd1na2vs0mg"},{"bike_id":"0ac38957-13db-4993-8705-a2c070e0bc23","system_id":"levelo_inurba_marseille","lat":43.24177,"lon":5.39723,"is_reserved":false,"is_disabled":false,"rental_uris":{"android":"levelo://app?vid=0ac38957-13db-4993-8705-a2c070e0bc23","ios":"levelo://app?vid=0ac38957-13db-4993-8705-a2c070e0bc23"},"vehicle_type_id":"4","last_reported":1743278972,"current_range_meters":9200,"station_id":"ce4bhn12rcd13ifvqgpg","pricing_plan_id":"cebpf4jnsgd1na2vs0mg"},{"bike_id":"a3e7a337-0d3b-4cc5-b08e-e22a14545146","system_id":"levelo_inurba_marseille","lat":43.31767,"lon":5.39004,"is_reserved":false,"is_disabled":false,"rental_uris":{"android":"levelo://app?vid=a3e7a337-0d3b-4cc5-b08e-e22a14545146","ios":"levelo://app?vid=a3e7a337-0d3b-4cc5-b08e-e22a14545146"},"vehicle_type_id":"4","last_reported":1743278972,"current_range_meters":9200,"station_id":"ce4bhqp2rcd13ifvqhng","pricing_plan_id":"cebpf4jnsgd1na2vs0mg"},{"bike_id":"d7ecebd2-9e49-43ae-916e-d63e5d709fed","system_id":"levelo_inurba_marseille","lat":43.3136,"lon":5.38489,"is_reserved":false,"is_disabled":false,"rental_uris":{"android":"levelo://app?vid=d7ecebd2-9e49-43ae-916e-d63e5d709fed","ios":"levelo://app?vid=d7ecebd2-9e49-43ae-916e-d63e5d709fed"},"vehicle_type_id":"4","last_reported":1743278972,"current_range_meters":9200,"station_id":"ce4bgt92rcd13ifvqcf0","pricing_plan_id":"cebpf4jnsgd1na2vs0mg"},{"bike_id":"5a3307a6-54ca-44bc-a5fd-ab80751e6464","system_id":"levelo_inurba_marseille","lat":43.23185,"lon":5.39996,"is_reserved":false,"is_disabled":true,"rental_uris":{"android":"levelo://app?vid=5a3307a6-54ca-44bc-a5fd-ab80751e6464","ios":"levelo://app?vid=5a3307a6-54ca-44bc-a5fd-ab80751e6464"},"vehicle_type_id":"4","last_reported":1743278972,"current_range_meters":9200,"station_id":"ce4bhn12rcd13ifvqgqg","pricing_plan_id":"cebpf4jnsgd1na2vs0mg"},{"bike_id":"d1d6bfe6-e897-453f-a8a9-e8d575fbf64d","system_id":"levelo_inurba_marseille","lat":43.30949,"lon":5.39033,"is_reserved":false,"is_disabled":false,"rental_uris":{"android":"levelo://app?vid=d1d6bfe6-e897-453f-a8a9-e8d575fbf64d","ios":"levelo://app?vid=d1d6bfe6-e897-453f-a8a9-e8d575fbf64d"},"vehicle_type_id":"4","last_reported":1743278972,"current_range_meters":9200,"station_id":"ce4bgup2rcd13ifvqco0","pricing_plan_id":"cebpf4jnsgd1na2vs0mg"},{"bike_id":"87720f89-b96b-4a09-afe1-f8e2aec742dd","system_id":"levelo_inurba_marseille","lat":43.29026,"lon":5.3814,"is_reserved":false,"is_disabled":false,"rental_uris":{"android":"levelo://app?vid=87720f89-b96b-4a09-afe1-f8e2aec742dd","ios":"levelo://app?vid=87720f89-b96b-4a09-afe1-f8e2aec742dd"},"vehicle_type_id":"4","last_reported":1743278972,"current_range_meters":9200,"station_id":"ce4bh4p2rcd13ifvqe1g","pricing_plan_id":"cebpf4jnsgd1na2vs0mg"},{"bike_id":"4b32355b-7cb2-4761-ac10-e7e10aa3ec76","system_id":"levelo_inurba_marseille","lat":43.2481,"lon":5.37454,"is_reserved":false,"is_disabled":false,"rental_uris":{"android":"levelo://app?vid=4b32355b-7cb2-4761-ac10-e7e10aa3ec76","ios":"levelo://app?vid=4b32355b-7cb2-4761-ac10-e7e10aa3ec76"},"vehicle_type_id":"4","last_reported":1743278972,"current_range_meters":9600,"station_id":"ce4bhgh2rcd13ifvqfb0","pricing_plan_id":"cebpf4jnsgd1na2vs0mg"},{"bike_id":"24565657-e482-4932-93db-e35fe49c2025","system_id":"levelo_inurba_marseille","lat":43.26673,"lon":5.38286,"is_reserved":false,"is_disabled":false,"rental_uris":{"android":"levelo://app?vid=24565657-e482-4932-93db-e35fe49c2025","ios":"levelo://app?vid=24565657-e482-4932-93db-e35fe49c2025"},"vehicle_type_id":"4","last_reported":1743278972,"current_range_meters":9600,"station_id":"ce4bhg92rcd13ifvqf90","pricing_plan_id":"cebpf4jnsgd1na2vs0mg"},{"bike_id":"ed7b005a-b7e0-4c12-9321-b4b317324001","system_id":"levelo_inurba_marseille","lat":43.30416,"lon":5.39772,"is_reserved":false,"is_disabled":false,"rental_uris":{"android":"levelo://app?vid=ed7b005a-b7e0-4c12-9321-b4b317324001","ios":"levelo://app?vid=ed7b005a-b7e0-4c12-9321-b4b317324001"},"vehicle_type_id":"4","last_reported":1743278972,"current_range_meters":9600,"station_id":"ce4bh092rcd13ifvqd20","pricing_plan_id":"cebpf4jnsgd1na2vs0mg"},{"bike_id":"e6967797-29d0-4947-88e5-61bc42de65df","system_id":"levelo_inurba_marseille","lat":43.28616,"lon":5.35113,"is_reserved":false,"is_disabled":false,"rental_uris":{"android":"levelo://app?vid=e6967797-29d0-4947-88e5-61bc42de65df","ios":"levelo://app?vid=e6967797-29d0-4947-88e5-61bc42de65df"},"vehicle_type_id":"4","last_reported":1743278972,"current_range_meters":10000,"station_id":"ce4bhch2rcd13ifvqeug","pricing_plan_id":"cebpf4jnsgd1na2vs0mg"},{"bike_id":"edf4582c-a7d8-44f8-8a50-44e3e685922b","system_id":"levelo_inurba_marseille","lat":43.297968,"lon":5.380847,"is_reserved":false,"is_disabled":false,"rental_uris":{"android":"levelo://app?vid=edf4582c-a7d8-44f8-8a50-44e3e685922b","ios":"levelo://app?vid=edf4582c-a7d8-44f8-8a50-44e3e685922b"},"vehicle_type_id":"4","last_reported":1743278972,"current_range_meters":9600,"station_id":"ce4bh692rcd13ifvqe90","pricing_plan_id":"cebpf4jnsgd1na2vs0mg"},{"bike_id":"033eb70f-5483-4bc7-846d-8db9b3612f2b","system_id":"levelo_inurba_marseille","lat":43.29531,"lon":5.38549,"is_reserved":false,"is_disabled":false,"rental_uris":{"android":"levelo://app?vid=033eb70f-5483-4bc7-846d-8db9b3612f2b","ios":"levelo://app?vid=033eb70f-5483-4bc7-846d-8db9b3612f2b"},"vehicle_type_id":"4","last_reported":1743278972,"current_range_meters":9600,"station_id":"ce4bgih2rcd13ifvqba0","pricing_plan_id":"cebpf4jnsgd1na2vs0mg"},{"bike_id":"5a2244b9-feb5-4171-9a69-af83949e02ff","system_id":"levelo_inurba_marseille","lat":43.34139,"lon":5.40897,"is_reserved":false,"is_disabled":false,"rental_uris":{"android":"levelo://app?vid=5a2244b9-feb5-4171-9a69-af83949e02ff","ios":"levelo://app?vid=5a2244b9-feb5-4171-9a69-af83949e02ff"},"vehicle_type_id":"4","last_reported":1743278972,"current_range_meters":9600,"station_id":"ce4bhqh2rcd13ifvqhlg","pricing_plan_id":"cebpf4jnsgd1na2vs0mg"},{"bike_id":"8c0f6e3f-b370-4d64-ac55-96b0ff55a395","system_id":"levelo_inurba_marseille","lat":43.24397,"lon":5.37059,"is_reserved":false,"is_disabled":false,"rental_uris":{"android":"levelo://app?vid=8c0f6e3f-b370-4d64-ac55-96b0ff55a395","ios":"levelo://app?vid=8c0f6e3f-b370-4d64-ac55-96b0ff55a395"},"vehicle_type_id":"4","last_reported":1743278972,"current_range_meters":9600,"station_id":"ce4bhhh2rcd13ifvqfk0","pricing_plan_id":"cebpf4jnsgd1na2vs0mg"},{"bike_id":"fb48b96c-17ad-475a-9142-6bbc456020fe","system_id":"levelo_inurba_marseille","lat":43.30521,"lon":5.3656,"is_reserved":false,"is_disabled":false,"rental_uris":{"android":"levelo://app?vid=fb48b96c-17ad-475a-9142-6bbc456020fe","ios":"levelo://app?vid=fb48b96c-17ad-475a-9142-6bbc456020fe"},"vehicle_type_id":"4","last_reported":1743278972,"current_range_meters":9200,"station_id":"ce4bgs12rcd13ifvqcag","pricing_plan_id":"cebpf4jnsgd1na2vs0mg"},{"bike_id":"b63eee63-392e-4360-bd35-8f9c5961cdc8","system_id":"levelo_inurba_marseille","lat":43.26033,"lon":5.37554,"is_reserved":false,"is_disabled":false,"rental_uris":{"android":"levelo://app?vid=b63eee63-392e-4360-bd35-8f9c5961cdc8","ios":"levelo://app?vid=b63eee63-392e-4360-bd35-8f9c5961cdc8"},"vehicle_type_id":"4","last_reported":1743278972,"current_range_meters":9600,"station_id":"ce4bhgh2rcd13ifvqfa0","pricing_plan_id":"cebpf4jnsgd1na2vs0mg"},{"bike_id":"e5c20276-6b57-4c18-9219-6f98f1797b1a","system_id":"levelo_inurba_marseille","lat":43.32331,"lon":5.4063,"is_reserved":false,"is_disabled":false,"rental_uris":{"android":"levelo://app?vid=e5c20276-6b57-4c18-9219-6f98f1797b1a","ios":"levelo://app?vid=e5c20276-6b57-4c18-9219-6f98f1797b1a"},"vehicle_type_id":"4","last_reported":1743278972,"current_range_meters":9600,"station_id":"ce4bhq92rcd13ifvqhjg","pricing_plan_id":"cebpf4jnsgd1na2vs0mg"},{"bike_id":"050d458d-cce9-44b3-9d16-b8a5c2076354","system_id":"levelo_inurba_marseille","lat":43.31757,"lon":5.39021,"is_reserved":false,"is_disabled":false,"rental_uris":{"android":"levelo://app?vid=050d458d-cce9-44b3-9d16-b8a5c2076354","ios":"levelo://app?vid=050d458d-cce9-44b3-9d16-b8a5c2076354"},"vehicle_type_id":"4","last_reported":1743278972,"current_range_meters":9600,"station_id":"ce4bhqp2rcd13ifvqhng","pricing_plan_id":"cebpf4jnsgd1na2vs0mg"},{"bike_id":"a1b5a514-f0ef-42eb-b1a4-22dd30a86324","system_id":"levelo_inurba_marseille","lat":43.31773,"lon":5.38997,"is_reserved":false,"is_disabled":false,"rental_uris":{"android":"levelo://app?vid=a1b5a514-f0ef-42eb-b1a4-22dd30a86324","ios":"levelo://app?vid=a1b5a514-f0ef-42eb-b1a4-22dd30a86324"},"vehicle_type_id":"4","last_reported":1743278972,"current_range_meters":9600,"station_id":"ce4bhqp2rcd13ifvqhng","pricing_plan_id":"cebpf4jnsgd1na2vs0mg"},{"bike_id":"10365f62-ee2b-4687-92a1-782d737acef1","system_id":"levelo_inurba_marseille","lat":43.259355,"lon":5.409059,"is_reserved":false,"is_disabled":false,"rental_uris":{"android":"levelo://app?vid=10365f62-ee2b-4687-92a1-782d737acef1","ios":"levelo://app?vid=10365f62-ee2b-4687-92a1-782d737acef1"},"vehicle_type_id":"4","last_reported":1743278972,"current_range_meters":10000,"station_id":"ce4bhm92rcd13ifvqglg","pricing_plan_id":"cebpf4jnsgd1na2vs0mg"},{"bike_id":"e001a514-3cfc-475c-95b6-b9ee119ae046","system_id":"levelo_inurba_marseille","lat":43.27994,"lon":5.40008,"is_reserved":false,"is_disabled":false,"rental_uris":{"android":"levelo://app?vid=e001a514-3cfc-475c-95b6-b9ee119ae046","ios":"levelo://app?vid=e001a514-3cfc-475c-95b6-b9ee119ae046"},"vehicle_type_id":"4","last_reported":1743278972,"current_range_meters":10000,"station_id":"ce4bho92rcd13ifvqh4g","pricing_plan_id":"cebpf4jnsgd1na2vs0mg"},{"bike_id":"97957593-cd63-4305-a7a9-001e62eb3187","system_id":"levelo_inurba_marseille","lat":43.29902,"lon":5.38138,"is_reserved":false,"is_disabled":false,"rental_uris":{"android":"levelo://app?vid=97957593-cd63-4305-a7a9-001e62eb3187","ios":"levelo://app?vid=97957593-cd63-4305-a7a9-001e62eb3187"},"vehicle_type_id":"4","last_reported":1743278972,"current_range_meters":10000,"station_id":"ce4bgj12rcd13ifvqbc0","pricing_plan_id":"cebpf4jnsgd1na2vs0mg"},{"bike_id":"96ac20e8-5840-4579-b371-184ec6253952","system_id":"levelo_inurba_marseille","lat":43.27508,"lon":5.4114,"is_reserved":false,"is_disabled":false,"rental_uris":{"android":"levelo://app?vid=96ac20e8-5840-4579-b371-184ec6253952","ios":"levelo://app?vid=96ac20e8-5840-4579-b371-184ec6253952"},"vehicle_type_id":"4","last_reported":1743278972,"current_range_meters":10000,"station_id":"","pricing_plan_id":"cebpf4jnsgd1na2vs0mg"},{"bike_id":"8ff02400-e488-43d8-a63a-c0e38b522624","system_id":"levelo_inurba_marseille","lat":43.27947,"lon":5.41048,"is_reserved":false,"is_disabled":false,"rental_uris":{"android":"levelo://app?vid=8ff02400-e488-43d8-a63a-c0e38b522624","ios":"levelo://app?vid=8ff02400-e488-43d8-a63a-c0e38b522624"},"vehicle_type_id":"4","last_reported":1743278972,"current_range_meters":10000,"station_id":"ce4bhnp2rcd13ifvqh0g","pricing_plan_id":"cebpf4jnsgd1na2vs0mg"},{"bike_id":"c84282f9-0e94-46f6-a3ee-68da449c7e4d","system_id":"levelo_inurba_marseille","lat":43.29254,"lon":5.38448,"is_reserved":false,"is_disabled":false,"rental_uris":{"android":"levelo://app?vid=c84282f9-0e94-46f6-a3ee-68da449c7e4d","ios":"levelo://app?vid=c84282f9-0e94-46f6-a3ee-68da449c7e4d"},"vehicle_type_id":"4","last_reported":1743278972,"current_range_meters":10000,"station_id":"ce4bh692rcd13ifvqea0","pricing_plan_id":"cebpf4jnsgd1na2vs0mg"},{"bike_id":"ead84735-1991-4501-b506-2229ced7058a","system_id":"levelo_inurba_marseille","lat":43.23076,"lon":5.35489,"is_reserved":false,"is_disabled":false,"rental_uris":{"android":"levelo://app?vid=ead84735-1991-4501-b506-2229ced7058a","ios":"levelo://app?vid=ead84735-1991-4501-b506-2229ced7058a"},"vehicle_type_id":"4","last_reported":1743278972,"current_range_meters":10000,"station_id":"cpo3342slgdg3j2ifvpg","pricing_plan_id":"cebpf4jnsgd1na2vs0mg"},{"bike_id":"2659539d-6b9c-4036-87e5-9105ef91d321","system_id":"levelo_inurba_marseille","lat":43.30214,"lon":5.39466,"is_reserved":false,"is_disabled":false,"rental_uris":{"android":"levelo://app?vid=2659539d-6b9c-4036-87e5-9105ef91d321","ios":"levelo://app?vid=2659539d-6b9c-4036-87e5-9105ef91d321"},"vehicle_type_id":"4","last_reported":1743278972,"current_range_meters":10000,"station_id":"ce4bh0p2rcd13ifvqd70","pricing_plan_id":"cebpf4jnsgd1na2vs0mg"},{"bike_id":"89b372e0-e34b-4448-a651-9f0d9816c98e","system_id":"levelo_inurba_marseille","lat":43.2416,"lon":5.36403,"is_reserved":false,"is_disabled":false,"rental_uris":{"android":"levelo://app?vid=89b372e0-e34b-4448-a651-9f0d9816c98e","ios":"levelo://app?vid=89b372e0-e34b-4448-a651-9f0d9816c98e"},"vehicle_type_id":"4","last_reported":1743278972,"current_range_meters":10000,"station_id":"cpo36qri1sfpv3e86is0","pricing_plan_id":"cebpf4jnsgd1na2vs0mg"},{"bike_id":"a8d851cf-5d20-4ee9-95cb-5df4c3c78873","system_id":"levelo_inurba_marseille","lat":43.29287,"lon":5.37623,"is_reserved":false,"is_disabled":false,"rental_uris":{"android":"levelo://app?vid=a8d851cf-5d20-4ee9-95cb-5df4c3c78873","ios":"levelo://app?vid=a8d851cf-5d20-4ee9-95cb-5df4c3c78873"},"vehicle_type_id":"4","last_reported":1743278972,"current_range_meters":10000,"station_id":"ce4bgi12rcd13ifvqb80","pricing_plan_id":"cebpf4jnsgd1na2vs0mg"},{"bike_id":"5415030f-aec0-42c3-801b-0333d7a15fc4","system_id":"levelo_inurba_marseille","lat":43.28465,"lon":5.35894,"is_reserved":false,"is_disabled":false,"rental_uris":{"android":"levelo://app?vid=5415030f-aec0-42c3-801b-0333d7a15fc4","ios":"levelo://app?vid=5415030f-aec0-42c3-801b-0333d7a15fc4"},"vehicle_type_id":"4","last_reported":1743278972,"current_range_meters":10000,"station_id":"ce4bhah2rcd13ifvqei0","pricing_plan_id":"cebpf4jnsgd1na2vs0mg"},{"bike_id":"8743926a-4d2a-4ed6-afa9-212ba4b178f7","system_id":"levelo_inurba_marseille","lat":43.29583,"lon":5.38114,"is_reserved":false,"is_disabled":false,"rental_uris":{"android":"levelo://app?vid=8743926a-4d2a-4ed6-afa9-212ba4b178f7","ios":"levelo://app?vid=8743926a-4d2a-4ed6-afa9-212ba4b178f7"},"vehicle_type_id":"4","last_reported":1743278972,"current_range_meters":10000,"station_id":"ce4bgl12rcd13ifvqbo0","pricing_plan_id":"cebpf4jnsgd1na2vs0mg"},{"bike_id":"5dca16b0-0836-4d29-a112-b6ae5585b009","system_id":"levelo_inurba_marseille","lat":43.28609,"lon":5.35139,"is_reserved":false,"is_disabled":false,"rental_uris":{"android":"levelo://app?vid=5dca16b0-0836-4d29-a112-b6ae5585b009","ios":"levelo://app?vid=5dca16b0-0836-4d29-a112-b6ae5585b009"},"vehicle_type_id":"4","last_reported":1743278972,"current_range_meters":10000,"station_id":"ce4bhch2rcd13ifvqeug","pricing_plan_id":"cebpf4jnsgd1na2vs0mg"},{"bike_id":"9944d577-3627-4f61-8767-86545a3942fb","system_id":"levelo_inurba_marseille","lat":43.28701,"lon":5.39987,"is_reserved":false,"is_disabled":false,"rental_uris":{"android":"levelo://app?vid=9944d577-3627-4f61-8767-86545a3942fb","ios":"levelo://app?vid=9944d577-3627-4f61-8767-86545a3942fb"},"vehicle_type_id":"4","last_reported":1743278972,"current_range_meters":10000,"station_id":"ce4bho92rcd13ifvqh3g","pricing_plan_id":"cebpf4jnsgd1na2vs0mg"},{"bike_id":"01c66ec1-92da-4450-8dec-2f922705b238","system_id":"levelo_inurba_marseille","lat":43.29295,"lon":5.37437,"is_reserved":false,"is_disabled":false,"rental_uris":{"android":"levelo://app?vid=01c66ec1-92da-4450-8dec-2f922705b238","ios":"levelo://app?vid=01c66ec1-92da-4450-8dec-2f922705b238"},"vehicle_type_id":"4","last_reported":1743278972,"current_range_meters":10800,"station_id":"ce4bgi12rcd13ifvqb70","pricing_plan_id":"cebpf4jnsgd1na2vs0mg"},{"bike_id":"801bccbe-fc40-4289-8a4c-68cf6616b948","system_id":"levelo_inurba_marseille","lat":43.29297,"lon":5.37459,"is_reserved":false,"is_disabled":false,"rental_uris":{"android":"levelo://app?vid=801bccbe-fc40-4289-8a4c-68cf6616b948","ios":"levelo://app?vid=801bccbe-fc40-4289-8a4c-68cf6616b948"},"vehicle_type_id":"4","last_reported":1743278972,"current_range_meters":10800,"station_id":"ce4bgi12rcd13ifvqb70","pricing_plan_id":"cebpf4jnsgd1na2vs0mg"},{"bike_id":"05875211-b14c-430d-9598-bbd707610e16","system_id":"levelo_inurba_marseille","lat":43.29271,"lon":5.36853,"is_reserved":false,"is_disabled":false,"rental_uris":{"android":"levelo://app?vid=05875211-b14c-430d-9598-bbd707610e16","ios":"levelo://app?vid=05875211-b14c-430d-9598-bbd707610e16"},"vehicle_type_id":"4","last_reported":1743278972,"current_range_meters":10800,"station_id":"ce4bhbp2rcd13ifvqesg","pricing_plan_id":"cebpf4jnsgd1na2vs0mg"},{"bike_id":"a2a776b1-462d-473f-929f-72ba4c7332ab","system_id":"levelo_inurba_marseille","lat":43.27811,"lon":5.40716,"is_reserved":false,"is_disabled":false,"rental_uris":{"android":"levelo://app?vid=a2a776b1-462d-473f-929f-72ba4c7332ab","ios":"levelo://app?vid=a2a776b1-462d-473f-929f-72ba4c7332ab"},"vehicle_type_id":"4","last_reported":1743278972,"current_range_meters":10800,"station_id":"ce4bhnh2rcd13ifvqgtg","pricing_plan_id":"cebpf4jnsgd1na2vs0mg"},{"bike_id":"d0ed36b4-3c5a-4da6-8fb4-955c321dd03a","system_id":"levelo_inurba_marseille","lat":43.27515,"lon":5.41011,"is_reserved":false,"is_disabled":false,"rental_uris":{"android":"levelo://app?vid=d0ed36b4-3c5a-4da6-8fb4-955c321dd03a","ios":"levelo://app?vid=d0ed36b4-3c5a-4da6-8fb4-955c321dd03a"},"vehicle_type_id":"4","last_reported":1743278972,"current_range_meters":10800,"station_id":"","pricing_plan_id":"cebpf4jnsgd1na2vs0mg"},{"bike_id":"004ed55f-f985-4268-b523-9ed16ba4ea3b","system_id":"levelo_inurba_marseille","lat":43.29252,"lon":5.36839,"is_reserved":false,"is_disabled":true,"rental_uris":{"android":"levelo://app?vid=004ed55f-f985-4268-b523-9ed16ba4ea3b","ios":"levelo://app?vid=004ed55f-f985-4268-b523-9ed16ba4ea3b"},"vehicle_type_id":"4","last_reported":1743278972,"current_range_meters":10800,"station_id":"ce4bhbp2rcd13ifvqesg","pricing_plan_id":"cebpf4jnsgd1na2vs0mg"},{"bike_id":"747d2bc2-6706-42d9-8381-8fcc8fac62bd","system_id":"levelo_inurba_marseille","lat":43.28657,"lon":5.36989,"is_reserved":false,"is_disabled":true,"rental_uris":{"android":"levelo://app?vid=747d2bc2-6706-42d9-8381-8fcc8fac62bd","ios":"levelo://app?vid=747d2bc2-6706-42d9-8381-8fcc8fac62bd"},"vehicle_type_id":"4","last_reported":1743278972,"current_range_meters":10800,"station_id":"","pricing_plan_id":"cebpf4jnsgd1na2vs0mg"},{"bike_id":"3f2bcfca-c616-4059-a95b-b1ee7948eb41","system_id":"levelo_inurba_marseille","lat":43.29887,"lon":5.3974,"is_reserved":false,"is_disabled":false,"rental_uris":{"android":"levelo://app?vid=3f2bcfca-c616-4059-a95b-b1ee7948eb41","ios":"levelo://app?vid=3f2bcfca-c616-4059-a95b-b1ee7948eb41"},"vehicle_type_id":"4","last_reported":1743278972,"current_range_meters":10800,"station_id":"ce4bh0h2rcd13ifvqd50","pricing_plan_id":"cebpf4jnsgd1na2vs0mg"},{"bike_id":"9deaa130-8013-45ea-baf5-1fd93ef39f53","system_id":"levelo_inurba_marseille","lat":43.29413,"lon":5.38628,"is_reserved":false,"is_disabled":false,"rental_uris":{"android":"levelo://app?vid=9deaa130-8013-45ea-baf5-1fd93ef39f53","ios":"levelo://app?vid=9deaa130-8013-45ea-baf5-1fd93ef39f53"},"vehicle_type_id":"4","last_reported":1743278972,"current_range_meters":10800,"station_id":"ce4bh2h2rcd13ifvqdh0","pricing_plan_id":"cebpf4jnsgd1na2vs0mg"},{"bike_id":"70d16258-b72a-4851-84ae-f904d776a3b5","system_id":"levelo_inurba_marseille","lat":43.29293,"lon":5.37439,"is_reserved":false,"is_disabled":false,"rental_uris":{"android":"levelo://app?vid=70d16258-b72a-4851-84ae-f904d776a3b5","ios":"levelo://app?vid=70d16258-b72a-4851-84ae-f904d776a3b5"},"vehicle_type_id":"4","last_reported":1743278972,"current_range_meters":10800,"station_id":"ce4bgi12rcd13ifvqb70","pricing_plan_id":"cebpf4jnsgd1na2vs0mg"},{"bike_id":"aa1d195f-1c53-4d43-9c8f-167c0b0a64b8","system_id":"levelo_inurba_marseille","lat":43.23177,"lon":5.3999,"is_reserved":false,"is_disabled":false,"rental_uris":{"android":"levelo://app?vid=aa1d195f-1c53-4d43-9c8f-167c0b0a64b8","ios":"levelo://app?vid=aa1d195f-1c53-4d43-9c8f-167c0b0a64b8"},"vehicle_type_id":"4","last_reported":1743278972,"current_range_meters":10800,"station_id":"ce4bhn12rcd13ifvqgqg","pricing_plan_id":"cebpf4jnsgd1na2vs0mg"},{"bike_id":"efff04da-c9e4-43ac-af1d-3d2959bd3159","system_id":"levelo_inurba_marseille","lat":43.23063,"lon":5.35496,"is_reserved":false,"is_disabled":false,"rental_uris":{"android":"levelo://app?vid=efff04da-c9e4-43ac-af1d-3d2959bd3159","ios":"levelo://app?vid=efff04da-c9e4-43ac-af1d-3d2959bd3159"},"vehicle_type_id":"4","last_reported":1743278972,"current_range_meters":10800,"station_id":"cpo3342slgdg3j2ifvpg","pricing_plan_id":"cebpf4jnsgd1na2vs0mg"},{"bike_id":"d871a26c-bdd3-4190-ae0c-502f524ad221","system_id":"levelo_inurba_marseille","lat":43.23063,"lon":5.35501,"is_reserved":false,"is_disabled":false,"rental_uris":{"android":"levelo://app?vid=d871a26c-bdd3-4190-ae0c-502f524ad221","ios":"levelo://app?vid=d871a26c-bdd3-4190-ae0c-502f524ad221"},"vehicle_type_id":"4","last_reported":1743278972,"current_range_meters":10800,"station_id":"cpo3342slgdg3j2ifvpg","pricing_plan_id":"cebpf4jnsgd1na2vs0mg"},{"bike_id":"acf1e1c3-a629-4c7b-a838-cba3f3b54603","system_id":"levelo_inurba_marseille","lat":43.3188,"lon":5.37652,"is_reserved":false,"is_disabled":false,"rental_uris":{"android":"levelo://app?vid=acf1e1c3-a629-4c7b-a838-cba3f3b54603","ios":"levelo://app?vid=acf1e1c3-a629-4c7b-a838-cba3f3b54603"},"vehicle_type_id":"4","last_reported":1743278972,"current_range_meters":10800,"station_id":"","pricing_plan_id":"cebpf4jnsgd1na2vs0mg"},{"bike_id":"6c043a55-294d-47e5-8e67-5115abbc7f86","system_id":"levelo_inurba_marseille","lat":43.30939,"lon":5.39067,"is_reserved":false,"is_disabled":false,"rental_uris":{"android":"levelo://app?vid=6c043a55-294d-47e5-8e67-5115abbc7f86","ios":"levelo://app?vid=6c043a55-294d-47e5-8e67-5115abbc7f86"},"vehicle_type_id":"4","last_reported":1743278972,"current_range_meters":11200,"station_id":"ce4bgup2rcd13ifvqco0","pricing_plan_id":"cebpf4jnsgd1na2vs0mg"},{"bike_id":"25bb5fbc-8229-4010-b703-31f5ee6ac141","system_id":"levelo_inurba_marseille","lat":43.30646,"lon":5.366,"is_reserved":false,"is_disabled":false,"rental_uris":{"android":"levelo://app?vid=25bb5fbc-8229-4010-b703-31f5ee6ac141","ios":"levelo://app?vid=25bb5fbc-8229-4010-b703-31f5ee6ac141"},"vehicle_type_id":"4","last_reported":1743278972,"current_range_meters":11200,"station_id":"","pricing_plan_id":"cebpf4jnsgd1na2vs0mg"},{"bike_id":"69da5ec7-3efd-4f1d-bef3-c026957996f6","system_id":"levelo_inurba_marseille","lat":43.293307,"lon":5.371897,"is_reserved":false,"is_disabled":false,"rental_uris":{"android":"levelo://app?vid=69da5ec7-3efd-4f1d-bef3-c026957996f6","ios":"levelo://app?vid=69da5ec7-3efd-4f1d-bef3-c026957996f6"},"vehicle_type_id":"4","last_reported":1743278972,"current_range_meters":11200,"station_id":"ce4bgh92rcd13ifvqb40","pricing_plan_id":"cebpf4jnsgd1na2vs0mg"},{"bike_id":"4a23a622-2876-4789-9225-0e4bb5df870b","system_id":"levelo_inurba_marseille","lat":43.27915,"lon":5.39567,"is_reserved":false,"is_disabled":false,"rental_uris":{"android":"levelo://app?vid=4a23a622-2876-4789-9225-0e4bb5df870b","ios":"levelo://app?vid=4a23a622-2876-4789-9225-0e4bb5df870b"},"vehicle_type_id":"4","last_reported":1743278972,"current_range_meters":11200,"station_id":"ce4bhf92rcd13ifvqf40","pricing_plan_id":"cebpf4jnsgd1na2vs0mg"},{"bike_id":"ffe8c000-d0cb-42ac-8c20-9086cb7365a8","system_id":"levelo_inurba_marseille","lat":43.29934,"lon":5.36529,"is_reserved":false,"is_disabled":false,"rental_uris":{"android":"levelo://app?vid=ffe8c000-d0cb-42ac-8c20-9086cb7365a8","ios":"levelo://app?vid=ffe8c000-d0cb-42ac-8c20-9086cb7365a8"},"vehicle_type_id":"4","last_reported":1743278972,"current_range_meters":11200,"station_id":"ce4bgm92rcd13ifvqbr0","pricing_plan_id":"cebpf4jnsgd1na2vs0mg"},{"bike_id":"906b540e-e920-417f-92b5-0ef35349f644","system_id":"levelo_inurba_marseille","lat":43.31543,"lon":5.39701,"is_reserved":false,"is_disabled":false,"rental_uris":{"android":"levelo://app?vid=906b540e-e920-417f-92b5-0ef35349f644","ios":"levelo://app?vid=906b540e-e920-417f-92b5-0ef35349f644"},"vehicle_type_id":"4","last_reported":1743278972,"current_range_meters":11200,"station_id":"","pricing_plan_id":"cebpf4jnsgd1na2vs0mg"},{"bike_id":"95e8a447-e159-4a2c-b637-8b687e8c1efe","system_id":"levelo_inurba_marseille","lat":43.25583,"lon":5.38232,"is_reserved":false,"is_disabled":false,"rental_uris":{"android":"levelo://app?vid=95e8a447-e159-4a2c-b637-8b687e8c1efe","ios":"levelo://app?vid=95e8a447-e159-4a2c-b637-8b687e8c1efe"},"vehicle_type_id":"4","last_reported":1743278972,"current_range_meters":11200,"station_id":"ce4bhih2rcd13ifvqfs0","pricing_plan_id":"cebpf4jnsgd1na2vs0mg"},{"bike_id":"92bfecbf-789d-4c73-ae76-0e5a1e2a6e8a","system_id":"levelo_inurba_marseille","lat":43.25577,"lon":5.38233,"is_reserved":false,"is_disabled":false,"rental_uris":{"android":"levelo://app?vid=92bfecbf-789d-4c73-ae76-0e5a1e2a6e8a","ios":"levelo://app?vid=92bfecbf-789d-4c73-ae76-0e5a1e2a6e8a"},"vehicle_type_id":"4","last_reported":1743278972,"current_range_meters":11200,"station_id":"ce4bhih2rcd13ifvqfs0","pricing_plan_id":"cebpf4jnsgd1na2vs0mg"},{"bike_id":"f6ed00d6-9f17-489c-88b3-dfb0b562b89f","system_id":"levelo_inurba_marseille","lat":43.28035,"lon":5.36954,"is_reserved":false,"is_disabled":false,"rental_uris":{"android":"levelo://app?vid=f6ed00d6-9f17-489c-88b3-dfb0b562b89f","ios":"levelo://app?vid=f6ed00d6-9f17-489c-88b3-dfb0b562b89f"},"vehicle_type_id":"4","last_reported":1743278972,"current_range_meters":10800,"station_id":"ce4bha12rcd13ifvqef0","pricing_plan_id":"cebpf4jnsgd1na2vs0mg"},{"bike_id":"9e6169ef-5f71-4a72-b3c2-effde3fb2783","system_id":"levelo_inurba_marseille","lat":43.30416,"lon":5.41291,"is_reserved":false,"is_disabled":false,"rental_uris":{"android":"levelo://app?vid=9e6169ef-5f71-4a72-b3c2-effde3fb2783","ios":"levelo://app?vid=9e6169ef-5f71-4a72-b3c2-effde3fb2783"},"vehicle_type_id":"4","last_reported":1743278972,"current_range_meters":11200,"station_id":"ce4bhop2rcd13ifvqh8g","pricing_plan_id":"cebpf4jnsgd1na2vs0mg"},{"bike_id":"f45cd157-5aba-4d41-b9b6-c660eb64c51b","system_id":"levelo_inurba_marseille","lat":43.29266,"lon":5.3843,"is_reserved":false,"is_disabled":false,"rental_uris":{"android":"levelo://app?vid=f45cd157-5aba-4d41-b9b6-c660eb64c51b","ios":"levelo://app?vid=f45cd157-5aba-4d41-b9b6-c660eb64c51b"},"vehicle_type_id":"4","last_reported":1743278972,"current_range_meters":11200,"station_id":"ce4bh692rcd13ifvqea0","pricing_plan_id":"cebpf4jnsgd1na2vs0mg"},{"bike_id":"ae061f4f-cd85-42f8-ad18-dcc27a0ca16b","system_id":"levelo_inurba_marseille","lat":43.291,"lon":5.38129,"is_reserved":false,"is_disabled":false,"rental_uris":{"android":"levelo://app?vid=ae061f4f-cd85-42f8-ad18-dcc27a0ca16b","ios":"levelo://app?vid=ae061f4f-cd85-42f8-ad18-dcc27a0ca16b"},"vehicle_type_id":"4","last_reported":1743278972,"current_range_meters":11200,"station_id":"ce4bh512rcd13ifvqe2g","pricing_plan_id":"cebpf4jnsgd1na2vs0mg"},{"bike_id":"b2e2de8c-fed5-41cd-b4ae-24737182ff6b","system_id":"levelo_inurba_marseille","lat":43.29969,"lon":5.38455,"is_reserved":false,"is_disabled":false,"rental_uris":{"android":"levelo://app?vid=b2e2de8c-fed5-41cd-b4ae-24737182ff6b","ios":"levelo://app?vid=b2e2de8c-fed5-41cd-b4ae-24737182ff6b"},"vehicle_type_id":"4","last_reported":1743278972,"current_range_meters":11200,"station_id":"ce4bgj92rcd13ifvqbd0","pricing_plan_id":"cebpf4jnsgd1na2vs0mg"},{"bike_id":"76d4ed16-8625-4a14-a5f1-d28ac2574c13","system_id":"levelo_inurba_marseille","lat":43.24546,"lon":5.39522,"is_reserved":false,"is_disabled":false,"rental_uris":{"android":"levelo://app?vid=76d4ed16-8625-4a14-a5f1-d28ac2574c13","ios":"levelo://app?vid=76d4ed16-8625-4a14-a5f1-d28ac2574c13"},"vehicle_type_id":"4","last_reported":1743278972,"current_range_meters":11600,"station_id":"","pricing_plan_id":"cebpf4jnsgd1na2vs0mg"},{"bike_id":"1bf928b2-7ac9-41a7-adcc-77e0f5608510","system_id":"levelo_inurba_marseille","lat":43.32441,"lon":5.36386,"is_reserved":false,"is_disabled":false,"rental_uris":{"android":"levelo://app?vid=1bf928b2-7ac9-41a7-adcc-77e0f5608510","ios":"levelo://app?vid=1bf928b2-7ac9-41a7-adcc-77e0f5608510"},"vehicle_type_id":"4","last_reported":1743278972,"current_range_meters":11600,"station_id":"","pricing_plan_id":"cebpf4jnsgd1na2vs0mg"},{"bike_id":"4fb83321-df12-4ed5-9ce7-f677dd1b9c3d","system_id":"levelo_inurba_marseille","lat":43.29302,"lon":5.37456,"is_reserved":false,"is_disabled":false,"rental_uris":{"android":"levelo://app?vid=4fb83321-df12-4ed5-9ce7-f677dd1b9c3d","ios":"levelo://app?vid=4fb83321-df12-4ed5-9ce7-f677dd1b9c3d"},"vehicle_type_id":"4","last_reported":1743278972,"current_range_meters":11600,"station_id":"ce4bgi12rcd13ifvqb70","pricing_plan_id":"cebpf4jnsgd1na2vs0mg"},{"bike_id":"24811c1e-4aa4-44cb-ac8b-f9b57d0f8121","system_id":"levelo_inurba_marseille","lat":43.27375,"lon":5.36259,"is_reserved":false,"is_disabled":false,"rental_uris":{"android":"levelo://app?vid=24811c1e-4aa4-44cb-ac8b-f9b57d0f8121","ios":"levelo://app?vid=24811c1e-4aa4-44cb-ac8b-f9b57d0f8121"},"vehicle_type_id":"4","last_reported":1743278972,"current_range_meters":11600,"station_id":"ce4bhbh2rcd13ifvqeo0","pricing_plan_id":"cebpf4jnsgd1na2vs0mg"},{"bike_id":"ba362734-34ca-4bcd-8728-cadb040d6152","system_id":"levelo_inurba_marseille","lat":43.24385,"lon":5.37069,"is_reserved":false,"is_disabled":false,"rental_uris":{"android":"levelo://app?vid=ba362734-34ca-4bcd-8728-cadb040d6152","ios":"levelo://app?vid=ba362734-34ca-4bcd-8728-cadb040d6152"},"vehicle_type_id":"4","last_reported":1743278972,"current_range_meters":11600,"station_id":"ce4bhhh2rcd13ifvqfk0","pricing_plan_id":"cebpf4jnsgd1na2vs0mg"},{"bike_id":"200b7d31-2db8-45cc-b36d-b9d670de9728","system_id":"levelo_inurba_marseille","lat":43.31434,"lon":5.37382,"is_reserved":false,"is_disabled":false,"rental_uris":{"android":"levelo://app?vid=200b7d31-2db8-45cc-b36d-b9d670de9728","ios":"levelo://app?vid=200b7d31-2db8-45cc-b36d-b9d670de9728"},"vehicle_type_id":"4","last_reported":1743278972,"current_range_meters":11600,"station_id":"","pricing_plan_id":"cebpf4jnsgd1na2vs0mg"},{"bike_id":"2dd88066-6fcb-490e-85b8-341590006c9b","system_id":"levelo_inurba_marseille","lat":43.29776,"lon":5.38105,"is_reserved":false,"is_disabled":false,"rental_uris":{"android":"levelo://app?vid=2dd88066-6fcb-490e-85b8-341590006c9b","ios":"levelo://app?vid=2dd88066-6fcb-490e-85b8-341590006c9b"},"vehicle_type_id":"4","last_reported":1743278972,"current_range_meters":12000,"station_id":"ce4bgip2rcd13ifvqbb0","pricing_plan_id":"cebpf4jnsgd1na2vs0mg"},{"bike_id":"beed2a9b-ca26-406b-abe5-6075bbc3b535","system_id":"levelo_inurba_marseille","lat":43.29898,"lon":5.38155,"is_reserved":false,"is_disabled":false,"rental_uris":{"android":"levelo://app?vid=beed2a9b-ca26-406b-abe5-6075bbc3b535","ios":"levelo://app?vid=beed2a9b-ca26-406b-abe5-6075bbc3b535"},"vehicle_type_id":"4","last_reported":1743278972,"current_range_meters":11600,"station_id":"ce4bgj12rcd13ifvqbc0","pricing_plan_id":"cebpf4jnsgd1na2vs0mg"},{"bike_id":"83b662ed-dae0-41de-b3cb-c93fdb2dcdf9","system_id":"levelo_inurba_marseille","lat":43.29294,"lon":5.37463,"is_reserved":false,"is_disabled":false,"rental_uris":{"android":"levelo://app?vid=83b662ed-dae0-41de-b3cb-c93fdb2dcdf9","ios":"levelo://app?vid=83b662ed-dae0-41de-b3cb-c93fdb2dcdf9"},"vehicle_type_id":"4","last_reported":1743278972,"current_range_meters":12000,"station_id":"ce4bgi12rcd13ifvqb70","pricing_plan_id":"cebpf4jnsgd1na2vs0mg"},{"bike_id":"211e02b6-c381-4993-a223-66dc669f8c37","system_id":"levelo_inurba_marseille","lat":43.30141,"lon":5.37415,"is_reserved":false,"is_disabled":false,"rental_uris":{"android":"levelo://app?vid=211e02b6-c381-4993-a223-66dc669f8c37","ios":"levelo://app?vid=211e02b6-c381-4993-a223-66dc669f8c37"},"vehicle_type_id":"4","last_reported":1743278972,"current_range_meters":12000,"station_id":"ce4bgs92rcd13ifvqcc0","pricing_plan_id":"cebpf4jnsgd1na2vs0mg"},{"bike_id":"42bc7b23-0e2f-4d72-b583-40bcdabb28c7","system_id":"levelo_inurba_marseille","lat":43.29543,"lon":5.3738,"is_reserved":false,"is_disabled":false,"rental_uris":{"android":"levelo://app?vid=42bc7b23-0e2f-4d72-b583-40bcdabb28c7","ios":"levelo://app?vid=42bc7b23-0e2f-4d72-b583-40bcdabb28c7"},"vehicle_type_id":"4","last_reported":1743278972,"current_range_meters":12000,"station_id":"","pricing_plan_id":"cebpf4jnsgd1na2vs0mg"},{"bike_id":"9ff9d60d-083a-469c-bef4-25c0cbd79db0","system_id":"levelo_inurba_marseille","lat":43.2396,"lon":5.36636,"is_reserved":false,"is_disabled":false,"rental_uris":{"android":"levelo://app?vid=9ff9d60d-083a-469c-bef4-25c0cbd79db0","ios":"levelo://app?vid=9ff9d60d-083a-469c-bef4-25c0cbd79db0"},"vehicle_type_id":"4","last_reported":1743278972,"current_range_meters":11600,"station_id":"ce4bhi12rcd13ifvqfp0","pricing_plan_id":"cebpf4jnsgd1na2vs0mg"},{"bike_id":"9f50066e-01fa-4519-9f61-8109fe65f5d9","system_id":"levelo_inurba_marseille","lat":43.29704,"lon":5.37119,"is_reserved":false,"is_disabled":false,"rental_uris":{"android":"levelo://app?vid=9f50066e-01fa-4519-9f61-8109fe65f5d9","ios":"levelo://app?vid=9f50066e-01fa-4519-9f61-8109fe65f5d9"},"vehicle_type_id":"4","last_reported":1743278972,"current_range_meters":12000,"station_id":"","pricing_plan_id":"cebpf4jnsgd1na2vs0mg"},{"bike_id":"15e44165-59b3-4076-a4ef-750ccc44769a","system_id":"levelo_inurba_marseille","lat":43.31356,"lon":5.38495,"is_reserved":false,"is_disabled":false,"rental_uris":{"android":"levelo://app?vid=15e44165-59b3-4076-a4ef-750ccc44769a","ios":"levelo://app?vid=15e44165-59b3-4076-a4ef-750ccc44769a"},"vehicle_type_id":"4","last_reported":1743278972,"current_range_meters":12000,"station_id":"ce4bgt92rcd13ifvqcf0","pricing_plan_id":"cebpf4jnsgd1na2vs0mg"},{"bike_id":"14c490b6-844b-4566-b5ce-4a1eef9a0745","system_id":"levelo_inurba_marseille","lat":43.27819,"lon":5.40691,"is_reserved":false,"is_disabled":false,"rental_uris":{"android":"levelo://app?vid=14c490b6-844b-4566-b5ce-4a1eef9a0745","ios":"levelo://app?vid=14c490b6-844b-4566-b5ce-4a1eef9a0745"},"vehicle_type_id":"4","last_reported":1743278972,"current_range_meters":12000,"station_id":"ce4bhnh2rcd13ifvqgtg","pricing_plan_id":"cebpf4jnsgd1na2vs0mg"},{"bike_id":"c74585e7-a743-4f23-8875-062b450b9bca","system_id":"levelo_inurba_marseille","lat":43.29418,"lon":5.38616,"is_reserved":false,"is_disabled":false,"rental_uris":{"android":"levelo://app?vid=c74585e7-a743-4f23-8875-062b450b9bca","ios":"levelo://app?vid=c74585e7-a743-4f23-8875-062b450b9bca"},"vehicle_type_id":"4","last_reported":1743278972,"current_range_meters":12000,"station_id":"ce4bh2h2rcd13ifvqdh0","pricing_plan_id":"cebpf4jnsgd1na2vs0mg"},{"bike_id":"b144c98e-571c-4eb8-b8bb-e93576eb722e","system_id":"levelo_inurba_marseille","lat":43.26493,"lon":5.39538,"is_reserved":false,"is_disabled":false,"rental_uris":{"android":"levelo://app?vid=b144c98e-571c-4eb8-b8bb-e93576eb722e","ios":"levelo://app?vid=b144c98e-571c-4eb8-b8bb-e93576eb722e"},"vehicle_type_id":"4","last_reported":1743278972,"current_range_meters":11600,"station_id":"ce4bhi12rcd13ifvqfq0","pricing_plan_id":"cebpf4jnsgd1na2vs0mg"},{"bike_id":"8a696eba-a860-4acc-acc6-f2940410aa38","system_id":"levelo_inurba_marseille","lat":43.27784,"lon":5.40715,"is_reserved":false,"is_disabled":false,"rental_uris":{"android":"levelo://app?vid=8a696eba-a860-4acc-acc6-f2940410aa38","ios":"levelo://app?vid=8a696eba-a860-4acc-acc6-f2940410aa38"},"vehicle_type_id":"4","last_reported":1743278972,"current_range_meters":12000,"station_id":"ce4bhnh2rcd13ifvqgtg","pricing_plan_id":"cebpf4jnsgd1na2vs0mg"},{"bike_id":"8cf4f201-930c-4d9c-9146-38a1c2c66eff","system_id":"levelo_inurba_marseille","lat":43.28411,"lon":5.35011,"is_reserved":false,"is_disabled":false,"rental_uris":{"android":"levelo://app?vid=8cf4f201-930c-4d9c-9146-38a1c2c66eff","ios":"levelo://app?vid=8cf4f201-930c-4d9c-9146-38a1c2c66eff"},"vehicle_type_id":"4","last_reported":1743278972,"current_range_meters":12000,"station_id":"ce4bhbh2rcd13ifvqepg","pricing_plan_id":"cebpf4jnsgd1na2vs0mg"},{"bike_id":"21b7dfed-4bf3-42a6-9071-9b2b5259da3c","system_id":"levelo_inurba_marseille","lat":43.29655,"lon":5.37133,"is_reserved":false,"is_disabled":true,"rental_uris":{"android":"levelo://app?vid=21b7dfed-4bf3-42a6-9071-9b2b5259da3c","ios":"levelo://app?vid=21b7dfed-4bf3-42a6-9071-9b2b5259da3c"},"vehicle_type_id":"4","last_reported":1743278972,"current_range_meters":12000,"station_id":"ce4bgnh2rcd13ifvqc0g","pricing_plan_id":"cebpf4jnsgd1na2vs0mg"},{"bike_id":"1194d893-debc-41d7-b347-816267570776","system_id":"levelo_inurba_marseille","lat":43.33712,"lon":5.39208,"is_reserved":false,"is_disabled":false,"rental_uris":{"android":"levelo://app?vid=1194d893-debc-41d7-b347-816267570776","ios":"levelo://app?vid=1194d893-debc-41d7-b347-816267570776"},"vehicle_type_id":"4","last_reported":1743278972,"current_range_meters":12400,"station_id":"ce4bhr92rcd13ifvqhsg","pricing_plan_id":"cebpf4jnsgd1na2vs0mg"},{"bike_id":"653ea6de-a177-4007-9cfa-5f3f77e975f6","system_id":"levelo_inurba_marseille","lat":43.24801,"lon":5.37421,"is_reserved":false,"is_disabled":false,"rental_uris":{"android":"levelo://app?vid=653ea6de-a177-4007-9cfa-5f3f77e975f6","ios":"levelo://app?vid=653ea6de-a177-4007-9cfa-5f3f77e975f6"},"vehicle_type_id":"4","last_reported":1743278972,"current_range_meters":12400,"station_id":"ce4bhgh2rcd13ifvqfb0","pricing_plan_id":"cebpf4jnsgd1na2vs0mg"},{"bike_id":"5347da3b-4766-4b5f-860e-e5fcb38f3a05","system_id":"levelo_inurba_marseille","lat":43.31354,"lon":5.38497,"is_reserved":false,"is_disabled":true,"rental_uris":{"android":"levelo://app?vid=5347da3b-4766-4b5f-860e-e5fcb38f3a05","ios":"levelo://app?vid=5347da3b-4766-4b5f-860e-e5fcb38f3a05"},"vehicle_type_id":"4","last_reported":1743278972,"current_range_meters":12400,"station_id":"ce4bgt92rcd13ifvqcf0","pricing_plan_id":"cebpf4jnsgd1na2vs0mg"},{"bike_id":"33d82c42-d308-4dac-aa24-b1ef4c4427be","system_id":"levelo_inurba_marseille","lat":43.24188,"lon":5.39727,"is_reserved":false,"is_disabled":false,"rental_uris":{"android":"levelo://app?vid=33d82c42-d308-4dac-aa24-b1ef4c4427be","ios":"levelo://app?vid=33d82c42-d308-4dac-aa24-b1ef4c4427be"},"vehicle_type_id":"4","last_reported":1743278972,"current_range_meters":12400,"station_id":"ce4bhn12rcd13ifvqgpg","pricing_plan_id":"cebpf4jnsgd1na2vs0mg"},{"bike_id":"e53fb0b6-4828-47af-a0d0-116bdf650cf4","system_id":"levelo_inurba_marseille","lat":43.26689,"lon":5.3829,"is_reserved":false,"is_disabled":false,"rental_uris":{"android":"levelo://app?vid=e53fb0b6-4828-47af-a0d0-116bdf650cf4","ios":"levelo://app?vid=e53fb0b6-4828-47af-a0d0-116bdf650cf4"},"vehicle_type_id":"4","last_reported":1743278972,"current_range_meters":12800,"station_id":"ce4bhg92rcd13ifvqf90","pricing_plan_id":"cebpf4jnsgd1na2vs0mg"},{"bike_id":"79c22d93-7790-46af-818a-645271303cd7","system_id":"levelo_inurba_marseille","lat":43.29174,"lon":5.37149,"is_reserved":false,"is_disabled":false,"rental_uris":{"android":"levelo://app?vid=79c22d93-7790-46af-818a-645271303cd7","ios":"levelo://app?vid=79c22d93-7790-46af-818a-645271303cd7"},"vehicle_type_id":"4","last_reported":1743278972,"current_range_meters":12800,"station_id":"ce4bha92rcd13ifvqeh0","pricing_plan_id":"cebpf4jnsgd1na2vs0mg"},{"bike_id":"80ce0489-af96-4bef-97ff-91c9db8d19ca","system_id":"levelo_inurba_marseille","lat":43.24684,"lon":5.38156,"is_reserved":false,"is_disabled":false,"rental_uris":{"android":"levelo://app?vid=80ce0489-af96-4bef-97ff-91c9db8d19ca","ios":"levelo://app?vid=80ce0489-af96-4bef-97ff-91c9db8d19ca"},"vehicle_type_id":"4","last_reported":1743278972,"current_range_meters":12800,"station_id":"ce4bhih2rcd13ifvqfr0","pricing_plan_id":"cebpf4jnsgd1na2vs0mg"},{"bike_id":"37cac1da-9225-4e30-9305-4389b6865a78","system_id":"levelo_inurba_marseille","lat":43.29271,"lon":5.38436,"is_reserved":false,"is_disabled":false,"rental_uris":{"android":"levelo://app?vid=37cac1da-9225-4e30-9305-4389b6865a78","ios":"levelo://app?vid=37cac1da-9225-4e30-9305-4389b6865a78"},"vehicle_type_id":"4","last_reported":1743278972,"current_range_meters":12800,"station_id":"ce4bh692rcd13ifvqea0","pricing_plan_id":"cebpf4jnsgd1na2vs0mg"},{"bike_id":"a58b0b0d-42fa-4735-9e33-7aa0ba3d571d","system_id":"levelo_inurba_marseille","lat":43.30946,"lon":5.39034,"is_reserved":false,"is_disabled":false,"rental_uris":{"android":"levelo://app?vid=a58b0b0d-42fa-4735-9e33-7aa0ba3d571d","ios":"levelo://app?vid=a58b0b0d-42fa-4735-9e33-7aa0ba3d571d"},"vehicle_type_id":"4","last_reported":1743278972,"current_range_meters":12800,"station_id":"ce4bgup2rcd13ifvqco0","pricing_plan_id":"cebpf4jnsgd1na2vs0mg"},{"bike_id":"a09dbde8-9d4e-4b14-8c08-9c726e7ec6b3","system_id":"levelo_inurba_marseille","lat":43.30956,"lon":5.39061,"is_reserved":false,"is_disabled":false,"rental_uris":{"android":"levelo://app?vid=a09dbde8-9d4e-4b14-8c08-9c726e7ec6b3","ios":"levelo://app?vid=a09dbde8-9d4e-4b14-8c08-9c726e7ec6b3"},"vehicle_type_id":"4","last_reported":1743278972,"current_range_meters":12800,"station_id":"ce4bgup2rcd13ifvqco0","pricing_plan_id":"cebpf4jnsgd1na2vs0mg"},{"bike_id":"bd90bf75-9c99-4619-93c2-7a5fd83388b5","system_id":"levelo_inurba_marseille","lat":43.313603,"lon":5.388284,"is_reserved":false,"is_disabled":false,"rental_uris":{"android":"levelo://app?vid=bd90bf75-9c99-4619-93c2-7a5fd83388b5","ios":"levelo://app?vid=bd90bf75-9c99-4619-93c2-7a5fd83388b5"},"vehicle_type_id":"4","last_reported":1743278972,"current_range_meters":13600,"station_id":"ce4bgt92rcd13ifvqcf0","pricing_plan_id":"cebpf4jnsgd1na2vs0mg"},{"bike_id":"e1f39489-366e-4c51-a52d-46e1e2648fdc","system_id":"levelo_inurba_marseille","lat":43.23208,"lon":5.35539,"is_reserved":false,"is_disabled":false,"rental_uris":{"android":"levelo://app?vid=e1f39489-366e-4c51-a52d-46e1e2648fdc","ios":"levelo://app?vid=e1f39489-366e-4c51-a52d-46e1e2648fdc"},"vehicle_type_id":"4","last_reported":1743278972,"current_range_meters":13600,"station_id":"ce4bhu92rcd13ifvqi70","pricing_plan_id":"cebpf4jnsgd1na2vs0mg"},{"bike_id":"3585257d-d419-4845-908a-cdb20c155fc8","system_id":"levelo_inurba_marseille","lat":43.29095,"lon":5.38143,"is_reserved":false,"is_disabled":false,"rental_uris":{"android":"levelo://app?vid=3585257d-d419-4845-908a-cdb20c155fc8","ios":"levelo://app?vid=3585257d-d419-4845-908a-cdb20c155fc8"},"vehicle_type_id":"4","last_reported":1743278972,"current_range_meters":13600,"station_id":"ce4bh512rcd13ifvqe2g","pricing_plan_id":"cebpf4jnsgd1na2vs0mg"},{"bike_id":"e48028e8-f663-4812-9bb6-01188a4bccd4","system_id":"levelo_inurba_marseille","lat":43.27837,"lon":5.39201,"is_reserved":false,"is_disabled":false,"rental_uris":{"android":"levelo://app?vid=e48028e8-f663-4812-9bb6-01188a4bccd4","ios":"levelo://app?vid=e48028e8-f663-4812-9bb6-01188a4bccd4"},"vehicle_type_id":"4","last_reported":1743278972,"current_range_meters":12800,"station_id":"ce4bhjp2rcd13ifvqga0","pricing_plan_id":"cebpf4jnsgd1na2vs0mg"},{"bike_id":"4dffd865-5062-40b0-941f-a87baa60125e","system_id":"levelo_inurba_marseille","lat":43.27673,"lon":5.38877,"is_reserved":false,"is_disabled":false,"rental_uris":{"android":"levelo://app?vid=4dffd865-5062-40b0-941f-a87baa60125e","ios":"levelo://app?vid=4dffd865-5062-40b0-941f-a87baa60125e"},"vehicle_type_id":"4","last_reported":1743278972,"current_range_meters":13600,"station_id":"ce4bhi12rcd13ifvqfo0","pricing_plan_id":"cebpf4jnsgd1na2vs0mg"},{"bike_id":"6ffa80c8-a592-4eb7-a73a-4e02b562d2d3","system_id":"levelo_inurba_marseille","lat":43.30142,"lon":5.37413,"is_reserved":false,"is_disabled":false,"rental_uris":{"android":"levelo://app?vid=6ffa80c8-a592-4eb7-a73a-4e02b562d2d3","ios":"levelo://app?vid=6ffa80c8-a592-4eb7-a73a-4e02b562d2d3"},"vehicle_type_id":"4","last_reported":1743278972,"current_range_meters":13600,"station_id":"ce4bgs92rcd13ifvqcc0","pricing_plan_id":"cebpf4jnsgd1na2vs0mg"},{"bike_id":"b0123804-0db7-4b60-b7bc-9333d436f20d","system_id":"levelo_inurba_marseille","lat":43.29166,"lon":5.37158,"is_reserved":false,"is_disabled":false,"rental_uris":{"android":"levelo://app?vid=b0123804-0db7-4b60-b7bc-9333d436f20d","ios":"levelo://app?vid=b0123804-0db7-4b60-b7bc-9333d436f20d"},"vehicle_type_id":"4","last_reported":1743278972,"current_range_meters":13600,"station_id":"ce4bha92rcd13ifvqeh0","pricing_plan_id":"cebpf4jnsgd1na2vs0mg"},{"bike_id":"f957e6e5-377c-456d-80d2-d84a030f63cf","system_id":"levelo_inurba_marseille","lat":43.31355,"lon":5.38514,"is_reserved":false,"is_disabled":false,"rental_uris":{"android":"levelo://app?vid=f957e6e5-377c-456d-80d2-d84a030f63cf","ios":"levelo://app?vid=f957e6e5-377c-456d-80d2-d84a030f63cf"},"vehicle_type_id":"4","last_reported":1743278972,"current_range_meters":13600,"station_id":"ce4bgt92rcd13ifvqcf0","pricing_plan_id":"cebpf4jnsgd1na2vs0mg"},{"bike_id":"f61f1515-207e-4524-a651-bc89d4d58871","system_id":"levelo_inurba_marseille","lat":43.28632,"lon":5.35122,"is_reserved":false,"is_disabled":false,"rental_uris":{"android":"levelo://app?vid=f61f1515-207e-4524-a651-bc89d4d58871","ios":"levelo://app?vid=f61f1515-207e-4524-a651-bc89d4d58871"},"vehicle_type_id":"4","last_reported":1743278972,"current_range_meters":13600,"station_id":"ce4bhch2rcd13ifvqeug","pricing_plan_id":"cebpf4jnsgd1na2vs0mg"},{"bike_id":"181b0de8-79c0-464e-a911-494ae91326a8","system_id":"levelo_inurba_marseille","lat":43.29873,"lon":5.38898,"is_reserved":false,"is_disabled":false,"rental_uris":{"android":"levelo://app?vid=181b0de8-79c0-464e-a911-494ae91326a8","ios":"levelo://app?vid=181b0de8-79c0-464e-a911-494ae91326a8"},"vehicle_type_id":"4","last_reported":1743278972,"current_range_meters":13600,"station_id":"ce4bh392rcd13ifvqdl0","pricing_plan_id":"cebpf4jnsgd1na2vs0mg"},{"bike_id":"8bcc045e-f28b-442a-a0af-38457b26197c","system_id":"levelo_inurba_marseille","lat":43.241649,"lon":5.364012,"is_reserved":false,"is_disabled":false,"rental_uris":{"android":"levelo://app?vid=8bcc045e-f28b-442a-a0af-38457b26197c","ios":"levelo://app?vid=8bcc045e-f28b-442a-a0af-38457b26197c"},"vehicle_type_id":"4","last_reported":1743278972,"current_range_meters":14000,"station_id":"cpo36qri1sfpv3e86is0","pricing_plan_id":"cebpf4jnsgd1na2vs0mg"},{"bike_id":"4b88c5da-11bb-467d-b9b5-f2ac09c5b028","system_id":"levelo_inurba_marseille","lat":43.30944,"lon":5.39038,"is_reserved":false,"is_disabled":false,"rental_uris":{"android":"levelo://app?vid=4b88c5da-11bb-467d-b9b5-f2ac09c5b028","ios":"levelo://app?vid=4b88c5da-11bb-467d-b9b5-f2ac09c5b028"},"vehicle_type_id":"4","last_reported":1743278972,"current_range_meters":13600,"station_id":"ce4bgup2rcd13ifvqco0","pricing_plan_id":"cebpf4jnsgd1na2vs0mg"},{"bike_id":"2d1aed30-04fd-4153-ae7c-ba4ec4994edf","system_id":"levelo_inurba_marseille","lat":43.29175,"lon":5.37146,"is_reserved":false,"is_disabled":false,"rental_uris":{"android":"levelo://app?vid=2d1aed30-04fd-4153-ae7c-ba4ec4994edf","ios":"levelo://app?vid=2d1aed30-04fd-4153-ae7c-ba4ec4994edf"},"vehicle_type_id":"4","last_reported":1743278972,"current_range_meters":14000,"station_id":"ce4bha92rcd13ifvqeh0","pricing_plan_id":"cebpf4jnsgd1na2vs0mg"},{"bike_id":"cccdfc50-9172-4019-9d86-2d339a3ec58f","system_id":"levelo_inurba_marseille","lat":43.24672,"lon":5.38165,"is_reserved":false,"is_disabled":false,"rental_uris":{"android":"levelo://app?vid=cccdfc50-9172-4019-9d86-2d339a3ec58f","ios":"levelo://app?vid=cccdfc50-9172-4019-9d86-2d339a3ec58f"},"vehicle_type_id":"4","last_reported":1743278972,"current_range_meters":14000,"station_id":"ce4bhih2rcd13ifvqfr0","pricing_plan_id":"cebpf4jnsgd1na2vs0mg"},{"bike_id":"51f634e3-ac61-4928-9ed6-54eb1e30344e","system_id":"levelo_inurba_marseille","lat":43.29709,"lon":5.37285,"is_reserved":false,"is_disabled":true,"rental_uris":{"android":"levelo://app?vid=51f634e3-ac61-4928-9ed6-54eb1e30344e","ios":"levelo://app?vid=51f634e3-ac61-4928-9ed6-54eb1e30344e"},"vehicle_type_id":"4","last_reported":1743278972,"current_range_meters":14000,"station_id":"ce4bgk12rcd13ifvqbj0","pricing_plan_id":"cebpf4jnsgd1na2vs0mg"},{"bike_id":"91a373e4-7e0d-42b8-8ffb-3cdbfd18ac2a","system_id":"levelo_inurba_marseille","lat":43.29519,"lon":5.3941,"is_reserved":false,"is_disabled":false,"rental_uris":{"android":"levelo://app?vid=91a373e4-7e0d-42b8-8ffb-3cdbfd18ac2a","ios":"levelo://app?vid=91a373e4-7e0d-42b8-8ffb-3cdbfd18ac2a"},"vehicle_type_id":"4","last_reported":1743278972,"current_range_meters":14000,"station_id":"ce4bh292rcd13ifvqdf0","pricing_plan_id":"cebpf4jnsgd1na2vs0mg"},{"bike_id":"0684b08a-0ab4-4c3c-9991-1a558d6273c5","system_id":"levelo_inurba_marseille","lat":43.29721,"lon":5.37705,"is_reserved":false,"is_disabled":false,"rental_uris":{"android":"levelo://app?vid=0684b08a-0ab4-4c3c-9991-1a558d6273c5","ios":"levelo://app?vid=0684b08a-0ab4-4c3c-9991-1a558d6273c5"},"vehicle_type_id":"4","last_reported":1743278972,"current_range_meters":14000,"station_id":"ce4bgkh2rcd13ifvqbl0","pricing_plan_id":"cebpf4jnsgd1na2vs0mg"},{"bike_id":"479416be-1016-4439-b3ef-37b071b72af9","system_id":"levelo_inurba_marseille","lat":43.29418,"lon":5.38612,"is_reserved":false,"is_disabled":false,"rental_uris":{"android":"levelo://app?vid=479416be-1016-4439-b3ef-37b071b72af9","ios":"levelo://app?vid=479416be-1016-4439-b3ef-37b071b72af9"},"vehicle_type_id":"4","last_reported":1743278972,"current_range_meters":14000,"station_id":"ce4bh2h2rcd13ifvqdh0","pricing_plan_id":"cebpf4jnsgd1na2vs0mg"},{"bike_id":"adf6a64d-c2c7-43ad-96da-9ad496cea424","system_id":"levelo_inurba_marseille","lat":43.29519,"lon":5.39406,"is_reserved":false,"is_disabled":false,"rental_uris":{"android":"levelo://app?vid=adf6a64d-c2c7-43ad-96da-9ad496cea424","ios":"levelo://app?vid=adf6a64d-c2c7-43ad-96da-9ad496cea424"},"vehicle_type_id":"4","last_reported":1743278972,"current_range_meters":14000,"station_id":"ce4bh292rcd13ifvqdf0","pricing_plan_id":"cebpf4jnsgd1na2vs0mg"},{"bike_id":"1574c9d1-20a4-468b-b0fd-1332f33a0bb7","system_id":"levelo_inurba_marseille","lat":43.30587,"lon":5.3936,"is_reserved":false,"is_disabled":false,"rental_uris":{"android":"levelo://app?vid=1574c9d1-20a4-468b-b0fd-1332f33a0bb7","ios":"levelo://app?vid=1574c9d1-20a4-468b-b0fd-1332f33a0bb7"},"vehicle_type_id":"4","last_reported":1743278972,"current_range_meters":14000,"station_id":"ce4bh0p2rcd13ifvqd80","pricing_plan_id":"cebpf4jnsgd1na2vs0mg"},{"bike_id":"626d2136-a31c-4224-ba68-9a83c069cd7e","system_id":"levelo_inurba_marseille","lat":43.23188,"lon":5.39996,"is_reserved":false,"is_disabled":false,"rental_uris":{"android":"levelo://app?vid=626d2136-a31c-4224-ba68-9a83c069cd7e","ios":"levelo://app?vid=626d2136-a31c-4224-ba68-9a83c069cd7e"},"vehicle_type_id":"4","last_reported":1743278972,"current_range_meters":14000,"station_id":"ce4bhn12rcd13ifvqgqg","pricing_plan_id":"cebpf4jnsgd1na2vs0mg"},{"bike_id":"7564a4eb-fcbd-47e7-87b5-86c0ae53d2e9","system_id":"levelo_inurba_marseille","lat":43.26706,"lon":5.38263,"is_reserved":false,"is_disabled":false,"rental_uris":{"android":"levelo://app?vid=7564a4eb-fcbd-47e7-87b5-86c0ae53d2e9","ios":"levelo://app?vid=7564a4eb-fcbd-47e7-87b5-86c0ae53d2e9"},"vehicle_type_id":"4","last_reported":1743278972,"current_range_meters":14000,"station_id":"ce4bhg92rcd13ifvqf90","pricing_plan_id":"cebpf4jnsgd1na2vs0mg"},