{"last_updated":1678979279,"ttl":30,"version":"2.2","data":{"bikes":[{"bike_id":"50bd6e96-bf20-472d-858a-8377e54b268d","system_id":"levelo_inurba_marseille","lat":43.312239,"lon":5.368562,"is_reserved":false,"is_disabled":false,"rental_uris":{"android":"levelo://app?vid=50bd6e96-bf20-472d-858a-8377e54b268d","ios":"levelo://app?vid=50bd6e96-bf20-472d-858a-8377e54b268d"},"vehicle_type_id":"4","last_reported":1678979279,"current_range_meters":22400,"station_id":"ce4bgl92rcd13ifvqbq0","pricing_plan_id":"free"},{"bike_id":"6cfbd55b-50a4-4781-b321-49ee702867ef","system_id":"levelo_inurba_marseille","lat":43.312239,"lon":5.368562,"is_reserved":false,"is_disabled":false,"rental_uris":{"android":"levelo://app?vid=6cfbd55b-50a4-4781-b321-49ee702867ef","ios":"levelo://app?vid=6cfbd55b-50a4-4781-b321-49ee702867ef"},"vehicle_type_id":"4","last_reported":1678979279,"current_range_meters":31200,"station_id":"ce4bgl92rcd13ifvqbq0","pricing_plan_id":"free"},{"bike_id":"9d59a780-dab0-4c98-90ef-a7390dfa4e1b","system_id":"levelo_inurba_marseille","lat":43.312239,"lon":5.368562,"is_reserved":false,"is_disabled":false,"rental_uris":{"android":"levelo://app?vid=9d59a780-dab0-4c98-90ef-a7390dfa4e1b","ios":"levelo://app?vid=9d59a780-dab0-4c98-90ef-a7390dfa4e1b"},"vehicle_type_id":"4","last_reported":1678979279,"current_range_meters":29600,"station_id":"ce4bgl92rcd13ifvqbq0","pricing_plan_id":"free"},{"bike_id":"4a20b4fc-cf81-4d9e-ad3f-a6a39838d1c2","system_id":"levelo_inurba_marseille","lat":43.312239,"lon":5.368562,"is_reserved":false,"is_disabled":false,"rental_uris":{"android":"levelo://app?vid=4a20b4fc-cf81-4d9e-ad3f-a6a39838d1c2","ios":"levelo://app?vid=4a20b4fc-cf81-4d9e-ad3f-a6a39838d1c2"},"vehicle_type_id":"4","last_reported":1678979279,"current_range_meters":31600,"station_id":"ce4bgl92rcd13ifvqbq0","pricing_plan_id":"free"},{"bike_id":"ace6318e-053b-408c-b626-2509abaff4fa","system_id":"levelo_inurba_marseille","lat":43.312239,"lon":5.368562,"is_reserved":false,"is_disabled":false,"rental_uris":{"android":"levelo://app?vid=ace6318e-053b-408c-b626-2509abaff4fa","ios":"levelo://app?vid=ace6318e-053b-408c-b626-2509abaff4fa"},"vehicle_type_id":"4","last_reported":1678979279,"current_range_meters":26800,"station_id":"ce4bgl92rcd13ifvqbq0","pricing_plan_id":"free"},{"bike_id":"f324c130-ed58-4b5b-bdd5-199deb716775","system_id":"levelo_inurba_marseille","lat":43.312239,"lon":5.368562,"is_reserved":false,"is_disabled":false,"rental_uris":{"android":"levelo://app?vid=f324c130-ed58-4b5b-bdd5-199deb716775","ios":"levelo://app?vid=f324c130-ed58-4b5b-bdd5-199deb716775"},"vehicle_type_id":"4","last_reported":1678979279,"current_range_meters":30000,"station_id":"ce4bgl92rcd13ifvqbq0","pricing_plan_id":"free"},{"bike_id":"ead56d8c-a975-4679-8049-e8368fa81b78","system_id":"levelo_inurba_marseille","lat":43.312239,"lon":5.368562,"is_reserved":false,"is_disabled":false,"rental_uris":{"android":"levelo://app?vid=ead56d8c-a975-4679-8049-e8368fa81b78","ios":"levelo://app?vid=ead56d8c-a975-4679-8049-e8368fa81b78"},"vehicle_type_id":"4","last_reported":1678979279,"current_range_meters":14800,"station_id":"ce4bgl92rcd13ifvqbq0","pricing_plan_id":"free"},{"bike_id":"0126eeb5-314e-48cc-90c9-93264669c96e","system_id":"levelo_inurba_marseille","lat":43.312239,"lon":5.368562,"is_reserved":false,"is_disabled":false,"rental_uris":{"android":"levelo://app?vid=0126eeb5-314e-48cc-90c9-93264669c96e","ios":"levelo://app?vid=0126eeb5-314e-48cc-90c9-93264669c96e"},"vehicle_type_id":"4","last_reported":1678979279,"current_range_meters":16000,"station_id":"ce4bgl92rcd13ifvqbq0","pricing_plan_id":"free"},{"bike_id":"9c0a42d9-0374-492a-ac67-156b3652eb60","system_id":"levelo_inurba_marseille","lat":43.312239,"lon":5.368562,"is_reserved":false,"is_disabled":false,"rental_uris":{"android":"levelo://app?vid=9c0a42d9-0374-492a-ac67-156b3652eb60","ios":"levelo://app?vid=9c0a42d9-0374-492a-ac67-156b3652eb60"},"vehicle_type_id":"4","last_reported":1678979279,"current_range_meters":31200,"station_id":"ce4bgl92rcd13ifvqbq0","pricing_plan_id":"free"},{"bike_id":"97cd590d-e9f6-46ae-b120-9be4ca197460","system_id":"levelo_inurba_marseille","lat":43.30913,"lon":5.368558,"is_reserved":false,"is_disabled":false,"rental_uris":{"android":"levelo://app?vid=97cd590d-e9f6-46ae-b120-9be4ca197460","ios":"levelo://app?vid=97cd590d-e9f6-46ae-b120-9be4ca197460"},"vehicle_type_id":"4","last_reported":1678979279,"current_range_meters":14400,"station_id":"ce4bgn92rcd13ifvqbvg","pricing_plan_id":"free"},{"bike_id":"eda78729-7cc4-4134-8b14-ff0beac5ff7c","system_id":"levelo_inurba_marseille","lat":43.3091,"lon":5.36843,"is_reserved":false,"is_disabled":false,"rental_uris":{"android":"levelo://app?vid=eda78729-7cc4-4134-8b14-ff0beac5ff7c","ios":"levelo://app?vid=eda78729-7cc4-4134-8b14-ff0beac5ff7c"},"vehicle_type_id":"4","last_reported":1678979279,"current_range_meters":24000,"station_id":"ce4bgn92rcd13ifvqbvg","pricing_plan_id":"free"},{"bike_id":"4cf41e89-b1a6-4ec5-bf40-75cf3258d11a","system_id":"levelo_inurba_marseille","lat":43.309119,"lon":5.368534,"is_reserved":false,"is_disabled":false,"rental_uris":{"android":"levelo://app?vid=4cf41e89-b1a6-4ec5-bf40-75cf3258d11a","ios":"levelo://app?vid=4cf41e89-b1a6-4ec5-bf40-75cf3258d11a"},"vehicle_type_id":"4","last_reported":1678979279,"current_range_meters":24000,"station_id":"","pricing_plan_id":"free"},{"bike_id":"e8989f2c-7eb7-4fa6-a10e-64bbddad196d","system_id":"levelo_inurba_marseille","lat":43.30911,"lon":5.36856,"is_reserved":false,"is_disabled":false,"rental_uris":{"android":"levelo://app?vid=e8989f2c-7eb7-4fa6-a10e-64bbddad196d","ios":"levelo://app?vid=e8989f2c-7eb7-4fa6-a10e-64bbddad196d"},"vehicle_type_id":"4","last_reported":1678979279,"current_range_meters":25600,"station_id":"ce4bgn92rcd13ifvqbvg","pricing_plan_id":"free"},{"bike_id":"3f23af34-dc59-4778-bfc1-4326d24fc7d2","system_id":"levelo_inurba_marseille","lat":43.309098,"lon":5.36857,"is_reserved":false,"is_disabled":false,"rental_uris":{"android":"levelo://app?vid=3f23af34-dc59-4778-bfc1-4326d24fc7d2","ios":"levelo://app?vid=3f23af34-dc59-4778-bfc1-4326d24fc7d2"},"vehicle_type_id":"4","last_reported":1678979279,"current_range_meters":24400,"station_id":"","pricing_plan_id":"free"},{"bike_id":"22588a22-a1da-441f-bf47-bc58b189a220","system_id":"levelo_inurba_marseille","lat":43.309065,"lon":5.36851,"is_reserved":false,"is_disabled":false,"rental_uris":{"android":"levelo://app?vid=22588a22-a1da-441f-bf47-bc58b189a220","ios":"levelo://app?vid=22588a22-a1da-441f-bf47-bc58b189a220"},"vehicle_type_id":"4","last_reported":1678979279,"current_range_meters":800,"station_id":"ce4bgn92rcd13ifvqbvg","pricing_plan_id":"free"},{"bike_id":"6b906f65-8a49-4bff-884d-d3b08474d10e","system_id":"levelo_inurba_marseille","lat":43.309025,"lon":5.36854,"is_reserved":false,"is_disabled":false,"rental_uris":{"android":"levelo://app?vid=6b906f65-8a49-4bff-884d-d3b08474d10e","ios":"levelo://app?vid=6b906f65-8a49-4bff-884d-d3b08474d10e"},"vehicle_type_id":"4","last_reported":1678979279,"current_range_meters":4800,"station_id":"","pricing_plan_id":"free"},{"bike_id":"4cb8e54b-9cac-42a8-949c-f164814c4640","system_id":"levelo_inurba_marseille","lat":43.314811,"lon":5.373103,"is_reserved":false,"is_disabled":false,"rental_uris":{"android":"levelo://app?vid=4cb8e54b-9cac-42a8-949c-f164814c4640","ios":"levelo://app?vid=4cb8e54b-9cac-42a8-949c-f164814c4640"},"vehicle_type_id":"4","last_reported":1678979279,"current_range_meters":14800,"station_id":"ce4bgt12rcd13ifvqcd0","pricing_plan_id":"free"},{"bike_id":"d15e9a52-928b-4862-b604-009371211ec1","system_id":"levelo_inurba_marseille","lat":43.314811,"lon":5.373103,"is_reserved":false,"is_disabled":false,"rental_uris":{"android":"levelo://app?vid=d15e9a52-928b-4862-b604-009371211ec1","ios":"levelo://app?vid=d15e9a52-928b-4862-b604-009371211ec1"},"vehicle_type_id":"4","last_reported":1678979279,"current_range_meters":2800,"station_id":"ce4bgt12rcd13ifvqcd0","pricing_plan_id":"free"},{"bike_id":"07c57977-66d2-4f37-9158-0e0d7719549e","system_id":"levelo_inurba_marseille","lat":43.30887,"lon":5.37196,"is_reserved":false,"is_disabled":false,"rental_uris":{"android":"levelo://app?vid=07c57977-66d2-4f37-9158-0e0d7719549e","ios":"levelo://app?vid=07c57977-66d2-4f37-9158-0e0d7719549e"},"vehicle_type_id":"4","last_reported":1678979279,"current_range_meters":28400,"station_id":"","pricing_plan_id":"free"},{"bike_id":"ce803d51-890f-4c12-8a8f-be9a957ff38c","system_id":"levelo_inurba_marseille","lat":43.305114,"lon":5.367029,"is_reserved":false,"is_disabled":false,"rental_uris":{"android":"levelo://app?vid=ce803d51-890f-4c12-8a8f-be9a957ff38c","ios":"levelo://app?vid=ce803d51-890f-4c12-8a8f-be9a957ff38c"},"vehicle_type_id":"4","last_reported":1678979279,"current_range_meters":0,"station_id":"","pricing_plan_id":"free"},{"bike_id":"39ead222-3604-4405-99b7-f12d0a91b089","system_id":"levelo_inurba_marseille","lat":43.306133,"lon":5.37233,"is_reserved":false,"is_disabled":false,"rental_uris":{"android":"levelo://app?vid=39ead222-3604-4405-99b7-f12d0a91b089","ios":"levelo://app?vid=39ead222-3604-4405-99b7-f12d0a91b089"},"vehicle_type_id":"4","last_reported":1678979279,"current_range_meters":20000,"station_id":"ce4bgqh2rcd13ifvqc4g","pricing_plan_id":"free"},{"bike_id":"9da4049e-6a29-4ff6-ab21-cd6b33c39c23","system_id":"levelo_inurba_marseille","lat":43.305989,"lon":5.37225,"is_reserved":false,"is_disabled":false,"rental_uris":{"android":"levelo://app?vid=9da4049e-6a29-4ff6-ab21-cd6b33c39c23","ios":"levelo://app?vid=9da4049e-6a29-4ff6-ab21-cd6b33c39c23"},"vehicle_type_id":"4","last_reported":1678979279,"current_range_meters":6400,"station_id":"ce4bgqh2rcd13ifvqc4g","pricing_plan_id":"free"},{"bike_id":"42044ac4-e8ca-4417-b57a-fd76a22f01a7","system_id":"levelo_inurba_marseille","lat":43.306,"lon":5.37222,"is_reserved":false,"is_disabled":false,"rental_uris":{"android":"levelo://app?vid=42044ac4-e8ca-4417-b57a-fd76a22f01a7","ios":"levelo://app?vid=42044ac4-e8ca-4417-b57a-fd76a22f01a7"},"vehicle_type_id":"4","last_reported":1678979279,"current_range_meters":28000,"station_id":"ce4bgqh2rcd13ifvqc4g","pricing_plan_id":"free"},{"bike_id":"57099128-5ecd-4618-ac08-74633cf7652a","system_id":"levelo_inurba_marseille","lat":43.30592,"lon":5.37221,"is_reserved":false,"is_disabled":false,"rental_uris":{"android":"levelo://app?vid=57099128-5ecd-4618-ac08-74633cf7652a","ios":"levelo://app?vid=57099128-5ecd-4618-ac08-74633cf7652a"},"vehicle_type_id":"4","last_reported":1678979279,"current_range_meters":31600,"station_id":"","pricing_plan_id":"free"},{"bike_id":"9d5e7894-cc5b-4853-b3ec-4ab40091083e","system_id":"levelo_inurba_marseille","lat":43.301939,"lon":5.366286,"is_reserved":false,"is_disabled":false,"rental_uris":{"android":"levelo://app?vid=9d5e7894-cc5b-4853-b3ec-4ab40091083e","ios":"levelo://app?vid=9d5e7894-cc5b-4853-b3ec-4ab40091083e"},"vehicle_type_id":"4","last_reported":1678979279,"current_range_meters":13200,"station_id":"ce4bgrh2rcd13ifvqc8g","pricing_plan_id":"free"},{"bike_id":"1fcc8bbb-61be-46c9-bbf8-2544d4dabef9","system_id":"levelo_inurba_marseille","lat":43.301939,"lon":5.366286,"is_reserved":false,"is_disabled":false,"rental_uris":{"android":"levelo://app?vid=1fcc8bbb-61be-46c9-bbf8-2544d4dabef9","ios":"levelo://app?vid=1fcc8bbb-61be-46c9-bbf8-2544d4dabef9"},"vehicle_type_id":"4","last_reported":1678979279,"current_range_meters":13600,"station_id":"ce4bgrh2rcd13ifvqc8g","pricing_plan_id":"free"},{"bike_id":"94f044cd-c207-4ddc-bb67-fb308e08c98b","system_id":"levelo_inurba_marseille","lat":43.301723,"lon":5.366107,"is_reserved":false,"is_disabled":false,"rental_uris":{"android":"levelo://app?vid=94f044cd-c207-4ddc-bb67-fb308e08c98b","ios":"levelo://app?vid=94f044cd-c207-4ddc-bb67-fb308e08c98b"},"vehicle_type_id":"4","last_reported":1678979279,"current_range_meters":0,"station_id":"","pricing_plan_id":"free"},{"bike_id":"b4461ed4-2f41-4f5f-986c-04c74ba0f5bf","system_id":"levelo_inurba_marseille","lat":43.308012,"lon":5.381511,"is_reserved":false,"is_disabled":false,"rental_uris":{"android":"levelo://app?vid=b4461ed4-2f41-4f5f-986c-04c74ba0f5bf","ios":"levelo://app?vid=b4461ed4-2f41-4f5f-986c-04c74ba0f5bf"},"vehicle_type_id":"4","last_reported":1678979279,"current_range_meters":0,"station_id":"ce4bgt12rcd13ifvqce0","pricing_plan_id":"free"},{"bike_id":"d95b5207-646e-46a6-b831-a74a2324ef88","system_id":"levelo_inurba_marseille","lat":43.301429,"lon":5.37413,"is_reserved":false,"is_disabled":false,"rental_uris":{"android":"levelo://app?vid=d95b5207-646e-46a6-b831-a74a2324ef88","ios":"levelo://app?vid=d95b5207-646e-46a6-b831-a74a2324ef88"},"vehicle_type_id":"4","last_reported":1678979279,"current_range_meters":14800,"station_id":"ce4bgs92rcd13ifvqcc0","pricing_plan_id":"free"},{"bike_id":"88ed252e-a4ac-49c5-859b-3d77718dcc89","system_id":"levelo_inurba_marseille","lat":43.301429,"lon":5.37413,"is_reserved":false,"is_disabled":false,"rental_uris":{"android":"levelo://app?vid=88ed252e-a4ac-49c5-859b-3d77718dcc89","ios":"levelo://app?vid=88ed252e-a4ac-49c5-859b-3d77718dcc89"},"vehicle_type_id":"4","last_reported":1678979279,"current_range_meters":26000,"station_id":"ce4bgs92rcd13ifvqcc0","pricing_plan_id":"free"},{"bike_id":"a4196875-7092-4152-8d9f-9e0cc04f354b","system_id":"levelo_inurba_marseille","lat":43.30138,"lon":5.37416,"is_reserved":false,"is_disabled":false,"rental_uris":{"android":"levelo://app?vid=a4196875-7092-4152-8d9f-9e0cc04f354b","ios":"levelo://app?vid=a4196875-7092-4152-8d9f-9e0cc04f354b"},"vehicle_type_id":"4","last_reported":1678979279,"current_range_meters":31600,"station_id":"ce4bgs92rcd13ifvqcc0","pricing_plan_id":"free"},{"bike_id":"25543ebf-544c-4247-b4a9-2505f48b9b7d","system_id":"levelo_inurba_marseille","lat":43.301429,"lon":5.37413,"is_reserved":false,"is_disabled":false,"rental_uris":{"android":"levelo://app?vid=25543ebf-544c-4247-b4a9-2505f48b9b7d","ios":"levelo://app?vid=25543ebf-544c-4247-b4a9-2505f48b9b7d"},"vehicle_type_id":"4","last_reported":1678979279,"current_range_meters":12800,"station_id":"ce4bgs92rcd13ifvqcc0","pricing_plan_id":"free"},{"bike_id":"1dd8200c-39ec-4f76-8a34-8c14be1c78ee","system_id":"levelo_inurba_marseille","lat":43.301372,"lon":5.3742,"is_reserved":false,"is_disabled":false,"rental_uris":{"android":"levelo://app?vid=1dd8200c-39ec-4f76-8a34-8c14be1c78ee","ios":"levelo://app?vid=1dd8200c-39ec-4f76-8a34-8c14be1c78ee"},"vehicle_type_id":"4","last_reported":1678979279,"current_range_meters":20000,"station_id":"ce4bgs92rcd13ifvqcc0","pricing_plan_id":"free"},{"bike_id":"36a403c3-6fac-48a5-b976-107c2035dc9d","system_id":"levelo_inurba_marseille","lat":43.301429,"lon":5.37413,"is_reserved":false,"is_disabled":false,"rental_uris":{"android":"levelo://app?vid=36a403c3-6fac-48a5-b976-107c2035dc9d","ios":"levelo://app?vid=36a403c3-6fac-48a5-b976-107c2035dc9d"},"vehicle_type_id":"4","last_reported":1678979279,"current_range_meters":400,"station_id":"ce4bgs92rcd13ifvqcc0","pricing_plan_id":"free"},{"bike_id":"414e2cf0-4b52-4866-9084-2cc8b6c414a1","system_id":"levelo_inurba_marseille","lat":43.305364,"lon":5.384119,"is_reserved":false,"is_disabled":false,"rental_uris":{"android":"levelo://app?vid=414e2cf0-4b52-4866-9084-2cc8b6c414a1","ios":"levelo://app?vid=414e2cf0-4b52-4866-9084-2cc8b6c414a1"},"vehicle_type_id":"4","last_reported":1678979279,"current_range_meters":0,"station_id":"ce4bgg92rcd13ifvqb30","pricing_plan_id":"free"},{"bike_id":"0ef17a3a-232d-4912-ace4-f96c0c7ecbfa","system_id":"levelo_inurba_marseille","lat":43.32825,"lon":5.36689,"is_reserved":false,"is_disabled":false,"rental_uris":{"android":"levelo://app?vid=0ef17a3a-232d-4912-ace4-f96c0c7ecbfa","ios":"levelo://app?vid=0ef17a3a-232d-4912-ace4-f96c0c7ecbfa"},"vehicle_type_id":"4","last_reported":1678979279,"current_range_meters":14000,"station_id":"ce4bhs92rcd13ifvqi0g","pricing_plan_id":"free"},{"bike_id":"295b83c1-b53a-48a3-951c-d89123fcd936","system_id":"levelo_inurba_marseille","lat":43.3283,"lon":5.3668,"is_reserved":false,"is_disabled":false,"rental_uris":{"android":"levelo://app?vid=295b83c1-b53a-48a3-951c-d89123fcd936","ios":"levelo://app?vid=295b83c1-b53a-48a3-951c-d89123fcd936"},"vehicle_type_id":"4","last_reported":1678979279,"current_range_meters":0,"station_id":"ce4bhs92rcd13ifvqi0g","pricing_plan_id":"free"},{"bike_id":"633be711-54ca-42ae-9164-15b51cfbe9c7","system_id":"levelo_inurba_marseille","lat":43.29677,"lon":5.37314,"is_reserved":false,"is_disabled":false,"rental_uris":{"android":"levelo://app?vid=633be711-54ca-42ae-9164-15b51cfbe9c7","ios":"levelo://app?vid=633be711-54ca-42ae-9164-15b51cfbe9c7"},"vehicle_type_id":"4","last_reported":1678979279,"current_range_meters":8400,"station_id":"","pricing_plan_id":"free"},{"bike_id":"7bd950b8-30db-446d-bda9-fbca1b719be5","system_id":"levelo_inurba_marseille","lat":43.29591,"lon":5.36744,"is_reserved":false,"is_disabled":false,"rental_uris":{"android":"levelo://app?vid=7bd950b8-30db-446d-bda9-fbca1b719be5","ios":"levelo://app?vid=7bd950b8-30db-446d-bda9-fbca1b719be5"},"vehicle_type_id":"4","last_reported":1678979279,"current_range_meters":14400,"station_id":"ce4bgph2rcd13ifvqc2g","pricing_plan_id":"free"},{"bike_id":"da5caca8-03e2-4e0a-bbba-c1150b509480","system_id":"levelo_inurba_marseille","lat":43.29573,"lon":5.367355,"is_reserved":false,"is_disabled":false,"rental_uris":{"android":"levelo://app?vid=da5caca8-03e2-4e0a-bbba-c1150b509480","ios":"levelo://app?vid=da5caca8-03e2-4e0a-bbba-c1150b509480"},"vehicle_type_id":"4","last_reported":1678979279,"current_range_meters":10400,"station_id":"ce4bgph2rcd13ifvqc2g","pricing_plan_id":"free"},{"bike_id":"26148dac-75a4-4094-8b5c-1627650a13a0","system_id":"levelo_inurba_marseille","lat":43.29573,"lon":5.367355,"is_reserved":false,"is_disabled":false,"rental_uris":{"android":"levelo://app?vid=26148dac-75a4-4094-8b5c-1627650a13a0","ios":"levelo://app?vid=26148dac-75a4-4094-8b5c-1627650a13a0"},"vehicle_type_id":"4","last_reported":1678979279,"current_range_meters":23600,"station_id":"ce4bgph2rcd13ifvqc2g","pricing_plan_id":"free"},{"bike_id":"b369c758-0169-488c-959c-c2a1dd909a67","system_id":"levelo_inurba_marseille","lat":43.29573,"lon":5.367355,"is_reserved":false,"is_disabled":false,"rental_uris":{"android":"levelo://app?vid=b369c758-0169-488c-959c-c2a1dd909a67","ios":"levelo://app?vid=b369c758-0169-488c-959c-c2a1dd909a67"},"vehicle_type_id":"4","last_reported":1678979279,"current_range_meters":20000,"station_id":"ce4bgph2rcd13ifvqc2g","pricing_plan_id":"free"},{"bike_id":"fc299691-8506-425d-ac20-6e2dcf4fef6c","system_id":"levelo_inurba_marseille","lat":43.29573,"lon":5.367355,"is_reserved":false,"is_disabled":false,"rental_uris":{"android":"levelo://app?vid=fc299691-8506-425d-ac20-6e2dcf4fef6c","ios":"levelo://app?vid=fc299691-8506-425d-ac20-6e2dcf4fef6c"},"vehicle_type_id":"4","last_reported":1678979279,"current_range_meters":14800,"station_id":"ce4bgph2rcd13ifvqc2g","pricing_plan_id":"free"},{"bike_id":"5461c7cb-5b35-4d35-b4f1-b0de46f54208","system_id":"levelo_inurba_marseille","lat":43.297197,"lon":5.376943,"is_reserved":false,"is_disabled":false,"rental_uris":{"android":"levelo://app?vid=5461c7cb-5b35-4d35-b4f1-b0de46f54208","ios":"levelo://app?vid=5461c7cb-5b35-4d35-b4f1-b0de46f54208"},"vehicle_type_id":"4","last_reported":1678979279,"current_range_meters":21600,"station_id":"ce4bgkh2rcd13ifvqbl0","pricing_plan_id":"free"},{"bike_id":"30e6121a-5f92-44d3-aff6-51d460cab118","system_id":"levelo_inurba_marseille","lat":43.298037,"lon":5.381066,"is_reserved":false,"is_disabled":false,"rental_uris":{"android":"levelo://app?vid=30e6121a-5f92-44d3-aff6-51d460cab118","ios":"levelo://app?vid=30e6121a-5f92-44d3-aff6-51d460cab118"},"vehicle_type_id":"4","last_reported":1678979279,"current_range_meters":31600,"station_id":"ce4bgip2rcd13ifvqbb0","pricing_plan_id":"free"},{"bike_id":"126d75b6-658b-4a22-bbdd-fed577440593","system_id":"levelo_inurba_marseille","lat":43.298037,"lon":5.381066,"is_reserved":false,"is_disabled":false,"rental_uris":{"android":"levelo://app?vid=126d75b6-658b-4a22-bbdd-fed577440593","ios":"levelo://app?vid=126d75b6-658b-4a22-bbdd-fed577440593"},"vehicle_type_id":"4","last_reported":1678979279,"current_range_meters":28800,"station_id":"ce4bgip2rcd13ifvqbb0","pricing_plan_id":"free"},{"bike_id":"683405df-d5e7-40f2-afbf-6d2b9d52516a","system_id":"levelo_inurba_marseille","lat":43.298037,"lon":5.381066,"is_reserved":false,"is_disabled":false,"rental_uris":{"android":"levelo://app?vid=683405df-d5e7-40f2-afbf-6d2b9d52516a","ios":"levelo://app?vid=683405df-d5e7-40f2-afbf-6d2b9d52516a"},"vehicle_type_id":"4","last_reported":1678979279,"current_range_meters":28000,"station_id":"ce4bgip2rcd13ifvqbb0","pricing_plan_id":"free"},{"bike_id":"de88124c-b881-4fe3-b9ed-b30943ed37c8","system_id":"levelo_inurba_marseille","lat":43.298037,"lon":5.381066,"is_reserved":false,"is_disabled":false,"rental_uris":{"android":"levelo://app?vid=de88124c-b881-4fe3-b9ed-b30943ed37c8","ios":"levelo://app?vid=de88124c-b881-4fe3-b9ed-b30943ed37c8"},"vehicle_type_id":"4","last_reported":1678979279,"current_range_meters":30400,"station_id":"ce4bgip2rcd13ifvqbb0","pricing_plan_id":"free"},{"bike_id":"b083b62e-bf6f-4943-a8f3-bbc408564fae","system_id":"levelo_inurba_marseille","lat":43.298037,"lon":5.381066,"is_reserved":false,"is_disabled":false,"rental_uris":{"android":"levelo://app?vid=b083b62e-bf6f-4943-a8f3-bbc408564fae","ios":"levelo://app?vid=b083b62e-bf6f-4943-a8f3-bbc408564fae"},"vehicle_type_id":"4","last_reported":1678979279,"current_range_meters":28000,"station_id":"ce4bgip2rcd13ifvqbb0","pricing_plan_id":"free"},{"bike_id":"ece42e50-330d-44ec-aa22-49ee64d6ed76","system_id":"levelo_inurba_marseille","lat":43.298037,"lon":5.381066,"is_reserved":false,"is_disabled":false,"rental_uris":{"android":"levelo://app?vid=ece42e50-330d-44ec-aa22-49ee64d6ed76","ios":"levelo://app?vid=ece42e50-330d-44ec-aa22-49ee64d6ed76"},"vehicle_type_id":"4","last_reported":1678979279,"current_range_meters":30800,"station_id":"ce4bgip2rcd13ifvqbb0","pricing_plan_id":"free"},{"bike_id":"fd1e8ecc-e0a0-4705-9dc5-677f07030a6c","system_id":"levelo_inurba_marseille","lat":43.295748,"lon":5.37522,"is_reserved":false,"is_disabled":false,"rental_uris":{"android":"levelo://app?vid=fd1e8ecc-e0a0-4705-9dc5-677f07030a6c","ios":"levelo://app?vid=fd1e8ecc-e0a0-4705-9dc5-677f07030a6c"},"vehicle_type_id":"4","last_reported":1678979279,"current_range_meters":10800,"station_id":"ce4bgh92rcd13ifvqb50","pricing_plan_id":"free"},{"bike_id":"7d1d7270-8609-4b46-a919-430c6bb971ed","system_id":"levelo_inurba_marseille","lat":43.29979,"lon":5.38489,"is_reserved":false,"is_disabled":false,"rental_uris":{"android":"levelo://app?vid=7d1d7270-8609-4b46-a919-430c6bb971ed","ios":"levelo://app?vid=7d1d7270-8609-4b46-a919-430c6bb971ed"},"vehicle_type_id":"4","last_reported":1678979279,"current_range_meters":4800,"station_id":"","pricing_plan_id":"free"},{"bike_id":"39bf6275-724b-46c5-9df4-49db7a04a1ce","system_id":"levelo_inurba_marseille","lat":43.29522,"lon":5.37513,"is_reserved":false,"is_disabled":false,"rental_uris":{"android":"levelo://app?vid=39bf6275-724b-46c5-9df4-49db7a04a1ce","ios":"levelo://app?vid=39bf6275-724b-46c5-9df4-49db7a04a1ce"},"vehicle_type_id":"4","last_reported":1678979279,"current_range_meters":8800,"station_id":"ce4bgkp2rcd13ifvqbmg","pricing_plan_id":"free"},{"bike_id":"8e4e2527-d144-4f4a-9e9c-53105586de08","system_id":"levelo_inurba_marseille","lat":43.29523,"lon":5.37518,"is_reserved":false,"is_disabled":false,"rental_uris":{"android":"levelo://app?vid=8e4e2527-d144-4f4a-9e9c-53105586de08","ios":"levelo://app?vid=8e4e2527-d144-4f4a-9e9c-53105586de08"},"vehicle_type_id":"4","last_reported":1678979279,"current_range_meters":21200,"station_id":"ce4bgkp2rcd13ifvqbmg","pricing_plan_id":"free"},{"bike_id":"40a54a75-0786-4082-858c-ab66e4c6caa5","system_id":"levelo_inurba_marseille","lat":43.2952,"lon":5.375095,"is_reserved":false,"is_disabled":false,"rental_uris":{"android":"levelo://app?vid=40a54a75-0786-4082-858c-ab66e4c6caa5","ios":"levelo://app?vid=40a54a75-0786-4082-858c-ab66e4c6caa5"},"vehicle_type_id":"4","last_reported":1678979279,"current_range_meters":0,"station_id":"ce4bgkp2rcd13ifvqbmg","pricing_plan_id":"free"},{"bike_id":"fd0ca5a6-8ef7-406a-8075-53687665c29a","system_id":"levelo_inurba_marseille","lat":43.29512,"lon":5.37529,"is_reserved":false,"is_disabled":false,"rental_uris":{"android":"levelo://app?vid=fd0ca5a6-8ef7-406a-8075-53687665c29a","ios":"levelo://app?vid=fd0ca5a6-8ef7-406a-8075-53687665c29a"},"vehicle_type_id":"4","last_reported":1678979279,"current_range_meters":2400,"station_id":"ce4bgkp2rcd13ifvqbmg","pricing_plan_id":"free"},{"bike_id":"307e1d24-3888-4b25-9d5b-3a5f52e795cd","system_id":"levelo_inurba_marseille","lat":43.292709,"lon":5.359667,"is_reserved":false,"is_disabled":false,"rental_uris":{"android":"levelo://app?vid=307e1d24-3888-4b25-9d5b-3a5f52e795cd","ios":"levelo://app?vid=307e1d24-3888-4b25-9d5b-3a5f52e795cd"},"vehicle_type_id":"4","last_reported":1678979279,"current_range_meters":2000,"station_id":"","pricing_plan_id":"free"},{"bike_id":"1605641e-c153-4f85-899a-a9d2e2e201bf","system_id":"levelo_inurba_marseille","lat":43.300852,"lon":5.390859,"is_reserved":false,"is_disabled":false,"rental_uris":{"android":"levelo://app?vid=1605641e-c153-4f85-899a-a9d2e2e201bf","ios":"levelo://app?vid=1605641e-c153-4f85-899a-a9d2e2e201bf"},"vehicle_type_id":"4","last_reported":1678979279,"current_range_meters":6800,"station_id":"ce4bh192rcd13ifvqdb0","pricing_plan_id":"free"},{"bike_id":"00f97c8b-39e1-4a8b-baff-7726f3a80c90","system_id":"levelo_inurba_marseille","lat":43.291675,"lon":5.371583,"is_reserved":false,"is_disabled":false,"rental_uris":{"android":"levelo://app?vid=00f97c8b-39e1-4a8b-baff-7726f3a80c90","ios":"levelo://app?vid=00f97c8b-39e1-4a8b-baff-7726f3a80c90"},"vehicle_type_id":"4","last_reported":1678979279,"current_range_meters":2400,"station_id":"ce4bha92rcd13ifvqeh0","pricing_plan_id":"free"},{"bike_id":"5e0ef866-0daa-4421-8139-396b81ea063d","system_id":"levelo_inurba_marseille","lat":43.30085,"lon":5.390856,"is_reserved":false,"is_disabled":false,"rental_uris":{"android":"levelo://app?vid=5e0ef866-0daa-4421-8139-396b81ea063d","ios":"levelo://app?vid=5e0ef866-0daa-4421-8139-396b81ea063d"},"vehicle_type_id":"4","last_reported":1678979279,"current_range_meters":0,"station_id":"ce4bh192rcd13ifvqdb0","pricing_plan_id":"free"},{"bike_id":"3b709085-73f6-4f02-9b12-420cfd6f1299","system_id":"levelo_inurba_marseille","lat":43.291675,"lon":5.371583,"is_reserved":false,"is_disabled":false,"rental_uris":{"android":"levelo://app?vid=3b709085-73f6-4f02-9b12-420cfd6f1299","ios":"levelo://app?vid=3b709085-73f6-4f02-9b12-420cfd6f1299"},"vehicle_type_id":"4","last_reported":1678979279,"current_range_meters":10400,"station_id":"ce4bha92rcd13ifvqeh0","pricing_plan_id":"free"},{"bike_id":"b4c37a5b-b423-4dfe-b86b-2e75bef41d21","system_id":"levelo_inurba_marseille","lat":43.2987,"lon":5.38913,"is_reserved":false,"is_disabled":false,"rental_uris":{"android":"levelo://app?vid=b4c37a5b-b423-4dfe-b86b-2e75bef41d21","ios":"levelo://app?vid=b4c37a5b-b423-4dfe-b86b-2e75bef41d21"},"vehicle_type_id":"4","last_reported":1678979279,"current_range_meters":0,"station_id":"ce4bh392rcd13ifvqdl0","pricing_plan_id":"free"},{"bike_id":"867d6c2a-8dfa-48d5-b869-6fea60d0faa9","system_id":"levelo_inurba_marseille","lat":43.313291,"lon":5.396838,"is_reserved":false,"is_disabled":false,"rental_uris":{"android":"levelo://app?vid=867d6c2a-8dfa-48d5-b869-6fea60d0faa9","ios":"levelo://app?vid=867d6c2a-8dfa-48d5-b869-6fea60d0faa9"},"vehicle_type_id":"4","last_reported":1678979279,"current_range_meters":800,"station_id":"ce4bgvp2rcd13ifvqcu0","pricing_plan_id":"free"},{"bike_id":"b1358349-008f-4afa-af42-0b59f399f4d2","system_id":"levelo_inurba_marseille","lat":43.29529,"lon":5.385581,"is_reserved":false,"is_disabled":false,"rental_uris":{"android":"levelo://app?vid=b1358349-008f-4afa-af42-0b59f399f4d2","ios":"levelo://app?vid=b1358349-008f-4afa-af42-0b59f399f4d2"},"vehicle_type_id":"4","last_reported":1678979279,"current_range_meters":13600,"station_id":"ce4bgih2rcd13ifvqba0","pricing_plan_id":"free"},{"bike_id":"ef1cbb69-3f77-47c5-936b-85df0398d5c7","system_id":"levelo_inurba_marseille","lat":43.290715,"lon":5.371572,"is_reserved":false,"is_disabled":false,"rental_uris":{"android":"levelo://app?vid=ef1cbb69-3f77-47c5-936b-85df0398d5c7","ios":"levelo://app?vid=ef1cbb69-3f77-47c5-936b-85df0398d5c7"},"vehicle_type_id":"4","last_reported":1678979279,"current_range_meters":30400,"station_id":"ce4bh5p2rcd13ifvqe4g","pricing_plan_id":"free"},{"bike_id":"e218e1cf-7165-44da-9898-e0f45750889c","system_id":"levelo_inurba_marseille","lat":43.302008,"lon":5.394694,"is_reserved":false,"is_disabled":false,"rental_uris":{"android":"levelo://app?vid=e218e1cf-7165-44da-9898-e0f45750889c","ios":"levelo://app?vid=e218e1cf-7165-44da-9898-e0f45750889c"},"vehicle_type_id":"4","last_reported":1678979279,"current_range_meters":31600,"station_id":"ce4bh0p2rcd13ifvqd70","pricing_plan_id":"free"},{"bike_id":"5dae92ee-8d89-4bd4-b6f8-06e6efa2e1a3","system_id":"levelo_inurba_marseille","lat":43.294162,"lon":5.386292,"is_reserved":false,"is_disabled":false,"rental_uris":{"android":"levelo://app?vid=5dae92ee-8d89-4bd4-b6f8-06e6efa2e1a3","ios":"levelo://app?vid=5dae92ee-8d89-4bd4-b6f8-06e6efa2e1a3"},"vehicle_type_id":"4","last_reported":1678979279,"current_range_meters":0,"station_id":"ce4bh2h2rcd13ifvqdh0","pricing_plan_id":"free"},{"bike_id":"455cbdbc-465c-442c-a390-aaedd769bbe1","system_id":"levelo_inurba_marseille","lat":43.290319,"lon":5.375732,"is_reserved":false,"is_disabled":false,"rental_uris":{"android":"levelo://app?vid=455cbdbc-465c-442c-a390-aaedd769bbe1","ios":"levelo://app?vid=455cbdbc-465c-442c-a390-aaedd769bbe1"},"vehicle_type_id":"4","last_reported":1678979279,"current_range_meters":11600,"station_id":"ce4bh692rcd13ifvqe90","pricing_plan_id":"free"},{"bike_id":"57d06976-d85a-46f8-b64b-d76981d47d4f","system_id":"levelo_inurba_marseille","lat":43.294162,"lon":5.386292,"is_reserved":false,"is_disabled":false,"rental_uris":{"android":"levelo://app?vid=57d06976-d85a-46f8-b64b-d76981d47d4f","ios":"levelo://app?vid=57d06976-d85a-46f8-b64b-d76981d47d4f"},"vehicle_type_id":"4","last_reported":1678979279,"current_range_meters":0,"station_id":"ce4bh2h2rcd13ifvqdh0","pricing_plan_id":"free"},{"bike_id":"ed0a9dcc-cd60-4f51-a56a-2711a5fa5ce5","system_id":"levelo_inurba_marseille","lat":43.289468,"lon":5.363719,"is_reserved":false,"is_disabled":false,"rental_uris":{"android":"levelo://app?vid=ed0a9dcc-cd60-4f51-a56a-2711a5fa5ce5","ios":"levelo://app?vid=ed0a9dcc-cd60-4f51-a56a-2711a5fa5ce5"},"vehicle_type_id":"4","last_reported":1678979279,"current_range_meters":0,"station_id":"ce4bhc92rcd13ifvqetg","pricing_plan_id":"free"},{"bike_id":"3370d5e9-50d8-4574-9ca6-7deff99616c7","system_id":"levelo_inurba_marseille","lat":43.289468,"lon":5.363719,"is_reserved":false,"is_disabled":false,"rental_uris":{"android":"levelo://app?vid=3370d5e9-50d8-4574-9ca6-7deff99616c7","ios":"levelo://app?vid=3370d5e9-50d8-4574-9ca6-7deff99616c7"},"vehicle_type_id":"4","last_reported":1678979279,"current_range_meters":4400,"station_id":"ce4bhc92rcd13ifvqetg","pricing_plan_id":"free"},{"bike_id":"645881b2-36df-4024-9ff8-7cfab2e4b41d","system_id":"levelo_inurba_marseille","lat":43.289468,"lon":5.363719,"is_reserved":false,"is_disabled":false,"rental_uris":{"android":"levelo://app?vid=645881b2-36df-4024-9ff8-7cfab2e4b41d","ios":"levelo://app?vid=645881b2-36df-4024-9ff8-7cfab2e4b41d"},"vehicle_type_id":"4","last_reported":1678979279,"current_range_meters":20800,"station_id":"ce4bhc92rcd13ifvqetg","pricing_plan_id":"free"},{"bike_id":"f22692bc-e8e5-40dc-953a-286f545f6fd7","system_id":"levelo_inurba_marseille","lat":43.292644,"lon":5.384257,"is_reserved":false,"is_disabled":false,"rental_uris":{"android":"levelo://app?vid=f22692bc-e8e5-40dc-953a-286f545f6fd7","ios":"levelo://app?vid=f22692bc-e8e5-40dc-953a-286f545f6fd7"},"vehicle_type_id":"4","last_reported":1678979279,"current_range_meters":20400,"station_id":"ce4bh692rcd13ifvqea0","pricing_plan_id":"free"},{"bike_id":"ce36c349-23b1-4b31-8b08-2446cbbfe090","system_id":"levelo_inurba_marseille","lat":43.292644,"lon":5.384257,"is_reserved":false,"is_disabled":false,"rental_uris":{"android":"levelo://app?vid=ce36c349-23b1-4b31-8b08-2446cbbfe090","ios":"levelo://app?vid=ce36c349-23b1-4b31-8b08-2446cbbfe090"},"vehicle_type_id":"4","last_reported":1678979279,"current_range_meters":1200,"station_id":"ce4bh692rcd13ifvqea0","pricing_plan_id":"free"},{"bike_id":"987a116f-6c3a-4d51-b486-f863a2d7f3a8","system_id":"levelo_inurba_marseille","lat":43.330442,"lon":5.389148,"is_reserved":false,"is_disabled":false,"rental_uris":{"android":"levelo://app?vid=987a116f-6c3a-4d51-b486-f863a2d7f3a8","ios":"levelo://app?vid=987a116f-6c3a-4d51-b486-f863a2d7f3a8"},"vehicle_type_id":"4","last_reported":1678979279,"current_range_meters":25200,"station_id":"ce4bhr92rcd13ifvqhrg","pricing_plan_id":"free"},{"bike_id":"39f0ec80-84de-4a2d-a0d9-18b0a9d520ee","system_id":"levelo_inurba_marseille","lat":43.337425,"lon":5.37449,"is_reserved":false,"is_disabled":false,"rental_uris":{"android":"levelo://app?vid=39f0ec80-84de-4a2d-a0d9-18b0a9d520ee","ios":"levelo://app?vid=39f0ec80-84de-4a2d-a0d9-18b0a9d520ee"},"vehicle_type_id":"4","last_reported":1678979279,"current_range_meters":30800,"station_id":"","pricing_plan_id":"free"},{"bike_id":"ac2f47e1-841e-4962-ad05-dbc3c2513baf","system_id":"levelo_inurba_marseille","lat":43.3375,"lon":5.37458,"is_reserved":false,"is_disabled":false,"rental_uris":{"android":"levelo://app?vid=ac2f47e1-841e-4962-ad05-dbc3c2513baf","ios":"levelo://app?vid=ac2f47e1-841e-4962-ad05-dbc3c2513baf"},"vehicle_type_id":"4","last_reported":1678979279,"current_range_meters":0,"station_id":"","pricing_plan_id":"free"},{"bike_id":"e4856577-5498-45e3-8b47-aa1cf87ca572","system_id":"levelo_inurba_marseille","lat":43.33748,"lon":5.37478,"is_reserved":false,"is_disabled":false,"rental_uris":{"android":"levelo://app?vid=e4856577-5498-45e3-8b47-aa1cf87ca572","ios":"levelo://app?vid=e4856577-5498-45e3-8b47-aa1cf87ca572"},"vehicle_type_id":"4","last_reported":1678979279,"current_range_meters":1600,"station_id":"","pricing_plan_id":"free"},{"bike_id":"24e42b65-e736-4b02-9f91-341883142906","system_id":"levelo_inurba_marseille","lat":43.337554,"lon":5.374451,"is_reserved":false,"is_disabled":false,"rental_uris":{"android":"levelo://app?vid=24e42b65-e736-4b02-9f91-341883142906","ios":"levelo://app?vid=24e42b65-e736-4b02-9f91-341883142906"},"vehicle_type_id":"4","last_reported":1678979279,"current_range_meters":29200,"station_id":"","pricing_plan_id":"free"},{"bike_id":"d17d3d80-a28e-4b9a-a264-c48959662b18","system_id":"levelo_inurba_marseille","lat":43.287184,"lon":5.37937,"is_reserved":false,"is_disabled":false,"rental_uris":{"android":"levelo://app?vid=d17d3d80-a28e-4b9a-a264-c48959662b18","ios":"levelo://app?vid=d17d3d80-a28e-4b9a-a264-c48959662b18"},"vehicle_type_id":"4","last_reported":1678979279,"current_range_meters":3200,"station_id":"ce4bh9p2rcd13ifvqec0","pricing_plan_id":"free"},{"bike_id":"d878f6c8-081b-44af-8828-b79c12955ec8","system_id":"levelo_inurba_marseille","lat":43.316507,"lon":5.404379,"is_reserved":false,"is_disabled":false,"rental_uris":{"android":"levelo://app?vid=d878f6c8-081b-44af-8828-b79c12955ec8","ios":"levelo://app?vid=d878f6c8-081b-44af-8828-b79c12955ec8"},"vehicle_type_id":"4","last_reported":1678979279,"current_range_meters":6400,"station_id":"ce4bh012rcd13ifvqd00","pricing_plan_id":"free"},{"bike_id":"d89fc212-c2da-4a4e-971b-53cd18125878","system_id":"levelo_inurba_marseille","lat":43.316517,"lon":5.404375,"is_reserved":false,"is_disabled":false,"rental_uris":{"android":"levelo://app?vid=d89fc212-c2da-4a4e-971b-53cd18125878","ios":"levelo://app?vid=d89fc212-c2da-4a4e-971b-53cd18125878"},"vehicle_type_id":"4","last_reported":1678979279,"current_range_meters":0,"station_id":"ce4bh012rcd13ifvqd00","pricing_plan_id":"free"},{"bike_id":"a82075b8-9017-4443-9a05-066666e13d2d","system_id":"levelo_inurba_marseille","lat":43.284534,"lon":5.358662,"is_reserved":false,"is_disabled":false,"rental_uris":{"android":"levelo://app?vid=a82075b8-9017-4443-9a05-066666e13d2d","ios":"levelo://app?vid=a82075b8-9017-4443-9a05-066666e13d2d"},"vehicle_type_id":"4","last_reported":1678979279,"current_range_meters":12800,"station_id":"ce4bhah2rcd13ifvqei0","pricing_plan_id":"free"},{"bike_id":"90a09700-c9e3-4870-b337-e63635398e78","system_id":"levelo_inurba_marseille","lat":43.284534,"lon":5.358662,"is_reserved":false,"is_disabled":false,"rental_uris":{"android":"levelo://app?vid=90a09700-c9e3-4870-b337-e63635398e78","ios":"levelo://app?vid=90a09700-c9e3-4870-b337-e63635398e78"},"vehicle_type_id":"4","last_reported":1678979279,"current_range_meters":10800,"station_id":"ce4bhah2rcd13ifvqei0","pricing_plan_id":"free"},{"bike_id":"f647c46d-986c-4d12-8831-ea035cd3c985","system_id":"levelo_inurba_marseille","lat":43.284534,"lon":5.358662,"is_reserved":false,"is_disabled":false,"rental_uris":{"android":"levelo://app?vid=f647c46d-986c-4d12-8831-ea035cd3c985","ios":"levelo://app?vid=f647c46d-986c-4d12-8831-ea035cd3c985"},"vehicle_type_id":"4","last_reported":1678979279,"current_range_meters":15200,"station_id":"ce4bhah2rcd13ifvqei0","pricing_plan_id":"free"},{"bike_id":"55944240-5428-4752-8eb4-a1a943fe19c4","system_id":"levelo_inurba_marseille","lat":43.284538,"lon":5.358657,"is_reserved":false,"is_disabled":false,"rental_uris":{"android":"levelo://app?vid=55944240-5428-4752-8eb4-a1a943fe19c4","ios":"levelo://app?vid=55944240-5428-4752-8eb4-a1a943fe19c4"},"vehicle_type_id":"4","last_reported":1678979279,"current_range_meters":1600,"station_id":"ce4bhah2rcd13ifvqei0","pricing_plan_id":"free"},{"bike_id":"2fd086db-2479-46b8-93cd-9102fbaac272","system_id":"levelo_inurba_marseille","lat":43.28457,"lon":5.358985,"is_reserved":false,"is_disabled":false,"rental_uris":{"android":"levelo://app?vid=2fd086db-2479-46b8-93cd-9102fbaac272","ios":"levelo://app?vid=2fd086db-2479-46b8-93cd-9102fbaac272"},"vehicle_type_id":"4","last_reported":1678979279,"current_range_meters":18400,"station_id":"ce4bhah2rcd13ifvqei0","pricing_plan_id":"free"},{"bike_id":"f7584692-c16e-4ca8-a15c-915d63bfe5f9","system_id":"levelo_inurba_marseille","lat":43.2957,"lon":5.39975,"is_reserved":false,"is_disabled":false,"rental_uris":{"android":"levelo://app?vid=f7584692-c16e-4ca8-a15c-915d63bfe5f9","ios":"levelo://app?vid=f7584692-c16e-4ca8-a15c-915d63bfe5f9"},"vehicle_type_id":"4","last_reported":1678979279,"current_range_meters":0,"station_id":"","pricing_plan_id":"free"},{"bike_id":"b488cf82-6be8-4ca9-beea-b6a32324b567","system_id":"levelo_inurba_marseille","lat":43.28683,"lon":5.38659,"is_reserved":false,"is_disabled":false,"rental_uris":{"android":"levelo://app?vid=b488cf82-6be8-4ca9-beea-b6a32324b567","ios":"levelo://app?vid=b488cf82-6be8-4ca9-beea-b6a32324b567"},"vehicle_type_id":"4","last_reported":1678979279,"current_range_meters":4400,"station_id":"","pricing_plan_id":"free"},{"bike_id":"ce06c4c9-dd49-4e86-9868-2b466b62d275","system_id":"levelo_inurba_marseille","lat":43.286595,"lon":5.386795,"is_reserved":false,"is_disabled":false,"rental_uris":{"android":"levelo://app?vid=ce06c4c9-dd49-4e86-9868-2b466b62d275","ios":"levelo://app?vid=ce06c4c9-dd49-4e86-9868-2b466b62d275"},"vehicle_type_id":"4","last_reported":1678979279,"current_range_meters":18000,"station_id":"ce4bh492rcd13ifvqdug","pricing_plan_id":"free"},{"bike_id":"6819b26a-dbae-41fa-86d7-0c4aa3eed2a7","system_id":"levelo_inurba_marseille","lat":43.286775,"lon":5.38663,"is_reserved":false,"is_disabled":false,"rental_uris":{"android":"levelo://app?vid=6819b26a-dbae-41fa-86d7-0c4aa3eed2a7","ios":"levelo://app?vid=6819b26a-dbae-41fa-86d7-0c4aa3eed2a7"},"vehicle_type_id":"4","last_reported":1678979279,"current_range_meters":3200,"station_id":"","pricing_plan_id":"free"},{"bike_id":"4d964557-a69f-4a0e-aac6-df5dc14c38e6","system_id":"levelo_inurba_marseille","lat":43.286595,"lon":5.386795,"is_reserved":false,"is_disabled":false,"rental_uris":{"android":"levelo://app?vid=4d964557-a69f-4a0e-aac6-df5dc14c38e6","ios":"levelo://app?vid=4d964557-a69f-4a0e-aac6-df5dc14c38e6"},"vehicle_type_id":"4","last_reported":1678979279,"current_range_meters":11600,"station_id":"ce4bh492rcd13ifvqdug","pricing_plan_id":"free"},{"bike_id":"302c4ea9-71e9-4160-8eeb-6a83948f51cc","system_id":"levelo_inurba_marseille","lat":43.286595,"lon":5.386795,"is_reserved":false,"is_disabled":false,"rental_uris":{"android":"levelo://app?vid=302c4ea9-71e9-4160-8eeb-6a83948f51cc","ios":"levelo://app?vid=302c4ea9-71e9-4160-8eeb-6a83948f51cc"},"vehicle_type_id":"4","last_reported":1678979279,"current_range_meters":15600,"station_id":"ce4bh492rcd13ifvqdug","pricing_plan_id":"free"},{"bike_id":"b0f68330-655f-4285-9f1d-619cd82cada4","system_id":"levelo_inurba_marseille","lat":43.33717,"lon":5.391857,"is_reserved":false,"is_disabled":false,"rental_uris":{"android":"levelo://app?vid=b0f68330-655f-4285-9f1d-619cd82cada4","ios":"levelo://app?vid=b0f68330-655f-4285-9f1d-619cd82cada4"},"vehicle_type_id":"4","last_reported":1678979279,"current_range_meters":17600,"station_id":"ce4bhr92rcd13ifvqhsg","pricing_plan_id":"free"},{"bike_id":"983e2aa5-d81a-470a-aac5-ff189f86641b","system_id":"levelo_inurba_marseille","lat":43.33717,"lon":5.391857,"is_reserved":false,"is_disabled":false,"rental_uris":{"android":"levelo://app?vid=983e2aa5-d81a-470a-aac5-ff189f86641b","ios":"levelo://app?vid=983e2aa5-d81a-470a-aac5-ff189f86641b"},"vehicle_type_id":"4","last_reported":1678979279,"current_range_meters":400,"station_id":"ce4bhr92rcd13ifvqhsg","pricing_plan_id":"free"},{"bike_id":"f75fafac-961a-4b91-8614-e97e961e1ed7","system_id":"levelo_inurba_marseille","lat":43.284793,"lon":5.384119,"is_reserved":false,"is_disabled":false,"rental_uris":{"android":"levelo://app?vid=f75fafac-961a-4b91-8614-e97e961e1ed7","ios":"levelo://app?vid=f75fafac-961a-4b91-8614-e97e961e1ed7"},"vehicle_type_id":"4","last_reported":1678979279,"current_range_meters":31200,"station_id":"ce4bh512rcd13ifvqe3g","pricing_plan_id":"free"},{"bike_id":"7ed7f8b9-02e9-4e96-8f60-e97a571838d7","system_id":"levelo_inurba_marseille","lat":43.286595,"lon":5.386795,"is_reserved":false,"is_disabled":false,"rental_uris":{"android":"levelo://app?vid=7ed7f8b9-02e9-4e96-8f60-e97a571838d7","ios":"levelo://app?vid=7ed7f8b9-02e9-4e96-8f60-e97a571838d7"},"vehicle_type_id":"4","last_reported":1678979279,"current_range_meters":18800,"station_id":"ce4bh492rcd13ifvqdug","pricing_plan_id":"free"},{"bike_id":"a0b0b77c-1e89-43c7-98f8-139c275f83eb","system_id":"levelo_inurba_marseille","lat":43.284793,"lon":5.384113,"is_reserved":false,"is_disabled":false,"rental_uris":{"android":"levelo://app?vid=a0b0b77c-1e89-43c7-98f8-139c275f83eb","ios":"levelo://app?vid=a0b0b77c-1e89-43c7-98f8-139c275f83eb"},"vehicle_type_id":"4","last_reported":1678979279,"current_range_meters":8000,"station_id":"ce4bh512rcd13ifvqe3g","pricing_plan_id":"free"},{"bike_id":"8b774018-bffb-4081-97df-5431f52d8238","system_id":"levelo_inurba_marseille","lat":43.284793,"lon":5.384113,"is_reserved":false,"is_disabled":false,"rental_uris":{"android":"levelo://app?vid=8b774018-bffb-4081-97df-5431f52d8238","ios":"levelo://app?vid=8b774018-bffb-4081-97df-5431f52d8238"},"vehicle_type_id":"4","last_reported":1678979279,"current_range_meters":11600,"station_id":"ce4bh512rcd13ifvqe3g","pricing_plan_id":"free"},{"bike_id":"9963c04a-01c6-4acc-9771-52c488b39792","system_id":"levelo_inurba_marseille","lat":43.28475,"lon":5.38416,"is_reserved":false,"is_disabled":false,"rental_uris":{"android":"levelo://app?vid=9963c04a-01c6-4acc-9771-52c488b39792","ios":"levelo://app?vid=9963c04a-01c6-4acc-9771-52c488b39792"},"vehicle_type_id":"4","last_reported":1678979279,"current_range_meters":800,"station_id":"","pricing_plan_id":"free"},{"bike_id":"723a369c-5759-4009-9aec-4a0fa0622ac1","system_id":"levelo_inurba_marseille","lat":43.284793,"lon":5.384119,"is_reserved":false,"is_disabled":false,"rental_uris":{"android":"levelo://app?vid=723a369c-5759-4009-9aec-4a0fa0622ac1","ios":"levelo://app?vid=723a369c-5759-4009-9aec-4a0fa0622ac1"},"vehicle_type_id":"4","last_reported":1678979279,"current_range_meters":2400,"station_id":"ce4bh512rcd13ifvqe3g","pricing_plan_id":"free"},{"bike_id":"7a9ef2dc-fb71-4cb9-89bc-9783e0d9b0ad","system_id":"levelo_inurba_marseille","lat":43.28473,"lon":5.38416,"is_reserved":false,"is_disabled":false,"rental_uris":{"android":"levelo://app?vid=7a9ef2dc-fb71-4cb9-89bc-9783e0d9b0ad","ios":"levelo://app?vid=7a9ef2dc-fb71-4cb9-89bc-9783e0d9b0ad"},"vehicle_type_id":"4","last_reported":1678979279,"current_range_meters":24400,"station_id":"","pricing_plan_id":"free"},{"bike_id":"005537ca-3d1d-4610-b63a-05dcec38502a","system_id":"levelo_inurba_marseille","lat":43.284787,"lon":5.384116,"is_reserved":false,"is_disabled":false,"rental_uris":{"android":"levelo://app?vid=005537ca-3d1d-4610-b63a-05dcec38502a","ios":"levelo://app?vid=005537ca-3d1d-4610-b63a-05dcec38502a"},"vehicle_type_id":"4","last_reported":1678979279,"current_range_meters":31200,"station_id":"ce4bh512rcd13ifvqe3g","pricing_plan_id":"free"},{"bike_id":"43c166d1-6fb2-4614-8631-38f5269e0a0b","system_id":"levelo_inurba_marseille","lat":43.28469,"lon":5.38416,"is_reserved":false,"is_disabled":false,"rental_uris":{"android":"levelo://app?vid=43c166d1-6fb2-4614-8631-38f5269e0a0b","ios":"levelo://app?vid=43c166d1-6fb2-4614-8631-38f5269e0a0b"},"vehicle_type_id":"4","last_reported":1678979279,"current_range_meters":30400,"station_id":"","pricing_plan_id":"free"},{"bike_id":"a51b8f3b-c40f-4ec5-a5de-57143fa857c7","system_id":"levelo_inurba_marseille","lat":43.284793,"lon":5.384119,"is_reserved":false,"is_disabled":false,"rental_uris":{"android":"levelo://app?vid=a51b8f3b-c40f-4ec5-a5de-57143fa857c7","ios":"levelo://app?vid=a51b8f3b-c40f-4ec5-a5de-57143fa857c7"},"vehicle_type_id":"4","last_reported":1678979279,"current_range_meters":31600,"station_id":"ce4bh512rcd13ifvqe3g","pricing_plan_id":"free"},{"bike_id":"d0d6763f-33cd-4629-b95c-5b8321ef45cf","system_id":"levelo_inurba_marseille","lat":43.28351,"lon":5.3811,"is_reserved":false,"is_disabled":false,"rental_uris":{"android":"levelo://app?vid=d0d6763f-33cd-4629-b95c-5b8321ef45cf","ios":"levelo://app?vid=d0d6763f-33cd-4629-b95c-5b8321ef45cf"},"vehicle_type_id":"4","last_reported":1678979279,"current_range_meters":400,"station_id":"","pricing_plan_id":"free"},{"bike_id":"7ad110b3-c9cb-4f9a-99d6-d388739e4cfc","system_id":"levelo_inurba_marseille","lat":43.28346,"lon":5.38108,"is_reserved":false,"is_disabled":false,"rental_uris":{"android":"levelo://app?vid=7ad110b3-c9cb-4f9a-99d6-d388739e4cfc","ios":"levelo://app?vid=7ad110b3-c9cb-4f9a-99d6-d388739e4cfc"},"vehicle_type_id":"4","last_reported":1678979279,"current_range_meters":4400,"station_id":"","pricing_plan_id":"free"},{"bike_id":"4fc68012-f168-4b58-9e04-b5fc8bf75042","system_id":"levelo_inurba_marseille","lat":43.28039,"lon":5.369297,"is_reserved":false,"is_disabled":false,"rental_uris":{"android":"levelo://app?vid=4fc68012-f168-4b58-9e04-b5fc8bf75042","ios":"levelo://app?vid=4fc68012-f168-4b58-9e04-b5fc8bf75042"},"vehicle_type_id":"4","last_reported":1678979279,"current_range_meters":10800,"station_id":"ce4bha12rcd13ifvqef0","pricing_plan_id":"free"},{"bike_id":"133405b0-f657-4bdd-972d-0fd98e88f7bd","system_id":"levelo_inurba_marseille","lat":43.28039,"lon":5.369297,"is_reserved":false,"is_disabled":false,"rental_uris":{"android":"levelo://app?vid=133405b0-f657-4bdd-972d-0fd98e88f7bd","ios":"levelo://app?vid=133405b0-f657-4bdd-972d-0fd98e88f7bd"},"vehicle_type_id":"4","last_reported":1678979279,"current_range_meters":26800,"station_id":"ce4bha12rcd13ifvqef0","pricing_plan_id":"free"},{"bike_id":"fa191f4c-563e-49d3-9b93-b39e610ceecf","system_id":"levelo_inurba_marseille","lat":43.28039,"lon":5.369297,"is_reserved":false,"is_disabled":false,"rental_uris":{"android":"levelo://app?vid=fa191f4c-563e-49d3-9b93-b39e610ceecf","ios":"levelo://app?vid=fa191f4c-563e-49d3-9b93-b39e610ceecf"},"vehicle_type_id":"4","last_reported":1678979279,"current_range_meters":9200,"station_id":"ce4bha12rcd13ifvqef0","pricing_plan_id":"free"},{"bike_id":"b7789f29-fa8b-496c-a280-507bf1517bc7","system_id":"levelo_inurba_marseille","lat":43.281044,"lon":5.378308,"is_reserved":false,"is_disabled":false,"rental_uris":{"android":"levelo://app?vid=b7789f29-fa8b-496c-a280-507bf1517bc7","ios":"levelo://app?vid=b7789f29-fa8b-496c-a280-507bf1517bc7"},"vehicle_type_id":"4","last_reported":1678979279,"current_range_meters":16800,"station_id":"ce4bha12rcd13ifvqee0","pricing_plan_id":"free"},{"bike_id":"73fe4fa6-3cf2-495f-b39f-7d631a57a6ba","system_id":"levelo_inurba_marseille","lat":43.28103,"lon":5.37834,"is_reserved":false,"is_disabled":false,"rental_uris":{"android":"levelo://app?vid=73fe4fa6-3cf2-495f-b39f-7d631a57a6ba","ios":"levelo://app?vid=73fe4fa6-3cf2-495f-b39f-7d631a57a6ba"},"vehicle_type_id":"4","last_reported":1678979279,"current_range_meters":20000,"station_id":"","pricing_plan_id":"free"},{"bike_id":"a883c523-d8e7-4a05-98ea-8d94f38f968b","system_id":"levelo_inurba_marseille","lat":43.281044,"lon":5.378308,"is_reserved":false,"is_disabled":false,"rental_uris":{"android":"levelo://app?vid=a883c523-d8e7-4a05-98ea-8d94f38f968b","ios":"levelo://app?vid=a883c523-d8e7-4a05-98ea-8d94f38f968b"},"vehicle_type_id":"4","last_reported":1678979279,"current_range_meters":15200,"station_id":"ce4bha12rcd13ifvqee0","pricing_plan_id":"free"},{"bike_id":"3cee80fc-a26d-48de-af43-73ef6712fedd","system_id":"levelo_inurba_marseille","lat":43.281044,"lon":5.378308,"is_reserved":false,"is_disabled":false,"rental_uris":{"android":"levelo://app?vid=3cee80fc-a26d-48de-af43-73ef6712fedd","ios":"levelo://app?vid=3cee80fc-a26d-48de-af43-73ef6712fedd"},"vehicle_type_id":"4","last_reported":1678979279,"current_range_meters":9600,"station_id":"ce4bha12rcd13ifvqee0","pricing_plan_id":"free"},{"bike_id":"be922738-7d44-4ef3-bc6b-6c0ee698fc26","system_id":"levelo_inurba_marseille","lat":43.27957,"lon":5.35591,"is_reserved":false,"is_disabled":false,"rental_uris":{"android":"levelo://app?vid=be922738-7d44-4ef3-bc6b-6c0ee698fc26","ios":"levelo://app?vid=be922738-7d44-4ef3-bc6b-6c0ee698fc26"},"vehicle_type_id":"4","last_reported":1678979279,"current_range_meters":800,"station_id":"","pricing_plan_id":"free"},{"bike_id":"fc0b1ed7-dd02-4444-b63b-4eb6266515f7","system_id":"levelo_inurba_marseille","lat":43.299579,"lon":5.413255,"is_reserved":false,"is_disabled":false,"rental_uris":{"android":"levelo://app?vid=fc0b1ed7-dd02-4444-b63b-4eb6266515f7","ios":"levelo://app?vid=fc0b1ed7-dd02-4444-b63b-4eb6266515f7"},"vehicle_type_id":"4","last_reported":1678979279,"current_range_meters":22800,"station_id":"ce4bhp12rcd13ifvqh9g","pricing_plan_id":"free"},{"bike_id":"3bbc28cd-6e9c-4d3d-8a84-45c1f332136d","system_id":"levelo_inurba_marseille","lat":43.324835,"lon":5.41435,"is_reserved":false,"is_disabled":false,"rental_uris":{"android":"levelo://app?vid=3bbc28cd-6e9c-4d3d-8a84-45c1f332136d","ios":"levelo://app?vid=3bbc28cd-6e9c-4d3d-8a84-45c1f332136d"},"vehicle_type_id":"4","last_reported":1678979279,"current_range_meters":4800,"station_id":"","pricing_plan_id":"free"},{"bike_id":"9c1e31ae-fadf-4864-972b-0d2a7998d740","system_id":"levelo_inurba_marseille","lat":43.29261,"lon":5.40904,"is_reserved":false,"is_disabled":false,"rental_uris":{"android":"levelo://app?vid=9c1e31ae-fadf-4864-972b-0d2a7998d740","ios":"levelo://app?vid=9c1e31ae-fadf-4864-972b-0d2a7998d740"},"vehicle_type_id":"4","last_reported":1678979279,"current_range_meters":1600,"station_id":"ce4bh192rcd13ifvqdc0","pricing_plan_id":"free"},{"bike_id":"ade55de0-9bbb-4657-b94d-453ae99fc999","system_id":"levelo_inurba_marseille","lat":43.325233,"lon":5.414318,"is_reserved":false,"is_disabled":false,"rental_uris":{"android":"levelo://app?vid=ade55de0-9bbb-4657-b94d-453ae99fc999","ios":"levelo://app?vid=ade55de0-9bbb-4657-b94d-453ae99fc999"},"vehicle_type_id":"4","last_reported":1678979279,"current_range_meters":0,"station_id":"ce4bhq12rcd13ifvqhhg","pricing_plan_id":"free"},{"bike_id":"56af8afb-5812-4451-938a-7f2ef2e41dad","system_id":"levelo_inurba_marseille","lat":43.276179,"lon":5.361009,"is_reserved":false,"is_disabled":false,"rental_uris":{"android":"levelo://app?vid=56af8afb-5812-4451-938a-7f2ef2e41dad","ios":"levelo://app?vid=56af8afb-5812-4451-938a-7f2ef2e41dad"},"vehicle_type_id":"4","last_reported":1678979279,"current_range_meters":22800,"station_id":"ce4bgj92rcd13ifvqbe0","pricing_plan_id":"free"},{"bike_id":"e7431309-eaa0-4303-a01a-b5e7b6df3503","system_id":"levelo_inurba_marseille","lat":43.34903,"lon":5.37821,"is_reserved":false,"is_disabled":false,"rental_uris":{"android":"levelo://app?vid=e7431309-eaa0-4303-a01a-b5e7b6df3503","ios":"levelo://app?vid=e7431309-eaa0-4303-a01a-b5e7b6df3503"},"vehicle_type_id":"4","last_reported":1678979279,"current_range_meters":0,"station_id":"","pricing_plan_id":"free"},{"bike_id":"68e56c0d-1d19-41c6-a3e3-5c47be874959","system_id":"levelo_inurba_marseille","lat":43.280783,"lon":5.396639,"is_reserved":false,"is_disabled":false,"rental_uris":{"android":"levelo://app?vid=68e56c0d-1d19-41c6-a3e3-5c47be874959","ios":"levelo://app?vid=68e56c0d-1d19-41c6-a3e3-5c47be874959"},"vehicle_type_id":"4","last_reported":1678979279,"current_range_meters":400,"station_id":"ce4bho12rcd13ifvqh2g","pricing_plan_id":"free"},{"bike_id":"2030e684-b246-4321-bf6c-4fb78483513e","system_id":"levelo_inurba_marseille","lat":43.27375,"lon":5.36262,"is_reserved":false,"is_disabled":false,"rental_uris":{"android":"levelo://app?vid=2030e684-b246-4321-bf6c-4fb78483513e","ios":"levelo://app?vid=2030e684-b246-4321-bf6c-4fb78483513e"},"vehicle_type_id":"4","last_reported":1678979279,"current_range_meters":26000,"station_id":"ce4bhbh2rcd13ifvqeo0","pricing_plan_id":"free"},{"bike_id":"e1cc51eb-b966-4522-90c6-d298c38d2105","system_id":"levelo_inurba_marseille","lat":43.27375,"lon":5.36261,"is_reserved":false,"is_disabled":false,"rental_uris":{"android":"levelo://app?vid=e1cc51eb-b966-4522-90c6-d298c38d2105","ios":"levelo://app?vid=e1cc51eb-b966-4522-90c6-d298c38d2105"},"vehicle_type_id":"4","last_reported":1678979279,"current_range_meters":21600,"station_id":"ce4bhbh2rcd13ifvqeo0","pricing_plan_id":"free"},{"bike_id":"13eedef8-691c-4c7d-8721-258f7486aaf3","system_id":"levelo_inurba_marseille","lat":43.273613,"lon":5.362705,"is_reserved":false,"is_disabled":false,"rental_uris":{"android":"levelo://app?vid=13eedef8-691c-4c7d-8721-258f7486aaf3","ios":"levelo://app?vid=13eedef8-691c-4c7d-8721-258f7486aaf3"},"vehicle_type_id":"4","last_reported":1678979279,"current_range_meters":4000,"station_id":"ce4bhbh2rcd13ifvqeo0","pricing_plan_id":"free"},{"bike_id":"e8544a1a-c258-48b6-b90e-8f55a5dd8dcf","system_id":"levelo_inurba_marseille","lat":43.27374,"lon":5.36259,"is_reserved":false,"is_disabled":false,"rental_uris":{"android":"levelo://app?vid=e8544a1a-c258-48b6-b90e-8f55a5dd8dcf","ios":"levelo://app?vid=e8544a1a-c258-48b6-b90e-8f55a5dd8dcf"},"vehicle_type_id":"4","last_reported":1678979279,"current_range_meters":11200,"station_id":"ce4bhbh2rcd13ifvqeo0","pricing_plan_id":"free"},{"bike_id":"3cb0cf11-7213-47b0-b35e-15bb3d7e4a83","system_id":"levelo_inurba_marseille","lat":43.273613,"lon":5.362705,"is_reserved":false,"is_disabled":false,"rental_uris":{"android":"levelo://app?vid=3cb0cf11-7213-47b0-b35e-15bb3d7e4a83","ios":"levelo://app?vid=3cb0cf11-7213-47b0-b35e-15bb3d7e4a83"},"vehicle_type_id":"4","last_reported":1678979279,"current_range_meters":22400,"station_id":"ce4bhbh2rcd13ifvqeo0","pricing_plan_id":"free"},{"bike_id":"cc5fd69f-584a-47b4-a535-ce57865fa0d6","system_id":"levelo_inurba_marseille","lat":43.27369,"lon":5.36261,"is_reserved":false,"is_disabled":false,"rental_uris":{"android":"levelo://app?vid=cc5fd69f-584a-47b4-a535-ce57865fa0d6","ios":"levelo://app?vid=cc5fd69f-584a-47b4-a535-ce57865fa0d6"},"vehicle_type_id":"4","last_reported":1678979279,"current_range_meters":20400,"station_id":"","pricing_plan_id":"free"},{"bike_id":"8d9be07a-6be3-4aff-be6e-cb563df5f0e8","system_id":"levelo_inurba_marseille","lat":43.273677,"lon":5.362483,"is_reserved":false,"is_disabled":false,"rental_uris":{"android":"levelo://app?vid=8d9be07a-6be3-4aff-be6e-cb563df5f0e8","ios":"levelo://app?vid=8d9be07a-6be3-4aff-be6e-cb563df5f0e8"},"vehicle_type_id":"4","last_reported":1678979279,"current_range_meters":20000,"station_id":"ce4bhbh2rcd13ifvqeo0","pricing_plan_id":"free"},{"bike_id":"57ad42c2-50af-488c-adb9-67a04b1804b2","system_id":"levelo_inurba_marseille","lat":43.276771,"lon":5.388799,"is_reserved":false,"is_disabled":false,"rental_uris":{"android":"levelo://app?vid=57ad42c2-50af-488c-adb9-67a04b1804b2","ios":"levelo://app?vid=57ad42c2-50af-488c-adb9-67a04b1804b2"},"vehicle_type_id":"4","last_reported":1678979279,"current_range_meters":2400,"station_id":"ce4bhi12rcd13ifvqfo0","pricing_plan_id":"free"},{"bike_id":"b1039e26-f19e-45f4-9b2c-8e36193249ad","system_id":"levelo_inurba_marseille","lat":43.326,"lon":5.4199,"is_reserved":false,"is_disabled":false,"rental_uris":{"android":"levelo://app?vid=b1039e26-f19e-45f4-9b2c-8e36193249ad","ios":"levelo://app?vid=b1039e26-f19e-45f4-9b2c-8e36193249ad"},"vehicle_type_id":"4","last_reported":1678979279,"current_range_meters":17200,"station_id":"","pricing_plan_id":"free"},{"bike_id":"225c2e84-fc59-4ca7-8f3e-76669b84107c","system_id":"levelo_inurba_marseille","lat":43.33171,"lon":5.41954,"is_reserved":false,"is_disabled":false,"rental_uris":{"android":"levelo://app?vid=225c2e84-fc59-4ca7-8f3e-76669b84107c","ios":"levelo://app?vid=225c2e84-fc59-4ca7-8f3e-76669b84107c"},"vehicle_type_id":"4","last_reported":1678979279,"current_range_meters":24400,"station_id":"","pricing_plan_id":"free"},{"bike_id":"fda3d679-7c56-422a-b91e-914e9db53887","system_id":"levelo_inurba_marseille","lat":43.272116,"lon":5.391747,"is_reserved":false,"is_disabled":false,"rental_uris":{"android":"levelo://app?vid=fda3d679-7c56-422a-b91e-914e9db53887","ios":"levelo://app?vid=fda3d679-7c56-422a-b91e-914e9db53887"},"vehicle_type_id":"4","last_reported":1678979279,"current_range_meters":23600,"station_id":"ce4bhhp2rcd13ifvqfm0","pricing_plan_id":"free"},{"bike_id":"2178ea26-0ee3-4676-8a11-b92e5e3db2f7","system_id":"levelo_inurba_marseille","lat":43.272044,"lon":5.391692,"is_reserved":false,"is_disabled":false,"rental_uris":{"android":"levelo://app?vid=2178ea26-0ee3-4676-8a11-b92e5e3db2f7","ios":"levelo://app?vid=2178ea26-0ee3-4676-8a11-b92e5e3db2f7"},"vehicle_type_id":"4","last_reported":1678979279,"current_range_meters":24400,"station_id":"","pricing_plan_id":"free"},{"bike_id":"73872840-c506-4cce-a3cd-84976470d7f5","system_id":"levelo_inurba_marseille","lat":43.272116,"lon":5.391747,"is_reserved":false,"is_disabled":false,"rental_uris":{"android":"levelo://app?vid=73872840-c506-4cce-a3cd-84976470d7f5","ios":"levelo://app?vid=73872840-c506-4cce-a3cd-84976470d7f5"},"vehicle_type_id":"4","last_reported":1678979279,"current_range_meters":4000,"station_id":"ce4bhhp2rcd13ifvqfm0","pricing_plan_id":"free"},{"bike_id":"c3256f9f-794d-4276-983d-70e98d9986bd","system_id":"levelo_inurba_marseille","lat":43.2721,"lon":5.39192,"is_reserved":false,"is_disabled":false,"rental_uris":{"android":"levelo://app?vid=c3256f9f-794d-4276-983d-70e98d9986bd","ios":"levelo://app?vid=c3256f9f-794d-4276-983d-70e98d9986bd"},"vehicle_type_id":"4","last_reported":1678979279,"current_range_meters":0,"station_id":"ce4bhhp2rcd13ifvqfm0","pricing_plan_id":"free"},{"bike_id":"1ee2becd-825d-4b37-b4e3-e40089e36e46","system_id":"levelo_inurba_marseille","lat":43.272118,"lon":5.391758,"is_reserved":false,"is_disabled":false,"rental_uris":{"android":"levelo://app?vid=1ee2becd-825d-4b37-b4e3-e40089e36e46","ios":"levelo://app?vid=1ee2becd-825d-4b37-b4e3-e40089e36e46"},"vehicle_type_id":"4","last_reported":1678979279,"current_range_meters":31200,"station_id":"ce4bhhp2rcd13ifvqfm0","pricing_plan_id":"free"},{"bike_id":"0db500ba-5fce-4b3d-b465-40d8b0372d07","system_id":"levelo_inurba_marseille","lat":43.272118,"lon":5.391758,"is_reserved":false,"is_disabled":false,"rental_uris":{"android":"levelo://app?vid=0db500ba-5fce-4b3d-b465-40d8b0372d07","ios":"levelo://app?vid=0db500ba-5fce-4b3d-b465-40d8b0372d07"},"vehicle_type_id":"4","last_reported":1678979279,"current_range_meters":19600,"station_id":"ce4bhhp2rcd13ifvqfm0","pricing_plan_id":"free"},{"bike_id":"9b2c9d12-0a1c-4dc6-bdbc-7590d079a35e","system_id":"levelo_inurba_marseille","lat":43.27205,"lon":5.391783,"is_reserved":false,"is_disabled":false,"rental_uris":{"android":"levelo://app?vid=9b2c9d12-0a1c-4dc6-bdbc-7590d079a35e","ios":"levelo://app?vid=9b2c9d12-0a1c-4dc6-bdbc-7590d079a35e"},"vehicle_type_id":"4","last_reported":1678979279,"current_range_meters":27600,"station_id":"","pricing_plan_id":"free"},{"bike_id":"06bcd885-6071-4e52-ab58-49f0962f2aee","system_id":"levelo_inurba_marseille","lat":43.272116,"lon":5.391747,"is_reserved":false,"is_disabled":false,"rental_uris":{"android":"levelo://app?vid=06bcd885-6071-4e52-ab58-49f0962f2aee","ios":"levelo://app?vid=06bcd885-6071-4e52-ab58-49f0962f2aee"},"vehicle_type_id":"4","last_reported":1678979279,"current_range_meters":29600,"station_id":"ce4bhhp2rcd13ifvqfm0","pricing_plan_id":"free"},{"bike_id":"89067fa7-9182-4c9f-901b-c90a2f47c437","system_id":"levelo_inurba_marseille","lat":43.272118,"lon":5.391758,"is_reserved":false,"is_disabled":false,"rental_uris":{"android":"levelo://app?vid=89067fa7-9182-4c9f-901b-c90a2f47c437","ios":"levelo://app?vid=89067fa7-9182-4c9f-901b-c90a2f47c437"},"vehicle_type_id":"4","last_reported":1678979279,"current_range_meters":26800,"station_id":"ce4bhhp2rcd13ifvqfm0","pricing_plan_id":"free"},{"bike_id":"1a213292-2c42-4d11-8377-957fa7dddace","system_id":"levelo_inurba_marseille","lat":43.272116,"lon":5.391763,"is_reserved":false,"is_disabled":false,"rental_uris":{"android":"levelo://app?vid=1a213292-2c42-4d11-8377-957fa7dddace","ios":"levelo://app?vid=1a213292-2c42-4d11-8377-957fa7dddace"},"vehicle_type_id":"4","last_reported":1678979279,"current_range_meters":31600,"station_id":"ce4bhhp2rcd13ifvqfm0","pricing_plan_id":"free"},{"bike_id":"8ce0580b-37c8-4d7c-9e04-1cfd6ba906f2","system_id":"levelo_inurba_marseille","lat":43.272118,"lon":5.391758,"is_reserved":false,"is_disabled":false,"rental_uris":{"android":"levelo://app?vid=8ce0580b-37c8-4d7c-9e04-1cfd6ba906f2","ios":"levelo://app?vid=8ce0580b-37c8-4d7c-9e04-1cfd6ba906f2"},"vehicle_type_id":"4","last_reported":1678979279,"current_range_meters":14000,"station_id":"ce4bhhp2rcd13ifvqfm0","pricing_plan_id":"free"},{"bike_id":"6e859593-7922-4e81-9dbb-53c5d14ca21f","system_id":"levelo_inurba_marseille","lat":43.272118,"lon":5.391758,"is_reserved":false,"is_disabled":false,"rental_uris":{"android":"levelo://app?vid=6e859593-7922-4e81-9dbb-53c5d14ca21f","ios":"levelo://app?vid=6e859593-7922-4e81-9dbb-53c5d14ca21f"},"vehicle_type_id":"4","last_reported":1678979279,"current_range_meters":24400,"station_id":"ce4bhhp2rcd13ifvqfm0","pricing_plan_id":"free"},{"bike_id":"91116830-56d6-466e-8ba3-ba06c61631aa","system_id":"levelo_inurba_marseille","lat":43.33485,"lon":5.420456,"is_reserved":false,"is_disabled":false,"rental_uris":{"android":"levelo://app?vid=91116830-56d6-466e-8ba3-ba06c61631aa","ios":"levelo://app?vid=91116830-56d6-466e-8ba3-ba06c61631aa"},"vehicle_type_id":"4","last_reported":1678979279,"current_range_meters":24000,"station_id":"","pricing_plan_id":"free"},{"bike_id":"bbdbd21f-9fef-4cee-953f-9026ea7d4911","system_id":"levelo_inurba_marseille","lat":43.278128,"lon":5.407195,"is_reserved":false,"is_disabled":false,"rental_uris":{"android":"levelo://app?vid=bbdbd21f-9fef-4cee-953f-9026ea7d4911","ios":"levelo://app?vid=bbdbd21f-9fef-4cee-953f-9026ea7d4911"},"vehicle_type_id":"4","last_reported":1678979279,"current_range_meters":20400,"station_id":"ce4bhnh2rcd13ifvqgtg","pricing_plan_id":"free"},{"bike_id":"4349d8be-d482-4254-922b-31854191c82f","system_id":"levelo_inurba_marseille","lat":43.278128,"lon":5.407195,"is_reserved":false,"is_disabled":false,"rental_uris":{"android":"levelo://app?vid=4349d8be-d482-4254-922b-31854191c82f","ios":"levelo://app?vid=4349d8be-d482-4254-922b-31854191c82f"},"vehicle_type_id":"4","last_reported":1678979279,"current_range_meters":11200,"station_id":"ce4bhnh2rcd13ifvqgtg","pricing_plan_id":"free"},{"bike_id":"f1310db7-436b-4515-9c40-454e74a2e4dc","system_id":"levelo_inurba_marseille","lat":43.278128,"lon":5.407195,"is_reserved":false,"is_disabled":false,"rental_uris":{"android":"levelo://app?vid=f1310db7-436b-4515-9c40-454e74a2e4dc","ios":"levelo://app?vid=f1310db7-436b-4515-9c40-454e74a2e4dc"},"vehicle_type_id":"4","last_reported":1678979279,"current_range_meters":9200,"station_id":"ce4bhnh2rcd13ifvqgtg","pricing_plan_id":"free"},{"bike_id":"ce313525-8bf6-4ba6-8d9a-b2a2462e366b","system_id":"levelo_inurba_marseille","lat":43.27816,"lon":5.4072,"is_reserved":false,"is_disabled":false,"rental_uris":{"android":"levelo://app?vid=ce313525-8bf6-4ba6-8d9a-b2a2462e366b","ios":"levelo://app?vid=ce313525-8bf6-4ba6-8d9a-b2a2462e366b"},"vehicle_type_id":"4","last_reported":1678979279,"current_range_meters":3200,"station_id":"ce4bhnh2rcd13ifvqgtg","pricing_plan_id":"free"},{"bike_id":"36f77b1a-9e47-4d67-8187-d38fa1428f73","system_id":"levelo_inurba_marseille","lat":43.265714,"lon":5.372891,"is_reserved":false,"is_disabled":false,"rental_uris":{"android":"levelo://app?vid=36f77b1a-9e47-4d67-8187-d38fa1428f73","ios":"levelo://app?vid=36f77b1a-9e47-4d67-8187-d38fa1428f73"},"vehicle_type_id":"4","last_reported":1678979279,"current_range_meters":13600,"station_id":"ce4bhg12rcd13ifvqf70","pricing_plan_id":"free"},{"bike_id":"8976de54-0a44-4fcd-bef9-c15b66c3673a","system_id":"levelo_inurba_marseille","lat":43.26685,"lon":5.39051,"is_reserved":false,"is_disabled":false,"rental_uris":{"android":"levelo://app?vid=8976de54-0a44-4fcd-bef9-c15b66c3673a","ios":"levelo://app?vid=8976de54-0a44-4fcd-bef9-c15b66c3673a"},"vehicle_type_id":"4","last_reported":1678979279,"current_range_meters":0,"station_id":"","pricing_plan_id":"free"},{"bike_id":"f0ffb218-30c1-499a-a9ea-3eb186d7d2a8","system_id":"levelo_inurba_marseille","lat":43.26791,"lon":5.39415,"is_reserved":false,"is_disabled":false,"rental_uris":{"android":"levelo://app?vid=f0ffb218-30c1-499a-a9ea-3eb186d7d2a8","ios":"levelo://app?vid=f0ffb218-30c1-499a-a9ea-3eb186d7d2a8"},"vehicle_type_id":"4","last_reported":1678979279,"current_range_meters":0,"station_id":"","pricing_plan_id":"free"},{"bike_id":"e9fad24f-75ce-4478-94f8-03956b376e45","system_id":"levelo_inurba_marseille","lat":43.261782,"lon":5.374515,"is_reserved":false,"is_disabled":false,"rental_uris":{"android":"levelo://app?vid=e9fad24f-75ce-4478-94f8-03956b376e45","ios":"levelo://app?vid=e9fad24f-75ce-4478-94f8-03956b376e45"},"vehicle_type_id":"4","last_reported":1678979279,"current_range_meters":24400,"station_id":"ce4bhgp2rcd13ifvqfc0","pricing_plan_id":"free"},{"bike_id":"2170ad28-10f3-4f5d-9d6c-a099ec3fa65a","system_id":"levelo_inurba_marseille","lat":43.267959,"lon":5.402687,"is_reserved":false,"is_disabled":false,"rental_uris":{"android":"levelo://app?vid=2170ad28-10f3-4f5d-9d6c-a099ec3fa65a","ios":"levelo://app?vid=2170ad28-10f3-4f5d-9d6c-a099ec3fa65a"},"vehicle_type_id":"4","last_reported":1678979279,"current_range_meters":7600,"station_id":"ce501612rcd8frsf0b60","pricing_plan_id":"free"},{"bike_id":"8c56b2df-4673-4bc3-83b9-c11bdee417fd","system_id":"levelo_inurba_marseille","lat":43.267959,"lon":5.402687,"is_reserved":false,"is_disabled":false,"rental_uris":{"android":"levelo://app?vid=8c56b2df-4673-4bc3-83b9-c11bdee417fd","ios":"levelo://app?vid=8c56b2df-4673-4bc3-83b9-c11bdee417fd"},"vehicle_type_id":"4","last_reported":1678979279,"current_range_meters":26000,"station_id":"ce501612rcd8frsf0b60","pricing_plan_id":"free"},{"bike_id":"44f9e643-5e10-45e5-bb47-f46a346d23bf","system_id":"levelo_inurba_marseille","lat":43.260225,"lon":5.375455,"is_reserved":false,"is_disabled":false,"rental_uris":{"android":"levelo://app?vid=44f9e643-5e10-45e5-bb47-f46a346d23bf","ios":"levelo://app?vid=44f9e643-5e10-45e5-bb47-f46a346d23bf"},"vehicle_type_id":"4","last_reported":1678979279,"current_range_meters":22000,"station_id":"ce4bhgh2rcd13ifvqfa0","pricing_plan_id":"free"},{"bike_id":"17b6fe11-31ce-4120-8c83-fadfac67ba0c","system_id":"levelo_inurba_marseille","lat":43.260225,"lon":5.375455,"is_reserved":false,"is_disabled":false,"rental_uris":{"android":"levelo://app?vid=17b6fe11-31ce-4120-8c83-fadfac67ba0c","ios":"levelo://app?vid=17b6fe11-31ce-4120-8c83-fadfac67ba0c"},"vehicle_type_id":"4","last_reported":1678979279,"current_range_meters":10400,"station_id":"ce4bhgh2rcd13ifvqfa0","pricing_plan_id":"free"},{"bike_id":"38c2b5fe-2b4c-443e-bec0-1e585ed1ba43","system_id":"levelo_inurba_marseille","lat":43.260225,"lon":5.375455,"is_reserved":false,"is_disabled":false,"rental_uris":{"android":"levelo://app?vid=38c2b5fe-2b4c-443e-bec0-1e585ed1ba43","ios":"levelo://app?vid=38c2b5fe-2b4c-443e-bec0-1e585ed1ba43"},"vehicle_type_id":"4","last_reported":1678979279,"current_range_meters":20400,"station_id":"ce4bhgh2rcd13ifvqfa0","pricing_plan_id":"free"},{"bike_id":"c8c619d6-4ef3-4002-8aaf-df4a3a517306","system_id":"levelo_inurba_marseille","lat":43.260219,"lon":5.37546,"is_reserved":false,"is_disabled":false,"rental_uris":{"android":"levelo://app?vid=c8c619d6-4ef3-4002-8aaf-df4a3a517306","ios":"levelo://app?vid=c8c619d6-4ef3-4002-8aaf-df4a3a517306"},"vehicle_type_id":"4","last_reported":1678979279,"current_range_meters":7600,"station_id":"ce4bhgh2rcd13ifvqfa0","pricing_plan_id":"free"},{"bike_id":"f6b42a4e-f221-43d9-89fe-058bf1b4b8a9","system_id":"levelo_inurba_marseille","lat":43.26028,"lon":5.37547,"is_reserved":false,"is_disabled":false,"rental_uris":{"android":"levelo://app?vid=f6b42a4e-f221-43d9-89fe-058bf1b4b8a9","ios":"levelo://app?vid=f6b42a4e-f221-43d9-89fe-058bf1b4b8a9"},"vehicle_type_id":"4","last_reported":1678979279,"current_range_meters":0,"station_id":"","pricing_plan_id":"free"},{"bike_id":"f0ff4f2a-6d0c-428c-b19f-43138ed84eba","system_id":"levelo_inurba_marseille","lat":43.260219,"lon":5.37546,"is_reserved":false,"is_disabled":false,"rental_uris":{"android":"levelo://app?vid=f0ff4f2a-6d0c-428c-b19f-43138ed84eba","ios":"levelo://app?vid=f0ff4f2a-6d0c-428c-b19f-43138ed84eba"},"vehicle_type_id":"4","last_reported":1678979279,"current_range_meters":5600,"station_id":"ce4bhgh2rcd13ifvqfa0","pricing_plan_id":"free"},{"bike_id":"00a4aaae-eb5b-45c7-8455-6f3d22ebf71f","system_id":"levelo_inurba_marseille","lat":43.2607,"lon":5.393983,"is_reserved":false,"is_disabled":false,"rental_uris":{"android":"levelo://app?vid=00a4aaae-eb5b-45c7-8455-6f3d22ebf71f","ios":"levelo://app?vid=00a4aaae-eb5b-45c7-8455-6f3d22ebf71f"},"vehicle_type_id":"4","last_reported":1678979279,"current_range_meters":30800,"station_id":"ce4bhh92rcd13ifvqfj0","pricing_plan_id":"free"},{"bike_id":"0c393464-897a-432a-b523-2730b1c5bf48","system_id":"levelo_inurba_marseille","lat":43.2607,"lon":5.393983,"is_reserved":false,"is_disabled":false,"rental_uris":{"android":"levelo://app?vid=0c393464-897a-432a-b523-2730b1c5bf48","ios":"levelo://app?vid=0c393464-897a-432a-b523-2730b1c5bf48"},"vehicle_type_id":"4","last_reported":1678979279,"current_range_meters":0,"station_id":"ce4bhh92rcd13ifvqfj0","pricing_plan_id":"free"},{"bike_id":"d6db53ab-48cc-4175-99a6-a3044c6045af","system_id":"levelo_inurba_marseille","lat":43.2607,"lon":5.393983,"is_reserved":false,"is_disabled":false,"rental_uris":{"android":"levelo://app?vid=d6db53ab-48cc-4175-99a6-a3044c6045af","ios":"levelo://app?vid=d6db53ab-48cc-4175-99a6-a3044c6045af"},"vehicle_type_id":"4","last_reported":1678979279,"current_range_meters":29200,"station_id":"ce4bhh92rcd13ifvqfj0","pricing_plan_id":"free"},{"bike_id":"42aae42c-f4e9-479b-8e87-e702019d6bc6","system_id":"levelo_inurba_marseille","lat":43.260909,"lon":5.397591,"is_reserved":false,"is_disabled":false,"rental_uris":{"android":"levelo://app?vid=42aae42c-f4e9-479b-8e87-e702019d6bc6","ios":"levelo://app?vid=42aae42c-f4e9-479b-8e87-e702019d6bc6"},"vehicle_type_id":"4","last_reported":1678979279,"current_range_meters":11200,"station_id":"ce4bhi12rcd13ifvqfq0","pricing_plan_id":"free"},{"bike_id":"18ede46e-ca83-49b4-b847-111e538cc7e1","system_id":"levelo_inurba_marseille","lat":43.26085,"lon":5.397683,"is_reserved":false,"is_disabled":false,"rental_uris":{"android":"levelo://app?vid=18ede46e-ca83-49b4-b847-111e538cc7e1","ios":"levelo://app?vid=18ede46e-ca83-49b4-b847-111e538cc7e1"},"vehicle_type_id":"4","last_reported":1678979279,"current_range_meters":24400,"station_id":"","pricing_plan_id":"free"},{"bike_id":"e2b55fd7-1ea3-49c8-b6e0-f69deb3c8807","system_id":"levelo_inurba_marseille","lat":43.26087,"lon":5.39779,"is_reserved":false,"is_disabled":false,"rental_uris":{"android":"levelo://app?vid=e2b55fd7-1ea3-49c8-b6e0-f69deb3c8807","ios":"levelo://app?vid=e2b55fd7-1ea3-49c8-b6e0-f69deb3c8807"},"vehicle_type_id":"4","last_reported":1678979279,"current_range_meters":19600,"station_id":"ce4bhi12rcd13ifvqfq0","pricing_plan_id":"free"},{"bike_id":"3ed80a1a-9d72-45a2-9504-9d5dc5e4d107","system_id":"levelo_inurba_marseille","lat":43.26084,"lon":5.39771,"is_reserved":false,"is_disabled":false,"rental_uris":{"android":"levelo://app?vid=3ed80a1a-9d72-45a2-9504-9d5dc5e4d107","ios":"levelo://app?vid=3ed80a1a-9d72-45a2-9504-9d5dc5e4d107"},"vehicle_type_id":"4","last_reported":1678979279,"current_range_meters":13200,"station_id":"ce4bhi12rcd13ifvqfq0","pricing_plan_id":"free"},{"bike_id":"09c63edf-530a-4561-859d-966d76447d37","system_id":"levelo_inurba_marseille","lat":43.33352,"lon":5.44057,"is_reserved":false,"is_disabled":false,"rental_uris":{"android":"levelo://app?vid=09c63edf-530a-4561-859d-966d76447d37","ios":"levelo://app?vid=09c63edf-530a-4561-859d-966d76447d37"},"vehicle_type_id":"4","last_reported":1678979279,"current_range_meters":0,"station_id":"","pricing_plan_id":"free"},{"bike_id":"d07273ef-a2e8-461f-822f-39f4c0d7beb2","system_id":"levelo_inurba_marseille","lat":43.255803,"lon":5.382373,"is_reserved":false,"is_disabled":false,"rental_uris":{"android":"levelo://app?vid=d07273ef-a2e8-461f-822f-39f4c0d7beb2","ios":"levelo://app?vid=d07273ef-a2e8-461f-822f-39f4c0d7beb2"},"vehicle_type_id":"4","last_reported":1678979279,"current_range_meters":22400,"station_id":"ce4bhih2rcd13ifvqfs0","pricing_plan_id":"free"},{"bike_id":"274a3ecf-d4af-4577-9436-c22a3c2ec525","system_id":"levelo_inurba_marseille","lat":43.2707,"lon":5.42277,"is_reserved":false,"is_disabled":false,"rental_uris":{"android":"levelo://app?vid=274a3ecf-d4af-4577-9436-c22a3c2ec525","ios":"levelo://app?vid=274a3ecf-d4af-4577-9436-c22a3c2ec525"},"vehicle_type_id":"4","last_reported":1678979279,"current_range_meters":24800,"station_id":"","pricing_plan_id":"free"},{"bike_id":"2f9eb589-46de-42a2-a7fc-dc6ad07a8a6f","system_id":"levelo_inurba_marseille","lat":43.258658,"lon":5.398935,"is_reserved":false,"is_disabled":false,"rental_uris":{"android":"levelo://app?vid=2f9eb589-46de-42a2-a7fc-dc6ad07a8a6f","ios":"levelo://app?vid=2f9eb589-46de-42a2-a7fc-dc6ad07a8a6f"},"vehicle_type_id":"4","last_reported":1678979279,"current_range_meters":24800,"station_id":"ce4bhl92rcd13ifvqghg","pricing_plan_id":"free"},{"bike_id":"89acbee0-f4be-4acd-bb17-854d5104d4da","system_id":"levelo_inurba_marseille","lat":43.250023,"lon":5.38919,"is_reserved":false,"is_disabled":false,"rental_uris":{"android":"levelo://app?vid=89acbee0-f4be-4acd-bb17-854d5104d4da","ios":"levelo://app?vid=89acbee0-f4be-4acd-bb17-854d5104d4da"},"vehicle_type_id":"4","last_reported":1678979279,"current_range_meters":30800,"station_id":"ce4bhgp2rcd13ifvqfd0","pricing_plan_id":"free"},{"bike_id":"28d2ba1e-98e1-4bb5-8611-6d84141938f6","system_id":"levelo_inurba_marseille","lat":43.24809,"lon":5.37458,"is_reserved":false,"is_disabled":false,"rental_uris":{"android":"levelo://app?vid=28d2ba1e-98e1-4bb5-8611-6d84141938f6","ios":"levelo://app?vid=28d2ba1e-98e1-4bb5-8611-6d84141938f6"},"vehicle_type_id":"4","last_reported":1678979279,"current_range_meters":24400,"station_id":"","pricing_plan_id":"free"},{"bike_id":"baabc0d8-a057-4587-9f01-65d1ea9450c9","system_id":"levelo_inurba_marseille","lat":43.24809,"lon":5.37459,"is_reserved":false,"is_disabled":false,"rental_uris":{"android":"levelo://app?vid=baabc0d8-a057-4587-9f01-65d1ea9450c9","ios":"levelo://app?vid=baabc0d8-a057-4587-9f01-65d1ea9450c9"},"vehicle_type_id":"4","last_reported":1678979279,"current_range_meters":23600,"station_id":"","pricing_plan_id":"free"},{"bike_id":"716e62eb-c201-4bfe-8778-25d8bcbe757b","system_id":"levelo_inurba_marseille","lat":43.2479,"lon":5.374457,"is_reserved":false,"is_disabled":false,"rental_uris":{"android":"levelo://app?vid=716e62eb-c201-4bfe-8778-25d8bcbe757b","ios":"levelo://app?vid=716e62eb-c201-4bfe-8778-25d8bcbe757b"},"vehicle_type_id":"4","last_reported":1678979279,"current_range_meters":11600,"station_id":"ce4bhgh2rcd13ifvqfb0","pricing_plan_id":"free"},{"bike_id":"a272dbce-f2f7-4fdd-a822-b403ecefa749","system_id":"levelo_inurba_marseille","lat":43.2479,"lon":5.374457,"is_reserved":false,"is_disabled":false,"rental_uris":{"android":"levelo://app?vid=a272dbce-f2f7-4fdd-a822-b403ecefa749","ios":"levelo://app?vid=a272dbce-f2f7-4fdd-a822-b403ecefa749"},"vehicle_type_id":"4","last_reported":1678979279,"current_range_meters":20000,"station_id":"ce4bhgh2rcd13ifvqfb0","pricing_plan_id":"free"},{"bike_id":"fd1ba973-5bb9-47bd-ad70-0a985fad4a7b","system_id":"levelo_inurba_marseille","lat":43.2479,"lon":5.374457,"is_reserved":false,"is_disabled":false,"rental_uris":{"android":"levelo://app?vid=fd1ba973-5bb9-47bd-ad70-0a985fad4a7b","ios":"levelo://app?vid=fd1ba973-5bb9-47bd-ad70-0a985fad4a7b"},"vehicle_type_id":"4","last_reported":1678979279,"current_range_meters":19200,"station_id":"ce4bhgh2rcd13ifvqfb0","pricing_plan_id":"free"},{"bike_id":"8d5c3aed-da31-4c66-a0b3-9ebe618ded35","system_id":"levelo_inurba_marseille","lat":43.24693,"lon":5.382096,"is_reserved":false,"is_disabled":false,"rental_uris":{"android":"levelo://app?vid=8d5c3aed-da31-4c66-a0b3-9ebe618ded35","ios":"levelo://app?vid=8d5c3aed-da31-4c66-a0b3-9ebe618ded35"},"vehicle_type_id":"4","last_reported":1678979279,"current_range_meters":3600,"station_id":"ce4bhih2rcd13ifvqfr0","pricing_plan_id":"free"},{"bike_id":"232e1b00-64f1-4a78-8571-479ce14b358e","system_id":"levelo_inurba_marseille","lat":43.24661,"lon":5.38169,"is_reserved":false,"is_disabled":false,"rental_uris":{"android":"levelo://app?vid=232e1b00-64f1-4a78-8571-479ce14b358e","ios":"levelo://app?vid=232e1b00-64f1-4a78-8571-479ce14b358e"},"vehicle_type_id":"4","last_reported":1678979279,"current_range_meters":2400,"station_id":"","pricing_plan_id":"free"},{"bike_id":"0f45ede8-2466-4bdb-8150-fb984cbec99c","system_id":"levelo_inurba_marseille","lat":43.24693,"lon":5.382096,"is_reserved":false,"is_disabled":false,"rental_uris":{"android":"levelo://app?vid=0f45ede8-2466-4bdb-8150-fb984cbec99c","ios":"levelo://app?vid=0f45ede8-2466-4bdb-8150-fb984cbec99c"},"vehicle_type_id":"4","last_reported":1678979279,"current_range_meters":1600,"station_id":"ce4bhih2rcd13ifvqfr0","pricing_plan_id":"free"},{"bike_id":"3e39efeb-b9fd-4f8d-8789-9bcb6bceaf9a","system_id":"levelo_inurba_marseille","lat":43.24645,"lon":5.3889,"is_reserved":false,"is_disabled":false,"rental_uris":{"android":"levelo://app?vid=3e39efeb-b9fd-4f8d-8789-9bcb6bceaf9a","ios":"levelo://app?vid=3e39efeb-b9fd-4f8d-8789-9bcb6bceaf9a"},"vehicle_type_id":"4","last_reported":1678979279,"current_range_meters":28800,"station_id":"","pricing_plan_id":"free"},{"bike_id":"6f4a3957-a52d-495f-8ba0-69e55cd57ae0","system_id":"levelo_inurba_marseille","lat":43.240618,"lon":5.377636,"is_reserved":false,"is_disabled":false,"rental_uris":{"android":"levelo://app?vid=6f4a3957-a52d-495f-8ba0-69e55cd57ae0","ios":"levelo://app?vid=6f4a3957-a52d-495f-8ba0-69e55cd57ae0"},"vehicle_type_id":"4","last_reported":1678979279,"current_range_meters":0,"station_id":"ce4bhnp2rcd13ifvqgvg","pricing_plan_id":"free"},{"bike_id":"c5ecf19b-bbb5-4b97-8f5d-897cde1dd047","system_id":"levelo_inurba_marseille","lat":43.239588,"lon":5.366238,"is_reserved":false,"is_disabled":false,"rental_uris":{"android":"levelo://app?vid=c5ecf19b-bbb5-4b97-8f5d-897cde1dd047","ios":"levelo://app?vid=c5ecf19b-bbb5-4b97-8f5d-897cde1dd047"},"vehicle_type_id":"4","last_reported":1678979279,"current_range_meters":11200,"station_id":"ce4bhi12rcd13ifvqfp0","pricing_plan_id":"free"},{"bike_id":"d734b8b9-c0cc-4e3a-9e5d-cd0cda9d03f0","system_id":"levelo_inurba_marseille","lat":43.239588,"lon":5.366238,"is_reserved":false,"is_disabled":false,"rental_uris":{"android":"levelo://app?vid=d734b8b9-c0cc-4e3a-9e5d-cd0cda9d03f0","ios":"levelo://app?vid=d734b8b9-c0cc-4e3a-9e5d-cd0cda9d03f0"},"vehicle_type_id":"4","last_reported":1678979279,"current_range_meters":13600,"station_id":"ce4bhi12rcd13ifvqfp0","pricing_plan_id":"free"},{"bike_id":"5549c8c1-e58b-4bb1-a764-11671fa9701c","system_id":"levelo_inurba_marseille","lat":43.239588,"lon":5.366238,"is_reserved":false,"is_disabled":false,"rental_uris":{"android":"levelo://app?vid=5549c8c1-e58b-4bb1-a764-11671fa9701c","ios":"levelo://app?vid=5549c8c1-e58b-4bb1-a764-11671fa9701c"},"vehicle_type_id":"4","last_reported":1678979279,"current_range_meters":6800,"station_id":"ce4bhi12rcd13ifvqfp0","pricing_plan_id":"free"},{"bike_id":"2a363033-311d-4c5d-9aa8-977ff3eeb093","system_id":"levelo_inurba_marseille","lat":43.239588,"lon":5.366238,"is_reserved":false,"is_disabled":false,"rental_uris":{"android":"levelo://app?vid=2a363033-311d-4c5d-9aa8-977ff3eeb093","ios":"levelo://app?vid=2a363033-311d-4c5d-9aa8-977ff3eeb093"},"vehicle_type_id":"4","last_reported":1678979279,"current_range_meters":6400,"station_id":"ce4bhi12rcd13ifvqfp0","pricing_plan_id":"free"},{"bike_id":"b22d135a-fa82-4c0e-a0c0-521a6b12cc2e","system_id":"levelo_inurba_marseille","lat":43.239625,"lon":5.366347,"is_reserved":false,"is_disabled":false,"rental_uris":{"android":"levelo://app?vid=b22d135a-fa82-4c0e-a0c0-521a6b12cc2e","ios":"levelo://app?vid=b22d135a-fa82-4c0e-a0c0-521a6b12cc2e"},"vehicle_type_id":"4","last_reported":1678979279,"current_range_meters":30400,"station_id":"ce4bhi12rcd13ifvqfp0","pricing_plan_id":"free"},{"bike_id":"ef7d8d24-57bb-41e2-be3a-39c824be8f67","system_id":"levelo_inurba_marseille","lat":43.239588,"lon":5.366238,"is_reserved":false,"is_disabled":false,"rental_uris":{"android":"levelo://app?vid=ef7d8d24-57bb-41e2-be3a-39c824be8f67","ios":"levelo://app?vid=ef7d8d24-57bb-41e2-be3a-39c824be8f67"},"vehicle_type_id":"4","last_reported":1678979279,"current_range_meters":24400,"station_id":"ce4bhi12rcd13ifvqfp0","pricing_plan_id":"free"},{"bike_id":"f1d6e4ae-5d60-4f2a-a0a0-3dcd7e59be7b","system_id":"levelo_inurba_marseille","lat":43.23962,"lon":5.36628,"is_reserved":false,"is_disabled":false,"rental_uris":{"android":"levelo://app?vid=f1d6e4ae-5d60-4f2a-a0a0-3dcd7e59be7b","ios":"levelo://app?vid=f1d6e4ae-5d60-4f2a-a0a0-3dcd7e59be7b"},"vehicle_type_id":"4","last_reported":1678979279,"current_range_meters":8400,"station_id":"ce4bhi12rcd13ifvqfp0","pricing_plan_id":"free"},{"bike_id":"eba72f45-8367-4729-bc32-d28db0630670","system_id":"levelo_inurba_marseille","lat":43.23961,"lon":5.36628,"is_reserved":false,"is_disabled":false,"rental_uris":{"android":"levelo://app?vid=eba72f45-8367-4729-bc32-d28db0630670","ios":"levelo://app?vid=eba72f45-8367-4729-bc32-d28db0630670"},"vehicle_type_id":"4","last_reported":1678979279,"current_range_meters":9200,"station_id":"ce4bhi12rcd13ifvqfp0","pricing_plan_id":"free"},{"bike_id":"b3994a43-b507-46ee-91d9-4acbedc2a49a","system_id":"levelo_inurba_marseille","lat":43.2396,"lon":5.36636,"is_reserved":false,"is_disabled":false,"rental_uris":{"android":"levelo://app?vid=b3994a43-b507-46ee-91d9-4acbedc2a49a","ios":"levelo://app?vid=b3994a43-b507-46ee-91d9-4acbedc2a49a"},"vehicle_type_id":"4","last_reported":1678979279,"current_range_meters":31200,"station_id":"","pricing_plan_id":"free"},{"bike_id":"af26f877-0a71-4577-ad5e-e1424bf7da4e","system_id":"levelo_inurba_marseille","lat":43.241787,"lon":5.397167,"is_reserved":false,"is_disabled":false,"rental_uris":{"android":"levelo://app?vid=af26f877-0a71-4577-ad5e-e1424bf7da4e","ios":"levelo://app?vid=af26f877-0a71-4577-ad5e-e1424bf7da4e"},"vehicle_type_id":"4","last_reported":1678979279,"current_range_meters":15600,"station_id":"","pricing_plan_id":"free"},{"bike_id":"a5a87d23-d311-410e-a6cb-4b725f9467eb","system_id":"levelo_inurba_marseille","lat":43.24178,"lon":5.39723,"is_reserved":false,"is_disabled":false,"rental_uris":{"android":"levelo://app?vid=a5a87d23-d311-410e-a6cb-4b725f9467eb","ios":"levelo://app?vid=a5a87d23-d311-410e-a6cb-4b725f9467eb"},"vehicle_type_id":"4","last_reported":1678979279,"current_range_meters":13200,"station_id":"ce4bhn12rcd13ifvqgpg","pricing_plan_id":"free"},{"bike_id":"b1c74512-a037-4567-af22-b4933f25c706","system_id":"levelo_inurba_marseille","lat":43.241782,"lon":5.397264,"is_reserved":false,"is_disabled":false,"rental_uris":{"android":"levelo://app?vid=b1c74512-a037-4567-af22-b4933f25c706","ios":"levelo://app?vid=b1c74512-a037-4567-af22-b4933f25c706"},"vehicle_type_id":"4","last_reported":1678979279,"current_range_meters":18400,"station_id":"ce4bhn12rcd13ifvqgpg","pricing_plan_id":"free"},{"bike_id":"61eef2b4-dc67-434c-9f52-438e1aec4aa2","system_id":"levelo_inurba_marseille","lat":43.241782,"lon":5.397264,"is_reserved":false,"is_disabled":false,"rental_uris":{"android":"levelo://app?vid=61eef2b4-dc67-434c-9f52-438e1aec4aa2","ios":"levelo://app?vid=61eef2b4-dc67-434c-9f52-438e1aec4aa2"},"vehicle_type_id":"4","last_reported":1678979279,"current_range_meters":22000,"station_id":"ce4bhn12rcd13ifvqgpg","pricing_plan_id":"free"},{"bike_id":"6d879b09-a450-4e18-b0f7-39df337baf01","system_id":"levelo_inurba_marseille","lat":43.231923,"lon":5.355545,"is_reserved":false,"is_disabled":false,"rental_uris":{"android":"levelo://app?vid=6d879b09-a450-4e18-b0f7-39df337baf01","ios":"levelo://app?vid=6d879b09-a450-4e18-b0f7-39df337baf01"},"vehicle_type_id":"4","last_reported":1678979279,"current_range_meters":22800,"station_id":"ce4bhu92rcd13ifvqi70","pricing_plan_id":"free"},{"bike_id":"525570ca-3deb-421e-8612-7fcb3cd261f6","system_id":"levelo_inurba_marseille","lat":43.231923,"lon":5.355545,"is_reserved":false,"is_disabled":false,"rental_uris":{"android":"levelo://app?vid=525570ca-3deb-421e-8612-7fcb3cd261f6","ios":"levelo://app?vid=525570ca-3deb-421e-8612-7fcb3cd261f6"},"vehicle_type_id":"4","last_reported":1678979279,"current_range_meters":30800,"station_id":"ce4bhu92rcd13ifvqi70","pricing_plan_id":"free"},{"bike_id":"76c31e0a-fc26-4116-8bed-4dbd5a5dde2b","system_id":"levelo_inurba_marseille","lat":43.231923,"lon":5.355545,"is_reserved":false,"is_disabled":false,"rental_uris":{"android":"levelo://app?vid=76c31e0a-fc26-4116-8bed-4dbd5a5dde2b","ios":"levelo://app?vid=76c31e0a-fc26-4116-8bed-4dbd5a5dde2b"},"vehicle_type_id":"4","last_reported":1678979279,"current_range_meters":7600,"station_id":"ce4bhu92rcd13ifvqi70","pricing_plan_id":"free"},{"bike_id":"6acc3e12-3e46-4957-b28c-41f1cb8afd90","system_id":"levelo_inurba_marseille","lat":43.231919,"lon":5.355532,"is_reserved":false,"is_disabled":false,"rental_uris":{"android":"levelo://app?vid=6acc3e12-3e46-4957-b28c-41f1cb8afd90","ios":"levelo://app?vid=6acc3e12-3e46-4957-b28c-41f1cb8afd90"},"vehicle_type_id":"4","last_reported":1678979279,"current_range_meters":17600,"station_id":"ce4bhu92rcd13ifvqi70","pricing_plan_id":"free"},{"bike_id":"dd8836c8-afbc-4ce8-8488-8af298bbe40a","system_id":"levelo_inurba_marseille","lat":43.231923,"lon":5.355545,"is_reserved":false,"is_disabled":false,"rental_uris":{"android":"levelo://app?vid=dd8836c8-afbc-4ce8-8488-8af298bbe40a","ios":"levelo://app?vid=dd8836c8-afbc-4ce8-8488-8af298bbe40a"},"vehicle_type_id":"4","last_reported":1678979279,"current_range_meters":12400,"station_id":"ce4bhu92rcd13ifvqi70","pricing_plan_id":"free"},{"bike_id":"25528c6c-6e36-4a9f-abde-f63f9979efe0","system_id":"levelo_inurba_marseille","lat":43.231919,"lon":5.355532,"is_reserved":false,"is_disabled":false,"rental_uris":{"android":"levelo://app?vid=25528c6c-6e36-4a9f-abde-f63f9979efe0","ios":"levelo://app?vid=25528c6c-6e36-4a9f-abde-f63f9979efe0"},"vehicle_type_id":"4","last_reported":1678979279,"current_range_meters":6000,"station_id":"ce4bhu92rcd13ifvqi70","pricing_plan_id":"free"},{"bike_id":"5dc868c3-0e97-4549-aeb3-6f832194c849","system_id":"levelo_inurba_marseille","lat":43.231919,"lon":5.355532,"is_reserved":false,"is_disabled":false,"rental_uris":{"android":"levelo://app?vid=5dc868c3-0e97-4549-aeb3-6f832194c849","ios":"levelo://app?vid=5dc868c3-0e97-4549-aeb3-6f832194c849"},"vehicle_type_id":"4","last_reported":1678979279,"current_range_meters":12800,"station_id":"ce4bhu92rcd13ifvqi70","pricing_plan_id":"free"},{"bike_id":"e89dacc4-1bbd-4537-a1fe-d5710c5ab687","system_id":"levelo_inurba_marseille","lat":43.231919,"lon":5.355532,"is_reserved":false,"is_disabled":false,"rental_uris":{"android":"levelo://app?vid=e89dacc4-1bbd-4537-a1fe-d5710c5ab687","ios":"levelo://app?vid=e89dacc4-1bbd-4537-a1fe-d5710c5ab687"},"vehicle_type_id":"4","last_reported":1678979279,"current_range_meters":0,"station_id":"ce4bhu92rcd13ifvqi70","pricing_plan_id":"free"},{"bike_id":"06d1e818-488e-422f-81b9-0b65d7324328","system_id":"levelo_inurba_marseille","lat":43.231919,"lon":5.355532,"is_reserved":false,"is_disabled":false,"rental_uris":{"android":"levelo://app?vid=06d1e818-488e-422f-81b9-0b65d7324328","ios":"levelo://app?vid=06d1e818-488e-422f-81b9-0b65d7324328"},"vehicle_type_id":"4","last_reported":1678979279,"current_range_meters":18400,"station_id":"ce4bhu92rcd13ifvqi70","pricing_plan_id":"free"}]}}