{"last_updated":1732374515,"ttl":60,"version":"2.2","data":{"bikes":[{"bike_id":"920ae91a-08f7-493c-be09-77c929b24388","system_id":"levelo_inurba_marseille","lat":43.30804,"lon":5.4352,"is_reserved":false,"is_disabled":false,"rental_uris":{"android":"levelo://app?vid=920ae91a-08f7-493c-be09-77c929b24388","ios":"levelo://app?vid=920ae91a-08f7-493c-be09-77c929b24388"},"vehicle_type_id":"4","last_reported":1732374515,"current_range_meters":30000,"station_id":"ce4bhph2rcd13ifvqheg","pricing_plan_id":"cebpf4jnsgd1na2vs0mg"},{"bike_id":"4d412adf-96fb-4529-a86e-7f386ab9e9ab","system_id":"levelo_inurba_marseille","lat":43.30464,"lon":5.37917,"is_reserved":false,"is_disabled":false,"rental_uris":{"android":"levelo://app?vid=4d412adf-96fb-4529-a86e-7f386ab9e9ab","ios":"levelo://app?vid=4d412adf-96fb-4529-a86e-7f386ab9e9ab"},"vehicle_type_id":"4","last_reported":1732374515,"current_range_meters":39200,"station_id":"ce4bgup2rcd13ifvqcn0","pricing_plan_id":"cebpf4jnsgd1na2vs0mg"},{"bike_id":"4bca34b1-257b-4d43-831a-25c062569790","system_id":"levelo_inurba_marseille","lat":43.29623,"lon":5.37736,"is_reserved":false,"is_disabled":false,"rental_uris":{"android":"levelo://app?vid=4bca34b1-257b-4d43-831a-25c062569790","ios":"levelo://app?vid=4bca34b1-257b-4d43-831a-25c062569790"},"vehicle_type_id":"4","last_reported":1732374515,"current_range_meters":24000,"station_id":"ce4bgi92rcd13ifvqb90","pricing_plan_id":"cebpf4jnsgd1na2vs0mg"},{"bike_id":"3a2cc10c-ea0c-42b3-a30f-cce8005275ee","system_id":"levelo_inurba_marseille","lat":43.26216,"lon":5.37449,"is_reserved":false,"is_disabled":false,"rental_uris":{"android":"levelo://app?vid=3a2cc10c-ea0c-42b3-a30f-cce8005275ee","ios":"levelo://app?vid=3a2cc10c-ea0c-42b3-a30f-cce8005275ee"},"vehicle_type_id":"4","last_reported":1732374515,"current_range_meters":5600,"station_id":"ce4bhgp2rcd13ifvqfc0","pricing_plan_id":"cebpf4jnsgd1na2vs0mg"},{"bike_id":"99b4873f-dcef-4864-a0d3-f847cb9bbe06","system_id":"levelo_inurba_marseille","lat":43.29965,"lon":5.38502,"is_reserved":false,"is_disabled":false,"rental_uris":{"android":"levelo://app?vid=99b4873f-dcef-4864-a0d3-f847cb9bbe06","ios":"levelo://app?vid=99b4873f-dcef-4864-a0d3-f847cb9bbe06"},"vehicle_type_id":"4","last_reported":1732374515,"current_range_meters":13600,"station_id":"ce4bgj92rcd13ifvqbd0","pricing_plan_id":"cebpf4jnsgd1na2vs0mg"},{"bike_id":"5fd683e1-4200-427d-b022-85d61b63da51","system_id":"levelo_inurba_marseille","lat":43.29574,"lon":5.37513,"is_reserved":false,"is_disabled":false,"rental_uris":{"android":"levelo://app?vid=5fd683e1-4200-427d-b022-85d61b63da51","ios":"levelo://app?vid=5fd683e1-4200-427d-b022-85d61b63da51"},"vehicle_type_id":"4","last_reported":1732374515,"current_range_meters":36800,"station_id":"ce4bgh92rcd13ifvqb50","pricing_plan_id":"cebpf4jnsgd1na2vs0mg"},{"bike_id":"fe7dea4e-d632-4642-aee0-92c00a764691","system_id":"levelo_inurba_marseille","lat":43.30133,"lon":5.38766,"is_reserved":false,"is_disabled":true,"rental_uris":{"android":"levelo://app?vid=fe7dea4e-d632-4642-aee0-92c00a764691","ios":"levelo://app?vid=fe7dea4e-d632-4642-aee0-92c00a764691"},"vehicle_type_id":"4","last_reported":1732374515,"current_range_meters":1200,"station_id":"ce4bghh2rcd13ifvqb60","pricing_plan_id":"cebpf4jnsgd1na2vs0mg"},{"bike_id":"22e0c0d8-0d70-46cc-afee-a631298ee0b5","system_id":"levelo_inurba_marseille","lat":43.30528,"lon":5.36547,"is_reserved":false,"is_disabled":false,"rental_uris":{"android":"levelo://app?vid=22e0c0d8-0d70-46cc-afee-a631298ee0b5","ios":"levelo://app?vid=22e0c0d8-0d70-46cc-afee-a631298ee0b5"},"vehicle_type_id":"4","last_reported":1732374515,"current_range_meters":38800,"station_id":"ce4bgs12rcd13ifvqcag","pricing_plan_id":"cebpf4jnsgd1na2vs0mg"},{"bike_id":"9e38786f-f502-4c1c-9428-59d535da9860","system_id":"levelo_inurba_marseille","lat":43.27609,"lon":5.36109,"is_reserved":false,"is_disabled":false,"rental_uris":{"android":"levelo://app?vid=9e38786f-f502-4c1c-9428-59d535da9860","ios":"levelo://app?vid=9e38786f-f502-4c1c-9428-59d535da9860"},"vehicle_type_id":"4","last_reported":1732374515,"current_range_meters":17200,"station_id":"ce4bgj92rcd13ifvqbe0","pricing_plan_id":"cebpf4jnsgd1na2vs0mg"},{"bike_id":"8a121b48-1f5b-4c33-b9ca-47a97d05b778","system_id":"levelo_inurba_marseille","lat":43.324794,"lon":5.36552,"is_reserved":false,"is_disabled":false,"rental_uris":{"android":"levelo://app?vid=8a121b48-1f5b-4c33-b9ca-47a97d05b778","ios":"levelo://app?vid=8a121b48-1f5b-4c33-b9ca-47a97d05b778"},"vehicle_type_id":"4","last_reported":1732374515,"current_range_meters":9200,"station_id":"ce4bhs12rcd13ifvqhvg","pricing_plan_id":"cebpf4jnsgd1na2vs0mg"},{"bike_id":"4441f99d-07ad-49b5-a5b6-5cb62c19fe38","system_id":"levelo_inurba_marseille","lat":43.29574,"lon":5.37511,"is_reserved":false,"is_disabled":false,"rental_uris":{"android":"levelo://app?vid=4441f99d-07ad-49b5-a5b6-5cb62c19fe38","ios":"levelo://app?vid=4441f99d-07ad-49b5-a5b6-5cb62c19fe38"},"vehicle_type_id":"4","last_reported":1732374515,"current_range_meters":39200,"station_id":"ce4bgh92rcd13ifvqb50","pricing_plan_id":"cebpf4jnsgd1na2vs0mg"},{"bike_id":"06fd0023-5841-4271-a61c-73afba2ca715","system_id":"levelo_inurba_marseille","lat":43.2655,"lon":5.39025,"is_reserved":false,"is_disabled":false,"rental_uris":{"android":"levelo://app?vid=06fd0023-5841-4271-a61c-73afba2ca715","ios":"levelo://app?vid=06fd0023-5841-4271-a61c-73afba2ca715"},"vehicle_type_id":"4","last_reported":1732374515,"current_range_meters":12800,"station_id":"ce4bhe12rcd13ifvqf30","pricing_plan_id":"cebpf4jnsgd1na2vs0mg"},{"bike_id":"1d480d76-bb73-4781-930a-16c68fdce680","system_id":"levelo_inurba_marseille","lat":43.2558,"lon":5.3823,"is_reserved":false,"is_disabled":true,"rental_uris":{"android":"levelo://app?vid=1d480d76-bb73-4781-930a-16c68fdce680","ios":"levelo://app?vid=1d480d76-bb73-4781-930a-16c68fdce680"},"vehicle_type_id":"4","last_reported":1732374515,"current_range_meters":0,"station_id":"ce4bhih2rcd13ifvqfs0","pricing_plan_id":"cebpf4jnsgd1na2vs0mg"},{"bike_id":"e33bb27b-faf1-41f1-b855-157aafb511d2","system_id":"levelo_inurba_marseille","lat":43.23192,"lon":5.35563,"is_reserved":false,"is_disabled":false,"rental_uris":{"android":"levelo://app?vid=e33bb27b-faf1-41f1-b855-157aafb511d2","ios":"levelo://app?vid=e33bb27b-faf1-41f1-b855-157aafb511d2"},"vehicle_type_id":"4","last_reported":1732374515,"current_range_meters":26000,"station_id":"ce4bhu92rcd13ifvqi70","pricing_plan_id":"cebpf4jnsgd1na2vs0mg"},{"bike_id":"92aca063-e395-402a-a362-69eb5641c33c","system_id":"levelo_inurba_marseille","lat":43.28563,"lon":5.35173,"is_reserved":false,"is_disabled":false,"rental_uris":{"android":"levelo://app?vid=92aca063-e395-402a-a362-69eb5641c33c","ios":"levelo://app?vid=92aca063-e395-402a-a362-69eb5641c33c"},"vehicle_type_id":"4","last_reported":1732374515,"current_range_meters":38800,"station_id":"","pricing_plan_id":"cebpf4jnsgd1na2vs0mg"},{"bike_id":"7ed373fa-e29c-4ceb-b4cf-b4727f191d71","system_id":"levelo_inurba_marseille","lat":43.29843,"lon":5.36303,"is_reserved":false,"is_disabled":false,"rental_uris":{"android":"levelo://app?vid=7ed373fa-e29c-4ceb-b4cf-b4727f191d71","ios":"levelo://app?vid=7ed373fa-e29c-4ceb-b4cf-b4727f191d71"},"vehicle_type_id":"4","last_reported":1732374515,"current_range_meters":38800,"station_id":"ce4bgpp2rcd13ifvqc3g","pricing_plan_id":"cebpf4jnsgd1na2vs0mg"},{"bike_id":"561692a1-369c-4ac8-a04a-5193554f2e90","system_id":"levelo_inurba_marseille","lat":43.32104,"lon":5.36783,"is_reserved":false,"is_disabled":false,"rental_uris":{"android":"levelo://app?vid=561692a1-369c-4ac8-a04a-5193554f2e90","ios":"levelo://app?vid=561692a1-369c-4ac8-a04a-5193554f2e90"},"vehicle_type_id":"4","last_reported":1732374515,"current_range_meters":25600,"station_id":"ce4bhrh2rcd13ifvqhug","pricing_plan_id":"cebpf4jnsgd1na2vs0mg"},{"bike_id":"84e9b51c-e9db-46c6-8adc-548b6f6fb7bb","system_id":"levelo_inurba_marseille","lat":43.27361,"lon":5.36257,"is_reserved":false,"is_disabled":true,"rental_uris":{"android":"levelo://app?vid=84e9b51c-e9db-46c6-8adc-548b6f6fb7bb","ios":"levelo://app?vid=84e9b51c-e9db-46c6-8adc-548b6f6fb7bb"},"vehicle_type_id":"4","last_reported":1732374515,"current_range_meters":0,"station_id":"ce4bhbh2rcd13ifvqeo0","pricing_plan_id":"cebpf4jnsgd1na2vs0mg"},{"bike_id":"ae22a332-da36-4807-a05e-264d328761ce","system_id":"levelo_inurba_marseille","lat":43.317092,"lon":5.377468,"is_reserved":false,"is_disabled":false,"rental_uris":{"android":"levelo://app?vid=ae22a332-da36-4807-a05e-264d328761ce","ios":"levelo://app?vid=ae22a332-da36-4807-a05e-264d328761ce"},"vehicle_type_id":"4","last_reported":1732374515,"current_range_meters":22800,"station_id":"ce4bgth2rcd13ifvqch0","pricing_plan_id":"cebpf4jnsgd1na2vs0mg"},{"bike_id":"5c3000a0-a190-4007-a723-aa2707fd1ce3","system_id":"levelo_inurba_marseille","lat":43.22951,"lon":5.35387,"is_reserved":false,"is_disabled":false,"rental_uris":{"android":"levelo://app?vid=5c3000a0-a190-4007-a723-aa2707fd1ce3","ios":"levelo://app?vid=5c3000a0-a190-4007-a723-aa2707fd1ce3"},"vehicle_type_id":"4","last_reported":1732374515,"current_range_meters":38800,"station_id":"cpo3532slgdg3j2ikp40","pricing_plan_id":"cebpf4jnsgd1na2vs0mg"},{"bike_id":"fe1c6c58-e07b-4d6e-9ba7-42aea6df7394","system_id":"levelo_inurba_marseille","lat":43.30801,"lon":5.3816,"is_reserved":false,"is_disabled":false,"rental_uris":{"android":"levelo://app?vid=fe1c6c58-e07b-4d6e-9ba7-42aea6df7394","ios":"levelo://app?vid=fe1c6c58-e07b-4d6e-9ba7-42aea6df7394"},"vehicle_type_id":"4","last_reported":1732374515,"current_range_meters":36000,"station_id":"ce4bgt12rcd13ifvqce0","pricing_plan_id":"cebpf4jnsgd1na2vs0mg"},{"bike_id":"93de8398-e23a-441c-bfff-1aeb0e54d069","system_id":"levelo_inurba_marseille","lat":43.30651,"lon":5.40082,"is_reserved":false,"is_disabled":false,"rental_uris":{"android":"levelo://app?vid=93de8398-e23a-441c-bfff-1aeb0e54d069","ios":"levelo://app?vid=93de8398-e23a-441c-bfff-1aeb0e54d069"},"vehicle_type_id":"4","last_reported":1732374515,"current_range_meters":13600,"station_id":"ce4bh112rcd13ifvqda0","pricing_plan_id":"cebpf4jnsgd1na2vs0mg"},{"bike_id":"6a2df70c-4e94-45ba-b67d-45bd465ca49d","system_id":"levelo_inurba_marseille","lat":43.2919,"lon":5.39312,"is_reserved":false,"is_disabled":true,"rental_uris":{"android":"levelo://app?vid=6a2df70c-4e94-45ba-b67d-45bd465ca49d","ios":"levelo://app?vid=6a2df70c-4e94-45ba-b67d-45bd465ca49d"},"vehicle_type_id":"4","last_reported":1732374515,"current_range_meters":35600,"station_id":"ce4bh192rcd13ifvqdd0","pricing_plan_id":"cebpf4jnsgd1na2vs0mg"},{"bike_id":"b9b9ed17-2332-448e-a260-27c24592bd4a","system_id":"levelo_inurba_marseille","lat":43.2954,"lon":5.37504,"is_reserved":false,"is_disabled":true,"rental_uris":{"android":"levelo://app?vid=b9b9ed17-2332-448e-a260-27c24592bd4a","ios":"levelo://app?vid=b9b9ed17-2332-448e-a260-27c24592bd4a"},"vehicle_type_id":"4","last_reported":1732374515,"current_range_meters":35200,"station_id":"ce4bgkp2rcd13ifvqbmg","pricing_plan_id":"cebpf4jnsgd1na2vs0mg"},{"bike_id":"50b5f384-9965-4c51-acc9-a152a8075189","system_id":"levelo_inurba_marseille","lat":43.25577,"lon":5.38243,"is_reserved":false,"is_disabled":false,"rental_uris":{"android":"levelo://app?vid=50b5f384-9965-4c51-acc9-a152a8075189","ios":"levelo://app?vid=50b5f384-9965-4c51-acc9-a152a8075189"},"vehicle_type_id":"4","last_reported":1732374515,"current_range_meters":28400,"station_id":"ce4bhih2rcd13ifvqfs0","pricing_plan_id":"cebpf4jnsgd1na2vs0mg"},{"bike_id":"62f28776-669a-4320-b766-deaf82321cbf","system_id":"levelo_inurba_marseille","lat":43.279053,"lon":5.379973,"is_reserved":false,"is_disabled":false,"rental_uris":{"android":"levelo://app?vid=62f28776-669a-4320-b766-deaf82321cbf","ios":"levelo://app?vid=62f28776-669a-4320-b766-deaf82321cbf"},"vehicle_type_id":"4","last_reported":1732374515,"current_range_meters":38800,"station_id":"ce4bhf92rcd13ifvqf50","pricing_plan_id":"cebpf4jnsgd1na2vs0mg"},{"bike_id":"d875dc15-0e9a-4da4-aed9-8741b03a7412","system_id":"levelo_inurba_marseille","lat":43.27075,"lon":5.42284,"is_reserved":false,"is_disabled":false,"rental_uris":{"android":"levelo://app?vid=d875dc15-0e9a-4da4-aed9-8741b03a7412","ios":"levelo://app?vid=d875dc15-0e9a-4da4-aed9-8741b03a7412"},"vehicle_type_id":"4","last_reported":1732374515,"current_range_meters":22800,"station_id":"ce4bhk92rcd13ifvqgb0","pricing_plan_id":"cebpf4jnsgd1na2vs0mg"},{"bike_id":"ff3594ee-f948-4832-9680-599cfdacc368","system_id":"levelo_inurba_marseille","lat":43.27188,"lon":5.40998,"is_reserved":false,"is_disabled":false,"rental_uris":{"android":"levelo://app?vid=ff3594ee-f948-4832-9680-599cfdacc368","ios":"levelo://app?vid=ff3594ee-f948-4832-9680-599cfdacc368"},"vehicle_type_id":"4","last_reported":1732374515,"current_range_meters":37600,"station_id":"ce4bhl12rcd13ifvqgf0","pricing_plan_id":"cebpf4jnsgd1na2vs0mg"},{"bike_id":"99b29f0a-fef9-49fe-8166-69785bf88e94","system_id":"levelo_inurba_marseille","lat":43.28997,"lon":5.3562,"is_reserved":false,"is_disabled":false,"rental_uris":{"android":"levelo://app?vid=99b29f0a-fef9-49fe-8166-69785bf88e94","ios":"levelo://app?vid=99b29f0a-fef9-49fe-8166-69785bf88e94"},"vehicle_type_id":"4","last_reported":1732374515,"current_range_meters":38000,"station_id":"ce4bhb92rcd13ifvqen0","pricing_plan_id":"cebpf4jnsgd1na2vs0mg"},{"bike_id":"b1837f61-5796-4dde-bb22-4d0e3427d3e7","system_id":"levelo_inurba_marseille","lat":43.29807,"lon":5.36463,"is_reserved":false,"is_disabled":false,"rental_uris":{"android":"levelo://app?vid=b1837f61-5796-4dde-bb22-4d0e3427d3e7","ios":"levelo://app?vid=b1837f61-5796-4dde-bb22-4d0e3427d3e7"},"vehicle_type_id":"4","last_reported":1732374515,"current_range_meters":22800,"station_id":"","pricing_plan_id":"cebpf4jnsgd1na2vs0mg"},{"bike_id":"856c5296-7fea-42cc-be09-a6b9a37c0b30","system_id":"levelo_inurba_marseille","lat":43.2737,"lon":5.36254,"is_reserved":false,"is_disabled":true,"rental_uris":{"android":"levelo://app?vid=856c5296-7fea-42cc-be09-a6b9a37c0b30","ios":"levelo://app?vid=856c5296-7fea-42cc-be09-a6b9a37c0b30"},"vehicle_type_id":"4","last_reported":1732374515,"current_range_meters":0,"station_id":"ce4bhbh2rcd13ifvqeo0","pricing_plan_id":"cebpf4jnsgd1na2vs0mg"},{"bike_id":"0b9793ae-67a1-4975-b2fb-8b38fec0c34c","system_id":"levelo_inurba_marseille","lat":43.29699,"lon":5.37682,"is_reserved":false,"is_disabled":false,"rental_uris":{"android":"levelo://app?vid=0b9793ae-67a1-4975-b2fb-8b38fec0c34c","ios":"levelo://app?vid=0b9793ae-67a1-4975-b2fb-8b38fec0c34c"},"vehicle_type_id":"4","last_reported":1732374515,"current_range_meters":3200,"station_id":"ce4bgkh2rcd13ifvqbl0","pricing_plan_id":"cebpf4jnsgd1na2vs0mg"},{"bike_id":"9a122f92-8d1b-4a84-9637-aeed9243668f","system_id":"levelo_inurba_marseille","lat":43.28939,"lon":5.36632,"is_reserved":false,"is_disabled":true,"rental_uris":{"android":"levelo://app?vid=9a122f92-8d1b-4a84-9637-aeed9243668f","ios":"levelo://app?vid=9a122f92-8d1b-4a84-9637-aeed9243668f"},"vehicle_type_id":"4","last_reported":1732374515,"current_range_meters":38800,"station_id":"ce4bhap2rcd13ifvqek0","pricing_plan_id":"cebpf4jnsgd1na2vs0mg"},{"bike_id":"ebd21c7a-b63d-473e-9407-73c1c91944c1","system_id":"levelo_inurba_marseille","lat":43.25088,"lon":5.3952,"is_reserved":false,"is_disabled":false,"rental_uris":{"android":"levelo://app?vid=ebd21c7a-b63d-473e-9407-73c1c91944c1","ios":"levelo://app?vid=ebd21c7a-b63d-473e-9407-73c1c91944c1"},"vehicle_type_id":"4","last_reported":1732374515,"current_range_meters":39200,"station_id":"ce4bhm12rcd13ifvqgkg","pricing_plan_id":"cebpf4jnsgd1na2vs0mg"},{"bike_id":"1993b539-9c32-4492-a460-72815ef2b108","system_id":"levelo_inurba_marseille","lat":43.29039,"lon":5.39964,"is_reserved":false,"is_disabled":true,"rental_uris":{"android":"levelo://app?vid=1993b539-9c32-4492-a460-72815ef2b108","ios":"levelo://app?vid=1993b539-9c32-4492-a460-72815ef2b108"},"vehicle_type_id":"4","last_reported":1732374515,"current_range_meters":0,"station_id":"ce4bh392rcd13ifvqdm0","pricing_plan_id":"cebpf4jnsgd1na2vs0mg"},{"bike_id":"8da1be4d-ebfd-4ca9-810b-7e370dfb5b46","system_id":"levelo_inurba_marseille","lat":43.32652,"lon":5.40994,"is_reserved":false,"is_disabled":false,"rental_uris":{"android":"levelo://app?vid=8da1be4d-ebfd-4ca9-810b-7e370dfb5b46","ios":"levelo://app?vid=8da1be4d-ebfd-4ca9-810b-7e370dfb5b46"},"vehicle_type_id":"4","last_reported":1732374515,"current_range_meters":22800,"station_id":"ce4bhpp2rcd13ifvqhgg","pricing_plan_id":"cebpf4jnsgd1na2vs0mg"},{"bike_id":"ac492d9d-9f3e-465c-b52f-0a46c51f3ace","system_id":"levelo_inurba_marseille","lat":43.27435,"lon":5.39412,"is_reserved":false,"is_disabled":false,"rental_uris":{"android":"levelo://app?vid=ac492d9d-9f3e-465c-b52f-0a46c51f3ace","ios":"levelo://app?vid=ac492d9d-9f3e-465c-b52f-0a46c51f3ace"},"vehicle_type_id":"4","last_reported":1732374515,"current_range_meters":28800,"station_id":"ce4bhdp2rcd13ifvqf20","pricing_plan_id":"cebpf4jnsgd1na2vs0mg"},{"bike_id":"fa8314ae-1864-43c4-8fa1-c6e47ea1e55c","system_id":"levelo_inurba_marseille","lat":43.32104,"lon":5.36781,"is_reserved":false,"is_disabled":false,"rental_uris":{"android":"levelo://app?vid=fa8314ae-1864-43c4-8fa1-c6e47ea1e55c","ios":"levelo://app?vid=fa8314ae-1864-43c4-8fa1-c6e47ea1e55c"},"vehicle_type_id":"4","last_reported":1732374515,"current_range_meters":27600,"station_id":"ce4bhrh2rcd13ifvqhug","pricing_plan_id":"cebpf4jnsgd1na2vs0mg"},{"bike_id":"64ef5fd1-f6ad-4ac9-a91c-bd90dce4550e","system_id":"levelo_inurba_marseille","lat":43.26064,"lon":5.39403,"is_reserved":false,"is_disabled":false,"rental_uris":{"android":"levelo://app?vid=64ef5fd1-f6ad-4ac9-a91c-bd90dce4550e","ios":"levelo://app?vid=64ef5fd1-f6ad-4ac9-a91c-bd90dce4550e"},"vehicle_type_id":"4","last_reported":1732374515,"current_range_meters":36000,"station_id":"ce4bhh92rcd13ifvqfj0","pricing_plan_id":"cebpf4jnsgd1na2vs0mg"},{"bike_id":"d3a7f609-252d-4f84-9290-8b544666800d","system_id":"levelo_inurba_marseille","lat":43.29301,"lon":5.37447,"is_reserved":false,"is_disabled":false,"rental_uris":{"android":"levelo://app?vid=d3a7f609-252d-4f84-9290-8b544666800d","ios":"levelo://app?vid=d3a7f609-252d-4f84-9290-8b544666800d"},"vehicle_type_id":"4","last_reported":1732374515,"current_range_meters":38800,"station_id":"ce4bgi12rcd13ifvqb70","pricing_plan_id":"cebpf4jnsgd1na2vs0mg"},{"bike_id":"4614c3ce-fa32-4b49-800d-cf02516d6ab9","system_id":"levelo_inurba_marseille","lat":43.32381,"lon":5.3897,"is_reserved":false,"is_disabled":false,"rental_uris":{"android":"levelo://app?vid=4614c3ce-fa32-4b49-800d-cf02516d6ab9","ios":"levelo://app?vid=4614c3ce-fa32-4b49-800d-cf02516d6ab9"},"vehicle_type_id":"4","last_reported":1732374515,"current_range_meters":24000,"station_id":"","pricing_plan_id":"cebpf4jnsgd1na2vs0mg"},{"bike_id":"e7a6ac48-1f3a-40dd-95e2-a2ca282c825f","system_id":"levelo_inurba_marseille","lat":43.30182,"lon":5.36625,"is_reserved":false,"is_disabled":false,"rental_uris":{"android":"levelo://app?vid=e7a6ac48-1f3a-40dd-95e2-a2ca282c825f","ios":"levelo://app?vid=e7a6ac48-1f3a-40dd-95e2-a2ca282c825f"},"vehicle_type_id":"4","last_reported":1732374515,"current_range_meters":38800,"station_id":"ce4bgrh2rcd13ifvqc8g","pricing_plan_id":"cebpf4jnsgd1na2vs0mg"},{"bike_id":"dee03222-b96c-4bd9-8076-cf797d32d688","system_id":"levelo_inurba_marseille","lat":43.32033,"lon":5.41567,"is_reserved":false,"is_disabled":false,"rental_uris":{"android":"levelo://app?vid=dee03222-b96c-4bd9-8076-cf797d32d688","ios":"levelo://app?vid=dee03222-b96c-4bd9-8076-cf797d32d688"},"vehicle_type_id":"4","last_reported":1732374515,"current_range_meters":40000,"station_id":"ce4bhq92rcd13ifvqhkg","pricing_plan_id":"cebpf4jnsgd1na2vs0mg"},{"bike_id":"0ecb0e70-6e2f-4c40-ae14-77249cd56bd7","system_id":"levelo_inurba_marseille","lat":43.27958,"lon":5.38714,"is_reserved":false,"is_disabled":true,"rental_uris":{"android":"levelo://app?vid=0ecb0e70-6e2f-4c40-ae14-77249cd56bd7","ios":"levelo://app?vid=0ecb0e70-6e2f-4c40-ae14-77249cd56bd7"},"vehicle_type_id":"4","last_reported":1732374515,"current_range_meters":22000,"station_id":"ce4bhg12rcd13ifvqf80","pricing_plan_id":"cebpf4jnsgd1na2vs0mg"},{"bike_id":"f8a8a492-aaea-4018-90af-bfa3e05e159b","system_id":"levelo_inurba_marseille","lat":43.3266,"lon":5.4099,"is_reserved":false,"is_disabled":false,"rental_uris":{"android":"levelo://app?vid=f8a8a492-aaea-4018-90af-bfa3e05e159b","ios":"levelo://app?vid=f8a8a492-aaea-4018-90af-bfa3e05e159b"},"vehicle_type_id":"4","last_reported":1732374515,"current_range_meters":22800,"station_id":"ce4bhpp2rcd13ifvqhgg","pricing_plan_id":"cebpf4jnsgd1na2vs0mg"},{"bike_id":"b205c612-6a12-4063-9b76-a327753abc2d","system_id":"levelo_inurba_marseille","lat":43.29575,"lon":5.37511,"is_reserved":false,"is_disabled":false,"rental_uris":{"android":"levelo://app?vid=b205c612-6a12-4063-9b76-a327753abc2d","ios":"levelo://app?vid=b205c612-6a12-4063-9b76-a327753abc2d"},"vehicle_type_id":"4","last_reported":1732374515,"current_range_meters":38800,"station_id":"ce4bgh92rcd13ifvqb50","pricing_plan_id":"cebpf4jnsgd1na2vs0mg"},{"bike_id":"8e4cc302-bd50-483a-b0f0-3eda7b34faa1","system_id":"levelo_inurba_marseille","lat":43.31278,"lon":5.40182,"is_reserved":false,"is_disabled":false,"rental_uris":{"android":"levelo://app?vid=8e4cc302-bd50-483a-b0f0-3eda7b34faa1","ios":"levelo://app?vid=8e4cc302-bd50-483a-b0f0-3eda7b34faa1"},"vehicle_type_id":"4","last_reported":1732374515,"current_range_meters":10000,"station_id":"ce4bh092rcd13ifvqd30","pricing_plan_id":"cebpf4jnsgd1na2vs0mg"},{"bike_id":"a3dd6656-8f05-4f64-bc97-b5c7a0579c95","system_id":"levelo_inurba_marseille","lat":43.29959,"lon":5.4132,"is_reserved":false,"is_disabled":false,"rental_uris":{"android":"levelo://app?vid=a3dd6656-8f05-4f64-bc97-b5c7a0579c95","ios":"levelo://app?vid=a3dd6656-8f05-4f64-bc97-b5c7a0579c95"},"vehicle_type_id":"4","last_reported":1732374515,"current_range_meters":4800,"station_id":"ce4bhp12rcd13ifvqh9g","pricing_plan_id":"cebpf4jnsgd1na2vs0mg"},{"bike_id":"eb99146d-1186-46ff-b564-16a2ec2521e2","system_id":"levelo_inurba_marseille","lat":43.28429,"lon":5.34994,"is_reserved":false,"is_disabled":false,"rental_uris":{"android":"levelo://app?vid=eb99146d-1186-46ff-b564-16a2ec2521e2","ios":"levelo://app?vid=eb99146d-1186-46ff-b564-16a2ec2521e2"},"vehicle_type_id":"4","last_reported":1732374515,"current_range_meters":28800,"station_id":"ce4bhbh2rcd13ifvqepg","pricing_plan_id":"cebpf4jnsgd1na2vs0mg"},{"bike_id":"f9e35db8-2f7a-4f43-8c70-83778761d42d","system_id":"levelo_inurba_marseille","lat":43.2319,"lon":5.3556,"is_reserved":false,"is_disabled":false,"rental_uris":{"android":"levelo://app?vid=f9e35db8-2f7a-4f43-8c70-83778761d42d","ios":"levelo://app?vid=f9e35db8-2f7a-4f43-8c70-83778761d42d"},"vehicle_type_id":"4","last_reported":1732374515,"current_range_meters":30800,"station_id":"ce4bhu92rcd13ifvqi70","pricing_plan_id":"cebpf4jnsgd1na2vs0mg"},{"bike_id":"4058a1ef-8de6-4ba6-883c-409ad1b92697","system_id":"levelo_inurba_marseille","lat":43.30541,"lon":5.36552,"is_reserved":false,"is_disabled":false,"rental_uris":{"android":"levelo://app?vid=4058a1ef-8de6-4ba6-883c-409ad1b92697","ios":"levelo://app?vid=4058a1ef-8de6-4ba6-883c-409ad1b92697"},"vehicle_type_id":"4","last_reported":1732374515,"current_range_meters":15200,"station_id":"ce4bgs12rcd13ifvqcag","pricing_plan_id":"cebpf4jnsgd1na2vs0mg"},{"bike_id":"69fd4d7b-d6fc-4b41-ad49-190a3d7e7aff","system_id":"levelo_inurba_marseille","lat":43.30219,"lon":5.39469,"is_reserved":false,"is_disabled":false,"rental_uris":{"android":"levelo://app?vid=69fd4d7b-d6fc-4b41-ad49-190a3d7e7aff","ios":"levelo://app?vid=69fd4d7b-d6fc-4b41-ad49-190a3d7e7aff"},"vehicle_type_id":"4","last_reported":1732374515,"current_range_meters":16400,"station_id":"ce4bh0p2rcd13ifvqd70","pricing_plan_id":"cebpf4jnsgd1na2vs0mg"},{"bike_id":"cca420d5-3804-40ed-9b53-fa07d10a9f73","system_id":"levelo_inurba_marseille","lat":43.23149,"lon":5.43716,"is_reserved":false,"is_disabled":false,"rental_uris":{"android":"levelo://app?vid=cca420d5-3804-40ed-9b53-fa07d10a9f73","ios":"levelo://app?vid=cca420d5-3804-40ed-9b53-fa07d10a9f73"},"vehicle_type_id":"4","last_reported":1732374515,"current_range_meters":23200,"station_id":"ce4bhmp2rcd13ifvqgog","pricing_plan_id":"cebpf4jnsgd1na2vs0mg"},{"bike_id":"1108659d-c798-48fb-a758-9ac015354e35","system_id":"levelo_inurba_marseille","lat":43.26205,"lon":5.37931,"is_reserved":false,"is_disabled":false,"rental_uris":{"android":"levelo://app?vid=1108659d-c798-48fb-a758-9ac015354e35","ios":"levelo://app?vid=1108659d-c798-48fb-a758-9ac015354e35"},"vehicle_type_id":"4","last_reported":1732374515,"current_range_meters":31200,"station_id":"ce4bhjp2rcd13ifvqg90","pricing_plan_id":"cebpf4jnsgd1na2vs0mg"},{"bike_id":"1f5a72a0-3240-401f-8965-8959c734d798","system_id":"levelo_inurba_marseille","lat":43.23962,"lon":5.36626,"is_reserved":false,"is_disabled":false,"rental_uris":{"android":"levelo://app?vid=1f5a72a0-3240-401f-8965-8959c734d798","ios":"levelo://app?vid=1f5a72a0-3240-401f-8965-8959c734d798"},"vehicle_type_id":"4","last_reported":1732374515,"current_range_meters":38800,"station_id":"ce4bhi12rcd13ifvqfp0","pricing_plan_id":"cebpf4jnsgd1na2vs0mg"},{"bike_id":"6f356d40-76b6-4bc9-9bea-361e30764fe1","system_id":"levelo_inurba_marseille","lat":43.23062,"lon":5.35492,"is_reserved":false,"is_disabled":false,"rental_uris":{"android":"levelo://app?vid=6f356d40-76b6-4bc9-9bea-361e30764fe1","ios":"levelo://app?vid=6f356d40-76b6-4bc9-9bea-361e30764fe1"},"vehicle_type_id":"4","last_reported":1732374515,"current_range_meters":31200,"station_id":"cpo3342slgdg3j2ifvpg","pricing_plan_id":"cebpf4jnsgd1na2vs0mg"},{"bike_id":"8a4eb594-2873-4022-ac05-d2a96f39bf59","system_id":"levelo_inurba_marseille","lat":43.27316,"lon":5.3908,"is_reserved":false,"is_disabled":true,"rental_uris":{"android":"levelo://app?vid=8a4eb594-2873-4022-ac05-d2a96f39bf59","ios":"levelo://app?vid=8a4eb594-2873-4022-ac05-d2a96f39bf59"},"vehicle_type_id":"4","last_reported":1732374515,"current_range_meters":0,"station_id":"ce4bhgp2rcd13ifvqfe0","pricing_plan_id":"cebpf4jnsgd1na2vs0mg"},{"bike_id":"e63126c9-2d53-43a8-a3ae-1c7e26315dff","system_id":"levelo_inurba_marseille","lat":43.29636,"lon":5.40601,"is_reserved":false,"is_disabled":false,"rental_uris":{"android":"levelo://app?vid=e63126c9-2d53-43a8-a3ae-1c7e26315dff","ios":"levelo://app?vid=e63126c9-2d53-43a8-a3ae-1c7e26315dff"},"vehicle_type_id":"4","last_reported":1732374515,"current_range_meters":37600,"station_id":"ce4bh0h2rcd13ifvqd60","pricing_plan_id":"cebpf4jnsgd1na2vs0mg"},{"bike_id":"7acd6c74-07c6-4dc7-bbb7-58fc2d12ad5a","system_id":"levelo_inurba_marseille","lat":43.29423,"lon":5.38619,"is_reserved":false,"is_disabled":false,"rental_uris":{"android":"levelo://app?vid=7acd6c74-07c6-4dc7-bbb7-58fc2d12ad5a","ios":"levelo://app?vid=7acd6c74-07c6-4dc7-bbb7-58fc2d12ad5a"},"vehicle_type_id":"4","last_reported":1732374515,"current_range_meters":30800,"station_id":"ce4bh2h2rcd13ifvqdh0","pricing_plan_id":"cebpf4jnsgd1na2vs0mg"},{"bike_id":"9c0b2639-faf8-4291-b0be-1f8ad2e4b2b3","system_id":"levelo_inurba_marseille","lat":43.31075,"lon":5.38365,"is_reserved":false,"is_disabled":true,"rental_uris":{"android":"levelo://app?vid=9c0b2639-faf8-4291-b0be-1f8ad2e4b2b3","ios":"levelo://app?vid=9c0b2639-faf8-4291-b0be-1f8ad2e4b2b3"},"vehicle_type_id":"4","last_reported":1732374515,"current_range_meters":400,"station_id":"ce4bgv92rcd13ifvqcr0","pricing_plan_id":"cebpf4jnsgd1na2vs0mg"},{"bike_id":"1172b7a9-ffa6-4d83-aa0c-0c9ed70ad152","system_id":"levelo_inurba_marseille","lat":43.26947,"lon":5.40253,"is_reserved":false,"is_disabled":false,"rental_uris":{"android":"levelo://app?vid=1172b7a9-ffa6-4d83-aa0c-0c9ed70ad152","ios":"levelo://app?vid=1172b7a9-ffa6-4d83-aa0c-0c9ed70ad152"},"vehicle_type_id":"4","last_reported":1732374515,"current_range_meters":9600,"station_id":"cjm6bp8fraef2m0cb0m0","pricing_plan_id":"cebpf4jnsgd1na2vs0mg"},{"bike_id":"5d89816e-0afd-4910-9a3d-37d05296c402","system_id":"levelo_inurba_marseille","lat":43.32481,"lon":5.36579,"is_reserved":false,"is_disabled":false,"rental_uris":{"android":"levelo://app?vid=5d89816e-0afd-4910-9a3d-37d05296c402","ios":"levelo://app?vid=5d89816e-0afd-4910-9a3d-37d05296c402"},"vehicle_type_id":"4","last_reported":1732374515,"current_range_meters":34800,"station_id":"ce4bhs12rcd13ifvqhvg","pricing_plan_id":"cebpf4jnsgd1na2vs0mg"},{"bike_id":"9832def2-9ea0-4378-b3ab-84846af45a61","system_id":"levelo_inurba_marseille","lat":43.30547,"lon":5.3655,"is_reserved":false,"is_disabled":false,"rental_uris":{"android":"levelo://app?vid=9832def2-9ea0-4378-b3ab-84846af45a61","ios":"levelo://app?vid=9832def2-9ea0-4378-b3ab-84846af45a61"},"vehicle_type_id":"4","last_reported":1732374515,"current_range_meters":36800,"station_id":"ce4bgs12rcd13ifvqcag","pricing_plan_id":"cebpf4jnsgd1na2vs0mg"},{"bike_id":"b6b5a138-8794-43b0-bdae-b5f56ca00c89","system_id":"levelo_inurba_marseille","lat":43.28144,"lon":5.42657,"is_reserved":false,"is_disabled":false,"rental_uris":{"android":"levelo://app?vid=b6b5a138-8794-43b0-bdae-b5f56ca00c89","ios":"levelo://app?vid=b6b5a138-8794-43b0-bdae-b5f56ca00c89"},"vehicle_type_id":"4","last_reported":1732374515,"current_range_meters":30000,"station_id":"ce4bhnh2rcd13ifvqgug","pricing_plan_id":"cebpf4jnsgd1na2vs0mg"},{"bike_id":"4cb716de-3f19-43d4-b34b-8b9ce425eaf2","system_id":"levelo_inurba_marseille","lat":43.25859,"lon":5.39904,"is_reserved":false,"is_disabled":false,"rental_uris":{"android":"levelo://app?vid=4cb716de-3f19-43d4-b34b-8b9ce425eaf2","ios":"levelo://app?vid=4cb716de-3f19-43d4-b34b-8b9ce425eaf2"},"vehicle_type_id":"4","last_reported":1732374515,"current_range_meters":24000,"station_id":"ce4bhl92rcd13ifvqghg","pricing_plan_id":"cebpf4jnsgd1na2vs0mg"},{"bike_id":"46d8e625-566a-4cb9-993c-eb60c9a4a91a","system_id":"levelo_inurba_marseille","lat":43.29569,"lon":5.37519,"is_reserved":false,"is_disabled":false,"rental_uris":{"android":"levelo://app?vid=46d8e625-566a-4cb9-993c-eb60c9a4a91a","ios":"levelo://app?vid=46d8e625-566a-4cb9-993c-eb60c9a4a91a"},"vehicle_type_id":"4","last_reported":1732374515,"current_range_meters":38800,"station_id":"ce4bgh92rcd13ifvqb50","pricing_plan_id":"cebpf4jnsgd1na2vs0mg"},{"bike_id":"f1c0194a-d687-4668-8c71-70ffc5515c4c","system_id":"levelo_inurba_marseille","lat":43.29581,"lon":5.3751,"is_reserved":false,"is_disabled":false,"rental_uris":{"android":"levelo://app?vid=f1c0194a-d687-4668-8c71-70ffc5515c4c","ios":"levelo://app?vid=f1c0194a-d687-4668-8c71-70ffc5515c4c"},"vehicle_type_id":"4","last_reported":1732374515,"current_range_meters":36000,"station_id":"ce4bgh92rcd13ifvqb50","pricing_plan_id":"cebpf4jnsgd1na2vs0mg"},{"bike_id":"a39fd15f-d160-4487-ba9f-a267a8fc4f2c","system_id":"levelo_inurba_marseille","lat":43.27201,"lon":5.39204,"is_reserved":false,"is_disabled":true,"rental_uris":{"android":"levelo://app?vid=a39fd15f-d160-4487-ba9f-a267a8fc4f2c","ios":"levelo://app?vid=a39fd15f-d160-4487-ba9f-a267a8fc4f2c"},"vehicle_type_id":"4","last_reported":1732374515,"current_range_meters":0,"station_id":"ce4bhhp2rcd13ifvqfm0","pricing_plan_id":"cebpf4jnsgd1na2vs0mg"},{"bike_id":"294eeb79-af1b-495a-909f-216801ae6b41","system_id":"levelo_inurba_marseille","lat":43.337444,"lon":5.374475,"is_reserved":false,"is_disabled":true,"rental_uris":{"android":"levelo://app?vid=294eeb79-af1b-495a-909f-216801ae6b41","ios":"levelo://app?vid=294eeb79-af1b-495a-909f-216801ae6b41"},"vehicle_type_id":"4","last_reported":1732374515,"current_range_meters":0,"station_id":"","pricing_plan_id":"cebpf4jnsgd1na2vs0mg"},{"bike_id":"3bd6839e-b7cc-4160-8bd6-7b324b297dfc","system_id":"levelo_inurba_marseille","lat":43.29966,"lon":5.38493,"is_reserved":false,"is_disabled":false,"rental_uris":{"android":"levelo://app?vid=3bd6839e-b7cc-4160-8bd6-7b324b297dfc","ios":"levelo://app?vid=3bd6839e-b7cc-4160-8bd6-7b324b297dfc"},"vehicle_type_id":"4","last_reported":1732374515,"current_range_meters":33600,"station_id":"ce4bgj92rcd13ifvqbd0","pricing_plan_id":"cebpf4jnsgd1na2vs0mg"},{"bike_id":"e5d63661-ea2d-4e9d-bdce-dbbf19d65c3c","system_id":"levelo_inurba_marseille","lat":43.32364,"lon":5.3676,"is_reserved":false,"is_disabled":false,"rental_uris":{"android":"levelo://app?vid=e5d63661-ea2d-4e9d-bdce-dbbf19d65c3c","ios":"levelo://app?vid=e5d63661-ea2d-4e9d-bdce-dbbf19d65c3c"},"vehicle_type_id":"4","last_reported":1732374515,"current_range_meters":38800,"station_id":"ce4bhsh2rcd13ifvqi2g","pricing_plan_id":"cebpf4jnsgd1na2vs0mg"},{"bike_id":"df06c092-2ff4-4bed-a1c0-2667e0a28798","system_id":"levelo_inurba_marseille","lat":43.27366,"lon":5.36255,"is_reserved":false,"is_disabled":false,"rental_uris":{"android":"levelo://app?vid=df06c092-2ff4-4bed-a1c0-2667e0a28798","ios":"levelo://app?vid=df06c092-2ff4-4bed-a1c0-2667e0a28798"},"vehicle_type_id":"4","last_reported":1732374515,"current_range_meters":38000,"station_id":"ce4bhbh2rcd13ifvqeo0","pricing_plan_id":"cebpf4jnsgd1na2vs0mg"},{"bike_id":"7f6795e7-a5b3-4a86-ac40-8cf5abbcf47f","system_id":"levelo_inurba_marseille","lat":43.28426,"lon":5.39198,"is_reserved":false,"is_disabled":false,"rental_uris":{"android":"levelo://app?vid=7f6795e7-a5b3-4a86-ac40-8cf5abbcf47f","ios":"levelo://app?vid=7f6795e7-a5b3-4a86-ac40-8cf5abbcf47f"},"vehicle_type_id":"4","last_reported":1732374515,"current_range_meters":25200,"station_id":"ce4bhoh2rcd13ifvqh5g","pricing_plan_id":"cebpf4jnsgd1na2vs0mg"},{"bike_id":"82836d88-a205-4698-83cb-ec433acb4526","system_id":"levelo_inurba_marseille","lat":43.22926,"lon":5.35379,"is_reserved":false,"is_disabled":false,"rental_uris":{"android":"levelo://app?vid=82836d88-a205-4698-83cb-ec433acb4526","ios":"levelo://app?vid=82836d88-a205-4698-83cb-ec433acb4526"},"vehicle_type_id":"4","last_reported":1732374515,"current_range_meters":22400,"station_id":"cpo3532slgdg3j2ikp40","pricing_plan_id":"cebpf4jnsgd1na2vs0mg"},{"bike_id":"90cc99af-54e0-4698-bffa-7f2f1beb1a95","system_id":"levelo_inurba_marseille","lat":43.27997,"lon":5.41661,"is_reserved":false,"is_disabled":false,"rental_uris":{"android":"levelo://app?vid=90cc99af-54e0-4698-bffa-7f2f1beb1a95","ios":"levelo://app?vid=90cc99af-54e0-4698-bffa-7f2f1beb1a95"},"vehicle_type_id":"4","last_reported":1732374515,"current_range_meters":38800,"station_id":"ce4bho12rcd13ifvqh1g","pricing_plan_id":"cebpf4jnsgd1na2vs0mg"},{"bike_id":"d4b783e1-dadd-4254-a73a-2de5d27d420d","system_id":"levelo_inurba_marseille","lat":43.27213,"lon":5.39189,"is_reserved":false,"is_disabled":false,"rental_uris":{"android":"levelo://app?vid=d4b783e1-dadd-4254-a73a-2de5d27d420d","ios":"levelo://app?vid=d4b783e1-dadd-4254-a73a-2de5d27d420d"},"vehicle_type_id":"4","last_reported":1732374515,"current_range_meters":8800,"station_id":"ce4bhhp2rcd13ifvqfm0","pricing_plan_id":"cebpf4jnsgd1na2vs0mg"},{"bike_id":"cd78312a-142a-42d0-92e1-dbc654bf8bb4","system_id":"levelo_inurba_marseille","lat":43.2418,"lon":5.39719,"is_reserved":false,"is_disabled":true,"rental_uris":{"android":"levelo://app?vid=cd78312a-142a-42d0-92e1-dbc654bf8bb4","ios":"levelo://app?vid=cd78312a-142a-42d0-92e1-dbc654bf8bb4"},"vehicle_type_id":"4","last_reported":1732374515,"current_range_meters":14000,"station_id":"ce4bhn12rcd13ifvqgpg","pricing_plan_id":"cebpf4jnsgd1na2vs0mg"},{"bike_id":"f28c82ad-6f3c-4c01-88a7-477b9b26f762","system_id":"levelo_inurba_marseille","lat":43.23958,"lon":5.36639,"is_reserved":false,"is_disabled":false,"rental_uris":{"android":"levelo://app?vid=f28c82ad-6f3c-4c01-88a7-477b9b26f762","ios":"levelo://app?vid=f28c82ad-6f3c-4c01-88a7-477b9b26f762"},"vehicle_type_id":"4","last_reported":1732374515,"current_range_meters":26800,"station_id":"ce4bhi12rcd13ifvqfp0","pricing_plan_id":"cebpf4jnsgd1na2vs0mg"},{"bike_id":"e7ac835b-e621-4c11-8999-ed0d5773c843","system_id":"levelo_inurba_marseille","lat":43.31721,"lon":5.42406,"is_reserved":false,"is_disabled":false,"rental_uris":{"android":"levelo://app?vid=e7ac835b-e621-4c11-8999-ed0d5773c843","ios":"levelo://app?vid=e7ac835b-e621-4c11-8999-ed0d5773c843"},"vehicle_type_id":"4","last_reported":1732374515,"current_range_meters":38800,"station_id":"ce4bhp92rcd13ifvqhbg","pricing_plan_id":"cebpf4jnsgd1na2vs0mg"},{"bike_id":"0cefe6d3-ab7a-420c-ae0e-038deb5c90da","system_id":"levelo_inurba_marseille","lat":43.28606,"lon":5.35128,"is_reserved":false,"is_disabled":false,"rental_uris":{"android":"levelo://app?vid=0cefe6d3-ab7a-420c-ae0e-038deb5c90da","ios":"levelo://app?vid=0cefe6d3-ab7a-420c-ae0e-038deb5c90da"},"vehicle_type_id":"4","last_reported":1732374515,"current_range_meters":38800,"station_id":"ce4bhch2rcd13ifvqeug","pricing_plan_id":"cebpf4jnsgd1na2vs0mg"},{"bike_id":"5689b724-a864-493d-bd82-108440b79093","system_id":"levelo_inurba_marseille","lat":43.27371,"lon":5.36268,"is_reserved":false,"is_disabled":true,"rental_uris":{"android":"levelo://app?vid=5689b724-a864-493d-bd82-108440b79093","ios":"levelo://app?vid=5689b724-a864-493d-bd82-108440b79093"},"vehicle_type_id":"4","last_reported":1732374515,"current_range_meters":0,"station_id":"ce4bhbh2rcd13ifvqeo0","pricing_plan_id":"cebpf4jnsgd1na2vs0mg"},{"bike_id":"43f6da94-5cf1-446e-9b8d-b4c4e86bf027","system_id":"levelo_inurba_marseille","lat":43.26191,"lon":5.37453,"is_reserved":false,"is_disabled":true,"rental_uris":{"android":"levelo://app?vid=43f6da94-5cf1-446e-9b8d-b4c4e86bf027","ios":"levelo://app?vid=43f6da94-5cf1-446e-9b8d-b4c4e86bf027"},"vehicle_type_id":"4","last_reported":1732374515,"current_range_meters":18800,"station_id":"ce4bhgp2rcd13ifvqfc0","pricing_plan_id":"cebpf4jnsgd1na2vs0mg"},{"bike_id":"0756b1d5-bb1a-4126-b4c5-131b45f383ba","system_id":"levelo_inurba_marseille","lat":43.29967,"lon":5.38487,"is_reserved":false,"is_disabled":false,"rental_uris":{"android":"levelo://app?vid=0756b1d5-bb1a-4126-b4c5-131b45f383ba","ios":"levelo://app?vid=0756b1d5-bb1a-4126-b4c5-131b45f383ba"},"vehicle_type_id":"4","last_reported":1732374515,"current_range_meters":24800,"station_id":"ce4bgj92rcd13ifvqbd0","pricing_plan_id":"cebpf4jnsgd1na2vs0mg"},{"bike_id":"994195f6-b5da-4158-a5b5-8b38baad32b0","system_id":"levelo_inurba_marseille","lat":43.33733,"lon":5.39187,"is_reserved":false,"is_disabled":false,"rental_uris":{"android":"levelo://app?vid=994195f6-b5da-4158-a5b5-8b38baad32b0","ios":"levelo://app?vid=994195f6-b5da-4158-a5b5-8b38baad32b0"},"vehicle_type_id":"4","last_reported":1732374515,"current_range_meters":32000,"station_id":"ce4bhr92rcd13ifvqhsg","pricing_plan_id":"cebpf4jnsgd1na2vs0mg"},{"bike_id":"7c2f19f3-5373-4c2a-87bb-e1fd3ef39822","system_id":"levelo_inurba_marseille","lat":43.26559,"lon":5.3903,"is_reserved":false,"is_disabled":true,"rental_uris":{"android":"levelo://app?vid=7c2f19f3-5373-4c2a-87bb-e1fd3ef39822","ios":"levelo://app?vid=7c2f19f3-5373-4c2a-87bb-e1fd3ef39822"},"vehicle_type_id":"4","last_reported":1732374515,"current_range_meters":24800,"station_id":"ce4bhe12rcd13ifvqf30","pricing_plan_id":"cebpf4jnsgd1na2vs0mg"},{"bike_id":"36ef9a42-f4d8-45f5-adc2-b51fb9b962d0","system_id":"levelo_inurba_marseille","lat":43.34143,"lon":5.40899,"is_reserved":false,"is_disabled":false,"rental_uris":{"android":"levelo://app?vid=36ef9a42-f4d8-45f5-adc2-b51fb9b962d0","ios":"levelo://app?vid=36ef9a42-f4d8-45f5-adc2-b51fb9b962d0"},"vehicle_type_id":"4","last_reported":1732374515,"current_range_meters":38800,"station_id":"ce4bhqh2rcd13ifvqhlg","pricing_plan_id":"cebpf4jnsgd1na2vs0mg"},{"bike_id":"c04936aa-7f1e-40be-98cd-ea995a095345","system_id":"levelo_inurba_marseille","lat":43.30462,"lon":5.37912,"is_reserved":false,"is_disabled":false,"rental_uris":{"android":"levelo://app?vid=c04936aa-7f1e-40be-98cd-ea995a095345","ios":"levelo://app?vid=c04936aa-7f1e-40be-98cd-ea995a095345"},"vehicle_type_id":"4","last_reported":1732374515,"current_range_meters":26800,"station_id":"ce4bgup2rcd13ifvqcn0","pricing_plan_id":"cebpf4jnsgd1na2vs0mg"},{"bike_id":"6ce6086b-6084-46f4-ba4b-69f8aaaa51b2","system_id":"levelo_inurba_marseille","lat":43.30527,"lon":5.38439,"is_reserved":false,"is_disabled":true,"rental_uris":{"android":"levelo://app?vid=6ce6086b-6084-46f4-ba4b-69f8aaaa51b2","ios":"levelo://app?vid=6ce6086b-6084-46f4-ba4b-69f8aaaa51b2"},"vehicle_type_id":"4","last_reported":1732374515,"current_range_meters":28400,"station_id":"ce4bgg92rcd13ifvqb30","pricing_plan_id":"cebpf4jnsgd1na2vs0mg"},{"bike_id":"1fe36207-a189-42b7-a2ae-a1bed57e3dd0","system_id":"levelo_inurba_marseille","lat":43.26027,"lon":5.3755,"is_reserved":false,"is_disabled":false,"rental_uris":{"android":"levelo://app?vid=1fe36207-a189-42b7-a2ae-a1bed57e3dd0","ios":"levelo://app?vid=1fe36207-a189-42b7-a2ae-a1bed57e3dd0"},"vehicle_type_id":"4","last_reported":1732374515,"current_range_meters":12400,"station_id":"ce4bhgh2rcd13ifvqfa0","pricing_plan_id":"cebpf4jnsgd1na2vs0mg"},{"bike_id":"c44f537a-bc33-4d10-ad80-2dc8e659d7be","system_id":"levelo_inurba_marseille","lat":43.31708,"lon":5.37752,"is_reserved":false,"is_disabled":false,"rental_uris":{"android":"levelo://app?vid=c44f537a-bc33-4d10-ad80-2dc8e659d7be","ios":"levelo://app?vid=c44f537a-bc33-4d10-ad80-2dc8e659d7be"},"vehicle_type_id":"4","last_reported":1732374515,"current_range_meters":22800,"station_id":"ce4bgth2rcd13ifvqch0","pricing_plan_id":"cebpf4jnsgd1na2vs0mg"},{"bike_id":"52b3cfab-ef16-4507-aad3-df30263ecf88","system_id":"levelo_inurba_marseille","lat":43.26952,"lon":5.38634,"is_reserved":false,"is_disabled":false,"rental_uris":{"android":"levelo://app?vid=52b3cfab-ef16-4507-aad3-df30263ecf88","ios":"levelo://app?vid=52b3cfab-ef16-4507-aad3-df30263ecf88"},"vehicle_type_id":"4","last_reported":1732374515,"current_range_meters":17200,"station_id":"ce4bhh92rcd13ifvqfh0","pricing_plan_id":"cebpf4jnsgd1na2vs0mg"},{"bike_id":"366072ca-5227-48b7-9eec-96712af9ad1e","system_id":"levelo_inurba_marseille","lat":43.26812,"lon":5.40256,"is_reserved":false,"is_disabled":false,"rental_uris":{"android":"levelo://app?vid=366072ca-5227-48b7-9eec-96712af9ad1e","ios":"levelo://app?vid=366072ca-5227-48b7-9eec-96712af9ad1e"},"vehicle_type_id":"4","last_reported":1732374515,"current_range_meters":9600,"station_id":"ce501612rcd8frsf0b60","pricing_plan_id":"cebpf4jnsgd1na2vs0mg"},{"bike_id":"974b45d9-3e9e-46a0-bc0f-461f5453a67a","system_id":"levelo_inurba_marseille","lat":43.3019,"lon":5.3662,"is_reserved":false,"is_disabled":false,"rental_uris":{"android":"levelo://app?vid=974b45d9-3e9e-46a0-bc0f-461f5453a67a","ios":"levelo://app?vid=974b45d9-3e9e-46a0-bc0f-461f5453a67a"},"vehicle_type_id":"4","last_reported":1732374515,"current_range_meters":14000,"station_id":"ce4bgrh2rcd13ifvqc8g","pricing_plan_id":"cebpf4jnsgd1na2vs0mg"},{"bike_id":"50e385e3-0ee7-427c-8711-07fe7da0b388","system_id":"levelo_inurba_marseille","lat":43.28425,"lon":5.39223,"is_reserved":false,"is_disabled":false,"rental_uris":{"android":"levelo://app?vid=50e385e3-0ee7-427c-8711-07fe7da0b388","ios":"levelo://app?vid=50e385e3-0ee7-427c-8711-07fe7da0b388"},"vehicle_type_id":"4","last_reported":1732374515,"current_range_meters":24000,"station_id":"ce4bhoh2rcd13ifvqh5g","pricing_plan_id":"cebpf4jnsgd1na2vs0mg"},{"bike_id":"db32add3-6121-4d3d-b2ce-225f1865f13c","system_id":"levelo_inurba_marseille","lat":43.30286,"lon":5.37705,"is_reserved":false,"is_disabled":false,"rental_uris":{"android":"levelo://app?vid=db32add3-6121-4d3d-b2ce-225f1865f13c","ios":"levelo://app?vid=db32add3-6121-4d3d-b2ce-225f1865f13c"},"vehicle_type_id":"4","last_reported":1732374515,"current_range_meters":38800,"station_id":"ce4bguh2rcd13ifvqcj0","pricing_plan_id":"cebpf4jnsgd1na2vs0mg"},{"bike_id":"d801ce11-890d-4a16-a5d8-fdc1b4a44d21","system_id":"levelo_inurba_marseille","lat":43.30548,"lon":5.36702,"is_reserved":false,"is_disabled":true,"rental_uris":{"android":"levelo://app?vid=d801ce11-890d-4a16-a5d8-fdc1b4a44d21","ios":"levelo://app?vid=d801ce11-890d-4a16-a5d8-fdc1b4a44d21"},"vehicle_type_id":"4","last_reported":1732374515,"current_range_meters":0,"station_id":"ce4bgrp2rcd13ifvqc9g","pricing_plan_id":"cebpf4jnsgd1na2vs0mg"},{"bike_id":"8b4b97a8-42b9-4926-9398-a619d64e380e","system_id":"levelo_inurba_marseille","lat":43.29723,"lon":5.37686,"is_reserved":false,"is_disabled":false,"rental_uris":{"android":"levelo://app?vid=8b4b97a8-42b9-4926-9398-a619d64e380e","ios":"levelo://app?vid=8b4b97a8-42b9-4926-9398-a619d64e380e"},"vehicle_type_id":"4","last_reported":1732374515,"current_range_meters":36800,"station_id":"ce4bgkh2rcd13ifvqbl0","pricing_plan_id":"cebpf4jnsgd1na2vs0mg"},{"bike_id":"97437fd5-e381-403b-962e-cf899defef24","system_id":"levelo_inurba_marseille","lat":43.32472,"lon":5.3658,"is_reserved":false,"is_disabled":false,"rental_uris":{"android":"levelo://app?vid=97437fd5-e381-403b-962e-cf899defef24","ios":"levelo://app?vid=97437fd5-e381-403b-962e-cf899defef24"},"vehicle_type_id":"4","last_reported":1732374515,"current_range_meters":24800,"station_id":"ce4bhs12rcd13ifvqhvg","pricing_plan_id":"cebpf4jnsgd1na2vs0mg"},{"bike_id":"68f9bc67-7a46-4c54-8555-1eed96ca8ef0","system_id":"levelo_inurba_marseille","lat":43.32107,"lon":5.36778,"is_reserved":false,"is_disabled":false,"rental_uris":{"android":"levelo://app?vid=68f9bc67-7a46-4c54-8555-1eed96ca8ef0","ios":"levelo://app?vid=68f9bc67-7a46-4c54-8555-1eed96ca8ef0"},"vehicle_type_id":"4","last_reported":1732374515,"current_range_meters":36400,"station_id":"ce4bhrh2rcd13ifvqhug","pricing_plan_id":"cebpf4jnsgd1na2vs0mg"},{"bike_id":"4d1fc215-00a8-43c1-a56d-07dfeae9adce","system_id":"levelo_inurba_marseille","lat":43.32069,"lon":5.41546,"is_reserved":false,"is_disabled":false,"rental_uris":{"android":"levelo://app?vid=4d1fc215-00a8-43c1-a56d-07dfeae9adce","ios":"levelo://app?vid=4d1fc215-00a8-43c1-a56d-07dfeae9adce"},"vehicle_type_id":"4","last_reported":1732374515,"current_range_meters":19200,"station_id":"ce4bhq92rcd13ifvqhkg","pricing_plan_id":"cebpf4jnsgd1na2vs0mg"},{"bike_id":"3749f547-26de-49f3-8704-9a5a504b68f5","system_id":"levelo_inurba_marseille","lat":43.25573,"lon":5.38235,"is_reserved":false,"is_disabled":false,"rental_uris":{"android":"levelo://app?vid=3749f547-26de-49f3-8704-9a5a504b68f5","ios":"levelo://app?vid=3749f547-26de-49f3-8704-9a5a504b68f5"},"vehicle_type_id":"4","last_reported":1732374515,"current_range_meters":3200,"station_id":"ce4bhih2rcd13ifvqfs0","pricing_plan_id":"cebpf4jnsgd1na2vs0mg"},{"bike_id":"438578fc-7baf-4f66-a3b2-0426d16984fc","system_id":"levelo_inurba_marseille","lat":43.27069,"lon":5.42281,"is_reserved":false,"is_disabled":false,"rental_uris":{"android":"levelo://app?vid=438578fc-7baf-4f66-a3b2-0426d16984fc","ios":"levelo://app?vid=438578fc-7baf-4f66-a3b2-0426d16984fc"},"vehicle_type_id":"4","last_reported":1732374515,"current_range_meters":30000,"station_id":"ce4bhk92rcd13ifvqgb0","pricing_plan_id":"cebpf4jnsgd1na2vs0mg"},{"bike_id":"ba94a3ab-b315-4a5b-b16b-84b646d1c56f","system_id":"levelo_inurba_marseille","lat":43.29003,"lon":5.35613,"is_reserved":false,"is_disabled":false,"rental_uris":{"android":"levelo://app?vid=ba94a3ab-b315-4a5b-b16b-84b646d1c56f","ios":"levelo://app?vid=ba94a3ab-b315-4a5b-b16b-84b646d1c56f"},"vehicle_type_id":"4","last_reported":1732374515,"current_range_meters":38800,"station_id":"ce4bhb92rcd13ifvqen0","pricing_plan_id":"cebpf4jnsgd1na2vs0mg"},{"bike_id":"2ab441a9-1b13-4dc8-8864-56f8b336cf72","system_id":"levelo_inurba_marseille","lat":43.28265,"lon":5.35061,"is_reserved":false,"is_disabled":false,"rental_uris":{"android":"levelo://app?vid=2ab441a9-1b13-4dc8-8864-56f8b336cf72","ios":"levelo://app?vid=2ab441a9-1b13-4dc8-8864-56f8b336cf72"},"vehicle_type_id":"4","last_reported":1732374515,"current_range_meters":4000,"station_id":"ce4bhbp2rcd13ifvqerg","pricing_plan_id":"cebpf4jnsgd1na2vs0mg"},{"bike_id":"3c5d0254-2542-44e0-aa08-1a8753e937a8","system_id":"levelo_inurba_marseille","lat":43.266871,"lon":5.382726,"is_reserved":false,"is_disabled":false,"rental_uris":{"android":"levelo://app?vid=3c5d0254-2542-44e0-aa08-1a8753e937a8","ios":"levelo://app?vid=3c5d0254-2542-44e0-aa08-1a8753e937a8"},"vehicle_type_id":"4","last_reported":1732374515,"current_range_meters":35600,"station_id":"ce4bhg92rcd13ifvqf90","pricing_plan_id":"cebpf4jnsgd1na2vs0mg"},{"bike_id":"dd3b09fe-b71a-401a-b299-a88383f47f1c","system_id":"levelo_inurba_marseille","lat":43.337444,"lon":5.374475,"is_reserved":false,"is_disabled":false,"rental_uris":{"android":"levelo://app?vid=dd3b09fe-b71a-401a-b299-a88383f47f1c","ios":"levelo://app?vid=dd3b09fe-b71a-401a-b299-a88383f47f1c"},"vehicle_type_id":"4","last_reported":1732374515,"current_range_meters":35200,"station_id":"","pricing_plan_id":"cebpf4jnsgd1na2vs0mg"},{"bike_id":"4eb71145-30b6-4a2e-a3f0-4605f79e1bcf","system_id":"levelo_inurba_marseille","lat":43.337444,"lon":5.374475,"is_reserved":false,"is_disabled":false,"rental_uris":{"android":"levelo://app?vid=4eb71145-30b6-4a2e-a3f0-4605f79e1bcf","ios":"levelo://app?vid=4eb71145-30b6-4a2e-a3f0-4605f79e1bcf"},"vehicle_type_id":"4","last_reported":1732374515,"current_range_meters":38800,"station_id":"","pricing_plan_id":"cebpf4jnsgd1na2vs0mg"},{"bike_id":"c74abcec-f83d-46ae-b5a9-0a57cc1c1c41","system_id":"levelo_inurba_marseille","lat":43.27618,"lon":5.36118,"is_reserved":false,"is_disabled":false,"rental_uris":{"android":"levelo://app?vid=c74abcec-f83d-46ae-b5a9-0a57cc1c1c41","ios":"levelo://app?vid=c74abcec-f83d-46ae-b5a9-0a57cc1c1c41"},"vehicle_type_id":"4","last_reported":1732374515,"current_range_meters":33600,"station_id":"ce4bgj92rcd13ifvqbe0","pricing_plan_id":"cebpf4jnsgd1na2vs0mg"},{"bike_id":"18908abd-a4d4-4295-9e48-1b1b9f6bc1b0","system_id":"levelo_inurba_marseille","lat":43.2681,"lon":5.4028,"is_reserved":false,"is_disabled":false,"rental_uris":{"android":"levelo://app?vid=18908abd-a4d4-4295-9e48-1b1b9f6bc1b0","ios":"levelo://app?vid=18908abd-a4d4-4295-9e48-1b1b9f6bc1b0"},"vehicle_type_id":"4","last_reported":1732374515,"current_range_meters":37600,"station_id":"ce501612rcd8frsf0b60","pricing_plan_id":"cebpf4jnsgd1na2vs0mg"},{"bike_id":"c3a9fd83-5a98-42b2-a8f7-5104c351d62e","system_id":"levelo_inurba_marseille","lat":43.30453,"lon":5.3791,"is_reserved":false,"is_disabled":false,"rental_uris":{"android":"levelo://app?vid=c3a9fd83-5a98-42b2-a8f7-5104c351d62e","ios":"levelo://app?vid=c3a9fd83-5a98-42b2-a8f7-5104c351d62e"},"vehicle_type_id":"4","last_reported":1732374515,"current_range_meters":38000,"station_id":"ce4bgup2rcd13ifvqcn0","pricing_plan_id":"cebpf4jnsgd1na2vs0mg"},{"bike_id":"a07f3b18-b7e9-4865-b1d3-2e0773f13888","system_id":"levelo_inurba_marseille","lat":43.24805,"lon":5.37458,"is_reserved":false,"is_disabled":true,"rental_uris":{"android":"levelo://app?vid=a07f3b18-b7e9-4865-b1d3-2e0773f13888","ios":"levelo://app?vid=a07f3b18-b7e9-4865-b1d3-2e0773f13888"},"vehicle_type_id":"4","last_reported":1732374515,"current_range_meters":0,"station_id":"ce4bhgh2rcd13ifvqfb0","pricing_plan_id":"cebpf4jnsgd1na2vs0mg"},{"bike_id":"3edd3c32-33a6-4339-8295-bbb6b3fde492","system_id":"levelo_inurba_marseille","lat":43.27436,"lon":5.39414,"is_reserved":false,"is_disabled":false,"rental_uris":{"android":"levelo://app?vid=3edd3c32-33a6-4339-8295-bbb6b3fde492","ios":"levelo://app?vid=3edd3c32-33a6-4339-8295-bbb6b3fde492"},"vehicle_type_id":"4","last_reported":1732374515,"current_range_meters":36400,"station_id":"ce4bhdp2rcd13ifvqf20","pricing_plan_id":"cebpf4jnsgd1na2vs0mg"},{"bike_id":"cbc2167d-639d-4b33-b914-3ad6f36f2868","system_id":"levelo_inurba_marseille","lat":43.22921,"lon":5.35384,"is_reserved":false,"is_disabled":false,"rental_uris":{"android":"levelo://app?vid=cbc2167d-639d-4b33-b914-3ad6f36f2868","ios":"levelo://app?vid=cbc2167d-639d-4b33-b914-3ad6f36f2868"},"vehicle_type_id":"4","last_reported":1732374515,"current_range_meters":6400,"station_id":"cpo3532slgdg3j2ikp40","pricing_plan_id":"cebpf4jnsgd1na2vs0mg"},{"bike_id":"f76bc422-5d17-49d3-bcf5-7f21c6768b82","system_id":"levelo_inurba_marseille","lat":43.24388,"lon":5.37058,"is_reserved":false,"is_disabled":false,"rental_uris":{"android":"levelo://app?vid=f76bc422-5d17-49d3-bcf5-7f21c6768b82","ios":"levelo://app?vid=f76bc422-5d17-49d3-bcf5-7f21c6768b82"},"vehicle_type_id":"4","last_reported":1732374515,"current_range_meters":14400,"station_id":"ce4bhhh2rcd13ifvqfk0","pricing_plan_id":"cebpf4jnsgd1na2vs0mg"},{"bike_id":"532e91cb-ed24-45ba-8475-61a20451dcb6","system_id":"levelo_inurba_marseille","lat":43.29624,"lon":5.37153,"is_reserved":false,"is_disabled":false,"rental_uris":{"android":"levelo://app?vid=532e91cb-ed24-45ba-8475-61a20451dcb6","ios":"levelo://app?vid=532e91cb-ed24-45ba-8475-61a20451dcb6"},"vehicle_type_id":"4","last_reported":1732374515,"current_range_meters":28400,"station_id":"ce4bgnh2rcd13ifvqc0g","pricing_plan_id":"cebpf4jnsgd1na2vs0mg"},{"bike_id":"e8ed3a9c-99ba-439f-8ec2-dab84443550a","system_id":"levelo_inurba_marseille","lat":43.27212,"lon":5.39188,"is_reserved":false,"is_disabled":false,"rental_uris":{"android":"levelo://app?vid=e8ed3a9c-99ba-439f-8ec2-dab84443550a","ios":"levelo://app?vid=e8ed3a9c-99ba-439f-8ec2-dab84443550a"},"vehicle_type_id":"4","last_reported":1732374515,"current_range_meters":8000,"station_id":"ce4bhhp2rcd13ifvqfm0","pricing_plan_id":"cebpf4jnsgd1na2vs0mg"},{"bike_id":"635f2088-37d7-4c7e-b140-3292398be605","system_id":"levelo_inurba_marseille","lat":43.24813,"lon":5.37465,"is_reserved":false,"is_disabled":false,"rental_uris":{"android":"levelo://app?vid=635f2088-37d7-4c7e-b140-3292398be605","ios":"levelo://app?vid=635f2088-37d7-4c7e-b140-3292398be605"},"vehicle_type_id":"4","last_reported":1732374515,"current_range_meters":38800,"station_id":"ce4bhgh2rcd13ifvqfb0","pricing_plan_id":"cebpf4jnsgd1na2vs0mg"},{"bike_id":"e6cd0c8f-d7f7-4b8c-b79a-5062102cc9cc","system_id":"levelo_inurba_marseille","lat":43.29566,"lon":5.3753,"is_reserved":false,"is_disabled":false,"rental_uris":{"android":"levelo://app?vid=e6cd0c8f-d7f7-4b8c-b79a-5062102cc9cc","ios":"levelo://app?vid=e6cd0c8f-d7f7-4b8c-b79a-5062102cc9cc"},"vehicle_type_id":"4","last_reported":1732374515,"current_range_meters":38800,"station_id":"ce4bgh92rcd13ifvqb50","pricing_plan_id":"cebpf4jnsgd1na2vs0mg"},{"bike_id":"80a07c7e-8f0d-4cd8-8976-ce6594ea6cae","system_id":"levelo_inurba_marseille","lat":43.30208,"lon":5.3947,"is_reserved":false,"is_disabled":false,"rental_uris":{"android":"levelo://app?vid=80a07c7e-8f0d-4cd8-8976-ce6594ea6cae","ios":"levelo://app?vid=80a07c7e-8f0d-4cd8-8976-ce6594ea6cae"},"vehicle_type_id":"4","last_reported":1732374515,"current_range_meters":33200,"station_id":"ce4bh0p2rcd13ifvqd70","pricing_plan_id":"cebpf4jnsgd1na2vs0mg"},{"bike_id":"f796b412-9140-415f-9f98-4b489dc2b14e","system_id":"levelo_inurba_marseille","lat":43.26945,"lon":5.4025,"is_reserved":false,"is_disabled":false,"rental_uris":{"android":"levelo://app?vid=f796b412-9140-415f-9f98-4b489dc2b14e","ios":"levelo://app?vid=f796b412-9140-415f-9f98-4b489dc2b14e"},"vehicle_type_id":"4","last_reported":1732374515,"current_range_meters":36400,"station_id":"cjm6bp8fraef2m0cb0m0","pricing_plan_id":"cebpf4jnsgd1na2vs0mg"},{"bike_id":"2ef3590f-ee6c-4812-a8c2-51232b0fffaf","system_id":"levelo_inurba_marseille","lat":43.26556,"lon":5.37286,"is_reserved":false,"is_disabled":true,"rental_uris":{"android":"levelo://app?vid=2ef3590f-ee6c-4812-a8c2-51232b0fffaf","ios":"levelo://app?vid=2ef3590f-ee6c-4812-a8c2-51232b0fffaf"},"vehicle_type_id":"4","last_reported":1732374515,"current_range_meters":0,"station_id":"ce4bhg12rcd13ifvqf70","pricing_plan_id":"cebpf4jnsgd1na2vs0mg"},{"bike_id":"2671fb8a-3452-46fd-bec4-bd169133378c","system_id":"levelo_inurba_marseille","lat":43.26682,"lon":5.38268,"is_reserved":false,"is_disabled":true,"rental_uris":{"android":"levelo://app?vid=2671fb8a-3452-46fd-bec4-bd169133378c","ios":"levelo://app?vid=2671fb8a-3452-46fd-bec4-bd169133378c"},"vehicle_type_id":"4","last_reported":1732374515,"current_range_meters":0,"station_id":"ce4bhg92rcd13ifvqf90","pricing_plan_id":"cebpf4jnsgd1na2vs0mg"},{"bike_id":"a89ea2d2-9f7a-4ca0-b4c6-6693004d86cf","system_id":"levelo_inurba_marseille","lat":43.24806,"lon":5.37456,"is_reserved":false,"is_disabled":false,"rental_uris":{"android":"levelo://app?vid=a89ea2d2-9f7a-4ca0-b4c6-6693004d86cf","ios":"levelo://app?vid=a89ea2d2-9f7a-4ca0-b4c6-6693004d86cf"},"vehicle_type_id":"4","last_reported":1732374515,"current_range_meters":2800,"station_id":"ce4bhgh2rcd13ifvqfb0","pricing_plan_id":"cebpf4jnsgd1na2vs0mg"},{"bike_id":"7db50f85-b019-4af7-96ce-3c3b903b728b","system_id":"levelo_inurba_marseille","lat":43.30795,"lon":5.43527,"is_reserved":false,"is_disabled":true,"rental_uris":{"android":"levelo://app?vid=7db50f85-b019-4af7-96ce-3c3b903b728b","ios":"levelo://app?vid=7db50f85-b019-4af7-96ce-3c3b903b728b"},"vehicle_type_id":"4","last_reported":1732374515,"current_range_meters":0,"station_id":"ce4bhph2rcd13ifvqheg","pricing_plan_id":"cebpf4jnsgd1na2vs0mg"},{"bike_id":"8cb93d1c-a910-472f-9421-f81fed5a3c4c","system_id":"levelo_inurba_marseille","lat":43.29531,"lon":5.38551,"is_reserved":false,"is_disabled":false,"rental_uris":{"android":"levelo://app?vid=8cb93d1c-a910-472f-9421-f81fed5a3c4c","ios":"levelo://app?vid=8cb93d1c-a910-472f-9421-f81fed5a3c4c"},"vehicle_type_id":"4","last_reported":1732374515,"current_range_meters":3200,"station_id":"ce4bgih2rcd13ifvqba0","pricing_plan_id":"cebpf4jnsgd1na2vs0mg"},{"bike_id":"858b65e1-94fc-4151-a71e-8b168cb19dcb","system_id":"levelo_inurba_marseille","lat":43.30799,"lon":5.3816,"is_reserved":false,"is_disabled":true,"rental_uris":{"android":"levelo://app?vid=858b65e1-94fc-4151-a71e-8b168cb19dcb","ios":"levelo://app?vid=858b65e1-94fc-4151-a71e-8b168cb19dcb"},"vehicle_type_id":"4","last_reported":1732374515,"current_range_meters":8800,"station_id":"ce4bgt12rcd13ifvqce0","pricing_plan_id":"cebpf4jnsgd1na2vs0mg"},{"bike_id":"d21f3514-3a1b-468c-a74b-86559a117b5b","system_id":"levelo_inurba_marseille","lat":43.29845,"lon":5.3629,"is_reserved":false,"is_disabled":false,"rental_uris":{"android":"levelo://app?vid=d21f3514-3a1b-468c-a74b-86559a117b5b","ios":"levelo://app?vid=d21f3514-3a1b-468c-a74b-86559a117b5b"},"vehicle_type_id":"4","last_reported":1732374515,"current_range_meters":30000,"station_id":"ce4bgpp2rcd13ifvqc3g","pricing_plan_id":"cebpf4jnsgd1na2vs0mg"},{"bike_id":"f099390a-c100-4560-9274-ff7be92824ac","system_id":"levelo_inurba_marseille","lat":43.30295,"lon":5.377,"is_reserved":false,"is_disabled":false,"rental_uris":{"android":"levelo://app?vid=f099390a-c100-4560-9274-ff7be92824ac","ios":"levelo://app?vid=f099390a-c100-4560-9274-ff7be92824ac"},"vehicle_type_id":"4","last_reported":1732374515,"current_range_meters":38800,"station_id":"ce4bguh2rcd13ifvqcj0","pricing_plan_id":"cebpf4jnsgd1na2vs0mg"},{"bike_id":"133c0635-6ac4-49a6-b3b8-4ad5dda949c5","system_id":"levelo_inurba_marseille","lat":43.31695,"lon":5.37689,"is_reserved":false,"is_disabled":true,"rental_uris":{"android":"levelo://app?vid=133c0635-6ac4-49a6-b3b8-4ad5dda949c5","ios":"levelo://app?vid=133c0635-6ac4-49a6-b3b8-4ad5dda949c5"},"vehicle_type_id":"4","last_reported":1732374515,"current_range_meters":38800,"station_id":"ce4bgth2rcd13ifvqch0","pricing_plan_id":"cebpf4jnsgd1na2vs0mg"},{"bike_id":"1c2e9f24-f8cb-4637-a9f2-78db5aee2700","system_id":"levelo_inurba_marseille","lat":43.28346,"lon":5.38107,"is_reserved":false,"is_disabled":false,"rental_uris":{"android":"levelo://app?vid=1c2e9f24-f8cb-4637-a9f2-78db5aee2700","ios":"levelo://app?vid=1c2e9f24-f8cb-4637-a9f2-78db5aee2700"},"vehicle_type_id":"4","last_reported":1732374515,"current_range_meters":33200,"station_id":"ce4bh412rcd13ifvqdr0","pricing_plan_id":"cebpf4jnsgd1na2vs0mg"},{"bike_id":"3726cdd9-358e-495c-b71f-c2660123ac55","system_id":"levelo_inurba_marseille","lat":43.28669,"lon":5.36356,"is_reserved":false,"is_disabled":false,"rental_uris":{"android":"levelo://app?vid=3726cdd9-358e-495c-b71f-c2660123ac55","ios":"levelo://app?vid=3726cdd9-358e-495c-b71f-c2660123ac55"},"vehicle_type_id":"4","last_reported":1732374515,"current_range_meters":36800,"station_id":"ce4bhah2rcd13ifvqej0","pricing_plan_id":"cebpf4jnsgd1na2vs0mg"},{"bike_id":"dffeccd3-600e-418b-9fc1-99c6dfe6c759","system_id":"levelo_inurba_marseille","lat":43.301377,"lon":5.374176,"is_reserved":false,"is_disabled":false,"rental_uris":{"android":"levelo://app?vid=dffeccd3-600e-418b-9fc1-99c6dfe6c759","ios":"levelo://app?vid=dffeccd3-600e-418b-9fc1-99c6dfe6c759"},"vehicle_type_id":"4","last_reported":1732374515,"current_range_meters":22000,"station_id":"ce4bgs92rcd13ifvqcc0","pricing_plan_id":"cebpf4jnsgd1na2vs0mg"},{"bike_id":"adb4a6c6-5a6e-4085-970a-e1f3b687d21d","system_id":"levelo_inurba_marseille","lat":43.241211,"lon":5.378519,"is_reserved":false,"is_disabled":true,"rental_uris":{"android":"levelo://app?vid=adb4a6c6-5a6e-4085-970a-e1f3b687d21d","ios":"levelo://app?vid=adb4a6c6-5a6e-4085-970a-e1f3b687d21d"},"vehicle_type_id":"4","last_reported":1732374515,"current_range_meters":0,"station_id":"ce4bhnp2rcd13ifvqgvg","pricing_plan_id":"cebpf4jnsgd1na2vs0mg"},{"bike_id":"c9880b47-fbbb-4e4a-9da2-2304114fa137","system_id":"levelo_inurba_marseille","lat":43.26032,"lon":5.37546,"is_reserved":false,"is_disabled":false,"rental_uris":{"android":"levelo://app?vid=c9880b47-fbbb-4e4a-9da2-2304114fa137","ios":"levelo://app?vid=c9880b47-fbbb-4e4a-9da2-2304114fa137"},"vehicle_type_id":"4","last_reported":1732374515,"current_range_meters":11200,"station_id":"ce4bhgh2rcd13ifvqfa0","pricing_plan_id":"cebpf4jnsgd1na2vs0mg"},{"bike_id":"740aa137-292d-4d79-9e5a-0f15a2258cd8","system_id":"levelo_inurba_marseille","lat":43.29254,"lon":5.40157,"is_reserved":false,"is_disabled":false,"rental_uris":{"android":"levelo://app?vid=740aa137-292d-4d79-9e5a-0f15a2258cd8","ios":"levelo://app?vid=740aa137-292d-4d79-9e5a-0f15a2258cd8"},"vehicle_type_id":"4","last_reported":1732374515,"current_range_meters":37600,"station_id":"ce4bh312rcd13ifvqdk0","pricing_plan_id":"cebpf4jnsgd1na2vs0mg"},{"bike_id":"f7033b3a-38b5-43ec-9dfb-9338084bda7e","system_id":"levelo_inurba_marseille","lat":43.26065,"lon":5.39402,"is_reserved":false,"is_disabled":false,"rental_uris":{"android":"levelo://app?vid=f7033b3a-38b5-43ec-9dfb-9338084bda7e","ios":"levelo://app?vid=f7033b3a-38b5-43ec-9dfb-9338084bda7e"},"vehicle_type_id":"4","last_reported":1732374515,"current_range_meters":6000,"station_id":"ce4bhh92rcd13ifvqfj0","pricing_plan_id":"cebpf4jnsgd1na2vs0mg"},{"bike_id":"552ae1f9-34eb-4d70-a19b-3616d3661778","system_id":"levelo_inurba_marseille","lat":43.33723,"lon":5.39185,"is_reserved":false,"is_disabled":false,"rental_uris":{"android":"levelo://app?vid=552ae1f9-34eb-4d70-a19b-3616d3661778","ios":"levelo://app?vid=552ae1f9-34eb-4d70-a19b-3616d3661778"},"vehicle_type_id":"4","last_reported":1732374515,"current_range_meters":20400,"station_id":"ce4bhr92rcd13ifvqhsg","pricing_plan_id":"cebpf4jnsgd1na2vs0mg"},{"bike_id":"f7f3756c-1ec7-4782-9c87-6273f87b6774","system_id":"levelo_inurba_marseille","lat":43.337444,"lon":5.374475,"is_reserved":false,"is_disabled":true,"rental_uris":{"android":"levelo://app?vid=f7f3756c-1ec7-4782-9c87-6273f87b6774","ios":"levelo://app?vid=f7f3756c-1ec7-4782-9c87-6273f87b6774"},"vehicle_type_id":"4","last_reported":1732374515,"current_range_meters":32800,"station_id":"","pricing_plan_id":"cebpf4jnsgd1na2vs0mg"},{"bike_id":"740f162e-a0c7-4af9-899d-283ea1409dc6","system_id":"levelo_inurba_marseille","lat":43.26928,"lon":5.38927,"is_reserved":false,"is_disabled":true,"rental_uris":{"android":"levelo://app?vid=740f162e-a0c7-4af9-899d-283ea1409dc6","ios":"levelo://app?vid=740f162e-a0c7-4af9-899d-283ea1409dc6"},"vehicle_type_id":"4","last_reported":1732374515,"current_range_meters":36400,"station_id":"ce4bhhh2rcd13ifvqfl0","pricing_plan_id":"cebpf4jnsgd1na2vs0mg"},{"bike_id":"e8f826ec-cf1d-427e-a65b-cf83f280be00","system_id":"levelo_inurba_marseille","lat":43.27055,"lon":5.40263,"is_reserved":false,"is_disabled":true,"rental_uris":{"android":"levelo://app?vid=e8f826ec-cf1d-427e-a65b-cf83f280be00","ios":"levelo://app?vid=e8f826ec-cf1d-427e-a65b-cf83f280be00"},"vehicle_type_id":"4","last_reported":1732374515,"current_range_meters":400,"station_id":"ce4bhk92rcd13ifvqgc0","pricing_plan_id":"cebpf4jnsgd1na2vs0mg"},{"bike_id":"e74125a9-74c4-4830-af92-47ce6562e6bd","system_id":"levelo_inurba_marseille","lat":43.24649,"lon":5.38903,"is_reserved":false,"is_disabled":false,"rental_uris":{"android":"levelo://app?vid=e74125a9-74c4-4830-af92-47ce6562e6bd","ios":"levelo://app?vid=e74125a9-74c4-4830-af92-47ce6562e6bd"},"vehicle_type_id":"4","last_reported":1732374515,"current_range_meters":38800,"station_id":"ce4bhg12rcd13ifvqf60","pricing_plan_id":"cebpf4jnsgd1na2vs0mg"},{"bike_id":"799013f6-957f-41bd-97ec-60847b60d862","system_id":"levelo_inurba_marseille","lat":43.27371,"lon":5.36255,"is_reserved":false,"is_disabled":false,"rental_uris":{"android":"levelo://app?vid=799013f6-957f-41bd-97ec-60847b60d862","ios":"levelo://app?vid=799013f6-957f-41bd-97ec-60847b60d862"},"vehicle_type_id":"4","last_reported":1732374515,"current_range_meters":28800,"station_id":"ce4bhbh2rcd13ifvqeo0","pricing_plan_id":"cebpf4jnsgd1na2vs0mg"},{"bike_id":"b7b61d62-d3cf-45c0-ae9e-f05215122577","system_id":"levelo_inurba_marseille","lat":43.30924,"lon":5.40151,"is_reserved":false,"is_disabled":true,"rental_uris":{"android":"levelo://app?vid=b7b61d62-d3cf-45c0-ae9e-f05215122577","ios":"levelo://app?vid=b7b61d62-d3cf-45c0-ae9e-f05215122577"},"vehicle_type_id":"4","last_reported":1732374515,"current_range_meters":1200,"station_id":"ce4bgvp2rcd13ifvqct0","pricing_plan_id":"cebpf4jnsgd1na2vs0mg"},{"bike_id":"8b4c21d6-a285-4121-a2fe-9e556ef8817d","system_id":"levelo_inurba_marseille","lat":43.23056,"lon":5.35491,"is_reserved":false,"is_disabled":false,"rental_uris":{"android":"levelo://app?vid=8b4c21d6-a285-4121-a2fe-9e556ef8817d","ios":"levelo://app?vid=8b4c21d6-a285-4121-a2fe-9e556ef8817d"},"vehicle_type_id":"4","last_reported":1732374515,"current_range_meters":9600,"station_id":"cpo3342slgdg3j2ifvpg","pricing_plan_id":"cebpf4jnsgd1na2vs0mg"},{"bike_id":"4794a1b2-bd54-4c0f-9cff-cb268229a068","system_id":"levelo_inurba_marseille","lat":43.23156,"lon":5.43712,"is_reserved":false,"is_disabled":true,"rental_uris":{"android":"levelo://app?vid=4794a1b2-bd54-4c0f-9cff-cb268229a068","ios":"levelo://app?vid=4794a1b2-bd54-4c0f-9cff-cb268229a068"},"vehicle_type_id":"4","last_reported":1732374515,"current_range_meters":400,"station_id":"ce4bhmp2rcd13ifvqgog","pricing_plan_id":"cebpf4jnsgd1na2vs0mg"},{"bike_id":"f6a1affb-10e1-4573-85e2-c44d889c2e68","system_id":"levelo_inurba_marseille","lat":43.30148,"lon":5.37423,"is_reserved":false,"is_disabled":false,"rental_uris":{"android":"levelo://app?vid=f6a1affb-10e1-4573-85e2-c44d889c2e68","ios":"levelo://app?vid=f6a1affb-10e1-4573-85e2-c44d889c2e68"},"vehicle_type_id":"4","last_reported":1732374515,"current_range_meters":27600,"station_id":"ce4bgs92rcd13ifvqcc0","pricing_plan_id":"cebpf4jnsgd1na2vs0mg"},{"bike_id":"b3303f73-fc03-4680-9c2f-5bfe835aca35","system_id":"levelo_inurba_marseille","lat":43.30535,"lon":5.36543,"is_reserved":false,"is_disabled":false,"rental_uris":{"android":"levelo://app?vid=b3303f73-fc03-4680-9c2f-5bfe835aca35","ios":"levelo://app?vid=b3303f73-fc03-4680-9c2f-5bfe835aca35"},"vehicle_type_id":"4","last_reported":1732374515,"current_range_meters":28400,"station_id":"ce4bgs12rcd13ifvqcag","pricing_plan_id":"cebpf4jnsgd1na2vs0mg"},{"bike_id":"a3a4d349-0228-4793-b777-1f7ce7c73256","system_id":"levelo_inurba_marseille","lat":43.31715,"lon":5.3774,"is_reserved":false,"is_disabled":false,"rental_uris":{"android":"levelo://app?vid=a3a4d349-0228-4793-b777-1f7ce7c73256","ios":"levelo://app?vid=a3a4d349-0228-4793-b777-1f7ce7c73256"},"vehicle_type_id":"4","last_reported":1732374515,"current_range_meters":30400,"station_id":"ce4bgth2rcd13ifvqch0","pricing_plan_id":"cebpf4jnsgd1na2vs0mg"},{"bike_id":"d84f2164-1394-41ee-8a6e-ad2b3ded0069","system_id":"levelo_inurba_marseille","lat":43.337444,"lon":5.374475,"is_reserved":false,"is_disabled":false,"rental_uris":{"android":"levelo://app?vid=d84f2164-1394-41ee-8a6e-ad2b3ded0069","ios":"levelo://app?vid=d84f2164-1394-41ee-8a6e-ad2b3ded0069"},"vehicle_type_id":"4","last_reported":1732374515,"current_range_meters":38800,"station_id":"","pricing_plan_id":"cebpf4jnsgd1na2vs0mg"},{"bike_id":"63e5c75a-30c8-4be5-8ec8-448fdf89dbb8","system_id":"levelo_inurba_marseille","lat":43.23068,"lon":5.35496,"is_reserved":false,"is_disabled":false,"rental_uris":{"android":"levelo://app?vid=63e5c75a-30c8-4be5-8ec8-448fdf89dbb8","ios":"levelo://app?vid=63e5c75a-30c8-4be5-8ec8-448fdf89dbb8"},"vehicle_type_id":"4","last_reported":1732374515,"current_range_meters":9200,"station_id":"cpo3342slgdg3j2ifvpg","pricing_plan_id":"cebpf4jnsgd1na2vs0mg"},{"bike_id":"844693b4-a8ab-4270-9c51-2ae0bf163fc0","system_id":"levelo_inurba_marseille","lat":43.23131,"lon":5.4373,"is_reserved":false,"is_disabled":true,"rental_uris":{"android":"levelo://app?vid=844693b4-a8ab-4270-9c51-2ae0bf163fc0","ios":"levelo://app?vid=844693b4-a8ab-4270-9c51-2ae0bf163fc0"},"vehicle_type_id":"4","last_reported":1732374515,"current_range_meters":0,"station_id":"ce4bhmp2rcd13ifvqgog","pricing_plan_id":"cebpf4jnsgd1na2vs0mg"},{"bike_id":"89228f68-3127-4436-9201-8331b38355c7","system_id":"levelo_inurba_marseille","lat":43.25729,"lon":5.41109,"is_reserved":false,"is_disabled":true,"rental_uris":{"android":"levelo://app?vid=89228f68-3127-4436-9201-8331b38355c7","ios":"levelo://app?vid=89228f68-3127-4436-9201-8331b38355c7"},"vehicle_type_id":"4","last_reported":1732374515,"current_range_meters":0,"station_id":"ce4bhkp2rcd13ifvqgd0","pricing_plan_id":"cebpf4jnsgd1na2vs0mg"},{"bike_id":"574a1bf5-6e7a-4856-a1ae-572d602c38bc","system_id":"levelo_inurba_marseille","lat":43.298903,"lon":5.389061,"is_reserved":false,"is_disabled":false,"rental_uris":{"android":"levelo://app?vid=574a1bf5-6e7a-4856-a1ae-572d602c38bc","ios":"levelo://app?vid=574a1bf5-6e7a-4856-a1ae-572d602c38bc"},"vehicle_type_id":"4","last_reported":1732374515,"current_range_meters":36800,"station_id":"ce4bh392rcd13ifvqdl0","pricing_plan_id":"cebpf4jnsgd1na2vs0mg"},{"bike_id":"af6bebb9-f1c9-4567-8122-a106fc4bd7e4","system_id":"levelo_inurba_marseille","lat":43.272042,"lon":5.391767,"is_reserved":false,"is_disabled":false,"rental_uris":{"android":"levelo://app?vid=af6bebb9-f1c9-4567-8122-a106fc4bd7e4","ios":"levelo://app?vid=af6bebb9-f1c9-4567-8122-a106fc4bd7e4"},"vehicle_type_id":"4","last_reported":1732374515,"current_range_meters":35200,"station_id":"ce4bhhp2rcd13ifvqfm0","pricing_plan_id":"cebpf4jnsgd1na2vs0mg"},{"bike_id":"29fb895b-8948-42c3-9cf9-e4b5a361d278","system_id":"levelo_inurba_marseille","lat":43.28424,"lon":5.34996,"is_reserved":false,"is_disabled":false,"rental_uris":{"android":"levelo://app?vid=29fb895b-8948-42c3-9cf9-e4b5a361d278","ios":"levelo://app?vid=29fb895b-8948-42c3-9cf9-e4b5a361d278"},"vehicle_type_id":"4","last_reported":1732374515,"current_range_meters":32000,"station_id":"ce4bhbh2rcd13ifvqepg","pricing_plan_id":"cebpf4jnsgd1na2vs0mg"},{"bike_id":"e5951ee3-4a5a-4ebb-b469-096c5188dfa3","system_id":"levelo_inurba_marseille","lat":43.23184,"lon":5.35554,"is_reserved":false,"is_disabled":false,"rental_uris":{"android":"levelo://app?vid=e5951ee3-4a5a-4ebb-b469-096c5188dfa3","ios":"levelo://app?vid=e5951ee3-4a5a-4ebb-b469-096c5188dfa3"},"vehicle_type_id":"4","last_reported":1732374515,"current_range_meters":24000,"station_id":"ce4bhu92rcd13ifvqi70","pricing_plan_id":"cebpf4jnsgd1na2vs0mg"},{"bike_id":"aa9e1db2-b5fe-43b1-bbb4-fb3d200378ea","system_id":"levelo_inurba_marseille","lat":43.25726,"lon":5.41113,"is_reserved":false,"is_disabled":false,"rental_uris":{"android":"levelo://app?vid=aa9e1db2-b5fe-43b1-bbb4-fb3d200378ea","ios":"levelo://app?vid=aa9e1db2-b5fe-43b1-bbb4-fb3d200378ea"},"vehicle_type_id":"4","last_reported":1732374515,"current_range_meters":16000,"station_id":"ce4bhkp2rcd13ifvqgd0","pricing_plan_id":"cebpf4jnsgd1na2vs0mg"},{"bike_id":"952c6e9f-2096-4df2-9d84-6c73737f4204","system_id":"levelo_inurba_marseille","lat":43.27176,"lon":5.4099,"is_reserved":false,"is_disabled":false,"rental_uris":{"android":"levelo://app?vid=952c6e9f-2096-4df2-9d84-6c73737f4204","ios":"levelo://app?vid=952c6e9f-2096-4df2-9d84-6c73737f4204"},"vehicle_type_id":"4","last_reported":1732374515,"current_range_meters":31200,"station_id":"ce4bhl12rcd13ifvqgf0","pricing_plan_id":"cebpf4jnsgd1na2vs0mg"},{"bike_id":"53aedfa4-4049-4759-bc95-757addd8c685","system_id":"levelo_inurba_marseille","lat":43.26548,"lon":5.37296,"is_reserved":false,"is_disabled":true,"rental_uris":{"android":"levelo://app?vid=53aedfa4-4049-4759-bc95-757addd8c685","ios":"levelo://app?vid=53aedfa4-4049-4759-bc95-757addd8c685"},"vehicle_type_id":"4","last_reported":1732374515,"current_range_meters":400,"station_id":"ce4bhg12rcd13ifvqf70","pricing_plan_id":"cebpf4jnsgd1na2vs0mg"},{"bike_id":"0d4df7b4-f528-499b-ae2d-56faf46c117a","system_id":"levelo_inurba_marseille","lat":43.31224,"lon":5.36854,"is_reserved":false,"is_disabled":false,"rental_uris":{"android":"levelo://app?vid=0d4df7b4-f528-499b-ae2d-56faf46c117a","ios":"levelo://app?vid=0d4df7b4-f528-499b-ae2d-56faf46c117a"},"vehicle_type_id":"4","last_reported":1732374515,"current_range_meters":25600,"station_id":"ce4bgl92rcd13ifvqbq0","pricing_plan_id":"cebpf4jnsgd1na2vs0mg"},{"bike_id":"e89acc00-2b06-4720-9a63-22cf0d597a07","system_id":"levelo_inurba_marseille","lat":43.25007,"lon":5.38918,"is_reserved":false,"is_disabled":false,"rental_uris":{"android":"levelo://app?vid=e89acc00-2b06-4720-9a63-22cf0d597a07","ios":"levelo://app?vid=e89acc00-2b06-4720-9a63-22cf0d597a07"},"vehicle_type_id":"4","last_reported":1732374515,"current_range_meters":34000,"station_id":"ce4bhgp2rcd13ifvqfd0","pricing_plan_id":"cebpf4jnsgd1na2vs0mg"},{"bike_id":"79ff0a5c-0a89-45a6-ba35-c33d6beb327c","system_id":"levelo_inurba_marseille","lat":43.24385,"lon":5.37068,"is_reserved":false,"is_disabled":false,"rental_uris":{"android":"levelo://app?vid=79ff0a5c-0a89-45a6-ba35-c33d6beb327c","ios":"levelo://app?vid=79ff0a5c-0a89-45a6-ba35-c33d6beb327c"},"vehicle_type_id":"4","last_reported":1732374515,"current_range_meters":7200,"station_id":"ce4bhhh2rcd13ifvqfk0","pricing_plan_id":"cebpf4jnsgd1na2vs0mg"},{"bike_id":"6c948e9c-d5b3-4fe5-a918-1bd2f7c83b02","system_id":"levelo_inurba_marseille","lat":43.32107,"lon":5.3678,"is_reserved":false,"is_disabled":false,"rental_uris":{"android":"levelo://app?vid=6c948e9c-d5b3-4fe5-a918-1bd2f7c83b02","ios":"levelo://app?vid=6c948e9c-d5b3-4fe5-a918-1bd2f7c83b02"},"vehicle_type_id":"4","last_reported":1732374515,"current_range_meters":32800,"station_id":"ce4bhrh2rcd13ifvqhug","pricing_plan_id":"cebpf4jnsgd1na2vs0mg"},{"bike_id":"9e620abf-d324-4f99-84fc-d67e71109f2a","system_id":"levelo_inurba_marseille","lat":43.31077,"lon":5.42434,"is_reserved":false,"is_disabled":true,"rental_uris":{"android":"levelo://app?vid=9e620abf-d324-4f99-84fc-d67e71109f2a","ios":"levelo://app?vid=9e620abf-d324-4f99-84fc-d67e71109f2a"},"vehicle_type_id":"4","last_reported":1732374515,"current_range_meters":0,"station_id":"ce4bhp92rcd13ifvqhag","pricing_plan_id":"cebpf4jnsgd1na2vs0mg"},{"bike_id":"9388a7ff-9c5c-4c26-9899-39b2408cf7e3","system_id":"levelo_inurba_marseille","lat":43.31025,"lon":5.38342,"is_reserved":false,"is_disabled":true,"rental_uris":{"android":"levelo://app?vid=9388a7ff-9c5c-4c26-9899-39b2408cf7e3","ios":"levelo://app?vid=9388a7ff-9c5c-4c26-9899-39b2408cf7e3"},"vehicle_type_id":"4","last_reported":1732374515,"current_range_meters":0,"station_id":"","pricing_plan_id":"cebpf4jnsgd1na2vs0mg"},{"bike_id":"e0c23bf1-59e2-498c-a8ba-288afbb8b2a7","system_id":"levelo_inurba_marseille","lat":43.32364,"lon":5.38888,"is_reserved":false,"is_disabled":false,"rental_uris":{"android":"levelo://app?vid=e0c23bf1-59e2-498c-a8ba-288afbb8b2a7","ios":"levelo://app?vid=e0c23bf1-59e2-498c-a8ba-288afbb8b2a7"},"vehicle_type_id":"4","last_reported":1732374515,"current_range_meters":13600,"station_id":"ce4bhqp2rcd13ifvqhog","pricing_plan_id":"cebpf4jnsgd1na2vs0mg"},{"bike_id":"62bec6cb-4eb7-4b6d-beea-dc847c788a81","system_id":"levelo_inurba_marseille","lat":43.29938,"lon":5.36556,"is_reserved":false,"is_disabled":false,"rental_uris":{"android":"levelo://app?vid=62bec6cb-4eb7-4b6d-beea-dc847c788a81","ios":"levelo://app?vid=62bec6cb-4eb7-4b6d-beea-dc847c788a81"},"vehicle_type_id":"4","last_reported":1732374515,"current_range_meters":36000,"station_id":"ce4bgm92rcd13ifvqbr0","pricing_plan_id":"cebpf4jnsgd1na2vs0mg"},{"bike_id":"c7ae733c-fcab-4e40-a8f0-9ce0cddb3781","system_id":"levelo_inurba_marseille","lat":43.288529,"lon":5.359208,"is_reserved":false,"is_disabled":false,"rental_uris":{"android":"levelo://app?vid=c7ae733c-fcab-4e40-a8f0-9ce0cddb3781","ios":"levelo://app?vid=c7ae733c-fcab-4e40-a8f0-9ce0cddb3781"},"vehicle_type_id":"4","last_reported":1732374515,"current_range_meters":1600,"station_id":"cki0cbj6b192h4jlfktg","pricing_plan_id":"cebpf4jnsgd1na2vs0mg"},{"bike_id":"94830ad1-649f-4df3-8001-cbcc69e39a8f","system_id":"levelo_inurba_marseille","lat":43.337444,"lon":5.374475,"is_reserved":false,"is_disabled":false,"rental_uris":{"android":"levelo://app?vid=94830ad1-649f-4df3-8001-cbcc69e39a8f","ios":"levelo://app?vid=94830ad1-649f-4df3-8001-cbcc69e39a8f"},"vehicle_type_id":"4","last_reported":1732374515,"current_range_meters":35200,"station_id":"ce4bhq92rcd13ifvqhkg","pricing_plan_id":"cebpf4jnsgd1na2vs0mg"},{"bike_id":"5c53cfbd-2547-413a-b79a-f8cc3b1ca992","system_id":"levelo_inurba_marseille","lat":43.32109,"lon":5.3678,"is_reserved":false,"is_disabled":false,"rental_uris":{"android":"levelo://app?vid=5c53cfbd-2547-413a-b79a-f8cc3b1ca992","ios":"levelo://app?vid=5c53cfbd-2547-413a-b79a-f8cc3b1ca992"},"vehicle_type_id":"4","last_reported":1732374515,"current_range_meters":10000,"station_id":"ce4bhrh2rcd13ifvqhug","pricing_plan_id":"cebpf4jnsgd1na2vs0mg"},{"bike_id":"d4da5ac7-ae3b-4fa7-98c2-cfc7b2110d09","system_id":"levelo_inurba_marseille","lat":43.29269,"lon":5.38449,"is_reserved":false,"is_disabled":false,"rental_uris":{"android":"levelo://app?vid=d4da5ac7-ae3b-4fa7-98c2-cfc7b2110d09","ios":"levelo://app?vid=d4da5ac7-ae3b-4fa7-98c2-cfc7b2110d09"},"vehicle_type_id":"4","last_reported":1732374515,"current_range_meters":1200,"station_id":"ce4bh692rcd13ifvqea0","pricing_plan_id":"cebpf4jnsgd1na2vs0mg"},{"bike_id":"65f846d2-8298-4e92-bed1-380f44c062fb","system_id":"levelo_inurba_marseille","lat":43.29841,"lon":5.36278,"is_reserved":false,"is_disabled":false,"rental_uris":{"android":"levelo://app?vid=65f846d2-8298-4e92-bed1-380f44c062fb","ios":"levelo://app?vid=65f846d2-8298-4e92-bed1-380f44c062fb"},"vehicle_type_id":"4","last_reported":1732374515,"current_range_meters":10800,"station_id":"ce4bgpp2rcd13ifvqc3g","pricing_plan_id":"cebpf4jnsgd1na2vs0mg"},{"bike_id":"04b9c9cb-be15-44a7-9bdc-6d22ca715c34","system_id":"levelo_inurba_marseille","lat":43.33726,"lon":5.3919,"is_reserved":false,"is_disabled":false,"rental_uris":{"android":"levelo://app?vid=04b9c9cb-be15-44a7-9bdc-6d22ca715c34","ios":"levelo://app?vid=04b9c9cb-be15-44a7-9bdc-6d22ca715c34"},"vehicle_type_id":"4","last_reported":1732374515,"current_range_meters":28400,"station_id":"ce4bhr92rcd13ifvqhsg","pricing_plan_id":"cebpf4jnsgd1na2vs0mg"},{"bike_id":"ecd264dc-e6a4-4847-aad0-ed873571e5f0","system_id":"levelo_inurba_marseille","lat":43.29716,"lon":5.37693,"is_reserved":false,"is_disabled":false,"rental_uris":{"android":"levelo://app?vid=ecd264dc-e6a4-4847-aad0-ed873571e5f0","ios":"levelo://app?vid=ecd264dc-e6a4-4847-aad0-ed873571e5f0"},"vehicle_type_id":"4","last_reported":1732374515,"current_range_meters":18800,"station_id":"ce4bgkh2rcd13ifvqbl0","pricing_plan_id":"cebpf4jnsgd1na2vs0mg"},{"bike_id":"610cd756-6b54-49c8-a87e-2e0ac6243b1e","system_id":"levelo_inurba_marseille","lat":43.23195,"lon":5.35554,"is_reserved":false,"is_disabled":false,"rental_uris":{"android":"levelo://app?vid=610cd756-6b54-49c8-a87e-2e0ac6243b1e","ios":"levelo://app?vid=610cd756-6b54-49c8-a87e-2e0ac6243b1e"},"vehicle_type_id":"4","last_reported":1732374515,"current_range_meters":18000,"station_id":"ce4bhu92rcd13ifvqi70","pricing_plan_id":"cebpf4jnsgd1na2vs0mg"},{"bike_id":"56ca6b93-ca3d-4dfc-8e20-e35c24d8bd07","system_id":"levelo_inurba_marseille","lat":43.337444,"lon":5.374475,"is_reserved":false,"is_disabled":true,"rental_uris":{"android":"levelo://app?vid=56ca6b93-ca3d-4dfc-8e20-e35c24d8bd07","ios":"levelo://app?vid=56ca6b93-ca3d-4dfc-8e20-e35c24d8bd07"},"vehicle_type_id":"4","last_reported":1732374515,"current_range_meters":800,"station_id":"","pricing_plan_id":"cebpf4jnsgd1na2vs0mg"},{"bike_id":"49223a53-58d7-40e5-81a5-392c6b4c0509","system_id":"levelo_inurba_marseille","lat":43.30477,"lon":5.37918,"is_reserved":false,"is_disabled":false,"rental_uris":{"android":"levelo://app?vid=49223a53-58d7-40e5-81a5-392c6b4c0509","ios":"levelo://app?vid=49223a53-58d7-40e5-81a5-392c6b4c0509"},"vehicle_type_id":"4","last_reported":1732374515,"current_range_meters":30000,"station_id":"ce4bgup2rcd13ifvqcn0","pricing_plan_id":"cebpf4jnsgd1na2vs0mg"},{"bike_id":"3b1e90ac-f4ef-4685-9ae9-7e8a54d6da7f","system_id":"levelo_inurba_marseille","lat":43.29979,"lon":5.38494,"is_reserved":false,"is_disabled":false,"rental_uris":{"android":"levelo://app?vid=3b1e90ac-f4ef-4685-9ae9-7e8a54d6da7f","ios":"levelo://app?vid=3b1e90ac-f4ef-4685-9ae9-7e8a54d6da7f"},"vehicle_type_id":"4","last_reported":1732374515,"current_range_meters":20800,"station_id":"ce4bgj92rcd13ifvqbd0","pricing_plan_id":"cebpf4jnsgd1na2vs0mg"},{"bike_id":"14a94806-137c-4936-85ff-161a6d38126b","system_id":"levelo_inurba_marseille","lat":43.32367,"lon":5.38885,"is_reserved":false,"is_disabled":false,"rental_uris":{"android":"levelo://app?vid=14a94806-137c-4936-85ff-161a6d38126b","ios":"levelo://app?vid=14a94806-137c-4936-85ff-161a6d38126b"},"vehicle_type_id":"4","last_reported":1732374515,"current_range_meters":38800,"station_id":"ce4bhqp2rcd13ifvqhog","pricing_plan_id":"cebpf4jnsgd1na2vs0mg"},{"bike_id":"73c71064-d0c7-40f5-99c2-b5d6db439fc1","system_id":"levelo_inurba_marseille","lat":43.30139,"lon":5.38088,"is_reserved":false,"is_disabled":true,"rental_uris":{"android":"levelo://app?vid=73c71064-d0c7-40f5-99c2-b5d6db439fc1","ios":"levelo://app?vid=73c71064-d0c7-40f5-99c2-b5d6db439fc1"},"vehicle_type_id":"4","last_reported":1732374515,"current_range_meters":0,"station_id":"ce4bgjp2rcd13ifvqbh0","pricing_plan_id":"cebpf4jnsgd1na2vs0mg"},{"bike_id":"1f741346-28e9-475e-945e-50145fcc1501","system_id":"levelo_inurba_marseille","lat":43.26931,"lon":5.38921,"is_reserved":false,"is_disabled":true,"rental_uris":{"android":"levelo://app?vid=1f741346-28e9-475e-945e-50145fcc1501","ios":"levelo://app?vid=1f741346-28e9-475e-945e-50145fcc1501"},"vehicle_type_id":"4","last_reported":1732374515,"current_range_meters":0,"station_id":"ce4bhhh2rcd13ifvqfl0","pricing_plan_id":"cebpf4jnsgd1na2vs0mg"},{"bike_id":"311d9020-325c-42d8-9890-07f72c3a96cc","system_id":"levelo_inurba_marseille","lat":43.29534,"lon":5.3751,"is_reserved":false,"is_disabled":false,"rental_uris":{"android":"levelo://app?vid=311d9020-325c-42d8-9890-07f72c3a96cc","ios":"levelo://app?vid=311d9020-325c-42d8-9890-07f72c3a96cc"},"vehicle_type_id":"4","last_reported":1732374515,"current_range_meters":38400,"station_id":"ce4bgkp2rcd13ifvqbmg","pricing_plan_id":"cebpf4jnsgd1na2vs0mg"},{"bike_id":"0a12e6c7-3edb-448a-aa6d-fdb9ee86611f","system_id":"levelo_inurba_marseille","lat":43.27331,"lon":5.39081,"is_reserved":false,"is_disabled":false,"rental_uris":{"android":"levelo://app?vid=0a12e6c7-3edb-448a-aa6d-fdb9ee86611f","ios":"levelo://app?vid=0a12e6c7-3edb-448a-aa6d-fdb9ee86611f"},"vehicle_type_id":"4","last_reported":1732374515,"current_range_meters":36000,"station_id":"ce4bhgp2rcd13ifvqfe0","pricing_plan_id":"cebpf4jnsgd1na2vs0mg"},{"bike_id":"16269ee6-2c90-425e-8e55-94d321abf855","system_id":"levelo_inurba_marseille","lat":43.29028,"lon":5.38129,"is_reserved":false,"is_disabled":false,"rental_uris":{"android":"levelo://app?vid=16269ee6-2c90-425e-8e55-94d321abf855","ios":"levelo://app?vid=16269ee6-2c90-425e-8e55-94d321abf855"},"vehicle_type_id":"4","last_reported":1732374515,"current_range_meters":31200,"station_id":"ce4bh4p2rcd13ifvqe1g","pricing_plan_id":"cebpf4jnsgd1na2vs0mg"},{"bike_id":"19ae508e-20e3-4da1-950e-1e53bc6f7adf","system_id":"levelo_inurba_marseille","lat":43.3055,"lon":5.36713,"is_reserved":false,"is_disabled":false,"rental_uris":{"android":"levelo://app?vid=19ae508e-20e3-4da1-950e-1e53bc6f7adf","ios":"levelo://app?vid=19ae508e-20e3-4da1-950e-1e53bc6f7adf"},"vehicle_type_id":"4","last_reported":1732374515,"current_range_meters":24800,"station_id":"ce4bgrp2rcd13ifvqc9g","pricing_plan_id":"cebpf4jnsgd1na2vs0mg"},{"bike_id":"051463f9-4a9a-4412-9e90-b4896030a2aa","system_id":"levelo_inurba_marseille","lat":43.2979,"lon":5.38118,"is_reserved":false,"is_disabled":true,"rental_uris":{"android":"levelo://app?vid=051463f9-4a9a-4412-9e90-b4896030a2aa","ios":"levelo://app?vid=051463f9-4a9a-4412-9e90-b4896030a2aa"},"vehicle_type_id":"4","last_reported":1732374515,"current_range_meters":1200,"station_id":"ce4bgip2rcd13ifvqbb0","pricing_plan_id":"cebpf4jnsgd1na2vs0mg"},{"bike_id":"c88e23fe-e888-4932-a6e6-bd5f2b73855d","system_id":"levelo_inurba_marseille","lat":43.30799,"lon":5.43525,"is_reserved":false,"is_disabled":false,"rental_uris":{"android":"levelo://app?vid=c88e23fe-e888-4932-a6e6-bd5f2b73855d","ios":"levelo://app?vid=c88e23fe-e888-4932-a6e6-bd5f2b73855d"},"vehicle_type_id":"4","last_reported":1732374515,"current_range_meters":15200,"station_id":"ce4bhph2rcd13ifvqheg","pricing_plan_id":"cebpf4jnsgd1na2vs0mg"},{"bike_id":"f7f29097-34a0-4fd3-9ee7-8abdc6d41ad7","system_id":"levelo_inurba_marseille","lat":43.27206,"lon":5.39199,"is_reserved":false,"is_disabled":true,"rental_uris":{"android":"levelo://app?vid=f7f29097-34a0-4fd3-9ee7-8abdc6d41ad7","ios":"levelo://app?vid=f7f29097-34a0-4fd3-9ee7-8abdc6d41ad7"},"vehicle_type_id":"4","last_reported":1732374515,"current_range_meters":4000,"station_id":"ce4bhhp2rcd13ifvqfm0","pricing_plan_id":"cebpf4jnsgd1na2vs0mg"},{"bike_id":"2b858a23-dcad-46b5-8f66-9c6edb20b4a4","system_id":"levelo_inurba_marseille","lat":43.28484,"lon":5.38414,"is_reserved":false,"is_disabled":false,"rental_uris":{"android":"levelo://app?vid=2b858a23-dcad-46b5-8f66-9c6edb20b4a4","ios":"levelo://app?vid=2b858a23-dcad-46b5-8f66-9c6edb20b4a4"},"vehicle_type_id":"4","last_reported":1732374515,"current_range_meters":12800,"station_id":"ce4bh512rcd13ifvqe3g","pricing_plan_id":"cebpf4jnsgd1na2vs0mg"},{"bike_id":"bcd178e0-3bcf-4bee-90f4-2827610c8c44","system_id":"levelo_inurba_marseille","lat":43.29588,"lon":5.38114,"is_reserved":false,"is_disabled":false,"rental_uris":{"android":"levelo://app?vid=bcd178e0-3bcf-4bee-90f4-2827610c8c44","ios":"levelo://app?vid=bcd178e0-3bcf-4bee-90f4-2827610c8c44"},"vehicle_type_id":"4","last_reported":1732374515,"current_range_meters":33200,"station_id":"ce4bgl12rcd13ifvqbo0","pricing_plan_id":"cebpf4jnsgd1na2vs0mg"},{"bike_id":"1e6adbea-1003-4c41-bf6d-d37d97165c18","system_id":"levelo_inurba_marseille","lat":43.31996,"lon":5.38158,"is_reserved":false,"is_disabled":false,"rental_uris":{"android":"levelo://app?vid=1e6adbea-1003-4c41-bf6d-d37d97165c18","ios":"levelo://app?vid=1e6adbea-1003-4c41-bf6d-d37d97165c18"},"vehicle_type_id":"4","last_reported":1732374515,"current_range_meters":14400,"station_id":"ce4bhr12rcd13ifvqhpg","pricing_plan_id":"cebpf4jnsgd1na2vs0mg"},{"bike_id":"51cbb1b2-2177-4034-8f6f-c929ce2daf82","system_id":"levelo_inurba_marseille","lat":43.27214,"lon":5.39182,"is_reserved":false,"is_disabled":false,"rental_uris":{"android":"levelo://app?vid=51cbb1b2-2177-4034-8f6f-c929ce2daf82","ios":"levelo://app?vid=51cbb1b2-2177-4034-8f6f-c929ce2daf82"},"vehicle_type_id":"4","last_reported":1732374515,"current_range_meters":35200,"station_id":"ce4bhhp2rcd13ifvqfm0","pricing_plan_id":"cebpf4jnsgd1na2vs0mg"},{"bike_id":"7770b1cc-2a54-4d08-8255-6bed2fc397aa","system_id":"levelo_inurba_marseille","lat":43.232,"lon":5.3555,"is_reserved":false,"is_disabled":false,"rental_uris":{"android":"levelo://app?vid=7770b1cc-2a54-4d08-8255-6bed2fc397aa","ios":"levelo://app?vid=7770b1cc-2a54-4d08-8255-6bed2fc397aa"},"vehicle_type_id":"4","last_reported":1732374515,"current_range_meters":4000,"station_id":"ce4bhu92rcd13ifvqi70","pricing_plan_id":"cebpf4jnsgd1na2vs0mg"},{"bike_id":"7f723b0b-cbe8-4f68-b8fe-2ce3d5e983bd","system_id":"levelo_inurba_marseille","lat":43.32101,"lon":5.3678,"is_reserved":false,"is_disabled":true,"rental_uris":{"android":"levelo://app?vid=7f723b0b-cbe8-4f68-b8fe-2ce3d5e983bd","ios":"levelo://app?vid=7f723b0b-cbe8-4f68-b8fe-2ce3d5e983bd"},"vehicle_type_id":"4","last_reported":1732374515,"current_range_meters":34800,"station_id":"","pricing_plan_id":"cebpf4jnsgd1na2vs0mg"},{"bike_id":"0aaad9f6-41b3-4bc4-a216-a78afc89fccf","system_id":"levelo_inurba_marseille","lat":43.29224,"lon":5.36069,"is_reserved":false,"is_disabled":false,"rental_uris":{"android":"levelo://app?vid=0aaad9f6-41b3-4bc4-a216-a78afc89fccf","ios":"levelo://app?vid=0aaad9f6-41b3-4bc4-a216-a78afc89fccf"},"vehicle_type_id":"4","last_reported":1732374515,"current_range_meters":38800,"station_id":"ce4bhbh2rcd13ifvqeqg","pricing_plan_id":"cebpf4jnsgd1na2vs0mg"},{"bike_id":"331f8026-6a9d-401d-ba3e-683e5866bc48","system_id":"levelo_inurba_marseille","lat":43.2849,"lon":5.38408,"is_reserved":false,"is_disabled":false,"rental_uris":{"android":"levelo://app?vid=331f8026-6a9d-401d-ba3e-683e5866bc48","ios":"levelo://app?vid=331f8026-6a9d-401d-ba3e-683e5866bc48"},"vehicle_type_id":"4","last_reported":1732374515,"current_range_meters":19200,"station_id":"ce4bh512rcd13ifvqe3g","pricing_plan_id":"cebpf4jnsgd1na2vs0mg"},{"bike_id":"cee81c8e-d296-49d5-888a-e371a4863f4e","system_id":"levelo_inurba_marseille","lat":43.25725,"lon":5.41106,"is_reserved":false,"is_disabled":false,"rental_uris":{"android":"levelo://app?vid=cee81c8e-d296-49d5-888a-e371a4863f4e","ios":"levelo://app?vid=cee81c8e-d296-49d5-888a-e371a4863f4e"},"vehicle_type_id":"4","last_reported":1732374515,"current_range_meters":39200,"station_id":"ce4bhkp2rcd13ifvqgd0","pricing_plan_id":"cebpf4jnsgd1na2vs0mg"},{"bike_id":"7e9061cd-5627-407a-8c6f-fcf878e75a40","system_id":"levelo_inurba_marseille","lat":43.27954,"lon":5.41051,"is_reserved":false,"is_disabled":true,"rental_uris":{"android":"levelo://app?vid=7e9061cd-5627-407a-8c6f-fcf878e75a40","ios":"levelo://app?vid=7e9061cd-5627-407a-8c6f-fcf878e75a40"},"vehicle_type_id":"4","last_reported":1732374515,"current_range_meters":17600,"station_id":"ce4bhnp2rcd13ifvqh0g","pricing_plan_id":"cebpf4jnsgd1na2vs0mg"},{"bike_id":"aa960f22-4f9c-484d-b1e4-f1c5727b8bad","system_id":"levelo_inurba_marseille","lat":43.231918,"lon":5.399883,"is_reserved":false,"is_disabled":false,"rental_uris":{"android":"levelo://app?vid=aa960f22-4f9c-484d-b1e4-f1c5727b8bad","ios":"levelo://app?vid=aa960f22-4f9c-484d-b1e4-f1c5727b8bad"},"vehicle_type_id":"4","last_reported":1732374515,"current_range_meters":12800,"station_id":"ce4bhn12rcd13ifvqgqg","pricing_plan_id":"cebpf4jnsgd1na2vs0mg"},{"bike_id":"0aa2ee5b-29e3-4db8-9ffd-eb5f7b56cdbc","system_id":"levelo_inurba_marseille","lat":43.27424,"lon":5.39415,"is_reserved":false,"is_disabled":true,"rental_uris":{"android":"levelo://app?vid=0aa2ee5b-29e3-4db8-9ffd-eb5f7b56cdbc","ios":"levelo://app?vid=0aa2ee5b-29e3-4db8-9ffd-eb5f7b56cdbc"},"vehicle_type_id":"4","last_reported":1732374515,"current_range_meters":33200,"station_id":"ce4bhdp2rcd13ifvqf20","pricing_plan_id":"cebpf4jnsgd1na2vs0mg"},{"bike_id":"43eb7303-d80c-491b-a2f3-6366c7854f1b","system_id":"levelo_inurba_marseille","lat":43.26557,"lon":5.37288,"is_reserved":false,"is_disabled":true,"rental_uris":{"android":"levelo://app?vid=43eb7303-d80c-491b-a2f3-6366c7854f1b","ios":"levelo://app?vid=43eb7303-d80c-491b-a2f3-6366c7854f1b"},"vehicle_type_id":"4","last_reported":1732374515,"current_range_meters":0,"station_id":"ce4bhg12rcd13ifvqf70","pricing_plan_id":"cebpf4jnsgd1na2vs0mg"},{"bike_id":"34ce2636-a271-4156-a90f-8efc4fc87b2b","system_id":"levelo_inurba_marseille","lat":43.26936,"lon":5.38916,"is_reserved":false,"is_disabled":false,"rental_uris":{"android":"levelo://app?vid=34ce2636-a271-4156-a90f-8efc4fc87b2b","ios":"levelo://app?vid=34ce2636-a271-4156-a90f-8efc4fc87b2b"},"vehicle_type_id":"4","last_reported":1732374515,"current_range_meters":37600,"station_id":"ce4bhhh2rcd13ifvqfl0","pricing_plan_id":"cebpf4jnsgd1na2vs0mg"},{"bike_id":"c5668237-de6f-4b3f-9d4a-6a311ec54d60","system_id":"levelo_inurba_marseille","lat":43.28616,"lon":5.3511,"is_reserved":false,"is_disabled":false,"rental_uris":{"android":"levelo://app?vid=c5668237-de6f-4b3f-9d4a-6a311ec54d60","ios":"levelo://app?vid=c5668237-de6f-4b3f-9d4a-6a311ec54d60"},"vehicle_type_id":"4","last_reported":1732374515,"current_range_meters":24400,"station_id":"ce4bhch2rcd13ifvqeug","pricing_plan_id":"cebpf4jnsgd1na2vs0mg"},{"bike_id":"5790b197-07cb-4dd3-942a-13f1722c67d8","system_id":"levelo_inurba_marseille","lat":43.25581,"lon":5.38231,"is_reserved":false,"is_disabled":false,"rental_uris":{"android":"levelo://app?vid=5790b197-07cb-4dd3-942a-13f1722c67d8","ios":"levelo://app?vid=5790b197-07cb-4dd3-942a-13f1722c67d8"},"vehicle_type_id":"4","last_reported":1732374515,"current_range_meters":23200,"station_id":"ce4bhih2rcd13ifvqfs0","pricing_plan_id":"cebpf4jnsgd1na2vs0mg"},{"bike_id":"09171ccf-e80e-4bb6-a7be-3117b2b001d0","system_id":"levelo_inurba_marseille","lat":43.25576,"lon":5.38232,"is_reserved":false,"is_disabled":false,"rental_uris":{"android":"levelo://app?vid=09171ccf-e80e-4bb6-a7be-3117b2b001d0","ios":"levelo://app?vid=09171ccf-e80e-4bb6-a7be-3117b2b001d0"},"vehicle_type_id":"4","last_reported":1732374515,"current_range_meters":4000,"station_id":"ce4bhih2rcd13ifvqfs0","pricing_plan_id":"cebpf4jnsgd1na2vs0mg"},{"bike_id":"de21c370-3fbb-4be8-8e93-a8031c3454c0","system_id":"levelo_inurba_marseille","lat":43.29575,"lon":5.37509,"is_reserved":false,"is_disabled":false,"rental_uris":{"android":"levelo://app?vid=de21c370-3fbb-4be8-8e93-a8031c3454c0","ios":"levelo://app?vid=de21c370-3fbb-4be8-8e93-a8031c3454c0"},"vehicle_type_id":"4","last_reported":1732374515,"current_range_meters":32000,"station_id":"ce4bgh92rcd13ifvqb50","pricing_plan_id":"cebpf4jnsgd1na2vs0mg"},{"bike_id":"a76c2625-229b-494b-96c2-2ff9bc5fe9a8","system_id":"levelo_inurba_marseille","lat":43.31687,"lon":5.40472,"is_reserved":false,"is_disabled":false,"rental_uris":{"android":"levelo://app?vid=a76c2625-229b-494b-96c2-2ff9bc5fe9a8","ios":"levelo://app?vid=a76c2625-229b-494b-96c2-2ff9bc5fe9a8"},"vehicle_type_id":"4","last_reported":1732374515,"current_range_meters":27600,"station_id":"ce4bh012rcd13ifvqd00","pricing_plan_id":"cebpf4jnsgd1na2vs0mg"},{"bike_id":"40c18cd3-c72d-48e2-b684-87f6d0c8281c","system_id":"levelo_inurba_marseille","lat":43.28621,"lon":5.351,"is_reserved":false,"is_disabled":false,"rental_uris":{"android":"levelo://app?vid=40c18cd3-c72d-48e2-b684-87f6d0c8281c","ios":"levelo://app?vid=40c18cd3-c72d-48e2-b684-87f6d0c8281c"},"vehicle_type_id":"4","last_reported":1732374515,"current_range_meters":38800,"station_id":"ce4bhch2rcd13ifvqeug","pricing_plan_id":"cebpf4jnsgd1na2vs0mg"},{"bike_id":"12a19c10-f897-4c0e-9448-fec8aac092ce","system_id":"levelo_inurba_marseille","lat":43.2583,"lon":5.39439,"is_reserved":false,"is_disabled":true,"rental_uris":{"android":"levelo://app?vid=12a19c10-f897-4c0e-9448-fec8aac092ce","ios":"levelo://app?vid=12a19c10-f897-4c0e-9448-fec8aac092ce"},"vehicle_type_id":"4","last_reported":1732374515,"current_range_meters":6000,"station_id":"ce4bhip2rcd13ifvqft0","pricing_plan_id":"cebpf4jnsgd1na2vs0mg"},{"bike_id":"e25eef18-332f-4018-90c2-f2fc0b468a36","system_id":"levelo_inurba_marseille","lat":43.32063,"lon":5.41581,"is_reserved":false,"is_disabled":false,"rental_uris":{"android":"levelo://app?vid=e25eef18-332f-4018-90c2-f2fc0b468a36","ios":"levelo://app?vid=e25eef18-332f-4018-90c2-f2fc0b468a36"},"vehicle_type_id":"4","last_reported":1732374515,"current_range_meters":40000,"station_id":"ce4bhq92rcd13ifvqhkg","pricing_plan_id":"cebpf4jnsgd1na2vs0mg"},{"bike_id":"315d2204-dedc-4e1b-b03d-2b096030fcf4","system_id":"levelo_inurba_marseille","lat":43.29929,"lon":5.37466,"is_reserved":false,"is_disabled":false,"rental_uris":{"android":"levelo://app?vid=315d2204-dedc-4e1b-b03d-2b096030fcf4","ios":"levelo://app?vid=315d2204-dedc-4e1b-b03d-2b096030fcf4"},"vehicle_type_id":"4","last_reported":1732374515,"current_range_meters":30400,"station_id":"ce4bgjh2rcd13ifvqbg0","pricing_plan_id":"cebpf4jnsgd1na2vs0mg"},{"bike_id":"4e85fe84-a52c-4b06-bb6f-99e7d7546baa","system_id":"levelo_inurba_marseille","lat":43.337444,"lon":5.374475,"is_reserved":false,"is_disabled":false,"rental_uris":{"android":"levelo://app?vid=4e85fe84-a52c-4b06-bb6f-99e7d7546baa","ios":"levelo://app?vid=4e85fe84-a52c-4b06-bb6f-99e7d7546baa"},"vehicle_type_id":"4","last_reported":1732374515,"current_range_meters":38800,"station_id":"ce4bhq92rcd13ifvqhkg","pricing_plan_id":"cebpf4jnsgd1na2vs0mg"},{"bike_id":"f1537700-48e8-46ac-aa53-14c5c1caae3b","system_id":"levelo_inurba_marseille","lat":43.26683,"lon":5.38271,"is_reserved":false,"is_disabled":false,"rental_uris":{"android":"levelo://app?vid=f1537700-48e8-46ac-aa53-14c5c1caae3b","ios":"levelo://app?vid=f1537700-48e8-46ac-aa53-14c5c1caae3b"},"vehicle_type_id":"4","last_reported":1732374515,"current_range_meters":7200,"station_id":"ce4bhg92rcd13ifvqf90","pricing_plan_id":"cebpf4jnsgd1na2vs0mg"},{"bike_id":"406319a9-7291-4e2f-b16e-a11db0640d2c","system_id":"levelo_inurba_marseille","lat":43.29262,"lon":5.40897,"is_reserved":false,"is_disabled":false,"rental_uris":{"android":"levelo://app?vid=406319a9-7291-4e2f-b16e-a11db0640d2c","ios":"levelo://app?vid=406319a9-7291-4e2f-b16e-a11db0640d2c"},"vehicle_type_id":"4","last_reported":1732374515,"current_range_meters":17600,"station_id":"ce4bh192rcd13ifvqdc0","pricing_plan_id":"cebpf4jnsgd1na2vs0mg"},{"bike_id":"248daae3-a164-4eeb-8367-0196789b7cda","system_id":"levelo_inurba_marseille","lat":43.26553,"lon":5.39034,"is_reserved":false,"is_disabled":false,"rental_uris":{"android":"levelo://app?vid=248daae3-a164-4eeb-8367-0196789b7cda","ios":"levelo://app?vid=248daae3-a164-4eeb-8367-0196789b7cda"},"vehicle_type_id":"4","last_reported":1732374515,"current_range_meters":31200,"station_id":"ce4bhe12rcd13ifvqf30","pricing_plan_id":"cebpf4jnsgd1na2vs0mg"},{"bike_id":"df544d8f-773d-4cc2-a2bf-5d05612c883d","system_id":"levelo_inurba_marseille","lat":43.30307,"lon":5.36919,"is_reserved":false,"is_disabled":true,"rental_uris":{"android":"levelo://app?vid=df544d8f-773d-4cc2-a2bf-5d05612c883d","ios":"levelo://app?vid=df544d8f-773d-4cc2-a2bf-5d05612c883d"},"vehicle_type_id":"4","last_reported":1732374515,"current_range_meters":0,"station_id":"ce4bgqh2rcd13ifvqc5g","pricing_plan_id":"cebpf4jnsgd1na2vs0mg"},{"bike_id":"e5541286-c80d-4b29-beef-91f3c9df16ae","system_id":"levelo_inurba_marseille","lat":43.2846,"lon":5.35898,"is_reserved":false,"is_disabled":false,"rental_uris":{"android":"levelo://app?vid=e5541286-c80d-4b29-beef-91f3c9df16ae","ios":"levelo://app?vid=e5541286-c80d-4b29-beef-91f3c9df16ae"},"vehicle_type_id":"4","last_reported":1732374515,"current_range_meters":9200,"station_id":"ce4bhah2rcd13ifvqei0","pricing_plan_id":"cebpf4jnsgd1na2vs0mg"},{"bike_id":"6ebc5165-3b53-458f-b6c1-60d983275498","system_id":"levelo_inurba_marseille","lat":43.29515,"lon":5.39404,"is_reserved":false,"is_disabled":false,"rental_uris":{"android":"levelo://app?vid=6ebc5165-3b53-458f-b6c1-60d983275498","ios":"levelo://app?vid=6ebc5165-3b53-458f-b6c1-60d983275498"},"vehicle_type_id":"4","last_reported":1732374515,"current_range_meters":21600,"station_id":"ce4bh292rcd13ifvqdf0","pricing_plan_id":"cebpf4jnsgd1na2vs0mg"},{"bike_id":"ee811421-710d-4547-b6db-ae5165ad14b0","system_id":"levelo_inurba_marseille","lat":43.23957,"lon":5.36633,"is_reserved":false,"is_disabled":false,"rental_uris":{"android":"levelo://app?vid=ee811421-710d-4547-b6db-ae5165ad14b0","ios":"levelo://app?vid=ee811421-710d-4547-b6db-ae5165ad14b0"},"vehicle_type_id":"4","last_reported":1732374515,"current_range_meters":16000,"station_id":"ce4bhi12rcd13ifvqfp0","pricing_plan_id":"cebpf4jnsgd1na2vs0mg"},