{"last_updated":1742494438,"ttl":60,"version":"2.2","data":{"bikes":[{"bike_id":"85648fe1-381f-464c-9d9a-c10524b05d06","system_id":"levelo_inurba_marseille","lat":43.26807,"lon":5.4027,"is_reserved":false,"is_disabled":false,"rental_uris":{"android":"levelo://app?vid=85648fe1-381f-464c-9d9a-c10524b05d06","ios":"levelo://app?vid=85648fe1-381f-464c-9d9a-c10524b05d06"},"vehicle_type_id":"4","last_reported":1742494438,"current_range_meters":2800,"station_id":"ce501612rcd8frsf0b60","pricing_plan_id":"cebpf4jnsgd1na2vs0mg"},{"bike_id":"24e8d10b-2c72-492b-84bf-64d787d73e65","system_id":"levelo_inurba_marseille","lat":43.29027,"lon":5.37549,"is_reserved":false,"is_disabled":true,"rental_uris":{"android":"levelo://app?vid=24e8d10b-2c72-492b-84bf-64d787d73e65","ios":"levelo://app?vid=24e8d10b-2c72-492b-84bf-64d787d73e65"},"vehicle_type_id":"4","last_reported":1742494438,"current_range_meters":2800,"station_id":"ce4bh692rcd13ifvqe90","pricing_plan_id":"cebpf4jnsgd1na2vs0mg"},{"bike_id":"891a56bb-c62f-427e-8202-5812367b1cc7","system_id":"levelo_inurba_marseille","lat":43.30913,"lon":5.36848,"is_reserved":false,"is_disabled":false,"rental_uris":{"android":"levelo://app?vid=891a56bb-c62f-427e-8202-5812367b1cc7","ios":"levelo://app?vid=891a56bb-c62f-427e-8202-5812367b1cc7"},"vehicle_type_id":"4","last_reported":1742494438,"current_range_meters":2800,"station_id":"ce4bgn92rcd13ifvqbvg","pricing_plan_id":"cebpf4jnsgd1na2vs0mg"},{"bike_id":"a3a96823-079e-4b70-86fa-ee189f123cff","system_id":"levelo_inurba_marseille","lat":43.3136,"lon":5.38495,"is_reserved":false,"is_disabled":false,"rental_uris":{"android":"levelo://app?vid=a3a96823-079e-4b70-86fa-ee189f123cff","ios":"levelo://app?vid=a3a96823-079e-4b70-86fa-ee189f123cff"},"vehicle_type_id":"4","last_reported":1742494438,"current_range_meters":2800,"station_id":"ce4bgt92rcd13ifvqcf0","pricing_plan_id":"cebpf4jnsgd1na2vs0mg"},{"bike_id":"133a6f9c-e403-435c-b6aa-8cf9c51a2b16","system_id":"levelo_inurba_marseille","lat":43.28402,"lon":5.37517,"is_reserved":false,"is_disabled":false,"rental_uris":{"android":"levelo://app?vid=133a6f9c-e403-435c-b6aa-8cf9c51a2b16","ios":"levelo://app?vid=133a6f9c-e403-435c-b6aa-8cf9c51a2b16"},"vehicle_type_id":"4","last_reported":1742494438,"current_range_meters":2800,"station_id":"ce4bh412rcd13ifvqds0","pricing_plan_id":"cebpf4jnsgd1na2vs0mg"},{"bike_id":"ee4dd8b8-5237-42f7-b352-e29549cbf0f5","system_id":"levelo_inurba_marseille","lat":43.31393,"lon":5.38468,"is_reserved":false,"is_disabled":false,"rental_uris":{"android":"levelo://app?vid=ee4dd8b8-5237-42f7-b352-e29549cbf0f5","ios":"levelo://app?vid=ee4dd8b8-5237-42f7-b352-e29549cbf0f5"},"vehicle_type_id":"4","last_reported":1742494438,"current_range_meters":2800,"station_id":"ce4bgt92rcd13ifvqcf0","pricing_plan_id":"cebpf4jnsgd1na2vs0mg"},{"bike_id":"faaf10e9-f002-4508-a2cd-3358bb9ac2d0","system_id":"levelo_inurba_marseille","lat":43.29169,"lon":5.37156,"is_reserved":false,"is_disabled":false,"rental_uris":{"android":"levelo://app?vid=faaf10e9-f002-4508-a2cd-3358bb9ac2d0","ios":"levelo://app?vid=faaf10e9-f002-4508-a2cd-3358bb9ac2d0"},"vehicle_type_id":"4","last_reported":1742494438,"current_range_meters":2800,"station_id":"ce4bha92rcd13ifvqeh0","pricing_plan_id":"cebpf4jnsgd1na2vs0mg"},{"bike_id":"6a447604-d219-4872-bfff-622e8f92f932","system_id":"levelo_inurba_marseille","lat":43.27946,"lon":5.41037,"is_reserved":false,"is_disabled":false,"rental_uris":{"android":"levelo://app?vid=6a447604-d219-4872-bfff-622e8f92f932","ios":"levelo://app?vid=6a447604-d219-4872-bfff-622e8f92f932"},"vehicle_type_id":"4","last_reported":1742494438,"current_range_meters":2800,"station_id":"ce4bhnp2rcd13ifvqh0g","pricing_plan_id":"cebpf4jnsgd1na2vs0mg"},{"bike_id":"32fa3c3c-6abf-499e-a5e3-672c71764130","system_id":"levelo_inurba_marseille","lat":43.32037,"lon":5.41576,"is_reserved":false,"is_disabled":true,"rental_uris":{"android":"levelo://app?vid=32fa3c3c-6abf-499e-a5e3-672c71764130","ios":"levelo://app?vid=32fa3c3c-6abf-499e-a5e3-672c71764130"},"vehicle_type_id":"4","last_reported":1742494438,"current_range_meters":2800,"station_id":"ce4bhq92rcd13ifvqhkg","pricing_plan_id":"cebpf4jnsgd1na2vs0mg"},{"bike_id":"ca24b6c7-2c07-4133-92c6-0981b2b93db5","system_id":"levelo_inurba_marseille","lat":43.23202,"lon":5.35543,"is_reserved":false,"is_disabled":false,"rental_uris":{"android":"levelo://app?vid=ca24b6c7-2c07-4133-92c6-0981b2b93db5","ios":"levelo://app?vid=ca24b6c7-2c07-4133-92c6-0981b2b93db5"},"vehicle_type_id":"4","last_reported":1742494438,"current_range_meters":2800,"station_id":"ce4bhu92rcd13ifvqi70","pricing_plan_id":"cebpf4jnsgd1na2vs0mg"},{"bike_id":"ed1ce7ec-3843-4fd7-8e5a-8171828d0b92","system_id":"levelo_inurba_marseille","lat":43.29534,"lon":5.38549,"is_reserved":false,"is_disabled":false,"rental_uris":{"android":"levelo://app?vid=ed1ce7ec-3843-4fd7-8e5a-8171828d0b92","ios":"levelo://app?vid=ed1ce7ec-3843-4fd7-8e5a-8171828d0b92"},"vehicle_type_id":"4","last_reported":1742494438,"current_range_meters":2800,"station_id":"ce4bgih2rcd13ifvqba0","pricing_plan_id":"cebpf4jnsgd1na2vs0mg"},{"bike_id":"237cc33a-d887-43bf-97f0-09df1f64eb61","system_id":"levelo_inurba_marseille","lat":43.29569,"lon":5.39976,"is_reserved":false,"is_disabled":false,"rental_uris":{"android":"levelo://app?vid=237cc33a-d887-43bf-97f0-09df1f64eb61","ios":"levelo://app?vid=237cc33a-d887-43bf-97f0-09df1f64eb61"},"vehicle_type_id":"4","last_reported":1742494438,"current_range_meters":3200,"station_id":"ce4bh312rcd13ifvqdj0","pricing_plan_id":"cebpf4jnsgd1na2vs0mg"},{"bike_id":"4694a151-c965-46a7-b559-89c7428562d2","system_id":"levelo_inurba_marseille","lat":43.28855,"lon":5.3585,"is_reserved":false,"is_disabled":false,"rental_uris":{"android":"levelo://app?vid=4694a151-c965-46a7-b559-89c7428562d2","ios":"levelo://app?vid=4694a151-c965-46a7-b559-89c7428562d2"},"vehicle_type_id":"4","last_reported":1742494438,"current_range_meters":3200,"station_id":"ce4bhb12rcd13ifvqem0","pricing_plan_id":"cebpf4jnsgd1na2vs0mg"},{"bike_id":"2dd15f1f-0d78-4c85-9987-159a0e16d520","system_id":"levelo_inurba_marseille","lat":43.31324,"lon":5.39691,"is_reserved":false,"is_disabled":false,"rental_uris":{"android":"levelo://app?vid=2dd15f1f-0d78-4c85-9987-159a0e16d520","ios":"levelo://app?vid=2dd15f1f-0d78-4c85-9987-159a0e16d520"},"vehicle_type_id":"4","last_reported":1742494438,"current_range_meters":3200,"station_id":"ce4bgvp2rcd13ifvqcu0","pricing_plan_id":"cebpf4jnsgd1na2vs0mg"},{"bike_id":"27cc27c3-fb1a-4dd1-aa55-9d0072bddda4","system_id":"levelo_inurba_marseille","lat":43.30938,"lon":5.40134,"is_reserved":false,"is_disabled":false,"rental_uris":{"android":"levelo://app?vid=27cc27c3-fb1a-4dd1-aa55-9d0072bddda4","ios":"levelo://app?vid=27cc27c3-fb1a-4dd1-aa55-9d0072bddda4"},"vehicle_type_id":"4","last_reported":1742494438,"current_range_meters":3200,"station_id":"ce4bgvp2rcd13ifvqct0","pricing_plan_id":"cebpf4jnsgd1na2vs0mg"},{"bike_id":"7b48b575-dad2-4b90-98bc-7f14ab8556b6","system_id":"levelo_inurba_marseille","lat":43.26512,"lon":5.3956,"is_reserved":false,"is_disabled":false,"rental_uris":{"android":"levelo://app?vid=7b48b575-dad2-4b90-98bc-7f14ab8556b6","ios":"levelo://app?vid=7b48b575-dad2-4b90-98bc-7f14ab8556b6"},"vehicle_type_id":"4","last_reported":1742494438,"current_range_meters":3200,"station_id":"ce4bhi12rcd13ifvqfq0","pricing_plan_id":"cebpf4jnsgd1na2vs0mg"},{"bike_id":"4afe6bda-bef2-40f7-991f-6155fff75257","system_id":"levelo_inurba_marseille","lat":43.2953,"lon":5.39045,"is_reserved":false,"is_disabled":false,"rental_uris":{"android":"levelo://app?vid=4afe6bda-bef2-40f7-991f-6155fff75257","ios":"levelo://app?vid=4afe6bda-bef2-40f7-991f-6155fff75257"},"vehicle_type_id":"4","last_reported":1742494438,"current_range_meters":3200,"station_id":"ce4bh3p2rcd13ifvqdp0","pricing_plan_id":"cebpf4jnsgd1na2vs0mg"},{"bike_id":"f1f06183-34cf-42ee-8995-560a76c3093c","system_id":"levelo_inurba_marseille","lat":43.29783,"lon":5.37102,"is_reserved":false,"is_disabled":false,"rental_uris":{"android":"levelo://app?vid=f1f06183-34cf-42ee-8995-560a76c3093c","ios":"levelo://app?vid=f1f06183-34cf-42ee-8995-560a76c3093c"},"vehicle_type_id":"4","last_reported":1742494438,"current_range_meters":3200,"station_id":"ce4bgop2rcd13ifvqc1g","pricing_plan_id":"cebpf4jnsgd1na2vs0mg"},{"bike_id":"173d972b-332f-4dac-ab4b-53849fe1d7dc","system_id":"levelo_inurba_marseille","lat":43.2648,"lon":5.39589,"is_reserved":false,"is_disabled":true,"rental_uris":{"android":"levelo://app?vid=173d972b-332f-4dac-ab4b-53849fe1d7dc","ios":"levelo://app?vid=173d972b-332f-4dac-ab4b-53849fe1d7dc"},"vehicle_type_id":"4","last_reported":1742494438,"current_range_meters":3200,"station_id":"ce4bhi12rcd13ifvqfq0","pricing_plan_id":"cebpf4jnsgd1na2vs0mg"},{"bike_id":"8a461daa-aaf3-493b-a92a-ce7dba320a5e","system_id":"levelo_inurba_marseille","lat":43.29532,"lon":5.3855,"is_reserved":false,"is_disabled":false,"rental_uris":{"android":"levelo://app?vid=8a461daa-aaf3-493b-a92a-ce7dba320a5e","ios":"levelo://app?vid=8a461daa-aaf3-493b-a92a-ce7dba320a5e"},"vehicle_type_id":"4","last_reported":1742494438,"current_range_meters":3200,"station_id":"ce4bgih2rcd13ifvqba0","pricing_plan_id":"cebpf4jnsgd1na2vs0mg"},{"bike_id":"36f5e0b3-fb09-4335-b1e4-03aac5478eef","system_id":"levelo_inurba_marseille","lat":43.29039,"lon":5.35912,"is_reserved":false,"is_disabled":false,"rental_uris":{"android":"levelo://app?vid=36f5e0b3-fb09-4335-b1e4-03aac5478eef","ios":"levelo://app?vid=36f5e0b3-fb09-4335-b1e4-03aac5478eef"},"vehicle_type_id":"4","last_reported":1742494438,"current_range_meters":3200,"station_id":"ce4bha92rcd13ifvqeg0","pricing_plan_id":"cebpf4jnsgd1na2vs0mg"},{"bike_id":"9a11bcd3-b2e0-4db7-94e6-55f22c21e808","system_id":"levelo_inurba_marseille","lat":43.27323,"lon":5.3912,"is_reserved":false,"is_disabled":false,"rental_uris":{"android":"levelo://app?vid=9a11bcd3-b2e0-4db7-94e6-55f22c21e808","ios":"levelo://app?vid=9a11bcd3-b2e0-4db7-94e6-55f22c21e808"},"vehicle_type_id":"4","last_reported":1742494438,"current_range_meters":3200,"station_id":"ce4bhgp2rcd13ifvqfe0","pricing_plan_id":"cebpf4jnsgd1na2vs0mg"},{"bike_id":"4a4f3811-2ad7-4fc4-a059-e5c5f9cfa94d","system_id":"levelo_inurba_marseille","lat":43.27292,"lon":5.39078,"is_reserved":false,"is_disabled":false,"rental_uris":{"android":"levelo://app?vid=4a4f3811-2ad7-4fc4-a059-e5c5f9cfa94d","ios":"levelo://app?vid=4a4f3811-2ad7-4fc4-a059-e5c5f9cfa94d"},"vehicle_type_id":"4","last_reported":1742494438,"current_range_meters":3600,"station_id":"ce4bhgp2rcd13ifvqfe0","pricing_plan_id":"cebpf4jnsgd1na2vs0mg"},{"bike_id":"efbacec4-d2a2-4658-b963-f539ff7b79ac","system_id":"levelo_inurba_marseille","lat":43.32302,"lon":5.38245,"is_reserved":false,"is_disabled":false,"rental_uris":{"android":"levelo://app?vid=efbacec4-d2a2-4658-b963-f539ff7b79ac","ios":"levelo://app?vid=efbacec4-d2a2-4658-b963-f539ff7b79ac"},"vehicle_type_id":"4","last_reported":1742494438,"current_range_meters":3600,"station_id":"ce4bhr12rcd13ifvqhqg","pricing_plan_id":"cebpf4jnsgd1na2vs0mg"},{"bike_id":"e10c0d45-e464-450b-a10f-befa85f1304c","system_id":"levelo_inurba_marseille","lat":43.29905,"lon":5.43656,"is_reserved":false,"is_disabled":false,"rental_uris":{"android":"levelo://app?vid=e10c0d45-e464-450b-a10f-befa85f1304c","ios":"levelo://app?vid=e10c0d45-e464-450b-a10f-befa85f1304c"},"vehicle_type_id":"4","last_reported":1742494438,"current_range_meters":3600,"station_id":"ce4bhpp2rcd13ifvqhfg","pricing_plan_id":"cebpf4jnsgd1na2vs0mg"},{"bike_id":"50c954ca-534e-44cb-b298-4b0e6941aece","system_id":"levelo_inurba_marseille","lat":43.272,"lon":5.41006,"is_reserved":false,"is_disabled":false,"rental_uris":{"android":"levelo://app?vid=50c954ca-534e-44cb-b298-4b0e6941aece","ios":"levelo://app?vid=50c954ca-534e-44cb-b298-4b0e6941aece"},"vehicle_type_id":"4","last_reported":1742494438,"current_range_meters":3600,"station_id":"ce4bhl12rcd13ifvqgf0","pricing_plan_id":"cebpf4jnsgd1na2vs0mg"},{"bike_id":"d3d67e47-df72-49b7-816d-ea3c9316dc05","system_id":"levelo_inurba_marseille","lat":43.30923,"lon":5.40189,"is_reserved":false,"is_disabled":false,"rental_uris":{"android":"levelo://app?vid=d3d67e47-df72-49b7-816d-ea3c9316dc05","ios":"levelo://app?vid=d3d67e47-df72-49b7-816d-ea3c9316dc05"},"vehicle_type_id":"4","last_reported":1742494438,"current_range_meters":3600,"station_id":"ce4bgvp2rcd13ifvqct0","pricing_plan_id":"cebpf4jnsgd1na2vs0mg"},{"bike_id":"3c79d693-f55c-438c-9aa7-89e002ce7e89","system_id":"levelo_inurba_marseille","lat":43.31685,"lon":5.37787,"is_reserved":false,"is_disabled":false,"rental_uris":{"android":"levelo://app?vid=3c79d693-f55c-438c-9aa7-89e002ce7e89","ios":"levelo://app?vid=3c79d693-f55c-438c-9aa7-89e002ce7e89"},"vehicle_type_id":"4","last_reported":1742494438,"current_range_meters":4000,"station_id":"ce4bgth2rcd13ifvqch0","pricing_plan_id":"cebpf4jnsgd1na2vs0mg"},{"bike_id":"c20e53f8-8c25-4dbf-811d-4e7d827ca167","system_id":"levelo_inurba_marseille","lat":43.305512,"lon":5.384072,"is_reserved":false,"is_disabled":false,"rental_uris":{"android":"levelo://app?vid=c20e53f8-8c25-4dbf-811d-4e7d827ca167","ios":"levelo://app?vid=c20e53f8-8c25-4dbf-811d-4e7d827ca167"},"vehicle_type_id":"4","last_reported":1742494438,"current_range_meters":4000,"station_id":"ce4bgg92rcd13ifvqb30","pricing_plan_id":"cebpf4jnsgd1na2vs0mg"},{"bike_id":"8483cffc-5316-4856-b3b1-364ce74daab5","system_id":"levelo_inurba_marseille","lat":43.26939,"lon":5.40251,"is_reserved":false,"is_disabled":false,"rental_uris":{"android":"levelo://app?vid=8483cffc-5316-4856-b3b1-364ce74daab5","ios":"levelo://app?vid=8483cffc-5316-4856-b3b1-364ce74daab5"},"vehicle_type_id":"4","last_reported":1742494438,"current_range_meters":4000,"station_id":"cjm6bp8fraef2m0cb0m0","pricing_plan_id":"cebpf4jnsgd1na2vs0mg"},{"bike_id":"63b99a45-d09c-4922-9ec3-3c76fff2c0cc","system_id":"levelo_inurba_marseille","lat":43.29102,"lon":5.38125,"is_reserved":false,"is_disabled":false,"rental_uris":{"android":"levelo://app?vid=63b99a45-d09c-4922-9ec3-3c76fff2c0cc","ios":"levelo://app?vid=63b99a45-d09c-4922-9ec3-3c76fff2c0cc"},"vehicle_type_id":"4","last_reported":1742494438,"current_range_meters":3600,"station_id":"ce4bh512rcd13ifvqe2g","pricing_plan_id":"cebpf4jnsgd1na2vs0mg"},{"bike_id":"e40f20d8-2953-4b37-b5dd-ad19e3cd5ecc","system_id":"levelo_inurba_marseille","lat":43.29023,"lon":5.35609,"is_reserved":false,"is_disabled":false,"rental_uris":{"android":"levelo://app?vid=e40f20d8-2953-4b37-b5dd-ad19e3cd5ecc","ios":"levelo://app?vid=e40f20d8-2953-4b37-b5dd-ad19e3cd5ecc"},"vehicle_type_id":"4","last_reported":1742494438,"current_range_meters":4000,"station_id":"ce4bhb92rcd13ifvqen0","pricing_plan_id":"cebpf4jnsgd1na2vs0mg"},{"bike_id":"a1d69d7b-268c-4f17-b2d5-7d747bf43ad7","system_id":"levelo_inurba_marseille","lat":43.30214,"lon":5.39465,"is_reserved":false,"is_disabled":false,"rental_uris":{"android":"levelo://app?vid=a1d69d7b-268c-4f17-b2d5-7d747bf43ad7","ios":"levelo://app?vid=a1d69d7b-268c-4f17-b2d5-7d747bf43ad7"},"vehicle_type_id":"4","last_reported":1742494438,"current_range_meters":4000,"station_id":"ce4bh0p2rcd13ifvqd70","pricing_plan_id":"cebpf4jnsgd1na2vs0mg"},{"bike_id":"8b02990f-e65f-40de-a2a0-1cfd7aaabbfa","system_id":"levelo_inurba_marseille","lat":43.25701,"lon":5.41126,"is_reserved":false,"is_disabled":false,"rental_uris":{"android":"levelo://app?vid=8b02990f-e65f-40de-a2a0-1cfd7aaabbfa","ios":"levelo://app?vid=8b02990f-e65f-40de-a2a0-1cfd7aaabbfa"},"vehicle_type_id":"4","last_reported":1742494438,"current_range_meters":4000,"station_id":"ce4bhkp2rcd13ifvqgd0","pricing_plan_id":"cebpf4jnsgd1na2vs0mg"},{"bike_id":"8f4aba26-310a-4061-907d-dd7bcaaf0b61","system_id":"levelo_inurba_marseille","lat":43.23212,"lon":5.40007,"is_reserved":false,"is_disabled":false,"rental_uris":{"android":"levelo://app?vid=8f4aba26-310a-4061-907d-dd7bcaaf0b61","ios":"levelo://app?vid=8f4aba26-310a-4061-907d-dd7bcaaf0b61"},"vehicle_type_id":"4","last_reported":1742494438,"current_range_meters":4400,"station_id":"ce4bhn12rcd13ifvqgqg","pricing_plan_id":"cebpf4jnsgd1na2vs0mg"},{"bike_id":"ce16a951-f84b-469e-a920-eb59ea99d61f","system_id":"levelo_inurba_marseille","lat":43.30797,"lon":5.38162,"is_reserved":false,"is_disabled":false,"rental_uris":{"android":"levelo://app?vid=ce16a951-f84b-469e-a920-eb59ea99d61f","ios":"levelo://app?vid=ce16a951-f84b-469e-a920-eb59ea99d61f"},"vehicle_type_id":"4","last_reported":1742494438,"current_range_meters":4000,"station_id":"ce4bgt12rcd13ifvqce0","pricing_plan_id":"cebpf4jnsgd1na2vs0mg"},{"bike_id":"34f0036f-b1c8-47c3-983b-b5e3d05e26d4","system_id":"levelo_inurba_marseille","lat":43.30879,"lon":5.39648,"is_reserved":false,"is_disabled":false,"rental_uris":{"android":"levelo://app?vid=34f0036f-b1c8-47c3-983b-b5e3d05e26d4","ios":"levelo://app?vid=34f0036f-b1c8-47c3-983b-b5e3d05e26d4"},"vehicle_type_id":"4","last_reported":1742494438,"current_range_meters":4400,"station_id":"ce4bh012rcd13ifvqcv0","pricing_plan_id":"cebpf4jnsgd1na2vs0mg"},{"bike_id":"b4068990-552a-4124-9fe6-761be0dbd250","system_id":"levelo_inurba_marseille","lat":43.28568,"lon":5.39505,"is_reserved":false,"is_disabled":false,"rental_uris":{"android":"levelo://app?vid=b4068990-552a-4124-9fe6-761be0dbd250","ios":"levelo://app?vid=b4068990-552a-4124-9fe6-761be0dbd250"},"vehicle_type_id":"4","last_reported":1742494438,"current_range_meters":4000,"station_id":"ce4bh292rcd13ifvqdg0","pricing_plan_id":"cebpf4jnsgd1na2vs0mg"},{"bike_id":"af6c0963-0249-4212-bc85-04308e89d83b","system_id":"levelo_inurba_marseille","lat":43.29681,"lon":5.37351,"is_reserved":false,"is_disabled":false,"rental_uris":{"android":"levelo://app?vid=af6c0963-0249-4212-bc85-04308e89d83b","ios":"levelo://app?vid=af6c0963-0249-4212-bc85-04308e89d83b"},"vehicle_type_id":"4","last_reported":1742494438,"current_range_meters":4400,"station_id":"ce4bgk12rcd13ifvqbj0","pricing_plan_id":"cebpf4jnsgd1na2vs0mg"},{"bike_id":"240837ef-0fc8-4630-a319-393027fc7a1c","system_id":"levelo_inurba_marseille","lat":43.2656,"lon":5.37275,"is_reserved":false,"is_disabled":false,"rental_uris":{"android":"levelo://app?vid=240837ef-0fc8-4630-a319-393027fc7a1c","ios":"levelo://app?vid=240837ef-0fc8-4630-a319-393027fc7a1c"},"vehicle_type_id":"4","last_reported":1742494438,"current_range_meters":4400,"station_id":"ce4bhg12rcd13ifvqf70","pricing_plan_id":"cebpf4jnsgd1na2vs0mg"},{"bike_id":"df7e58c3-e426-4d9e-bdda-4daf6864f612","system_id":"levelo_inurba_marseille","lat":43.29541,"lon":5.3904,"is_reserved":false,"is_disabled":false,"rental_uris":{"android":"levelo://app?vid=df7e58c3-e426-4d9e-bdda-4daf6864f612","ios":"levelo://app?vid=df7e58c3-e426-4d9e-bdda-4daf6864f612"},"vehicle_type_id":"4","last_reported":1742494438,"current_range_meters":4400,"station_id":"ce4bh3p2rcd13ifvqdp0","pricing_plan_id":"cebpf4jnsgd1na2vs0mg"},{"bike_id":"62ff0176-8b0c-4378-b290-1cd7c53429c7","system_id":"levelo_inurba_marseille","lat":43.3112,"lon":5.37761,"is_reserved":false,"is_disabled":false,"rental_uris":{"android":"levelo://app?vid=62ff0176-8b0c-4378-b290-1cd7c53429c7","ios":"levelo://app?vid=62ff0176-8b0c-4378-b290-1cd7c53429c7"},"vehicle_type_id":"4","last_reported":1742494438,"current_range_meters":4400,"station_id":"ce4bgt92rcd13ifvqcg0","pricing_plan_id":"cebpf4jnsgd1na2vs0mg"},{"bike_id":"97cf3003-831b-4081-a0a4-c7658c8b7ab7","system_id":"levelo_inurba_marseille","lat":43.2928,"lon":5.36844,"is_reserved":false,"is_disabled":false,"rental_uris":{"android":"levelo://app?vid=97cf3003-831b-4081-a0a4-c7658c8b7ab7","ios":"levelo://app?vid=97cf3003-831b-4081-a0a4-c7658c8b7ab7"},"vehicle_type_id":"4","last_reported":1742494438,"current_range_meters":4400,"station_id":"ce4bhbp2rcd13ifvqesg","pricing_plan_id":"cebpf4jnsgd1na2vs0mg"},{"bike_id":"dd55a980-0e99-48e8-9e4a-ef2f02d5aac0","system_id":"levelo_inurba_marseille","lat":43.31535,"lon":5.38023,"is_reserved":false,"is_disabled":false,"rental_uris":{"android":"levelo://app?vid=dd55a980-0e99-48e8-9e4a-ef2f02d5aac0","ios":"levelo://app?vid=dd55a980-0e99-48e8-9e4a-ef2f02d5aac0"},"vehicle_type_id":"4","last_reported":1742494438,"current_range_meters":4800,"station_id":"ce4bhsp2rcd13ifvqi50","pricing_plan_id":"cebpf4jnsgd1na2vs0mg"},{"bike_id":"1579e3ac-b03c-48c9-8e64-c6432517bdfc","system_id":"levelo_inurba_marseille","lat":43.298935,"lon":5.388855,"is_reserved":false,"is_disabled":false,"rental_uris":{"android":"levelo://app?vid=1579e3ac-b03c-48c9-8e64-c6432517bdfc","ios":"levelo://app?vid=1579e3ac-b03c-48c9-8e64-c6432517bdfc"},"vehicle_type_id":"4","last_reported":1742494438,"current_range_meters":4800,"station_id":"ce4bh392rcd13ifvqdl0","pricing_plan_id":"cebpf4jnsgd1na2vs0mg"},{"bike_id":"d59acdc0-e001-4b8c-a264-59314b993116","system_id":"levelo_inurba_marseille","lat":43.2706,"lon":5.40262,"is_reserved":false,"is_disabled":false,"rental_uris":{"android":"levelo://app?vid=d59acdc0-e001-4b8c-a264-59314b993116","ios":"levelo://app?vid=d59acdc0-e001-4b8c-a264-59314b993116"},"vehicle_type_id":"4","last_reported":1742494438,"current_range_meters":4800,"station_id":"ce4bhk92rcd13ifvqgc0","pricing_plan_id":"cebpf4jnsgd1na2vs0mg"},{"bike_id":"62ac2959-a0ce-4578-a8f5-287886b70aa8","system_id":"levelo_inurba_marseille","lat":43.2997,"lon":5.38496,"is_reserved":false,"is_disabled":false,"rental_uris":{"android":"levelo://app?vid=62ac2959-a0ce-4578-a8f5-287886b70aa8","ios":"levelo://app?vid=62ac2959-a0ce-4578-a8f5-287886b70aa8"},"vehicle_type_id":"4","last_reported":1742494438,"current_range_meters":4800,"station_id":"ce4bgj92rcd13ifvqbd0","pricing_plan_id":"cebpf4jnsgd1na2vs0mg"},{"bike_id":"48171475-4adb-4c11-937a-17d586657602","system_id":"levelo_inurba_marseille","lat":43.3091,"lon":5.36851,"is_reserved":false,"is_disabled":false,"rental_uris":{"android":"levelo://app?vid=48171475-4adb-4c11-937a-17d586657602","ios":"levelo://app?vid=48171475-4adb-4c11-937a-17d586657602"},"vehicle_type_id":"4","last_reported":1742494438,"current_range_meters":4400,"station_id":"ce4bgn92rcd13ifvqbvg","pricing_plan_id":"cebpf4jnsgd1na2vs0mg"},{"bike_id":"96afeeb1-d342-4d65-b547-6c665ea681e7","system_id":"levelo_inurba_marseille","lat":43.30436,"lon":5.38886,"is_reserved":false,"is_disabled":false,"rental_uris":{"android":"levelo://app?vid=96afeeb1-d342-4d65-b547-6c665ea681e7","ios":"levelo://app?vid=96afeeb1-d342-4d65-b547-6c665ea681e7"},"vehicle_type_id":"4","last_reported":1742494438,"current_range_meters":4800,"station_id":"ce4bgk12rcd13ifvqbi0","pricing_plan_id":"cebpf4jnsgd1na2vs0mg"},{"bike_id":"80c5e2ea-27b8-447b-b103-e3579e8330d9","system_id":"levelo_inurba_marseille","lat":43.2927,"lon":5.36842,"is_reserved":false,"is_disabled":false,"rental_uris":{"android":"levelo://app?vid=80c5e2ea-27b8-447b-b103-e3579e8330d9","ios":"levelo://app?vid=80c5e2ea-27b8-447b-b103-e3579e8330d9"},"vehicle_type_id":"4","last_reported":1742494438,"current_range_meters":4800,"station_id":"ce4bhbp2rcd13ifvqesg","pricing_plan_id":"cebpf4jnsgd1na2vs0mg"},{"bike_id":"31642900-a649-4603-adfe-57d3dc2f43af","system_id":"levelo_inurba_marseille","lat":43.27835,"lon":5.39213,"is_reserved":false,"is_disabled":false,"rental_uris":{"android":"levelo://app?vid=31642900-a649-4603-adfe-57d3dc2f43af","ios":"levelo://app?vid=31642900-a649-4603-adfe-57d3dc2f43af"},"vehicle_type_id":"4","last_reported":1742494438,"current_range_meters":4400,"station_id":"ce4bhjp2rcd13ifvqga0","pricing_plan_id":"cebpf4jnsgd1na2vs0mg"},{"bike_id":"3b276e99-234c-4646-acfe-1384ad70d051","system_id":"levelo_inurba_marseille","lat":43.2509,"lon":5.39528,"is_reserved":false,"is_disabled":false,"rental_uris":{"android":"levelo://app?vid=3b276e99-234c-4646-acfe-1384ad70d051","ios":"levelo://app?vid=3b276e99-234c-4646-acfe-1384ad70d051"},"vehicle_type_id":"4","last_reported":1742494438,"current_range_meters":5600,"station_id":"ce4bhm12rcd13ifvqgkg","pricing_plan_id":"cebpf4jnsgd1na2vs0mg"},{"bike_id":"0ef11ccf-6515-47c0-acb2-1f7126ff0a10","system_id":"levelo_inurba_marseille","lat":43.30961,"lon":5.39024,"is_reserved":false,"is_disabled":true,"rental_uris":{"android":"levelo://app?vid=0ef11ccf-6515-47c0-acb2-1f7126ff0a10","ios":"levelo://app?vid=0ef11ccf-6515-47c0-acb2-1f7126ff0a10"},"vehicle_type_id":"4","last_reported":1742494438,"current_range_meters":5600,"station_id":"ce4bgup2rcd13ifvqco0","pricing_plan_id":"cebpf4jnsgd1na2vs0mg"},{"bike_id":"99743687-257a-444c-b1d0-3101ba257cca","system_id":"levelo_inurba_marseille","lat":43.28088,"lon":5.39887,"is_reserved":false,"is_disabled":false,"rental_uris":{"android":"levelo://app?vid=99743687-257a-444c-b1d0-3101ba257cca","ios":"levelo://app?vid=99743687-257a-444c-b1d0-3101ba257cca"},"vehicle_type_id":"4","last_reported":1742494438,"current_range_meters":5600,"station_id":"","pricing_plan_id":"cebpf4jnsgd1na2vs0mg"},{"bike_id":"01c6b3ef-d804-4625-97c5-d8e1e5f38b75","system_id":"levelo_inurba_marseille","lat":43.26501,"lon":5.39536,"is_reserved":false,"is_disabled":false,"rental_uris":{"android":"levelo://app?vid=01c6b3ef-d804-4625-97c5-d8e1e5f38b75","ios":"levelo://app?vid=01c6b3ef-d804-4625-97c5-d8e1e5f38b75"},"vehicle_type_id":"4","last_reported":1742494438,"current_range_meters":5600,"station_id":"ce4bhi12rcd13ifvqfq0","pricing_plan_id":"cebpf4jnsgd1na2vs0mg"},{"bike_id":"3455258b-4135-46b9-9a26-10bf95160e40","system_id":"levelo_inurba_marseille","lat":43.23196,"lon":5.35546,"is_reserved":false,"is_disabled":false,"rental_uris":{"android":"levelo://app?vid=3455258b-4135-46b9-9a26-10bf95160e40","ios":"levelo://app?vid=3455258b-4135-46b9-9a26-10bf95160e40"},"vehicle_type_id":"4","last_reported":1742494438,"current_range_meters":5600,"station_id":"ce4bhu92rcd13ifvqi70","pricing_plan_id":"cebpf4jnsgd1na2vs0mg"},{"bike_id":"3d388250-0689-4095-9f95-693a495b1cfd","system_id":"levelo_inurba_marseille","lat":43.23188,"lon":5.3998,"is_reserved":false,"is_disabled":false,"rental_uris":{"android":"levelo://app?vid=3d388250-0689-4095-9f95-693a495b1cfd","ios":"levelo://app?vid=3d388250-0689-4095-9f95-693a495b1cfd"},"vehicle_type_id":"4","last_reported":1742494438,"current_range_meters":5600,"station_id":"ce4bhn12rcd13ifvqgqg","pricing_plan_id":"cebpf4jnsgd1na2vs0mg"},{"bike_id":"2ee39397-56b6-4612-ae8f-416182a4bb3d","system_id":"levelo_inurba_marseille","lat":43.2835,"lon":5.38108,"is_reserved":false,"is_disabled":false,"rental_uris":{"android":"levelo://app?vid=2ee39397-56b6-4612-ae8f-416182a4bb3d","ios":"levelo://app?vid=2ee39397-56b6-4612-ae8f-416182a4bb3d"},"vehicle_type_id":"4","last_reported":1742494438,"current_range_meters":6000,"station_id":"ce4bh412rcd13ifvqdr0","pricing_plan_id":"cebpf4jnsgd1na2vs0mg"},{"bike_id":"5d6040da-a22d-4644-92cc-c182b7481377","system_id":"levelo_inurba_marseille","lat":43.27191,"lon":5.40995,"is_reserved":false,"is_disabled":false,"rental_uris":{"android":"levelo://app?vid=5d6040da-a22d-4644-92cc-c182b7481377","ios":"levelo://app?vid=5d6040da-a22d-4644-92cc-c182b7481377"},"vehicle_type_id":"4","last_reported":1742494438,"current_range_meters":6000,"station_id":"ce4bhl12rcd13ifvqgf0","pricing_plan_id":"cebpf4jnsgd1na2vs0mg"},{"bike_id":"2ff93215-386c-48b5-a177-d307031f461b","system_id":"levelo_inurba_marseille","lat":43.2886,"lon":5.35832,"is_reserved":false,"is_disabled":false,"rental_uris":{"android":"levelo://app?vid=2ff93215-386c-48b5-a177-d307031f461b","ios":"levelo://app?vid=2ff93215-386c-48b5-a177-d307031f461b"},"vehicle_type_id":"4","last_reported":1742494438,"current_range_meters":6000,"station_id":"ce4bhb12rcd13ifvqem0","pricing_plan_id":"cebpf4jnsgd1na2vs0mg"},{"bike_id":"987a2d8d-c75a-460f-b343-9c7be22347b5","system_id":"levelo_inurba_marseille","lat":43.2835,"lon":5.38106,"is_reserved":false,"is_disabled":false,"rental_uris":{"android":"levelo://app?vid=987a2d8d-c75a-460f-b343-9c7be22347b5","ios":"levelo://app?vid=987a2d8d-c75a-460f-b343-9c7be22347b5"},"vehicle_type_id":"4","last_reported":1742494438,"current_range_meters":5600,"station_id":"ce4bh412rcd13ifvqdr0","pricing_plan_id":"cebpf4jnsgd1na2vs0mg"},{"bike_id":"5174c74f-2b49-402b-a115-de1351dc7410","system_id":"levelo_inurba_marseille","lat":43.2953,"lon":5.38547,"is_reserved":false,"is_disabled":false,"rental_uris":{"android":"levelo://app?vid=5174c74f-2b49-402b-a115-de1351dc7410","ios":"levelo://app?vid=5174c74f-2b49-402b-a115-de1351dc7410"},"vehicle_type_id":"4","last_reported":1742494438,"current_range_meters":6000,"station_id":"ce4bgih2rcd13ifvqba0","pricing_plan_id":"cebpf4jnsgd1na2vs0mg"},{"bike_id":"30448cfc-53ac-4088-86ed-3a624fbeb1f7","system_id":"levelo_inurba_marseille","lat":43.23961,"lon":5.36632,"is_reserved":false,"is_disabled":false,"rental_uris":{"android":"levelo://app?vid=30448cfc-53ac-4088-86ed-3a624fbeb1f7","ios":"levelo://app?vid=30448cfc-53ac-4088-86ed-3a624fbeb1f7"},"vehicle_type_id":"4","last_reported":1742494438,"current_range_meters":6000,"station_id":"ce4bhi12rcd13ifvqfp0","pricing_plan_id":"cebpf4jnsgd1na2vs0mg"},{"bike_id":"dd3884dc-0b6b-4a2b-8af5-b0f72ae3a61b","system_id":"levelo_inurba_marseille","lat":43.23203,"lon":5.3555,"is_reserved":false,"is_disabled":false,"rental_uris":{"android":"levelo://app?vid=dd3884dc-0b6b-4a2b-8af5-b0f72ae3a61b","ios":"levelo://app?vid=dd3884dc-0b6b-4a2b-8af5-b0f72ae3a61b"},"vehicle_type_id":"4","last_reported":1742494438,"current_range_meters":6000,"station_id":"ce4bhu92rcd13ifvqi70","pricing_plan_id":"cebpf4jnsgd1na2vs0mg"},{"bike_id":"ce93e084-89d5-47cf-aa6a-c310339f6a6e","system_id":"levelo_inurba_marseille","lat":43.284943,"lon":5.38544,"is_reserved":false,"is_disabled":false,"rental_uris":{"android":"levelo://app?vid=ce93e084-89d5-47cf-aa6a-c310339f6a6e","ios":"levelo://app?vid=ce93e084-89d5-47cf-aa6a-c310339f6a6e"},"vehicle_type_id":"4","last_reported":1742494438,"current_range_meters":6000,"station_id":"","pricing_plan_id":"cebpf4jnsgd1na2vs0mg"},{"bike_id":"28a07579-9ac3-4da1-82a2-f9d200b8d575","system_id":"levelo_inurba_marseille","lat":43.24651,"lon":5.38935,"is_reserved":false,"is_disabled":false,"rental_uris":{"android":"levelo://app?vid=28a07579-9ac3-4da1-82a2-f9d200b8d575","ios":"levelo://app?vid=28a07579-9ac3-4da1-82a2-f9d200b8d575"},"vehicle_type_id":"4","last_reported":1742494438,"current_range_meters":6000,"station_id":"ce4bhg12rcd13ifvqf60","pricing_plan_id":"cebpf4jnsgd1na2vs0mg"},{"bike_id":"f2dc44ab-4460-4ae6-9e8f-1abed24c55ae","system_id":"levelo_inurba_marseille","lat":43.2719,"lon":5.41011,"is_reserved":false,"is_disabled":false,"rental_uris":{"android":"levelo://app?vid=f2dc44ab-4460-4ae6-9e8f-1abed24c55ae","ios":"levelo://app?vid=f2dc44ab-4460-4ae6-9e8f-1abed24c55ae"},"vehicle_type_id":"4","last_reported":1742494438,"current_range_meters":6000,"station_id":"ce4bhl12rcd13ifvqgf0","pricing_plan_id":"cebpf4jnsgd1na2vs0mg"},{"bike_id":"0f0379d0-9e31-4d59-aa71-1b8fef29c39c","system_id":"levelo_inurba_marseille","lat":43.25695,"lon":5.41113,"is_reserved":false,"is_disabled":false,"rental_uris":{"android":"levelo://app?vid=0f0379d0-9e31-4d59-aa71-1b8fef29c39c","ios":"levelo://app?vid=0f0379d0-9e31-4d59-aa71-1b8fef29c39c"},"vehicle_type_id":"4","last_reported":1742494438,"current_range_meters":6400,"station_id":"ce4bhkp2rcd13ifvqgd0","pricing_plan_id":"cebpf4jnsgd1na2vs0mg"},{"bike_id":"c3562de0-8d86-41c8-a4a0-8a1a926e1139","system_id":"levelo_inurba_marseille","lat":43.27935,"lon":5.41035,"is_reserved":false,"is_disabled":false,"rental_uris":{"android":"levelo://app?vid=c3562de0-8d86-41c8-a4a0-8a1a926e1139","ios":"levelo://app?vid=c3562de0-8d86-41c8-a4a0-8a1a926e1139"},"vehicle_type_id":"4","last_reported":1742494438,"current_range_meters":6400,"station_id":"ce4bhnp2rcd13ifvqh0g","pricing_plan_id":"cebpf4jnsgd1na2vs0mg"},{"bike_id":"a27e9e25-06bf-4175-9bd6-9c00c02ad86d","system_id":"levelo_inurba_marseille","lat":43.24399,"lon":5.37064,"is_reserved":false,"is_disabled":false,"rental_uris":{"android":"levelo://app?vid=a27e9e25-06bf-4175-9bd6-9c00c02ad86d","ios":"levelo://app?vid=a27e9e25-06bf-4175-9bd6-9c00c02ad86d"},"vehicle_type_id":"4","last_reported":1742494438,"current_range_meters":6400,"station_id":"ce4bhhh2rcd13ifvqfk0","pricing_plan_id":"cebpf4jnsgd1na2vs0mg"},{"bike_id":"0bf66029-dcd2-40a2-bc49-a6b3f4a73213","system_id":"levelo_inurba_marseille","lat":43.3013,"lon":5.38794,"is_reserved":false,"is_disabled":false,"rental_uris":{"android":"levelo://app?vid=0bf66029-dcd2-40a2-bc49-a6b3f4a73213","ios":"levelo://app?vid=0bf66029-dcd2-40a2-bc49-a6b3f4a73213"},"vehicle_type_id":"4","last_reported":1742494438,"current_range_meters":6400,"station_id":"ce4bghh2rcd13ifvqb60","pricing_plan_id":"cebpf4jnsgd1na2vs0mg"},{"bike_id":"181a4fde-9b69-4103-90f9-7e9ef00b3a7a","system_id":"levelo_inurba_marseille","lat":43.24813,"lon":5.37455,"is_reserved":false,"is_disabled":false,"rental_uris":{"android":"levelo://app?vid=181a4fde-9b69-4103-90f9-7e9ef00b3a7a","ios":"levelo://app?vid=181a4fde-9b69-4103-90f9-7e9ef00b3a7a"},"vehicle_type_id":"4","last_reported":1742494438,"current_range_meters":6400,"station_id":"ce4bhgh2rcd13ifvqfb0","pricing_plan_id":"cebpf4jnsgd1na2vs0mg"},{"bike_id":"e8e35403-2f7c-4428-9a61-3d7aebaa7ae2","system_id":"levelo_inurba_marseille","lat":43.2892,"lon":5.38405,"is_reserved":false,"is_disabled":false,"rental_uris":{"android":"levelo://app?vid=e8e35403-2f7c-4428-9a61-3d7aebaa7ae2","ios":"levelo://app?vid=e8e35403-2f7c-4428-9a61-3d7aebaa7ae2"},"vehicle_type_id":"4","last_reported":1742494438,"current_range_meters":6400,"station_id":"ce4bh612rcd13ifvqe6g","pricing_plan_id":"cebpf4jnsgd1na2vs0mg"},{"bike_id":"6a46018a-1cd5-4068-972b-fc963760c628","system_id":"levelo_inurba_marseille","lat":43.28927,"lon":5.38417,"is_reserved":false,"is_disabled":false,"rental_uris":{"android":"levelo://app?vid=6a46018a-1cd5-4068-972b-fc963760c628","ios":"levelo://app?vid=6a46018a-1cd5-4068-972b-fc963760c628"},"vehicle_type_id":"4","last_reported":1742494438,"current_range_meters":6400,"station_id":"ce4bh612rcd13ifvqe6g","pricing_plan_id":"cebpf4jnsgd1na2vs0mg"},{"bike_id":"1fea0b3c-94ab-41af-b18e-d9bbaa7dda49","system_id":"levelo_inurba_marseille","lat":43.31709,"lon":5.43702,"is_reserved":false,"is_disabled":false,"rental_uris":{"android":"levelo://app?vid=1fea0b3c-94ab-41af-b18e-d9bbaa7dda49","ios":"levelo://app?vid=1fea0b3c-94ab-41af-b18e-d9bbaa7dda49"},"vehicle_type_id":"4","last_reported":1742494438,"current_range_meters":6400,"station_id":"ce4bhp92rcd13ifvqhcg","pricing_plan_id":"cebpf4jnsgd1na2vs0mg"},{"bike_id":"7325949f-1acb-4d88-9fc7-d4554f50ad4c","system_id":"levelo_inurba_marseille","lat":43.29532,"lon":5.38537,"is_reserved":false,"is_disabled":false,"rental_uris":{"android":"levelo://app?vid=7325949f-1acb-4d88-9fc7-d4554f50ad4c","ios":"levelo://app?vid=7325949f-1acb-4d88-9fc7-d4554f50ad4c"},"vehicle_type_id":"4","last_reported":1742494438,"current_range_meters":6400,"station_id":"ce4bgih2rcd13ifvqba0","pricing_plan_id":"cebpf4jnsgd1na2vs0mg"},{"bike_id":"9ca04de1-e0f1-4186-9bba-159fbcc2fc30","system_id":"levelo_inurba_marseille","lat":43.26206,"lon":5.37927,"is_reserved":false,"is_disabled":true,"rental_uris":{"android":"levelo://app?vid=9ca04de1-e0f1-4186-9bba-159fbcc2fc30","ios":"levelo://app?vid=9ca04de1-e0f1-4186-9bba-159fbcc2fc30"},"vehicle_type_id":"4","last_reported":1742494438,"current_range_meters":6400,"station_id":"ce4bhjp2rcd13ifvqg90","pricing_plan_id":"cebpf4jnsgd1na2vs0mg"},{"bike_id":"8a059d65-2f20-456a-849e-c3b4c355a6a2","system_id":"levelo_inurba_marseille","lat":43.26573,"lon":5.38993,"is_reserved":false,"is_disabled":false,"rental_uris":{"android":"levelo://app?vid=8a059d65-2f20-456a-849e-c3b4c355a6a2","ios":"levelo://app?vid=8a059d65-2f20-456a-849e-c3b4c355a6a2"},"vehicle_type_id":"4","last_reported":1742494438,"current_range_meters":6800,"station_id":"ce4bhe12rcd13ifvqf30","pricing_plan_id":"cebpf4jnsgd1na2vs0mg"},{"bike_id":"3aa9d84a-9a89-433f-a230-e041b5af07eb","system_id":"levelo_inurba_marseille","lat":43.32031,"lon":5.41566,"is_reserved":false,"is_disabled":false,"rental_uris":{"android":"levelo://app?vid=3aa9d84a-9a89-433f-a230-e041b5af07eb","ios":"levelo://app?vid=3aa9d84a-9a89-433f-a230-e041b5af07eb"},"vehicle_type_id":"4","last_reported":1742494438,"current_range_meters":6400,"station_id":"ce4bhq92rcd13ifvqhkg","pricing_plan_id":"cebpf4jnsgd1na2vs0mg"},{"bike_id":"64384f90-273f-453d-8f8c-405e05197936","system_id":"levelo_inurba_marseille","lat":43.28857,"lon":5.39311,"is_reserved":false,"is_disabled":false,"rental_uris":{"android":"levelo://app?vid=64384f90-273f-453d-8f8c-405e05197936","ios":"levelo://app?vid=64384f90-273f-453d-8f8c-405e05197936"},"vehicle_type_id":"4","last_reported":1742494438,"current_range_meters":6800,"station_id":"ce4bh2p2rcd13ifvqdi0","pricing_plan_id":"cebpf4jnsgd1na2vs0mg"},{"bike_id":"9a6e2ba2-f2b0-463e-aed1-752a3cc20324","system_id":"levelo_inurba_marseille","lat":43.29448,"lon":5.39746,"is_reserved":false,"is_disabled":false,"rental_uris":{"android":"levelo://app?vid=9a6e2ba2-f2b0-463e-aed1-752a3cc20324","ios":"levelo://app?vid=9a6e2ba2-f2b0-463e-aed1-752a3cc20324"},"vehicle_type_id":"4","last_reported":1742494438,"current_range_meters":6800,"station_id":"ce4bh3h2rcd13ifvqdo0","pricing_plan_id":"cebpf4jnsgd1na2vs0mg"},{"bike_id":"a115a50a-6b07-4e25-ae5a-9408c0c21195","system_id":"levelo_inurba_marseille","lat":43.29304,"lon":5.37184,"is_reserved":false,"is_disabled":false,"rental_uris":{"android":"levelo://app?vid=a115a50a-6b07-4e25-ae5a-9408c0c21195","ios":"levelo://app?vid=a115a50a-6b07-4e25-ae5a-9408c0c21195"},"vehicle_type_id":"4","last_reported":1742494438,"current_range_meters":6800,"station_id":"ce4bgh92rcd13ifvqb40","pricing_plan_id":"cebpf4jnsgd1na2vs0mg"},{"bike_id":"02f43b01-3b74-45fa-a40e-2df823c84cda","system_id":"levelo_inurba_marseille","lat":43.24167,"lon":5.39696,"is_reserved":false,"is_disabled":false,"rental_uris":{"android":"levelo://app?vid=02f43b01-3b74-45fa-a40e-2df823c84cda","ios":"levelo://app?vid=02f43b01-3b74-45fa-a40e-2df823c84cda"},"vehicle_type_id":"4","last_reported":1742494438,"current_range_meters":6800,"station_id":"ce4bhn12rcd13ifvqgpg","pricing_plan_id":"cebpf4jnsgd1na2vs0mg"},{"bike_id":"a9095a90-dc78-461d-9825-f58f3b460c45","system_id":"levelo_inurba_marseille","lat":43.30091,"lon":5.39097,"is_reserved":false,"is_disabled":false,"rental_uris":{"android":"levelo://app?vid=a9095a90-dc78-461d-9825-f58f3b460c45","ios":"levelo://app?vid=a9095a90-dc78-461d-9825-f58f3b460c45"},"vehicle_type_id":"4","last_reported":1742494438,"current_range_meters":6800,"station_id":"ce4bh192rcd13ifvqdb0","pricing_plan_id":"cebpf4jnsgd1na2vs0mg"},{"bike_id":"ae4109ed-e9c8-47a6-b378-b936d803332f","system_id":"levelo_inurba_marseille","lat":43.29261,"lon":5.40898,"is_reserved":false,"is_disabled":false,"rental_uris":{"android":"levelo://app?vid=ae4109ed-e9c8-47a6-b378-b936d803332f","ios":"levelo://app?vid=ae4109ed-e9c8-47a6-b378-b936d803332f"},"vehicle_type_id":"4","last_reported":1742494438,"current_range_meters":6800,"station_id":"ce4bh192rcd13ifvqdc0","pricing_plan_id":"cebpf4jnsgd1na2vs0mg"},{"bike_id":"49924b7e-04a6-47f7-9535-206be66abb4e","system_id":"levelo_inurba_marseille","lat":43.2926,"lon":5.40907,"is_reserved":false,"is_disabled":false,"rental_uris":{"android":"levelo://app?vid=49924b7e-04a6-47f7-9535-206be66abb4e","ios":"levelo://app?vid=49924b7e-04a6-47f7-9535-206be66abb4e"},"vehicle_type_id":"4","last_reported":1742494438,"current_range_meters":6800,"station_id":"ce4bh192rcd13ifvqdc0","pricing_plan_id":"cebpf4jnsgd1na2vs0mg"},{"bike_id":"9d26c008-8ec1-4269-9cd2-f45774f03ccb","system_id":"levelo_inurba_marseille","lat":43.2797,"lon":5.37924,"is_reserved":false,"is_disabled":false,"rental_uris":{"android":"levelo://app?vid=9d26c008-8ec1-4269-9cd2-f45774f03ccb","ios":"levelo://app?vid=9d26c008-8ec1-4269-9cd2-f45774f03ccb"},"vehicle_type_id":"4","last_reported":1742494438,"current_range_meters":6800,"station_id":"","pricing_plan_id":"cebpf4jnsgd1na2vs0mg"},{"bike_id":"fc410cdd-c461-4918-8037-02954317cd69","system_id":"levelo_inurba_marseille","lat":43.2815,"lon":5.42652,"is_reserved":false,"is_disabled":false,"rental_uris":{"android":"levelo://app?vid=fc410cdd-c461-4918-8037-02954317cd69","ios":"levelo://app?vid=fc410cdd-c461-4918-8037-02954317cd69"},"vehicle_type_id":"4","last_reported":1742494438,"current_range_meters":6800,"station_id":"ce4bhnh2rcd13ifvqgug","pricing_plan_id":"cebpf4jnsgd1na2vs0mg"},{"bike_id":"d526b6e2-b103-4339-baa5-b85128efba8c","system_id":"levelo_inurba_marseille","lat":43.23059,"lon":5.35491,"is_reserved":false,"is_disabled":false,"rental_uris":{"android":"levelo://app?vid=d526b6e2-b103-4339-baa5-b85128efba8c","ios":"levelo://app?vid=d526b6e2-b103-4339-baa5-b85128efba8c"},"vehicle_type_id":"4","last_reported":1742494438,"current_range_meters":6800,"station_id":"cpo3342slgdg3j2ifvpg","pricing_plan_id":"cebpf4jnsgd1na2vs0mg"},{"bike_id":"2ef1a98b-b646-4cd0-b8c8-a70621a02f4d","system_id":"levelo_inurba_marseille","lat":43.29806,"lon":5.38103,"is_reserved":false,"is_disabled":false,"rental_uris":{"android":"levelo://app?vid=2ef1a98b-b646-4cd0-b8c8-a70621a02f4d","ios":"levelo://app?vid=2ef1a98b-b646-4cd0-b8c8-a70621a02f4d"},"vehicle_type_id":"4","last_reported":1742494438,"current_range_meters":7200,"station_id":"ce4bgip2rcd13ifvqbb0","pricing_plan_id":"cebpf4jnsgd1na2vs0mg"},{"bike_id":"bbeeba9c-bba6-4245-9ef3-7ce44bc68299","system_id":"levelo_inurba_marseille","lat":43.239655,"lon":5.366045,"is_reserved":false,"is_disabled":false,"rental_uris":{"android":"levelo://app?vid=bbeeba9c-bba6-4245-9ef3-7ce44bc68299","ios":"levelo://app?vid=bbeeba9c-bba6-4245-9ef3-7ce44bc68299"},"vehicle_type_id":"4","last_reported":1742494438,"current_range_meters":7200,"station_id":"ce4bhi12rcd13ifvqfp0","pricing_plan_id":"cebpf4jnsgd1na2vs0mg"},{"bike_id":"3ae4f3bd-c485-4c98-8e8e-3c9bb312423a","system_id":"levelo_inurba_marseille","lat":43.2481,"lon":5.37465,"is_reserved":false,"is_disabled":false,"rental_uris":{"android":"levelo://app?vid=3ae4f3bd-c485-4c98-8e8e-3c9bb312423a","ios":"levelo://app?vid=3ae4f3bd-c485-4c98-8e8e-3c9bb312423a"},"vehicle_type_id":"4","last_reported":1742494438,"current_range_meters":7200,"station_id":"ce4bhgh2rcd13ifvqfb0","pricing_plan_id":"cebpf4jnsgd1na2vs0mg"},{"bike_id":"a8b8dae1-87ef-4f8a-a2c8-fe9fd9bf0f77","system_id":"levelo_inurba_marseille","lat":43.23528,"lon":5.37791,"is_reserved":false,"is_disabled":false,"rental_uris":{"android":"levelo://app?vid=a8b8dae1-87ef-4f8a-a2c8-fe9fd9bf0f77","ios":"levelo://app?vid=a8b8dae1-87ef-4f8a-a2c8-fe9fd9bf0f77"},"vehicle_type_id":"4","last_reported":1742494438,"current_range_meters":7200,"station_id":"","pricing_plan_id":"cebpf4jnsgd1na2vs0mg"},{"bike_id":"90e30534-300b-4c7d-a549-211f21035f8c","system_id":"levelo_inurba_marseille","lat":43.32291,"lon":5.38268,"is_reserved":false,"is_disabled":false,"rental_uris":{"android":"levelo://app?vid=90e30534-300b-4c7d-a549-211f21035f8c","ios":"levelo://app?vid=90e30534-300b-4c7d-a549-211f21035f8c"},"vehicle_type_id":"4","last_reported":1742494438,"current_range_meters":7200,"station_id":"ce4bhr12rcd13ifvqhqg","pricing_plan_id":"cebpf4jnsgd1na2vs0mg"},{"bike_id":"28f34723-7aef-4dd9-ba81-7d6deba682cf","system_id":"levelo_inurba_marseille","lat":43.28158,"lon":5.4265,"is_reserved":false,"is_disabled":false,"rental_uris":{"android":"levelo://app?vid=28f34723-7aef-4dd9-ba81-7d6deba682cf","ios":"levelo://app?vid=28f34723-7aef-4dd9-ba81-7d6deba682cf"},"vehicle_type_id":"4","last_reported":1742494438,"current_range_meters":7200,"station_id":"ce4bhnh2rcd13ifvqgug","pricing_plan_id":"cebpf4jnsgd1na2vs0mg"},{"bike_id":"67de6f5c-f528-4e86-a08d-fc11348bb267","system_id":"levelo_inurba_marseille","lat":43.23191,"lon":5.39985,"is_reserved":false,"is_disabled":false,"rental_uris":{"android":"levelo://app?vid=67de6f5c-f528-4e86-a08d-fc11348bb267","ios":"levelo://app?vid=67de6f5c-f528-4e86-a08d-fc11348bb267"},"vehicle_type_id":"4","last_reported":1742494438,"current_range_meters":6800,"station_id":"ce4bhn12rcd13ifvqgqg","pricing_plan_id":"cebpf4jnsgd1na2vs0mg"},{"bike_id":"bb707c48-eaef-4370-96be-8486482abfa7","system_id":"levelo_inurba_marseille","lat":43.30144,"lon":5.39875,"is_reserved":false,"is_disabled":false,"rental_uris":{"android":"levelo://app?vid=bb707c48-eaef-4370-96be-8486482abfa7","ios":"levelo://app?vid=bb707c48-eaef-4370-96be-8486482abfa7"},"vehicle_type_id":"4","last_reported":1742494438,"current_range_meters":7200,"station_id":"ce4bh0h2rcd13ifvqd40","pricing_plan_id":"cebpf4jnsgd1na2vs0mg"},{"bike_id":"85e6eddd-1bdd-4d15-be38-d21f41554e3c","system_id":"levelo_inurba_marseille","lat":43.285155,"lon":5.384054,"is_reserved":false,"is_disabled":false,"rental_uris":{"android":"levelo://app?vid=85e6eddd-1bdd-4d15-be38-d21f41554e3c","ios":"levelo://app?vid=85e6eddd-1bdd-4d15-be38-d21f41554e3c"},"vehicle_type_id":"4","last_reported":1742494438,"current_range_meters":6800,"station_id":"ce4bh492rcd13ifvqdvg","pricing_plan_id":"cebpf4jnsgd1na2vs0mg"},{"bike_id":"176d2e0b-da43-4b98-b92e-b45d4ab12b2f","system_id":"levelo_inurba_marseille","lat":43.30211,"lon":5.38442,"is_reserved":false,"is_disabled":false,"rental_uris":{"android":"levelo://app?vid=176d2e0b-da43-4b98-b92e-b45d4ab12b2f","ios":"levelo://app?vid=176d2e0b-da43-4b98-b92e-b45d4ab12b2f"},"vehicle_type_id":"4","last_reported":1742494438,"current_range_meters":7200,"station_id":"","pricing_plan_id":"cebpf4jnsgd1na2vs0mg"},{"bike_id":"34f62ef8-0841-43ad-ae47-94f77f1fd13a","system_id":"levelo_inurba_marseille","lat":43.29252,"lon":5.40907,"is_reserved":false,"is_disabled":false,"rental_uris":{"android":"levelo://app?vid=34f62ef8-0841-43ad-ae47-94f77f1fd13a","ios":"levelo://app?vid=34f62ef8-0841-43ad-ae47-94f77f1fd13a"},"vehicle_type_id":"4","last_reported":1742494438,"current_range_meters":8000,"station_id":"ce4bh192rcd13ifvqdc0","pricing_plan_id":"cebpf4jnsgd1na2vs0mg"},{"bike_id":"6eb98e18-92f8-411c-92c0-82d5569fb85c","system_id":"levelo_inurba_marseille","lat":43.32373,"lon":5.36764,"is_reserved":false,"is_disabled":false,"rental_uris":{"android":"levelo://app?vid=6eb98e18-92f8-411c-92c0-82d5569fb85c","ios":"levelo://app?vid=6eb98e18-92f8-411c-92c0-82d5569fb85c"},"vehicle_type_id":"4","last_reported":1742494438,"current_range_meters":8000,"station_id":"ce4bhsh2rcd13ifvqi2g","pricing_plan_id":"cebpf4jnsgd1na2vs0mg"},{"bike_id":"79705e24-89d1-4746-b938-647ed5488fcd","system_id":"levelo_inurba_marseille","lat":43.2997,"lon":5.38487,"is_reserved":false,"is_disabled":false,"rental_uris":{"android":"levelo://app?vid=79705e24-89d1-4746-b938-647ed5488fcd","ios":"levelo://app?vid=79705e24-89d1-4746-b938-647ed5488fcd"},"vehicle_type_id":"4","last_reported":1742494438,"current_range_meters":8000,"station_id":"ce4bgj92rcd13ifvqbd0","pricing_plan_id":"cebpf4jnsgd1na2vs0mg"},{"bike_id":"88974c05-a0f6-46a8-af5e-0298bc625c27","system_id":"levelo_inurba_marseille","lat":43.29851,"lon":5.36287,"is_reserved":false,"is_disabled":false,"rental_uris":{"android":"levelo://app?vid=88974c05-a0f6-46a8-af5e-0298bc625c27","ios":"levelo://app?vid=88974c05-a0f6-46a8-af5e-0298bc625c27"},"vehicle_type_id":"4","last_reported":1742494438,"current_range_meters":8000,"station_id":"ce4bgpp2rcd13ifvqc3g","pricing_plan_id":"cebpf4jnsgd1na2vs0mg"},{"bike_id":"fc222273-d050-4743-b8b5-353fd8ca2aff","system_id":"levelo_inurba_marseille","lat":43.31121,"lon":5.37781,"is_reserved":false,"is_disabled":false,"rental_uris":{"android":"levelo://app?vid=fc222273-d050-4743-b8b5-353fd8ca2aff","ios":"levelo://app?vid=fc222273-d050-4743-b8b5-353fd8ca2aff"},"vehicle_type_id":"4","last_reported":1742494438,"current_range_meters":8000,"station_id":"ce4bgt92rcd13ifvqcg0","pricing_plan_id":"cebpf4jnsgd1na2vs0mg"},{"bike_id":"298094ff-1b8f-403e-b315-5326030acb86","system_id":"levelo_inurba_marseille","lat":43.2816,"lon":5.42643,"is_reserved":false,"is_disabled":false,"rental_uris":{"android":"levelo://app?vid=298094ff-1b8f-403e-b315-5326030acb86","ios":"levelo://app?vid=298094ff-1b8f-403e-b315-5326030acb86"},"vehicle_type_id":"4","last_reported":1742494438,"current_range_meters":8000,"station_id":"ce4bhnh2rcd13ifvqgug","pricing_plan_id":"cebpf4jnsgd1na2vs0mg"},{"bike_id":"77e20602-cafa-4f37-b5f8-e3fe538c043f","system_id":"levelo_inurba_marseille","lat":43.28923,"lon":5.38401,"is_reserved":false,"is_disabled":false,"rental_uris":{"android":"levelo://app?vid=77e20602-cafa-4f37-b5f8-e3fe538c043f","ios":"levelo://app?vid=77e20602-cafa-4f37-b5f8-e3fe538c043f"},"vehicle_type_id":"4","last_reported":1742494438,"current_range_meters":8000,"station_id":"ce4bh612rcd13ifvqe6g","pricing_plan_id":"cebpf4jnsgd1na2vs0mg"},{"bike_id":"f4c4bf6d-48a4-4198-942b-eda89b945e41","system_id":"levelo_inurba_marseille","lat":43.27376,"lon":5.3627,"is_reserved":false,"is_disabled":false,"rental_uris":{"android":"levelo://app?vid=f4c4bf6d-48a4-4198-942b-eda89b945e41","ios":"levelo://app?vid=f4c4bf6d-48a4-4198-942b-eda89b945e41"},"vehicle_type_id":"4","last_reported":1742494438,"current_range_meters":8000,"station_id":"ce4bhbh2rcd13ifvqeo0","pricing_plan_id":"cebpf4jnsgd1na2vs0mg"},{"bike_id":"ed5cea79-0bea-4c86-8c80-f8de23687c7f","system_id":"levelo_inurba_marseille","lat":43.274939,"lon":5.439847,"is_reserved":false,"is_disabled":false,"rental_uris":{"android":"levelo://app?vid=ed5cea79-0bea-4c86-8c80-f8de23687c7f","ios":"levelo://app?vid=ed5cea79-0bea-4c86-8c80-f8de23687c7f"},"vehicle_type_id":"4","last_reported":1742494438,"current_range_meters":8000,"station_id":"","pricing_plan_id":"cebpf4jnsgd1na2vs0mg"},{"bike_id":"471b8c1a-1a85-4080-b533-fb41f3dbfd81","system_id":"levelo_inurba_marseille","lat":43.23194,"lon":5.35564,"is_reserved":false,"is_disabled":false,"rental_uris":{"android":"levelo://app?vid=471b8c1a-1a85-4080-b533-fb41f3dbfd81","ios":"levelo://app?vid=471b8c1a-1a85-4080-b533-fb41f3dbfd81"},"vehicle_type_id":"4","last_reported":1742494438,"current_range_meters":8000,"station_id":"ce4bhu92rcd13ifvqi70","pricing_plan_id":"cebpf4jnsgd1na2vs0mg"},{"bike_id":"a2d6a896-610d-4590-a0a7-f136665805a2","system_id":"levelo_inurba_marseille","lat":43.26569,"lon":5.39012,"is_reserved":false,"is_disabled":false,"rental_uris":{"android":"levelo://app?vid=a2d6a896-610d-4590-a0a7-f136665805a2","ios":"levelo://app?vid=a2d6a896-610d-4590-a0a7-f136665805a2"},"vehicle_type_id":"4","last_reported":1742494438,"current_range_meters":8000,"station_id":"ce4bhe12rcd13ifvqf30","pricing_plan_id":"cebpf4jnsgd1na2vs0mg"},{"bike_id":"40209848-f5aa-4b68-a608-8ad89980d46f","system_id":"levelo_inurba_marseille","lat":43.29006,"lon":5.35614,"is_reserved":false,"is_disabled":false,"rental_uris":{"android":"levelo://app?vid=40209848-f5aa-4b68-a608-8ad89980d46f","ios":"levelo://app?vid=40209848-f5aa-4b68-a608-8ad89980d46f"},"vehicle_type_id":"4","last_reported":1742494438,"current_range_meters":8000,"station_id":"ce4bhb92rcd13ifvqen0","pricing_plan_id":"cebpf4jnsgd1na2vs0mg"},{"bike_id":"5fea1364-4567-4934-a988-7e4e687a180f","system_id":"levelo_inurba_marseille","lat":43.28663,"lon":5.36347,"is_reserved":false,"is_disabled":false,"rental_uris":{"android":"levelo://app?vid=5fea1364-4567-4934-a988-7e4e687a180f","ios":"levelo://app?vid=5fea1364-4567-4934-a988-7e4e687a180f"},"vehicle_type_id":"4","last_reported":1742494438,"current_range_meters":8000,"station_id":"ce4bhah2rcd13ifvqej0","pricing_plan_id":"cebpf4jnsgd1na2vs0mg"},{"bike_id":"9c8002fa-5115-46cc-a0fb-0d64ff037ff5","system_id":"levelo_inurba_marseille","lat":43.28107,"lon":5.37839,"is_reserved":false,"is_disabled":false,"rental_uris":{"android":"levelo://app?vid=9c8002fa-5115-46cc-a0fb-0d64ff037ff5","ios":"levelo://app?vid=9c8002fa-5115-46cc-a0fb-0d64ff037ff5"},"vehicle_type_id":"4","last_reported":1742494438,"current_range_meters":8000,"station_id":"ce4bha12rcd13ifvqee0","pricing_plan_id":"cebpf4jnsgd1na2vs0mg"},{"bike_id":"d5427305-1069-45e4-b7e4-2e67053a9674","system_id":"levelo_inurba_marseille","lat":43.25873,"lon":5.39892,"is_reserved":false,"is_disabled":false,"rental_uris":{"android":"levelo://app?vid=d5427305-1069-45e4-b7e4-2e67053a9674","ios":"levelo://app?vid=d5427305-1069-45e4-b7e4-2e67053a9674"},"vehicle_type_id":"4","last_reported":1742494438,"current_range_meters":7200,"station_id":"ce4bhl92rcd13ifvqghg","pricing_plan_id":"cebpf4jnsgd1na2vs0mg"},{"bike_id":"a81003eb-ec73-46b8-bbe9-9eeb35bc8246","system_id":"levelo_inurba_marseille","lat":43.24665,"lon":5.38167,"is_reserved":false,"is_disabled":false,"rental_uris":{"android":"levelo://app?vid=a81003eb-ec73-46b8-bbe9-9eeb35bc8246","ios":"levelo://app?vid=a81003eb-ec73-46b8-bbe9-9eeb35bc8246"},"vehicle_type_id":"4","last_reported":1742494438,"current_range_meters":8000,"station_id":"ce4bhih2rcd13ifvqfr0","pricing_plan_id":"cebpf4jnsgd1na2vs0mg"},{"bike_id":"963455ca-c6f6-48f2-bdad-a8296147d605","system_id":"levelo_inurba_marseille","lat":43.29571,"lon":5.399818,"is_reserved":false,"is_disabled":false,"rental_uris":{"android":"levelo://app?vid=963455ca-c6f6-48f2-bdad-a8296147d605","ios":"levelo://app?vid=963455ca-c6f6-48f2-bdad-a8296147d605"},"vehicle_type_id":"4","last_reported":1742494438,"current_range_meters":8000,"station_id":"","pricing_plan_id":"cebpf4jnsgd1na2vs0mg"},{"bike_id":"cf58f755-5d7a-48ae-b7c7-06e276fac166","system_id":"levelo_inurba_marseille","lat":43.26937,"lon":5.38921,"is_reserved":false,"is_disabled":false,"rental_uris":{"android":"levelo://app?vid=cf58f755-5d7a-48ae-b7c7-06e276fac166","ios":"levelo://app?vid=cf58f755-5d7a-48ae-b7c7-06e276fac166"},"vehicle_type_id":"4","last_reported":1742494438,"current_range_meters":8000,"station_id":"ce4bhhh2rcd13ifvqfl0","pricing_plan_id":"cebpf4jnsgd1na2vs0mg"},{"bike_id":"8de0b1e7-66cd-4e53-8039-0afe6f52aa14","system_id":"levelo_inurba_marseille","lat":43.27939,"lon":5.41052,"is_reserved":false,"is_disabled":false,"rental_uris":{"android":"levelo://app?vid=8de0b1e7-66cd-4e53-8039-0afe6f52aa14","ios":"levelo://app?vid=8de0b1e7-66cd-4e53-8039-0afe6f52aa14"},"vehicle_type_id":"4","last_reported":1742494438,"current_range_meters":8400,"station_id":"ce4bhnp2rcd13ifvqh0g","pricing_plan_id":"cebpf4jnsgd1na2vs0mg"},{"bike_id":"61689940-f918-42af-8267-8f1aea329a0d","system_id":"levelo_inurba_marseille","lat":43.28928,"lon":5.38398,"is_reserved":false,"is_disabled":false,"rental_uris":{"android":"levelo://app?vid=61689940-f918-42af-8267-8f1aea329a0d","ios":"levelo://app?vid=61689940-f918-42af-8267-8f1aea329a0d"},"vehicle_type_id":"4","last_reported":1742494438,"current_range_meters":8400,"station_id":"ce4bh612rcd13ifvqe6g","pricing_plan_id":"cebpf4jnsgd1na2vs0mg"},{"bike_id":"731f73db-eb29-44e8-a64b-9103088c7668","system_id":"levelo_inurba_marseille","lat":43.29548,"lon":5.4225,"is_reserved":false,"is_disabled":false,"rental_uris":{"android":"levelo://app?vid=731f73db-eb29-44e8-a64b-9103088c7668","ios":"levelo://app?vid=731f73db-eb29-44e8-a64b-9103088c7668"},"vehicle_type_id":"4","last_reported":1742494438,"current_range_meters":8400,"station_id":"ce4bhph2rcd13ifvqhdg","pricing_plan_id":"cebpf4jnsgd1na2vs0mg"},{"bike_id":"30d60324-b972-4dd5-8b6f-266206b3c759","system_id":"levelo_inurba_marseille","lat":43.2848,"lon":5.38421,"is_reserved":false,"is_disabled":false,"rental_uris":{"android":"levelo://app?vid=30d60324-b972-4dd5-8b6f-266206b3c759","ios":"levelo://app?vid=30d60324-b972-4dd5-8b6f-266206b3c759"},"vehicle_type_id":"4","last_reported":1742494438,"current_range_meters":8400,"station_id":"ce4bh512rcd13ifvqe3g","pricing_plan_id":"cebpf4jnsgd1na2vs0mg"},{"bike_id":"1af3b958-0d12-4caa-86cd-a1af6ddaf963","system_id":"levelo_inurba_marseille","lat":43.26497,"lon":5.39538,"is_reserved":false,"is_disabled":false,"rental_uris":{"android":"levelo://app?vid=1af3b958-0d12-4caa-86cd-a1af6ddaf963","ios":"levelo://app?vid=1af3b958-0d12-4caa-86cd-a1af6ddaf963"},"vehicle_type_id":"4","last_reported":1742494438,"current_range_meters":8400,"station_id":"ce4bhi12rcd13ifvqfq0","pricing_plan_id":"cebpf4jnsgd1na2vs0mg"},{"bike_id":"9b2a4ae1-45d2-42a7-b1d8-970226b193d0","system_id":"levelo_inurba_marseille","lat":43.24156,"lon":5.39721,"is_reserved":false,"is_disabled":false,"rental_uris":{"android":"levelo://app?vid=9b2a4ae1-45d2-42a7-b1d8-970226b193d0","ios":"levelo://app?vid=9b2a4ae1-45d2-42a7-b1d8-970226b193d0"},"vehicle_type_id":"4","last_reported":1742494438,"current_range_meters":8400,"station_id":"ce4bhn12rcd13ifvqgpg","pricing_plan_id":"cebpf4jnsgd1na2vs0mg"},{"bike_id":"504ee4bc-f94f-46d1-b4aa-bb159ff861b7","system_id":"levelo_inurba_marseille","lat":43.27185,"lon":5.40996,"is_reserved":false,"is_disabled":false,"rental_uris":{"android":"levelo://app?vid=504ee4bc-f94f-46d1-b4aa-bb159ff861b7","ios":"levelo://app?vid=504ee4bc-f94f-46d1-b4aa-bb159ff861b7"},"vehicle_type_id":"4","last_reported":1742494438,"current_range_meters":8400,"station_id":"ce4bhl12rcd13ifvqgf0","pricing_plan_id":"cebpf4jnsgd1na2vs0mg"},{"bike_id":"671210b1-9e8f-4893-953f-985ab8b97e34","system_id":"levelo_inurba_marseille","lat":43.32104,"lon":5.36834,"is_reserved":false,"is_disabled":false,"rental_uris":{"android":"levelo://app?vid=671210b1-9e8f-4893-953f-985ab8b97e34","ios":"levelo://app?vid=671210b1-9e8f-4893-953f-985ab8b97e34"},"vehicle_type_id":"4","last_reported":1742494438,"current_range_meters":8400,"station_id":"ce4bhrh2rcd13ifvqhug","pricing_plan_id":"cebpf4jnsgd1na2vs0mg"},{"bike_id":"f8e69801-e786-4f8e-84e0-e330fc8defd7","system_id":"levelo_inurba_marseille","lat":43.32718,"lon":5.38341,"is_reserved":false,"is_disabled":false,"rental_uris":{"android":"levelo://app?vid=f8e69801-e786-4f8e-84e0-e330fc8defd7","ios":"levelo://app?vid=f8e69801-e786-4f8e-84e0-e330fc8defd7"},"vehicle_type_id":"4","last_reported":1742494438,"current_range_meters":8400,"station_id":"","pricing_plan_id":"cebpf4jnsgd1na2vs0mg"},{"bike_id":"734209db-1ea6-49bf-b884-2a14d81c9f90","system_id":"levelo_inurba_marseille","lat":43.24804,"lon":5.37462,"is_reserved":false,"is_disabled":false,"rental_uris":{"android":"levelo://app?vid=734209db-1ea6-49bf-b884-2a14d81c9f90","ios":"levelo://app?vid=734209db-1ea6-49bf-b884-2a14d81c9f90"},"vehicle_type_id":"4","last_reported":1742494438,"current_range_meters":8400,"station_id":"ce4bhgh2rcd13ifvqfb0","pricing_plan_id":"cebpf4jnsgd1na2vs0mg"},{"bike_id":"79224ba1-2ce3-4f88-bf50-50c9bffc55d9","system_id":"levelo_inurba_marseille","lat":43.28667,"lon":5.36355,"is_reserved":false,"is_disabled":false,"rental_uris":{"android":"levelo://app?vid=79224ba1-2ce3-4f88-bf50-50c9bffc55d9","ios":"levelo://app?vid=79224ba1-2ce3-4f88-bf50-50c9bffc55d9"},"vehicle_type_id":"4","last_reported":1742494438,"current_range_meters":8400,"station_id":"ce4bhah2rcd13ifvqej0","pricing_plan_id":"cebpf4jnsgd1na2vs0mg"},{"bike_id":"6ed06fb7-1c9e-488c-8415-707af3241875","system_id":"levelo_inurba_marseille","lat":43.31118,"lon":5.37776,"is_reserved":false,"is_disabled":false,"rental_uris":{"android":"levelo://app?vid=6ed06fb7-1c9e-488c-8415-707af3241875","ios":"levelo://app?vid=6ed06fb7-1c9e-488c-8415-707af3241875"},"vehicle_type_id":"4","last_reported":1742494438,"current_range_meters":8400,"station_id":"ce4bgt92rcd13ifvqcg0","pricing_plan_id":"cebpf4jnsgd1na2vs0mg"},{"bike_id":"bfe5032c-4cf5-47d3-a6ca-50233e312a96","system_id":"levelo_inurba_marseille","lat":43.2512,"lon":5.40316,"is_reserved":false,"is_disabled":false,"rental_uris":{"android":"levelo://app?vid=bfe5032c-4cf5-47d3-a6ca-50233e312a96","ios":"levelo://app?vid=bfe5032c-4cf5-47d3-a6ca-50233e312a96"},"vehicle_type_id":"4","last_reported":1742494438,"current_range_meters":8400,"station_id":"ce4bhlh2rcd13ifvqgig","pricing_plan_id":"cebpf4jnsgd1na2vs0mg"},{"bike_id":"1983241e-dcf4-412a-b965-b9e661a9d6d5","system_id":"levelo_inurba_marseille","lat":43.29855,"lon":5.4017,"is_reserved":false,"is_disabled":false,"rental_uris":{"android":"levelo://app?vid=1983241e-dcf4-412a-b965-b9e661a9d6d5","ios":"levelo://app?vid=1983241e-dcf4-412a-b965-b9e661a9d6d5"},"vehicle_type_id":"4","last_reported":1742494438,"current_range_meters":8400,"station_id":"","pricing_plan_id":"cebpf4jnsgd1na2vs0mg"},{"bike_id":"cb6062cd-3cfa-4917-b79b-5707b99e3c03","system_id":"levelo_inurba_marseille","lat":43.321185,"lon":5.367534,"is_reserved":false,"is_disabled":false,"rental_uris":{"android":"levelo://app?vid=cb6062cd-3cfa-4917-b79b-5707b99e3c03","ios":"levelo://app?vid=cb6062cd-3cfa-4917-b79b-5707b99e3c03"},"vehicle_type_id":"4","last_reported":1742494438,"current_range_meters":8800,"station_id":"ce4bho92rcd13ifvqh3g","pricing_plan_id":"cebpf4jnsgd1na2vs0mg"},{"bike_id":"b8f633d7-3da3-4e25-a757-e56731aaf835","system_id":"levelo_inurba_marseille","lat":43.27957,"lon":5.41039,"is_reserved":false,"is_disabled":false,"rental_uris":{"android":"levelo://app?vid=b8f633d7-3da3-4e25-a757-e56731aaf835","ios":"levelo://app?vid=b8f633d7-3da3-4e25-a757-e56731aaf835"},"vehicle_type_id":"4","last_reported":1742494438,"current_range_meters":8800,"station_id":"ce4bhnp2rcd13ifvqh0g","pricing_plan_id":"cebpf4jnsgd1na2vs0mg"},{"bike_id":"6d3f830c-4185-4d92-aa5d-1c17ab550c3a","system_id":"levelo_inurba_marseille","lat":43.32104,"lon":5.36803,"is_reserved":false,"is_disabled":false,"rental_uris":{"android":"levelo://app?vid=6d3f830c-4185-4d92-aa5d-1c17ab550c3a","ios":"levelo://app?vid=6d3f830c-4185-4d92-aa5d-1c17ab550c3a"},"vehicle_type_id":"4","last_reported":1742494438,"current_range_meters":8800,"station_id":"ce4bhrh2rcd13ifvqhug","pricing_plan_id":"cebpf4jnsgd1na2vs0mg"},{"bike_id":"233e9b51-2339-485c-a7ae-5d1b35f10963","system_id":"levelo_inurba_marseille","lat":43.31715,"lon":5.37744,"is_reserved":false,"is_disabled":false,"rental_uris":{"android":"levelo://app?vid=233e9b51-2339-485c-a7ae-5d1b35f10963","ios":"levelo://app?vid=233e9b51-2339-485c-a7ae-5d1b35f10963"},"vehicle_type_id":"4","last_reported":1742494438,"current_range_meters":8800,"station_id":"ce4bgth2rcd13ifvqch0","pricing_plan_id":"cebpf4jnsgd1na2vs0mg"},{"bike_id":"36b2ee71-3c66-4ae8-ba26-61c624b7fc11","system_id":"levelo_inurba_marseille","lat":43.30757,"lon":5.40504,"is_reserved":false,"is_disabled":false,"rental_uris":{"android":"levelo://app?vid=36b2ee71-3c66-4ae8-ba26-61c624b7fc11","ios":"levelo://app?vid=36b2ee71-3c66-4ae8-ba26-61c624b7fc11"},"vehicle_type_id":"4","last_reported":1742494438,"current_range_meters":8800,"station_id":"","pricing_plan_id":"cebpf4jnsgd1na2vs0mg"},{"bike_id":"48287ef6-9c75-49fe-8b62-b6ee5845cc0f","system_id":"levelo_inurba_marseille","lat":43.31131,"lon":5.37772,"is_reserved":false,"is_disabled":false,"rental_uris":{"android":"levelo://app?vid=48287ef6-9c75-49fe-8b62-b6ee5845cc0f","ios":"levelo://app?vid=48287ef6-9c75-49fe-8b62-b6ee5845cc0f"},"vehicle_type_id":"4","last_reported":1742494438,"current_range_meters":8800,"station_id":"ce4bgt92rcd13ifvqcg0","pricing_plan_id":"cebpf4jnsgd1na2vs0mg"},{"bike_id":"60fe81ad-64ee-4c80-bd99-0d6f82cce6ed","system_id":"levelo_inurba_marseille","lat":43.30907,"lon":5.36867,"is_reserved":false,"is_disabled":false,"rental_uris":{"android":"levelo://app?vid=60fe81ad-64ee-4c80-bd99-0d6f82cce6ed","ios":"levelo://app?vid=60fe81ad-64ee-4c80-bd99-0d6f82cce6ed"},"vehicle_type_id":"4","last_reported":1742494438,"current_range_meters":8800,"station_id":"ce4bgn92rcd13ifvqbvg","pricing_plan_id":"cebpf4jnsgd1na2vs0mg"},{"bike_id":"2bc38bd4-3c54-4eb3-91eb-eb5e51ea70a0","system_id":"levelo_inurba_marseille","lat":43.30135,"lon":5.39872,"is_reserved":false,"is_disabled":false,"rental_uris":{"android":"levelo://app?vid=2bc38bd4-3c54-4eb3-91eb-eb5e51ea70a0","ios":"levelo://app?vid=2bc38bd4-3c54-4eb3-91eb-eb5e51ea70a0"},"vehicle_type_id":"4","last_reported":1742494438,"current_range_meters":9200,"station_id":"ce4bh0h2rcd13ifvqd40","pricing_plan_id":"cebpf4jnsgd1na2vs0mg"},{"bike_id":"20276738-7231-4b1e-8926-d014cc3ce7a5","system_id":"levelo_inurba_marseille","lat":43.24178,"lon":5.3971,"is_reserved":false,"is_disabled":false,"rental_uris":{"android":"levelo://app?vid=20276738-7231-4b1e-8926-d014cc3ce7a5","ios":"levelo://app?vid=20276738-7231-4b1e-8926-d014cc3ce7a5"},"vehicle_type_id":"4","last_reported":1742494438,"current_range_meters":9200,"station_id":"ce4bhn12rcd13ifvqgpg","pricing_plan_id":"cebpf4jnsgd1na2vs0mg"},{"bike_id":"3821242f-00d0-4de6-a472-10f1e852e10a","system_id":"levelo_inurba_marseille","lat":43.29896,"lon":5.43671,"is_reserved":false,"is_disabled":false,"rental_uris":{"android":"levelo://app?vid=3821242f-00d0-4de6-a472-10f1e852e10a","ios":"levelo://app?vid=3821242f-00d0-4de6-a472-10f1e852e10a"},"vehicle_type_id":"4","last_reported":1742494438,"current_range_meters":9200,"station_id":"ce4bhpp2rcd13ifvqhfg","pricing_plan_id":"cebpf4jnsgd1na2vs0mg"},{"bike_id":"bd2e72e2-6ae3-41f8-84dc-79cbf208609c","system_id":"levelo_inurba_marseille","lat":43.2784,"lon":5.4069,"is_reserved":false,"is_disabled":false,"rental_uris":{"android":"levelo://app?vid=bd2e72e2-6ae3-41f8-84dc-79cbf208609c","ios":"levelo://app?vid=bd2e72e2-6ae3-41f8-84dc-79cbf208609c"},"vehicle_type_id":"4","last_reported":1742494438,"current_range_meters":9200,"station_id":"ce4bhnh2rcd13ifvqgtg","pricing_plan_id":"cebpf4jnsgd1na2vs0mg"},{"bike_id":"f43dc9d8-8b9c-46c2-9297-6792aa6cdbf3","system_id":"levelo_inurba_marseille","lat":43.28863,"lon":5.39321,"is_reserved":false,"is_disabled":false,"rental_uris":{"android":"levelo://app?vid=f43dc9d8-8b9c-46c2-9297-6792aa6cdbf3","ios":"levelo://app?vid=f43dc9d8-8b9c-46c2-9297-6792aa6cdbf3"},"vehicle_type_id":"4","last_reported":1742494438,"current_range_meters":9200,"station_id":"ce4bh2p2rcd13ifvqdi0","pricing_plan_id":"cebpf4jnsgd1na2vs0mg"},{"bike_id":"bfb8aceb-271f-407e-8f66-f0880d7ac280","system_id":"levelo_inurba_marseille","lat":43.31345,"lon":5.39672,"is_reserved":false,"is_disabled":false,"rental_uris":{"android":"levelo://app?vid=bfb8aceb-271f-407e-8f66-f0880d7ac280","ios":"levelo://app?vid=bfb8aceb-271f-407e-8f66-f0880d7ac280"},"vehicle_type_id":"4","last_reported":1742494438,"current_range_meters":9200,"station_id":"ce4bgvp2rcd13ifvqcu0","pricing_plan_id":"cebpf4jnsgd1na2vs0mg"},{"bike_id":"009c4b69-dcf9-4c83-862a-937fb42e3ba3","system_id":"levelo_inurba_marseille","lat":43.29075,"lon":5.37163,"is_reserved":false,"is_disabled":false,"rental_uris":{"android":"levelo://app?vid=009c4b69-dcf9-4c83-862a-937fb42e3ba3","ios":"levelo://app?vid=009c4b69-dcf9-4c83-862a-937fb42e3ba3"},"vehicle_type_id":"4","last_reported":1742494438,"current_range_meters":9200,"station_id":"ce4bh5p2rcd13ifvqe4g","pricing_plan_id":"cebpf4jnsgd1na2vs0mg"},{"bike_id":"45ae2e6a-724b-4a90-b4ce-6c566057d81a","system_id":"levelo_inurba_marseille","lat":43.30139,"lon":5.39856,"is_reserved":false,"is_disabled":false,"rental_uris":{"android":"levelo://app?vid=45ae2e6a-724b-4a90-b4ce-6c566057d81a","ios":"levelo://app?vid=45ae2e6a-724b-4a90-b4ce-6c566057d81a"},"vehicle_type_id":"4","last_reported":1742494438,"current_range_meters":8800,"station_id":"ce4bh0h2rcd13ifvqd40","pricing_plan_id":"cebpf4jnsgd1na2vs0mg"},{"bike_id":"d7645557-54c5-44ed-8c44-41e433a350da","system_id":"levelo_inurba_marseille","lat":43.29475,"lon":5.35571,"is_reserved":false,"is_disabled":false,"rental_uris":{"android":"levelo://app?vid=d7645557-54c5-44ed-8c44-41e433a350da","ios":"levelo://app?vid=d7645557-54c5-44ed-8c44-41e433a350da"},"vehicle_type_id":"4","last_reported":1742494438,"current_range_meters":9200,"station_id":"","pricing_plan_id":"cebpf4jnsgd1na2vs0mg"},{"bike_id":"98765c40-8bd4-413b-8387-2edf127d3294","system_id":"levelo_inurba_marseille","lat":43.28082,"lon":5.39658,"is_reserved":false,"is_disabled":false,"rental_uris":{"android":"levelo://app?vid=98765c40-8bd4-413b-8387-2edf127d3294","ios":"levelo://app?vid=98765c40-8bd4-413b-8387-2edf127d3294"},"vehicle_type_id":"4","last_reported":1742494438,"current_range_meters":9600,"station_id":"ce4bho12rcd13ifvqh2g","pricing_plan_id":"cebpf4jnsgd1na2vs0mg"},{"bike_id":"b6c508cc-8475-4b1a-a5d1-b27563646827","system_id":"levelo_inurba_marseille","lat":43.28344,"lon":5.38101,"is_reserved":false,"is_disabled":false,"rental_uris":{"android":"levelo://app?vid=b6c508cc-8475-4b1a-a5d1-b27563646827","ios":"levelo://app?vid=b6c508cc-8475-4b1a-a5d1-b27563646827"},"vehicle_type_id":"4","last_reported":1742494438,"current_range_meters":9600,"station_id":"ce4bh412rcd13ifvqdr0","pricing_plan_id":"cebpf4jnsgd1na2vs0mg"},{"bike_id":"ef8c91e8-a4f2-49a7-97d4-94fb64a45e8a","system_id":"levelo_inurba_marseille","lat":43.27842,"lon":5.39224,"is_reserved":false,"is_disabled":false,"rental_uris":{"android":"levelo://app?vid=ef8c91e8-a4f2-49a7-97d4-94fb64a45e8a","ios":"levelo://app?vid=ef8c91e8-a4f2-49a7-97d4-94fb64a45e8a"},"vehicle_type_id":"4","last_reported":1742494438,"current_range_meters":9600,"station_id":"ce4bhjp2rcd13ifvqga0","pricing_plan_id":"cebpf4jnsgd1na2vs0mg"},{"bike_id":"a0deeb6c-62a7-4efb-834c-1bec837aaba6","system_id":"levelo_inurba_marseille","lat":43.33686,"lon":5.37835,"is_reserved":false,"is_disabled":false,"rental_uris":{"android":"levelo://app?vid=a0deeb6c-62a7-4efb-834c-1bec837aaba6","ios":"levelo://app?vid=a0deeb6c-62a7-4efb-834c-1bec837aaba6"},"vehicle_type_id":"4","last_reported":1742494438,"current_range_meters":9600,"station_id":"","pricing_plan_id":"cebpf4jnsgd1na2vs0mg"},{"bike_id":"ffbee1c9-ab8d-45ee-b606-c546ab78c5f2","system_id":"levelo_inurba_marseille","lat":43.297,"lon":5.37855,"is_reserved":false,"is_disabled":false,"rental_uris":{"android":"levelo://app?vid=ffbee1c9-ab8d-45ee-b606-c546ab78c5f2","ios":"levelo://app?vid=ffbee1c9-ab8d-45ee-b606-c546ab78c5f2"},"vehicle_type_id":"4","last_reported":1742494438,"current_range_meters":9600,"station_id":"","pricing_plan_id":"cebpf4jnsgd1na2vs0mg"},{"bike_id":"2e22bf4c-f760-4df0-bed3-5d9839ab750f","system_id":"levelo_inurba_marseille","lat":43.28004,"lon":5.40009,"is_reserved":false,"is_disabled":false,"rental_uris":{"android":"levelo://app?vid=2e22bf4c-f760-4df0-bed3-5d9839ab750f","ios":"levelo://app?vid=2e22bf4c-f760-4df0-bed3-5d9839ab750f"},"vehicle_type_id":"4","last_reported":1742494438,"current_range_meters":9600,"station_id":"ce4bho92rcd13ifvqh4g","pricing_plan_id":"cebpf4jnsgd1na2vs0mg"},{"bike_id":"f5c96163-3587-4384-8ccb-1ff283979605","system_id":"levelo_inurba_marseille","lat":43.30656,"lon":5.40083,"is_reserved":false,"is_disabled":false,"rental_uris":{"android":"levelo://app?vid=f5c96163-3587-4384-8ccb-1ff283979605","ios":"levelo://app?vid=f5c96163-3587-4384-8ccb-1ff283979605"},"vehicle_type_id":"4","last_reported":1742494438,"current_range_meters":9600,"station_id":"ce4bh112rcd13ifvqda0","pricing_plan_id":"cebpf4jnsgd1na2vs0mg"},{"bike_id":"17e03476-015d-4a6b-9c81-871adc0e2119","system_id":"levelo_inurba_marseille","lat":43.25114,"lon":5.40319,"is_reserved":false,"is_disabled":false,"rental_uris":{"android":"levelo://app?vid=17e03476-015d-4a6b-9c81-871adc0e2119","ios":"levelo://app?vid=17e03476-015d-4a6b-9c81-871adc0e2119"},"vehicle_type_id":"4","last_reported":1742494438,"current_range_meters":9600,"station_id":"ce4bhlh2rcd13ifvqgig","pricing_plan_id":"cebpf4jnsgd1na2vs0mg"},{"bike_id":"ca6de035-b89b-40f8-8a92-82db2c31edd8","system_id":"levelo_inurba_marseille","lat":43.29526,"lon":5.39395,"is_reserved":false,"is_disabled":false,"rental_uris":{"android":"levelo://app?vid=ca6de035-b89b-40f8-8a92-82db2c31edd8","ios":"levelo://app?vid=ca6de035-b89b-40f8-8a92-82db2c31edd8"},"vehicle_type_id":"4","last_reported":1742494438,"current_range_meters":9600,"station_id":"ce4bh292rcd13ifvqdf0","pricing_plan_id":"cebpf4jnsgd1na2vs0mg"},{"bike_id":"5a744e10-af42-4895-8ea6-4be2388dba33","system_id":"levelo_inurba_marseille","lat":43.28475,"lon":5.39191,"is_reserved":false,"is_disabled":false,"rental_uris":{"android":"levelo://app?vid=5a744e10-af42-4895-8ea6-4be2388dba33","ios":"levelo://app?vid=5a744e10-af42-4895-8ea6-4be2388dba33"},"vehicle_type_id":"4","last_reported":1742494438,"current_range_meters":9600,"station_id":"ce4bhoh2rcd13ifvqh5g","pricing_plan_id":"cebpf4jnsgd1na2vs0mg"},{"bike_id":"3b0ecf12-d4db-4176-8466-268b2bbb7f38","system_id":"levelo_inurba_marseille","lat":43.23179,"lon":5.39987,"is_reserved":false,"is_disabled":false,"rental_uris":{"android":"levelo://app?vid=3b0ecf12-d4db-4176-8466-268b2bbb7f38","ios":"levelo://app?vid=3b0ecf12-d4db-4176-8466-268b2bbb7f38"},"vehicle_type_id":"4","last_reported":1742494438,"current_range_meters":9200,"station_id":"ce4bhn12rcd13ifvqgqg","pricing_plan_id":"cebpf4jnsgd1na2vs0mg"},{"bike_id":"db511990-50b4-4ac2-85b7-802f225da601","system_id":"levelo_inurba_marseille","lat":43.31727,"lon":5.42399,"is_reserved":false,"is_disabled":false,"rental_uris":{"android":"levelo://app?vid=db511990-50b4-4ac2-85b7-802f225da601","ios":"levelo://app?vid=db511990-50b4-4ac2-85b7-802f225da601"},"vehicle_type_id":"4","last_reported":1742494438,"current_range_meters":9600,"station_id":"ce4bhp92rcd13ifvqhbg","pricing_plan_id":"cebpf4jnsgd1na2vs0mg"},{"bike_id":"73f619a2-e297-41fc-8fc8-90a2acba0232","system_id":"levelo_inurba_marseille","lat":43.29279,"lon":5.3684,"is_reserved":false,"is_disabled":false,"rental_uris":{"android":"levelo://app?vid=73f619a2-e297-41fc-8fc8-90a2acba0232","ios":"levelo://app?vid=73f619a2-e297-41fc-8fc8-90a2acba0232"},"vehicle_type_id":"4","last_reported":1742494438,"current_range_meters":9600,"station_id":"ce4bhbp2rcd13ifvqesg","pricing_plan_id":"cebpf4jnsgd1na2vs0mg"},{"bike_id":"e3daa3be-0bfc-4d10-a358-5e99f21bbb62","system_id":"levelo_inurba_marseille","lat":43.28723,"lon":5.36088,"is_reserved":false,"is_disabled":false,"rental_uris":{"android":"levelo://app?vid=e3daa3be-0bfc-4d10-a358-5e99f21bbb62","ios":"levelo://app?vid=e3daa3be-0bfc-4d10-a358-5e99f21bbb62"},"vehicle_type_id":"4","last_reported":1742494438,"current_range_meters":9600,"station_id":"cki0cbj6b192h4jlfktg","pricing_plan_id":"cebpf4jnsgd1na2vs0mg"},{"bike_id":"181b1742-09ee-46ab-8712-67d8396af664","system_id":"levelo_inurba_marseille","lat":43.24183,"lon":5.39737,"is_reserved":false,"is_disabled":false,"rental_uris":{"android":"levelo://app?vid=181b1742-09ee-46ab-8712-67d8396af664","ios":"levelo://app?vid=181b1742-09ee-46ab-8712-67d8396af664"},"vehicle_type_id":"4","last_reported":1742494438,"current_range_meters":9600,"station_id":"ce4bhn12rcd13ifvqgpg","pricing_plan_id":"cebpf4jnsgd1na2vs0mg"},{"bike_id":"1bc7515e-4ed0-48a4-a33e-bb8872c7ca06","system_id":"levelo_inurba_marseille","lat":43.27838,"lon":5.39214,"is_reserved":false,"is_disabled":false,"rental_uris":{"android":"levelo://app?vid=1bc7515e-4ed0-48a4-a33e-bb8872c7ca06","ios":"levelo://app?vid=1bc7515e-4ed0-48a4-a33e-bb8872c7ca06"},"vehicle_type_id":"4","last_reported":1742494438,"current_range_meters":9600,"station_id":"ce4bhjp2rcd13ifvqga0","pricing_plan_id":"cebpf4jnsgd1na2vs0mg"},{"bike_id":"c5bb5dca-1dc9-450e-9a3d-9fa737cf345d","system_id":"levelo_inurba_marseille","lat":43.24658,"lon":5.3888,"is_reserved":false,"is_disabled":false,"rental_uris":{"android":"levelo://app?vid=c5bb5dca-1dc9-450e-9a3d-9fa737cf345d","ios":"levelo://app?vid=c5bb5dca-1dc9-450e-9a3d-9fa737cf345d"},"vehicle_type_id":"4","last_reported":1742494438,"current_range_meters":9600,"station_id":"ce4bhg12rcd13ifvqf60","pricing_plan_id":"cebpf4jnsgd1na2vs0mg"},{"bike_id":"22353507-3498-4416-9da7-b13024a73525","system_id":"levelo_inurba_marseille","lat":43.31119,"lon":5.37761,"is_reserved":false,"is_disabled":false,"rental_uris":{"android":"levelo://app?vid=22353507-3498-4416-9da7-b13024a73525","ios":"levelo://app?vid=22353507-3498-4416-9da7-b13024a73525"},"vehicle_type_id":"4","last_reported":1742494438,"current_range_meters":10000,"station_id":"ce4bgt92rcd13ifvqcg0","pricing_plan_id":"cebpf4jnsgd1na2vs0mg"},{"bike_id":"48259707-c320-4a7f-9855-1f73c6128fa6","system_id":"levelo_inurba_marseille","lat":43.2656,"lon":5.39007,"is_reserved":false,"is_disabled":false,"rental_uris":{"android":"levelo://app?vid=48259707-c320-4a7f-9855-1f73c6128fa6","ios":"levelo://app?vid=48259707-c320-4a7f-9855-1f73c6128fa6"},"vehicle_type_id":"4","last_reported":1742494438,"current_range_meters":10000,"station_id":"ce4bhe12rcd13ifvqf30","pricing_plan_id":"cebpf4jnsgd1na2vs0mg"},{"bike_id":"476600a0-d930-4da7-b079-e75dc14fbde9","system_id":"levelo_inurba_marseille","lat":43.28725,"lon":5.36084,"is_reserved":false,"is_disabled":false,"rental_uris":{"android":"levelo://app?vid=476600a0-d930-4da7-b079-e75dc14fbde9","ios":"levelo://app?vid=476600a0-d930-4da7-b079-e75dc14fbde9"},"vehicle_type_id":"4","last_reported":1742494438,"current_range_meters":10000,"station_id":"cki0cbj6b192h4jlfktg","pricing_plan_id":"cebpf4jnsgd1na2vs0mg"},{"bike_id":"197fda4b-bdee-4d04-9a2d-a376fcd7e136","system_id":"levelo_inurba_marseille","lat":43.29198,"lon":5.35805,"is_reserved":false,"is_disabled":false,"rental_uris":{"android":"levelo://app?vid=197fda4b-bdee-4d04-9a2d-a376fcd7e136","ios":"levelo://app?vid=197fda4b-bdee-4d04-9a2d-a376fcd7e136"},"vehicle_type_id":"4","last_reported":1742494438,"current_range_meters":10000,"station_id":"ce4bhb12rcd13ifvqel0","pricing_plan_id":"cebpf4jnsgd1na2vs0mg"},{"bike_id":"8e694c60-ff26-4154-b30e-c88d47f58eb9","system_id":"levelo_inurba_marseille","lat":43.26063,"lon":5.39396,"is_reserved":false,"is_disabled":false,"rental_uris":{"android":"levelo://app?vid=8e694c60-ff26-4154-b30e-c88d47f58eb9","ios":"levelo://app?vid=8e694c60-ff26-4154-b30e-c88d47f58eb9"},"vehicle_type_id":"4","last_reported":1742494438,"current_range_meters":9600,"station_id":"ce4bhh92rcd13ifvqfj0","pricing_plan_id":"cebpf4jnsgd1na2vs0mg"},{"bike_id":"446d6280-9d2b-4391-834a-afec908df326","system_id":"levelo_inurba_marseille","lat":43.30213,"lon":5.39473,"is_reserved":false,"is_disabled":false,"rental_uris":{"android":"levelo://app?vid=446d6280-9d2b-4391-834a-afec908df326","ios":"levelo://app?vid=446d6280-9d2b-4391-834a-afec908df326"},"vehicle_type_id":"4","last_reported":1742494438,"current_range_meters":10000,"station_id":"ce4bh0p2rcd13ifvqd70","pricing_plan_id":"cebpf4jnsgd1na2vs0mg"},{"bike_id":"9ee93378-ba1e-482d-a15f-2c32bfe83467","system_id":"levelo_inurba_marseille","lat":43.31107,"lon":5.42448,"is_reserved":false,"is_disabled":false,"rental_uris":{"android":"levelo://app?vid=9ee93378-ba1e-482d-a15f-2c32bfe83467","ios":"levelo://app?vid=9ee93378-ba1e-482d-a15f-2c32bfe83467"},"vehicle_type_id":"4","last_reported":1742494438,"current_range_meters":10000,"station_id":"ce4bhp92rcd13ifvqhag","pricing_plan_id":"cebpf4jnsgd1na2vs0mg"},{"bike_id":"34fd3f75-cd3b-408c-9601-f454c4e8d33c","system_id":"levelo_inurba_marseille","lat":43.29533,"lon":5.38544,"is_reserved":false,"is_disabled":false,"rental_uris":{"android":"levelo://app?vid=34fd3f75-cd3b-408c-9601-f454c4e8d33c","ios":"levelo://app?vid=34fd3f75-cd3b-408c-9601-f454c4e8d33c"},"vehicle_type_id":"4","last_reported":1742494438,"current_range_meters":6800,"station_id":"ce4bgih2rcd13ifvqba0","pricing_plan_id":"cebpf4jnsgd1na2vs0mg"},{"bike_id":"70d66c25-05d5-48fc-b733-92d23106ab81","system_id":"levelo_inurba_marseille","lat":43.29299,"lon":5.37461,"is_reserved":false,"is_disabled":false,"rental_uris":{"android":"levelo://app?vid=70d66c25-05d5-48fc-b733-92d23106ab81","ios":"levelo://app?vid=70d66c25-05d5-48fc-b733-92d23106ab81"},"vehicle_type_id":"4","last_reported":1742494438,"current_range_meters":10000,"station_id":"ce4bgi12rcd13ifvqb70","pricing_plan_id":"cebpf4jnsgd1na2vs0mg"},{"bike_id":"d815192a-3c33-46cb-88b0-156c38cb07cb","system_id":"levelo_inurba_marseille","lat":43.30256,"lon":5.40081,"is_reserved":false,"is_disabled":false,"rental_uris":{"android":"levelo://app?vid=d815192a-3c33-46cb-88b0-156c38cb07cb","ios":"levelo://app?vid=d815192a-3c33-46cb-88b0-156c38cb07cb"},"vehicle_type_id":"4","last_reported":1742494438,"current_range_meters":9600,"station_id":"ce4bgvh2rcd13ifvqcs0","pricing_plan_id":"cebpf4jnsgd1na2vs0mg"},{"bike_id":"7ab40b8d-fa18-4b14-83b5-9c3e7b9f2127","system_id":"levelo_inurba_marseille","lat":43.27169,"lon":5.41,"is_reserved":false,"is_disabled":false,"rental_uris":{"android":"levelo://app?vid=7ab40b8d-fa18-4b14-83b5-9c3e7b9f2127","ios":"levelo://app?vid=7ab40b8d-fa18-4b14-83b5-9c3e7b9f2127"},"vehicle_type_id":"4","last_reported":1742494438,"current_range_meters":10000,"station_id":"ce4bhl12rcd13ifvqgf0","pricing_plan_id":"cebpf4jnsgd1na2vs0mg"},{"bike_id":"14db3809-4780-4ea8-b07f-6392460c5b43","system_id":"levelo_inurba_marseille","lat":43.29622,"lon":5.37725,"is_reserved":false,"is_disabled":false,"rental_uris":{"android":"levelo://app?vid=14db3809-4780-4ea8-b07f-6392460c5b43","ios":"levelo://app?vid=14db3809-4780-4ea8-b07f-6392460c5b43"},"vehicle_type_id":"4","last_reported":1742494438,"current_range_meters":10000,"station_id":"ce4bgi92rcd13ifvqb90","pricing_plan_id":"cebpf4jnsgd1na2vs0mg"},{"bike_id":"6ecd32e1-4a6f-40a7-ab03-c9c358aba88c","system_id":"levelo_inurba_marseille","lat":43.29521,"lon":5.39033,"is_reserved":false,"is_disabled":false,"rental_uris":{"android":"levelo://app?vid=6ecd32e1-4a6f-40a7-ab03-c9c358aba88c","ios":"levelo://app?vid=6ecd32e1-4a6f-40a7-ab03-c9c358aba88c"},"vehicle_type_id":"4","last_reported":1742494438,"current_range_meters":10000,"station_id":"ce4bh3p2rcd13ifvqdp0","pricing_plan_id":"cebpf4jnsgd1na2vs0mg"},{"bike_id":"b9e4bdd0-024c-4547-9a94-39d0c7923642","system_id":"levelo_inurba_marseille","lat":43.24164,"lon":5.3641,"is_reserved":false,"is_disabled":false,"rental_uris":{"android":"levelo://app?vid=b9e4bdd0-024c-4547-9a94-39d0c7923642","ios":"levelo://app?vid=b9e4bdd0-024c-4547-9a94-39d0c7923642"},"vehicle_type_id":"4","last_reported":1742494438,"current_range_meters":10000,"station_id":"cpo36qri1sfpv3e86is0","pricing_plan_id":"cebpf4jnsgd1na2vs0mg"},{"bike_id":"fccff9dd-e2fe-460d-95fd-b4b2dbde7109","system_id":"levelo_inurba_marseille","lat":43.24216,"lon":5.37593,"is_reserved":false,"is_disabled":false,"rental_uris":{"android":"levelo://app?vid=fccff9dd-e2fe-460d-95fd-b4b2dbde7109","ios":"levelo://app?vid=fccff9dd-e2fe-460d-95fd-b4b2dbde7109"},"vehicle_type_id":"4","last_reported":1742494438,"current_range_meters":17200,"station_id":"ce4bhnp2rcd13ifvqgvg","pricing_plan_id":"cebpf4jnsgd1na2vs0mg"},{"bike_id":"a1d4474e-dc54-4e96-8359-81b099ba1a93","system_id":"levelo_inurba_marseille","lat":43.23186,"lon":5.39989,"is_reserved":false,"is_disabled":false,"rental_uris":{"android":"levelo://app?vid=a1d4474e-dc54-4e96-8359-81b099ba1a93","ios":"levelo://app?vid=a1d4474e-dc54-4e96-8359-81b099ba1a93"},"vehicle_type_id":"4","last_reported":1742494438,"current_range_meters":10800,"station_id":"ce4bhn12rcd13ifvqgqg","pricing_plan_id":"cebpf4jnsgd1na2vs0mg"},{"bike_id":"69a1267d-4f9b-471a-98e9-7d2631052ef0","system_id":"levelo_inurba_marseille","lat":43.27996,"lon":5.40021,"is_reserved":false,"is_disabled":false,"rental_uris":{"android":"levelo://app?vid=69a1267d-4f9b-471a-98e9-7d2631052ef0","ios":"levelo://app?vid=69a1267d-4f9b-471a-98e9-7d2631052ef0"},"vehicle_type_id":"4","last_reported":1742494438,"current_range_meters":10800,"station_id":"ce4bho92rcd13ifvqh4g","pricing_plan_id":"cebpf4jnsgd1na2vs0mg"},{"bike_id":"10040ff5-09c7-4549-9697-fbeae20cf216","system_id":"levelo_inurba_marseille","lat":43.2466,"lon":5.38899,"is_reserved":false,"is_disabled":false,"rental_uris":{"android":"levelo://app?vid=10040ff5-09c7-4549-9697-fbeae20cf216","ios":"levelo://app?vid=10040ff5-09c7-4549-9697-fbeae20cf216"},"vehicle_type_id":"4","last_reported":1742494438,"current_range_meters":10800,"station_id":"ce4bhg12rcd13ifvqf60","pricing_plan_id":"cebpf4jnsgd1na2vs0mg"},{"bike_id":"70cdca2b-bab4-4047-8a13-c14ffeb417d9","system_id":"levelo_inurba_marseille","lat":43.29453,"lon":5.39736,"is_reserved":false,"is_disabled":false,"rental_uris":{"android":"levelo://app?vid=70cdca2b-bab4-4047-8a13-c14ffeb417d9","ios":"levelo://app?vid=70cdca2b-bab4-4047-8a13-c14ffeb417d9"},"vehicle_type_id":"4","last_reported":1742494438,"current_range_meters":10800,"station_id":"ce4bh3h2rcd13ifvqdo0","pricing_plan_id":"cebpf4jnsgd1na2vs0mg"},{"bike_id":"b31900d6-900b-4641-9480-da40bc2408ab","system_id":"levelo_inurba_marseille","lat":43.30871,"lon":5.39644,"is_reserved":false,"is_disabled":false,"rental_uris":{"android":"levelo://app?vid=b31900d6-900b-4641-9480-da40bc2408ab","ios":"levelo://app?vid=b31900d6-900b-4641-9480-da40bc2408ab"},"vehicle_type_id":"4","last_reported":1742494438,"current_range_meters":10800,"station_id":"ce4bh012rcd13ifvqcv0","pricing_plan_id":"cebpf4jnsgd1na2vs0mg"},{"bike_id":"5da19e07-0c4b-48cc-be36-dd3775977a83","system_id":"levelo_inurba_marseille","lat":43.25583,"lon":5.38228,"is_reserved":false,"is_disabled":false,"rental_uris":{"android":"levelo://app?vid=5da19e07-0c4b-48cc-be36-dd3775977a83","ios":"levelo://app?vid=5da19e07-0c4b-48cc-be36-dd3775977a83"},"vehicle_type_id":"4","last_reported":1742494438,"current_range_meters":10800,"station_id":"ce4bhih2rcd13ifvqfs0","pricing_plan_id":"cebpf4jnsgd1na2vs0mg"},{"bike_id":"e6ddf2b6-968b-4b81-8954-f0842e3ace8d","system_id":"levelo_inurba_marseille","lat":43.29789,"lon":5.37101,"is_reserved":false,"is_disabled":false,"rental_uris":{"android":"levelo://app?vid=e6ddf2b6-968b-4b81-8954-f0842e3ace8d","ios":"levelo://app?vid=e6ddf2b6-968b-4b81-8954-f0842e3ace8d"},"vehicle_type_id":"4","last_reported":1742494438,"current_range_meters":10000,"station_id":"ce4bgop2rcd13ifvqc1g","pricing_plan_id":"cebpf4jnsgd1na2vs0mg"},{"bike_id":"d4b8f3ac-69da-4a13-8307-f3070663ea65","system_id":"levelo_inurba_marseille","lat":43.28461,"lon":5.35888,"is_reserved":false,"is_disabled":false,"rental_uris":{"android":"levelo://app?vid=d4b8f3ac-69da-4a13-8307-f3070663ea65","ios":"levelo://app?vid=d4b8f3ac-69da-4a13-8307-f3070663ea65"},"vehicle_type_id":"4","last_reported":1742494438,"current_range_meters":10800,"station_id":"ce4bhah2rcd13ifvqei0","pricing_plan_id":"cebpf4jnsgd1na2vs0mg"},{"bike_id":"dcc18eac-d2e5-4e6e-91aa-19e270f58587","system_id":"levelo_inurba_marseille","lat":43.31329,"lon":5.39702,"is_reserved":false,"is_disabled":false,"rental_uris":{"android":"levelo://app?vid=dcc18eac-d2e5-4e6e-91aa-19e270f58587","ios":"levelo://app?vid=dcc18eac-d2e5-4e6e-91aa-19e270f58587"},"vehicle_type_id":"4","last_reported":1742494438,"current_range_meters":10800,"station_id":"ce4bgvp2rcd13ifvqcu0","pricing_plan_id":"cebpf4jnsgd1na2vs0mg"},{"bike_id":"f75d32cd-32c5-4f70-9df2-f2320d24a18d","system_id":"levelo_inurba_marseille","lat":43.31988,"lon":5.38157,"is_reserved":false,"is_disabled":false,"rental_uris":{"android":"levelo://app?vid=f75d32cd-32c5-4f70-9df2-f2320d24a18d","ios":"levelo://app?vid=f75d32cd-32c5-4f70-9df2-f2320d24a18d"},"vehicle_type_id":"4","last_reported":1742494438,"current_range_meters":10800,"station_id":"ce4bhr12rcd13ifvqhpg","pricing_plan_id":"cebpf4jnsgd1na2vs0mg"},{"bike_id":"a8b6ffd9-59fe-48ff-9595-399075091103","system_id":"levelo_inurba_marseille","lat":43.30198,"lon":5.36616,"is_reserved":false,"is_disabled":false,"rental_uris":{"android":"levelo://app?vid=a8b6ffd9-59fe-48ff-9595-399075091103","ios":"levelo://app?vid=a8b6ffd9-59fe-48ff-9595-399075091103"},"vehicle_type_id":"4","last_reported":1742494438,"current_range_meters":11200,"station_id":"ce4bgrh2rcd13ifvqc8g","pricing_plan_id":"cebpf4jnsgd1na2vs0mg"},{"bike_id":"d5352143-3a99-479e-8a56-282878f7c56a","system_id":"levelo_inurba_marseille","lat":43.25105,"lon":5.40326,"is_reserved":false,"is_disabled":false,"rental_uris":{"android":"levelo://app?vid=d5352143-3a99-479e-8a56-282878f7c56a","ios":"levelo://app?vid=d5352143-3a99-479e-8a56-282878f7c56a"},"vehicle_type_id":"4","last_reported":1742494438,"current_range_meters":10800,"station_id":"ce4bhlh2rcd13ifvqgig","pricing_plan_id":"cebpf4jnsgd1na2vs0mg"},{"bike_id":"82ebedbb-ce2e-43e2-9f6a-790708582ba9","system_id":"levelo_inurba_marseille","lat":43.3121,"lon":5.40126,"is_reserved":false,"is_disabled":false,"rental_uris":{"android":"levelo://app?vid=82ebedbb-ce2e-43e2-9f6a-790708582ba9","ios":"levelo://app?vid=82ebedbb-ce2e-43e2-9f6a-790708582ba9"},"vehicle_type_id":"4","last_reported":1742494438,"current_range_meters":11200,"station_id":"","pricing_plan_id":"cebpf4jnsgd1na2vs0mg"},{"bike_id":"03878966-3d0f-4286-9c80-2978cb909745","system_id":"levelo_inurba_marseille","lat":43.25501,"lon":5.37652,"is_reserved":false,"is_disabled":false,"rental_uris":{"android":"levelo://app?vid=03878966-3d0f-4286-9c80-2978cb909745","ios":"levelo://app?vid=03878966-3d0f-4286-9c80-2978cb909745"},"vehicle_type_id":"4","last_reported":1742494438,"current_range_meters":11200,"station_id":"ce4bhh12rcd13ifvqff0","pricing_plan_id":"cebpf4jnsgd1na2vs0mg"},{"bike_id":"bb532565-2202-409c-9683-9edd37326f1b","system_id":"levelo_inurba_marseille","lat":43.28696,"lon":5.3737,"is_reserved":false,"is_disabled":false,"rental_uris":{"android":"levelo://app?vid=bb532565-2202-409c-9683-9edd37326f1b","ios":"levelo://app?vid=bb532565-2202-409c-9683-9edd37326f1b"},"vehicle_type_id":"4","last_reported":1742494438,"current_range_meters":11200,"station_id":"ce4bh3p2rcd13ifvqdq0","pricing_plan_id":"cebpf4jnsgd1na2vs0mg"},{"bike_id":"8406e6c4-37a3-4d00-b8cd-8faffb48c912","system_id":"levelo_inurba_marseille","lat":43.29275,"lon":5.36849,"is_reserved":false,"is_disabled":false,"rental_uris":{"android":"levelo://app?vid=8406e6c4-37a3-4d00-b8cd-8faffb48c912","ios":"levelo://app?vid=8406e6c4-37a3-4d00-b8cd-8faffb48c912"},"vehicle_type_id":"4","last_reported":1742494438,"current_range_meters":11200,"station_id":"ce4bhbp2rcd13ifvqesg","pricing_plan_id":"cebpf4jnsgd1na2vs0mg"},{"bike_id":"dfe3bcb9-2f68-48f9-8817-309b788cdde0","system_id":"levelo_inurba_marseille","lat":43.28044,"lon":5.36945,"is_reserved":false,"is_disabled":false,"rental_uris":{"android":"levelo://app?vid=dfe3bcb9-2f68-48f9-8817-309b788cdde0","ios":"levelo://app?vid=dfe3bcb9-2f68-48f9-8817-309b788cdde0"},"vehicle_type_id":"4","last_reported":1742494438,"current_range_meters":11200,"station_id":"ce4bha12rcd13ifvqef0","pricing_plan_id":"cebpf4jnsgd1na2vs0mg"},{"bike_id":"c6f4a7f9-f565-4a13-b7c4-2b8c43d377dd","system_id":"levelo_inurba_marseille","lat":43.30138,"lon":5.3878,"is_reserved":false,"is_disabled":false,"rental_uris":{"android":"levelo://app?vid=c6f4a7f9-f565-4a13-b7c4-2b8c43d377dd","ios":"levelo://app?vid=c6f4a7f9-f565-4a13-b7c4-2b8c43d377dd"},"vehicle_type_id":"4","last_reported":1742494438,"current_range_meters":11600,"station_id":"ce4bghh2rcd13ifvqb60","pricing_plan_id":"cebpf4jnsgd1na2vs0mg"},{"bike_id":"a14eaa48-509c-4eea-b6e4-9dac4735c2c1","system_id":"levelo_inurba_marseille","lat":43.298097,"lon":5.381047,"is_reserved":false,"is_disabled":false,"rental_uris":{"android":"levelo://app?vid=a14eaa48-509c-4eea-b6e4-9dac4735c2c1","ios":"levelo://app?vid=a14eaa48-509c-4eea-b6e4-9dac4735c2c1"},"vehicle_type_id":"4","last_reported":1742494438,"current_range_meters":11600,"station_id":"ce4bgip2rcd13ifvqbb0","pricing_plan_id":"cebpf4jnsgd1na2vs0mg"},{"bike_id":"f5ecac68-115b-490d-bd06-8218b121e86c","system_id":"levelo_inurba_marseille","lat":43.2455,"lon":5.39523,"is_reserved":false,"is_disabled":false,"rental_uris":{"android":"levelo://app?vid=f5ecac68-115b-490d-bd06-8218b121e86c","ios":"levelo://app?vid=f5ecac68-115b-490d-bd06-8218b121e86c"},"vehicle_type_id":"4","last_reported":1742494438,"current_range_meters":11600,"station_id":"ce4bhlp2rcd13ifvqgjg","pricing_plan_id":"cebpf4jnsgd1na2vs0mg"},{"bike_id":"a83d89b4-34dc-4f00-ab7a-a53ca0d404af","system_id":"levelo_inurba_marseille","lat":43.28463,"lon":5.3588,"is_reserved":false,"is_disabled":false,"rental_uris":{"android":"levelo://app?vid=a83d89b4-34dc-4f00-ab7a-a53ca0d404af","ios":"levelo://app?vid=a83d89b4-34dc-4f00-ab7a-a53ca0d404af"},"vehicle_type_id":"4","last_reported":1742494438,"current_range_meters":11600,"station_id":"ce4bhah2rcd13ifvqei0","pricing_plan_id":"cebpf4jnsgd1na2vs0mg"},{"bike_id":"a7daee64-9b1c-45d7-9b60-1ac74dd79f85","system_id":"levelo_inurba_marseille","lat":43.28977,"lon":5.37816,"is_reserved":false,"is_disabled":false,"rental_uris":{"android":"levelo://app?vid=a7daee64-9b1c-45d7-9b60-1ac74dd79f85","ios":"levelo://app?vid=a7daee64-9b1c-45d7-9b60-1ac74dd79f85"},"vehicle_type_id":"4","last_reported":1742494438,"current_range_meters":11600,"station_id":"ce4bh9p2rcd13ifvqed0","pricing_plan_id":"cebpf4jnsgd1na2vs0mg"},{"bike_id":"1c3b5361-695c-4ccc-94f9-aca7f37b6d45","system_id":"levelo_inurba_marseille","lat":43.23188,"lon":5.35558,"is_reserved":false,"is_disabled":false,"rental_uris":{"android":"levelo://app?vid=1c3b5361-695c-4ccc-94f9-aca7f37b6d45","ios":"levelo://app?vid=1c3b5361-695c-4ccc-94f9-aca7f37b6d45"},"vehicle_type_id":"4","last_reported":1742494438,"current_range_meters":12000,"station_id":"ce4bhu92rcd13ifvqi70","pricing_plan_id":"cebpf4jnsgd1na2vs0mg"},{"bike_id":"927f6325-7599-4f69-8a9d-b30864fdbc70","system_id":"levelo_inurba_marseille","lat":43.29023,"lon":5.38642,"is_reserved":false,"is_disabled":false,"rental_uris":{"android":"levelo://app?vid=927f6325-7599-4f69-8a9d-b30864fdbc70","ios":"levelo://app?vid=927f6325-7599-4f69-8a9d-b30864fdbc70"},"vehicle_type_id":"4","last_reported":1742494438,"current_range_meters":12000,"station_id":"ce4bh4p2rcd13ifvqe0g","pricing_plan_id":"cebpf4jnsgd1na2vs0mg"},{"bike_id":"a09c2085-ba88-4c28-84b9-1a03b72bd676","system_id":"levelo_inurba_marseille","lat":43.29706,"lon":5.36628,"is_reserved":false,"is_disabled":false,"rental_uris":{"android":"levelo://app?vid=a09c2085-ba88-4c28-84b9-1a03b72bd676","ios":"levelo://app?vid=a09c2085-ba88-4c28-84b9-1a03b72bd676"},"vehicle_type_id":"4","last_reported":1742494438,"current_range_meters":12000,"station_id":"ce4bgn12rcd13ifvqbt0","pricing_plan_id":"cebpf4jnsgd1na2vs0mg"},{"bike_id":"1295e912-beee-47fe-a5c8-2ae149d6d129","system_id":"levelo_inurba_marseille","lat":43.31613,"lon":5.37969,"is_reserved":false,"is_disabled":false,"rental_uris":{"android":"levelo://app?vid=1295e912-beee-47fe-a5c8-2ae149d6d129","ios":"levelo://app?vid=1295e912-beee-47fe-a5c8-2ae149d6d129"},"vehicle_type_id":"4","last_reported":1742494438,"current_range_meters":12000,"station_id":"","pricing_plan_id":"cebpf4jnsgd1na2vs0mg"},{"bike_id":"24016567-79c9-417a-ad0a-921105cb0978","system_id":"levelo_inurba_marseille","lat":43.32334,"lon":5.3891,"is_reserved":false,"is_disabled":false,"rental_uris":{"android":"levelo://app?vid=24016567-79c9-417a-ad0a-921105cb0978","ios":"levelo://app?vid=24016567-79c9-417a-ad0a-921105cb0978"},"vehicle_type_id":"4","last_reported":1742494438,"current_range_meters":12000,"station_id":"ce4bhqp2rcd13ifvqhog","pricing_plan_id":"cebpf4jnsgd1na2vs0mg"},{"bike_id":"65371193-ae66-47ea-a556-ef97385bc673","system_id":"levelo_inurba_marseille","lat":43.30212,"lon":5.39468,"is_reserved":false,"is_disabled":false,"rental_uris":{"android":"levelo://app?vid=65371193-ae66-47ea-a556-ef97385bc673","ios":"levelo://app?vid=65371193-ae66-47ea-a556-ef97385bc673"},"vehicle_type_id":"4","last_reported":1742494438,"current_range_meters":12000,"station_id":"ce4bh0p2rcd13ifvqd70","pricing_plan_id":"cebpf4jnsgd1na2vs0mg"},{"bike_id":"75591ddb-30cb-4097-a80d-74522c2d07fc","system_id":"levelo_inurba_marseille","lat":43.25104,"lon":5.40339,"is_reserved":false,"is_disabled":false,"rental_uris":{"android":"levelo://app?vid=75591ddb-30cb-4097-a80d-74522c2d07fc","ios":"levelo://app?vid=75591ddb-30cb-4097-a80d-74522c2d07fc"},"vehicle_type_id":"4","last_reported":1742494438,"current_range_meters":12000,"station_id":"ce4bhlh2rcd13ifvqgig","pricing_plan_id":"cebpf4jnsgd1na2vs0mg"},{"bike_id":"64f3f160-3d41-4047-a7c4-5d9924ce80c7","system_id":"levelo_inurba_marseille","lat":43.2626,"lon":5.39301,"is_reserved":false,"is_disabled":false,"rental_uris":{"android":"levelo://app?vid=64f3f160-3d41-4047-a7c4-5d9924ce80c7","ios":"levelo://app?vid=64f3f160-3d41-4047-a7c4-5d9924ce80c7"},"vehicle_type_id":"4","last_reported":1742494438,"current_range_meters":12000,"station_id":"ce4bhip2rcd13ifvqft0","pricing_plan_id":"cebpf4jnsgd1na2vs0mg"},{"bike_id":"83fe4b7d-c313-402b-a1b1-9f765824d193","system_id":"levelo_inurba_marseille","lat":43.26213,"lon":5.37412,"is_reserved":false,"is_disabled":false,"rental_uris":{"android":"levelo://app?vid=83fe4b7d-c313-402b-a1b1-9f765824d193","ios":"levelo://app?vid=83fe4b7d-c313-402b-a1b1-9f765824d193"},"vehicle_type_id":"4","last_reported":1742494438,"current_range_meters":12000,"station_id":"","pricing_plan_id":"cebpf4jnsgd1na2vs0mg"},{"bike_id":"df9e3f17-4d6c-4f00-b1da-50a83de90cd8","system_id":"levelo_inurba_marseille","lat":43.28439,"lon":5.39202,"is_reserved":false,"is_disabled":false,"rental_uris":{"android":"levelo://app?vid=df9e3f17-4d6c-4f00-b1da-50a83de90cd8","ios":"levelo://app?vid=df9e3f17-4d6c-4f00-b1da-50a83de90cd8"},"vehicle_type_id":"4","last_reported":1742494438,"current_range_meters":12400,"station_id":"ce4bhoh2rcd13ifvqh5g","pricing_plan_id":"cebpf4jnsgd1na2vs0mg"},{"bike_id":"39036aae-8f0c-4ed2-8157-a35d0a4f55ee","system_id":"levelo_inurba_marseille","lat":43.2396,"lon":5.36633,"is_reserved":false,"is_disabled":false,"rental_uris":{"android":"levelo://app?vid=39036aae-8f0c-4ed2-8157-a35d0a4f55ee","ios":"levelo://app?vid=39036aae-8f0c-4ed2-8157-a35d0a4f55ee"},"vehicle_type_id":"4","last_reported":1742494438,"current_range_meters":12400,"station_id":"ce4bhi12rcd13ifvqfp0","pricing_plan_id":"cebpf4jnsgd1na2vs0mg"},{"bike_id":"777d259c-3aff-4e1d-a0c8-7abb9a149cbe","system_id":"levelo_inurba_marseille","lat":43.28665,"lon":5.3635,"is_reserved":false,"is_disabled":false,"rental_uris":{"android":"levelo://app?vid=777d259c-3aff-4e1d-a0c8-7abb9a149cbe","ios":"levelo://app?vid=777d259c-3aff-4e1d-a0c8-7abb9a149cbe"},"vehicle_type_id":"4","last_reported":1742494438,"current_range_meters":12400,"station_id":"ce4bhah2rcd13ifvqej0","pricing_plan_id":"cebpf4jnsgd1na2vs0mg"},{"bike_id":"2678929a-312d-4089-b116-1e816de7db90","system_id":"levelo_inurba_marseille","lat":43.32113,"lon":5.36794,"is_reserved":false,"is_disabled":false,"rental_uris":{"android":"levelo://app?vid=2678929a-312d-4089-b116-1e816de7db90","ios":"levelo://app?vid=2678929a-312d-4089-b116-1e816de7db90"},"vehicle_type_id":"4","last_reported":1742494438,"current_range_meters":12400,"station_id":"ce4bhrh2rcd13ifvqhug","pricing_plan_id":"cebpf4jnsgd1na2vs0mg"},{"bike_id":"00680b70-50da-4667-89e8-2322036bb32d","system_id":"levelo_inurba_marseille","lat":43.2801,"lon":5.40006,"is_reserved":false,"is_disabled":false,"rental_uris":{"android":"levelo://app?vid=00680b70-50da-4667-89e8-2322036bb32d","ios":"levelo://app?vid=00680b70-50da-4667-89e8-2322036bb32d"},"vehicle_type_id":"4","last_reported":1742494438,"current_range_meters":12400,"station_id":"ce4bho92rcd13ifvqh4g","pricing_plan_id":"cebpf4jnsgd1na2vs0mg"},{"bike_id":"ea1382d4-f0c9-4211-ab3f-21fe9335ae88","system_id":"levelo_inurba_marseille","lat":43.288471,"lon":5.382261,"is_reserved":false,"is_disabled":false,"rental_uris":{"android":"levelo://app?vid=ea1382d4-f0c9-4211-ab3f-21fe9335ae88","ios":"levelo://app?vid=ea1382d4-f0c9-4211-ab3f-21fe9335ae88"},"vehicle_type_id":"4","last_reported":1742494438,"current_range_meters":12000,"station_id":"ce4bhdp2rcd13ifvqf20","pricing_plan_id":"cebpf4jnsgd1na2vs0mg"},{"bike_id":"ddc0f726-39ba-4233-8a9e-09f672bfe6d8","system_id":"levelo_inurba_marseille","lat":43.33612,"lon":5.41034,"is_reserved":false,"is_disabled":false,"rental_uris":{"android":"levelo://app?vid=ddc0f726-39ba-4233-8a9e-09f672bfe6d8","ios":"levelo://app?vid=ddc0f726-39ba-4233-8a9e-09f672bfe6d8"},"vehicle_type_id":"4","last_reported":1742494438,"current_range_meters":12000,"station_id":"ce4bhqh2rcd13ifvqhmg","pricing_plan_id":"cebpf4jnsgd1na2vs0mg"},{"bike_id":"3775c752-eeb0-45db-9f0c-bad206a154cb","system_id":"levelo_inurba_marseille","lat":43.25018,"lon":5.38912,"is_reserved":false,"is_disabled":false,"rental_uris":{"android":"levelo://app?vid=3775c752-eeb0-45db-9f0c-bad206a154cb","ios":"levelo://app?vid=3775c752-eeb0-45db-9f0c-bad206a154cb"},"vehicle_type_id":"4","last_reported":1742494438,"current_range_meters":12400,"station_id":"ce4bhgp2rcd13ifvqfd0","pricing_plan_id":"cebpf4jnsgd1na2vs0mg"},{"bike_id":"806806e1-b2b5-444d-bdfc-bf002071a30c","system_id":"levelo_inurba_marseille","lat":43.3179,"lon":5.36833,"is_reserved":false,"is_disabled":false,"rental_uris":{"android":"levelo://app?vid=806806e1-b2b5-444d-bdfc-bf002071a30c","ios":"levelo://app?vid=806806e1-b2b5-444d-bdfc-bf002071a30c"},"vehicle_type_id":"4","last_reported":1742494438,"current_range_meters":12400,"station_id":"","pricing_plan_id":"cebpf4jnsgd1na2vs0mg"},{"bike_id":"7f67c53c-33fa-4743-a5a2-a9c67dfa287e","system_id":"levelo_inurba_marseille","lat":43.29898,"lon":5.43662,"is_reserved":false,"is_disabled":false,"rental_uris":{"android":"levelo://app?vid=7f67c53c-33fa-4743-a5a2-a9c67dfa287e","ios":"levelo://app?vid=7f67c53c-33fa-4743-a5a2-a9c67dfa287e"},