{"last_updated":1752682455,"ttl":60,"version":"2.2","data":{"bikes":[{"bike_id":"53b742a7-31ae-4272-9bba-7740339e2a2f","system_id":"levelo_inurba_marseille","lat":43.33747,"lon":5.37463,"is_reserved":false,"is_disabled":false,"rental_uris":{"android":"levelo://app?vid=53b742a7-31ae-4272-9bba-7740339e2a2f","ios":"levelo://app?vid=53b742a7-31ae-4272-9bba-7740339e2a2f"},"vehicle_type_id":"1","last_reported":1752682455,"current_range_meters":28400,"station_id":"","pricing_plan_id":"cebpf4jnsgd1na2vs0mg"},{"bike_id":"ca4140fb-5246-44d6-aff2-a8c16b7fb865","system_id":"levelo_inurba_marseille","lat":43.28106,"lon":5.37828,"is_reserved":false,"is_disabled":false,"rental_uris":{"android":"levelo://app?vid=ca4140fb-5246-44d6-aff2-a8c16b7fb865","ios":"levelo://app?vid=ca4140fb-5246-44d6-aff2-a8c16b7fb865"},"vehicle_type_id":"4","last_reported":1752682455,"current_range_meters":2800,"station_id":"ce4bha12rcd13ifvqee0","pricing_plan_id":"cebpf4jnsgd1na2vs0mg"},{"bike_id":"0f359a4d-550a-4331-8421-4db4b223d855","system_id":"levelo_inurba_marseille","lat":43.27618,"lon":5.36102,"is_reserved":false,"is_disabled":false,"rental_uris":{"android":"levelo://app?vid=0f359a4d-550a-4331-8421-4db4b223d855","ios":"levelo://app?vid=0f359a4d-550a-4331-8421-4db4b223d855"},"vehicle_type_id":"4","last_reported":1752682455,"current_range_meters":2800,"station_id":"ce4bgj92rcd13ifvqbe0","pricing_plan_id":"cebpf4jnsgd1na2vs0mg"},{"bike_id":"0517f226-9c35-473e-b2c6-52179b326362","system_id":"levelo_inurba_marseille","lat":43.282639,"lon":5.350543,"is_reserved":false,"is_disabled":false,"rental_uris":{"android":"levelo://app?vid=0517f226-9c35-473e-b2c6-52179b326362","ios":"levelo://app?vid=0517f226-9c35-473e-b2c6-52179b326362"},"vehicle_type_id":"4","last_reported":1752682455,"current_range_meters":3200,"station_id":"","pricing_plan_id":"cebpf4jnsgd1na2vs0mg"},{"bike_id":"ce44358e-afa4-4b9c-8de3-b08684351f76","system_id":"levelo_inurba_marseille","lat":43.2794,"lon":5.41048,"is_reserved":false,"is_disabled":true,"rental_uris":{"android":"levelo://app?vid=ce44358e-afa4-4b9c-8de3-b08684351f76","ios":"levelo://app?vid=ce44358e-afa4-4b9c-8de3-b08684351f76"},"vehicle_type_id":"4","last_reported":1752682455,"current_range_meters":3200,"station_id":"ce4bhnp2rcd13ifvqh0g","pricing_plan_id":"cebpf4jnsgd1na2vs0mg"},{"bike_id":"6368de16-d144-4f73-833e-ca19d2aeee12","system_id":"levelo_inurba_marseille","lat":43.22531,"lon":5.34767,"is_reserved":false,"is_disabled":false,"rental_uris":{"android":"levelo://app?vid=6368de16-d144-4f73-833e-ca19d2aeee12","ios":"levelo://app?vid=6368de16-d144-4f73-833e-ca19d2aeee12"},"vehicle_type_id":"4","last_reported":1752682455,"current_range_meters":3200,"station_id":"st_cvj5dfep6f1abm77gieg","pricing_plan_id":"cebpf4jnsgd1na2vs0mg"},{"bike_id":"b898f0d1-a326-4716-9775-71527b6813c2","system_id":"levelo_inurba_marseille","lat":43.28275,"lon":5.35062,"is_reserved":false,"is_disabled":false,"rental_uris":{"android":"levelo://app?vid=b898f0d1-a326-4716-9775-71527b6813c2","ios":"levelo://app?vid=b898f0d1-a326-4716-9775-71527b6813c2"},"vehicle_type_id":"4","last_reported":1752682455,"current_range_meters":3200,"station_id":"ce4bhbp2rcd13ifvqerg","pricing_plan_id":"cebpf4jnsgd1na2vs0mg"},{"bike_id":"451a748d-9286-40ae-9471-222b4d590d3c","system_id":"levelo_inurba_marseille","lat":43.28041,"lon":5.36961,"is_reserved":false,"is_disabled":false,"rental_uris":{"android":"levelo://app?vid=451a748d-9286-40ae-9471-222b4d590d3c","ios":"levelo://app?vid=451a748d-9286-40ae-9471-222b4d590d3c"},"vehicle_type_id":"4","last_reported":1752682455,"current_range_meters":3600,"station_id":"ce4bha12rcd13ifvqef0","pricing_plan_id":"cebpf4jnsgd1na2vs0mg"},{"bike_id":"6848937a-8171-48ab-ac88-3df2c98c709d","system_id":"levelo_inurba_marseille","lat":43.28416,"lon":5.34973,"is_reserved":false,"is_disabled":false,"rental_uris":{"android":"levelo://app?vid=6848937a-8171-48ab-ac88-3df2c98c709d","ios":"levelo://app?vid=6848937a-8171-48ab-ac88-3df2c98c709d"},"vehicle_type_id":"4","last_reported":1752682455,"current_range_meters":3600,"station_id":"ce4bhbh2rcd13ifvqepg","pricing_plan_id":"cebpf4jnsgd1na2vs0mg"},{"bike_id":"fbcd1b7d-598f-4f0d-8e09-733bdcf7806b","system_id":"levelo_inurba_marseille","lat":43.28941,"lon":5.36391,"is_reserved":false,"is_disabled":false,"rental_uris":{"android":"levelo://app?vid=fbcd1b7d-598f-4f0d-8e09-733bdcf7806b","ios":"levelo://app?vid=fbcd1b7d-598f-4f0d-8e09-733bdcf7806b"},"vehicle_type_id":"4","last_reported":1752682455,"current_range_meters":4000,"station_id":"ce4bhc92rcd13ifvqetg","pricing_plan_id":"cebpf4jnsgd1na2vs0mg"},{"bike_id":"eb52440a-522d-4cb6-aca0-acafe697b8c2","system_id":"levelo_inurba_marseille","lat":43.301475,"lon":5.380841,"is_reserved":false,"is_disabled":false,"rental_uris":{"android":"levelo://app?vid=eb52440a-522d-4cb6-aca0-acafe697b8c2","ios":"levelo://app?vid=eb52440a-522d-4cb6-aca0-acafe697b8c2"},"vehicle_type_id":"4","last_reported":1752682455,"current_range_meters":4000,"station_id":"ce4bgjp2rcd13ifvqbh0","pricing_plan_id":"cebpf4jnsgd1na2vs0mg"},{"bike_id":"b36e17fd-60cc-4d2d-b953-5c0c55be5fa9","system_id":"levelo_inurba_marseille","lat":43.2962,"lon":5.37161,"is_reserved":false,"is_disabled":false,"rental_uris":{"android":"levelo://app?vid=b36e17fd-60cc-4d2d-b953-5c0c55be5fa9","ios":"levelo://app?vid=b36e17fd-60cc-4d2d-b953-5c0c55be5fa9"},"vehicle_type_id":"4","last_reported":1752682455,"current_range_meters":5600,"station_id":"ce4bgnh2rcd13ifvqc0g","pricing_plan_id":"cebpf4jnsgd1na2vs0mg"},{"bike_id":"e4ff98e0-9a5b-4cf8-b39b-569408207f90","system_id":"levelo_inurba_marseille","lat":43.2867,"lon":5.3867,"is_reserved":false,"is_disabled":false,"rental_uris":{"android":"levelo://app?vid=e4ff98e0-9a5b-4cf8-b39b-569408207f90","ios":"levelo://app?vid=e4ff98e0-9a5b-4cf8-b39b-569408207f90"},"vehicle_type_id":"4","last_reported":1752682455,"current_range_meters":4000,"station_id":"ce4bh492rcd13ifvqdug","pricing_plan_id":"cebpf4jnsgd1na2vs0mg"},{"bike_id":"a7f35211-1ad8-4c6a-a932-6aaec1a5f704","system_id":"levelo_inurba_marseille","lat":43.289389,"lon":5.366446,"is_reserved":false,"is_disabled":false,"rental_uris":{"android":"levelo://app?vid=a7f35211-1ad8-4c6a-a932-6aaec1a5f704","ios":"levelo://app?vid=a7f35211-1ad8-4c6a-a932-6aaec1a5f704"},"vehicle_type_id":"4","last_reported":1752682455,"current_range_meters":4400,"station_id":"ce4bhap2rcd13ifvqek0","pricing_plan_id":"cebpf4jnsgd1na2vs0mg"},{"bike_id":"37e024ba-bb6d-443e-999a-005dc6ad2bed","system_id":"levelo_inurba_marseille","lat":43.317367,"lon":5.423898,"is_reserved":false,"is_disabled":false,"rental_uris":{"android":"levelo://app?vid=37e024ba-bb6d-443e-999a-005dc6ad2bed","ios":"levelo://app?vid=37e024ba-bb6d-443e-999a-005dc6ad2bed"},"vehicle_type_id":"4","last_reported":1752682455,"current_range_meters":4400,"station_id":"ce4bhp92rcd13ifvqhbg","pricing_plan_id":"cebpf4jnsgd1na2vs0mg"},{"bike_id":"5ad08092-5ddd-4c62-b3a5-5fa394ada98b","system_id":"levelo_inurba_marseille","lat":43.26556,"lon":5.37281,"is_reserved":false,"is_disabled":false,"rental_uris":{"android":"levelo://app?vid=5ad08092-5ddd-4c62-b3a5-5fa394ada98b","ios":"levelo://app?vid=5ad08092-5ddd-4c62-b3a5-5fa394ada98b"},"vehicle_type_id":"4","last_reported":1752682455,"current_range_meters":4400,"station_id":"ce4bhg12rcd13ifvqf70","pricing_plan_id":"cebpf4jnsgd1na2vs0mg"},{"bike_id":"07991968-410c-4f34-8f98-bd500ab3dea9","system_id":"levelo_inurba_marseille","lat":43.248047,"lon":5.374547,"is_reserved":false,"is_disabled":false,"rental_uris":{"android":"levelo://app?vid=07991968-410c-4f34-8f98-bd500ab3dea9","ios":"levelo://app?vid=07991968-410c-4f34-8f98-bd500ab3dea9"},"vehicle_type_id":"4","last_reported":1752682455,"current_range_meters":4800,"station_id":"ce4bhgh2rcd13ifvqfb0","pricing_plan_id":"cebpf4jnsgd1na2vs0mg"},{"bike_id":"6563de75-29f4-47b1-bd36-ab130ddec09c","system_id":"levelo_inurba_marseille","lat":43.28937,"lon":5.36638,"is_reserved":false,"is_disabled":false,"rental_uris":{"android":"levelo://app?vid=6563de75-29f4-47b1-bd36-ab130ddec09c","ios":"levelo://app?vid=6563de75-29f4-47b1-bd36-ab130ddec09c"},"vehicle_type_id":"4","last_reported":1752682455,"current_range_meters":5600,"station_id":"ce4bhap2rcd13ifvqek0","pricing_plan_id":"cebpf4jnsgd1na2vs0mg"},{"bike_id":"76f1275e-d63f-45b3-9c1c-ecfefff192e9","system_id":"levelo_inurba_marseille","lat":43.28277,"lon":5.35054,"is_reserved":false,"is_disabled":false,"rental_uris":{"android":"levelo://app?vid=76f1275e-d63f-45b3-9c1c-ecfefff192e9","ios":"levelo://app?vid=76f1275e-d63f-45b3-9c1c-ecfefff192e9"},"vehicle_type_id":"4","last_reported":1752682455,"current_range_meters":5600,"station_id":"ce4bhbp2rcd13ifvqerg","pricing_plan_id":"cebpf4jnsgd1na2vs0mg"},{"bike_id":"6fd722c1-7ac5-4a2b-a234-6cd256d2f3aa","system_id":"levelo_inurba_marseille","lat":43.26561,"lon":5.37281,"is_reserved":false,"is_disabled":false,"rental_uris":{"android":"levelo://app?vid=6fd722c1-7ac5-4a2b-a234-6cd256d2f3aa","ios":"levelo://app?vid=6fd722c1-7ac5-4a2b-a234-6cd256d2f3aa"},"vehicle_type_id":"4","last_reported":1752682455,"current_range_meters":5600,"station_id":"ce4bhg12rcd13ifvqf70","pricing_plan_id":"cebpf4jnsgd1na2vs0mg"},{"bike_id":"54971965-f156-446e-a5e9-064c3f4a8b64","system_id":"levelo_inurba_marseille","lat":43.292313,"lon":5.360623,"is_reserved":false,"is_disabled":false,"rental_uris":{"android":"levelo://app?vid=54971965-f156-446e-a5e9-064c3f4a8b64","ios":"levelo://app?vid=54971965-f156-446e-a5e9-064c3f4a8b64"},"vehicle_type_id":"4","last_reported":1752682455,"current_range_meters":5600,"station_id":"ce4bhbh2rcd13ifvqeqg","pricing_plan_id":"cebpf4jnsgd1na2vs0mg"},{"bike_id":"6157b466-73ee-467f-aa2d-b3363e4f3f0f","system_id":"levelo_inurba_marseille","lat":43.28414,"lon":5.349768,"is_reserved":false,"is_disabled":false,"rental_uris":{"android":"levelo://app?vid=6157b466-73ee-467f-aa2d-b3363e4f3f0f","ios":"levelo://app?vid=6157b466-73ee-467f-aa2d-b3363e4f3f0f"},"vehicle_type_id":"4","last_reported":1752682455,"current_range_meters":5600,"station_id":"","pricing_plan_id":"cebpf4jnsgd1na2vs0mg"},{"bike_id":"1c7b78cb-7258-4c9f-84f7-bc16a248d413","system_id":"levelo_inurba_marseille","lat":43.29263,"lon":5.3844,"is_reserved":false,"is_disabled":false,"rental_uris":{"android":"levelo://app?vid=1c7b78cb-7258-4c9f-84f7-bc16a248d413","ios":"levelo://app?vid=1c7b78cb-7258-4c9f-84f7-bc16a248d413"},"vehicle_type_id":"4","last_reported":1752682455,"current_range_meters":5600,"station_id":"ce4bh692rcd13ifvqea0","pricing_plan_id":"cebpf4jnsgd1na2vs0mg"},{"bike_id":"c5a36724-d437-41b9-be67-b25afef6e1ee","system_id":"levelo_inurba_marseille","lat":43.28617,"lon":5.35107,"is_reserved":false,"is_disabled":false,"rental_uris":{"android":"levelo://app?vid=c5a36724-d437-41b9-be67-b25afef6e1ee","ios":"levelo://app?vid=c5a36724-d437-41b9-be67-b25afef6e1ee"},"vehicle_type_id":"4","last_reported":1752682455,"current_range_meters":6000,"station_id":"ce4bhch2rcd13ifvqeug","pricing_plan_id":"cebpf4jnsgd1na2vs0mg"},{"bike_id":"1fcda8ae-fe72-45c2-bf0a-e4ac18e024f6","system_id":"levelo_inurba_marseille","lat":43.28403,"lon":5.34977,"is_reserved":false,"is_disabled":false,"rental_uris":{"android":"levelo://app?vid=1fcda8ae-fe72-45c2-bf0a-e4ac18e024f6","ios":"levelo://app?vid=1fcda8ae-fe72-45c2-bf0a-e4ac18e024f6"},"vehicle_type_id":"4","last_reported":1752682455,"current_range_meters":6000,"station_id":"ce4bhbh2rcd13ifvqepg","pricing_plan_id":"cebpf4jnsgd1na2vs0mg"},{"bike_id":"2f093055-ac85-426a-b8f2-2ff9a75991ec","system_id":"levelo_inurba_marseille","lat":43.29571,"lon":5.39979,"is_reserved":false,"is_disabled":false,"rental_uris":{"android":"levelo://app?vid=2f093055-ac85-426a-b8f2-2ff9a75991ec","ios":"levelo://app?vid=2f093055-ac85-426a-b8f2-2ff9a75991ec"},"vehicle_type_id":"4","last_reported":1752682455,"current_range_meters":6000,"station_id":"ce4bh312rcd13ifvqdj0","pricing_plan_id":"cebpf4jnsgd1na2vs0mg"},{"bike_id":"550060ba-dcdf-4ad9-9945-ba36f53d3268","system_id":"levelo_inurba_marseille","lat":43.2481,"lon":5.37461,"is_reserved":false,"is_disabled":false,"rental_uris":{"android":"levelo://app?vid=550060ba-dcdf-4ad9-9945-ba36f53d3268","ios":"levelo://app?vid=550060ba-dcdf-4ad9-9945-ba36f53d3268"},"vehicle_type_id":"4","last_reported":1752682455,"current_range_meters":9600,"station_id":"ce4bhgh2rcd13ifvqfb0","pricing_plan_id":"cebpf4jnsgd1na2vs0mg"},{"bike_id":"58435ee0-ba93-45cd-aa4e-815bc81f94c6","system_id":"levelo_inurba_marseille","lat":43.28426,"lon":5.34984,"is_reserved":false,"is_disabled":false,"rental_uris":{"android":"levelo://app?vid=58435ee0-ba93-45cd-aa4e-815bc81f94c6","ios":"levelo://app?vid=58435ee0-ba93-45cd-aa4e-815bc81f94c6"},"vehicle_type_id":"4","last_reported":1752682455,"current_range_meters":6400,"station_id":"ce4bhbh2rcd13ifvqepg","pricing_plan_id":"cebpf4jnsgd1na2vs0mg"},{"bike_id":"5d8c54b6-f935-4965-a2f7-8c1767a0c171","system_id":"levelo_inurba_marseille","lat":43.29419,"lon":5.38604,"is_reserved":false,"is_disabled":true,"rental_uris":{"android":"levelo://app?vid=5d8c54b6-f935-4965-a2f7-8c1767a0c171","ios":"levelo://app?vid=5d8c54b6-f935-4965-a2f7-8c1767a0c171"},"vehicle_type_id":"4","last_reported":1752682455,"current_range_meters":6400,"station_id":"ce4bh2h2rcd13ifvqdh0","pricing_plan_id":"cebpf4jnsgd1na2vs0mg"},{"bike_id":"e128cb07-330b-44be-a792-fbaf741056e2","system_id":"levelo_inurba_marseille","lat":43.29278,"lon":5.36844,"is_reserved":false,"is_disabled":false,"rental_uris":{"android":"levelo://app?vid=e128cb07-330b-44be-a792-fbaf741056e2","ios":"levelo://app?vid=e128cb07-330b-44be-a792-fbaf741056e2"},"vehicle_type_id":"4","last_reported":1752682455,"current_range_meters":6400,"station_id":"ce4bhbp2rcd13ifvqesg","pricing_plan_id":"cebpf4jnsgd1na2vs0mg"},{"bike_id":"e2f2f893-16c7-42e5-8c51-893940a1136e","system_id":"levelo_inurba_marseille","lat":43.30113,"lon":5.36836,"is_reserved":false,"is_disabled":false,"rental_uris":{"android":"levelo://app?vid=e2f2f893-16c7-42e5-8c51-893940a1136e","ios":"levelo://app?vid=e2f2f893-16c7-42e5-8c51-893940a1136e"},"vehicle_type_id":"4","last_reported":1752682455,"current_range_meters":6800,"station_id":"","pricing_plan_id":"cebpf4jnsgd1na2vs0mg"},{"bike_id":"892165f6-25a5-4f0a-a9a6-cf4efe50c3be","system_id":"levelo_inurba_marseille","lat":43.24853,"lon":5.42527,"is_reserved":false,"is_disabled":false,"rental_uris":{"android":"levelo://app?vid=892165f6-25a5-4f0a-a9a6-cf4efe50c3be","ios":"levelo://app?vid=892165f6-25a5-4f0a-a9a6-cf4efe50c3be"},"vehicle_type_id":"4","last_reported":1752682455,"current_range_meters":6800,"station_id":"","pricing_plan_id":"cebpf4jnsgd1na2vs0mg"},{"bike_id":"5ff06d2e-1fcb-4f7f-b26f-494ef01051e2","system_id":"levelo_inurba_marseille","lat":43.26587,"lon":5.39483,"is_reserved":false,"is_disabled":true,"rental_uris":{"android":"levelo://app?vid=5ff06d2e-1fcb-4f7f-b26f-494ef01051e2","ios":"levelo://app?vid=5ff06d2e-1fcb-4f7f-b26f-494ef01051e2"},"vehicle_type_id":"4","last_reported":1752682455,"current_range_meters":6800,"station_id":"","pricing_plan_id":"cebpf4jnsgd1na2vs0mg"},{"bike_id":"23fec317-2e46-4d11-809a-c697c778c2cc","system_id":"levelo_inurba_marseille","lat":43.2827,"lon":5.35068,"is_reserved":false,"is_disabled":false,"rental_uris":{"android":"levelo://app?vid=23fec317-2e46-4d11-809a-c697c778c2cc","ios":"levelo://app?vid=23fec317-2e46-4d11-809a-c697c778c2cc"},"vehicle_type_id":"4","last_reported":1752682455,"current_range_meters":6800,"station_id":"ce4bhbp2rcd13ifvqerg","pricing_plan_id":"cebpf4jnsgd1na2vs0mg"},{"bike_id":"60123e14-60de-4d83-8a64-5dbed1971503","system_id":"levelo_inurba_marseille","lat":43.2944,"lon":5.39756,"is_reserved":false,"is_disabled":false,"rental_uris":{"android":"levelo://app?vid=60123e14-60de-4d83-8a64-5dbed1971503","ios":"levelo://app?vid=60123e14-60de-4d83-8a64-5dbed1971503"},"vehicle_type_id":"4","last_reported":1752682455,"current_range_meters":6800,"station_id":"ce4bh3h2rcd13ifvqdo0","pricing_plan_id":"cebpf4jnsgd1na2vs0mg"},{"bike_id":"885cbffe-fa40-449c-a476-adb2fd745fd2","system_id":"levelo_inurba_marseille","lat":43.29191,"lon":5.35806,"is_reserved":false,"is_disabled":false,"rental_uris":{"android":"levelo://app?vid=885cbffe-fa40-449c-a476-adb2fd745fd2","ios":"levelo://app?vid=885cbffe-fa40-449c-a476-adb2fd745fd2"},"vehicle_type_id":"4","last_reported":1752682455,"current_range_meters":9600,"station_id":"ce4bhb12rcd13ifvqel0","pricing_plan_id":"cebpf4jnsgd1na2vs0mg"},{"bike_id":"70e96fa7-394b-4b42-ae85-f7ab2fdc8eff","system_id":"levelo_inurba_marseille","lat":43.24807,"lon":5.37455,"is_reserved":false,"is_disabled":false,"rental_uris":{"android":"levelo://app?vid=70e96fa7-394b-4b42-ae85-f7ab2fdc8eff","ios":"levelo://app?vid=70e96fa7-394b-4b42-ae85-f7ab2fdc8eff"},"vehicle_type_id":"4","last_reported":1752682455,"current_range_meters":7200,"station_id":"ce4bhgh2rcd13ifvqfb0","pricing_plan_id":"cebpf4jnsgd1na2vs0mg"},{"bike_id":"cdc421df-1e7f-434e-983d-930f65f192a9","system_id":"levelo_inurba_marseille","lat":43.28277,"lon":5.35068,"is_reserved":false,"is_disabled":false,"rental_uris":{"android":"levelo://app?vid=cdc421df-1e7f-434e-983d-930f65f192a9","ios":"levelo://app?vid=cdc421df-1e7f-434e-983d-930f65f192a9"},"vehicle_type_id":"4","last_reported":1752682455,"current_range_meters":7200,"station_id":"ce4bhbp2rcd13ifvqerg","pricing_plan_id":"cebpf4jnsgd1na2vs0mg"},{"bike_id":"e6104bf4-d301-4b5c-bc81-2cd757eed2da","system_id":"levelo_inurba_marseille","lat":43.23196,"lon":5.35534,"is_reserved":false,"is_disabled":false,"rental_uris":{"android":"levelo://app?vid=e6104bf4-d301-4b5c-bc81-2cd757eed2da","ios":"levelo://app?vid=e6104bf4-d301-4b5c-bc81-2cd757eed2da"},"vehicle_type_id":"4","last_reported":1752682455,"current_range_meters":7200,"station_id":"ce4bhu92rcd13ifvqi70","pricing_plan_id":"cebpf4jnsgd1na2vs0mg"},{"bike_id":"0fbfcae3-0f85-4ac0-aaf7-2679ae116b45","system_id":"levelo_inurba_marseille","lat":43.28281,"lon":5.35069,"is_reserved":false,"is_disabled":false,"rental_uris":{"android":"levelo://app?vid=0fbfcae3-0f85-4ac0-aaf7-2679ae116b45","ios":"levelo://app?vid=0fbfcae3-0f85-4ac0-aaf7-2679ae116b45"},"vehicle_type_id":"4","last_reported":1752682455,"current_range_meters":8000,"station_id":"ce4bhbp2rcd13ifvqerg","pricing_plan_id":"cebpf4jnsgd1na2vs0mg"},{"bike_id":"f5cf85a1-b58f-4afe-bfef-0be336d8e2e5","system_id":"levelo_inurba_marseille","lat":43.31764,"lon":5.39017,"is_reserved":false,"is_disabled":false,"rental_uris":{"android":"levelo://app?vid=f5cf85a1-b58f-4afe-bfef-0be336d8e2e5","ios":"levelo://app?vid=f5cf85a1-b58f-4afe-bfef-0be336d8e2e5"},"vehicle_type_id":"4","last_reported":1752682455,"current_range_meters":8000,"station_id":"ce4bhqp2rcd13ifvqhng","pricing_plan_id":"cebpf4jnsgd1na2vs0mg"},{"bike_id":"1c065383-5017-4c5f-b8cf-c4e6774d2a13","system_id":"levelo_inurba_marseille","lat":43.29525,"lon":5.38538,"is_reserved":false,"is_disabled":false,"rental_uris":{"android":"levelo://app?vid=1c065383-5017-4c5f-b8cf-c4e6774d2a13","ios":"levelo://app?vid=1c065383-5017-4c5f-b8cf-c4e6774d2a13"},"vehicle_type_id":"4","last_reported":1752682455,"current_range_meters":8000,"station_id":"ce4bgih2rcd13ifvqba0","pricing_plan_id":"cebpf4jnsgd1na2vs0mg"},{"bike_id":"0f15411b-18d0-44ad-948c-27470bbd79c8","system_id":"levelo_inurba_marseille","lat":43.26165,"lon":5.37456,"is_reserved":false,"is_disabled":false,"rental_uris":{"android":"levelo://app?vid=0f15411b-18d0-44ad-948c-27470bbd79c8","ios":"levelo://app?vid=0f15411b-18d0-44ad-948c-27470bbd79c8"},"vehicle_type_id":"4","last_reported":1752682455,"current_range_meters":8000,"station_id":"ce4bhgp2rcd13ifvqfc0","pricing_plan_id":"cebpf4jnsgd1na2vs0mg"},{"bike_id":"e5ec4b25-dbcc-42eb-bf86-2cca309a0b15","system_id":"levelo_inurba_marseille","lat":43.264945,"lon":5.395365,"is_reserved":false,"is_disabled":true,"rental_uris":{"android":"levelo://app?vid=e5ec4b25-dbcc-42eb-bf86-2cca309a0b15","ios":"levelo://app?vid=e5ec4b25-dbcc-42eb-bf86-2cca309a0b15"},"vehicle_type_id":"4","last_reported":1752682455,"current_range_meters":8000,"station_id":"","pricing_plan_id":"cebpf4jnsgd1na2vs0mg"},{"bike_id":"c7faab83-550c-405d-849f-90257842fa27","system_id":"levelo_inurba_marseille","lat":43.30466,"lon":5.37907,"is_reserved":false,"is_disabled":false,"rental_uris":{"android":"levelo://app?vid=c7faab83-550c-405d-849f-90257842fa27","ios":"levelo://app?vid=c7faab83-550c-405d-849f-90257842fa27"},"vehicle_type_id":"4","last_reported":1752682455,"current_range_meters":8400,"station_id":"ce4bgup2rcd13ifvqcn0","pricing_plan_id":"cebpf4jnsgd1na2vs0mg"},{"bike_id":"20bf67fc-d17f-4bad-ba1f-cca201bc1c62","system_id":"levelo_inurba_marseille","lat":43.29683,"lon":5.37283,"is_reserved":false,"is_disabled":false,"rental_uris":{"android":"levelo://app?vid=20bf67fc-d17f-4bad-ba1f-cca201bc1c62","ios":"levelo://app?vid=20bf67fc-d17f-4bad-ba1f-cca201bc1c62"},"vehicle_type_id":"4","last_reported":1752682455,"current_range_meters":7200,"station_id":"ce4bgk12rcd13ifvqbj0","pricing_plan_id":"cebpf4jnsgd1na2vs0mg"},{"bike_id":"2678bdf0-e0df-4b22-ba66-d8b80825463e","system_id":"levelo_inurba_marseille","lat":43.24164,"lon":5.36401,"is_reserved":false,"is_disabled":false,"rental_uris":{"android":"levelo://app?vid=2678bdf0-e0df-4b22-ba66-d8b80825463e","ios":"levelo://app?vid=2678bdf0-e0df-4b22-ba66-d8b80825463e"},"vehicle_type_id":"4","last_reported":1752682455,"current_range_meters":8400,"station_id":"cpo36qri1sfpv3e86is0","pricing_plan_id":"cebpf4jnsgd1na2vs0mg"},{"bike_id":"a8ce6efe-50ae-4699-a953-570b09452efb","system_id":"levelo_inurba_marseille","lat":43.25008,"lon":5.38896,"is_reserved":false,"is_disabled":true,"rental_uris":{"android":"levelo://app?vid=a8ce6efe-50ae-4699-a953-570b09452efb","ios":"levelo://app?vid=a8ce6efe-50ae-4699-a953-570b09452efb"},"vehicle_type_id":"4","last_reported":1752682455,"current_range_meters":8400,"station_id":"ce4bhgp2rcd13ifvqfd0","pricing_plan_id":"cebpf4jnsgd1na2vs0mg"},{"bike_id":"5848ddd6-330e-4c8c-b135-5d877ea6dab6","system_id":"levelo_inurba_marseille","lat":43.28262,"lon":5.35047,"is_reserved":false,"is_disabled":false,"rental_uris":{"android":"levelo://app?vid=5848ddd6-330e-4c8c-b135-5d877ea6dab6","ios":"levelo://app?vid=5848ddd6-330e-4c8c-b135-5d877ea6dab6"},"vehicle_type_id":"4","last_reported":1752682455,"current_range_meters":8800,"station_id":"ce4bhbp2rcd13ifvqerg","pricing_plan_id":"cebpf4jnsgd1na2vs0mg"},{"bike_id":"080b0f22-14dd-4044-a18f-ee7f74366cea","system_id":"levelo_inurba_marseille","lat":43.3201,"lon":5.38194,"is_reserved":false,"is_disabled":true,"rental_uris":{"android":"levelo://app?vid=080b0f22-14dd-4044-a18f-ee7f74366cea","ios":"levelo://app?vid=080b0f22-14dd-4044-a18f-ee7f74366cea"},"vehicle_type_id":"4","last_reported":1752682455,"current_range_meters":8800,"station_id":"ce4bhr12rcd13ifvqhpg","pricing_plan_id":"cebpf4jnsgd1na2vs0mg"},{"bike_id":"bdb9320f-3b57-43be-aecb-94dc9ee688f3","system_id":"levelo_inurba_marseille","lat":43.28357,"lon":5.38627,"is_reserved":false,"is_disabled":false,"rental_uris":{"android":"levelo://app?vid=bdb9320f-3b57-43be-aecb-94dc9ee688f3","ios":"levelo://app?vid=bdb9320f-3b57-43be-aecb-94dc9ee688f3"},"vehicle_type_id":"4","last_reported":1752682455,"current_range_meters":9200,"station_id":"ce4bh492rcd13ifvqdvg","pricing_plan_id":"cebpf4jnsgd1na2vs0mg"},{"bike_id":"d4dffa6b-4ecb-4d0b-9549-14738b2bca81","system_id":"levelo_inurba_marseille","lat":43.27973,"lon":5.38737,"is_reserved":false,"is_disabled":false,"rental_uris":{"android":"levelo://app?vid=d4dffa6b-4ecb-4d0b-9549-14738b2bca81","ios":"levelo://app?vid=d4dffa6b-4ecb-4d0b-9549-14738b2bca81"},"vehicle_type_id":"4","last_reported":1752682455,"current_range_meters":9200,"station_id":"ce4bhg12rcd13ifvqf80","pricing_plan_id":"cebpf4jnsgd1na2vs0mg"},{"bike_id":"51396765-9ad0-4d1d-a813-68fff86b2907","system_id":"levelo_inurba_marseille","lat":43.30488,"lon":5.36692,"is_reserved":false,"is_disabled":false,"rental_uris":{"android":"levelo://app?vid=51396765-9ad0-4d1d-a813-68fff86b2907","ios":"levelo://app?vid=51396765-9ad0-4d1d-a813-68fff86b2907"},"vehicle_type_id":"4","last_reported":1752682455,"current_range_meters":9200,"station_id":"","pricing_plan_id":"cebpf4jnsgd1na2vs0mg"},{"bike_id":"98d6a837-f573-4de8-9e65-8b08ac059198","system_id":"levelo_inurba_marseille","lat":43.28268,"lon":5.35062,"is_reserved":false,"is_disabled":false,"rental_uris":{"android":"levelo://app?vid=98d6a837-f573-4de8-9e65-8b08ac059198","ios":"levelo://app?vid=98d6a837-f573-4de8-9e65-8b08ac059198"},"vehicle_type_id":"4","last_reported":1752682455,"current_range_meters":9200,"station_id":"ce4bhbp2rcd13ifvqerg","pricing_plan_id":"cebpf4jnsgd1na2vs0mg"},{"bike_id":"8bd1254c-bba0-4cc5-ad0c-d8a3e5e1945a","system_id":"levelo_inurba_marseille","lat":43.266832,"lon":5.382709,"is_reserved":false,"is_disabled":false,"rental_uris":{"android":"levelo://app?vid=8bd1254c-bba0-4cc5-ad0c-d8a3e5e1945a","ios":"levelo://app?vid=8bd1254c-bba0-4cc5-ad0c-d8a3e5e1945a"},"vehicle_type_id":"4","last_reported":1752682455,"current_range_meters":9200,"station_id":"ce4bhg92rcd13ifvqf90","pricing_plan_id":"cebpf4jnsgd1na2vs0mg"},{"bike_id":"63352cbb-ab13-4643-be00-5fc26cb4d2c3","system_id":"levelo_inurba_marseille","lat":43.22936,"lon":5.35373,"is_reserved":false,"is_disabled":true,"rental_uris":{"android":"levelo://app?vid=63352cbb-ab13-4643-be00-5fc26cb4d2c3","ios":"levelo://app?vid=63352cbb-ab13-4643-be00-5fc26cb4d2c3"},"vehicle_type_id":"4","last_reported":1752682455,"current_range_meters":9200,"station_id":"cpo3532slgdg3j2ikp40","pricing_plan_id":"cebpf4jnsgd1na2vs0mg"},{"bike_id":"23bea0ab-8703-494d-9c02-d12aed685832","system_id":"levelo_inurba_marseille","lat":43.28621,"lon":5.35106,"is_reserved":false,"is_disabled":false,"rental_uris":{"android":"levelo://app?vid=23bea0ab-8703-494d-9c02-d12aed685832","ios":"levelo://app?vid=23bea0ab-8703-494d-9c02-d12aed685832"},"vehicle_type_id":"4","last_reported":1752682455,"current_range_meters":9200,"station_id":"ce4bhch2rcd13ifvqeug","pricing_plan_id":"cebpf4jnsgd1na2vs0mg"},{"bike_id":"a8f0f936-c328-4254-b778-3bf4dc855588","system_id":"levelo_inurba_marseille","lat":43.28616,"lon":5.35104,"is_reserved":false,"is_disabled":false,"rental_uris":{"android":"levelo://app?vid=a8f0f936-c328-4254-b778-3bf4dc855588","ios":"levelo://app?vid=a8f0f936-c328-4254-b778-3bf4dc855588"},"vehicle_type_id":"4","last_reported":1752682455,"current_range_meters":9200,"station_id":"ce4bhch2rcd13ifvqeug","pricing_plan_id":"cebpf4jnsgd1na2vs0mg"},{"bike_id":"c930812b-89c4-47c1-a6a3-286f2e9c4233","system_id":"levelo_inurba_marseille","lat":43.2828,"lon":5.35084,"is_reserved":false,"is_disabled":false,"rental_uris":{"android":"levelo://app?vid=c930812b-89c4-47c1-a6a3-286f2e9c4233","ios":"levelo://app?vid=c930812b-89c4-47c1-a6a3-286f2e9c4233"},"vehicle_type_id":"4","last_reported":1752682455,"current_range_meters":9600,"station_id":"ce4bhbp2rcd13ifvqerg","pricing_plan_id":"cebpf4jnsgd1na2vs0mg"},{"bike_id":"d98ef30e-38a0-41ef-a00a-304afa979a1e","system_id":"levelo_inurba_marseille","lat":43.29902,"lon":5.43669,"is_reserved":false,"is_disabled":true,"rental_uris":{"android":"levelo://app?vid=d98ef30e-38a0-41ef-a00a-304afa979a1e","ios":"levelo://app?vid=d98ef30e-38a0-41ef-a00a-304afa979a1e"},"vehicle_type_id":"4","last_reported":1752682455,"current_range_meters":9600,"station_id":"ce4bhpp2rcd13ifvqhfg","pricing_plan_id":"cebpf4jnsgd1na2vs0mg"},{"bike_id":"0011b263-5856-466d-abb3-7dcc94ac73d0","system_id":"levelo_inurba_marseille","lat":43.28938,"lon":5.364004,"is_reserved":false,"is_disabled":true,"rental_uris":{"android":"levelo://app?vid=0011b263-5856-466d-abb3-7dcc94ac73d0","ios":"levelo://app?vid=0011b263-5856-466d-abb3-7dcc94ac73d0"},"vehicle_type_id":"4","last_reported":1752682455,"current_range_meters":9600,"station_id":"ce4bhc92rcd13ifvqetg","pricing_plan_id":"cebpf4jnsgd1na2vs0mg"},{"bike_id":"f1d3cbb4-2153-4fdc-bf8b-78f665fa1459","system_id":"levelo_inurba_marseille","lat":43.28278,"lon":5.35079,"is_reserved":false,"is_disabled":false,"rental_uris":{"android":"levelo://app?vid=f1d3cbb4-2153-4fdc-bf8b-78f665fa1459","ios":"levelo://app?vid=f1d3cbb4-2153-4fdc-bf8b-78f665fa1459"},"vehicle_type_id":"4","last_reported":1752682455,"current_range_meters":9600,"station_id":"ce4bhbp2rcd13ifvqerg","pricing_plan_id":"cebpf4jnsgd1na2vs0mg"},{"bike_id":"596ed6b0-5536-4cdd-85f2-57b90f493368","system_id":"levelo_inurba_marseille","lat":43.28418,"lon":5.34976,"is_reserved":false,"is_disabled":false,"rental_uris":{"android":"levelo://app?vid=596ed6b0-5536-4cdd-85f2-57b90f493368","ios":"levelo://app?vid=596ed6b0-5536-4cdd-85f2-57b90f493368"},"vehicle_type_id":"4","last_reported":1752682455,"current_range_meters":10000,"station_id":"ce4bhbh2rcd13ifvqepg","pricing_plan_id":"cebpf4jnsgd1na2vs0mg"},{"bike_id":"100535a1-3f07-44dd-a8e8-cef56c9187f7","system_id":"levelo_inurba_marseille","lat":43.30798,"lon":5.38158,"is_reserved":false,"is_disabled":false,"rental_uris":{"android":"levelo://app?vid=100535a1-3f07-44dd-a8e8-cef56c9187f7","ios":"levelo://app?vid=100535a1-3f07-44dd-a8e8-cef56c9187f7"},"vehicle_type_id":"4","last_reported":1752682455,"current_range_meters":10000,"station_id":"ce4bgt12rcd13ifvqce0","pricing_plan_id":"cebpf4jnsgd1na2vs0mg"},{"bike_id":"7864655a-1b3c-42b5-acc0-8ba1d5025369","system_id":"levelo_inurba_marseille","lat":43.29276,"lon":5.36846,"is_reserved":false,"is_disabled":false,"rental_uris":{"android":"levelo://app?vid=7864655a-1b3c-42b5-acc0-8ba1d5025369","ios":"levelo://app?vid=7864655a-1b3c-42b5-acc0-8ba1d5025369"},"vehicle_type_id":"4","last_reported":1752682455,"current_range_meters":10000,"station_id":"ce4bhbp2rcd13ifvqesg","pricing_plan_id":"cebpf4jnsgd1na2vs0mg"},{"bike_id":"fd98485d-d049-4777-ad0b-170381c262c9","system_id":"levelo_inurba_marseille","lat":43.29038,"lon":5.37589,"is_reserved":false,"is_disabled":false,"rental_uris":{"android":"levelo://app?vid=fd98485d-d049-4777-ad0b-170381c262c9","ios":"levelo://app?vid=fd98485d-d049-4777-ad0b-170381c262c9"},"vehicle_type_id":"4","last_reported":1752682455,"current_range_meters":10000,"station_id":"ce4bh692rcd13ifvqe90","pricing_plan_id":"cebpf4jnsgd1na2vs0mg"},{"bike_id":"adfe475e-4fad-42ce-985f-b88b312e5e64","system_id":"levelo_inurba_marseille","lat":43.29461,"lon":5.37552,"is_reserved":false,"is_disabled":false,"rental_uris":{"android":"levelo://app?vid=adfe475e-4fad-42ce-985f-b88b312e5e64","ios":"levelo://app?vid=adfe475e-4fad-42ce-985f-b88b312e5e64"},"vehicle_type_id":"4","last_reported":1752682455,"current_range_meters":10000,"station_id":"","pricing_plan_id":"cebpf4jnsgd1na2vs0mg"},{"bike_id":"c81987f1-57a3-44a6-b163-5adaad7da738","system_id":"levelo_inurba_marseille","lat":43.29281,"lon":5.40114,"is_reserved":false,"is_disabled":false,"rental_uris":{"android":"levelo://app?vid=c81987f1-57a3-44a6-b163-5adaad7da738","ios":"levelo://app?vid=c81987f1-57a3-44a6-b163-5adaad7da738"},"vehicle_type_id":"4","last_reported":1752682455,"current_range_meters":10000,"station_id":"ce4bh312rcd13ifvqdk0","pricing_plan_id":"cebpf4jnsgd1na2vs0mg"},{"bike_id":"74b4390d-0242-429b-b32a-0523a3e24ef3","system_id":"levelo_inurba_marseille","lat":43.254469,"lon":5.37599,"is_reserved":false,"is_disabled":false,"rental_uris":{"android":"levelo://app?vid=74b4390d-0242-429b-b32a-0523a3e24ef3","ios":"levelo://app?vid=74b4390d-0242-429b-b32a-0523a3e24ef3"},"vehicle_type_id":"4","last_reported":1752682455,"current_range_meters":10800,"station_id":"","pricing_plan_id":"cebpf4jnsgd1na2vs0mg"},{"bike_id":"1366c874-6b71-491e-b99d-b72675213d6f","system_id":"levelo_inurba_marseille","lat":43.31322,"lon":5.39704,"is_reserved":false,"is_disabled":false,"rental_uris":{"android":"levelo://app?vid=1366c874-6b71-491e-b99d-b72675213d6f","ios":"levelo://app?vid=1366c874-6b71-491e-b99d-b72675213d6f"},"vehicle_type_id":"4","last_reported":1752682455,"current_range_meters":10800,"station_id":"ce4bgvp2rcd13ifvqcu0","pricing_plan_id":"cebpf4jnsgd1na2vs0mg"},{"bike_id":"b8a4eb52-0347-4121-b90d-c30bfe3eb9f9","system_id":"levelo_inurba_marseille","lat":43.28105,"lon":5.37833,"is_reserved":false,"is_disabled":false,"rental_uris":{"android":"levelo://app?vid=b8a4eb52-0347-4121-b90d-c30bfe3eb9f9","ios":"levelo://app?vid=b8a4eb52-0347-4121-b90d-c30bfe3eb9f9"},"vehicle_type_id":"4","last_reported":1752682455,"current_range_meters":10800,"station_id":"ce4bha12rcd13ifvqee0","pricing_plan_id":"cebpf4jnsgd1na2vs0mg"},{"bike_id":"b733d901-5f75-4493-9960-b987b87cd8f7","system_id":"levelo_inurba_marseille","lat":43.22544,"lon":5.34833,"is_reserved":false,"is_disabled":false,"rental_uris":{"android":"levelo://app?vid=b733d901-5f75-4493-9960-b987b87cd8f7","ios":"levelo://app?vid=b733d901-5f75-4493-9960-b987b87cd8f7"},"vehicle_type_id":"4","last_reported":1752682455,"current_range_meters":10800,"station_id":"","pricing_plan_id":"cebpf4jnsgd1na2vs0mg"},{"bike_id":"6718915d-453f-489d-92f8-5ecfd0f49837","system_id":"levelo_inurba_marseille","lat":43.29523,"lon":5.39032,"is_reserved":false,"is_disabled":false,"rental_uris":{"android":"levelo://app?vid=6718915d-453f-489d-92f8-5ecfd0f49837","ios":"levelo://app?vid=6718915d-453f-489d-92f8-5ecfd0f49837"},"vehicle_type_id":"4","last_reported":1752682455,"current_range_meters":10000,"station_id":"ce4bh3p2rcd13ifvqdp0","pricing_plan_id":"cebpf4jnsgd1na2vs0mg"},{"bike_id":"2bacaccd-1bb2-41bf-ab2e-30b8a5fb7d5d","system_id":"levelo_inurba_marseille","lat":43.27379,"lon":5.36261,"is_reserved":false,"is_disabled":true,"rental_uris":{"android":"levelo://app?vid=2bacaccd-1bb2-41bf-ab2e-30b8a5fb7d5d","ios":"levelo://app?vid=2bacaccd-1bb2-41bf-ab2e-30b8a5fb7d5d"},"vehicle_type_id":"4","last_reported":1752682455,"current_range_meters":10800,"station_id":"ce4bhbh2rcd13ifvqeo0","pricing_plan_id":"cebpf4jnsgd1na2vs0mg"},{"bike_id":"a8fa3032-6b80-4821-a5a5-27332eeffd22","system_id":"levelo_inurba_marseille","lat":43.2841,"lon":5.35033,"is_reserved":false,"is_disabled":false,"rental_uris":{"android":"levelo://app?vid=a8fa3032-6b80-4821-a5a5-27332eeffd22","ios":"levelo://app?vid=a8fa3032-6b80-4821-a5a5-27332eeffd22"},"vehicle_type_id":"4","last_reported":1752682455,"current_range_meters":10800,"station_id":"ce4bhbh2rcd13ifvqepg","pricing_plan_id":"cebpf4jnsgd1na2vs0mg"},{"bike_id":"6e294e98-e562-4951-b474-3ec72507a19d","system_id":"levelo_inurba_marseille","lat":43.289439,"lon":5.366522,"is_reserved":false,"is_disabled":false,"rental_uris":{"android":"levelo://app?vid=6e294e98-e562-4951-b474-3ec72507a19d","ios":"levelo://app?vid=6e294e98-e562-4951-b474-3ec72507a19d"},"vehicle_type_id":"4","last_reported":1752682455,"current_range_meters":11200,"station_id":"ce4bhap2rcd13ifvqek0","pricing_plan_id":"cebpf4jnsgd1na2vs0mg"},{"bike_id":"0161584a-c392-4586-86be-59f02f3d35dd","system_id":"levelo_inurba_marseille","lat":43.27574,"lon":5.38408,"is_reserved":false,"is_disabled":false,"rental_uris":{"android":"levelo://app?vid=0161584a-c392-4586-86be-59f02f3d35dd","ios":"levelo://app?vid=0161584a-c392-4586-86be-59f02f3d35dd"},"vehicle_type_id":"4","last_reported":1752682455,"current_range_meters":11200,"station_id":"ce4bhh92rcd13ifvqfi0","pricing_plan_id":"cebpf4jnsgd1na2vs0mg"},{"bike_id":"c71c3b85-2ae4-4873-bc9b-77f86d4a9a10","system_id":"levelo_inurba_marseille","lat":43.29035,"lon":5.38637,"is_reserved":false,"is_disabled":false,"rental_uris":{"android":"levelo://app?vid=c71c3b85-2ae4-4873-bc9b-77f86d4a9a10","ios":"levelo://app?vid=c71c3b85-2ae4-4873-bc9b-77f86d4a9a10"},"vehicle_type_id":"4","last_reported":1752682455,"current_range_meters":11200,"station_id":"ce4bh4p2rcd13ifvqe0g","pricing_plan_id":"cebpf4jnsgd1na2vs0mg"},{"bike_id":"a91aae7a-761a-4da1-8c9b-23d2d98253e0","system_id":"levelo_inurba_marseille","lat":43.23195,"lon":5.35546,"is_reserved":false,"is_disabled":false,"rental_uris":{"android":"levelo://app?vid=a91aae7a-761a-4da1-8c9b-23d2d98253e0","ios":"levelo://app?vid=a91aae7a-761a-4da1-8c9b-23d2d98253e0"},"vehicle_type_id":"4","last_reported":1752682455,"current_range_meters":11600,"station_id":"ce4bhu92rcd13ifvqi70","pricing_plan_id":"cebpf4jnsgd1na2vs0mg"},{"bike_id":"ebe73520-b0da-401f-9b20-02d86a390846","system_id":"levelo_inurba_marseille","lat":43.28105,"lon":5.37837,"is_reserved":false,"is_disabled":false,"rental_uris":{"android":"levelo://app?vid=ebe73520-b0da-401f-9b20-02d86a390846","ios":"levelo://app?vid=ebe73520-b0da-401f-9b20-02d86a390846"},"vehicle_type_id":"4","last_reported":1752682455,"current_range_meters":11600,"station_id":"ce4bha12rcd13ifvqee0","pricing_plan_id":"cebpf4jnsgd1na2vs0mg"},{"bike_id":"1766da57-a48c-4354-86b2-789b0d7ece5a","system_id":"levelo_inurba_marseille","lat":43.31488,"lon":5.37312,"is_reserved":false,"is_disabled":false,"rental_uris":{"android":"levelo://app?vid=1766da57-a48c-4354-86b2-789b0d7ece5a","ios":"levelo://app?vid=1766da57-a48c-4354-86b2-789b0d7ece5a"},"vehicle_type_id":"4","last_reported":1752682455,"current_range_meters":11600,"station_id":"ce4bgt12rcd13ifvqcd0","pricing_plan_id":"cebpf4jnsgd1na2vs0mg"},{"bike_id":"8d14cee0-a1ac-4c49-ac0e-28d107d4ed57","system_id":"levelo_inurba_marseille","lat":43.29579,"lon":5.36726,"is_reserved":false,"is_disabled":false,"rental_uris":{"android":"levelo://app?vid=8d14cee0-a1ac-4c49-ac0e-28d107d4ed57","ios":"levelo://app?vid=8d14cee0-a1ac-4c49-ac0e-28d107d4ed57"},"vehicle_type_id":"4","last_reported":1752682455,"current_range_meters":12000,"station_id":"ce4bgph2rcd13ifvqc2g","pricing_plan_id":"cebpf4jnsgd1na2vs0mg"},{"bike_id":"f0944cba-153d-4f0d-b3e1-a9ce06f93477","system_id":"levelo_inurba_marseille","lat":43.30103,"lon":5.3906,"is_reserved":false,"is_disabled":false,"rental_uris":{"android":"levelo://app?vid=f0944cba-153d-4f0d-b3e1-a9ce06f93477","ios":"levelo://app?vid=f0944cba-153d-4f0d-b3e1-a9ce06f93477"},"vehicle_type_id":"4","last_reported":1752682455,"current_range_meters":12000,"station_id":"ce4bh192rcd13ifvqdb0","pricing_plan_id":"cebpf4jnsgd1na2vs0mg"},{"bike_id":"54b283c6-c314-444c-b492-3e78ed7f2d30","system_id":"levelo_inurba_marseille","lat":43.32917,"lon":5.38957,"is_reserved":false,"is_disabled":false,"rental_uris":{"android":"levelo://app?vid=54b283c6-c314-444c-b492-3e78ed7f2d30","ios":"levelo://app?vid=54b283c6-c314-444c-b492-3e78ed7f2d30"},"vehicle_type_id":"4","last_reported":1752682455,"current_range_meters":12000,"station_id":"","pricing_plan_id":"cebpf4jnsgd1na2vs0mg"},{"bike_id":"9fbaf0a5-9a71-4461-8ebc-054c544f8874","system_id":"levelo_inurba_marseille","lat":43.305316,"lon":5.367038,"is_reserved":false,"is_disabled":false,"rental_uris":{"android":"levelo://app?vid=9fbaf0a5-9a71-4461-8ebc-054c544f8874","ios":"levelo://app?vid=9fbaf0a5-9a71-4461-8ebc-054c544f8874"},"vehicle_type_id":"4","last_reported":1752682455,"current_range_meters":12000,"station_id":"","pricing_plan_id":"cebpf4jnsgd1na2vs0mg"},{"bike_id":"794b998d-7e45-4d53-b270-ae51136a9420","system_id":"levelo_inurba_marseille","lat":43.31623,"lon":5.38189,"is_reserved":false,"is_disabled":false,"rental_uris":{"android":"levelo://app?vid=794b998d-7e45-4d53-b270-ae51136a9420","ios":"levelo://app?vid=794b998d-7e45-4d53-b270-ae51136a9420"},"vehicle_type_id":"4","last_reported":1752682455,"current_range_meters":12000,"station_id":"","pricing_plan_id":"cebpf4jnsgd1na2vs0mg"},{"bike_id":"26235242-3188-401f-a712-0c7c1a7d1541","system_id":"levelo_inurba_marseille","lat":43.27616,"lon":5.36106,"is_reserved":false,"is_disabled":false,"rental_uris":{"android":"levelo://app?vid=26235242-3188-401f-a712-0c7c1a7d1541","ios":"levelo://app?vid=26235242-3188-401f-a712-0c7c1a7d1541"},"vehicle_type_id":"4","last_reported":1752682455,"current_range_meters":12000,"station_id":"ce4bgj92rcd13ifvqbe0","pricing_plan_id":"cebpf4jnsgd1na2vs0mg"},{"bike_id":"f17f800d-98ac-4e02-9753-a6e3f981bfc1","system_id":"levelo_inurba_marseille","lat":43.293032,"lon":5.374477,"is_reserved":false,"is_disabled":false,"rental_uris":{"android":"levelo://app?vid=f17f800d-98ac-4e02-9753-a6e3f981bfc1","ios":"levelo://app?vid=f17f800d-98ac-4e02-9753-a6e3f981bfc1"},"vehicle_type_id":"4","last_reported":1752682455,"current_range_meters":12400,"station_id":"ce4bgi12rcd13ifvqb80","pricing_plan_id":"cebpf4jnsgd1na2vs0mg"},{"bike_id":"0d28f0b2-3e09-4376-9b7b-04fab4af858c","system_id":"levelo_inurba_marseille","lat":43.28621,"lon":5.35108,"is_reserved":false,"is_disabled":false,"rental_uris":{"android":"levelo://app?vid=0d28f0b2-3e09-4376-9b7b-04fab4af858c","ios":"levelo://app?vid=0d28f0b2-3e09-4376-9b7b-04fab4af858c"},"vehicle_type_id":"4","last_reported":1752682455,"current_range_meters":12400,"station_id":"ce4bhch2rcd13ifvqeug","pricing_plan_id":"cebpf4jnsgd1na2vs0mg"},{"bike_id":"338de1f6-1801-40f5-8252-d637cf4b19c5","system_id":"levelo_inurba_marseille","lat":43.28155,"lon":5.42626,"is_reserved":false,"is_disabled":false,"rental_uris":{"android":"levelo://app?vid=338de1f6-1801-40f5-8252-d637cf4b19c5","ios":"levelo://app?vid=338de1f6-1801-40f5-8252-d637cf4b19c5"},"vehicle_type_id":"4","last_reported":1752682455,"current_range_meters":12400,"station_id":"ce4bhnh2rcd13ifvqgug","pricing_plan_id":"cebpf4jnsgd1na2vs0mg"},{"bike_id":"0f47a07f-39c5-4fea-a0ee-56d71688ebb3","system_id":"levelo_inurba_marseille","lat":43.24234,"lon":5.36915,"is_reserved":false,"is_disabled":false,"rental_uris":{"android":"levelo://app?vid=0f47a07f-39c5-4fea-a0ee-56d71688ebb3","ios":"levelo://app?vid=0f47a07f-39c5-4fea-a0ee-56d71688ebb3"},"vehicle_type_id":"4","last_reported":1752682455,"current_range_meters":12400,"station_id":"","pricing_plan_id":"cebpf4jnsgd1na2vs0mg"},{"bike_id":"2dd11a16-8fca-4e77-9773-2ae49ce99948","system_id":"levelo_inurba_marseille","lat":43.26206,"lon":5.37444,"is_reserved":false,"is_disabled":false,"rental_uris":{"android":"levelo://app?vid=2dd11a16-8fca-4e77-9773-2ae49ce99948","ios":"levelo://app?vid=2dd11a16-8fca-4e77-9773-2ae49ce99948"},"vehicle_type_id":"4","last_reported":1752682455,"current_range_meters":12400,"station_id":"ce4bhgp2rcd13ifvqfc0","pricing_plan_id":"cebpf4jnsgd1na2vs0mg"},{"bike_id":"f8e88d89-c6a8-409c-b0bc-54943a0331bb","system_id":"levelo_inurba_marseille","lat":43.28419,"lon":5.34987,"is_reserved":false,"is_disabled":false,"rental_uris":{"android":"levelo://app?vid=f8e88d89-c6a8-409c-b0bc-54943a0331bb","ios":"levelo://app?vid=f8e88d89-c6a8-409c-b0bc-54943a0331bb"},"vehicle_type_id":"4","last_reported":1752682455,"current_range_meters":12400,"station_id":"ce4bhbh2rcd13ifvqepg","pricing_plan_id":"cebpf4jnsgd1na2vs0mg"},{"bike_id":"77a5e9fb-8741-4dc6-8f4f-46dd52b4a6b8","system_id":"levelo_inurba_marseille","lat":43.296916,"lon":5.373474,"is_reserved":false,"is_disabled":false,"rental_uris":{"android":"levelo://app?vid=77a5e9fb-8741-4dc6-8f4f-46dd52b4a6b8","ios":"levelo://app?vid=77a5e9fb-8741-4dc6-8f4f-46dd52b4a6b8"},"vehicle_type_id":"4","last_reported":1752682455,"current_range_meters":12800,"station_id":"ce4bgk12rcd13ifvqbj0","pricing_plan_id":"cebpf4jnsgd1na2vs0mg"},{"bike_id":"8fc70916-1345-4a1d-a3f7-29104fd0fa1b","system_id":"levelo_inurba_marseille","lat":43.28574,"lon":5.39492,"is_reserved":false,"is_disabled":false,"rental_uris":{"android":"levelo://app?vid=8fc70916-1345-4a1d-a3f7-29104fd0fa1b","ios":"levelo://app?vid=8fc70916-1345-4a1d-a3f7-29104fd0fa1b"},"vehicle_type_id":"4","last_reported":1752682455,"current_range_meters":12800,"station_id":"ce4bh292rcd13ifvqdg0","pricing_plan_id":"cebpf4jnsgd1na2vs0mg"},{"bike_id":"6f599d61-e5a6-4fdd-acf7-e98ef1025114","system_id":"levelo_inurba_marseille","lat":43.29704,"lon":5.36612,"is_reserved":false,"is_disabled":false,"rental_uris":{"android":"levelo://app?vid=6f599d61-e5a6-4fdd-acf7-e98ef1025114","ios":"levelo://app?vid=6f599d61-e5a6-4fdd-acf7-e98ef1025114"},"vehicle_type_id":"4","last_reported":1752682455,"current_range_meters":12800,"station_id":"ce4bgn12rcd13ifvqbt0","pricing_plan_id":"cebpf4jnsgd1na2vs0mg"},{"bike_id":"a0d8ad80-be4e-42c6-b480-3c4fd93eae6d","system_id":"levelo_inurba_marseille","lat":43.30931,"lon":5.40141,"is_reserved":false,"is_disabled":false,"rental_uris":{"android":"levelo://app?vid=a0d8ad80-be4e-42c6-b480-3c4fd93eae6d","ios":"levelo://app?vid=a0d8ad80-be4e-42c6-b480-3c4fd93eae6d"},"vehicle_type_id":"4","last_reported":1752682455,"current_range_meters":14400,"station_id":"ce4bgvp2rcd13ifvqct0","pricing_plan_id":"cebpf4jnsgd1na2vs0mg"},{"bike_id":"f53ab926-2de1-4f3c-a7d9-6743ca1bfb1f","system_id":"levelo_inurba_marseille","lat":43.211867,"lon":5.350773,"is_reserved":false,"is_disabled":false,"rental_uris":{"android":"levelo://app?vid=f53ab926-2de1-4f3c-a7d9-6743ca1bfb1f","ios":"levelo://app?vid=f53ab926-2de1-4f3c-a7d9-6743ca1bfb1f"},"vehicle_type_id":"4","last_reported":1752682455,"current_range_meters":12800,"station_id":"st_cvj6sg6p6f1abm77japg","pricing_plan_id":"cebpf4jnsgd1na2vs0mg"},{"bike_id":"feac17dd-6319-4270-b254-cf4e81be9767","system_id":"levelo_inurba_marseille","lat":43.30462,"lon":5.379,"is_reserved":false,"is_disabled":false,"rental_uris":{"android":"levelo://app?vid=feac17dd-6319-4270-b254-cf4e81be9767","ios":"levelo://app?vid=feac17dd-6319-4270-b254-cf4e81be9767"},"vehicle_type_id":"4","last_reported":1752682455,"current_range_meters":13600,"station_id":"ce4bgup2rcd13ifvqcn0","pricing_plan_id":"cebpf4jnsgd1na2vs0mg"},{"bike_id":"9c1b4bd5-fe2f-408f-b03c-ad2f591a1aa7","system_id":"levelo_inurba_marseille","lat":43.231781,"lon":5.39988,"is_reserved":false,"is_disabled":false,"rental_uris":{"android":"levelo://app?vid=9c1b4bd5-fe2f-408f-b03c-ad2f591a1aa7","ios":"levelo://app?vid=9c1b4bd5-fe2f-408f-b03c-ad2f591a1aa7"},"vehicle_type_id":"4","last_reported":1752682455,"current_range_meters":13600,"station_id":"ce4bhn12rcd13ifvqgqg","pricing_plan_id":"cebpf4jnsgd1na2vs0mg"},{"bike_id":"1f04b72d-5727-4e54-8214-b4799860709e","system_id":"levelo_inurba_marseille","lat":43.291962,"lon":5.39319,"is_reserved":false,"is_disabled":false,"rental_uris":{"android":"levelo://app?vid=1f04b72d-5727-4e54-8214-b4799860709e","ios":"levelo://app?vid=1f04b72d-5727-4e54-8214-b4799860709e"},"vehicle_type_id":"4","last_reported":1752682455,"current_range_meters":13600,"station_id":"ce4bh192rcd13ifvqdd0","pricing_plan_id":"cebpf4jnsgd1na2vs0mg"},{"bike_id":"b5b9a879-0447-44f5-ba95-709017ec70aa","system_id":"levelo_inurba_marseille","lat":43.29865,"lon":5.39733,"is_reserved":false,"is_disabled":false,"rental_uris":{"android":"levelo://app?vid=b5b9a879-0447-44f5-ba95-709017ec70aa","ios":"levelo://app?vid=b5b9a879-0447-44f5-ba95-709017ec70aa"},"vehicle_type_id":"4","last_reported":1752682455,"current_range_meters":9200,"station_id":"ce4bh0h2rcd13ifvqd50","pricing_plan_id":"cebpf4jnsgd1na2vs0mg"},{"bike_id":"4ba25ee4-aa95-4fd2-8473-88821c22587e","system_id":"levelo_inurba_marseille","lat":43.2846,"lon":5.35892,"is_reserved":false,"is_disabled":false,"rental_uris":{"android":"levelo://app?vid=4ba25ee4-aa95-4fd2-8473-88821c22587e","ios":"levelo://app?vid=4ba25ee4-aa95-4fd2-8473-88821c22587e"},"vehicle_type_id":"4","last_reported":1752682455,"current_range_meters":13600,"station_id":"ce4bhah2rcd13ifvqei0","pricing_plan_id":"cebpf4jnsgd1na2vs0mg"},{"bike_id":"ca779787-698d-4902-9c86-2533e9a955d5","system_id":"levelo_inurba_marseille","lat":43.24167,"lon":5.36394,"is_reserved":false,"is_disabled":false,"rental_uris":{"android":"levelo://app?vid=ca779787-698d-4902-9c86-2533e9a955d5","ios":"levelo://app?vid=ca779787-698d-4902-9c86-2533e9a955d5"},"vehicle_type_id":"4","last_reported":1752682455,"current_range_meters":14000,"station_id":"cpo36qri1sfpv3e86is0","pricing_plan_id":"cebpf4jnsgd1na2vs0mg"},{"bike_id":"9902d289-745e-423a-a750-1c3d2e283d12","system_id":"levelo_inurba_marseille","lat":43.31317,"lon":5.397,"is_reserved":false,"is_disabled":false,"rental_uris":{"android":"levelo://app?vid=9902d289-745e-423a-a750-1c3d2e283d12","ios":"levelo://app?vid=9902d289-745e-423a-a750-1c3d2e283d12"},"vehicle_type_id":"4","last_reported":1752682455,"current_range_meters":14000,"station_id":"ce4bgvp2rcd13ifvqcu0","pricing_plan_id":"cebpf4jnsgd1na2vs0mg"},{"bike_id":"c4100995-3c01-4ec0-9541-6d3928a99122","system_id":"levelo_inurba_marseille","lat":43.28265,"lon":5.35065,"is_reserved":false,"is_disabled":false,"rental_uris":{"android":"levelo://app?vid=c4100995-3c01-4ec0-9541-6d3928a99122","ios":"levelo://app?vid=c4100995-3c01-4ec0-9541-6d3928a99122"},"vehicle_type_id":"4","last_reported":1752682455,"current_range_meters":14000,"station_id":"ce4bhbp2rcd13ifvqerg","pricing_plan_id":"cebpf4jnsgd1na2vs0mg"},{"bike_id":"61a9e916-b95f-4f2c-8dca-c5b11be80287","system_id":"levelo_inurba_marseille","lat":43.29224,"lon":5.36042,"is_reserved":false,"is_disabled":true,"rental_uris":{"android":"levelo://app?vid=61a9e916-b95f-4f2c-8dca-c5b11be80287","ios":"levelo://app?vid=61a9e916-b95f-4f2c-8dca-c5b11be80287"},"vehicle_type_id":"4","last_reported":1752682455,"current_range_meters":14000,"station_id":"ce4bhbh2rcd13ifvqeqg","pricing_plan_id":"cebpf4jnsgd1na2vs0mg"},{"bike_id":"ed6a5b8b-9e51-4157-9e5b-f3518c096f0d","system_id":"levelo_inurba_marseille","lat":43.295232,"lon":5.394075,"is_reserved":false,"is_disabled":false,"rental_uris":{"android":"levelo://app?vid=ed6a5b8b-9e51-4157-9e5b-f3518c096f0d","ios":"levelo://app?vid=ed6a5b8b-9e51-4157-9e5b-f3518c096f0d"},"vehicle_type_id":"4","last_reported":1752682455,"current_range_meters":14000,"station_id":"","pricing_plan_id":"cebpf4jnsgd1na2vs0mg"},{"bike_id":"9f57a95b-5b41-4cf5-87cc-ae5c8e6dba91","system_id":"levelo_inurba_marseille","lat":43.23181,"lon":5.39988,"is_reserved":false,"is_disabled":false,"rental_uris":{"android":"levelo://app?vid=9f57a95b-5b41-4cf5-87cc-ae5c8e6dba91","ios":"levelo://app?vid=9f57a95b-5b41-4cf5-87cc-ae5c8e6dba91"},"vehicle_type_id":"4","last_reported":1752682455,"current_range_meters":14000,"station_id":"ce4bhn12rcd13ifvqgqg","pricing_plan_id":"cebpf4jnsgd1na2vs0mg"},{"bike_id":"bede6666-0efd-4bda-8eb9-e0314545e792","system_id":"levelo_inurba_marseille","lat":43.26935,"lon":5.40252,"is_reserved":false,"is_disabled":false,"rental_uris":{"android":"levelo://app?vid=bede6666-0efd-4bda-8eb9-e0314545e792","ios":"levelo://app?vid=bede6666-0efd-4bda-8eb9-e0314545e792"},"vehicle_type_id":"4","last_reported":1752682455,"current_range_meters":14400,"station_id":"cjm6bp8fraef2m0cb0m0","pricing_plan_id":"cebpf4jnsgd1na2vs0mg"},{"bike_id":"e5bec6b1-43e6-46f2-9810-affd93766dd8","system_id":"levelo_inurba_marseille","lat":43.29727,"lon":5.37144,"is_reserved":false,"is_disabled":true,"rental_uris":{"android":"levelo://app?vid=e5bec6b1-43e6-46f2-9810-affd93766dd8","ios":"levelo://app?vid=e5bec6b1-43e6-46f2-9810-affd93766dd8"},"vehicle_type_id":"4","last_reported":1752682455,"current_range_meters":14400,"station_id":"","pricing_plan_id":"cebpf4jnsgd1na2vs0mg"},{"bike_id":"554b0256-6c83-48a0-b234-b3b35034312f","system_id":"levelo_inurba_marseille","lat":43.28276,"lon":5.35079,"is_reserved":false,"is_disabled":false,"rental_uris":{"android":"levelo://app?vid=554b0256-6c83-48a0-b234-b3b35034312f","ios":"levelo://app?vid=554b0256-6c83-48a0-b234-b3b35034312f"},"vehicle_type_id":"4","last_reported":1752682455,"current_range_meters":14400,"station_id":"ce4bhbp2rcd13ifvqerg","pricing_plan_id":"cebpf4jnsgd1na2vs0mg"},{"bike_id":"dcffc596-d13e-450d-b0a1-9418eec5cbad","system_id":"levelo_inurba_marseille","lat":43.27062,"lon":5.4026,"is_reserved":false,"is_disabled":false,"rental_uris":{"android":"levelo://app?vid=dcffc596-d13e-450d-b0a1-9418eec5cbad","ios":"levelo://app?vid=dcffc596-d13e-450d-b0a1-9418eec5cbad"},"vehicle_type_id":"4","last_reported":1752682455,"current_range_meters":14800,"station_id":"ce4bhk92rcd13ifvqgc0","pricing_plan_id":"cebpf4jnsgd1na2vs0mg"},{"bike_id":"7425af41-f939-4fb5-81a7-e1169ccaa6d8","system_id":"levelo_inurba_marseille","lat":43.24668,"lon":5.3817,"is_reserved":false,"is_disabled":true,"rental_uris":{"android":"levelo://app?vid=7425af41-f939-4fb5-81a7-e1169ccaa6d8","ios":"levelo://app?vid=7425af41-f939-4fb5-81a7-e1169ccaa6d8"},"vehicle_type_id":"4","last_reported":1752682455,"current_range_meters":14800,"station_id":"ce4bhih2rcd13ifvqfr0","pricing_plan_id":"cebpf4jnsgd1na2vs0mg"},{"bike_id":"f5817eae-0567-4a50-9665-23663a2ae4f8","system_id":"levelo_inurba_marseille","lat":43.28446,"lon":5.35009,"is_reserved":false,"is_disabled":false,"rental_uris":{"android":"levelo://app?vid=f5817eae-0567-4a50-9665-23663a2ae4f8","ios":"levelo://app?vid=f5817eae-0567-4a50-9665-23663a2ae4f8"},"vehicle_type_id":"4","last_reported":1752682455,"current_range_meters":14800,"station_id":"ce4bhbh2rcd13ifvqepg","pricing_plan_id":"cebpf4jnsgd1na2vs0mg"},{"bike_id":"32d1218f-165c-441f-ad46-a226bdc8e1de","system_id":"levelo_inurba_marseille","lat":43.286149,"lon":5.351044,"is_reserved":false,"is_disabled":false,"rental_uris":{"android":"levelo://app?vid=32d1218f-165c-441f-ad46-a226bdc8e1de","ios":"levelo://app?vid=32d1218f-165c-441f-ad46-a226bdc8e1de"},"vehicle_type_id":"4","last_reported":1752682455,"current_range_meters":14800,"station_id":"ce4bhch2rcd13ifvqeug","pricing_plan_id":"cebpf4jnsgd1na2vs0mg"},{"bike_id":"0a3bfc45-1434-4929-a9f8-3da10722dee6","system_id":"levelo_inurba_marseille","lat":43.241768,"lon":5.363962,"is_reserved":false,"is_disabled":false,"rental_uris":{"android":"levelo://app?vid=0a3bfc45-1434-4929-a9f8-3da10722dee6","ios":"levelo://app?vid=0a3bfc45-1434-4929-a9f8-3da10722dee6"},"vehicle_type_id":"4","last_reported":1752682455,"current_range_meters":14800,"station_id":"cpo36qri1sfpv3e86is0","pricing_plan_id":"cebpf4jnsgd1na2vs0mg"},{"bike_id":"bb91fdfd-e2e6-4861-a682-9985a5c5d97b","system_id":"levelo_inurba_marseille","lat":43.23154,"lon":5.40009,"is_reserved":false,"is_disabled":false,"rental_uris":{"android":"levelo://app?vid=bb91fdfd-e2e6-4861-a682-9985a5c5d97b","ios":"levelo://app?vid=bb91fdfd-e2e6-4861-a682-9985a5c5d97b"},"vehicle_type_id":"4","last_reported":1752682455,"current_range_meters":14800,"station_id":"ce4bhn12rcd13ifvqgqg","pricing_plan_id":"cebpf4jnsgd1na2vs0mg"},{"bike_id":"1e602be5-f3e5-4264-a11f-69e58e054dfc","system_id":"levelo_inurba_marseille","lat":43.27366,"lon":5.36242,"is_reserved":false,"is_disabled":false,"rental_uris":{"android":"levelo://app?vid=1e602be5-f3e5-4264-a11f-69e58e054dfc","ios":"levelo://app?vid=1e602be5-f3e5-4264-a11f-69e58e054dfc"},"vehicle_type_id":"4","last_reported":1752682455,"current_range_meters":14800,"station_id":"ce4bhbh2rcd13ifvqeo0","pricing_plan_id":"cebpf4jnsgd1na2vs0mg"},{"bike_id":"8eeeb77c-8234-4556-b507-da0594d01e95","system_id":"levelo_inurba_marseille","lat":43.22505,"lon":5.34773,"is_reserved":false,"is_disabled":false,"rental_uris":{"android":"levelo://app?vid=8eeeb77c-8234-4556-b507-da0594d01e95","ios":"levelo://app?vid=8eeeb77c-8234-4556-b507-da0594d01e95"},"vehicle_type_id":"4","last_reported":1752682455,"current_range_meters":14800,"station_id":"st_cvj5dfep6f1abm77gieg","pricing_plan_id":"cebpf4jnsgd1na2vs0mg"},{"bike_id":"7dee92bf-5b07-4927-aa41-9e9493644eeb","system_id":"levelo_inurba_marseille","lat":43.21191,"lon":5.35074,"is_reserved":false,"is_disabled":false,"rental_uris":{"android":"levelo://app?vid=7dee92bf-5b07-4927-aa41-9e9493644eeb","ios":"levelo://app?vid=7dee92bf-5b07-4927-aa41-9e9493644eeb"},"vehicle_type_id":"4","last_reported":1752682455,"current_range_meters":14800,"station_id":"st_cvj6sg6p6f1abm77japg","pricing_plan_id":"cebpf4jnsgd1na2vs0mg"},{"bike_id":"8eaf251b-1f47-4e75-9e8d-97abd10f9c59","system_id":"levelo_inurba_marseille","lat":43.28489,"lon":5.38542,"is_reserved":false,"is_disabled":false,"rental_uris":{"android":"levelo://app?vid=8eaf251b-1f47-4e75-9e8d-97abd10f9c59","ios":"levelo://app?vid=8eaf251b-1f47-4e75-9e8d-97abd10f9c59"},"vehicle_type_id":"4","last_reported":1752682455,"current_range_meters":15200,"station_id":"ce4bh8p2rcd13ifvqeb0","pricing_plan_id":"cebpf4jnsgd1na2vs0mg"},{"bike_id":"b18c91ed-1137-464d-b9f6-22606474f7bb","system_id":"levelo_inurba_marseille","lat":43.31636,"lon":5.3681,"is_reserved":false,"is_disabled":false,"rental_uris":{"android":"levelo://app?vid=b18c91ed-1137-464d-b9f6-22606474f7bb","ios":"levelo://app?vid=b18c91ed-1137-464d-b9f6-22606474f7bb"},"vehicle_type_id":"4","last_reported":1752682455,"current_range_meters":15200,"station_id":"","pricing_plan_id":"cebpf4jnsgd1na2vs0mg"},{"bike_id":"229a51b8-d35a-46ef-90d9-099d3d4f556b","system_id":"levelo_inurba_marseille","lat":43.29415,"lon":5.38606,"is_reserved":false,"is_disabled":true,"rental_uris":{"android":"levelo://app?vid=229a51b8-d35a-46ef-90d9-099d3d4f556b","ios":"levelo://app?vid=229a51b8-d35a-46ef-90d9-099d3d4f556b"},"vehicle_type_id":"4","last_reported":1752682455,"current_range_meters":15200,"station_id":"ce4bh2h2rcd13ifvqdh0","pricing_plan_id":"cebpf4jnsgd1na2vs0mg"},{"bike_id":"47e84c87-4631-48fa-8064-ac43c2313bba","system_id":"levelo_inurba_marseille","lat":43.29327,"lon":5.37211,"is_reserved":false,"is_disabled":true,"rental_uris":{"android":"levelo://app?vid=47e84c87-4631-48fa-8064-ac43c2313bba","ios":"levelo://app?vid=47e84c87-4631-48fa-8064-ac43c2313bba"},"vehicle_type_id":"4","last_reported":1752682455,"current_range_meters":16000,"station_id":"ce4bgh92rcd13ifvqb40","pricing_plan_id":"cebpf4jnsgd1na2vs0mg"},{"bike_id":"d647170c-f548-45c4-bf20-d1db5fe65144","system_id":"levelo_inurba_marseille","lat":43.26201,"lon":5.37444,"is_reserved":false,"is_disabled":false,"rental_uris":{"android":"levelo://app?vid=d647170c-f548-45c4-bf20-d1db5fe65144","ios":"levelo://app?vid=d647170c-f548-45c4-bf20-d1db5fe65144"},"vehicle_type_id":"4","last_reported":1752682455,"current_range_meters":16000,"station_id":"ce4bhgp2rcd13ifvqfc0","pricing_plan_id":"cebpf4jnsgd1na2vs0mg"},{"bike_id":"b83ebe5b-715a-4e73-9e79-7020d08643a0","system_id":"levelo_inurba_marseille","lat":43.29626,"lon":5.37707,"is_reserved":false,"is_disabled":true,"rental_uris":{"android":"levelo://app?vid=b83ebe5b-715a-4e73-9e79-7020d08643a0","ios":"levelo://app?vid=b83ebe5b-715a-4e73-9e79-7020d08643a0"},"vehicle_type_id":"4","last_reported":1752682455,"current_range_meters":16000,"station_id":"","pricing_plan_id":"cebpf4jnsgd1na2vs0mg"},{"bike_id":"fc5b41e8-7d9a-40c7-8841-57c5b8db49a1","system_id":"levelo_inurba_marseille","lat":43.28463,"lon":5.35885,"is_reserved":false,"is_disabled":false,"rental_uris":{"android":"levelo://app?vid=fc5b41e8-7d9a-40c7-8841-57c5b8db49a1","ios":"levelo://app?vid=fc5b41e8-7d9a-40c7-8841-57c5b8db49a1"},"vehicle_type_id":"4","last_reported":1752682455,"current_range_meters":16000,"station_id":"ce4bhah2rcd13ifvqei0","pricing_plan_id":"cebpf4jnsgd1na2vs0mg"},{"bike_id":"44bbe527-ba25-46e8-9825-3359be16f78d","system_id":"levelo_inurba_marseille","lat":43.282684,"lon":5.350616,"is_reserved":false,"is_disabled":false,"rental_uris":{"android":"levelo://app?vid=44bbe527-ba25-46e8-9825-3359be16f78d","ios":"levelo://app?vid=44bbe527-ba25-46e8-9825-3359be16f78d"},"vehicle_type_id":"4","last_reported":1752682455,"current_range_meters":16000,"station_id":"ce4bhbp2rcd13ifvqerg","pricing_plan_id":"cebpf4jnsgd1na2vs0mg"},{"bike_id":"9480cf46-583a-4937-859c-42c6d965e5bf","system_id":"levelo_inurba_marseille","lat":43.29795,"lon":5.39335,"is_reserved":false,"is_disabled":false,"rental_uris":{"android":"levelo://app?vid=9480cf46-583a-4937-859c-42c6d965e5bf","ios":"levelo://app?vid=9480cf46-583a-4937-859c-42c6d965e5bf"},"vehicle_type_id":"4","last_reported":1752682455,"current_range_meters":16000,"station_id":"chh1huq6cuj3fo74tm60","pricing_plan_id":"cebpf4jnsgd1na2vs0mg"},{"bike_id":"5f4ef622-0f95-4d33-898b-f8940359ec3b","system_id":"levelo_inurba_marseille","lat":43.27383,"lon":5.36265,"is_reserved":false,"is_disabled":false,"rental_uris":{"android":"levelo://app?vid=5f4ef622-0f95-4d33-898b-f8940359ec3b","ios":"levelo://app?vid=5f4ef622-0f95-4d33-898b-f8940359ec3b"},"vehicle_type_id":"4","last_reported":1752682455,"current_range_meters":16000,"station_id":"ce4bhbh2rcd13ifvqeo0","pricing_plan_id":"cebpf4jnsgd1na2vs0mg"},{"bike_id":"d697e4f3-cf7d-45e9-b67b-45ee6d3593f5","system_id":"levelo_inurba_marseille","lat":43.28614,"lon":5.35099,"is_reserved":false,"is_disabled":false,"rental_uris":{"android":"levelo://app?vid=d697e4f3-cf7d-45e9-b67b-45ee6d3593f5","ios":"levelo://app?vid=d697e4f3-cf7d-45e9-b67b-45ee6d3593f5"},"vehicle_type_id":"4","last_reported":1752682455,"current_range_meters":16000,"station_id":"ce4bhch2rcd13ifvqeug","pricing_plan_id":"cebpf4jnsgd1na2vs0mg"},{"bike_id":"1a7efd10-9b2d-4f3d-974d-245d75d272b2","system_id":"levelo_inurba_marseille","lat":43.260571,"lon":5.393916,"is_reserved":false,"is_disabled":false,"rental_uris":{"android":"levelo://app?vid=1a7efd10-9b2d-4f3d-974d-245d75d272b2","ios":"levelo://app?vid=1a7efd10-9b2d-4f3d-974d-245d75d272b2"},"vehicle_type_id":"4","last_reported":1752682455,"current_range_meters":16400,"station_id":"ce4bhh92rcd13ifvqfj0","pricing_plan_id":"cebpf4jnsgd1na2vs0mg"},{"bike_id":"742922c9-1b61-4753-a73c-0d5b4b131484","system_id":"levelo_inurba_marseille","lat":43.28291,"lon":5.35067,"is_reserved":false,"is_disabled":false,"rental_uris":{"android":"levelo://app?vid=742922c9-1b61-4753-a73c-0d5b4b131484","ios":"levelo://app?vid=742922c9-1b61-4753-a73c-0d5b4b131484"},"vehicle_type_id":"4","last_reported":1752682455,"current_range_meters":16400,"station_id":"ce4bhbp2rcd13ifvqerg","pricing_plan_id":"cebpf4jnsgd1na2vs0mg"},{"bike_id":"84fc2d50-0d54-4765-a48c-e9332016db19","system_id":"levelo_inurba_marseille","lat":43.26214,"lon":5.37446,"is_reserved":false,"is_disabled":false,"rental_uris":{"android":"levelo://app?vid=84fc2d50-0d54-4765-a48c-e9332016db19","ios":"levelo://app?vid=84fc2d50-0d54-4765-a48c-e9332016db19"},"vehicle_type_id":"4","last_reported":1752682455,"current_range_meters":16400,"station_id":"ce4bhgp2rcd13ifvqfc0","pricing_plan_id":"cebpf4jnsgd1na2vs0mg"},{"bike_id":"eeeb1525-8f55-4baa-8c13-97fb7ee269cd","system_id":"levelo_inurba_marseille","lat":43.2995,"lon":5.36578,"is_reserved":false,"is_disabled":false,"rental_uris":{"android":"levelo://app?vid=eeeb1525-8f55-4baa-8c13-97fb7ee269cd","ios":"levelo://app?vid=eeeb1525-8f55-4baa-8c13-97fb7ee269cd"},"vehicle_type_id":"4","last_reported":1752682455,"current_range_meters":16400,"station_id":"ce4bgm92rcd13ifvqbr0","pricing_plan_id":"cebpf4jnsgd1na2vs0mg"},{"bike_id":"ecf4558d-3cef-439b-8ff3-6f1c795a80cd","system_id":"levelo_inurba_marseille","lat":43.28271,"lon":5.35064,"is_reserved":false,"is_disabled":false,"rental_uris":{"android":"levelo://app?vid=ecf4558d-3cef-439b-8ff3-6f1c795a80cd","ios":"levelo://app?vid=ecf4558d-3cef-439b-8ff3-6f1c795a80cd"},"vehicle_type_id":"4","last_reported":1752682455,"current_range_meters":16400,"station_id":"ce4bhbp2rcd13ifvqerg","pricing_plan_id":"cebpf4jnsgd1na2vs0mg"},{"bike_id":"285aaa26-07be-4c4a-9be9-3c0873597bc5","system_id":"levelo_inurba_marseille","lat":43.29596,"lon":5.36749,"is_reserved":false,"is_disabled":false,"rental_uris":{"android":"levelo://app?vid=285aaa26-07be-4c4a-9be9-3c0873597bc5","ios":"levelo://app?vid=285aaa26-07be-4c4a-9be9-3c0873597bc5"},"vehicle_type_id":"4","last_reported":1752682455,"current_range_meters":16400,"station_id":"ce4bgph2rcd13ifvqc2g","pricing_plan_id":"cebpf4jnsgd1na2vs0mg"},{"bike_id":"c8108758-328e-4fc8-9f24-40ac63e4fc27","system_id":"levelo_inurba_marseille","lat":43.28266,"lon":5.3506,"is_reserved":false,"is_disabled":false,"rental_uris":{"android":"levelo://app?vid=c8108758-328e-4fc8-9f24-40ac63e4fc27","ios":"levelo://app?vid=c8108758-328e-4fc8-9f24-40ac63e4fc27"},"vehicle_type_id":"4","last_reported":1752682455,"current_range_meters":16400,"station_id":"ce4bhbp2rcd13ifvqerg","pricing_plan_id":"cebpf4jnsgd1na2vs0mg"},{"bike_id":"27f0e47d-1001-4b57-b416-37232ccb5f24","system_id":"levelo_inurba_marseille","lat":43.24807,"lon":5.37457,"is_reserved":false,"is_disabled":false,"rental_uris":{"android":"levelo://app?vid=27f0e47d-1001-4b57-b416-37232ccb5f24","ios":"levelo://app?vid=27f0e47d-1001-4b57-b416-37232ccb5f24"},"vehicle_type_id":"4","last_reported":1752682455,"current_range_meters":16400,"station_id":"ce4bhgh2rcd13ifvqfb0","pricing_plan_id":"cebpf4jnsgd1na2vs0mg"},{"bike_id":"c2437f44-59b1-4a11-be4c-45990fc66ea7","system_id":"levelo_inurba_marseille","lat":43.24175,"lon":5.36387,"is_reserved":false,"is_disabled":false,"rental_uris":{"android":"levelo://app?vid=c2437f44-59b1-4a11-be4c-45990fc66ea7","ios":"levelo://app?vid=c2437f44-59b1-4a11-be4c-45990fc66ea7"},"vehicle_type_id":"4","last_reported":1752682455,"current_range_meters":16400,"station_id":"cpo36qri1sfpv3e86is0","pricing_plan_id":"cebpf4jnsgd1na2vs0mg"},{"bike_id":"0398468c-6c0f-49fd-b525-08c45b6a4cd9","system_id":"levelo_inurba_marseille","lat":43.2251,"lon":5.34776,"is_reserved":false,"is_disabled":false,"rental_uris":{"android":"levelo://app?vid=0398468c-6c0f-49fd-b525-08c45b6a4cd9","ios":"levelo://app?vid=0398468c-6c0f-49fd-b525-08c45b6a4cd9"},"vehicle_type_id":"4","last_reported":1752682455,"current_range_meters":16800,"station_id":"st_cvj5dfep6f1abm77gieg","pricing_plan_id":"cebpf4jnsgd1na2vs0mg"},{"bike_id":"50e152cf-edc9-4bc9-8232-19cb41a00858","system_id":"levelo_inurba_marseille","lat":43.28411,"lon":5.34987,"is_reserved":false,"is_disabled":false,"rental_uris":{"android":"levelo://app?vid=50e152cf-edc9-4bc9-8232-19cb41a00858","ios":"levelo://app?vid=50e152cf-edc9-4bc9-8232-19cb41a00858"},"vehicle_type_id":"4","last_reported":1752682455,"current_range_meters":16800,"station_id":"ce4bhbh2rcd13ifvqepg","pricing_plan_id":"cebpf4jnsgd1na2vs0mg"},{"bike_id":"61331b10-d667-4160-beb6-06c4ae00bba4","system_id":"levelo_inurba_marseille","lat":43.284264,"lon":5.349719,"is_reserved":false,"is_disabled":false,"rental_uris":{"android":"levelo://app?vid=61331b10-d667-4160-beb6-06c4ae00bba4","ios":"levelo://app?vid=61331b10-d667-4160-beb6-06c4ae00bba4"},"vehicle_type_id":"4","last_reported":1752682455,"current_range_meters":16800,"station_id":"ce4bhb12rcd13ifvqel0","pricing_plan_id":"cebpf4jnsgd1na2vs0mg"},{"bike_id":"46b084b0-eb8b-4075-9346-f1061f12ac7a","system_id":"levelo_inurba_marseille","lat":43.292719,"lon":5.368377,"is_reserved":false,"is_disabled":false,"rental_uris":{"android":"levelo://app?vid=46b084b0-eb8b-4075-9346-f1061f12ac7a","ios":"levelo://app?vid=46b084b0-eb8b-4075-9346-f1061f12ac7a"},"vehicle_type_id":"4","last_reported":1752682455,"current_range_meters":16800,"station_id":"","pricing_plan_id":"cebpf4jnsgd1na2vs0mg"},{"bike_id":"699bd444-6281-47f0-ab00-9b069d7de137","system_id":"levelo_inurba_marseille","lat":43.30785,"lon":5.37644,"is_reserved":false,"is_disabled":false,"rental_uris":{"android":"levelo://app?vid=699bd444-6281-47f0-ab00-9b069d7de137","ios":"levelo://app?vid=699bd444-6281-47f0-ab00-9b069d7de137"},"vehicle_type_id":"4","last_reported":1752682455,"current_range_meters":16800,"station_id":"ce4bgv92rcd13ifvqcq0","pricing_plan_id":"cebpf4jnsgd1na2vs0mg"},{"bike_id":"fb7e57c1-17d0-4211-9eff-ffe253e5ff01","system_id":"levelo_inurba_marseille","lat":43.28158,"lon":5.42643,"is_reserved":false,"is_disabled":false,"rental_uris":{"android":"levelo://app?vid=fb7e57c1-17d0-4211-9eff-ffe253e5ff01","ios":"levelo://app?vid=fb7e57c1-17d0-4211-9eff-ffe253e5ff01"},"vehicle_type_id":"4","last_reported":1752682455,"current_range_meters":16800,"station_id":"ce4bhnh2rcd13ifvqgug","pricing_plan_id":"cebpf4jnsgd1na2vs0mg"},{"bike_id":"5cb11900-8708-4b48-8dc9-8098ca125bde","system_id":"levelo_inurba_marseille","lat":43.284427,"lon":5.380609,"is_reserved":false,"is_disabled":false,"rental_uris":{"android":"levelo://app?vid=5cb11900-8708-4b48-8dc9-8098ca125bde","ios":"levelo://app?vid=5cb11900-8708-4b48-8dc9-8098ca125bde"},"vehicle_type_id":"4","last_reported":1752682455,"current_range_meters":16800,"station_id":"ce4bh412rcd13ifvqdr0","pricing_plan_id":"cebpf4jnsgd1na2vs0mg"},{"bike_id":"9090e647-a713-44ba-b392-5ac73cd154dd","system_id":"levelo_inurba_marseille","lat":43.23065,"lon":5.35491,"is_reserved":false,"is_disabled":false,"rental_uris":{"android":"levelo://app?vid=9090e647-a713-44ba-b392-5ac73cd154dd","ios":"levelo://app?vid=9090e647-a713-44ba-b392-5ac73cd154dd"},"vehicle_type_id":"4","last_reported":1752682455,"current_range_meters":16800,"station_id":"cpo3342slgdg3j2ifvpg","pricing_plan_id":"cebpf4jnsgd1na2vs0mg"},{"bike_id":"555bc53e-5286-4fb6-9154-af42b3fd9792","system_id":"levelo_inurba_marseille","lat":43.30079,"lon":5.37271,"is_reserved":false,"is_disabled":false,"rental_uris":{"android":"levelo://app?vid=555bc53e-5286-4fb6-9154-af42b3fd9792","ios":"levelo://app?vid=555bc53e-5286-4fb6-9154-af42b3fd9792"},"vehicle_type_id":"4","last_reported":1752682455,"current_range_meters":16800,"station_id":"","pricing_plan_id":"cebpf4jnsgd1na2vs0mg"},{"bike_id":"b399da78-cf63-4de2-b505-0740a1d1e170","system_id":"levelo_inurba_marseille","lat":43.22508,"lon":5.34781,"is_reserved":false,"is_disabled":false,"rental_uris":{"android":"levelo://app?vid=b399da78-cf63-4de2-b505-0740a1d1e170","ios":"levelo://app?vid=b399da78-cf63-4de2-b505-0740a1d1e170"},"vehicle_type_id":"4","last_reported":1752682455,"current_range_meters":16800,"station_id":"st_cvj5dfep6f1abm77gieg","pricing_plan_id":"cebpf4jnsgd1na2vs0mg"},{"bike_id":"39c6203f-25ee-487c-9399-b36ef495fc6b","system_id":"levelo_inurba_marseille","lat":43.241,"lon":5.37721,"is_reserved":false,"is_disabled":false,"rental_uris":{"android":"levelo://app?vid=39c6203f-25ee-487c-9399-b36ef495fc6b","ios":"levelo://app?vid=39c6203f-25ee-487c-9399-b36ef495fc6b"},"vehicle_type_id":"4","last_reported":1752682455,"current_range_meters":16800,"station_id":"ce4bhnp2rcd13ifvqgvg","pricing_plan_id":"cebpf4jnsgd1na2vs0mg"},{"bike_id":"b19ba177-7aca-4002-b440-4e2b9a122791","system_id":"levelo_inurba_marseille","lat":43.29934,"lon":5.36531,"is_reserved":false,"is_disabled":false,"rental_uris":{"android":"levelo://app?vid=b19ba177-7aca-4002-b440-4e2b9a122791","ios":"levelo://app?vid=b19ba177-7aca-4002-b440-4e2b9a122791"},"vehicle_type_id":"4","last_reported":1752682455,"current_range_meters":16800,"station_id":"ce4bgm92rcd13ifvqbr0","pricing_plan_id":"cebpf4jnsgd1na2vs0mg"},{"bike_id":"243ff24d-c224-4f6c-8766-a9a443123038","system_id":"levelo_inurba_marseille","lat":43.23963,"lon":5.36627,"is_reserved":false,"is_disabled":false,"rental_uris":{"android":"levelo://app?vid=243ff24d-c224-4f6c-8766-a9a443123038","ios":"levelo://app?vid=243ff24d-c224-4f6c-8766-a9a443123038"},"vehicle_type_id":"4","last_reported":1752682455,"current_range_meters":16800,"station_id":"ce4bhi12rcd13ifvqfp0","pricing_plan_id":"cebpf4jnsgd1na2vs0mg"},{"bike_id":"3444bdc6-514a-4ba6-9650-f9073305e33d","system_id":"levelo_inurba_marseille","lat":43.29682,"lon":5.3698,"is_reserved":false,"is_disabled":false,"rental_uris":{"android":"levelo://app?vid=3444bdc6-514a-4ba6-9650-f9073305e33d","ios":"levelo://app?vid=3444bdc6-514a-4ba6-9650-f9073305e33d"},"vehicle_type_id":"4","last_reported":1752682455,"current_range_meters":17200,"station_id":"","pricing_plan_id":"cebpf4jnsgd1na2vs0mg"},{"bike_id":"34e62ee5-3131-428c-842a-9ad03de94ba5","system_id":"levelo_inurba_marseille","lat":43.22509,"lon":5.34783,"is_reserved":false,"is_disabled":false,"rental_uris":{"android":"levelo://app?vid=34e62ee5-3131-428c-842a-9ad03de94ba5","ios":"levelo://app?vid=34e62ee5-3131-428c-842a-9ad03de94ba5"},"vehicle_type_id":"4","last_reported":1752682455,"current_range_meters":17200,"station_id":"st_cvj5dfep6f1abm77gieg","pricing_plan_id":"cebpf4jnsgd1na2vs0mg"},{"bike_id":"81f522cb-97be-4947-9705-84fda6832d4c","system_id":"levelo_inurba_marseille","lat":43.337444,"lon":5.374475,"is_reserved":false,"is_disabled":false,"rental_uris":{"android":"levelo://app?vid=81f522cb-97be-4947-9705-84fda6832d4c","ios":"levelo://app?vid=81f522cb-97be-4947-9705-84fda6832d4c"},"vehicle_type_id":"4","last_reported":1752682455,"current_range_meters":17200,"station_id":"ce4bhh92rcd13ifvqfj0","pricing_plan_id":"cebpf4jnsgd1na2vs0mg"},{"bike_id":"09f3dc09-4e91-4a35-8446-ac78196f20b8","system_id":"levelo_inurba_marseille","lat":43.2318,"lon":5.39985,"is_reserved":false,"is_disabled":false,"rental_uris":{"android":"levelo://app?vid=09f3dc09-4e91-4a35-8446-ac78196f20b8","ios":"levelo://app?vid=09f3dc09-4e91-4a35-8446-ac78196f20b8"},"vehicle_type_id":"4","last_reported":1752682455,"current_range_meters":17200,"station_id":"ce4bhn12rcd13ifvqgqg","pricing_plan_id":"cebpf4jnsgd1na2vs0mg"},{"bike_id":"3b29f50b-7b86-4ec0-b79a-60af32680c88","system_id":"levelo_inurba_marseille","lat":43.28259,"lon":5.35058,"is_reserved":false,"is_disabled":false,"rental_uris":{"android":"levelo://app?vid=3b29f50b-7b86-4ec0-b79a-60af32680c88","ios":"levelo://app?vid=3b29f50b-7b86-4ec0-b79a-60af32680c88"},"vehicle_type_id":"4","last_reported":1752682455,"current_range_meters":17200,"station_id":"ce4bhbp2rcd13ifvqerg","pricing_plan_id":"cebpf4jnsgd1na2vs0mg"},{"bike_id":"3254cc72-aa46-457b-8bf5-160321f143e9","system_id":"levelo_inurba_marseille","lat":43.28267,"lon":5.35062,"is_reserved":false,"is_disabled":false,"rental_uris":{"android":"levelo://app?vid=3254cc72-aa46-457b-8bf5-160321f143e9","ios":"levelo://app?vid=3254cc72-aa46-457b-8bf5-160321f143e9"},"vehicle_type_id":"4","last_reported":1752682455,"current_range_meters":17200,"station_id":"ce4bhbp2rcd13ifvqerg","pricing_plan_id":"cebpf4jnsgd1na2vs0mg"},{"bike_id":"def589f8-1927-40c7-bbb8-81631032d093","system_id":"levelo_inurba_marseille","lat":43.22496,"lon":5.34796,"is_reserved":false,"is_disabled":false,"rental_uris":{"android":"levelo://app?vid=def589f8-1927-40c7-bbb8-81631032d093","ios":"levelo://app?vid=def589f8-1927-40c7-bbb8-81631032d093"},"vehicle_type_id":"4","last_reported":1752682455,"current_range_meters":17200,"station_id":"st_cvj5dfep6f1abm77gieg","pricing_plan_id":"cebpf4jnsgd1na2vs0mg"},{"bike_id":"07f5ae19-0925-43ef-aab4-48ec58bc62b9","system_id":"levelo_inurba_marseille","lat":43.31466,"lon":5.37436,"is_reserved":false,"is_disabled":false,"rental_uris":{"android":"levelo://app?vid=07f5ae19-0925-43ef-aab4-48ec58bc62b9","ios":"levelo://app?vid=07f5ae19-0925-43ef-aab4-48ec58bc62b9"},"vehicle_type_id":"4","last_reported":1752682455,"current_range_meters":17200,"station_id":"","pricing_plan_id":"cebpf4jnsgd1na2vs0mg"},{"bike_id":"b0913f93-a684-4140-9689-82edfbc4235d","system_id":"levelo_inurba_marseille","lat":43.2119,"lon":5.35074,"is_reserved":false,"is_disabled":false,"rental_uris":{"android":"levelo://app?vid=b0913f93-a684-4140-9689-82edfbc4235d","ios":"levelo://app?vid=b0913f93-a684-4140-9689-82edfbc4235d"},"vehicle_type_id":"4","last_reported":1752682455,"current_range_meters":17600,"station_id":"st_cvj6sg6p6f1abm77japg","pricing_plan_id":"cebpf4jnsgd1na2vs0mg"},{"bike_id":"ec88e4e8-8e1d-4252-8c4b-0f5d4b9c1c62","system_id":"levelo_inurba_marseille","lat":43.254969,"lon":5.376501,"is_reserved":false,"is_disabled":false,"rental_uris":{"android":"levelo://app?vid=ec88e4e8-8e1d-4252-8c4b-0f5d4b9c1c62","ios":"levelo://app?vid=ec88e4e8-8e1d-4252-8c4b-0f5d4b9c1c62"},"vehicle_type_id":"4","last_reported":1752682455,"current_range_meters":17600,"station_id":"ce4bhh12rcd13ifvqff0","pricing_plan_id":"cebpf4jnsgd1na2vs0mg"},{"bike_id":"96011392-f348-4771-9fad-d43e460a9c38","system_id":"levelo_inurba_marseille","lat":43.24174,"lon":5.36378,"is_reserved":false,"is_disabled":false,"rental_uris":{"android":"levelo://app?vid=96011392-f348-4771-9fad-d43e460a9c38","ios":"levelo://app?vid=96011392-f348-4771-9fad-d43e460a9c38"},"vehicle_type_id":"4","last_reported":1752682455,"current_range_meters":17600,"station_id":"cpo36qri1sfpv3e86is0","pricing_plan_id":"cebpf4jnsgd1na2vs0mg"},{"bike_id":"8acdf02c-787e-4a1e-956a-5c94a3dff06a","system_id":"levelo_inurba_marseille","lat":43.28499,"lon":5.406,"is_reserved":false,"is_disabled":false,"rental_uris":{"android":"levelo://app?vid=8acdf02c-787e-4a1e-956a-5c94a3dff06a","ios":"levelo://app?vid=8acdf02c-787e-4a1e-956a-5c94a3dff06a"},"vehicle_type_id":"4","last_reported":1752682455,"current_range_meters":17600,"station_id":"","pricing_plan_id":"cebpf4jnsgd1na2vs0mg"},{"bike_id":"56c7abd6-9db4-49ff-a108-0875d8855468","system_id":"levelo_inurba_marseille","lat":43.296386,"lon":5.406079,"is_reserved":false,"is_disabled":false,"rental_uris":{"android":"levelo://app?vid=56c7abd6-9db4-49ff-a108-0875d8855468","ios":"levelo://app?vid=56c7abd6-9db4-49ff-a108-0875d8855468"},"vehicle_type_id":"4","last_reported":1752682455,"current_range_meters":17600,"station_id":"ce4bh0h2rcd13ifvqd60","pricing_plan_id":"cebpf4jnsgd1na2vs0mg"},{"bike_id":"9d4fc45e-35e1-4f93-b561-256671c4ee62","system_id":"levelo_inurba_marseille","lat":43.29051,"lon":5.35899,"is_reserved":false,"is_disabled":false,"rental_uris":{"android":"levelo://app?vid=9d4fc45e-35e1-4f93-b561-256671c4ee62","ios":"levelo://app?vid=9d4fc45e-35e1-4f93-b561-256671c4ee62"},"vehicle_type_id":"4","last_reported":1752682455,"current_range_meters":18000,"station_id":"ce4bha92rcd13ifvqeg0","pricing_plan_id":"cebpf4jnsgd1na2vs0mg"},{"bike_id":"fd40366c-3c59-46ec-80b7-e2e49e2aaeee","system_id":"levelo_inurba_marseille","lat":43.29361,"lon":5.37853,"is_reserved":false,"is_disabled":false,"rental_uris":{"android":"levelo://app?vid=fd40366c-3c59-46ec-80b7-e2e49e2aaeee","ios":"levelo://app?vid=fd40366c-3c59-46ec-80b7-e2e49e2aaeee"},"vehicle_type_id":"4","last_reported":1752682455,"current_range_meters":17600,"station_id":"ce4bgjh2rcd13ifvqbf0","pricing_plan_id":"cebpf4jnsgd1na2vs0mg"},{"bike_id":"15e281ac-ac0d-4b6f-b426-fa5c002bd7ee","system_id":"levelo_inurba_marseille","lat":43.2764,"lon":5.38948,"is_reserved":false,"is_disabled":true,"rental_uris":{"android":"levelo://app?vid=15e281ac-ac0d-4b6f-b426-fa5c002bd7ee","ios":"levelo://app?vid=15e281ac-ac0d-4b6f-b426-fa5c002bd7ee"},"vehicle_type_id":"4","last_reported":1752682455,"current_range_meters":18000,"station_id":"ce4bhi12rcd13ifvqfo0","pricing_plan_id":"cebpf4jnsgd1na2vs0mg"},{"bike_id":"29cc6a43-e4ef-4a9f-afa0-69c5371926cd","system_id":"levelo_inurba_marseille","lat":43.25502,"lon":5.37649,"is_reserved":false,"is_disabled":false,"rental_uris":{"android":"levelo://app?vid=29cc6a43-e4ef-4a9f-afa0-69c5371926cd","ios":"levelo://app?vid=29cc6a43-e4ef-4a9f-afa0-69c5371926cd"},"vehicle_type_id":"4","last_reported":1752682455,"current_range_meters":18000,"station_id":"ce4bhh12rcd13ifvqff0","pricing_plan_id":"cebpf4jnsgd1na2vs0mg"},{"bike_id":"f6e67167-3686-4cae-82da-4610049996dc","system_id":"levelo_inurba_marseille","lat":43.269244,"lon":5.385234,"is_reserved":false,"is_disabled":false,"rental_uris":{"android":"levelo://app?vid=f6e67167-3686-4cae-82da-4610049996dc","ios":"levelo://app?vid=f6e67167-3686-4cae-82da-4610049996dc"},"vehicle_type_id":"4","last_reported":1752682455,"current_range_meters":18000,"station_id":"","pricing_plan_id":"cebpf4jnsgd1na2vs0mg"},{"bike_id":"7889b704-b301-4414-b00b-fe99422cbed4","system_id":"levelo_inurba_marseille","lat":43.323389,"lon":5.406196,"is_reserved":false,"is_disabled":false,"rental_uris":{"android":"levelo://app?vid=7889b704-b301-4414-b00b-fe99422cbed4","ios":"levelo://app?vid=7889b704-b301-4414-b00b-fe99422cbed4"},"vehicle_type_id":"4","last_reported":1752682455,"current_range_meters":18000,"station_id":"ce4bhq92rcd13ifvqhjg","pricing_plan_id":"cebpf4jnsgd1na2vs0mg"},{"bike_id":"c4d7c0d3-3fa0-42f9-a775-3626a94c8e22","system_id":"levelo_inurba_marseille","lat":43.273733,"lon":5.362586,"is_reserved":false,"is_disabled":false,"rental_uris":{"android":"levelo://app?vid=c4d7c0d3-3fa0-42f9-a775-3626a94c8e22","ios":"levelo://app?vid=c4d7c0d3-3fa0-42f9-a775-3626a94c8e22"},"vehicle_type_id":"4","last_reported":1752682455,"current_range_meters":18000,"station_id":"ce4bhbh2rcd13ifvqeo0","pricing_plan_id":"cebpf4jnsgd1na2vs0mg"},{"bike_id":"137a0281-ce8b-4973-a65d-e152ffe9b29f","system_id":"levelo_inurba_marseille","lat":43.2885,"lon":5.39315,"is_reserved":false,"is_disabled":false,"rental_uris":{"android":"levelo://app?vid=137a0281-ce8b-4973-a65d-e152ffe9b29f","ios":"levelo://app?vid=137a0281-ce8b-4973-a65d-e152ffe9b29f"},"vehicle_type_id":"4","last_reported":1752682455,"current_range_meters":18000,"station_id":"ce4bh2p2rcd13ifvqdi0","pricing_plan_id":"cebpf4jnsgd1na2vs0mg"},{"bike_id":"bd08a725-4419-4db9-9856-9e81c78da2b6","system_id":"levelo_inurba_marseille","lat":43.29712,"lon":5.36612,"is_reserved":false,"is_disabled":false,"rental_uris":{"android":"levelo://app?vid=bd08a725-4419-4db9-9856-9e81c78da2b6","ios":"levelo://app?vid=bd08a725-4419-4db9-9856-9e81c78da2b6"},"vehicle_type_id":"4","last_reported":1752682455,"current_range_meters":17600,"station_id":"ce4bgn12rcd13ifvqbt0","pricing_plan_id":"cebpf4jnsgd1na2vs0mg"},{"bike_id":"7709b1e5-4e0c-4650-97fb-c660b47f7dcb","system_id":"levelo_inurba_marseille","lat":43.28263,"lon":5.35059,"is_reserved":false,"is_disabled":false,"rental_uris":{"android":"levelo://app?vid=7709b1e5-4e0c-4650-97fb-c660b47f7dcb","ios":"levelo://app?vid=7709b1e5-4e0c-4650-97fb-c660b47f7dcb"},"vehicle_type_id":"4","last_reported":1752682455,"current_range_meters":18000,"station_id":"ce4bhbp2rcd13ifvqerg","pricing_plan_id":"cebpf4jnsgd1na2vs0mg"},{"bike_id":"75203b7a-4b9e-4b6b-9201-44c4e1860c09","system_id":"levelo_inurba_marseille","lat":43.2862,"lon":5.35099,"is_reserved":false,"is_disabled":false,"rental_uris":{"android":"levelo://app?vid=75203b7a-4b9e-4b6b-9201-44c4e1860c09","ios":"levelo://app?vid=75203b7a-4b9e-4b6b-9201-44c4e1860c09"},"vehicle_type_id":"4","last_reported":1752682455,"current_range_meters":18000,"station_id":"ce4bhch2rcd13ifvqeug","pricing_plan_id":"cebpf4jnsgd1na2vs0mg"},{"bike_id":"0113d280-522b-4679-bde9-135a6a8591f2","system_id":"levelo_inurba_marseille","lat":43.21196,"lon":5.35066,"is_reserved":false,"is_disabled":false,"rental_uris":{"android":"levelo://app?vid=0113d280-522b-4679-bde9-135a6a8591f2","ios":"levelo://app?vid=0113d280-522b-4679-bde9-135a6a8591f2"},"vehicle_type_id":"4","last_reported":1752682455,"current_range_meters":18000,"station_id":"st_cvj6sg6p6f1abm77japg","pricing_plan_id":"cebpf4jnsgd1na2vs0mg"},{"bike_id":"f7947e96-4d95-4c2a-b94f-12bda140a7ff","system_id":"levelo_inurba_marseille","lat":43.28423,"lon":5.34971,"is_reserved":false,"is_disabled":false,"rental_uris":{"android":"levelo://app?vid=f7947e96-4d95-4c2a-b94f-12bda140a7ff","ios":"levelo://app?vid=f7947e96-4d95-4c2a-b94f-12bda140a7ff"},"vehicle_type_id":"4","last_reported":1752682455,"current_range_meters":18000,"station_id":"ce4bhbh2rcd13ifvqepg","pricing_plan_id":"cebpf4jnsgd1na2vs0mg"},{"bike_id":"1da7929e-d1d9-4147-a7cc-6a8b3faa7341","system_id":"levelo_inurba_marseille","lat":43.303753,"lon":5.424876,"is_reserved":false,"is_disabled":false,"rental_uris":{"android":"levelo://app?vid=1da7929e-d1d9-4147-a7cc-6a8b3faa7341","ios":"levelo://app?vid=1da7929e-d1d9-4147-a7cc-6a8b3faa7341"},"vehicle_type_id":"4","last_reported":1752682455,"current_range_meters":18000,"station_id":"ce4bhoh2rcd13ifvqh6g","pricing_plan_id":"cebpf4jnsgd1na2vs0mg"},{"bike_id":"0feca23e-d248-45b9-b676-8aec975a6ea0","system_id":"levelo_inurba_marseille","lat":43.28414,"lon":5.34983,"is_reserved":false,"is_disabled":false,"rental_uris":{"android":"levelo://app?vid=0feca23e-d248-45b9-b676-8aec975a6ea0","ios":"levelo://app?vid=0feca23e-d248-45b9-b676-8aec975a6ea0"},"vehicle_type_id":"4","last_reported":1752682455,"current_range_meters":18000,"station_id":"ce4bhbh2rcd13ifvqepg","pricing_plan_id":"cebpf4jnsgd1na2vs0mg"},{"bike_id":"8716a6dc-edc9-4ce8-b2db-da4e68c247be","system_id":"levelo_inurba_marseille","lat":43.29546,"lon":5.38518,"is_reserved":false,"is_disabled":true,"rental_uris":{"android":"levelo://app?vid=8716a6dc-edc9-4ce8-b2db-da4e68c247be","ios":"levelo://app?vid=8716a6dc-edc9-4ce8-b2db-da4e68c247be"},"vehicle_type_id":"4","last_reported":1752682455,"current_range_meters":18800,"station_id":"ce4bgih2rcd13ifvqba0","pricing_plan_id":"cebpf4jnsgd1na2vs0mg"},{"bike_id":"1a1de22c-864f-4087-990e-227151d55abc","system_id":"levelo_inurba_marseille","lat":43.211997,"lon":5.351077,"is_reserved":false,"is_disabled":false,"rental_uris":{"android":"levelo://app?vid=1a1de22c-864f-4087-990e-227151d55abc","ios":"levelo://app?vid=1a1de22c-864f-4087-990e-227151d55abc"},"vehicle_type_id":"4","last_reported":1752682455,"current_range_meters":18800,"station_id":"st_cvj6sg6p6f1abm77japg","pricing_plan_id":"cebpf4jnsgd1na2vs0mg"},{"bike_id":"de3d21e3-fe98-4a43-9d02-0d87e31c4cdd","system_id":"levelo_inurba_marseille","lat":43.3032,"lon":5.39195,"is_reserved":false,"is_disabled":false,"rental_uris":{"android":"levelo://app?vid=de3d21e3-fe98-4a43-9d02-0d87e31c4cdd","ios":"levelo://app?vid=de3d21e3-fe98-4a43-9d02-0d87e31c4cdd"},"vehicle_type_id":"4","last_reported":1752682455,"current_range_meters":18800,"station_id":"ce4bgkh2rcd13ifvqbk0","pricing_plan_id":"cebpf4jnsgd1na2vs0mg"},{"bike_id":"3e5bf894-f1aa-4028-9a38-419897b68ac3","system_id":"levelo_inurba_marseille","lat":43.230739,"lon":5.354775,"is_reserved":false,"is_disabled":false,"rental_uris":{"android":"levelo://app?vid=3e5bf894-f1aa-4028-9a38-419897b68ac3","ios":"levelo://app?vid=3e5bf894-f1aa-4028-9a38-419897b68ac3"},"vehicle_type_id":"4","last_reported":1752682455,"current_range_meters":18800,"station_id":"cpo3342slgdg3j2ifvpg","pricing_plan_id":"cebpf4jnsgd1na2vs0mg"},{"bike_id":"79806c3a-6c29-4913-9ec9-93da135cc77d","system_id":"levelo_inurba_marseille","lat":43.33763,"lon":5.37439,"is_reserved":false,"is_disabled":false,"rental_uris":{"android":"levelo://app?vid=79806c3a-6c29-4913-9ec9-93da135cc77d","ios":"levelo://app?vid=79806c3a-6c29-4913-9ec9-93da135cc77d"},"vehicle_type_id":"4","last_reported":1752682455,"current_range_meters":18800,"station_id":"","pricing_plan_id":"cebpf4jnsgd1na2vs0mg"},{"bike_id":"808e4fec-8a0e-44c4-babc-d190f97b1ece","system_id":"levelo_inurba_marseille","lat":43.29586,"lon":5.36733,"is_reserved":false,"is_disabled":false,"rental_uris":{"android":"levelo://app?vid=808e4fec-8a0e-44c4-babc-d190f97b1ece","ios":"levelo://app?vid=808e4fec-8a0e-44c4-babc-d190f97b1ece"},"vehicle_type_id":"4","last_reported":1752682455,"current_range_meters":18800,"station_id":"ce4bgph2rcd13ifvqc2g","pricing_plan_id":"cebpf4jnsgd1na2vs0mg"},{"bike_id":"a2d71df2-5c2a-49be-b75f-4e746b52a960","system_id":"levelo_inurba_marseille","lat":43.282654,"lon":5.350618,"is_reserved":false,"is_disabled":false,"rental_uris":{"android":"levelo://app?vid=a2d71df2-5c2a-49be-b75f-4e746b52a960","ios":"levelo://app?vid=a2d71df2-5c2a-49be-b75f-4e746b52a960"},"vehicle_type_id":"4","last_reported":1752682455,"current_range_meters":18800,"station_id":"ce4bhbp2rcd13ifvqerg","pricing_plan_id":"cebpf4jnsgd1na2vs0mg"},{"bike_id":"c3074f5f-5f9c-428c-b6b3-6a700283341a","system_id":"levelo_inurba_marseille","lat":43.278111,"lon":5.407096,"is_reserved":false,"is_disabled":false,"rental_uris":{"android":"levelo://app?vid=c3074f5f-5f9c-428c-b6b3-6a700283341a","ios":"levelo://app?vid=c3074f5f-5f9c-428c-b6b3-6a700283341a"},"vehicle_type_id":"4","last_reported":1752682455,"current_range_meters":18800,"station_id":"ce4bhnh2rcd13ifvqgtg","pricing_plan_id":"cebpf4jnsgd1na2vs0mg"},{"bike_id":"3e919868-c14f-47c4-8f1b-a78b78a770b4","system_id":"levelo_inurba_marseille","lat":43.284088,"lon":5.349744,"is_reserved":false,"is_disabled":false,"rental_uris":{"android":"levelo://app?vid=3e919868-c14f-47c4-8f1b-a78b78a770b4","ios":"levelo://app?vid=3e919868-c14f-47c4-8f1b-a78b78a770b4"},"vehicle_type_id":"4","last_reported":1752682455,"current_range_meters":18800,"station_id":"ce4bhbh2rcd13ifvqepg","pricing_plan_id":"cebpf4jnsgd1na2vs0mg"},{"bike_id":"a05087b2-37de-4855-8040-647edc0892c4","system_id":"levelo_inurba_marseille","lat":43.28415,"lon":5.34976,"is_reserved":false,"is_disabled":false,"rental_uris":{"android":"levelo://app?vid=a05087b2-37de-4855-8040-647edc0892c4","ios":"levelo://app?vid=a05087b2-37de-4855-8040-647edc0892c4"},"vehicle_type_id":"4","last_reported":1752682455,"current_range_meters":18800,"station_id":"ce4bhbh2rcd13ifvqepg","pricing_plan_id":"cebpf4jnsgd1na2vs0mg"},{"bike_id":"63362215-e6b0-499c-9a27-42bef6c7836f","system_id":"levelo_inurba_marseille","lat":43.21756,"lon":5.34602,"is_reserved":false,"is_disabled":false,"rental_uris":{"android":"levelo://app?vid=63362215-e6b0-499c-9a27-42bef6c7836f","ios":"levelo://app?vid=63362215-e6b0-499c-9a27-42bef6c7836f"},"vehicle_type_id":"4","last_reported":1752682455,"current_range_meters":18800,"station_id":"st_cvj6r9ubvosntc0bgbag","pricing_plan_id":"cebpf4jnsgd1na2vs0mg"},{"bike_id":"f4e99e72-e0b9-492a-8b48-cd73afc1928b","system_id":"levelo_inurba_marseille","lat":43.28159,"lon":5.42647,"is_reserved":false,"is_disabled":false,"rental_uris":{"android":"levelo://app?vid=f4e99e72-e0b9-492a-8b48-cd73afc1928b","ios":"levelo://app?vid=f4e99e72-e0b9-492a-8b48-cd73afc1928b"},"vehicle_type_id":"4","last_reported":1752682455,"current_range_meters":18800,"station_id":"ce4bhnh2rcd13ifvqgug","pricing_plan_id":"cebpf4jnsgd1na2vs0mg"},{"bike_id":"49df411e-cbd1-428d-bc70-24622cd61dd2","system_id":"levelo_inurba_marseille","lat":43.30144,"lon":5.37422,"is_reserved":false,"is_disabled":false,"rental_uris":{"android":"levelo://app?vid=49df411e-cbd1-428d-bc70-24622cd61dd2","ios":"levelo://app?vid=49df411e-cbd1-428d-bc70-24622cd61dd2"},"vehicle_type_id":"4","last_reported":1752682455,"current_range_meters":19200,"station_id":"ce4bgs92rcd13ifvqcc0","pricing_plan_id":"cebpf4jnsgd1na2vs0mg"},{"bike_id":"f73f631a-b347-44e7-b124-fa7c03f0abd8","system_id":"levelo_inurba_marseille","lat":43.28615,"lon":5.35106,"is_reserved":false,"is_disabled":false,"rental_uris":{"android":"levelo://app?vid=f73f631a-b347-44e7-b124-fa7c03f0abd8","ios":"levelo://app?vid=f73f631a-b347-44e7-b124-fa7c03f0abd8"},"vehicle_type_id":"4","last_reported":1752682455,"current_range_meters":19200,"station_id":"ce4bhch2rcd13ifvqeug","pricing_plan_id":"cebpf4jnsgd1na2vs0mg"},{"bike_id":"1b69090d-dc45-4e07-b196-29592a5e1760","system_id":"levelo_inurba_marseille","lat":43.22929,"lon":5.35377,"is_reserved":false,"is_disabled":false,"rental_uris":{"android":"levelo://app?vid=1b69090d-dc45-4e07-b196-29592a5e1760","ios":"levelo://app?vid=1b69090d-dc45-4e07-b196-29592a5e1760"},"vehicle_type_id":"4","last_reported":1752682455,"current_range_meters":19200,"station_id":"cpo3532slgdg3j2ikp40","pricing_plan_id":"cebpf4jnsgd1na2vs0mg"},{"bike_id":"601d63f5-45ba-444b-ae10-7d4ee6339f76","system_id":"levelo_inurba_marseille","lat":43.298983,"lon":5.436569,"is_reserved":false,"is_disabled":false,"rental_uris":{"android":"levelo://app?vid=601d63f5-45ba-444b-ae10-7d4ee6339f76","ios":"levelo://app?vid=601d63f5-45ba-444b-ae10-7d4ee6339f76"},"vehicle_type_id":"4","last_reported":1752682455,"current_range_meters":19200,"station_id":"ce4bhpp2rcd13ifvqhfg","pricing_plan_id":"cebpf4jnsgd1na2vs0mg"},{"bike_id":"855ff8f9-641c-41af-8e00-5d71e1a04e0f","system_id":"levelo_inurba_marseille","lat":43.22515,"lon":5.34745,"is_reserved":false,"is_disabled":false,"rental_uris":{"android":"levelo://app?vid=855ff8f9-641c-41af-8e00-5d71e1a04e0f","ios":"levelo://app?vid=855ff8f9-641c-41af-8e00-5d71e1a04e0f"},"vehicle_type_id":"4","last_reported":1752682455,"current_range_meters":19200,"station_id":"st_cvj5dfep6f1abm77gieg","pricing_plan_id":"cebpf4jnsgd1na2vs0mg"},{"bike_id":"1dee3045-62aa-4e3c-8e0e-cd35af9324b2","system_id":"levelo_inurba_marseille","lat":43.230678,"lon":5.35493,"is_reserved":false,"is_disabled":false,"rental_uris":{"android":"levelo://app?vid=1dee3045-62aa-4e3c-8e0e-cd35af9324b2","ios":"levelo://app?vid=1dee3045-62aa-4e3c-8e0e-cd35af9324b2"},"vehicle_type_id":"4","last_reported":1752682455,"current_range_meters":19200,"station_id":"cpo3342slgdg3j2ifvpg","pricing_plan_id":"cebpf4jnsgd1na2vs0mg"},{"bike_id":"0def44e1-c1e0-408b-bc83-72838c29c860","system_id":"levelo_inurba_marseille","lat":43.28258,"lon":5.35069,"is_reserved":false,"is_disabled":false,"rental_uris":{"android":"levelo://app?vid=0def44e1-c1e0-408b-bc83-72838c29c860","ios":"levelo://app?vid=0def44e1-c1e0-408b-bc83-72838c29c860"},"vehicle_type_id":"4","last_reported":1752682455,"current_range_meters":19200,"station_id":"ce4bhbp2rcd13ifvqerg","pricing_plan_id":"cebpf4jnsgd1na2vs0mg"},{"bike_id":"2ac93549-5c94-4228-8eea-782a21384d10","system_id":"levelo_inurba_marseille","lat":43.29634,"lon":5.37793,"is_reserved":false,"is_disabled":false,"rental_uris":{"android":"levelo://app?vid=2ac93549-5c94-4228-8eea-782a21384d10","ios":"levelo://app?vid=2ac93549-5c94-4228-8eea-782a21384d10"},"vehicle_type_id":"4","last_reported":1752682455,"current_range_meters":19200,"station_id":"","pricing_plan_id":"cebpf4jnsgd1na2vs0mg"},{"bike_id":"531dca68-8617-41b0-a6cd-abffc94e1d45","system_id":"levelo_inurba_marseille","lat":43.31193,"lon":5.37363,"is_reserved":false,"is_disabled":false,"rental_uris":{"android":"levelo://app?vid=531dca68-8617-41b0-a6cd-abffc94e1d45","ios":"levelo://app?vid=531dca68-8617-41b0-a6cd-abffc94e1d45"},"vehicle_type_id":"4","last_reported":1752682455,"current_range_meters":19200,"station_id":"","pricing_plan_id":"cebpf4jnsgd1na2vs0mg"},{"bike_id":"33cfb75e-0a10-4832-bd8a-58f02f8f14f8","system_id":"levelo_inurba_marseille","lat":43.26214,"lon":5.3792,"is_reserved":false,"is_disabled":false,"rental_uris":{"android":"levelo://app?vid=33cfb75e-0a10-4832-bd8a-58f02f8f14f8","ios":"levelo://app?vid=33cfb75e-0a10-4832-bd8a-58f02f8f14f8"},"vehicle_type_id":"4","last_reported":1752682455,"current_range_meters":19600,"station_id":"ce4bhjp2rcd13ifvqg90","pricing_plan_id":"cebpf4jnsgd1na2vs0mg"},{"bike_id":"2e52c340-5a15-427d-9501-98b544c14876","system_id":"levelo_inurba_marseille","lat":43.29577,"lon":5.39962,"is_reserved":false,"is_disabled":true,"rental_uris":{"android":"levelo://app?vid=2e52c340-5a15-427d-9501-98b544c14876","ios":"levelo://app?vid=2e52c340-5a15-427d-9501-98b544c14876"},"vehicle_type_id":"4","last_reported":1752682455,"current_range_meters":19600,"station_id":"ce4bh312rcd13ifvqdj0","pricing_plan_id":"cebpf4jnsgd1na2vs0mg"},{"bike_id":"da891840-0cec-4ccc-961c-48903736c6fa","system_id":"levelo_inurba_marseille","lat":43.31139,"lon":5.37692,"is_reserved":false,"is_disabled":false,"rental_uris":{"android":"levelo://app?vid=da891840-0cec-4ccc-961c-48903736c6fa","ios":"levelo://app?vid=da891840-0cec-4ccc-961c-48903736c6fa"},"vehicle_type_id":"4","last_reported":1752682455,"current_range_meters":19600,"station_id":"","pricing_plan_id":"cebpf4jnsgd1na2vs0mg"},{"bike_id":"da24c495-bf0f-494f-9521-4e687db6d329","system_id":"levelo_inurba_marseille","lat":43.22516,"lon":5.3477,"is_reserved":false,"is_disabled":false,"rental_uris":{"android":"levelo://app?vid=da24c495-bf0f-494f-9521-4e687db6d329","ios":"levelo://app?vid=da24c495-bf0f-494f-9521-4e687db6d329"},"vehicle_type_id":"4","last_reported":1752682455,"current_range_meters":19600,"station_id":"st_cvj5dfep6f1abm77gieg","pricing_plan_id":"cebpf4jnsgd1na2vs0mg"},{"bike_id":"e02bf6aa-747e-493c-b6d2-76965ea485ef","system_id":"levelo_inurba_marseille","lat":43.295723,"lon":5.375196,"is_reserved":false,"is_disabled":false,"rental_uris":{"android":"levelo://app?vid=e02bf6aa-747e-493c-b6d2-76965ea485ef","ios":"levelo://app?vid=e02bf6aa-747e-493c-b6d2-76965ea485ef"},"vehicle_type_id":"4","last_reported":1752682455,"current_range_meters":19600,"station_id":"","pricing_plan_id":"cebpf4jnsgd1na2vs0mg"},{"bike_id":"1af876d9-6e0a-45cc-bed9-deae0b87ca9c","system_id":"levelo_inurba_marseille","lat":43.21199,"lon":5.35041,"is_reserved":false,"is_disabled":false,"rental_uris":{"android":"levelo://app?vid=1af876d9-6e0a-45cc-bed9-deae0b87ca9c","ios":"levelo://app?vid=1af876d9-6e0a-45cc-bed9-deae0b87ca9c"},"vehicle_type_id":"4","last_reported":1752682455,"current_range_meters":19600,"station_id":"st_cvj6sg6p6f1abm77japg","pricing_plan_id":"cebpf4jnsgd1na2vs0mg"},{"bike_id":"582d5e63-4946-44ff-8da5-cdf3e52be7b6","system_id":"levelo_inurba_marseille","lat":43.26979,"lon":5.40313,"is_reserved":false,"is_disabled":false,"rental_uris":{"android":"levelo://app?vid=582d5e63-4946-44ff-8da5-cdf3e52be7b6","ios":"levelo://app?vid=582d5e63-4946-44ff-8da5-cdf3e52be7b6"},"vehicle_type_id":"4","last_reported":1752682455,"current_range_meters":19600,"station_id":"","pricing_plan_id":"cebpf4jnsgd1na2vs0mg"},{"bike_id":"d5ff94cb-dc0a-48a2-9a84-22d43907687a","system_id":"levelo_inurba_marseille","lat":43.28269,"lon":5.35067,"is_reserved":false,"is_disabled":false,"rental_uris":{"android":"levelo://app?vid=d5ff94cb-dc0a-48a2-9a84-22d43907687a","ios":"levelo://app?vid=d5ff94cb-dc0a-48a2-9a84-22d43907687a"},"vehicle_type_id":"4","last_reported":1752682455,"current_range_meters":19600,"station_id":"ce4bhbp2rcd13ifvqerg","pricing_plan_id":"cebpf4jnsgd1na2vs0mg"},{"bike_id":"84a5385a-6f17-4ada-9cb5-7b81c8fd62d0","system_id":"levelo_inurba_marseille","lat":43.32545,"lon":5.41424,"is_reserved":false,"is_disabled":false,"rental_uris":{"android":"levelo://app?vid=84a5385a-6f17-4ada-9cb5-7b81c8fd62d0","ios":"levelo://app?vid=84a5385a-6f17-4ada-9cb5-7b81c8fd62d0"},"vehicle_type_id":"4","last_reported":1752682455,"current_range_meters":19600,"station_id":"ce4bhq12rcd13ifvqhhg","pricing_plan_id":"cebpf4jnsgd1na2vs0mg"},{"bike_id":"776efce8-80c1-4306-8ebf-679b0b506e45","system_id":"levelo_inurba_marseille","lat":43.28417,"lon":5.34974,"is_reserved":false,"is_disabled":false,"rental_uris":{"android":"levelo://app?vid=776efce8-80c1-4306-8ebf-679b0b506e45","ios":"levelo://app?vid=776efce8-80c1-4306-8ebf-679b0b506e45"},"vehicle_type_id":"4","last_reported":1752682455,"current_range_meters":19600,"station_id":"ce4bhbh2rcd13ifvqepg","pricing_plan_id":"cebpf4jnsgd1na2vs0mg"},{"bike_id":"56236cea-e432-41da-87d6-92623c490cba","system_id":"levelo_inurba_marseille","lat":43.2175,"lon":5.34592,"is_reserved":false,"is_disabled":false,"rental_uris":{"android":"levelo://app?vid=56236cea-e432-41da-87d6-92623c490cba","ios":"levelo://app?vid=56236cea-e432-41da-87d6-92623c490cba"},"vehicle_type_id":"4","last_reported":1752682455,"current_range_meters":19600,"station_id":"","pricing_plan_id":"cebpf4jnsgd1na2vs0mg"},{"bike_id":"2779a935-705c-4593-9426-693fa1d4b8c6","system_id":"levelo_inurba_marseille","lat":43.21201,"lon":5.35081,"is_reserved":false,"is_disabled":false,"rental_uris":{"android":"levelo://app?vid=2779a935-705c-4593-9426-693fa1d4b8c6","ios":"levelo://app?vid=2779a935-705c-4593-9426-693fa1d4b8c6"},"vehicle_type_id":"4","last_reported":1752682455,"current_range_meters":19600,"station_id":"st_cvj6sg6p6f1abm77japg","pricing_plan_id":"cebpf4jnsgd1na2vs0mg"},{"bike_id":"b9d856d5-6807-4d72-9367-603c76b151fa","system_id":"levelo_inurba_marseille","lat":43.3019,"lon":5.3661,"is_reserved":false,"is_disabled":false,"rental_uris":{"android":"levelo://app?vid=b9d856d5-6807-4d72-9367-603c76b151fa","ios":"levelo://app?vid=b9d856d5-6807-4d72-9367-603c76b151fa"},"vehicle_type_id":"4","last_reported":1752682455,"current_range_meters":19600,"station_id":"ce4bgrh2rcd13ifvqc8g","pricing_plan_id":"cebpf4jnsgd1na2vs0mg"},{"bike_id":"e67854ed-ee54-4b6c-88c4-6f9b263105fb","system_id":"levelo_inurba_marseille","lat":43.28418,"lon":5.34973,"is_reserved":false,"is_disabled":false,"rental_uris":{"android":"levelo://app?vid=e67854ed-ee54-4b6c-88c4-6f9b263105fb","ios":"levelo://app?vid=e67854ed-ee54-4b6c-88c4-6f9b263105fb"},"vehicle_type_id":"4","last_reported":1752682455,"current_range_meters":19600,"station_id":"ce4bhbh2rcd13ifvqepg","pricing_plan_id":"cebpf4jnsgd1na2vs0mg"},{"bike_id":"31507403-a8a8-477f-bfe5-2905403ae4e1","system_id":"levelo_inurba_marseille","lat":43.24182,"lon":5.39728,"is_reserved":false,"is_disabled":false,"rental_uris":{"android":"levelo://app?vid=31507403-a8a8-477f-bfe5-2905403ae4e1","ios":"levelo://app?vid=31507403-a8a8-477f-bfe5-2905403ae4e1"},"vehicle_type_id":"4","last_reported":1752682455,"current_range_meters":20000,"station_id":"ce4bhn12rcd13ifvqgpg","pricing_plan_id":"cebpf4jnsgd1na2vs0mg"},{"bike_id":"83cafcd4-9ab5-4d07-8df5-b36f8727d09c","system_id":"levelo_inurba_marseille","lat":43.21753,"lon":5.346016,"is_reserved":false,"is_disabled":false,"rental_uris":{"android":"levelo://app?vid=83cafcd4-9ab5-4d07-8df5-b36f8727d09c","ios":"levelo://app?vid=83cafcd4-9ab5-4d07-8df5-b36f8727d09c"},"vehicle_type_id":"4","last_reported":1752682455,"current_range_meters":20000,"station_id":"st_cvj6r9ubvosntc0bgbag","pricing_plan_id":"cebpf4jnsgd1na2vs0mg"},{"bike_id":"fc44a3c6-fde8-4db2-97bb-1a8094907b92","system_id":"levelo_inurba_marseille","lat":43.3019,"lon":5.36607,"is_reserved":false,"is_disabled":false,"rental_uris":{"android":"levelo://app?vid=fc44a3c6-fde8-4db2-97bb-1a8094907b92","ios":"levelo://app?vid=fc44a3c6-fde8-4db2-97bb-1a8094907b92"},"vehicle_type_id":"4","last_reported":1752682455,"current_range_meters":20000,"station_id":"ce4bgrh2rcd13ifvqc8g","pricing_plan_id":"cebpf4jnsgd1na2vs0mg"},