{"last_updated":1725995197,"ttl":30,"version":"2.2","data":{"bikes":[{"bike_id":"6d665cff-64cb-468e-a3ee-6e1030cb1496","system_id":"levelo_inurba_marseille","lat":43.30351,"lon":5.4188,"is_reserved":false,"is_disabled":false,"rental_uris":{"android":"levelo://app?vid=6d665cff-64cb-468e-a3ee-6e1030cb1496","ios":"levelo://app?vid=6d665cff-64cb-468e-a3ee-6e1030cb1496"},"vehicle_type_id":"4","last_reported":1725995197,"current_range_meters":28800,"station_id":"ce4bhop2rcd13ifvqh7g","pricing_plan_id":"cebpf4jnsgd1na2vs0mg"},{"bike_id":"1b0a95ae-72f8-4d6b-a8ab-a418b02fc150","system_id":"levelo_inurba_marseille","lat":43.29925,"lon":5.37487,"is_reserved":false,"is_disabled":false,"rental_uris":{"android":"levelo://app?vid=1b0a95ae-72f8-4d6b-a8ab-a418b02fc150","ios":"levelo://app?vid=1b0a95ae-72f8-4d6b-a8ab-a418b02fc150"},"vehicle_type_id":"4","last_reported":1725995197,"current_range_meters":38000,"station_id":"ce4bgjh2rcd13ifvqbg0","pricing_plan_id":"cebpf4jnsgd1na2vs0mg"},{"bike_id":"ae764c61-26f3-4559-afd1-6a8589a0aa9d","system_id":"levelo_inurba_marseille","lat":43.31757,"lon":5.39015,"is_reserved":false,"is_disabled":false,"rental_uris":{"android":"levelo://app?vid=ae764c61-26f3-4559-afd1-6a8589a0aa9d","ios":"levelo://app?vid=ae764c61-26f3-4559-afd1-6a8589a0aa9d"},"vehicle_type_id":"4","last_reported":1725995197,"current_range_meters":26800,"station_id":"ce4bhqp2rcd13ifvqhng","pricing_plan_id":"cebpf4jnsgd1na2vs0mg"},{"bike_id":"476d547f-3a8d-4703-a71b-563fcda99c5c","system_id":"levelo_inurba_marseille","lat":43.30248,"lon":5.40065,"is_reserved":false,"is_disabled":false,"rental_uris":{"android":"levelo://app?vid=476d547f-3a8d-4703-a71b-563fcda99c5c","ios":"levelo://app?vid=476d547f-3a8d-4703-a71b-563fcda99c5c"},"vehicle_type_id":"4","last_reported":1725995197,"current_range_meters":29600,"station_id":"ce4bgvh2rcd13ifvqcs0","pricing_plan_id":"cebpf4jnsgd1na2vs0mg"},{"bike_id":"20a2af1a-1809-487a-969c-169c814a4026","system_id":"levelo_inurba_marseille","lat":43.29976,"lon":5.37183,"is_reserved":false,"is_disabled":false,"rental_uris":{"android":"levelo://app?vid=20a2af1a-1809-487a-969c-169c814a4026","ios":"levelo://app?vid=20a2af1a-1809-487a-969c-169c814a4026"},"vehicle_type_id":"4","last_reported":1725995197,"current_range_meters":32000,"station_id":"ce4bgr92rcd13ifvqc7g","pricing_plan_id":"cebpf4jnsgd1na2vs0mg"},{"bike_id":"182b5103-a69a-42f1-bd76-99ffd2704289","system_id":"levelo_inurba_marseille","lat":43.2558,"lon":5.38237,"is_reserved":false,"is_disabled":false,"rental_uris":{"android":"levelo://app?vid=182b5103-a69a-42f1-bd76-99ffd2704289","ios":"levelo://app?vid=182b5103-a69a-42f1-bd76-99ffd2704289"},"vehicle_type_id":"4","last_reported":1725995197,"current_range_meters":19600,"station_id":"ce4bhih2rcd13ifvqfs0","pricing_plan_id":"cebpf4jnsgd1na2vs0mg"},{"bike_id":"9b4e0646-c8d7-4d7f-a814-9f0e924b4926","system_id":"levelo_inurba_marseille","lat":43.28706,"lon":5.37391,"is_reserved":false,"is_disabled":false,"rental_uris":{"android":"levelo://app?vid=9b4e0646-c8d7-4d7f-a814-9f0e924b4926","ios":"levelo://app?vid=9b4e0646-c8d7-4d7f-a814-9f0e924b4926"},"vehicle_type_id":"4","last_reported":1725995197,"current_range_meters":9200,"station_id":"ce4bh3p2rcd13ifvqdq0","pricing_plan_id":"cebpf4jnsgd1na2vs0mg"},{"bike_id":"95e7fdc8-bf5f-4f9c-aaac-a84bae7d977c","system_id":"levelo_inurba_marseille","lat":43.27074,"lon":5.42282,"is_reserved":false,"is_disabled":false,"rental_uris":{"android":"levelo://app?vid=95e7fdc8-bf5f-4f9c-aaac-a84bae7d977c","ios":"levelo://app?vid=95e7fdc8-bf5f-4f9c-aaac-a84bae7d977c"},"vehicle_type_id":"4","last_reported":1725995197,"current_range_meters":38400,"station_id":"ce4bhk92rcd13ifvqgb0","pricing_plan_id":"cebpf4jnsgd1na2vs0mg"},{"bike_id":"e92af69c-e700-4e33-ad63-2aa23e36ec55","system_id":"levelo_inurba_marseille","lat":43.2951,"lon":5.39039,"is_reserved":false,"is_disabled":false,"rental_uris":{"android":"levelo://app?vid=e92af69c-e700-4e33-ad63-2aa23e36ec55","ios":"levelo://app?vid=e92af69c-e700-4e33-ad63-2aa23e36ec55"},"vehicle_type_id":"4","last_reported":1725995197,"current_range_meters":38800,"station_id":"ce4bh3p2rcd13ifvqdp0","pricing_plan_id":"cebpf4jnsgd1na2vs0mg"},{"bike_id":"71f168a1-720c-45b4-a259-9e4c867d01cd","system_id":"levelo_inurba_marseille","lat":43.30875,"lon":5.39644,"is_reserved":false,"is_disabled":false,"rental_uris":{"android":"levelo://app?vid=71f168a1-720c-45b4-a259-9e4c867d01cd","ios":"levelo://app?vid=71f168a1-720c-45b4-a259-9e4c867d01cd"},"vehicle_type_id":"4","last_reported":1725995197,"current_range_meters":38000,"station_id":"ce4bh012rcd13ifvqcv0","pricing_plan_id":"cebpf4jnsgd1na2vs0mg"},{"bike_id":"f34747ce-f309-4326-987e-7bc67d09e8c3","system_id":"levelo_inurba_marseille","lat":43.32289,"lon":5.38272,"is_reserved":false,"is_disabled":false,"rental_uris":{"android":"levelo://app?vid=f34747ce-f309-4326-987e-7bc67d09e8c3","ios":"levelo://app?vid=f34747ce-f309-4326-987e-7bc67d09e8c3"},"vehicle_type_id":"4","last_reported":1725995197,"current_range_meters":36800,"station_id":"ce4bhr12rcd13ifvqhqg","pricing_plan_id":"cebpf4jnsgd1na2vs0mg"},{"bike_id":"962bb7a3-05a7-49bc-9a49-5d193216f960","system_id":"levelo_inurba_marseille","lat":43.31763,"lon":5.39021,"is_reserved":false,"is_disabled":false,"rental_uris":{"android":"levelo://app?vid=962bb7a3-05a7-49bc-9a49-5d193216f960","ios":"levelo://app?vid=962bb7a3-05a7-49bc-9a49-5d193216f960"},"vehicle_type_id":"4","last_reported":1725995197,"current_range_meters":28800,"station_id":"ce4bhqp2rcd13ifvqhng","pricing_plan_id":"cebpf4jnsgd1na2vs0mg"},{"bike_id":"3a610c72-f44c-428a-ba87-6ec4a94fc829","system_id":"levelo_inurba_marseille","lat":43.29226,"lon":5.36059,"is_reserved":false,"is_disabled":false,"rental_uris":{"android":"levelo://app?vid=3a610c72-f44c-428a-ba87-6ec4a94fc829","ios":"levelo://app?vid=3a610c72-f44c-428a-ba87-6ec4a94fc829"},"vehicle_type_id":"4","last_reported":1725995197,"current_range_meters":10000,"station_id":"ce4bhbh2rcd13ifvqeqg","pricing_plan_id":"cebpf4jnsgd1na2vs0mg"},{"bike_id":"e59538fd-e334-4753-89de-18e336d6423e","system_id":"levelo_inurba_marseille","lat":43.25494,"lon":5.37652,"is_reserved":false,"is_disabled":false,"rental_uris":{"android":"levelo://app?vid=e59538fd-e334-4753-89de-18e336d6423e","ios":"levelo://app?vid=e59538fd-e334-4753-89de-18e336d6423e"},"vehicle_type_id":"4","last_reported":1725995197,"current_range_meters":3200,"station_id":"ce4bhh12rcd13ifvqff0","pricing_plan_id":"cebpf4jnsgd1na2vs0mg"},{"bike_id":"8b97e1df-4145-43d9-8812-e0e50b8f06c7","system_id":"levelo_inurba_marseille","lat":43.29846,"lon":5.36286,"is_reserved":false,"is_disabled":false,"rental_uris":{"android":"levelo://app?vid=8b97e1df-4145-43d9-8812-e0e50b8f06c7","ios":"levelo://app?vid=8b97e1df-4145-43d9-8812-e0e50b8f06c7"},"vehicle_type_id":"4","last_reported":1725995197,"current_range_meters":6000,"station_id":"ce4bgpp2rcd13ifvqc3g","pricing_plan_id":"cebpf4jnsgd1na2vs0mg"},{"bike_id":"ee4607c9-6955-4e13-b7d5-aec07ce4d086","system_id":"levelo_inurba_marseille","lat":43.3169,"lon":5.40485,"is_reserved":false,"is_disabled":false,"rental_uris":{"android":"levelo://app?vid=ee4607c9-6955-4e13-b7d5-aec07ce4d086","ios":"levelo://app?vid=ee4607c9-6955-4e13-b7d5-aec07ce4d086"},"vehicle_type_id":"4","last_reported":1725995197,"current_range_meters":17200,"station_id":"ce4bh012rcd13ifvqd00","pricing_plan_id":"cebpf4jnsgd1na2vs0mg"},{"bike_id":"24f8399c-3f6b-4afe-b89d-f716cc994be8","system_id":"levelo_inurba_marseille","lat":43.28457,"lon":5.35882,"is_reserved":false,"is_disabled":false,"rental_uris":{"android":"levelo://app?vid=24f8399c-3f6b-4afe-b89d-f716cc994be8","ios":"levelo://app?vid=24f8399c-3f6b-4afe-b89d-f716cc994be8"},"vehicle_type_id":"4","last_reported":1725995197,"current_range_meters":38800,"station_id":"ce4bhah2rcd13ifvqei0","pricing_plan_id":"cebpf4jnsgd1na2vs0mg"},{"bike_id":"a5378d9e-ab88-4132-955c-51d09adec59d","system_id":"levelo_inurba_marseille","lat":43.28036,"lon":5.36945,"is_reserved":false,"is_disabled":false,"rental_uris":{"android":"levelo://app?vid=a5378d9e-ab88-4132-955c-51d09adec59d","ios":"levelo://app?vid=a5378d9e-ab88-4132-955c-51d09adec59d"},"vehicle_type_id":"4","last_reported":1725995197,"current_range_meters":37600,"station_id":"ce4bha12rcd13ifvqef0","pricing_plan_id":"cebpf4jnsgd1na2vs0mg"},{"bike_id":"1a4c90ad-14ce-4fdf-991f-6f71e2000676","system_id":"levelo_inurba_marseille","lat":43.2466,"lon":5.381702,"is_reserved":false,"is_disabled":false,"rental_uris":{"android":"levelo://app?vid=1a4c90ad-14ce-4fdf-991f-6f71e2000676","ios":"levelo://app?vid=1a4c90ad-14ce-4fdf-991f-6f71e2000676"},"vehicle_type_id":"4","last_reported":1725995197,"current_range_meters":25600,"station_id":"ce4bhih2rcd13ifvqfr0","pricing_plan_id":"cebpf4jnsgd1na2vs0mg"},{"bike_id":"6c02a711-e0d4-4009-9d44-fba5428f55b2","system_id":"levelo_inurba_marseille","lat":43.23194,"lon":5.35563,"is_reserved":false,"is_disabled":false,"rental_uris":{"android":"levelo://app?vid=6c02a711-e0d4-4009-9d44-fba5428f55b2","ios":"levelo://app?vid=6c02a711-e0d4-4009-9d44-fba5428f55b2"},"vehicle_type_id":"4","last_reported":1725995197,"current_range_meters":8000,"station_id":"ce4bhu92rcd13ifvqi70","pricing_plan_id":"cebpf4jnsgd1na2vs0mg"},{"bike_id":"be1826e9-54cd-4f89-b161-981acf4a2010","system_id":"levelo_inurba_marseille","lat":43.28702,"lon":5.37376,"is_reserved":false,"is_disabled":false,"rental_uris":{"android":"levelo://app?vid=be1826e9-54cd-4f89-b161-981acf4a2010","ios":"levelo://app?vid=be1826e9-54cd-4f89-b161-981acf4a2010"},"vehicle_type_id":"4","last_reported":1725995197,"current_range_meters":3200,"station_id":"ce4bh3p2rcd13ifvqdq0","pricing_plan_id":"cebpf4jnsgd1na2vs0mg"},{"bike_id":"94fc363a-6381-44ae-99ed-b883e863bbe6","system_id":"levelo_inurba_marseille","lat":43.30883,"lon":5.39641,"is_reserved":false,"is_disabled":false,"rental_uris":{"android":"levelo://app?vid=94fc363a-6381-44ae-99ed-b883e863bbe6","ios":"levelo://app?vid=94fc363a-6381-44ae-99ed-b883e863bbe6"},"vehicle_type_id":"4","last_reported":1725995197,"current_range_meters":4400,"station_id":"ce4bh012rcd13ifvqcv0","pricing_plan_id":"cebpf4jnsgd1na2vs0mg"},{"bike_id":"3744af3d-42c9-4ed0-9d5b-f40b3246de8b","system_id":"levelo_inurba_marseille","lat":43.25494,"lon":5.37652,"is_reserved":false,"is_disabled":false,"rental_uris":{"android":"levelo://app?vid=3744af3d-42c9-4ed0-9d5b-f40b3246de8b","ios":"levelo://app?vid=3744af3d-42c9-4ed0-9d5b-f40b3246de8b"},"vehicle_type_id":"4","last_reported":1725995197,"current_range_meters":2800,"station_id":"ce4bhh12rcd13ifvqff0","pricing_plan_id":"cebpf4jnsgd1na2vs0mg"},{"bike_id":"fae9787e-649e-41fc-964e-0ae14303e024","system_id":"levelo_inurba_marseille","lat":43.27946,"lon":5.41053,"is_reserved":false,"is_disabled":false,"rental_uris":{"android":"levelo://app?vid=fae9787e-649e-41fc-964e-0ae14303e024","ios":"levelo://app?vid=fae9787e-649e-41fc-964e-0ae14303e024"},"vehicle_type_id":"4","last_reported":1725995197,"current_range_meters":7200,"station_id":"ce4bhnp2rcd13ifvqh0g","pricing_plan_id":"cebpf4jnsgd1na2vs0mg"},{"bike_id":"2b2d956f-0d83-4f65-8cca-09e6b3990f98","system_id":"levelo_inurba_marseille","lat":43.26492,"lon":5.39541,"is_reserved":false,"is_disabled":false,"rental_uris":{"android":"levelo://app?vid=2b2d956f-0d83-4f65-8cca-09e6b3990f98","ios":"levelo://app?vid=2b2d956f-0d83-4f65-8cca-09e6b3990f98"},"vehicle_type_id":"4","last_reported":1725995197,"current_range_meters":12000,"station_id":"ce4bhi12rcd13ifvqfq0","pricing_plan_id":"cebpf4jnsgd1na2vs0mg"},{"bike_id":"b59d6bb8-aefb-4db8-b3f2-f169f342ddcd","system_id":"levelo_inurba_marseille","lat":43.32364,"lon":5.38889,"is_reserved":false,"is_disabled":false,"rental_uris":{"android":"levelo://app?vid=b59d6bb8-aefb-4db8-b3f2-f169f342ddcd","ios":"levelo://app?vid=b59d6bb8-aefb-4db8-b3f2-f169f342ddcd"},"vehicle_type_id":"4","last_reported":1725995197,"current_range_meters":6800,"station_id":"ce4bhqp2rcd13ifvqhog","pricing_plan_id":"cebpf4jnsgd1na2vs0mg"},{"bike_id":"21e8ac47-8611-472b-b3c1-9ba061863f86","system_id":"levelo_inurba_marseille","lat":43.28672,"lon":5.36362,"is_reserved":false,"is_disabled":false,"rental_uris":{"android":"levelo://app?vid=21e8ac47-8611-472b-b3c1-9ba061863f86","ios":"levelo://app?vid=21e8ac47-8611-472b-b3c1-9ba061863f86"},"vehicle_type_id":"4","last_reported":1725995197,"current_range_meters":30400,"station_id":"ce4bhah2rcd13ifvqej0","pricing_plan_id":"cebpf4jnsgd1na2vs0mg"},{"bike_id":"e7856795-7181-4708-965e-28de31ac7220","system_id":"levelo_inurba_marseille","lat":43.31728,"lon":5.42402,"is_reserved":false,"is_disabled":false,"rental_uris":{"android":"levelo://app?vid=e7856795-7181-4708-965e-28de31ac7220","ios":"levelo://app?vid=e7856795-7181-4708-965e-28de31ac7220"},"vehicle_type_id":"4","last_reported":1725995197,"current_range_meters":30400,"station_id":"ce4bhp92rcd13ifvqhbg","pricing_plan_id":"cebpf4jnsgd1na2vs0mg"},{"bike_id":"d94cf20d-19e4-4d88-bbb3-72b7a4c6baa3","system_id":"levelo_inurba_marseille","lat":43.32297,"lon":5.38274,"is_reserved":false,"is_disabled":false,"rental_uris":{"android":"levelo://app?vid=d94cf20d-19e4-4d88-bbb3-72b7a4c6baa3","ios":"levelo://app?vid=d94cf20d-19e4-4d88-bbb3-72b7a4c6baa3"},"vehicle_type_id":"4","last_reported":1725995197,"current_range_meters":36000,"station_id":"ce4bhr12rcd13ifvqhqg","pricing_plan_id":"cebpf4jnsgd1na2vs0mg"},{"bike_id":"8930af26-ed76-44d9-be2c-cc4a9c3c9ba6","system_id":"levelo_inurba_marseille","lat":43.29527,"lon":5.38542,"is_reserved":false,"is_disabled":false,"rental_uris":{"android":"levelo://app?vid=8930af26-ed76-44d9-be2c-cc4a9c3c9ba6","ios":"levelo://app?vid=8930af26-ed76-44d9-be2c-cc4a9c3c9ba6"},"vehicle_type_id":"4","last_reported":1725995197,"current_range_meters":16400,"station_id":"ce4bgih2rcd13ifvqba0","pricing_plan_id":"cebpf4jnsgd1na2vs0mg"},{"bike_id":"00ca710c-aa25-453d-b5eb-9286e939dc6d","system_id":"levelo_inurba_marseille","lat":43.2955,"lon":5.42293,"is_reserved":false,"is_disabled":false,"rental_uris":{"android":"levelo://app?vid=00ca710c-aa25-453d-b5eb-9286e939dc6d","ios":"levelo://app?vid=00ca710c-aa25-453d-b5eb-9286e939dc6d"},"vehicle_type_id":"4","last_reported":1725995197,"current_range_meters":10800,"station_id":"ce4bhph2rcd13ifvqhdg","pricing_plan_id":"cebpf4jnsgd1na2vs0mg"},{"bike_id":"2e23597d-e77d-486c-a95e-6cdb71b1bd53","system_id":"levelo_inurba_marseille","lat":43.32373,"lon":5.38892,"is_reserved":false,"is_disabled":false,"rental_uris":{"android":"levelo://app?vid=2e23597d-e77d-486c-a95e-6cdb71b1bd53","ios":"levelo://app?vid=2e23597d-e77d-486c-a95e-6cdb71b1bd53"},"vehicle_type_id":"4","last_reported":1725995197,"current_range_meters":12800,"station_id":"ce4bhqp2rcd13ifvqhog","pricing_plan_id":"cebpf4jnsgd1na2vs0mg"},{"bike_id":"5145a89e-a61b-419b-ac1f-388d1c0236fe","system_id":"levelo_inurba_marseille","lat":43.27493,"lon":5.42452,"is_reserved":false,"is_disabled":false,"rental_uris":{"android":"levelo://app?vid=5145a89e-a61b-419b-ac1f-388d1c0236fe","ios":"levelo://app?vid=5145a89e-a61b-419b-ac1f-388d1c0236fe"},"vehicle_type_id":"4","last_reported":1725995197,"current_range_meters":20800,"station_id":"ce4bhn92rcd13ifvqgrg","pricing_plan_id":"cebpf4jnsgd1na2vs0mg"},{"bike_id":"e0da14c8-31cf-43a6-b5ec-3dd3668bffa7","system_id":"levelo_inurba_marseille","lat":43.29571,"lon":5.39976,"is_reserved":false,"is_disabled":false,"rental_uris":{"android":"levelo://app?vid=e0da14c8-31cf-43a6-b5ec-3dd3668bffa7","ios":"levelo://app?vid=e0da14c8-31cf-43a6-b5ec-3dd3668bffa7"},"vehicle_type_id":"4","last_reported":1725995197,"current_range_meters":3600,"station_id":"ce4bh312rcd13ifvqdj0","pricing_plan_id":"cebpf4jnsgd1na2vs0mg"},{"bike_id":"a0f777fd-2b64-4158-818c-6e3cb77d56a3","system_id":"levelo_inurba_marseille","lat":43.30805,"lon":5.43524,"is_reserved":false,"is_disabled":false,"rental_uris":{"android":"levelo://app?vid=a0f777fd-2b64-4158-818c-6e3cb77d56a3","ios":"levelo://app?vid=a0f777fd-2b64-4158-818c-6e3cb77d56a3"},"vehicle_type_id":"4","last_reported":1725995197,"current_range_meters":17200,"station_id":"ce4bhph2rcd13ifvqheg","pricing_plan_id":"cebpf4jnsgd1na2vs0mg"},{"bike_id":"4d4d9b7e-d3b3-495d-b610-eb618b7e5cf2","system_id":"levelo_inurba_marseille","lat":43.28411,"lon":5.37512,"is_reserved":false,"is_disabled":false,"rental_uris":{"android":"levelo://app?vid=4d4d9b7e-d3b3-495d-b610-eb618b7e5cf2","ios":"levelo://app?vid=4d4d9b7e-d3b3-495d-b610-eb618b7e5cf2"},"vehicle_type_id":"4","last_reported":1725995197,"current_range_meters":10800,"station_id":"ce4bh412rcd13ifvqds0","pricing_plan_id":"cebpf4jnsgd1na2vs0mg"},{"bike_id":"6ac0385a-09c3-4112-8eb3-5351bb9c2a07","system_id":"levelo_inurba_marseille","lat":43.28461,"lon":5.35894,"is_reserved":false,"is_disabled":false,"rental_uris":{"android":"levelo://app?vid=6ac0385a-09c3-4112-8eb3-5351bb9c2a07","ios":"levelo://app?vid=6ac0385a-09c3-4112-8eb3-5351bb9c2a07"},"vehicle_type_id":"4","last_reported":1725995197,"current_range_meters":39200,"station_id":"ce4bhah2rcd13ifvqei0","pricing_plan_id":"cebpf4jnsgd1na2vs0mg"},{"bike_id":"b77681a4-4ed0-4be8-bbd7-2dc7c4cd333c","system_id":"levelo_inurba_marseille","lat":43.31764,"lon":5.39021,"is_reserved":false,"is_disabled":false,"rental_uris":{"android":"levelo://app?vid=b77681a4-4ed0-4be8-bbd7-2dc7c4cd333c","ios":"levelo://app?vid=b77681a4-4ed0-4be8-bbd7-2dc7c4cd333c"},"vehicle_type_id":"4","last_reported":1725995197,"current_range_meters":32400,"station_id":"ce4bhqp2rcd13ifvqhng","pricing_plan_id":"cebpf4jnsgd1na2vs0mg"},{"bike_id":"c2f194a8-0969-46c5-b097-c0b01e560a9f","system_id":"levelo_inurba_marseille","lat":43.31112,"lon":5.3777,"is_reserved":false,"is_disabled":false,"rental_uris":{"android":"levelo://app?vid=c2f194a8-0969-46c5-b097-c0b01e560a9f","ios":"levelo://app?vid=c2f194a8-0969-46c5-b097-c0b01e560a9f"},"vehicle_type_id":"4","last_reported":1725995197,"current_range_meters":20000,"station_id":"ce4bgt92rcd13ifvqcg0","pricing_plan_id":"cebpf4jnsgd1na2vs0mg"},{"bike_id":"b85bcd88-553f-4744-a1d3-23ccbf2359af","system_id":"levelo_inurba_marseille","lat":43.29526,"lon":5.38543,"is_reserved":false,"is_disabled":false,"rental_uris":{"android":"levelo://app?vid=b85bcd88-553f-4744-a1d3-23ccbf2359af","ios":"levelo://app?vid=b85bcd88-553f-4744-a1d3-23ccbf2359af"},"vehicle_type_id":"4","last_reported":1725995197,"current_range_meters":20000,"station_id":"ce4bgih2rcd13ifvqba0","pricing_plan_id":"cebpf4jnsgd1na2vs0mg"},{"bike_id":"2f08790f-ec96-4788-99b1-9a46ac99af95","system_id":"levelo_inurba_marseille","lat":43.29876,"lon":5.38912,"is_reserved":false,"is_disabled":false,"rental_uris":{"android":"levelo://app?vid=2f08790f-ec96-4788-99b1-9a46ac99af95","ios":"levelo://app?vid=2f08790f-ec96-4788-99b1-9a46ac99af95"},"vehicle_type_id":"4","last_reported":1725995197,"current_range_meters":14800,"station_id":"ce4bh392rcd13ifvqdl0","pricing_plan_id":"cebpf4jnsgd1na2vs0mg"},{"bike_id":"044c6c19-928b-49be-810d-1a1364296b66","system_id":"levelo_inurba_marseille","lat":43.27811,"lon":5.40711,"is_reserved":false,"is_disabled":false,"rental_uris":{"android":"levelo://app?vid=044c6c19-928b-49be-810d-1a1364296b66","ios":"levelo://app?vid=044c6c19-928b-49be-810d-1a1364296b66"},"vehicle_type_id":"4","last_reported":1725995197,"current_range_meters":22800,"station_id":"ce4bhnh2rcd13ifvqgtg","pricing_plan_id":"cebpf4jnsgd1na2vs0mg"},{"bike_id":"eefefcc6-11cd-4d33-991c-12b4a6414c9b","system_id":"levelo_inurba_marseille","lat":43.28031,"lon":5.3695,"is_reserved":false,"is_disabled":false,"rental_uris":{"android":"levelo://app?vid=eefefcc6-11cd-4d33-991c-12b4a6414c9b","ios":"levelo://app?vid=eefefcc6-11cd-4d33-991c-12b4a6414c9b"},"vehicle_type_id":"4","last_reported":1725995197,"current_range_meters":38800,"station_id":"ce4bha12rcd13ifvqef0","pricing_plan_id":"cebpf4jnsgd1na2vs0mg"},{"bike_id":"858ecae4-d589-4b0f-84be-17e562d1d19e","system_id":"levelo_inurba_marseille","lat":43.27993,"lon":5.4002,"is_reserved":false,"is_disabled":false,"rental_uris":{"android":"levelo://app?vid=858ecae4-d589-4b0f-84be-17e562d1d19e","ios":"levelo://app?vid=858ecae4-d589-4b0f-84be-17e562d1d19e"},"vehicle_type_id":"4","last_reported":1725995197,"current_range_meters":16000,"station_id":"ce4bho92rcd13ifvqh4g","pricing_plan_id":"cebpf4jnsgd1na2vs0mg"},{"bike_id":"ddec4860-1793-4c53-9e57-33acb664ce05","system_id":"levelo_inurba_marseille","lat":43.29524,"lon":5.3854,"is_reserved":false,"is_disabled":false,"rental_uris":{"android":"levelo://app?vid=ddec4860-1793-4c53-9e57-33acb664ce05","ios":"levelo://app?vid=ddec4860-1793-4c53-9e57-33acb664ce05"},"vehicle_type_id":"4","last_reported":1725995197,"current_range_meters":39200,"station_id":"ce4bgih2rcd13ifvqba0","pricing_plan_id":"cebpf4jnsgd1na2vs0mg"},{"bike_id":"4c1490d2-f57a-41aa-af6f-4d10a6c3e5d1","system_id":"levelo_inurba_marseille","lat":43.28617,"lon":5.35102,"is_reserved":false,"is_disabled":false,"rental_uris":{"android":"levelo://app?vid=4c1490d2-f57a-41aa-af6f-4d10a6c3e5d1","ios":"levelo://app?vid=4c1490d2-f57a-41aa-af6f-4d10a6c3e5d1"},"vehicle_type_id":"4","last_reported":1725995197,"current_range_meters":33200,"station_id":"ce4bhch2rcd13ifvqeug","pricing_plan_id":"cebpf4jnsgd1na2vs0mg"},{"bike_id":"d109ae9a-d9bf-496f-ab2c-e0fac697698f","system_id":"levelo_inurba_marseille","lat":43.27903,"lon":5.38015,"is_reserved":false,"is_disabled":false,"rental_uris":{"android":"levelo://app?vid=d109ae9a-d9bf-496f-ab2c-e0fac697698f","ios":"levelo://app?vid=d109ae9a-d9bf-496f-ab2c-e0fac697698f"},"vehicle_type_id":"4","last_reported":1725995197,"current_range_meters":24400,"station_id":"ce4bhf92rcd13ifvqf50","pricing_plan_id":"cebpf4jnsgd1na2vs0mg"},{"bike_id":"6db7e6fa-4577-49b1-a4d8-ceb689488062","system_id":"levelo_inurba_marseille","lat":43.29789,"lon":5.39349,"is_reserved":false,"is_disabled":false,"rental_uris":{"android":"levelo://app?vid=6db7e6fa-4577-49b1-a4d8-ceb689488062","ios":"levelo://app?vid=6db7e6fa-4577-49b1-a4d8-ceb689488062"},"vehicle_type_id":"4","last_reported":1725995197,"current_range_meters":11600,"station_id":"chh1huq6cuj3fo74tm60","pricing_plan_id":"cebpf4jnsgd1na2vs0mg"},{"bike_id":"5d352641-3593-4267-b2f1-8ab039017e05","system_id":"levelo_inurba_marseille","lat":43.23196,"lon":5.35554,"is_reserved":false,"is_disabled":false,"rental_uris":{"android":"levelo://app?vid=5d352641-3593-4267-b2f1-8ab039017e05","ios":"levelo://app?vid=5d352641-3593-4267-b2f1-8ab039017e05"},"vehicle_type_id":"4","last_reported":1725995197,"current_range_meters":3200,"station_id":"ce4bhu92rcd13ifvqi70","pricing_plan_id":"cebpf4jnsgd1na2vs0mg"},{"bike_id":"5ef0c939-e8a1-48fa-8002-16510bb408b2","system_id":"levelo_inurba_marseille","lat":43.29418,"lon":5.38633,"is_reserved":false,"is_disabled":false,"rental_uris":{"android":"levelo://app?vid=5ef0c939-e8a1-48fa-8002-16510bb408b2","ios":"levelo://app?vid=5ef0c939-e8a1-48fa-8002-16510bb408b2"},"vehicle_type_id":"4","last_reported":1725995197,"current_range_meters":20800,"station_id":"ce4bh2h2rcd13ifvqdh0","pricing_plan_id":"cebpf4jnsgd1na2vs0mg"},{"bike_id":"31424ba2-2301-4c11-b165-6c0bd329adfa","system_id":"levelo_inurba_marseille","lat":43.28722,"lon":5.37936,"is_reserved":false,"is_disabled":false,"rental_uris":{"android":"levelo://app?vid=31424ba2-2301-4c11-b165-6c0bd329adfa","ios":"levelo://app?vid=31424ba2-2301-4c11-b165-6c0bd329adfa"},"vehicle_type_id":"4","last_reported":1725995197,"current_range_meters":30800,"station_id":"ce4bh9p2rcd13ifvqec0","pricing_plan_id":"cebpf4jnsgd1na2vs0mg"},{"bike_id":"9b9547b7-77e2-4c32-9975-f0a65876f133","system_id":"levelo_inurba_marseille","lat":43.28035,"lon":5.36953,"is_reserved":false,"is_disabled":false,"rental_uris":{"android":"levelo://app?vid=9b9547b7-77e2-4c32-9975-f0a65876f133","ios":"levelo://app?vid=9b9547b7-77e2-4c32-9975-f0a65876f133"},"vehicle_type_id":"4","last_reported":1725995197,"current_range_meters":38400,"station_id":"ce4bha12rcd13ifvqef0","pricing_plan_id":"cebpf4jnsgd1na2vs0mg"},{"bike_id":"8f48865f-d256-458e-ac11-354e59532d8b","system_id":"levelo_inurba_marseille","lat":43.29961,"lon":5.41327,"is_reserved":false,"is_disabled":false,"rental_uris":{"android":"levelo://app?vid=8f48865f-d256-458e-ac11-354e59532d8b","ios":"levelo://app?vid=8f48865f-d256-458e-ac11-354e59532d8b"},"vehicle_type_id":"4","last_reported":1725995197,"current_range_meters":12400,"station_id":"ce4bhp12rcd13ifvqh9g","pricing_plan_id":"cebpf4jnsgd1na2vs0mg"},{"bike_id":"723c073e-5c6a-4fb9-a382-e8ea44a73076","system_id":"levelo_inurba_marseille","lat":43.29554,"lon":5.42289,"is_reserved":false,"is_disabled":false,"rental_uris":{"android":"levelo://app?vid=723c073e-5c6a-4fb9-a382-e8ea44a73076","ios":"levelo://app?vid=723c073e-5c6a-4fb9-a382-e8ea44a73076"},"vehicle_type_id":"4","last_reported":1725995197,"current_range_meters":14400,"station_id":"ce4bhph2rcd13ifvqhdg","pricing_plan_id":"cebpf4jnsgd1na2vs0mg"},{"bike_id":"2aad4b02-945c-4d35-b3a5-85b3d17dc503","system_id":"levelo_inurba_marseille","lat":43.32284,"lon":5.38274,"is_reserved":false,"is_disabled":false,"rental_uris":{"android":"levelo://app?vid=2aad4b02-945c-4d35-b3a5-85b3d17dc503","ios":"levelo://app?vid=2aad4b02-945c-4d35-b3a5-85b3d17dc503"},"vehicle_type_id":"4","last_reported":1725995197,"current_range_meters":7200,"station_id":"ce4bhr12rcd13ifvqhqg","pricing_plan_id":"cebpf4jnsgd1na2vs0mg"},{"bike_id":"921b5eb1-9835-4a14-8d59-0141f550707e","system_id":"levelo_inurba_marseille","lat":43.25117,"lon":5.40319,"is_reserved":false,"is_disabled":false,"rental_uris":{"android":"levelo://app?vid=921b5eb1-9835-4a14-8d59-0141f550707e","ios":"levelo://app?vid=921b5eb1-9835-4a14-8d59-0141f550707e"},"vehicle_type_id":"4","last_reported":1725995197,"current_range_meters":3600,"station_id":"ce4bhlh2rcd13ifvqgig","pricing_plan_id":"cebpf4jnsgd1na2vs0mg"},{"bike_id":"6073408b-b4fc-4eeb-ac9e-351084b1cf63","system_id":"levelo_inurba_marseille","lat":43.24817,"lon":5.37466,"is_reserved":false,"is_disabled":false,"rental_uris":{"android":"levelo://app?vid=6073408b-b4fc-4eeb-ac9e-351084b1cf63","ios":"levelo://app?vid=6073408b-b4fc-4eeb-ac9e-351084b1cf63"},"vehicle_type_id":"4","last_reported":1725995197,"current_range_meters":3200,"station_id":"ce4bhgh2rcd13ifvqfb0","pricing_plan_id":"cebpf4jnsgd1na2vs0mg"},{"bike_id":"b3154663-e456-4f9c-b708-ddf2c310f70e","system_id":"levelo_inurba_marseille","lat":43.28707,"lon":5.37384,"is_reserved":false,"is_disabled":false,"rental_uris":{"android":"levelo://app?vid=b3154663-e456-4f9c-b708-ddf2c310f70e","ios":"levelo://app?vid=b3154663-e456-4f9c-b708-ddf2c310f70e"},"vehicle_type_id":"4","last_reported":1725995197,"current_range_meters":6000,"station_id":"ce4bh3p2rcd13ifvqdq0","pricing_plan_id":"cebpf4jnsgd1na2vs0mg"},{"bike_id":"41d7a4a1-b08a-4a9b-b6a8-b66536cef688","system_id":"levelo_inurba_marseille","lat":43.30882,"lon":5.39642,"is_reserved":false,"is_disabled":false,"rental_uris":{"android":"levelo://app?vid=41d7a4a1-b08a-4a9b-b6a8-b66536cef688","ios":"levelo://app?vid=41d7a4a1-b08a-4a9b-b6a8-b66536cef688"},"vehicle_type_id":"4","last_reported":1725995197,"current_range_meters":9600,"station_id":"ce4bh012rcd13ifvqcv0","pricing_plan_id":"cebpf4jnsgd1na2vs0mg"},{"bike_id":"41e8ee08-f7db-4404-b14e-80678a4bb7c6","system_id":"levelo_inurba_marseille","lat":43.30138,"lon":5.39839,"is_reserved":false,"is_disabled":false,"rental_uris":{"android":"levelo://app?vid=41e8ee08-f7db-4404-b14e-80678a4bb7c6","ios":"levelo://app?vid=41e8ee08-f7db-4404-b14e-80678a4bb7c6"},"vehicle_type_id":"4","last_reported":1725995197,"current_range_meters":32000,"station_id":"ce4bh0h2rcd13ifvqd40","pricing_plan_id":"cebpf4jnsgd1na2vs0mg"},{"bike_id":"7b428711-28bc-4519-8f68-59828cbb8208","system_id":"levelo_inurba_marseille","lat":43.29193,"lon":5.39317,"is_reserved":false,"is_disabled":false,"rental_uris":{"android":"levelo://app?vid=7b428711-28bc-4519-8f68-59828cbb8208","ios":"levelo://app?vid=7b428711-28bc-4519-8f68-59828cbb8208"},"vehicle_type_id":"4","last_reported":1725995197,"current_range_meters":4800,"station_id":"ce4bh192rcd13ifvqdd0","pricing_plan_id":"cebpf4jnsgd1na2vs0mg"},{"bike_id":"412cb764-6cf9-44b4-bb04-1b63b614d3dd","system_id":"levelo_inurba_marseille","lat":43.26685,"lon":5.38268,"is_reserved":false,"is_disabled":false,"rental_uris":{"android":"levelo://app?vid=412cb764-6cf9-44b4-bb04-1b63b614d3dd","ios":"levelo://app?vid=412cb764-6cf9-44b4-bb04-1b63b614d3dd"},"vehicle_type_id":"4","last_reported":1725995197,"current_range_meters":38800,"station_id":"ce4bhg92rcd13ifvqf90","pricing_plan_id":"cebpf4jnsgd1na2vs0mg"},{"bike_id":"3a5232c5-cc45-44ea-84c3-d1e824e620d9","system_id":"levelo_inurba_marseille","lat":43.31992,"lon":5.38145,"is_reserved":false,"is_disabled":false,"rental_uris":{"android":"levelo://app?vid=3a5232c5-cc45-44ea-84c3-d1e824e620d9","ios":"levelo://app?vid=3a5232c5-cc45-44ea-84c3-d1e824e620d9"},"vehicle_type_id":"4","last_reported":1725995197,"current_range_meters":22800,"station_id":"ce4bhr12rcd13ifvqhpg","pricing_plan_id":"cebpf4jnsgd1na2vs0mg"},{"bike_id":"c4a11cd6-597d-4826-ad55-56b34d91dddb","system_id":"levelo_inurba_marseille","lat":43.24079,"lon":5.37765,"is_reserved":false,"is_disabled":false,"rental_uris":{"android":"levelo://app?vid=c4a11cd6-597d-4826-ad55-56b34d91dddb","ios":"levelo://app?vid=c4a11cd6-597d-4826-ad55-56b34d91dddb"},"vehicle_type_id":"4","last_reported":1725995197,"current_range_meters":16400,"station_id":"ce4bhnp2rcd13ifvqgvg","pricing_plan_id":"cebpf4jnsgd1na2vs0mg"},{"bike_id":"f1009423-44b9-46e0-916f-a90ebc93de0a","system_id":"levelo_inurba_marseille","lat":43.31679,"lon":5.37287,"is_reserved":false,"is_disabled":false,"rental_uris":{"android":"levelo://app?vid=f1009423-44b9-46e0-916f-a90ebc93de0a","ios":"levelo://app?vid=f1009423-44b9-46e0-916f-a90ebc93de0a"},"vehicle_type_id":"4","last_reported":1725995197,"current_range_meters":16800,"station_id":"","pricing_plan_id":"cebpf4jnsgd1na2vs0mg"},{"bike_id":"d479c876-2159-43b6-a8cf-685fded57ab7","system_id":"levelo_inurba_marseille","lat":43.32361,"lon":5.38884,"is_reserved":false,"is_disabled":false,"rental_uris":{"android":"levelo://app?vid=d479c876-2159-43b6-a8cf-685fded57ab7","ios":"levelo://app?vid=d479c876-2159-43b6-a8cf-685fded57ab7"},"vehicle_type_id":"4","last_reported":1725995197,"current_range_meters":8400,"station_id":"ce4bhqp2rcd13ifvqhog","pricing_plan_id":"cebpf4jnsgd1na2vs0mg"},{"bike_id":"b02406c7-9bcc-4f4f-b2a0-db482974a705","system_id":"levelo_inurba_marseille","lat":43.2318,"lon":5.39992,"is_reserved":false,"is_disabled":false,"rental_uris":{"android":"levelo://app?vid=b02406c7-9bcc-4f4f-b2a0-db482974a705","ios":"levelo://app?vid=b02406c7-9bcc-4f4f-b2a0-db482974a705"},"vehicle_type_id":"4","last_reported":1725995197,"current_range_meters":12000,"station_id":"ce4bhn12rcd13ifvqgqg","pricing_plan_id":"cebpf4jnsgd1na2vs0mg"},{"bike_id":"14fc9bbb-f22b-4912-b9d2-2625393ce311","system_id":"levelo_inurba_marseille","lat":43.28355,"lon":5.38099,"is_reserved":false,"is_disabled":false,"rental_uris":{"android":"levelo://app?vid=14fc9bbb-f22b-4912-b9d2-2625393ce311","ios":"levelo://app?vid=14fc9bbb-f22b-4912-b9d2-2625393ce311"},"vehicle_type_id":"4","last_reported":1725995197,"current_range_meters":27600,"station_id":"ce4bh412rcd13ifvqdr0","pricing_plan_id":"cebpf4jnsgd1na2vs0mg"},{"bike_id":"9aa5c77d-a7d3-487a-93fc-12a66b7bdc71","system_id":"levelo_inurba_marseille","lat":43.31271,"lon":5.40189,"is_reserved":false,"is_disabled":false,"rental_uris":{"android":"levelo://app?vid=9aa5c77d-a7d3-487a-93fc-12a66b7bdc71","ios":"levelo://app?vid=9aa5c77d-a7d3-487a-93fc-12a66b7bdc71"},"vehicle_type_id":"4","last_reported":1725995197,"current_range_meters":36400,"station_id":"ce4bh092rcd13ifvqd30","pricing_plan_id":"cebpf4jnsgd1na2vs0mg"},{"bike_id":"e792155d-cb5d-4785-88a9-7d1d0ec19e22","system_id":"levelo_inurba_marseille","lat":43.29284,"lon":5.40125,"is_reserved":false,"is_disabled":false,"rental_uris":{"android":"levelo://app?vid=e792155d-cb5d-4785-88a9-7d1d0ec19e22","ios":"levelo://app?vid=e792155d-cb5d-4785-88a9-7d1d0ec19e22"},"vehicle_type_id":"4","last_reported":1725995197,"current_range_meters":26000,"station_id":"ce4bh312rcd13ifvqdk0","pricing_plan_id":"cebpf4jnsgd1na2vs0mg"},{"bike_id":"3895b95b-924e-432d-9eea-309107541e04","system_id":"levelo_inurba_marseille","lat":43.3018,"lon":5.36624,"is_reserved":false,"is_disabled":false,"rental_uris":{"android":"levelo://app?vid=3895b95b-924e-432d-9eea-309107541e04","ios":"levelo://app?vid=3895b95b-924e-432d-9eea-309107541e04"},"vehicle_type_id":"4","last_reported":1725995197,"current_range_meters":38800,"station_id":"ce4bgrh2rcd13ifvqc8g","pricing_plan_id":"cebpf4jnsgd1na2vs0mg"},{"bike_id":"9ab5287d-e0da-4d85-a4c5-9ff97a78a028","system_id":"levelo_inurba_marseille","lat":43.25489,"lon":5.37649,"is_reserved":false,"is_disabled":false,"rental_uris":{"android":"levelo://app?vid=9ab5287d-e0da-4d85-a4c5-9ff97a78a028","ios":"levelo://app?vid=9ab5287d-e0da-4d85-a4c5-9ff97a78a028"},"vehicle_type_id":"4","last_reported":1725995197,"current_range_meters":30800,"station_id":"ce4bhh12rcd13ifvqff0","pricing_plan_id":"cebpf4jnsgd1na2vs0mg"},{"bike_id":"1d00f456-29e2-49b2-9294-a5f94b5ed527","system_id":"levelo_inurba_marseille","lat":43.25719,"lon":5.41116,"is_reserved":false,"is_disabled":false,"rental_uris":{"android":"levelo://app?vid=1d00f456-29e2-49b2-9294-a5f94b5ed527","ios":"levelo://app?vid=1d00f456-29e2-49b2-9294-a5f94b5ed527"},"vehicle_type_id":"4","last_reported":1725995197,"current_range_meters":7200,"station_id":"ce4bhkp2rcd13ifvqgd0","pricing_plan_id":"cebpf4jnsgd1na2vs0mg"},{"bike_id":"4b740380-435b-4ce9-9b96-3da5fb37bac6","system_id":"levelo_inurba_marseille","lat":43.30954,"lon":5.40067,"is_reserved":false,"is_disabled":false,"rental_uris":{"android":"levelo://app?vid=4b740380-435b-4ce9-9b96-3da5fb37bac6","ios":"levelo://app?vid=4b740380-435b-4ce9-9b96-3da5fb37bac6"},"vehicle_type_id":"4","last_reported":1725995197,"current_range_meters":11600,"station_id":"ce4bhpp2rcd13ifvqhgg","pricing_plan_id":"cebpf4jnsgd1na2vs0mg"},{"bike_id":"7b2b6aa9-d9ad-475c-a16f-abdf3eec6d77","system_id":"levelo_inurba_marseille","lat":43.2293,"lon":5.35379,"is_reserved":false,"is_disabled":false,"rental_uris":{"android":"levelo://app?vid=7b2b6aa9-d9ad-475c-a16f-abdf3eec6d77","ios":"levelo://app?vid=7b2b6aa9-d9ad-475c-a16f-abdf3eec6d77"},"vehicle_type_id":"4","last_reported":1725995197,"current_range_meters":20400,"station_id":"cpo3532slgdg3j2ikp40","pricing_plan_id":"cebpf4jnsgd1na2vs0mg"},{"bike_id":"2c8e647e-6645-4fce-b27e-a37e68dfb606","system_id":"levelo_inurba_marseille","lat":43.31327,"lon":5.39699,"is_reserved":false,"is_disabled":false,"rental_uris":{"android":"levelo://app?vid=2c8e647e-6645-4fce-b27e-a37e68dfb606","ios":"levelo://app?vid=2c8e647e-6645-4fce-b27e-a37e68dfb606"},"vehicle_type_id":"4","last_reported":1725995197,"current_range_meters":38800,"station_id":"ce4bgvp2rcd13ifvqcu0","pricing_plan_id":"cebpf4jnsgd1na2vs0mg"},{"bike_id":"75b3914e-5ac8-47d0-b6b3-7313ce4577a7","system_id":"levelo_inurba_marseille","lat":43.29876,"lon":5.38911,"is_reserved":false,"is_disabled":false,"rental_uris":{"android":"levelo://app?vid=75b3914e-5ac8-47d0-b6b3-7313ce4577a7","ios":"levelo://app?vid=75b3914e-5ac8-47d0-b6b3-7313ce4577a7"},"vehicle_type_id":"4","last_reported":1725995197,"current_range_meters":4000,"station_id":"ce4bh392rcd13ifvqdl0","pricing_plan_id":"cebpf4jnsgd1na2vs0mg"},{"bike_id":"7f4ea667-56df-4b26-bd46-3e71bc3cc245","system_id":"levelo_inurba_marseille","lat":43.29315,"lon":5.35571,"is_reserved":false,"is_disabled":false,"rental_uris":{"android":"levelo://app?vid=7f4ea667-56df-4b26-bd46-3e71bc3cc245","ios":"levelo://app?vid=7f4ea667-56df-4b26-bd46-3e71bc3cc245"},"vehicle_type_id":"4","last_reported":1725995197,"current_range_meters":7200,"station_id":"","pricing_plan_id":"cebpf4jnsgd1na2vs0mg"},{"bike_id":"3b163329-75e0-42ce-a395-e2936b5dfbec","system_id":"levelo_inurba_marseille","lat":43.2956,"lon":5.42288,"is_reserved":false,"is_disabled":false,"rental_uris":{"android":"levelo://app?vid=3b163329-75e0-42ce-a395-e2936b5dfbec","ios":"levelo://app?vid=3b163329-75e0-42ce-a395-e2936b5dfbec"},"vehicle_type_id":"4","last_reported":1725995197,"current_range_meters":17200,"station_id":"ce4bhph2rcd13ifvqhdg","pricing_plan_id":"cebpf4jnsgd1na2vs0mg"},{"bike_id":"d3c8ea6e-d01d-4d9e-9557-beffc1884ace","system_id":"levelo_inurba_marseille","lat":43.32288,"lon":5.38283,"is_reserved":false,"is_disabled":false,"rental_uris":{"android":"levelo://app?vid=d3c8ea6e-d01d-4d9e-9557-beffc1884ace","ios":"levelo://app?vid=d3c8ea6e-d01d-4d9e-9557-beffc1884ace"},"vehicle_type_id":"4","last_reported":1725995197,"current_range_meters":38800,"station_id":"ce4bhr12rcd13ifvqhqg","pricing_plan_id":"cebpf4jnsgd1na2vs0mg"},{"bike_id":"cfb098b2-f720-45cf-99d5-8f4e0433b873","system_id":"levelo_inurba_marseille","lat":43.24541,"lon":5.39529,"is_reserved":false,"is_disabled":false,"rental_uris":{"android":"levelo://app?vid=cfb098b2-f720-45cf-99d5-8f4e0433b873","ios":"levelo://app?vid=cfb098b2-f720-45cf-99d5-8f4e0433b873"},"vehicle_type_id":"4","last_reported":1725995197,"current_range_meters":21600,"station_id":"ce4bhlp2rcd13ifvqgjg","pricing_plan_id":"cebpf4jnsgd1na2vs0mg"},{"bike_id":"74144048-6a3e-478d-be5d-781ca9700498","system_id":"levelo_inurba_marseille","lat":43.31329,"lon":5.39698,"is_reserved":false,"is_disabled":false,"rental_uris":{"android":"levelo://app?vid=74144048-6a3e-478d-be5d-781ca9700498","ios":"levelo://app?vid=74144048-6a3e-478d-be5d-781ca9700498"},"vehicle_type_id":"4","last_reported":1725995197,"current_range_meters":28000,"station_id":"ce4bgvp2rcd13ifvqcu0","pricing_plan_id":"cebpf4jnsgd1na2vs0mg"},{"bike_id":"507f99d3-0b82-4a35-89e2-98eb58769a71","system_id":"levelo_inurba_marseille","lat":43.23192,"lon":5.35549,"is_reserved":false,"is_disabled":false,"rental_uris":{"android":"levelo://app?vid=507f99d3-0b82-4a35-89e2-98eb58769a71","ios":"levelo://app?vid=507f99d3-0b82-4a35-89e2-98eb58769a71"},"vehicle_type_id":"4","last_reported":1725995197,"current_range_meters":16000,"station_id":"ce4bhu92rcd13ifvqi70","pricing_plan_id":"cebpf4jnsgd1na2vs0mg"},{"bike_id":"55655b5f-2417-4cb9-a662-d6cecf83fcf4","system_id":"levelo_inurba_marseille","lat":43.31072,"lon":5.38124,"is_reserved":false,"is_disabled":false,"rental_uris":{"android":"levelo://app?vid=55655b5f-2417-4cb9-a662-d6cecf83fcf4","ios":"levelo://app?vid=55655b5f-2417-4cb9-a662-d6cecf83fcf4"},"vehicle_type_id":"4","last_reported":1725995197,"current_range_meters":22400,"station_id":"","pricing_plan_id":"cebpf4jnsgd1na2vs0mg"},{"bike_id":"5e843dc4-fd78-4c0f-9aa0-84d8dbd520d9","system_id":"levelo_inurba_marseille","lat":43.29787,"lon":5.3934,"is_reserved":false,"is_disabled":false,"rental_uris":{"android":"levelo://app?vid=5e843dc4-fd78-4c0f-9aa0-84d8dbd520d9","ios":"levelo://app?vid=5e843dc4-fd78-4c0f-9aa0-84d8dbd520d9"},"vehicle_type_id":"4","last_reported":1725995197,"current_range_meters":6000,"station_id":"chh1huq6cuj3fo74tm60","pricing_plan_id":"cebpf4jnsgd1na2vs0mg"},{"bike_id":"24ea4db4-bcd3-4773-a10c-e0451f1c0df9","system_id":"levelo_inurba_marseille","lat":43.2803,"lon":5.3695,"is_reserved":false,"is_disabled":false,"rental_uris":{"android":"levelo://app?vid=24ea4db4-bcd3-4773-a10c-e0451f1c0df9","ios":"levelo://app?vid=24ea4db4-bcd3-4773-a10c-e0451f1c0df9"},"vehicle_type_id":"4","last_reported":1725995197,"current_range_meters":37600,"station_id":"ce4bha12rcd13ifvqef0","pricing_plan_id":"cebpf4jnsgd1na2vs0mg"},{"bike_id":"dfbae819-e8ca-42e9-9be3-b0e73faae865","system_id":"levelo_inurba_marseille","lat":43.288536,"lon":5.358448,"is_reserved":false,"is_disabled":false,"rental_uris":{"android":"levelo://app?vid=dfbae819-e8ca-42e9-9be3-b0e73faae865","ios":"levelo://app?vid=dfbae819-e8ca-42e9-9be3-b0e73faae865"},"vehicle_type_id":"4","last_reported":1725995197,"current_range_meters":33600,"station_id":"ce4bhb12rcd13ifvqem0","pricing_plan_id":"cebpf4jnsgd1na2vs0mg"},{"bike_id":"36e02e03-11f3-41ac-9b0f-93c4017adc48","system_id":"levelo_inurba_marseille","lat":43.27355,"lon":5.41602,"is_reserved":false,"is_disabled":false,"rental_uris":{"android":"levelo://app?vid=36e02e03-11f3-41ac-9b0f-93c4017adc48","ios":"levelo://app?vid=36e02e03-11f3-41ac-9b0f-93c4017adc48"},"vehicle_type_id":"4","last_reported":1725995197,"current_range_meters":5600,"station_id":"","pricing_plan_id":"cebpf4jnsgd1na2vs0mg"},{"bike_id":"fc1155b4-c230-4be8-a630-1fbbd7c3bd7a","system_id":"levelo_inurba_marseille","lat":43.31324,"lon":5.39686,"is_reserved":false,"is_disabled":false,"rental_uris":{"android":"levelo://app?vid=fc1155b4-c230-4be8-a630-1fbbd7c3bd7a","ios":"levelo://app?vid=fc1155b4-c230-4be8-a630-1fbbd7c3bd7a"},"vehicle_type_id":"4","last_reported":1725995197,"current_range_meters":14000,"station_id":"ce4bgvp2rcd13ifvqcu0","pricing_plan_id":"cebpf4jnsgd1na2vs0mg"},{"bike_id":"36973a74-dcb5-42a3-b6ab-222146836943","system_id":"levelo_inurba_marseille","lat":43.3175,"lon":5.3903,"is_reserved":false,"is_disabled":false,"rental_uris":{"android":"levelo://app?vid=36973a74-dcb5-42a3-b6ab-222146836943","ios":"levelo://app?vid=36973a74-dcb5-42a3-b6ab-222146836943"},"vehicle_type_id":"4","last_reported":1725995197,"current_range_meters":17600,"station_id":"ce4bhqp2rcd13ifvqhng","pricing_plan_id":"cebpf4jnsgd1na2vs0mg"},{"bike_id":"4eff876a-60f1-458a-a289-6e7a54b9bcc3","system_id":"levelo_inurba_marseille","lat":43.25723,"lon":5.41121,"is_reserved":false,"is_disabled":false,"rental_uris":{"android":"levelo://app?vid=4eff876a-60f1-458a-a289-6e7a54b9bcc3","ios":"levelo://app?vid=4eff876a-60f1-458a-a289-6e7a54b9bcc3"},"vehicle_type_id":"4","last_reported":1725995197,"current_range_meters":9200,"station_id":"ce4bhkp2rcd13ifvqgd0","pricing_plan_id":"cebpf4jnsgd1na2vs0mg"},{"bike_id":"d80dc13b-dd7d-497f-be87-d8c074c3960b","system_id":"levelo_inurba_marseille","lat":43.2992,"lon":5.37464,"is_reserved":false,"is_disabled":false,"rental_uris":{"android":"levelo://app?vid=d80dc13b-dd7d-497f-be87-d8c074c3960b","ios":"levelo://app?vid=d80dc13b-dd7d-497f-be87-d8c074c3960b"},"vehicle_type_id":"4","last_reported":1725995197,"current_range_meters":7200,"station_id":"ce4bgjh2rcd13ifvqbg0","pricing_plan_id":"cebpf4jnsgd1na2vs0mg"},{"bike_id":"1cf81c2f-671c-4b19-bbae-77dec69dac17","system_id":"levelo_inurba_marseille","lat":43.25495,"lon":5.37651,"is_reserved":false,"is_disabled":false,"rental_uris":{"android":"levelo://app?vid=1cf81c2f-671c-4b19-bbae-77dec69dac17","ios":"levelo://app?vid=1cf81c2f-671c-4b19-bbae-77dec69dac17"},"vehicle_type_id":"4","last_reported":1725995197,"current_range_meters":8000,"station_id":"ce4bhh12rcd13ifvqff0","pricing_plan_id":"cebpf4jnsgd1na2vs0mg"},{"bike_id":"9042a679-e579-498b-bc4f-3859be122eff","system_id":"levelo_inurba_marseille","lat":43.31757,"lon":5.39019,"is_reserved":false,"is_disabled":false,"rental_uris":{"android":"levelo://app?vid=9042a679-e579-498b-bc4f-3859be122eff","ios":"levelo://app?vid=9042a679-e579-498b-bc4f-3859be122eff"},"vehicle_type_id":"4","last_reported":1725995197,"current_range_meters":6800,"station_id":"ce4bhqp2rcd13ifvqhng","pricing_plan_id":"cebpf4jnsgd1na2vs0mg"},{"bike_id":"b24bcaac-1ebb-42e7-886a-a6b3b2b9eba8","system_id":"levelo_inurba_marseille","lat":43.28457,"lon":5.35886,"is_reserved":false,"is_disabled":false,"rental_uris":{"android":"levelo://app?vid=b24bcaac-1ebb-42e7-886a-a6b3b2b9eba8","ios":"levelo://app?vid=b24bcaac-1ebb-42e7-886a-a6b3b2b9eba8"},"vehicle_type_id":"4","last_reported":1725995197,"current_range_meters":28400,"station_id":"ce4bhah2rcd13ifvqei0","pricing_plan_id":"cebpf4jnsgd1na2vs0mg"},{"bike_id":"c8556cf0-f832-42b6-92cc-1120f0bf955c","system_id":"levelo_inurba_marseille","lat":43.31774,"lon":5.39006,"is_reserved":false,"is_disabled":false,"rental_uris":{"android":"levelo://app?vid=c8556cf0-f832-42b6-92cc-1120f0bf955c","ios":"levelo://app?vid=c8556cf0-f832-42b6-92cc-1120f0bf955c"},"vehicle_type_id":"4","last_reported":1725995197,"current_range_meters":33200,"station_id":"ce4bhqp2rcd13ifvqhng","pricing_plan_id":"cebpf4jnsgd1na2vs0mg"},{"bike_id":"77ab920c-1d57-456b-ac36-55ea7ed82466","system_id":"levelo_inurba_marseille","lat":43.29529,"lon":5.38538,"is_reserved":false,"is_disabled":false,"rental_uris":{"android":"levelo://app?vid=77ab920c-1d57-456b-ac36-55ea7ed82466","ios":"levelo://app?vid=77ab920c-1d57-456b-ac36-55ea7ed82466"},"vehicle_type_id":"4","last_reported":1725995197,"current_range_meters":2800,"station_id":"ce4bgih2rcd13ifvqba0","pricing_plan_id":"cebpf4jnsgd1na2vs0mg"},{"bike_id":"3e19fdcf-8be6-4203-9849-cf520cf0676a","system_id":"levelo_inurba_marseille","lat":43.2737,"lon":5.36258,"is_reserved":false,"is_disabled":false,"rental_uris":{"android":"levelo://app?vid=3e19fdcf-8be6-4203-9849-cf520cf0676a","ios":"levelo://app?vid=3e19fdcf-8be6-4203-9849-cf520cf0676a"},"vehicle_type_id":"4","last_reported":1725995197,"current_range_meters":35200,"station_id":"ce4bhbh2rcd13ifvqeo0","pricing_plan_id":"cebpf4jnsgd1na2vs0mg"},{"bike_id":"5876c5ef-9fac-478d-bd3c-ea1780c21005","system_id":"levelo_inurba_marseille","lat":43.33762,"lon":5.3745,"is_reserved":false,"is_disabled":false,"rental_uris":{"android":"levelo://app?vid=5876c5ef-9fac-478d-bd3c-ea1780c21005","ios":"levelo://app?vid=5876c5ef-9fac-478d-bd3c-ea1780c21005"},"vehicle_type_id":"4","last_reported":1725995197,"current_range_meters":35600,"station_id":"","pricing_plan_id":"cebpf4jnsgd1na2vs0mg"},{"bike_id":"3ef293cb-6b10-47c2-a61b-1c747b67c2aa","system_id":"levelo_inurba_marseille","lat":43.22931,"lon":5.35376,"is_reserved":false,"is_disabled":false,"rental_uris":{"android":"levelo://app?vid=3ef293cb-6b10-47c2-a61b-1c747b67c2aa","ios":"levelo://app?vid=3ef293cb-6b10-47c2-a61b-1c747b67c2aa"},"vehicle_type_id":"4","last_reported":1725995197,"current_range_meters":4000,"station_id":"cpo3532slgdg3j2ikp40","pricing_plan_id":"cebpf4jnsgd1na2vs0mg"},{"bike_id":"43559d33-99c1-4b34-831e-93b9edebace0","system_id":"levelo_inurba_marseille","lat":43.26942,"lon":5.40254,"is_reserved":false,"is_disabled":false,"rental_uris":{"android":"levelo://app?vid=43559d33-99c1-4b34-831e-93b9edebace0","ios":"levelo://app?vid=43559d33-99c1-4b34-831e-93b9edebace0"},"vehicle_type_id":"4","last_reported":1725995197,"current_range_meters":4000,"station_id":"cjm6bp8fraef2m0cb0m0","pricing_plan_id":"cebpf4jnsgd1na2vs0mg"},{"bike_id":"d5c53333-dd69-4b2f-a037-ed0f3852cc1d","system_id":"levelo_inurba_marseille","lat":43.295838,"lon":5.375065,"is_reserved":false,"is_disabled":false,"rental_uris":{"android":"levelo://app?vid=d5c53333-dd69-4b2f-a037-ed0f3852cc1d","ios":"levelo://app?vid=d5c53333-dd69-4b2f-a037-ed0f3852cc1d"},"vehicle_type_id":"4","last_reported":1725995197,"current_range_meters":8800,"station_id":"ce4bgh92rcd13ifvqb50","pricing_plan_id":"cebpf4jnsgd1na2vs0mg"},{"bike_id":"b7f56822-95c8-4dc1-b9bb-2d1bde6894b9","system_id":"levelo_inurba_marseille","lat":43.302313,"lon":5.400191,"is_reserved":false,"is_disabled":false,"rental_uris":{"android":"levelo://app?vid=b7f56822-95c8-4dc1-b9bb-2d1bde6894b9","ios":"levelo://app?vid=b7f56822-95c8-4dc1-b9bb-2d1bde6894b9"},"vehicle_type_id":"4","last_reported":1725995197,"current_range_meters":18000,"station_id":"ce4bgvh2rcd13ifvqcs0","pricing_plan_id":"cebpf4jnsgd1na2vs0mg"},{"bike_id":"405e8edd-7999-444c-8afe-b2f58efca2a7","system_id":"levelo_inurba_marseille","lat":43.30879,"lon":5.39658,"is_reserved":false,"is_disabled":false,"rental_uris":{"android":"levelo://app?vid=405e8edd-7999-444c-8afe-b2f58efca2a7","ios":"levelo://app?vid=405e8edd-7999-444c-8afe-b2f58efca2a7"},"vehicle_type_id":"4","last_reported":1725995197,"current_range_meters":3200,"station_id":"ce4bh012rcd13ifvqcv0","pricing_plan_id":"cebpf4jnsgd1na2vs0mg"},{"bike_id":"e95f64bd-9364-4406-8d8c-4e1320175930","system_id":"levelo_inurba_marseille","lat":43.3234,"lon":5.40628,"is_reserved":false,"is_disabled":false,"rental_uris":{"android":"levelo://app?vid=e95f64bd-9364-4406-8d8c-4e1320175930","ios":"levelo://app?vid=e95f64bd-9364-4406-8d8c-4e1320175930"},"vehicle_type_id":"4","last_reported":1725995197,"current_range_meters":14000,"station_id":"ce4bhq92rcd13ifvqhjg","pricing_plan_id":"cebpf4jnsgd1na2vs0mg"},{"bike_id":"7abb3655-b461-4e13-bc97-8c353f282d6b","system_id":"levelo_inurba_marseille","lat":43.23182,"lon":5.39984,"is_reserved":false,"is_disabled":false,"rental_uris":{"android":"levelo://app?vid=7abb3655-b461-4e13-bc97-8c353f282d6b","ios":"levelo://app?vid=7abb3655-b461-4e13-bc97-8c353f282d6b"},"vehicle_type_id":"4","last_reported":1725995197,"current_range_meters":9200,"station_id":"ce4bhn12rcd13ifvqgqg","pricing_plan_id":"cebpf4jnsgd1na2vs0mg"},{"bike_id":"3f48e559-de96-42ea-88b9-925d9064e054","system_id":"levelo_inurba_marseille","lat":43.31366,"lon":5.38507,"is_reserved":false,"is_disabled":false,"rental_uris":{"android":"levelo://app?vid=3f48e559-de96-42ea-88b9-925d9064e054","ios":"levelo://app?vid=3f48e559-de96-42ea-88b9-925d9064e054"},"vehicle_type_id":"4","last_reported":1725995197,"current_range_meters":11200,"station_id":"ce4bgt92rcd13ifvqcf0","pricing_plan_id":"cebpf4jnsgd1na2vs0mg"},{"bike_id":"26c352a5-b680-412a-98a4-308ac0d8c2a8","system_id":"levelo_inurba_marseille","lat":43.2952,"lon":5.38544,"is_reserved":false,"is_disabled":false,"rental_uris":{"android":"levelo://app?vid=26c352a5-b680-412a-98a4-308ac0d8c2a8","ios":"levelo://app?vid=26c352a5-b680-412a-98a4-308ac0d8c2a8"},"vehicle_type_id":"4","last_reported":1725995197,"current_range_meters":9200,"station_id":"ce4bgih2rcd13ifvqba0","pricing_plan_id":"cebpf4jnsgd1na2vs0mg"},{"bike_id":"68dc6504-dcfb-40b4-8b14-eaf2aae2d339","system_id":"levelo_inurba_marseille","lat":43.25719,"lon":5.41115,"is_reserved":false,"is_disabled":false,"rental_uris":{"android":"levelo://app?vid=68dc6504-dcfb-40b4-8b14-eaf2aae2d339","ios":"levelo://app?vid=68dc6504-dcfb-40b4-8b14-eaf2aae2d339"},"vehicle_type_id":"4","last_reported":1725995197,"current_range_meters":3200,"station_id":"ce4bhkp2rcd13ifvqgd0","pricing_plan_id":"cebpf4jnsgd1na2vs0mg"},{"bike_id":"b775f4ed-9e65-40d2-91db-5995fd82eacd","system_id":"levelo_inurba_marseille","lat":43.305035,"lon":5.398686,"is_reserved":false,"is_disabled":false,"rental_uris":{"android":"levelo://app?vid=b775f4ed-9e65-40d2-91db-5995fd82eacd","ios":"levelo://app?vid=b775f4ed-9e65-40d2-91db-5995fd82eacd"},"vehicle_type_id":"4","last_reported":1725995197,"current_range_meters":11200,"station_id":"ce4bh112rcd13ifvqda0","pricing_plan_id":"cebpf4jnsgd1na2vs0mg"},{"bike_id":"08819695-2021-44db-83ff-ae31b6b9ffcc","system_id":"levelo_inurba_marseille","lat":43.25083,"lon":5.39525,"is_reserved":false,"is_disabled":false,"rental_uris":{"android":"levelo://app?vid=08819695-2021-44db-83ff-ae31b6b9ffcc","ios":"levelo://app?vid=08819695-2021-44db-83ff-ae31b6b9ffcc"},"vehicle_type_id":"4","last_reported":1725995197,"current_range_meters":36800,"station_id":"ce4bhm12rcd13ifvqgkg","pricing_plan_id":"cebpf4jnsgd1na2vs0mg"},{"bike_id":"71838b37-015c-4d79-ae8e-44f46d21d5c8","system_id":"levelo_inurba_marseille","lat":43.297893,"lon":5.380965,"is_reserved":false,"is_disabled":false,"rental_uris":{"android":"levelo://app?vid=71838b37-015c-4d79-ae8e-44f46d21d5c8","ios":"levelo://app?vid=71838b37-015c-4d79-ae8e-44f46d21d5c8"},"vehicle_type_id":"4","last_reported":1725995197,"current_range_meters":32400,"station_id":"ce4bgip2rcd13ifvqbb0","pricing_plan_id":"cebpf4jnsgd1na2vs0mg"},{"bike_id":"1521b4ae-17fe-4645-8a4f-770749f352aa","system_id":"levelo_inurba_marseille","lat":43.29295,"lon":5.37463,"is_reserved":false,"is_disabled":false,"rental_uris":{"android":"levelo://app?vid=1521b4ae-17fe-4645-8a4f-770749f352aa","ios":"levelo://app?vid=1521b4ae-17fe-4645-8a4f-770749f352aa"},"vehicle_type_id":"4","last_reported":1725995197,"current_range_meters":3200,"station_id":"ce4bgi12rcd13ifvqb70","pricing_plan_id":"cebpf4jnsgd1na2vs0mg"},{"bike_id":"37d0f6c3-68ae-4494-bd8b-5c0ac7082639","system_id":"levelo_inurba_marseille","lat":43.295986,"lon":5.381003,"is_reserved":false,"is_disabled":false,"rental_uris":{"android":"levelo://app?vid=37d0f6c3-68ae-4494-bd8b-5c0ac7082639","ios":"levelo://app?vid=37d0f6c3-68ae-4494-bd8b-5c0ac7082639"},"vehicle_type_id":"4","last_reported":1725995197,"current_range_meters":4400,"station_id":"ce4bgl12rcd13ifvqbo0","pricing_plan_id":"cebpf4jnsgd1na2vs0mg"},{"bike_id":"3f2c3201-e6af-4cbf-9578-c0bb9a2b0bd9","system_id":"levelo_inurba_marseille","lat":43.25501,"lon":5.37649,"is_reserved":false,"is_disabled":false,"rental_uris":{"android":"levelo://app?vid=3f2c3201-e6af-4cbf-9578-c0bb9a2b0bd9","ios":"levelo://app?vid=3f2c3201-e6af-4cbf-9578-c0bb9a2b0bd9"},"vehicle_type_id":"4","last_reported":1725995197,"current_range_meters":35200,"station_id":"ce4bhh12rcd13ifvqff0","pricing_plan_id":"cebpf4jnsgd1na2vs0mg"},{"bike_id":"a2a39fbf-e7de-436e-9b01-8478bf6db33a","system_id":"levelo_inurba_marseille","lat":43.27618,"lon":5.3612,"is_reserved":false,"is_disabled":false,"rental_uris":{"android":"levelo://app?vid=a2a39fbf-e7de-436e-9b01-8478bf6db33a","ios":"levelo://app?vid=a2a39fbf-e7de-436e-9b01-8478bf6db33a"},"vehicle_type_id":"4","last_reported":1725995197,"current_range_meters":36400,"station_id":"ce4bgj92rcd13ifvqbe0","pricing_plan_id":"cebpf4jnsgd1na2vs0mg"},{"bike_id":"1bc6d034-1c4e-4b81-95f7-9274b014bd03","system_id":"levelo_inurba_marseille","lat":43.28462,"lon":5.35897,"is_reserved":false,"is_disabled":false,"rental_uris":{"android":"levelo://app?vid=1bc6d034-1c4e-4b81-95f7-9274b014bd03","ios":"levelo://app?vid=1bc6d034-1c4e-4b81-95f7-9274b014bd03"},"vehicle_type_id":"4","last_reported":1725995197,"current_range_meters":33200,"station_id":"ce4bhah2rcd13ifvqei0","pricing_plan_id":"cebpf4jnsgd1na2vs0mg"},{"bike_id":"0c3d06b2-85c9-4633-81d3-693da38824b9","system_id":"levelo_inurba_marseille","lat":43.30308,"lon":5.36893,"is_reserved":false,"is_disabled":false,"rental_uris":{"android":"levelo://app?vid=0c3d06b2-85c9-4633-81d3-693da38824b9","ios":"levelo://app?vid=0c3d06b2-85c9-4633-81d3-693da38824b9"},"vehicle_type_id":"4","last_reported":1725995197,"current_range_meters":36800,"station_id":"ce4bgqh2rcd13ifvqc5g","pricing_plan_id":"cebpf4jnsgd1na2vs0mg"},{"bike_id":"93c873f6-a48c-4eb1-938c-03e72d8e1add","system_id":"levelo_inurba_marseille","lat":43.30083,"lon":5.41509,"is_reserved":false,"is_disabled":false,"rental_uris":{"android":"levelo://app?vid=93c873f6-a48c-4eb1-938c-03e72d8e1add","ios":"levelo://app?vid=93c873f6-a48c-4eb1-938c-03e72d8e1add"},"vehicle_type_id":"4","last_reported":1725995197,"current_range_meters":26800,"station_id":"ce4bh0h2rcd13ifvqd60","pricing_plan_id":"cebpf4jnsgd1na2vs0mg"},{"bike_id":"3b7270cb-7a26-4dee-a67f-5e421dbb6a6b","system_id":"levelo_inurba_marseille","lat":43.30585,"lon":5.39356,"is_reserved":false,"is_disabled":false,"rental_uris":{"android":"levelo://app?vid=3b7270cb-7a26-4dee-a67f-5e421dbb6a6b","ios":"levelo://app?vid=3b7270cb-7a26-4dee-a67f-5e421dbb6a6b"},"vehicle_type_id":"4","last_reported":1725995197,"current_range_meters":12400,"station_id":"ce4bh0p2rcd13ifvqd80","pricing_plan_id":"cebpf4jnsgd1na2vs0mg"},{"bike_id":"c25508be-a553-4e86-b959-6cf74594e042","system_id":"levelo_inurba_marseille","lat":43.31173,"lon":5.38725,"is_reserved":false,"is_disabled":false,"rental_uris":{"android":"levelo://app?vid=c25508be-a553-4e86-b959-6cf74594e042","ios":"levelo://app?vid=c25508be-a553-4e86-b959-6cf74594e042"},"vehicle_type_id":"4","last_reported":1725995197,"current_range_meters":13600,"station_id":"ce4bgv12rcd13ifvqcp0","pricing_plan_id":"cebpf4jnsgd1na2vs0mg"},{"bike_id":"c8e0fcb6-1d3f-4d83-b861-1f56e6b3ab2c","system_id":"levelo_inurba_marseille","lat":43.32291,"lon":5.38269,"is_reserved":false,"is_disabled":false,"rental_uris":{"android":"levelo://app?vid=c8e0fcb6-1d3f-4d83-b861-1f56e6b3ab2c","ios":"levelo://app?vid=c8e0fcb6-1d3f-4d83-b861-1f56e6b3ab2c"},"vehicle_type_id":"4","last_reported":1725995197,"current_range_meters":35200,"station_id":"ce4bhr12rcd13ifvqhqg","pricing_plan_id":"cebpf4jnsgd1na2vs0mg"},{"bike_id":"5ea32702-287c-433b-8574-a7d5d5c7827f","system_id":"levelo_inurba_marseille","lat":43.28153,"lon":5.42651,"is_reserved":false,"is_disabled":false,"rental_uris":{"android":"levelo://app?vid=5ea32702-287c-433b-8574-a7d5d5c7827f","ios":"levelo://app?vid=5ea32702-287c-433b-8574-a7d5d5c7827f"},"vehicle_type_id":"4","last_reported":1725995197,"current_range_meters":4800,"station_id":"ce4bhnh2rcd13ifvqgug","pricing_plan_id":"cebpf4jnsgd1na2vs0mg"},{"bike_id":"dc218077-9636-4a54-b04d-739064ce3bd9","system_id":"levelo_inurba_marseille","lat":43.2902,"lon":5.38654,"is_reserved":false,"is_disabled":false,"rental_uris":{"android":"levelo://app?vid=dc218077-9636-4a54-b04d-739064ce3bd9","ios":"levelo://app?vid=dc218077-9636-4a54-b04d-739064ce3bd9"},"vehicle_type_id":"4","last_reported":1725995197,"current_range_meters":25600,"station_id":"ce4bh4p2rcd13ifvqe0g","pricing_plan_id":"cebpf4jnsgd1na2vs0mg"},{"bike_id":"39806dd9-f545-4f8c-8fa0-eaeb144456ea","system_id":"levelo_inurba_marseille","lat":43.30096,"lon":5.39078,"is_reserved":false,"is_disabled":false,"rental_uris":{"android":"levelo://app?vid=39806dd9-f545-4f8c-8fa0-eaeb144456ea","ios":"levelo://app?vid=39806dd9-f545-4f8c-8fa0-eaeb144456ea"},"vehicle_type_id":"4","last_reported":1725995197,"current_range_meters":38800,"station_id":"ce4bh192rcd13ifvqdb0","pricing_plan_id":"cebpf4jnsgd1na2vs0mg"},{"bike_id":"1c8e1a74-2dc0-4eca-b3cd-b7784501839c","system_id":"levelo_inurba_marseille","lat":43.31223,"lon":5.36853,"is_reserved":false,"is_disabled":false,"rental_uris":{"android":"levelo://app?vid=1c8e1a74-2dc0-4eca-b3cd-b7784501839c","ios":"levelo://app?vid=1c8e1a74-2dc0-4eca-b3cd-b7784501839c"},"vehicle_type_id":"4","last_reported":1725995197,"current_range_meters":14400,"station_id":"ce4bgl92rcd13ifvqbq0","pricing_plan_id":"cebpf4jnsgd1na2vs0mg"},{"bike_id":"fde8b686-25f1-4cb6-9b02-191c4abffffc","system_id":"levelo_inurba_marseille","lat":43.324838,"lon":5.40703,"is_reserved":false,"is_disabled":false,"rental_uris":{"android":"levelo://app?vid=fde8b686-25f1-4cb6-9b02-191c4abffffc","ios":"levelo://app?vid=fde8b686-25f1-4cb6-9b02-191c4abffffc"},"vehicle_type_id":"4","last_reported":1725995197,"current_range_meters":16800,"station_id":"ce4bhq92rcd13ifvqhjg","pricing_plan_id":"cebpf4jnsgd1na2vs0mg"},{"bike_id":"f2f6feac-8b59-4aaa-b926-f92cf17edfc4","system_id":"levelo_inurba_marseille","lat":43.25715,"lon":5.41114,"is_reserved":false,"is_disabled":false,"rental_uris":{"android":"levelo://app?vid=f2f6feac-8b59-4aaa-b926-f92cf17edfc4","ios":"levelo://app?vid=f2f6feac-8b59-4aaa-b926-f92cf17edfc4"},"vehicle_type_id":"4","last_reported":1725995197,"current_range_meters":31200,"station_id":"ce4bhkp2rcd13ifvqgd0","pricing_plan_id":"cebpf4jnsgd1na2vs0mg"},{"bike_id":"ece76e06-6449-463e-b543-f320bd8a06af","system_id":"levelo_inurba_marseille","lat":43.31246,"lon":5.396348,"is_reserved":false,"is_disabled":false,"rental_uris":{"android":"levelo://app?vid=ece76e06-6449-463e-b543-f320bd8a06af","ios":"levelo://app?vid=ece76e06-6449-463e-b543-f320bd8a06af"},"vehicle_type_id":"4","last_reported":1725995197,"current_range_meters":3200,"station_id":"ce4bgvp2rcd13ifvqcu0","pricing_plan_id":"cebpf4jnsgd1na2vs0mg"},{"bike_id":"574f1e42-3507-45d3-a5e4-0597e588896b","system_id":"levelo_inurba_marseille","lat":43.292673,"lon":5.408841,"is_reserved":false,"is_disabled":false,"rental_uris":{"android":"levelo://app?vid=574f1e42-3507-45d3-a5e4-0597e588896b","ios":"levelo://app?vid=574f1e42-3507-45d3-a5e4-0597e588896b"},"vehicle_type_id":"4","last_reported":1725995197,"current_range_meters":17600,"station_id":"ce4bh192rcd13ifvqdc0","pricing_plan_id":"cebpf4jnsgd1na2vs0mg"},{"bike_id":"e3d54643-c2f4-4b61-b50e-70b8bdeacc6a","system_id":"levelo_inurba_marseille","lat":43.28938,"lon":5.36637,"is_reserved":false,"is_disabled":false,"rental_uris":{"android":"levelo://app?vid=e3d54643-c2f4-4b61-b50e-70b8bdeacc6a","ios":"levelo://app?vid=e3d54643-c2f4-4b61-b50e-70b8bdeacc6a"},"vehicle_type_id":"4","last_reported":1725995197,"current_range_meters":18000,"station_id":"ce4bhap2rcd13ifvqek0","pricing_plan_id":"cebpf4jnsgd1na2vs0mg"},{"bike_id":"0977c816-a8e0-47bc-870c-c2c430fbda08","system_id":"levelo_inurba_marseille","lat":43.26933,"lon":5.38924,"is_reserved":false,"is_disabled":false,"rental_uris":{"android":"levelo://app?vid=0977c816-a8e0-47bc-870c-c2c430fbda08","ios":"levelo://app?vid=0977c816-a8e0-47bc-870c-c2c430fbda08"},"vehicle_type_id":"4","last_reported":1725995197,"current_range_meters":26800,"station_id":"ce4bhhh2rcd13ifvqfl0","pricing_plan_id":"cebpf4jnsgd1na2vs0mg"},{"bike_id":"b2aae679-3e99-40e2-820f-725946de1e45","system_id":"levelo_inurba_marseille","lat":43.31718,"lon":5.43706,"is_reserved":false,"is_disabled":false,"rental_uris":{"android":"levelo://app?vid=b2aae679-3e99-40e2-820f-725946de1e45","ios":"levelo://app?vid=b2aae679-3e99-40e2-820f-725946de1e45"},"vehicle_type_id":"4","last_reported":1725995197,"current_range_meters":13600,"station_id":"ce4bhp92rcd13ifvqhcg","pricing_plan_id":"cebpf4jnsgd1na2vs0mg"},{"bike_id":"69eda0f2-b4e3-4334-adca-4d6836fcc9fd","system_id":"levelo_inurba_marseille","lat":43.3229,"lon":5.38269,"is_reserved":false,"is_disabled":false,"rental_uris":{"android":"levelo://app?vid=69eda0f2-b4e3-4334-adca-4d6836fcc9fd","ios":"levelo://app?vid=69eda0f2-b4e3-4334-adca-4d6836fcc9fd"},"vehicle_type_id":"4","last_reported":1725995197,"current_range_meters":31200,"station_id":"ce4bhr12rcd13ifvqhqg","pricing_plan_id":"cebpf4jnsgd1na2vs0mg"},{"bike_id":"0fc1e9db-43fc-45d4-aaa0-c43c431460aa","system_id":"levelo_inurba_marseille","lat":43.289276,"lon":5.366372,"is_reserved":false,"is_disabled":false,"rental_uris":{"android":"levelo://app?vid=0fc1e9db-43fc-45d4-aaa0-c43c431460aa","ios":"levelo://app?vid=0fc1e9db-43fc-45d4-aaa0-c43c431460aa"},"vehicle_type_id":"4","last_reported":1725995197,"current_range_meters":14000,"station_id":"ce4bhop2rcd13ifvqh8g","pricing_plan_id":"cebpf4jnsgd1na2vs0mg"},{"bike_id":"86221f8c-f3b1-4e89-932c-3729f313a5d4","system_id":"levelo_inurba_marseille","lat":43.2928,"lon":5.40127,"is_reserved":false,"is_disabled":false,"rental_uris":{"android":"levelo://app?vid=86221f8c-f3b1-4e89-932c-3729f313a5d4","ios":"levelo://app?vid=86221f8c-f3b1-4e89-932c-3729f313a5d4"},"vehicle_type_id":"4","last_reported":1725995197,"current_range_meters":16800,"station_id":"ce4bh312rcd13ifvqdk0","pricing_plan_id":"cebpf4jnsgd1na2vs0mg"},{"bike_id":"55145fae-a8cb-41b8-a97f-efce85464954","system_id":"levelo_inurba_marseille","lat":43.33741,"lon":5.37467,"is_reserved":false,"is_disabled":false,"rental_uris":{"android":"levelo://app?vid=55145fae-a8cb-41b8-a97f-efce85464954","ios":"levelo://app?vid=55145fae-a8cb-41b8-a97f-efce85464954"},"vehicle_type_id":"4","last_reported":1725995197,"current_range_meters":32400,"station_id":"","pricing_plan_id":"cebpf4jnsgd1na2vs0mg"},{"bike_id":"177367fa-f91f-4339-9c8e-b5645b1c02ee","system_id":"levelo_inurba_marseille","lat":43.30086,"lon":5.39075,"is_reserved":false,"is_disabled":false,"rental_uris":{"android":"levelo://app?vid=177367fa-f91f-4339-9c8e-b5645b1c02ee","ios":"levelo://app?vid=177367fa-f91f-4339-9c8e-b5645b1c02ee"},"vehicle_type_id":"4","last_reported":1725995197,"current_range_meters":26000,"station_id":"ce4bh192rcd13ifvqdb0","pricing_plan_id":"cebpf4jnsgd1na2vs0mg"},{"bike_id":"f400d370-a20e-4ced-86f0-64f62510749c","system_id":"levelo_inurba_marseille","lat":43.3237,"lon":5.38926,"is_reserved":false,"is_disabled":false,"rental_uris":{"android":"levelo://app?vid=f400d370-a20e-4ced-86f0-64f62510749c","ios":"levelo://app?vid=f400d370-a20e-4ced-86f0-64f62510749c"},"vehicle_type_id":"4","last_reported":1725995197,"current_range_meters":17200,"station_id":"","pricing_plan_id":"cebpf4jnsgd1na2vs0mg"},{"bike_id":"47df2392-41b0-49aa-bb1e-5b9f03ab71cf","system_id":"levelo_inurba_marseille","lat":43.298669,"lon":5.397396,"is_reserved":false,"is_disabled":false,"rental_uris":{"android":"levelo://app?vid=47df2392-41b0-49aa-bb1e-5b9f03ab71cf","ios":"levelo://app?vid=47df2392-41b0-49aa-bb1e-5b9f03ab71cf"},"vehicle_type_id":"4","last_reported":1725995197,"current_range_meters":4000,"station_id":"ce4bh692rcd13ifvqea0","pricing_plan_id":"cebpf4jnsgd1na2vs0mg"},{"bike_id":"02b9bf32-cdbe-4aa1-95d3-22b6c56cf92d","system_id":"levelo_inurba_marseille","lat":43.27378,"lon":5.3625,"is_reserved":false,"is_disabled":false,"rental_uris":{"android":"levelo://app?vid=02b9bf32-cdbe-4aa1-95d3-22b6c56cf92d","ios":"levelo://app?vid=02b9bf32-cdbe-4aa1-95d3-22b6c56cf92d"},"vehicle_type_id":"4","last_reported":1725995197,"current_range_meters":30000,"station_id":"ce4bhbh2rcd13ifvqeo0","pricing_plan_id":"cebpf4jnsgd1na2vs0mg"},{"bike_id":"6b556058-d0b4-4003-a757-2a88c17f4ca7","system_id":"levelo_inurba_marseille","lat":43.302971,"lon":5.392136,"is_reserved":false,"is_disabled":false,"rental_uris":{"android":"levelo://app?vid=6b556058-d0b4-4003-a757-2a88c17f4ca7","ios":"levelo://app?vid=6b556058-d0b4-4003-a757-2a88c17f4ca7"},"vehicle_type_id":"4","last_reported":1725995197,"current_range_meters":4400,"station_id":"ce4bgv12rcd13ifvqcp0","pricing_plan_id":"cebpf4jnsgd1na2vs0mg"},{"bike_id":"e9d8c7b2-62a1-4e01-b449-32058adc2bb5","system_id":"levelo_inurba_marseille","lat":43.3117,"lon":5.38723,"is_reserved":false,"is_disabled":false,"rental_uris":{"android":"levelo://app?vid=e9d8c7b2-62a1-4e01-b449-32058adc2bb5","ios":"levelo://app?vid=e9d8c7b2-62a1-4e01-b449-32058adc2bb5"},"vehicle_type_id":"4","last_reported":1725995197,"current_range_meters":19600,"station_id":"ce4bgv12rcd13ifvqcp0","pricing_plan_id":"cebpf4jnsgd1na2vs0mg"},{"bike_id":"4f98b9a6-3078-458b-b605-3b0ed6341dd8","system_id":"levelo_inurba_marseille","lat":43.287037,"lon":5.375093,"is_reserved":false,"is_disabled":false,"rental_uris":{"android":"levelo://app?vid=4f98b9a6-3078-458b-b605-3b0ed6341dd8","ios":"levelo://app?vid=4f98b9a6-3078-458b-b605-3b0ed6341dd8"},"vehicle_type_id":"4","last_reported":1725995197,"current_range_meters":32400,"station_id":"","pricing_plan_id":"cebpf4jnsgd1na2vs0mg"},{"bike_id":"8542bf91-30ba-4b78-a115-4736886b8fdc","system_id":"levelo_inurba_marseille","lat":43.32364,"lon":5.3888,"is_reserved":false,"is_disabled":false,"rental_uris":{"android":"levelo://app?vid=8542bf91-30ba-4b78-a115-4736886b8fdc","ios":"levelo://app?vid=8542bf91-30ba-4b78-a115-4736886b8fdc"},"vehicle_type_id":"4","last_reported":1725995197,"current_range_meters":9600,"station_id":"ce4bhqp2rcd13ifvqhog","pricing_plan_id":"cebpf4jnsgd1na2vs0mg"},{"bike_id":"b8c53ace-3353-404c-807f-3367f3e67022","system_id":"levelo_inurba_marseille","lat":43.3175,"lon":5.39028,"is_reserved":false,"is_disabled":false,"rental_uris":{"android":"levelo://app?vid=b8c53ace-3353-404c-807f-3367f3e67022","ios":"levelo://app?vid=b8c53ace-3353-404c-807f-3367f3e67022"},"vehicle_type_id":"4","last_reported":1725995197,"current_range_meters":38800,"station_id":"ce4bhqp2rcd13ifvqhng","pricing_plan_id":"cebpf4jnsgd1na2vs0mg"},{"bike_id":"28a6dc6f-0df2-4ce0-8e42-abef2c4254c2","system_id":"levelo_inurba_marseille","lat":43.29896,"lon":5.43675,"is_reserved":false,"is_disabled":false,"rental_uris":{"android":"levelo://app?vid=28a6dc6f-0df2-4ce0-8e42-abef2c4254c2","ios":"levelo://app?vid=28a6dc6f-0df2-4ce0-8e42-abef2c4254c2"},"vehicle_type_id":"4","last_reported":1725995197,"current_range_meters":6400,"station_id":"ce4bhpp2rcd13ifvqhfg","pricing_plan_id":"cebpf4jnsgd1na2vs0mg"},{"bike_id":"e6241e23-9b08-4880-95f2-22577e67af58","system_id":"levelo_inurba_marseille","lat":43.31323,"lon":5.39699,"is_reserved":false,"is_disabled":false,"rental_uris":{"android":"levelo://app?vid=e6241e23-9b08-4880-95f2-22577e67af58","ios":"levelo://app?vid=e6241e23-9b08-4880-95f2-22577e67af58"},"vehicle_type_id":"4","last_reported":1725995197,"current_range_meters":27600,"station_id":"ce4bgvp2rcd13ifvqcu0","pricing_plan_id":"cebpf4jnsgd1na2vs0mg"},{"bike_id":"0ba310ef-e5c2-44be-a4c0-2927c4dea91a","system_id":"levelo_inurba_marseille","lat":43.286099,"lon":5.351027,"is_reserved":false,"is_disabled":false,"rental_uris":{"android":"levelo://app?vid=0ba310ef-e5c2-44be-a4c0-2927c4dea91a","ios":"levelo://app?vid=0ba310ef-e5c2-44be-a4c0-2927c4dea91a"},"vehicle_type_id":"4","last_reported":1725995197,"current_range_meters":28400,"station_id":"ce4bhch2rcd13ifvqeug","pricing_plan_id":"cebpf4jnsgd1na2vs0mg"},{"bike_id":"e3ff2ff2-1096-4b7a-a3a2-7928d38557b8","system_id":"levelo_inurba_marseille","lat":43.27814,"lon":5.40716,"is_reserved":false,"is_disabled":false,"rental_uris":{"android":"levelo://app?vid=e3ff2ff2-1096-4b7a-a3a2-7928d38557b8","ios":"levelo://app?vid=e3ff2ff2-1096-4b7a-a3a2-7928d38557b8"},"vehicle_type_id":"4","last_reported":1725995197,"current_range_meters":13600,"station_id":"ce4bhnh2rcd13ifvqgtg","pricing_plan_id":"cebpf4jnsgd1na2vs0mg"},{"bike_id":"47f9900e-d882-473e-b047-5f19f92e3de6","system_id":"levelo_inurba_marseille","lat":43.29894,"lon":5.43673,"is_reserved":false,"is_disabled":false,"rental_uris":{"android":"levelo://app?vid=47f9900e-d882-473e-b047-5f19f92e3de6","ios":"levelo://app?vid=47f9900e-d882-473e-b047-5f19f92e3de6"},"vehicle_type_id":"4","last_reported":1725995197,"current_range_meters":22000,"station_id":"ce4bhpp2rcd13ifvqhfg","pricing_plan_id":"cebpf4jnsgd1na2vs0mg"},{"bike_id":"7db67c51-ea24-4875-ac2f-6a7238547645","system_id":"levelo_inurba_marseille","lat":43.28709,"lon":5.39995,"is_reserved":false,"is_disabled":false,"rental_uris":{"android":"levelo://app?vid=7db67c51-ea24-4875-ac2f-6a7238547645","ios":"levelo://app?vid=7db67c51-ea24-4875-ac2f-6a7238547645"},"vehicle_type_id":"4","last_reported":1725995197,"current_range_meters":28000,"station_id":"ce4bho92rcd13ifvqh3g","pricing_plan_id":"cebpf4jnsgd1na2vs0mg"},{"bike_id":"f9588990-7de1-4e0b-979b-31419c532106","system_id":"levelo_inurba_marseille","lat":43.28033,"lon":5.3695,"is_reserved":false,"is_disabled":false,"rental_uris":{"android":"levelo://app?vid=f9588990-7de1-4e0b-979b-31419c532106","ios":"levelo://app?vid=f9588990-7de1-4e0b-979b-31419c532106"},"vehicle_type_id":"4","last_reported":1725995197,"current_range_meters":13600,"station_id":"ce4bha12rcd13ifvqef0","pricing_plan_id":"cebpf4jnsgd1na2vs0mg"},{"bike_id":"c33da793-bbd9-4d19-b3a5-c543ddba70d5","system_id":"levelo_inurba_marseille","lat":43.27813,"lon":5.40719,"is_reserved":false,"is_disabled":false,"rental_uris":{"android":"levelo://app?vid=c33da793-bbd9-4d19-b3a5-c543ddba70d5","ios":"levelo://app?vid=c33da793-bbd9-4d19-b3a5-c543ddba70d5"},"vehicle_type_id":"4","last_reported":1725995197,"current_range_meters":39200,"station_id":"ce4bhnh2rcd13ifvqgtg","pricing_plan_id":"cebpf4jnsgd1na2vs0mg"},{"bike_id":"5c4c51d3-aeed-4ab9-b524-704218b83d2d","system_id":"levelo_inurba_marseille","lat":43.28718,"lon":5.37941,"is_reserved":false,"is_disabled":false,"rental_uris":{"android":"levelo://app?vid=5c4c51d3-aeed-4ab9-b524-704218b83d2d","ios":"levelo://app?vid=5c4c51d3-aeed-4ab9-b524-704218b83d2d"},"vehicle_type_id":"4","last_reported":1725995197,"current_range_meters":4000,"station_id":"ce4bh9p2rcd13ifvqec0","pricing_plan_id":"cebpf4jnsgd1na2vs0mg"},{"bike_id":"36f58328-8f54-4fcf-bcca-0a753cccddb2","system_id":"levelo_inurba_marseille","lat":43.23195,"lon":5.35558,"is_reserved":false,"is_disabled":false,"rental_uris":{"android":"levelo://app?vid=36f58328-8f54-4fcf-bcca-0a753cccddb2","ios":"levelo://app?vid=36f58328-8f54-4fcf-bcca-0a753cccddb2"},"vehicle_type_id":"4","last_reported":1725995197,"current_range_meters":20000,"station_id":"ce4bhu92rcd13ifvqi70","pricing_plan_id":"cebpf4jnsgd1na2vs0mg"},{"bike_id":"44f32411-a978-4e5c-8794-5490ed45ba7d","system_id":"levelo_inurba_marseille","lat":43.33754,"lon":5.37439,"is_reserved":false,"is_disabled":false,"rental_uris":{"android":"levelo://app?vid=44f32411-a978-4e5c-8794-5490ed45ba7d","ios":"levelo://app?vid=44f32411-a978-4e5c-8794-5490ed45ba7d"},"vehicle_type_id":"4","last_reported":1725995197,"current_range_meters":38000,"station_id":"","pricing_plan_id":"cebpf4jnsgd1na2vs0mg"},{"bike_id":"bd01515f-8524-4504-bb30-2d821deae18b","system_id":"levelo_inurba_marseille","lat":43.25106,"lon":5.40326,"is_reserved":false,"is_disabled":false,"rental_uris":{"android":"levelo://app?vid=bd01515f-8524-4504-bb30-2d821deae18b","ios":"levelo://app?vid=bd01515f-8524-4504-bb30-2d821deae18b"},"vehicle_type_id":"4","last_reported":1725995197,"current_range_meters":14000,"station_id":"ce4bhlh2rcd13ifvqgig","pricing_plan_id":"cebpf4jnsgd1na2vs0mg"},{"bike_id":"a5637a8b-38f0-4dcf-bb5c-f0548702728e","system_id":"levelo_inurba_marseille","lat":43.24075,"lon":5.37763,"is_reserved":false,"is_disabled":false,"rental_uris":{"android":"levelo://app?vid=a5637a8b-38f0-4dcf-bb5c-f0548702728e","ios":"levelo://app?vid=a5637a8b-38f0-4dcf-bb5c-f0548702728e"},"vehicle_type_id":"4","last_reported":1725995197,"current_range_meters":4800,"station_id":"ce4bhnp2rcd13ifvqgvg","pricing_plan_id":"cebpf4jnsgd1na2vs0mg"},{"bike_id":"20f14782-af06-469c-801d-5502f754f94b","system_id":"levelo_inurba_marseille","lat":43.28613,"lon":5.35102,"is_reserved":false,"is_disabled":false,"rental_uris":{"android":"levelo://app?vid=20f14782-af06-469c-801d-5502f754f94b","ios":"levelo://app?vid=20f14782-af06-469c-801d-5502f754f94b"},"vehicle_type_id":"4","last_reported":1725995197,"current_range_meters":32800,"station_id":"ce4bh412rcd13ifvqdr0","pricing_plan_id":"cebpf4jnsgd1na2vs0mg"},{"bike_id":"01a9d190-f5a0-4eda-b7c1-457da88c2b6b","system_id":"levelo_inurba_marseille","lat":43.24667,"lon":5.38172,"is_reserved":false,"is_disabled":false,"rental_uris":{"android":"levelo://app?vid=01a9d190-f5a0-4eda-b7c1-457da88c2b6b","ios":"levelo://app?vid=01a9d190-f5a0-4eda-b7c1-457da88c2b6b"},"vehicle_type_id":"4","last_reported":1725995197,"current_range_meters":13600,"station_id":"ce4bhih2rcd13ifvqfr0","pricing_plan_id":"cebpf4jnsgd1na2vs0mg"},{"bike_id":"3b1942b8-bb45-4d64-b704-9c594ce94e63","system_id":"levelo_inurba_marseille","lat":43.25085,"lon":5.39524,"is_reserved":false,"is_disabled":false,"rental_uris":{"android":"levelo://app?vid=3b1942b8-bb45-4d64-b704-9c594ce94e63","ios":"levelo://app?vid=3b1942b8-bb45-4d64-b704-9c594ce94e63"},"vehicle_type_id":"4","last_reported":1725995197,"current_range_meters":11200,"station_id":"ce4bhm12rcd13ifvqgkg","pricing_plan_id":"cebpf4jnsgd1na2vs0mg"},{"bike_id":"8fb9a2de-2e39-4cee-9a2d-1ba3230acc6a","system_id":"levelo_inurba_marseille","lat":43.31764,"lon":5.39015,"is_reserved":false,"is_disabled":false,"rental_uris":{"android":"levelo://app?vid=8fb9a2de-2e39-4cee-9a2d-1ba3230acc6a","ios":"levelo://app?vid=8fb9a2de-2e39-4cee-9a2d-1ba3230acc6a"},"vehicle_type_id":"4","last_reported":1725995197,"current_range_meters":5600,"station_id":"ce4bhqp2rcd13ifvqhng","pricing_plan_id":"cebpf4jnsgd1na2vs0mg"},{"bike_id":"476c478b-6572-4f34-a379-3801f5e75df1","system_id":"levelo_inurba_marseille","lat":43.24546,"lon":5.39524,"is_reserved":false,"is_disabled":false,"rental_uris":{"android":"levelo://app?vid=476c478b-6572-4f34-a379-3801f5e75df1","ios":"levelo://app?vid=476c478b-6572-4f34-a379-3801f5e75df1"},"vehicle_type_id":"4","last_reported":1725995197,"current_range_meters":30800,"station_id":"ce4bhlp2rcd13ifvqgjg","pricing_plan_id":"cebpf4jnsgd1na2vs0mg"},{"bike_id":"3523852e-695d-4a39-a011-7a34104adf15","system_id":"levelo_inurba_marseille","lat":43.2942,"lon":5.38619,"is_reserved":false,"is_disabled":false,"rental_uris":{"android":"levelo://app?vid=3523852e-695d-4a39-a011-7a34104adf15","ios":"levelo://app?vid=3523852e-695d-4a39-a011-7a34104adf15"},"vehicle_type_id":"4","last_reported":1725995197,"current_range_meters":4800,"station_id":"ce4bh2h2rcd13ifvqdh0","pricing_plan_id":"cebpf4jnsgd1na2vs0mg"},{"bike_id":"c30178a4-4e56-4bee-94da-6750d5320a4b","system_id":"levelo_inurba_marseille","lat":43.27367,"lon":5.36258,"is_reserved":false,"is_disabled":false,"rental_uris":{"android":"levelo://app?vid=c30178a4-4e56-4bee-94da-6750d5320a4b","ios":"levelo://app?vid=c30178a4-4e56-4bee-94da-6750d5320a4b"},"vehicle_type_id":"4","last_reported":1725995197,"current_range_meters":31200,"station_id":"ce4bhbh2rcd13ifvqeo0","pricing_plan_id":"cebpf4jnsgd1na2vs0mg"},{"bike_id":"0c85ad1d-6256-4d9b-b1f7-551e09ddb9a7","system_id":"levelo_inurba_marseille","lat":43.25831,"lon":5.39438,"is_reserved":false,"is_disabled":false,"rental_uris":{"android":"levelo://app?vid=0c85ad1d-6256-4d9b-b1f7-551e09ddb9a7","ios":"levelo://app?vid=0c85ad1d-6256-4d9b-b1f7-551e09ddb9a7"},"vehicle_type_id":"4","last_reported":1725995197,"current_range_meters":6800,"station_id":"ce4bhip2rcd13ifvqft0","pricing_plan_id":"cebpf4jnsgd1na2vs0mg"},{"bike_id":"ee3a8381-2e02-4117-869d-aab4f89be3b0","system_id":"levelo_inurba_marseille","lat":43.29012,"lon":5.38144,"is_reserved":false,"is_disabled":false,"rental_uris":{"android":"levelo://app?vid=ee3a8381-2e02-4117-869d-aab4f89be3b0","ios":"levelo://app?vid=ee3a8381-2e02-4117-869d-aab4f89be3b0"},"vehicle_type_id":"4","last_reported":1725995197,"current_range_meters":4000,"station_id":"ce4bh4p2rcd13ifvqe1g","pricing_plan_id":"cebpf4jnsgd1na2vs0mg"},{"bike_id":"a8b8b231-830f-425f-8641-8b507e910892","system_id":"levelo_inurba_marseille","lat":43.25863,"lon":5.399,"is_reserved":false,"is_disabled":false,"rental_uris":{"android":"levelo://app?vid=a8b8b231-830f-425f-8641-8b507e910892","ios":"levelo://app?vid=a8b8b231-830f-425f-8641-8b507e910892"},"vehicle_type_id":"4","last_reported":1725995197,"current_range_meters":6400,"station_id":"ce4bhl92rcd13ifvqghg","pricing_plan_id":"cebpf4jnsgd1na2vs0mg"},{"bike_id":"7bb4f9de-7cd3-453d-9762-d2bc34a00f75","system_id":"levelo_inurba_marseille","lat":43.28457,"lon":5.35888,"is_reserved":false,"is_disabled":false,"rental_uris":{"android":"levelo://app?vid=7bb4f9de-7cd3-453d-9762-d2bc34a00f75","ios":"levelo://app?vid=7bb4f9de-7cd3-453d-9762-d2bc34a00f75"},"vehicle_type_id":"4","last_reported":1725995197,"current_range_meters":35600,"station_id":"ce4bhah2rcd13ifvqei0","pricing_plan_id":"cebpf4jnsgd1na2vs0mg"},{"bike_id":"3bfff435-780c-430e-a884-b7e0a240cebc","system_id":"levelo_inurba_marseille","lat":43.28829,"lon":5.39134,"is_reserved":false,"is_disabled":false,"rental_uris":{"android":"levelo://app?vid=3bfff435-780c-430e-a884-b7e0a240cebc","ios":"levelo://app?vid=3bfff435-780c-430e-a884-b7e0a240cebc"},"vehicle_type_id":"4","last_reported":1725995197,"current_range_meters":22400,"station_id":"","pricing_plan_id":"cebpf4jnsgd1na2vs0mg"},{"bike_id":"c95d22f6-2f74-4113-bdbf-28929826828a","system_id":"levelo_inurba_marseille","lat":43.29285,"lon":5.40121,"is_reserved":false,"is_disabled":false,"rental_uris":{"android":"levelo://app?vid=c95d22f6-2f74-4113-bdbf-28929826828a","ios":"levelo://app?vid=c95d22f6-2f74-4113-bdbf-28929826828a"},"vehicle_type_id":"4","last_reported":1725995197,"current_range_meters":23200,"station_id":"ce4bh312rcd13ifvqdk0","pricing_plan_id":"cebpf4jnsgd1na2vs0mg"},{"bike_id":"ed13f026-c5e2-45d9-8a75-06ff3157621a","system_id":"levelo_inurba_marseille","lat":43.2737,"lon":5.36266,"is_reserved":false,"is_disabled":false,"rental_uris":{"android":"levelo://app?vid=ed13f026-c5e2-45d9-8a75-06ff3157621a","ios":"levelo://app?vid=ed13f026-c5e2-45d9-8a75-06ff3157621a"},"vehicle_type_id":"4","last_reported":1725995197,"current_range_meters":28400,"station_id":"ce4bhbh2rcd13ifvqeo0","pricing_plan_id":"cebpf4jnsgd1na2vs0mg"},{"bike_id":"88354ff2-62b5-48a7-92cb-e55d6eb5cadb","system_id":"levelo_inurba_marseille","lat":43.29954,"lon":5.37145,"is_reserved":false,"is_disabled":false,"rental_uris":{"android":"levelo://app?vid=88354ff2-62b5-48a7-92cb-e55d6eb5cadb","ios":"levelo://app?vid=88354ff2-62b5-48a7-92cb-e55d6eb5cadb"},"vehicle_type_id":"4","last_reported":1725995197,"current_range_meters":3200,"station_id":"ce4bgr92rcd13ifvqc7g","pricing_plan_id":"cebpf4jnsgd1na2vs0mg"},{"bike_id":"3950fbf4-a9a1-48c1-a565-3a62b467b164","system_id":"levelo_inurba_marseille","lat":43.27812,"lon":5.40711,"is_reserved":false,"is_disabled":false,"rental_uris":{"android":"levelo://app?vid=3950fbf4-a9a1-48c1-a565-3a62b467b164","ios":"levelo://app?vid=3950fbf4-a9a1-48c1-a565-3a62b467b164"},"vehicle_type_id":"4","last_reported":1725995197,"current_range_meters":6800,"station_id":"ce4bhnh2rcd13ifvqgtg","pricing_plan_id":"cebpf4jnsgd1na2vs0mg"},{"bike_id":"e1e1364d-1aed-48e8-ac7f-55081dae4a0d","system_id":"levelo_inurba_marseille","lat":43.29985,"lon":5.37183,"is_reserved":false,"is_disabled":false,"rental_uris":{"android":"levelo://app?vid=e1e1364d-1aed-48e8-ac7f-55081dae4a0d","ios":"levelo://app?vid=e1e1364d-1aed-48e8-ac7f-55081dae4a0d"},"vehicle_type_id":"4","last_reported":1725995197,"current_range_meters":20400,"station_id":"ce4bgr92rcd13ifvqc7g","pricing_plan_id":"cebpf4jnsgd1na2vs0mg"},{"bike_id":"49d54ada-ebf5-4467-8691-1e08e9be67d3","system_id":"levelo_inurba_marseille","lat":43.30934,"lon":5.40149,"is_reserved":false,"is_disabled":false,"rental_uris":{"android":"levelo://app?vid=49d54ada-ebf5-4467-8691-1e08e9be67d3","ios":"levelo://app?vid=49d54ada-ebf5-4467-8691-1e08e9be67d3"},"vehicle_type_id":"4","last_reported":1725995197,"current_range_meters":17200,"station_id":"ce4bgvp2rcd13ifvqct0","pricing_plan_id":"cebpf4jnsgd1na2vs0mg"},{"bike_id":"98f29b41-a731-4f4e-b60c-0786b2083592","system_id":"levelo_inurba_marseille","lat":43.27615,"lon":5.36115,"is_reserved":false,"is_disabled":false,"rental_uris":{"android":"levelo://app?vid=98f29b41-a731-4f4e-b60c-0786b2083592","ios":"levelo://app?vid=98f29b41-a731-4f4e-b60c-0786b2083592"},"vehicle_type_id":"4","last_reported":1725995197,"current_range_meters":26800,"station_id":"ce4bgj92rcd13ifvqbe0","pricing_plan_id":"cebpf4jnsgd1na2vs0mg"},{"bike_id":"20d60671-30af-44be-9c20-6fc4284a4998","system_id":"levelo_inurba_marseille","lat":43.30326,"lon":5.40435,"is_reserved":false,"is_disabled":false,"rental_uris":{"android":"levelo://app?vid=20d60671-30af-44be-9c20-6fc4284a4998","ios":"levelo://app?vid=20d60671-30af-44be-9c20-6fc4284a4998"},"vehicle_type_id":"4","last_reported":1725995197,"current_range_meters":14400,"station_id":"ce4bh012rcd13ifvqd10","pricing_plan_id":"cebpf4jnsgd1na2vs0mg"},{"bike_id":"8bef04eb-0349-4fbd-b9df-717e89664ce3","system_id":"levelo_inurba_marseille","lat":43.25577,"lon":5.3824,"is_reserved":false,"is_disabled":false,"rental_uris":{"android":"levelo://app?vid=8bef04eb-0349-4fbd-b9df-717e89664ce3","ios":"levelo://app?vid=8bef04eb-0349-4fbd-b9df-717e89664ce3"},"vehicle_type_id":"4","last_reported":1725995197,"current_range_meters":8800,"station_id":"ce4bhih2rcd13ifvqfs0","pricing_plan_id":"cebpf4jnsgd1na2vs0mg"},{"bike_id":"20e99fee-7f5e-4fd9-8345-d42fb0592de3","system_id":"levelo_inurba_marseille","lat":43.33756,"lon":5.37458,"is_reserved":false,"is_disabled":false,"rental_uris":{"android":"levelo://app?vid=20e99fee-7f5e-4fd9-8345-d42fb0592de3","ios":"levelo://app?vid=20e99fee-7f5e-4fd9-8345-d42fb0592de3"},"vehicle_type_id":"4","last_reported":1725995197,"current_range_meters":19200,"station_id":"","pricing_plan_id":"cebpf4jnsgd1na2vs0mg"},{"bike_id":"b50d82f9-5037-41d5-975a-ed42c505f159","system_id":"levelo_inurba_marseille","lat":43.33713,"lon":5.39195,"is_reserved":false,"is_disabled":false,"rental_uris":{"android":"levelo://app?vid=b50d82f9-5037-41d5-975a-ed42c505f159","ios":"levelo://app?vid=b50d82f9-5037-41d5-975a-ed42c505f159"},"vehicle_type_id":"4","last_reported":1725995197,"current_range_meters":6800,"station_id":"ce4bhr92rcd13ifvqhsg","pricing_plan_id":"cebpf4jnsgd1na2vs0mg"},{"bike_id":"88a8bbbd-eb82-403d-b0bd-87255a8ea5ca","system_id":"levelo_inurba_marseille","lat":43.279447,"lon":5.410508,"is_reserved":false,"is_disabled":false,"rental_uris":{"android":"levelo://app?vid=88a8bbbd-eb82-403d-b0bd-87255a8ea5ca","ios":"levelo://app?vid=88a8bbbd-eb82-403d-b0bd-87255a8ea5ca"},"vehicle_type_id":"4","last_reported":1725995197,"current_range_meters":18800,"station_id":"ce4bhnp2rcd13ifvqh0g","pricing_plan_id":"cebpf4jnsgd1na2vs0mg"},{"bike_id":"1cfee31e-ad15-427a-a967-b1876242ff7c","system_id":"levelo_inurba_marseille","lat":43.25866,"lon":5.39895,"is_reserved":false,"is_disabled":false,"rental_uris":{"android":"levelo://app?vid=1cfee31e-ad15-427a-a967-b1876242ff7c","ios":"levelo://app?vid=1cfee31e-ad15-427a-a967-b1876242ff7c"},"vehicle_type_id":"4","last_reported":1725995197,"current_range_meters":26800,"station_id":"ce4bhl92rcd13ifvqghg","pricing_plan_id":"cebpf4jnsgd1na2vs0mg"},{"bike_id":"579d38fa-39c4-4a27-9039-fb1948e3fb76","system_id":"levelo_inurba_marseille","lat":43.26063,"lon":5.39399,"is_reserved":false,"is_disabled":false,"rental_uris":{"android":"levelo://app?vid=579d38fa-39c4-4a27-9039-fb1948e3fb76","ios":"levelo://app?vid=579d38fa-39c4-4a27-9039-fb1948e3fb76"},"vehicle_type_id":"4","last_reported":1725995197,"current_range_meters":5600,"station_id":"ce4bhh92rcd13ifvqfj0","pricing_plan_id":"cebpf4jnsgd1na2vs0mg"},{"bike_id":"5d443aec-c01d-49f0-9841-6a78ae09af54","system_id":"levelo_inurba_marseille","lat":43.28978,"lon":5.37831,"is_reserved":false,"is_disabled":false,"rental_uris":{"android":"levelo://app?vid=5d443aec-c01d-49f0-9841-6a78ae09af54","ios":"levelo://app?vid=5d443aec-c01d-49f0-9841-6a78ae09af54"},"vehicle_type_id":"4","last_reported":1725995197,"current_range_meters":22400,"station_id":"ce4bh9p2rcd13ifvqed0","pricing_plan_id":"cebpf4jnsgd1na2vs0mg"},{"bike_id":"3e518be1-e400-4157-b833-7627046e8d7a","system_id":"levelo_inurba_marseille","lat":43.28049,"lon":5.36934,"is_reserved":false,"is_disabled":false,"rental_uris":{"android":"levelo://app?vid=3e518be1-e400-4157-b833-7627046e8d7a","ios":"levelo://app?vid=3e518be1-e400-4157-b833-7627046e8d7a"},"vehicle_type_id":"4","last_reported":1725995197,"current_range_meters":38800,"station_id":"ce4bha12rcd13ifvqef0","pricing_plan_id":"cebpf4jnsgd1na2vs0mg"},{"bike_id":"be6e8250-baac-40a2-9970-5cd87232a03c","system_id":"levelo_inurba_marseille","lat":43.29955,"lon":5.4132,"is_reserved":false,"is_disabled":false,"rental_uris":{"android":"levelo://app?vid=be6e8250-baac-40a2-9970-5cd87232a03c","ios":"levelo://app?vid=be6e8250-baac-40a2-9970-5cd87232a03c"},"vehicle_type_id":"4","last_reported":1725995197,"current_range_meters":3600,"station_id":"ce4bhp12rcd13ifvqh9g","pricing_plan_id":"cebpf4jnsgd1na2vs0mg"},{"bike_id":"f1d006bc-fcc5-41ba-b406-5fba8f3e0859","system_id":"levelo_inurba_marseille","lat":43.30432,"lon":5.38883,"is_reserved":false,"is_disabled":false,"rental_uris":{"android":"levelo://app?vid=f1d006bc-fcc5-41ba-b406-5fba8f3e0859","ios":"levelo://app?vid=f1d006bc-fcc5-41ba-b406-5fba8f3e0859"},"vehicle_type_id":"4","last_reported":1725995197,"current_range_meters":33600,"station_id":"ce4bgk12rcd13ifvqbi0","pricing_plan_id":"cebpf4jnsgd1na2vs0mg"},{"bike_id":"f4911a64-885d-472e-a287-19de46643c49","system_id":"levelo_inurba_marseille","lat":43.23186,"lon":5.39985,"is_reserved":false,"is_disabled":false,"rental_uris":{"android":"levelo://app?vid=f4911a64-885d-472e-a287-19de46643c49","ios":"levelo://app?vid=f4911a64-885d-472e-a287-19de46643c49"},"vehicle_type_id":"4","last_reported":1725995197,"current_range_meters":9600,"station_id":"ce4bhn12rcd13ifvqgqg","pricing_plan_id":"cebpf4jnsgd1na2vs0mg"},{"bike_id":"0f0bf09d-7993-417e-ab3d-c5804e669efa","system_id":"levelo_inurba_marseille","lat":43.29882,"lon":5.39734,"is_reserved":false,"is_disabled":false,"rental_uris":{"android":"levelo://app?vid=0f0bf09d-7993-417e-ab3d-c5804e669efa","ios":"levelo://app?vid=0f0bf09d-7993-417e-ab3d-c5804e669efa"},"vehicle_type_id":"4","last_reported":1725995197,"current_range_meters":6800,"station_id":"ce4bh0h2rcd13ifvqd50","pricing_plan_id":"cebpf4jnsgd1na2vs0mg"},{"bike_id":"43666cc4-9de2-4278-ada6-42d1072583b7","system_id":"levelo_inurba_marseille","lat":43.30882,"lon":5.39649,"is_reserved":false,"is_disabled":false,"rental_uris":{"android":"levelo://app?vid=43666cc4-9de2-4278-ada6-42d1072583b7","ios":"levelo://app?vid=43666cc4-9de2-4278-ada6-42d1072583b7"},"vehicle_type_id":"4","last_reported":1725995197,"current_range_meters":22800,"station_id":"ce4bh012rcd13ifvqcv0","pricing_plan_id":"cebpf4jnsgd1na2vs0mg"},{"bike_id":"6006b707-4519-438d-992a-cb170c1979eb","system_id":"levelo_inurba_marseille","lat":43.27372,"lon":5.36253,"is_reserved":false,"is_disabled":false,"rental_uris":{"android":"levelo://app?vid=6006b707-4519-438d-992a-cb170c1979eb","ios":"levelo://app?vid=6006b707-4519-438d-992a-cb170c1979eb"},"vehicle_type_id":"4","last_reported":1725995197,"current_range_meters":28800,"station_id":"ce4bhbh2rcd13ifvqeo0","pricing_plan_id":"cebpf4jnsgd1na2vs0mg"},{"bike_id":"9affd36d-071a-4203-b5ac-ac86b51a9567","system_id":"levelo_inurba_marseille","lat":43.28607,"lon":5.35103,"is_reserved":false,"is_disabled":false,"rental_uris":{"android":"levelo://app?vid=9affd36d-071a-4203-b5ac-ac86b51a9567","ios":"levelo://app?vid=9affd36d-071a-4203-b5ac-ac86b51a9567"},"vehicle_type_id":"4","last_reported":1725995197,"current_range_meters":38800,"station_id":"ce4bhch2rcd13ifvqeug","pricing_plan_id":"cebpf4jnsgd1na2vs0mg"},{"bike_id":"4cc63336-b96d-4308-af6c-2f657aac249e","system_id":"levelo_inurba_marseille","lat":43.29526,"lon":5.39037,"is_reserved":false,"is_disabled":false,"rental_uris":{"android":"levelo://app?vid=4cc63336-b96d-4308-af6c-2f657aac249e","ios":"levelo://app?vid=4cc63336-b96d-4308-af6c-2f657aac249e"},"vehicle_type_id":"4","last_reported":1725995197,"current_range_meters":38000,"station_id":"ce4bh3p2rcd13ifvqdp0","pricing_plan_id":"cebpf4jnsgd1na2vs0mg"},{"bike_id":"be410542-1ce1-49ac-8b54-f54345a2c47a","system_id":"levelo_inurba_marseille","lat":43.28608,"lon":5.37064,"is_reserved":false,"is_disabled":false,"rental_uris":{"android":"levelo://app?vid=be410542-1ce1-49ac-8b54-f54345a2c47a","ios":"levelo://app?vid=be410542-1ce1-49ac-8b54-f54345a2c47a"},"vehicle_type_id":"4","last_reported":1725995197,"current_range_meters":14400,"station_id":"ce4bht12rcd13ifvqi60","pricing_plan_id":"cebpf4jnsgd1na2vs0mg"},{"bike_id":"6083c8fd-673d-4152-81ee-1bcd378ef7c7","system_id":"levelo_inurba_marseille","lat":43.28458,"lon":5.35893,"is_reserved":false,"is_disabled":false,"rental_uris":{"android":"levelo://app?vid=6083c8fd-673d-4152-81ee-1bcd378ef7c7","ios":"levelo://app?vid=6083c8fd-673d-4152-81ee-1bcd378ef7c7"},"vehicle_type_id":"4","last_reported":1725995197,"current_range_meters":14800,"station_id":"ce4bhah2rcd13ifvqei0","pricing_plan_id":"cebpf4jnsgd1na2vs0mg"},{"bike_id":"bc5f882e-fc56-4dcc-93cb-5b1239a9c129","system_id":"levelo_inurba_marseille","lat":43.279907,"lon":5.405411,"is_reserved":false,"is_disabled":false,"rental_uris":{"android":"levelo://app?vid=bc5f882e-fc56-4dcc-93cb-5b1239a9c129","ios":"levelo://app?vid=bc5f882e-fc56-4dcc-93cb-5b1239a9c129"},"vehicle_type_id":"4","last_reported":1725995197,"current_range_meters":20000,"station_id":"","pricing_plan_id":"cebpf4jnsgd1na2vs0mg"},{"bike_id":"230e3a22-1a03-408c-b711-7f167a488065","system_id":"levelo_inurba_marseille","lat":43.30577,"lon":5.3815,"is_reserved":false,"is_disabled":false,"rental_uris":{"android":"levelo://app?vid=230e3a22-1a03-408c-b711-7f167a488065","ios":"levelo://app?vid=230e3a22-1a03-408c-b711-7f167a488065"},"vehicle_type_id":"4","last_reported":1725995197,"current_range_meters":12400,"station_id":"ce4bgup2rcd13ifvqcn0","pricing_plan_id":"cebpf4jnsgd1na2vs0mg"},{"bike_id":"e5af8ce4-7f8f-4fae-af3e-50411355a4e1","system_id":"levelo_inurba_marseille","lat":43.25084,"lon":5.39528,"is_reserved":false,"is_disabled":false,"rental_uris":{"android":"levelo://app?vid=e5af8ce4-7f8f-4fae-af3e-50411355a4e1","ios":"levelo://app?vid=e5af8ce4-7f8f-4fae-af3e-50411355a4e1"},"vehicle_type_id":"4","last_reported":1725995197,"current_range_meters":4400,"station_id":"ce4bhm12rcd13ifvqgkg","pricing_plan_id":"cebpf4jnsgd1na2vs0mg"},{"bike_id":"9386baef-71df-4826-ae01-6de38af22efa","system_id":"levelo_inurba_marseille","lat":43.27831,"lon":5.39213,"is_reserved":false,"is_disabled":false,"rental_uris":{"android":"levelo://app?vid=9386baef-71df-4826-ae01-6de38af22efa","ios":"levelo://app?vid=9386baef-71df-4826-ae01-6de38af22efa"},"vehicle_type_id":"4","last_reported":1725995197,"current_range_meters":9200,"station_id":"ce4bhjp2rcd13ifvqga0","pricing_plan_id":"cebpf4jnsgd1na2vs0mg"},{"bike_id":"31cccb43-d26f-4e5b-8296-65be7de4d061","system_id":"levelo_inurba_marseille","lat":43.30115,"lon":5.39885,"is_reserved":false,"is_disabled":false,"rental_uris":{"android":"levelo://app?vid=31cccb43-d26f-4e5b-8296-65be7de4d061","ios":"levelo://app?vid=31cccb43-d26f-4e5b-8296-65be7de4d061"},"vehicle_type_id":"4","last_reported":1725995197,"current_range_meters":14000,"station_id":"ce4bh0h2rcd13ifvqd40","pricing_plan_id":"cebpf4jnsgd1na2vs0mg"},{"bike_id":"d697b249-65e8-4d30-95dc-6ab86fa14abb","system_id":"levelo_inurba_marseille","lat":43.32364,"lon":5.3888,"is_reserved":false,"is_disabled":false,"rental_uris":{"android":"levelo://app?vid=d697b249-65e8-4d30-95dc-6ab86fa14abb","ios":"levelo://app?vid=d697b249-65e8-4d30-95dc-6ab86fa14abb"},"vehicle_type_id":"4","last_reported":1725995197,"current_range_meters":30400,"station_id":"ce4bhqp2rcd13ifvqhog","pricing_plan_id":"cebpf4jnsgd1na2vs0mg"},{"bike_id":"8082d7b6-3f37-4f9f-958a-ba026a6e9485","system_id":"levelo_inurba_marseille","lat":43.23961,"lon":5.36625,"is_reserved":false,"is_disabled":false,"rental_uris":{"android":"levelo://app?vid=8082d7b6-3f37-4f9f-958a-ba026a6e9485","ios":"levelo://app?vid=8082d7b6-3f37-4f9f-958a-ba026a6e9485"},"vehicle_type_id":"4","last_reported":1725995197,"current_range_meters":13600,"station_id":"ce4bhi12rcd13ifvqfp0","pricing_plan_id":"cebpf4jnsgd1na2vs0mg"},{"bike_id":"8f776d3a-b850-4c02-90df-23831b1848aa","system_id":"levelo_inurba_marseille","lat":43.29551,"lon":5.42301,"is_reserved":false,"is_disabled":false,"rental_uris":{"android":"levelo://app?vid=8f776d3a-b850-4c02-90df-23831b1848aa","ios":"levelo://app?vid=8f776d3a-b850-4c02-90df-23831b1848aa"},"vehicle_type_id":"4","last_reported":1725995197,"current_range_meters":28400,"station_id":"ce4bhph2rcd13ifvqhdg","pricing_plan_id":"cebpf4jnsgd1na2vs0mg"},{"bike_id":"952d5b1c-685e-4d32-aea8-377336def2db","system_id":"levelo_inurba_marseille","lat":43.29278,"lon":5.40118,"is_reserved":false,"is_disabled":false,"rental_uris":{"android":"levelo://app?vid=952d5b1c-685e-4d32-aea8-377336def2db","ios":"levelo://app?vid=952d5b1c-685e-4d32-aea8-377336def2db"},"vehicle_type_id":"4","last_reported":1725995197,"current_range_meters":30000,"station_id":"ce4bh312rcd13ifvqdk0","pricing_plan_id":"cebpf4jnsgd1na2vs0mg"},{"bike_id":"0b873e3d-5177-4b00-9590-fc5c775c42e9","system_id":"levelo_inurba_marseille","lat":43.32032,"lon":5.41549,"is_reserved":false,"is_disabled":false,"rental_uris":{"android":"levelo://app?vid=0b873e3d-5177-4b00-9590-fc5c775c42e9","ios":"levelo://app?vid=0b873e3d-5177-4b00-9590-fc5c775c42e9"},"vehicle_type_id":"4","last_reported":1725995197,"current_range_meters":15200,"station_id":"ce4bhq92rcd13ifvqhkg","pricing_plan_id":"cebpf4jnsgd1na2vs0mg"},{"bike_id":"0a559297-f45e-4281-9be5-dbe8dc2d441e","system_id":"levelo_inurba_marseille","lat":43.29568,"lon":5.39988,"is_reserved":false,"is_disabled":false,"rental_uris":{"android":"levelo://app?vid=0a559297-f45e-4281-9be5-dbe8dc2d441e","ios":"levelo://app?vid=0a559297-f45e-4281-9be5-dbe8dc2d441e"},"vehicle_type_id":"4","last_reported":1725995197,"current_range_meters":8400,"station_id":"ce4bh312rcd13ifvqdj0","pricing_plan_id":"cebpf4jnsgd1na2vs0mg"},{"bike_id":"68a5aba2-2b40-4cf4-baa5-3c25f451a9fc","system_id":"levelo_inurba_marseille","lat":43.2582,"lon":5.39442,"is_reserved":false,"is_disabled":false,"rental_uris":{"android":"levelo://app?vid=68a5aba2-2b40-4cf4-baa5-3c25f451a9fc","ios":"levelo://app?vid=68a5aba2-2b40-4cf4-baa5-3c25f451a9fc"},"vehicle_type_id":"4","last_reported":1725995197,"current_range_meters":8000,"station_id":"ce4bhip2rcd13ifvqft0","pricing_plan_id":"cebpf4jnsgd1na2vs0mg"},{"bike_id":"44c7f72f-afac-4027-8f81-6ffa7b045cce","system_id":"levelo_inurba_marseille","lat":43.28459,"lon":5.35896,"is_reserved":false,"is_disabled":false,"rental_uris":{"android":"levelo://app?vid=44c7f72f-afac-4027-8f81-6ffa7b045cce","ios":"levelo://app?vid=44c7f72f-afac-4027-8f81-6ffa7b045cce"},"vehicle_type_id":"4","last_reported":1725995197,"current_range_meters":38800,"station_id":"ce4bhah2rcd13ifvqei0","pricing_plan_id":"cebpf4jnsgd1na2vs0mg"},{"bike_id":"26472f42-99b5-4197-aad1-5639b283609b","system_id":"levelo_inurba_marseille","lat":43.31836,"lon":5.37392,"is_reserved":false,"is_disabled":false,"rental_uris":{"android":"levelo://app?vid=26472f42-99b5-4197-aad1-5639b283609b","ios":"levelo://app?vid=26472f42-99b5-4197-aad1-5639b283609b"},"vehicle_type_id":"4","last_reported":1725995197,"current_range_meters":9600,"station_id":"","pricing_plan_id":"cebpf4jnsgd1na2vs0mg"},{"bike_id":"e04008a3-d2b4-40eb-9815-b324c664f626","system_id":"levelo_inurba_marseille","lat":43.28458,"lon":5.35886,"is_reserved":false,"is_disabled":false,"rental_uris":{"android":"levelo://app?vid=e04008a3-d2b4-40eb-9815-b324c664f626","ios":"levelo://app?vid=e04008a3-d2b4-40eb-9815-b324c664f626"},"vehicle_type_id":"4","last_reported":1725995197,"current_range_meters":14000,"station_id":"ce4bhah2rcd13ifvqei0","pricing_plan_id":"cebpf4jnsgd1na2vs0mg"},{"bike_id":"e2427abc-072d-44bf-85a9-422cec2ceea5","system_id":"levelo_inurba_marseille","lat":43.30876,"lon":5.39633,"is_reserved":false,"is_disabled":false,"rental_uris":{"android":"levelo://app?vid=e2427abc-072d-44bf-85a9-422cec2ceea5","ios":"levelo://app?vid=e2427abc-072d-44bf-85a9-422cec2ceea5"},"vehicle_type_id":"4","last_reported":1725995197,"current_range_meters":22800,"station_id":"ce4bh012rcd13ifvqcv0","pricing_plan_id":"cebpf4jnsgd1na2vs0mg"},{"bike_id":"13ca1fff-a3e1-44e3-a380-4af6f249d7b0","system_id":"levelo_inurba_marseille","lat":43.32366,"lon":5.38883,"is_reserved":false,"is_disabled":false,"rental_uris":{"android":"levelo://app?vid=13ca1fff-a3e1-44e3-a380-4af6f249d7b0","ios":"levelo://app?vid=13ca1fff-a3e1-44e3-a380-4af6f249d7b0"},"vehicle_type_id":"4","last_reported":1725995197,"current_range_meters":35600,"station_id":"ce4bhqp2rcd13ifvqhog","pricing_plan_id":"cebpf4jnsgd1na2vs0mg"},{"bike_id":"2abbee7d-44a0-44f3-8022-117022dd28d1","system_id":"levelo_inurba_marseille","lat":43.30891,"lon":5.37175,"is_reserved":false,"is_disabled":false,"rental_uris":{"android":"levelo://app?vid=2abbee7d-44a0-44f3-8022-117022dd28d1","ios":"levelo://app?vid=2abbee7d-44a0-44f3-8022-117022dd28d1"},"vehicle_type_id":"4","last_reported":1725995197,"current_range_meters":24000,"station_id":"ce4bguh2rcd13ifvqckg","pricing_plan_id":"cebpf4jnsgd1na2vs0mg"},{"bike_id":"ed26cede-240a-410c-a70c-4b81d9482acf","system_id":"levelo_inurba_marseille","lat":43.295336,"lon":5.39037,"is_reserved":false,"is_disabled":false,"rental_uris":{"android":"levelo://app?vid=ed26cede-240a-410c-a70c-4b81d9482acf","ios":"levelo://app?vid=ed26cede-240a-410c-a70c-4b81d9482acf"},"vehicle_type_id":"4","last_reported":1725995197,"current_range_meters":38000,"station_id":"ce4bh3p2rcd13ifvqdp0","pricing_plan_id":"cebpf4jnsgd1na2vs0mg"},{"bike_id":"367dd199-162b-4122-b34b-5e81832a0ef9","system_id":"levelo_inurba_marseille","lat":43.299261,"lon":5.374552,"is_reserved":false,"is_disabled":false,"rental_uris":{"android":"levelo://app?vid=367dd199-162b-4122-b34b-5e81832a0ef9","ios":"levelo://app?vid=367dd199-162b-4122-b34b-5e81832a0ef9"},"vehicle_type_id":"4","last_reported":1725995197,"current_range_meters":14400,"station_id":"ce4bgjh2rcd13ifvqbg0","pricing_plan_id":"cebpf4jnsgd1na2vs0mg"},{"bike_id":"ca1d9074-b589-4fee-9c55-307cfa895bd7","system_id":"levelo_inurba_marseille","lat":43.25582,"lon":5.3823,"is_reserved":false,"is_disabled":false,"rental_uris":{"android":"levelo://app?vid=ca1d9074-b589-4fee-9c55-307cfa895bd7","ios":"levelo://app?vid=ca1d9074-b589-4fee-9c55-307cfa895bd7"},"vehicle_type_id":"4","last_reported":1725995197,"current_range_meters":10000,"station_id":"ce4bhih2rcd13ifvqfs0","pricing_plan_id":"cebpf4jnsgd1na2vs0mg"},{"bike_id":"64c2a0ef-e96b-4d26-9586-89a870078d4f","system_id":"levelo_inurba_marseille","lat":43.30415,"lon":5.41278,"is_reserved":false,"is_disabled":false,"rental_uris":{"android":"levelo://app?vid=64c2a0ef-e96b-4d26-9586-89a870078d4f","ios":"levelo://app?vid=64c2a0ef-e96b-4d26-9586-89a870078d4f"},"vehicle_type_id":"4","last_reported":1725995197,"current_range_meters":14000,"station_id":"ce4bhop2rcd13ifvqh8g","pricing_plan_id":"cebpf4jnsgd1na2vs0mg"},