{"last_updated":1734991723,"ttl":60,"version":"2.2","data":{"bikes":[{"bike_id":"d03f2c9a-9d47-4312-a273-3e6305016fd0","system_id":"levelo_inurba_marseille","lat":43.29614,"lon":5.38109,"is_reserved":false,"is_disabled":false,"rental_uris":{"android":"levelo://app?vid=d03f2c9a-9d47-4312-a273-3e6305016fd0","ios":"levelo://app?vid=d03f2c9a-9d47-4312-a273-3e6305016fd0"},"vehicle_type_id":"4","last_reported":1734991723,"current_range_meters":17600,"station_id":"ce4bgl12rcd13ifvqbo0","pricing_plan_id":"cebpf4jnsgd1na2vs0mg"},{"bike_id":"a37d4ae6-3b8f-4311-8a45-7b8e9d8cd47b","system_id":"levelo_inurba_marseille","lat":43.29791,"lon":5.38078,"is_reserved":false,"is_disabled":false,"rental_uris":{"android":"levelo://app?vid=a37d4ae6-3b8f-4311-8a45-7b8e9d8cd47b","ios":"levelo://app?vid=a37d4ae6-3b8f-4311-8a45-7b8e9d8cd47b"},"vehicle_type_id":"4","last_reported":1734991723,"current_range_meters":27600,"station_id":"ce4bgip2rcd13ifvqbb0","pricing_plan_id":"cebpf4jnsgd1na2vs0mg"},{"bike_id":"b0190d43-f866-40ac-9481-87078cf0e5c0","system_id":"levelo_inurba_marseille","lat":43.28267,"lon":5.35067,"is_reserved":false,"is_disabled":false,"rental_uris":{"android":"levelo://app?vid=b0190d43-f866-40ac-9481-87078cf0e5c0","ios":"levelo://app?vid=b0190d43-f866-40ac-9481-87078cf0e5c0"},"vehicle_type_id":"4","last_reported":1734991723,"current_range_meters":16000,"station_id":"ce4bhbp2rcd13ifvqerg","pricing_plan_id":"cebpf4jnsgd1na2vs0mg"},{"bike_id":"b8418577-248f-42c9-a7ca-adc55b0c9814","system_id":"levelo_inurba_marseille","lat":43.25088,"lon":5.39525,"is_reserved":false,"is_disabled":false,"rental_uris":{"android":"levelo://app?vid=b8418577-248f-42c9-a7ca-adc55b0c9814","ios":"levelo://app?vid=b8418577-248f-42c9-a7ca-adc55b0c9814"},"vehicle_type_id":"4","last_reported":1734991723,"current_range_meters":25200,"station_id":"ce4bhm12rcd13ifvqgkg","pricing_plan_id":"cebpf4jnsgd1na2vs0mg"},{"bike_id":"6c0e2fb5-015c-4176-b0bb-902f57d44214","system_id":"levelo_inurba_marseille","lat":43.28947,"lon":5.39636,"is_reserved":false,"is_disabled":true,"rental_uris":{"android":"levelo://app?vid=6c0e2fb5-015c-4176-b0bb-902f57d44214","ios":"levelo://app?vid=6c0e2fb5-015c-4176-b0bb-902f57d44214"},"vehicle_type_id":"4","last_reported":1734991723,"current_range_meters":23200,"station_id":"ce4bh3h2rcd13ifvqdn0","pricing_plan_id":"cebpf4jnsgd1na2vs0mg"},{"bike_id":"05ea7e4b-4117-45ef-9b68-18f1a46b929e","system_id":"levelo_inurba_marseille","lat":43.29072,"lon":5.37165,"is_reserved":false,"is_disabled":false,"rental_uris":{"android":"levelo://app?vid=05ea7e4b-4117-45ef-9b68-18f1a46b929e","ios":"levelo://app?vid=05ea7e4b-4117-45ef-9b68-18f1a46b929e"},"vehicle_type_id":"4","last_reported":1734991723,"current_range_meters":16000,"station_id":"ce4bh5p2rcd13ifvqe4g","pricing_plan_id":"cebpf4jnsgd1na2vs0mg"},{"bike_id":"0ab5ea8e-0090-4064-8482-e275d55e95c1","system_id":"levelo_inurba_marseille","lat":43.29969,"lon":5.38492,"is_reserved":false,"is_disabled":false,"rental_uris":{"android":"levelo://app?vid=0ab5ea8e-0090-4064-8482-e275d55e95c1","ios":"levelo://app?vid=0ab5ea8e-0090-4064-8482-e275d55e95c1"},"vehicle_type_id":"4","last_reported":1734991723,"current_range_meters":34000,"station_id":"ce4bgj92rcd13ifvqbd0","pricing_plan_id":"cebpf4jnsgd1na2vs0mg"},{"bike_id":"309a87e9-9b5e-4e9a-8bc8-15574014cdc6","system_id":"levelo_inurba_marseille","lat":43.2439,"lon":5.37054,"is_reserved":false,"is_disabled":false,"rental_uris":{"android":"levelo://app?vid=309a87e9-9b5e-4e9a-8bc8-15574014cdc6","ios":"levelo://app?vid=309a87e9-9b5e-4e9a-8bc8-15574014cdc6"},"vehicle_type_id":"4","last_reported":1734991723,"current_range_meters":37600,"station_id":"ce4bhhh2rcd13ifvqfk0","pricing_plan_id":"cebpf4jnsgd1na2vs0mg"},{"bike_id":"195cd00e-a9a2-41ab-bb32-b6ae9f911685","system_id":"levelo_inurba_marseille","lat":43.29812,"lon":5.40403,"is_reserved":false,"is_disabled":false,"rental_uris":{"android":"levelo://app?vid=195cd00e-a9a2-41ab-bb32-b6ae9f911685","ios":"levelo://app?vid=195cd00e-a9a2-41ab-bb32-b6ae9f911685"},"vehicle_type_id":"4","last_reported":1734991723,"current_range_meters":37600,"station_id":"ce4bh112rcd13ifvqd90","pricing_plan_id":"cebpf4jnsgd1na2vs0mg"},{"bike_id":"f7e5e57a-9e67-4a34-8c87-f182c2d1ab80","system_id":"levelo_inurba_marseille","lat":43.27066,"lon":5.42273,"is_reserved":false,"is_disabled":false,"rental_uris":{"android":"levelo://app?vid=f7e5e57a-9e67-4a34-8c87-f182c2d1ab80","ios":"levelo://app?vid=f7e5e57a-9e67-4a34-8c87-f182c2d1ab80"},"vehicle_type_id":"4","last_reported":1734991723,"current_range_meters":30400,"station_id":"ce4bhk92rcd13ifvqgb0","pricing_plan_id":"cebpf4jnsgd1na2vs0mg"},{"bike_id":"3a044041-3464-470e-b37f-dbc05ff5c634","system_id":"levelo_inurba_marseille","lat":43.31697,"lon":5.43693,"is_reserved":false,"is_disabled":false,"rental_uris":{"android":"levelo://app?vid=3a044041-3464-470e-b37f-dbc05ff5c634","ios":"levelo://app?vid=3a044041-3464-470e-b37f-dbc05ff5c634"},"vehicle_type_id":"4","last_reported":1734991723,"current_range_meters":37600,"station_id":"ce4bhp92rcd13ifvqhcg","pricing_plan_id":"cebpf4jnsgd1na2vs0mg"},{"bike_id":"96f67906-c94f-4a78-ae6e-fdff28a17019","system_id":"levelo_inurba_marseille","lat":43.33753,"lon":5.37429,"is_reserved":false,"is_disabled":false,"rental_uris":{"android":"levelo://app?vid=96f67906-c94f-4a78-ae6e-fdff28a17019","ios":"levelo://app?vid=96f67906-c94f-4a78-ae6e-fdff28a17019"},"vehicle_type_id":"4","last_reported":1734991723,"current_range_meters":19600,"station_id":"","pricing_plan_id":"cebpf4jnsgd1na2vs0mg"},{"bike_id":"795076f9-83a5-46e4-979a-bed3b01d1ac4","system_id":"levelo_inurba_marseille","lat":43.28855,"lon":5.35847,"is_reserved":false,"is_disabled":false,"rental_uris":{"android":"levelo://app?vid=795076f9-83a5-46e4-979a-bed3b01d1ac4","ios":"levelo://app?vid=795076f9-83a5-46e4-979a-bed3b01d1ac4"},"vehicle_type_id":"4","last_reported":1734991723,"current_range_meters":10800,"station_id":"ce4bhb12rcd13ifvqem0","pricing_plan_id":"cebpf4jnsgd1na2vs0mg"},{"bike_id":"454a2917-bbfc-4010-a3c2-3e352c41d99d","system_id":"levelo_inurba_marseille","lat":43.29253,"lon":5.40904,"is_reserved":false,"is_disabled":false,"rental_uris":{"android":"levelo://app?vid=454a2917-bbfc-4010-a3c2-3e352c41d99d","ios":"levelo://app?vid=454a2917-bbfc-4010-a3c2-3e352c41d99d"},"vehicle_type_id":"4","last_reported":1734991723,"current_range_meters":38800,"station_id":"ce4bh192rcd13ifvqdc0","pricing_plan_id":"cebpf4jnsgd1na2vs0mg"},{"bike_id":"8ba84ccc-8626-48fe-9205-f75891433829","system_id":"levelo_inurba_marseille","lat":43.2549,"lon":5.37645,"is_reserved":false,"is_disabled":false,"rental_uris":{"android":"levelo://app?vid=8ba84ccc-8626-48fe-9205-f75891433829","ios":"levelo://app?vid=8ba84ccc-8626-48fe-9205-f75891433829"},"vehicle_type_id":"4","last_reported":1734991723,"current_range_meters":38800,"station_id":"ce4bhh12rcd13ifvqff0","pricing_plan_id":"cebpf4jnsgd1na2vs0mg"},{"bike_id":"13fd8ed7-3284-4d21-9372-d871d71d55dc","system_id":"levelo_inurba_marseille","lat":43.29624,"lon":5.37711,"is_reserved":false,"is_disabled":false,"rental_uris":{"android":"levelo://app?vid=13fd8ed7-3284-4d21-9372-d871d71d55dc","ios":"levelo://app?vid=13fd8ed7-3284-4d21-9372-d871d71d55dc"},"vehicle_type_id":"4","last_reported":1734991723,"current_range_meters":16800,"station_id":"ce4bgi92rcd13ifvqb90","pricing_plan_id":"cebpf4jnsgd1na2vs0mg"},{"bike_id":"4145cc2d-92bc-4c78-b685-0b853f2fbe6a","system_id":"levelo_inurba_marseille","lat":43.28856,"lon":5.393,"is_reserved":false,"is_disabled":false,"rental_uris":{"android":"levelo://app?vid=4145cc2d-92bc-4c78-b685-0b853f2fbe6a","ios":"levelo://app?vid=4145cc2d-92bc-4c78-b685-0b853f2fbe6a"},"vehicle_type_id":"4","last_reported":1734991723,"current_range_meters":27200,"station_id":"ce4bh2p2rcd13ifvqdi0","pricing_plan_id":"cebpf4jnsgd1na2vs0mg"},{"bike_id":"be3040e9-6906-407e-a792-9696f53ac95d","system_id":"levelo_inurba_marseille","lat":43.29189,"lon":5.39321,"is_reserved":false,"is_disabled":false,"rental_uris":{"android":"levelo://app?vid=be3040e9-6906-407e-a792-9696f53ac95d","ios":"levelo://app?vid=be3040e9-6906-407e-a792-9696f53ac95d"},"vehicle_type_id":"4","last_reported":1734991723,"current_range_meters":39200,"station_id":"ce4bh192rcd13ifvqdd0","pricing_plan_id":"cebpf4jnsgd1na2vs0mg"},{"bike_id":"15546ba2-38ac-400d-b271-ae9b7236f8a7","system_id":"levelo_inurba_marseille","lat":43.27069,"lon":5.42281,"is_reserved":false,"is_disabled":true,"rental_uris":{"android":"levelo://app?vid=15546ba2-38ac-400d-b271-ae9b7236f8a7","ios":"levelo://app?vid=15546ba2-38ac-400d-b271-ae9b7236f8a7"},"vehicle_type_id":"4","last_reported":1734991723,"current_range_meters":38800,"station_id":"ce4bhk92rcd13ifvqgb0","pricing_plan_id":"cebpf4jnsgd1na2vs0mg"},{"bike_id":"c66abb8e-8df5-4273-a071-f5581230d15b","system_id":"levelo_inurba_marseille","lat":43.30142,"lon":5.37415,"is_reserved":false,"is_disabled":false,"rental_uris":{"android":"levelo://app?vid=c66abb8e-8df5-4273-a071-f5581230d15b","ios":"levelo://app?vid=c66abb8e-8df5-4273-a071-f5581230d15b"},"vehicle_type_id":"4","last_reported":1734991723,"current_range_meters":37600,"station_id":"ce4bgs92rcd13ifvqcc0","pricing_plan_id":"cebpf4jnsgd1na2vs0mg"},{"bike_id":"2162ca2e-1814-46b7-933a-0dfd1f1136dd","system_id":"levelo_inurba_marseille","lat":43.25831,"lon":5.39431,"is_reserved":false,"is_disabled":false,"rental_uris":{"android":"levelo://app?vid=2162ca2e-1814-46b7-933a-0dfd1f1136dd","ios":"levelo://app?vid=2162ca2e-1814-46b7-933a-0dfd1f1136dd"},"vehicle_type_id":"4","last_reported":1734991723,"current_range_meters":14400,"station_id":"ce4bhip2rcd13ifvqft0","pricing_plan_id":"cebpf4jnsgd1na2vs0mg"},{"bike_id":"483c1a88-3d76-4ce2-b8a0-18ab3d6306de","system_id":"levelo_inurba_marseille","lat":43.299405,"lon":5.365436,"is_reserved":false,"is_disabled":false,"rental_uris":{"android":"levelo://app?vid=483c1a88-3d76-4ce2-b8a0-18ab3d6306de","ios":"levelo://app?vid=483c1a88-3d76-4ce2-b8a0-18ab3d6306de"},"vehicle_type_id":"4","last_reported":1734991723,"current_range_meters":38800,"station_id":"ce4bgm92rcd13ifvqbr0","pricing_plan_id":"cebpf4jnsgd1na2vs0mg"},{"bike_id":"677767c6-7ea3-4173-ae5e-27b0074a22e9","system_id":"levelo_inurba_marseille","lat":43.28731,"lon":5.36075,"is_reserved":false,"is_disabled":false,"rental_uris":{"android":"levelo://app?vid=677767c6-7ea3-4173-ae5e-27b0074a22e9","ios":"levelo://app?vid=677767c6-7ea3-4173-ae5e-27b0074a22e9"},"vehicle_type_id":"4","last_reported":1734991723,"current_range_meters":38800,"station_id":"cki0cbj6b192h4jlfktg","pricing_plan_id":"cebpf4jnsgd1na2vs0mg"},{"bike_id":"b5305089-62ba-43a5-a181-d0cf47187869","system_id":"levelo_inurba_marseille","lat":43.26495,"lon":5.39546,"is_reserved":false,"is_disabled":false,"rental_uris":{"android":"levelo://app?vid=b5305089-62ba-43a5-a181-d0cf47187869","ios":"levelo://app?vid=b5305089-62ba-43a5-a181-d0cf47187869"},"vehicle_type_id":"4","last_reported":1734991723,"current_range_meters":24000,"station_id":"ce4bhi12rcd13ifvqfq0","pricing_plan_id":"cebpf4jnsgd1na2vs0mg"},{"bike_id":"671b6366-55bc-4b51-a3a4-65fbc5c39302","system_id":"levelo_inurba_marseille","lat":43.32053,"lon":5.41561,"is_reserved":false,"is_disabled":false,"rental_uris":{"android":"levelo://app?vid=671b6366-55bc-4b51-a3a4-65fbc5c39302","ios":"levelo://app?vid=671b6366-55bc-4b51-a3a4-65fbc5c39302"},"vehicle_type_id":"4","last_reported":1734991723,"current_range_meters":35600,"station_id":"ce4bhq92rcd13ifvqhkg","pricing_plan_id":"cebpf4jnsgd1na2vs0mg"},{"bike_id":"c738e5be-079d-4ee7-a0b8-a4518df17b8e","system_id":"levelo_inurba_marseille","lat":43.28071,"lon":5.39653,"is_reserved":false,"is_disabled":false,"rental_uris":{"android":"levelo://app?vid=c738e5be-079d-4ee7-a0b8-a4518df17b8e","ios":"levelo://app?vid=c738e5be-079d-4ee7-a0b8-a4518df17b8e"},"vehicle_type_id":"4","last_reported":1734991723,"current_range_meters":24800,"station_id":"ce4bho12rcd13ifvqh2g","pricing_plan_id":"cebpf4jnsgd1na2vs0mg"},{"bike_id":"d2392b21-1a33-49fb-a89d-001f0092fb2c","system_id":"levelo_inurba_marseille","lat":43.30878,"lon":5.3964,"is_reserved":false,"is_disabled":false,"rental_uris":{"android":"levelo://app?vid=d2392b21-1a33-49fb-a89d-001f0092fb2c","ios":"levelo://app?vid=d2392b21-1a33-49fb-a89d-001f0092fb2c"},"vehicle_type_id":"4","last_reported":1734991723,"current_range_meters":38400,"station_id":"ce4bh012rcd13ifvqcv0","pricing_plan_id":"cebpf4jnsgd1na2vs0mg"},{"bike_id":"39076371-5d4c-42aa-82bc-3aa69939e51e","system_id":"levelo_inurba_marseille","lat":43.25724,"lon":5.41109,"is_reserved":false,"is_disabled":false,"rental_uris":{"android":"levelo://app?vid=39076371-5d4c-42aa-82bc-3aa69939e51e","ios":"levelo://app?vid=39076371-5d4c-42aa-82bc-3aa69939e51e"},"vehicle_type_id":"4","last_reported":1734991723,"current_range_meters":38800,"station_id":"ce4bhkp2rcd13ifvqgd0","pricing_plan_id":"cebpf4jnsgd1na2vs0mg"},{"bike_id":"3130a1e9-02dc-483e-bca9-c7faabf763a1","system_id":"levelo_inurba_marseille","lat":43.25499,"lon":5.37651,"is_reserved":false,"is_disabled":false,"rental_uris":{"android":"levelo://app?vid=3130a1e9-02dc-483e-bca9-c7faabf763a1","ios":"levelo://app?vid=3130a1e9-02dc-483e-bca9-c7faabf763a1"},"vehicle_type_id":"4","last_reported":1734991723,"current_range_meters":38800,"station_id":"ce4bhh12rcd13ifvqff0","pricing_plan_id":"cebpf4jnsgd1na2vs0mg"},{"bike_id":"ea8c40cc-174b-443f-b73d-f844c946648a","system_id":"levelo_inurba_marseille","lat":43.24644,"lon":5.3888,"is_reserved":false,"is_disabled":false,"rental_uris":{"android":"levelo://app?vid=ea8c40cc-174b-443f-b73d-f844c946648a","ios":"levelo://app?vid=ea8c40cc-174b-443f-b73d-f844c946648a"},"vehicle_type_id":"4","last_reported":1734991723,"current_range_meters":30800,"station_id":"ce4bhg12rcd13ifvqf60","pricing_plan_id":"cebpf4jnsgd1na2vs0mg"},{"bike_id":"b76cea7e-5025-4e14-a8c7-eebf31292c4c","system_id":"levelo_inurba_marseille","lat":43.26068,"lon":5.39395,"is_reserved":false,"is_disabled":true,"rental_uris":{"android":"levelo://app?vid=b76cea7e-5025-4e14-a8c7-eebf31292c4c","ios":"levelo://app?vid=b76cea7e-5025-4e14-a8c7-eebf31292c4c"},"vehicle_type_id":"4","last_reported":1734991723,"current_range_meters":27600,"station_id":"ce4bhh92rcd13ifvqfj0","pricing_plan_id":"cebpf4jnsgd1na2vs0mg"},{"bike_id":"e537e28b-1eb5-4fbb-94f3-b8d20ff59a9d","system_id":"levelo_inurba_marseille","lat":43.28933,"lon":5.36386,"is_reserved":false,"is_disabled":true,"rental_uris":{"android":"levelo://app?vid=e537e28b-1eb5-4fbb-94f3-b8d20ff59a9d","ios":"levelo://app?vid=e537e28b-1eb5-4fbb-94f3-b8d20ff59a9d"},"vehicle_type_id":"4","last_reported":1734991723,"current_range_meters":6800,"station_id":"ce4bhc92rcd13ifvqetg","pricing_plan_id":"cebpf4jnsgd1na2vs0mg"},{"bike_id":"b3945240-5b84-40cd-865a-ee9d210e6edb","system_id":"levelo_inurba_marseille","lat":43.28468,"lon":5.35892,"is_reserved":false,"is_disabled":false,"rental_uris":{"android":"levelo://app?vid=b3945240-5b84-40cd-865a-ee9d210e6edb","ios":"levelo://app?vid=b3945240-5b84-40cd-865a-ee9d210e6edb"},"vehicle_type_id":"4","last_reported":1734991723,"current_range_meters":28800,"station_id":"ce4bhah2rcd13ifvqei0","pricing_plan_id":"cebpf4jnsgd1na2vs0mg"},{"bike_id":"4640efba-219d-4755-95ea-1eeb325bea3d","system_id":"levelo_inurba_marseille","lat":43.29008,"lon":5.35608,"is_reserved":false,"is_disabled":false,"rental_uris":{"android":"levelo://app?vid=4640efba-219d-4755-95ea-1eeb325bea3d","ios":"levelo://app?vid=4640efba-219d-4755-95ea-1eeb325bea3d"},"vehicle_type_id":"4","last_reported":1734991723,"current_range_meters":36800,"station_id":"ce4bhb92rcd13ifvqen0","pricing_plan_id":"cebpf4jnsgd1na2vs0mg"},{"bike_id":"f64237d5-46cf-42d8-870d-cc1e4d25f3e7","system_id":"levelo_inurba_marseille","lat":43.26693,"lon":5.38265,"is_reserved":false,"is_disabled":false,"rental_uris":{"android":"levelo://app?vid=f64237d5-46cf-42d8-870d-cc1e4d25f3e7","ios":"levelo://app?vid=f64237d5-46cf-42d8-870d-cc1e4d25f3e7"},"vehicle_type_id":"4","last_reported":1734991723,"current_range_meters":32000,"station_id":"ce4bhg92rcd13ifvqf90","pricing_plan_id":"cebpf4jnsgd1na2vs0mg"},{"bike_id":"5d29fc56-dbb2-4006-96bc-27e181f8d4f5","system_id":"levelo_inurba_marseille","lat":43.2985,"lon":5.3628,"is_reserved":false,"is_disabled":false,"rental_uris":{"android":"levelo://app?vid=5d29fc56-dbb2-4006-96bc-27e181f8d4f5","ios":"levelo://app?vid=5d29fc56-dbb2-4006-96bc-27e181f8d4f5"},"vehicle_type_id":"4","last_reported":1734991723,"current_range_meters":37600,"station_id":"ce4bgpp2rcd13ifvqc3g","pricing_plan_id":"cebpf4jnsgd1na2vs0mg"},{"bike_id":"bf0280ad-bda7-4529-a99f-08b28cf99de6","system_id":"levelo_inurba_marseille","lat":43.29943,"lon":5.36528,"is_reserved":false,"is_disabled":false,"rental_uris":{"android":"levelo://app?vid=bf0280ad-bda7-4529-a99f-08b28cf99de6","ios":"levelo://app?vid=bf0280ad-bda7-4529-a99f-08b28cf99de6"},"vehicle_type_id":"4","last_reported":1734991723,"current_range_meters":27200,"station_id":"ce4bgm92rcd13ifvqbr0","pricing_plan_id":"cebpf4jnsgd1na2vs0mg"},{"bike_id":"c23d9e31-ca67-4d79-99f6-0387bf9b7e4d","system_id":"levelo_inurba_marseille","lat":43.309093,"lon":5.368534,"is_reserved":false,"is_disabled":false,"rental_uris":{"android":"levelo://app?vid=c23d9e31-ca67-4d79-99f6-0387bf9b7e4d","ios":"levelo://app?vid=c23d9e31-ca67-4d79-99f6-0387bf9b7e4d"},"vehicle_type_id":"4","last_reported":1734991723,"current_range_meters":30000,"station_id":"ce4bgn92rcd13ifvqbvg","pricing_plan_id":"cebpf4jnsgd1na2vs0mg"},{"bike_id":"340bdf85-b70a-4fec-860b-4323592295f8","system_id":"levelo_inurba_marseille","lat":43.295991,"lon":5.375368,"is_reserved":false,"is_disabled":false,"rental_uris":{"android":"levelo://app?vid=340bdf85-b70a-4fec-860b-4323592295f8","ios":"levelo://app?vid=340bdf85-b70a-4fec-860b-4323592295f8"},"vehicle_type_id":"4","last_reported":1734991723,"current_range_meters":22000,"station_id":"ce4bgh92rcd13ifvqb50","pricing_plan_id":"cebpf4jnsgd1na2vs0mg"},{"bike_id":"e1a1fefb-6ade-46e6-98d6-844f07ab9872","system_id":"levelo_inurba_marseille","lat":43.29277,"lon":5.3684,"is_reserved":false,"is_disabled":false,"rental_uris":{"android":"levelo://app?vid=e1a1fefb-6ade-46e6-98d6-844f07ab9872","ios":"levelo://app?vid=e1a1fefb-6ade-46e6-98d6-844f07ab9872"},"vehicle_type_id":"4","last_reported":1734991723,"current_range_meters":18000,"station_id":"ce4bhbp2rcd13ifvqesg","pricing_plan_id":"cebpf4jnsgd1na2vs0mg"},{"bike_id":"07ce0959-f9bb-4002-a63d-601e2430ec70","system_id":"levelo_inurba_marseille","lat":43.29924,"lon":5.3747,"is_reserved":false,"is_disabled":false,"rental_uris":{"android":"levelo://app?vid=07ce0959-f9bb-4002-a63d-601e2430ec70","ios":"levelo://app?vid=07ce0959-f9bb-4002-a63d-601e2430ec70"},"vehicle_type_id":"4","last_reported":1734991723,"current_range_meters":30000,"station_id":"ce4bgjh2rcd13ifvqbg0","pricing_plan_id":"cebpf4jnsgd1na2vs0mg"},{"bike_id":"a9ff51bf-86fb-4147-924f-72786fa8d2ae","system_id":"levelo_inurba_marseille","lat":43.278231,"lon":5.407142,"is_reserved":false,"is_disabled":false,"rental_uris":{"android":"levelo://app?vid=a9ff51bf-86fb-4147-924f-72786fa8d2ae","ios":"levelo://app?vid=a9ff51bf-86fb-4147-924f-72786fa8d2ae"},"vehicle_type_id":"4","last_reported":1734991723,"current_range_meters":38800,"station_id":"ce4bhnh2rcd13ifvqgtg","pricing_plan_id":"cebpf4jnsgd1na2vs0mg"},{"bike_id":"e0d9e2a1-6ad6-4c0b-8816-76abf756d424","system_id":"levelo_inurba_marseille","lat":43.30467,"lon":5.37903,"is_reserved":false,"is_disabled":false,"rental_uris":{"android":"levelo://app?vid=e0d9e2a1-6ad6-4c0b-8816-76abf756d424","ios":"levelo://app?vid=e0d9e2a1-6ad6-4c0b-8816-76abf756d424"},"vehicle_type_id":"4","last_reported":1734991723,"current_range_meters":37600,"station_id":"ce4bgup2rcd13ifvqcn0","pricing_plan_id":"cebpf4jnsgd1na2vs0mg"},{"bike_id":"41d0d9f5-bb31-41f6-8358-898df39bf21c","system_id":"levelo_inurba_marseille","lat":43.25871,"lon":5.39901,"is_reserved":false,"is_disabled":false,"rental_uris":{"android":"levelo://app?vid=41d0d9f5-bb31-41f6-8358-898df39bf21c","ios":"levelo://app?vid=41d0d9f5-bb31-41f6-8358-898df39bf21c"},"vehicle_type_id":"4","last_reported":1734991723,"current_range_meters":38800,"station_id":"ce4bhl92rcd13ifvqghg","pricing_plan_id":"cebpf4jnsgd1na2vs0mg"},{"bike_id":"7e211114-fd49-4399-8a81-09d040af8d46","system_id":"levelo_inurba_marseille","lat":43.24809,"lon":5.37451,"is_reserved":false,"is_disabled":false,"rental_uris":{"android":"levelo://app?vid=7e211114-fd49-4399-8a81-09d040af8d46","ios":"levelo://app?vid=7e211114-fd49-4399-8a81-09d040af8d46"},"vehicle_type_id":"4","last_reported":1734991723,"current_range_meters":38800,"station_id":"ce4bhgh2rcd13ifvqfb0","pricing_plan_id":"cebpf4jnsgd1na2vs0mg"},{"bike_id":"8fd4ed25-e7b3-49be-b1e0-521234d05b10","system_id":"levelo_inurba_marseille","lat":43.3248,"lon":5.36565,"is_reserved":false,"is_disabled":false,"rental_uris":{"android":"levelo://app?vid=8fd4ed25-e7b3-49be-b1e0-521234d05b10","ios":"levelo://app?vid=8fd4ed25-e7b3-49be-b1e0-521234d05b10"},"vehicle_type_id":"4","last_reported":1734991723,"current_range_meters":27600,"station_id":"ce4bhs12rcd13ifvqhvg","pricing_plan_id":"cebpf4jnsgd1na2vs0mg"},{"bike_id":"eaa93ee8-361b-4bd6-bc3c-a3486958f70d","system_id":"levelo_inurba_marseille","lat":43.2979,"lon":5.371,"is_reserved":false,"is_disabled":false,"rental_uris":{"android":"levelo://app?vid=eaa93ee8-361b-4bd6-bc3c-a3486958f70d","ios":"levelo://app?vid=eaa93ee8-361b-4bd6-bc3c-a3486958f70d"},"vehicle_type_id":"4","last_reported":1734991723,"current_range_meters":38800,"station_id":"ce4bgop2rcd13ifvqc1g","pricing_plan_id":"cebpf4jnsgd1na2vs0mg"},{"bike_id":"8f2eb269-eb31-4395-be06-01c9454a3ad2","system_id":"levelo_inurba_marseille","lat":43.31167,"lon":5.3872,"is_reserved":false,"is_disabled":false,"rental_uris":{"android":"levelo://app?vid=8f2eb269-eb31-4395-be06-01c9454a3ad2","ios":"levelo://app?vid=8f2eb269-eb31-4395-be06-01c9454a3ad2"},"vehicle_type_id":"4","last_reported":1734991723,"current_range_meters":38800,"station_id":"ce4bgv12rcd13ifvqcp0","pricing_plan_id":"cebpf4jnsgd1na2vs0mg"},{"bike_id":"e724f4e5-0922-4e36-91f4-8a4c9d514ff5","system_id":"levelo_inurba_marseille","lat":43.2984,"lon":5.3626,"is_reserved":false,"is_disabled":false,"rental_uris":{"android":"levelo://app?vid=e724f4e5-0922-4e36-91f4-8a4c9d514ff5","ios":"levelo://app?vid=e724f4e5-0922-4e36-91f4-8a4c9d514ff5"},"vehicle_type_id":"4","last_reported":1734991723,"current_range_meters":38000,"station_id":"ce4bgpp2rcd13ifvqc3g","pricing_plan_id":"cebpf4jnsgd1na2vs0mg"},{"bike_id":"b96880af-6b6d-40e1-ad0f-5c01870b0232","system_id":"levelo_inurba_marseille","lat":43.31449,"lon":5.40208,"is_reserved":false,"is_disabled":false,"rental_uris":{"android":"levelo://app?vid=b96880af-6b6d-40e1-ad0f-5c01870b0232","ios":"levelo://app?vid=b96880af-6b6d-40e1-ad0f-5c01870b0232"},"vehicle_type_id":"4","last_reported":1734991723,"current_range_meters":18800,"station_id":"","pricing_plan_id":"cebpf4jnsgd1na2vs0mg"},{"bike_id":"6450116a-f36a-43fc-bc52-2de76e4deeb8","system_id":"levelo_inurba_marseille","lat":43.30788,"lon":5.37645,"is_reserved":false,"is_disabled":false,"rental_uris":{"android":"levelo://app?vid=6450116a-f36a-43fc-bc52-2de76e4deeb8","ios":"levelo://app?vid=6450116a-f36a-43fc-bc52-2de76e4deeb8"},"vehicle_type_id":"4","last_reported":1734991723,"current_range_meters":38800,"station_id":"ce4bgv92rcd13ifvqcq0","pricing_plan_id":"cebpf4jnsgd1na2vs0mg"},{"bike_id":"d98f0b8a-1ef4-43b4-85a1-12b00b5f4de1","system_id":"levelo_inurba_marseille","lat":43.28427,"lon":5.34986,"is_reserved":false,"is_disabled":false,"rental_uris":{"android":"levelo://app?vid=d98f0b8a-1ef4-43b4-85a1-12b00b5f4de1","ios":"levelo://app?vid=d98f0b8a-1ef4-43b4-85a1-12b00b5f4de1"},"vehicle_type_id":"4","last_reported":1734991723,"current_range_meters":28800,"station_id":"ce4bhbh2rcd13ifvqepg","pricing_plan_id":"cebpf4jnsgd1na2vs0mg"},{"bike_id":"dd3dbacf-347a-4a33-90ce-76bd61257750","system_id":"levelo_inurba_marseille","lat":43.3206,"lon":5.41517,"is_reserved":false,"is_disabled":true,"rental_uris":{"android":"levelo://app?vid=dd3dbacf-347a-4a33-90ce-76bd61257750","ios":"levelo://app?vid=dd3dbacf-347a-4a33-90ce-76bd61257750"},"vehicle_type_id":"4","last_reported":1734991723,"current_range_meters":38800,"station_id":"ce4bhq92rcd13ifvqhkg","pricing_plan_id":"cebpf4jnsgd1na2vs0mg"},{"bike_id":"fa7b6f51-07ff-4e1f-ba75-2880fb9ee1b2","system_id":"levelo_inurba_marseille","lat":43.2417,"lon":5.36392,"is_reserved":false,"is_disabled":false,"rental_uris":{"android":"levelo://app?vid=fa7b6f51-07ff-4e1f-ba75-2880fb9ee1b2","ios":"levelo://app?vid=fa7b6f51-07ff-4e1f-ba75-2880fb9ee1b2"},"vehicle_type_id":"4","last_reported":1734991723,"current_range_meters":38800,"station_id":"cpo36qri1sfpv3e86is0","pricing_plan_id":"cebpf4jnsgd1na2vs0mg"},{"bike_id":"71bbaaf0-30fa-412b-9088-f880a672af88","system_id":"levelo_inurba_marseille","lat":43.26025,"lon":5.37555,"is_reserved":false,"is_disabled":false,"rental_uris":{"android":"levelo://app?vid=71bbaaf0-30fa-412b-9088-f880a672af88","ios":"levelo://app?vid=71bbaaf0-30fa-412b-9088-f880a672af88"},"vehicle_type_id":"4","last_reported":1734991723,"current_range_meters":30400,"station_id":"ce4bhgh2rcd13ifvqfa0","pricing_plan_id":"cebpf4jnsgd1na2vs0mg"},{"bike_id":"b2f86a97-af08-41b2-8296-7e91d5858232","system_id":"levelo_inurba_marseille","lat":43.29004,"lon":5.35609,"is_reserved":false,"is_disabled":false,"rental_uris":{"android":"levelo://app?vid=b2f86a97-af08-41b2-8296-7e91d5858232","ios":"levelo://app?vid=b2f86a97-af08-41b2-8296-7e91d5858232"},"vehicle_type_id":"4","last_reported":1734991723,"current_range_meters":39200,"station_id":"ce4bhb92rcd13ifvqen0","pricing_plan_id":"cebpf4jnsgd1na2vs0mg"},{"bike_id":"a77224ad-3924-4a82-96f0-bfffbd9386b2","system_id":"levelo_inurba_marseille","lat":43.30595,"lon":5.37202,"is_reserved":false,"is_disabled":false,"rental_uris":{"android":"levelo://app?vid=a77224ad-3924-4a82-96f0-bfffbd9386b2","ios":"levelo://app?vid=a77224ad-3924-4a82-96f0-bfffbd9386b2"},"vehicle_type_id":"4","last_reported":1734991723,"current_range_meters":39200,"station_id":"ce4bgqh2rcd13ifvqc4g","pricing_plan_id":"cebpf4jnsgd1na2vs0mg"},{"bike_id":"980185bd-062a-4071-8686-3ad854900388","system_id":"levelo_inurba_marseille","lat":43.23196,"lon":5.39978,"is_reserved":false,"is_disabled":false,"rental_uris":{"android":"levelo://app?vid=980185bd-062a-4071-8686-3ad854900388","ios":"levelo://app?vid=980185bd-062a-4071-8686-3ad854900388"},"vehicle_type_id":"4","last_reported":1734991723,"current_range_meters":38000,"station_id":"ce4bhn12rcd13ifvqgqg","pricing_plan_id":"cebpf4jnsgd1na2vs0mg"},{"bike_id":"66564dc6-57ac-4647-881f-dfefbac5d8f4","system_id":"levelo_inurba_marseille","lat":43.28723,"lon":5.36092,"is_reserved":false,"is_disabled":false,"rental_uris":{"android":"levelo://app?vid=66564dc6-57ac-4647-881f-dfefbac5d8f4","ios":"levelo://app?vid=66564dc6-57ac-4647-881f-dfefbac5d8f4"},"vehicle_type_id":"4","last_reported":1734991723,"current_range_meters":35600,"station_id":"cki0cbj6b192h4jlfktg","pricing_plan_id":"cebpf4jnsgd1na2vs0mg"},{"bike_id":"acdc711f-0743-46ed-bcd0-b221ef49b1e8","system_id":"levelo_inurba_marseille","lat":43.260356,"lon":5.37541,"is_reserved":false,"is_disabled":false,"rental_uris":{"android":"levelo://app?vid=acdc711f-0743-46ed-bcd0-b221ef49b1e8","ios":"levelo://app?vid=acdc711f-0743-46ed-bcd0-b221ef49b1e8"},"vehicle_type_id":"4","last_reported":1734991723,"current_range_meters":38800,"station_id":"ce4bhgh2rcd13ifvqfa0","pricing_plan_id":"cebpf4jnsgd1na2vs0mg"},{"bike_id":"7cf473d8-21ed-437d-8fd8-af7d1a257998","system_id":"levelo_inurba_marseille","lat":43.30136,"lon":5.39874,"is_reserved":false,"is_disabled":false,"rental_uris":{"android":"levelo://app?vid=7cf473d8-21ed-437d-8fd8-af7d1a257998","ios":"levelo://app?vid=7cf473d8-21ed-437d-8fd8-af7d1a257998"},"vehicle_type_id":"4","last_reported":1734991723,"current_range_meters":37600,"station_id":"ce4bh0h2rcd13ifvqd40","pricing_plan_id":"cebpf4jnsgd1na2vs0mg"},{"bike_id":"f68d00f0-3148-454c-ba66-1d06594aedb3","system_id":"levelo_inurba_marseille","lat":43.299,"lon":5.38145,"is_reserved":false,"is_disabled":false,"rental_uris":{"android":"levelo://app?vid=f68d00f0-3148-454c-ba66-1d06594aedb3","ios":"levelo://app?vid=f68d00f0-3148-454c-ba66-1d06594aedb3"},"vehicle_type_id":"4","last_reported":1734991723,"current_range_meters":38800,"station_id":"ce4bgj12rcd13ifvqbc0","pricing_plan_id":"cebpf4jnsgd1na2vs0mg"},{"bike_id":"a87760bb-860a-41ff-af6f-797f55d9f68d","system_id":"levelo_inurba_marseille","lat":43.29789,"lon":5.39357,"is_reserved":false,"is_disabled":false,"rental_uris":{"android":"levelo://app?vid=a87760bb-860a-41ff-af6f-797f55d9f68d","ios":"levelo://app?vid=a87760bb-860a-41ff-af6f-797f55d9f68d"},"vehicle_type_id":"4","last_reported":1734991723,"current_range_meters":36000,"station_id":"chh1huq6cuj3fo74tm60","pricing_plan_id":"cebpf4jnsgd1na2vs0mg"},{"bike_id":"87ce7478-7bd4-452f-a986-b0c49c296f35","system_id":"levelo_inurba_marseille","lat":43.24649,"lon":5.38891,"is_reserved":false,"is_disabled":false,"rental_uris":{"android":"levelo://app?vid=87ce7478-7bd4-452f-a986-b0c49c296f35","ios":"levelo://app?vid=87ce7478-7bd4-452f-a986-b0c49c296f35"},"vehicle_type_id":"4","last_reported":1734991723,"current_range_meters":35600,"station_id":"ce4bhg12rcd13ifvqf60","pricing_plan_id":"cebpf4jnsgd1na2vs0mg"},{"bike_id":"370a5638-7ba2-4fb7-a94d-eb38ce88ddf9","system_id":"levelo_inurba_marseille","lat":43.31382,"lon":5.36739,"is_reserved":false,"is_disabled":false,"rental_uris":{"android":"levelo://app?vid=370a5638-7ba2-4fb7-a94d-eb38ce88ddf9","ios":"levelo://app?vid=370a5638-7ba2-4fb7-a94d-eb38ce88ddf9"},"vehicle_type_id":"4","last_reported":1734991723,"current_range_meters":38800,"station_id":"ce4bgr92rcd13ifvqc6g","pricing_plan_id":"cebpf4jnsgd1na2vs0mg"},{"bike_id":"1bff88cc-7e80-4f66-93cd-eccfe100465b","system_id":"levelo_inurba_marseille","lat":43.30524,"lon":5.36529,"is_reserved":false,"is_disabled":false,"rental_uris":{"android":"levelo://app?vid=1bff88cc-7e80-4f66-93cd-eccfe100465b","ios":"levelo://app?vid=1bff88cc-7e80-4f66-93cd-eccfe100465b"},"vehicle_type_id":"4","last_reported":1734991723,"current_range_meters":35200,"station_id":"ce4bgs12rcd13ifvqcag","pricing_plan_id":"cebpf4jnsgd1na2vs0mg"},{"bike_id":"fa27ee24-baf1-4edf-912c-c35c66d5d9f9","system_id":"levelo_inurba_marseille","lat":43.30531,"lon":5.36543,"is_reserved":false,"is_disabled":false,"rental_uris":{"android":"levelo://app?vid=fa27ee24-baf1-4edf-912c-c35c66d5d9f9","ios":"levelo://app?vid=fa27ee24-baf1-4edf-912c-c35c66d5d9f9"},"vehicle_type_id":"4","last_reported":1734991723,"current_range_meters":38800,"station_id":"ce4bgs12rcd13ifvqcag","pricing_plan_id":"cebpf4jnsgd1na2vs0mg"},{"bike_id":"eb493c73-faad-4c01-b4aa-27ac99a1af59","system_id":"levelo_inurba_marseille","lat":43.29611,"lon":5.37143,"is_reserved":false,"is_disabled":false,"rental_uris":{"android":"levelo://app?vid=eb493c73-faad-4c01-b4aa-27ac99a1af59","ios":"levelo://app?vid=eb493c73-faad-4c01-b4aa-27ac99a1af59"},"vehicle_type_id":"4","last_reported":1734991723,"current_range_meters":38800,"station_id":"ce4bgnh2rcd13ifvqc0g","pricing_plan_id":"cebpf4jnsgd1na2vs0mg"},{"bike_id":"cdfd034a-3e02-40a2-9d10-a134561ec453","system_id":"levelo_inurba_marseille","lat":43.29679,"lon":5.37167,"is_reserved":false,"is_disabled":false,"rental_uris":{"android":"levelo://app?vid=cdfd034a-3e02-40a2-9d10-a134561ec453","ios":"levelo://app?vid=cdfd034a-3e02-40a2-9d10-a134561ec453"},"vehicle_type_id":"4","last_reported":1734991723,"current_range_meters":24000,"station_id":"","pricing_plan_id":"cebpf4jnsgd1na2vs0mg"},{"bike_id":"2e6b6039-feca-41e2-bdae-6f6fa5562f75","system_id":"levelo_inurba_marseille","lat":43.30647,"lon":5.40083,"is_reserved":false,"is_disabled":false,"rental_uris":{"android":"levelo://app?vid=2e6b6039-feca-41e2-bdae-6f6fa5562f75","ios":"levelo://app?vid=2e6b6039-feca-41e2-bdae-6f6fa5562f75"},"vehicle_type_id":"4","last_reported":1734991723,"current_range_meters":39200,"station_id":"ce4bh112rcd13ifvqda0","pricing_plan_id":"cebpf4jnsgd1na2vs0mg"},{"bike_id":"875b2f8e-fb5f-468a-8ac6-218f77a44f01","system_id":"levelo_inurba_marseille","lat":43.3184,"lon":5.40841,"is_reserved":false,"is_disabled":false,"rental_uris":{"android":"levelo://app?vid=875b2f8e-fb5f-468a-8ac6-218f77a44f01","ios":"levelo://app?vid=875b2f8e-fb5f-468a-8ac6-218f77a44f01"},"vehicle_type_id":"4","last_reported":1734991723,"current_range_meters":38800,"station_id":"ce4bhq12rcd13ifvqhig","pricing_plan_id":"cebpf4jnsgd1na2vs0mg"},{"bike_id":"2633e9ba-ac8f-41eb-8615-a08e37b3083a","system_id":"levelo_inurba_marseille","lat":43.27229,"lon":5.40994,"is_reserved":false,"is_disabled":false,"rental_uris":{"android":"levelo://app?vid=2633e9ba-ac8f-41eb-8615-a08e37b3083a","ios":"levelo://app?vid=2633e9ba-ac8f-41eb-8615-a08e37b3083a"},"vehicle_type_id":"4","last_reported":1734991723,"current_range_meters":30800,"station_id":"","pricing_plan_id":"cebpf4jnsgd1na2vs0mg"},{"bike_id":"3c4e0256-f269-4ddf-b844-1164990fa822","system_id":"levelo_inurba_marseille","lat":43.2582,"lon":5.39426,"is_reserved":false,"is_disabled":false,"rental_uris":{"android":"levelo://app?vid=3c4e0256-f269-4ddf-b844-1164990fa822","ios":"levelo://app?vid=3c4e0256-f269-4ddf-b844-1164990fa822"},"vehicle_type_id":"4","last_reported":1734991723,"current_range_meters":38800,"station_id":"ce4bhip2rcd13ifvqft0","pricing_plan_id":"cebpf4jnsgd1na2vs0mg"},{"bike_id":"af1cd6cf-2562-434f-aa74-4bd775d99ddb","system_id":"levelo_inurba_marseille","lat":43.31073,"lon":5.38347,"is_reserved":false,"is_disabled":true,"rental_uris":{"android":"levelo://app?vid=af1cd6cf-2562-434f-aa74-4bd775d99ddb","ios":"levelo://app?vid=af1cd6cf-2562-434f-aa74-4bd775d99ddb"},"vehicle_type_id":"4","last_reported":1734991723,"current_range_meters":35600,"station_id":"ce4bgv92rcd13ifvqcr0","pricing_plan_id":"cebpf4jnsgd1na2vs0mg"},{"bike_id":"e73e6057-e6e9-407b-a17e-f4e119a96aba","system_id":"levelo_inurba_marseille","lat":43.32113,"lon":5.36783,"is_reserved":false,"is_disabled":false,"rental_uris":{"android":"levelo://app?vid=e73e6057-e6e9-407b-a17e-f4e119a96aba","ios":"levelo://app?vid=e73e6057-e6e9-407b-a17e-f4e119a96aba"},"vehicle_type_id":"4","last_reported":1734991723,"current_range_meters":38800,"station_id":"ce4bhrh2rcd13ifvqhug","pricing_plan_id":"cebpf4jnsgd1na2vs0mg"},{"bike_id":"8c23ca40-0769-4ca8-b1f0-68e8fb86c54b","system_id":"levelo_inurba_marseille","lat":43.25009,"lon":5.38928,"is_reserved":false,"is_disabled":false,"rental_uris":{"android":"levelo://app?vid=8c23ca40-0769-4ca8-b1f0-68e8fb86c54b","ios":"levelo://app?vid=8c23ca40-0769-4ca8-b1f0-68e8fb86c54b"},"vehicle_type_id":"4","last_reported":1734991723,"current_range_meters":37600,"station_id":"ce4bhgp2rcd13ifvqfd0","pricing_plan_id":"cebpf4jnsgd1na2vs0mg"},{"bike_id":"ff19ce84-10b6-4ffc-b9fc-1625914b166c","system_id":"levelo_inurba_marseille","lat":43.29708,"lon":5.36612,"is_reserved":false,"is_disabled":false,"rental_uris":{"android":"levelo://app?vid=ff19ce84-10b6-4ffc-b9fc-1625914b166c","ios":"levelo://app?vid=ff19ce84-10b6-4ffc-b9fc-1625914b166c"},"vehicle_type_id":"4","last_reported":1734991723,"current_range_meters":27600,"station_id":"ce4bgn12rcd13ifvqbt0","pricing_plan_id":"cebpf4jnsgd1na2vs0mg"},{"bike_id":"30dc2708-06a7-4c52-b828-80ac77ed829d","system_id":"levelo_inurba_marseille","lat":43.28856,"lon":5.35857,"is_reserved":false,"is_disabled":false,"rental_uris":{"android":"levelo://app?vid=30dc2708-06a7-4c52-b828-80ac77ed829d","ios":"levelo://app?vid=30dc2708-06a7-4c52-b828-80ac77ed829d"},"vehicle_type_id":"4","last_reported":1734991723,"current_range_meters":26000,"station_id":"ce4bhb12rcd13ifvqem0","pricing_plan_id":"cebpf4jnsgd1na2vs0mg"},{"bike_id":"9b6c26bf-24e1-432d-ac01-5d22d9d9f1b3","system_id":"levelo_inurba_marseille","lat":43.29995,"lon":5.37181,"is_reserved":false,"is_disabled":false,"rental_uris":{"android":"levelo://app?vid=9b6c26bf-24e1-432d-ac01-5d22d9d9f1b3","ios":"levelo://app?vid=9b6c26bf-24e1-432d-ac01-5d22d9d9f1b3"},"vehicle_type_id":"4","last_reported":1734991723,"current_range_meters":10000,"station_id":"ce4bgr92rcd13ifvqc7g","pricing_plan_id":"cebpf4jnsgd1na2vs0mg"},{"bike_id":"2ecd7a5c-6b03-4906-a193-c1bc16b7668c","system_id":"levelo_inurba_marseille","lat":43.302416,"lon":5.400589,"is_reserved":false,"is_disabled":true,"rental_uris":{"android":"levelo://app?vid=2ecd7a5c-6b03-4906-a193-c1bc16b7668c","ios":"levelo://app?vid=2ecd7a5c-6b03-4906-a193-c1bc16b7668c"},"vehicle_type_id":"4","last_reported":1734991723,"current_range_meters":31200,"station_id":"ce4bgvh2rcd13ifvqcs0","pricing_plan_id":"cebpf4jnsgd1na2vs0mg"},{"bike_id":"4bcb37c0-9249-499d-890c-0bbf93d29f8b","system_id":"levelo_inurba_marseille","lat":43.23185,"lon":5.3554,"is_reserved":false,"is_disabled":true,"rental_uris":{"android":"levelo://app?vid=4bcb37c0-9249-499d-890c-0bbf93d29f8b","ios":"levelo://app?vid=4bcb37c0-9249-499d-890c-0bbf93d29f8b"},"vehicle_type_id":"4","last_reported":1734991723,"current_range_meters":19600,"station_id":"ce4bhu92rcd13ifvqi70","pricing_plan_id":"cebpf4jnsgd1na2vs0mg"},{"bike_id":"189fde3f-1b8d-450e-81f4-06d723afc17c","system_id":"levelo_inurba_marseille","lat":43.28437,"lon":5.39186,"is_reserved":false,"is_disabled":false,"rental_uris":{"android":"levelo://app?vid=189fde3f-1b8d-450e-81f4-06d723afc17c","ios":"levelo://app?vid=189fde3f-1b8d-450e-81f4-06d723afc17c"},"vehicle_type_id":"4","last_reported":1734991723,"current_range_meters":12000,"station_id":"ce4bhoh2rcd13ifvqh5g","pricing_plan_id":"cebpf4jnsgd1na2vs0mg"},{"bike_id":"7c29b004-f06b-4fd4-9237-38913c6b1ebf","system_id":"levelo_inurba_marseille","lat":43.30156,"lon":5.3808,"is_reserved":false,"is_disabled":false,"rental_uris":{"android":"levelo://app?vid=7c29b004-f06b-4fd4-9237-38913c6b1ebf","ios":"levelo://app?vid=7c29b004-f06b-4fd4-9237-38913c6b1ebf"},"vehicle_type_id":"4","last_reported":1734991723,"current_range_meters":36400,"station_id":"ce4bgjp2rcd13ifvqbh0","pricing_plan_id":"cebpf4jnsgd1na2vs0mg"},{"bike_id":"4d70a3bf-a8e9-4395-92a9-3e1f7045a4b1","system_id":"levelo_inurba_marseille","lat":43.32048,"lon":5.41563,"is_reserved":false,"is_disabled":false,"rental_uris":{"android":"levelo://app?vid=4d70a3bf-a8e9-4395-92a9-3e1f7045a4b1","ios":"levelo://app?vid=4d70a3bf-a8e9-4395-92a9-3e1f7045a4b1"},"vehicle_type_id":"4","last_reported":1734991723,"current_range_meters":37600,"station_id":"ce4bhq92rcd13ifvqhkg","pricing_plan_id":"cebpf4jnsgd1na2vs0mg"},{"bike_id":"11eb5fb6-7917-45e5-9bf4-86173bd74b69","system_id":"levelo_inurba_marseille","lat":43.31366,"lon":5.38504,"is_reserved":false,"is_disabled":false,"rental_uris":{"android":"levelo://app?vid=11eb5fb6-7917-45e5-9bf4-86173bd74b69","ios":"levelo://app?vid=11eb5fb6-7917-45e5-9bf4-86173bd74b69"},"vehicle_type_id":"4","last_reported":1734991723,"current_range_meters":25200,"station_id":"ce4bgt92rcd13ifvqcf0","pricing_plan_id":"cebpf4jnsgd1na2vs0mg"},{"bike_id":"4c569ee4-45a5-4a73-a8ca-a9310a002da4","system_id":"levelo_inurba_marseille","lat":43.28366,"lon":5.38634,"is_reserved":false,"is_disabled":false,"rental_uris":{"android":"levelo://app?vid=4c569ee4-45a5-4a73-a8ca-a9310a002da4","ios":"levelo://app?vid=4c569ee4-45a5-4a73-a8ca-a9310a002da4"},"vehicle_type_id":"4","last_reported":1734991723,"current_range_meters":14000,"station_id":"ce4bh492rcd13ifvqdvg","pricing_plan_id":"cebpf4jnsgd1na2vs0mg"},{"bike_id":"fcb43cd2-aa2d-4084-9416-a240ac4d95bf","system_id":"levelo_inurba_marseille","lat":43.29283,"lon":5.40118,"is_reserved":false,"is_disabled":false,"rental_uris":{"android":"levelo://app?vid=fcb43cd2-aa2d-4084-9416-a240ac4d95bf","ios":"levelo://app?vid=fcb43cd2-aa2d-4084-9416-a240ac4d95bf"},"vehicle_type_id":"4","last_reported":1734991723,"current_range_meters":27600,"station_id":"ce4bh312rcd13ifvqdk0","pricing_plan_id":"cebpf4jnsgd1na2vs0mg"},{"bike_id":"a4f2a1ba-4c33-4d0d-8c83-eb221d73f773","system_id":"levelo_inurba_marseille","lat":43.29615,"lon":5.37722,"is_reserved":false,"is_disabled":false,"rental_uris":{"android":"levelo://app?vid=a4f2a1ba-4c33-4d0d-8c83-eb221d73f773","ios":"levelo://app?vid=a4f2a1ba-4c33-4d0d-8c83-eb221d73f773"},"vehicle_type_id":"4","last_reported":1734991723,"current_range_meters":37600,"station_id":"ce4bgi92rcd13ifvqb90","pricing_plan_id":"cebpf4jnsgd1na2vs0mg"},{"bike_id":"343bc065-3555-49ac-90b9-9f9335d87211","system_id":"levelo_inurba_marseille","lat":43.258221,"lon":5.394294,"is_reserved":false,"is_disabled":false,"rental_uris":{"android":"levelo://app?vid=343bc065-3555-49ac-90b9-9f9335d87211","ios":"levelo://app?vid=343bc065-3555-49ac-90b9-9f9335d87211"},"vehicle_type_id":"4","last_reported":1734991723,"current_range_meters":38800,"station_id":"ce4bhip2rcd13ifvqft0","pricing_plan_id":"cebpf4jnsgd1na2vs0mg"},{"bike_id":"64c87dc3-dd94-45ca-adb1-efb6545cec91","system_id":"levelo_inurba_marseille","lat":43.29203,"lon":5.39316,"is_reserved":false,"is_disabled":false,"rental_uris":{"android":"levelo://app?vid=64c87dc3-dd94-45ca-adb1-efb6545cec91","ios":"levelo://app?vid=64c87dc3-dd94-45ca-adb1-efb6545cec91"},"vehicle_type_id":"4","last_reported":1734991723,"current_range_meters":38400,"station_id":"ce4bh192rcd13ifvqdd0","pricing_plan_id":"cebpf4jnsgd1na2vs0mg"},{"bike_id":"ddbfce67-cbf8-4481-9917-3eaa981e7b2e","system_id":"levelo_inurba_marseille","lat":43.229337,"lon":5.353757,"is_reserved":false,"is_disabled":false,"rental_uris":{"android":"levelo://app?vid=ddbfce67-cbf8-4481-9917-3eaa981e7b2e","ios":"levelo://app?vid=ddbfce67-cbf8-4481-9917-3eaa981e7b2e"},"vehicle_type_id":"4","last_reported":1734991723,"current_range_meters":27200,"station_id":"cpo3532slgdg3j2ikp40","pricing_plan_id":"cebpf4jnsgd1na2vs0mg"},{"bike_id":"9acdbe5f-c369-45f2-a05a-bce0bc9126c2","system_id":"levelo_inurba_marseille","lat":43.2998,"lon":5.38484,"is_reserved":false,"is_disabled":false,"rental_uris":{"android":"levelo://app?vid=9acdbe5f-c369-45f2-a05a-bce0bc9126c2","ios":"levelo://app?vid=9acdbe5f-c369-45f2-a05a-bce0bc9126c2"},"vehicle_type_id":"4","last_reported":1734991723,"current_range_meters":17600,"station_id":"ce4bgj92rcd13ifvqbd0","pricing_plan_id":"cebpf4jnsgd1na2vs0mg"},{"bike_id":"d40f1e6c-dd7d-4a6b-9613-7314f471a7fe","system_id":"levelo_inurba_marseille","lat":43.30162,"lon":5.38089,"is_reserved":false,"is_disabled":false,"rental_uris":{"android":"levelo://app?vid=d40f1e6c-dd7d-4a6b-9613-7314f471a7fe","ios":"levelo://app?vid=d40f1e6c-dd7d-4a6b-9613-7314f471a7fe"},"vehicle_type_id":"4","last_reported":1734991723,"current_range_meters":32000,"station_id":"ce4bgjp2rcd13ifvqbh0","pricing_plan_id":"cebpf4jnsgd1na2vs0mg"},{"bike_id":"dad6db58-f5bc-4da2-b0b4-3d5d1002166b","system_id":"levelo_inurba_marseille","lat":43.32109,"lon":5.367785,"is_reserved":false,"is_disabled":false,"rental_uris":{"android":"levelo://app?vid=dad6db58-f5bc-4da2-b0b4-3d5d1002166b","ios":"levelo://app?vid=dad6db58-f5bc-4da2-b0b4-3d5d1002166b"},"vehicle_type_id":"4","last_reported":1734991723,"current_range_meters":35200,"station_id":"ce4bhrh2rcd13ifvqhug","pricing_plan_id":"cebpf4jnsgd1na2vs0mg"},{"bike_id":"d215e6a3-2dbb-4240-82c4-dbdd5ce5595f","system_id":"levelo_inurba_marseille","lat":43.29904,"lon":5.38136,"is_reserved":false,"is_disabled":false,"rental_uris":{"android":"levelo://app?vid=d215e6a3-2dbb-4240-82c4-dbdd5ce5595f","ios":"levelo://app?vid=d215e6a3-2dbb-4240-82c4-dbdd5ce5595f"},"vehicle_type_id":"4","last_reported":1734991723,"current_range_meters":38800,"station_id":"ce4bgj12rcd13ifvqbc0","pricing_plan_id":"cebpf4jnsgd1na2vs0mg"},{"bike_id":"8012b3cc-4bd4-4932-86ba-5ae2367b6708","system_id":"levelo_inurba_marseille","lat":43.28574,"lon":5.394925,"is_reserved":false,"is_disabled":false,"rental_uris":{"android":"levelo://app?vid=8012b3cc-4bd4-4932-86ba-5ae2367b6708","ios":"levelo://app?vid=8012b3cc-4bd4-4932-86ba-5ae2367b6708"},"vehicle_type_id":"4","last_reported":1734991723,"current_range_meters":9600,"station_id":"ce4bh292rcd13ifvqdg0","pricing_plan_id":"cebpf4jnsgd1na2vs0mg"},{"bike_id":"b1056dba-e05c-4f76-9feb-eabb4ca2180a","system_id":"levelo_inurba_marseille","lat":43.29869,"lon":5.39725,"is_reserved":false,"is_disabled":false,"rental_uris":{"android":"levelo://app?vid=b1056dba-e05c-4f76-9feb-eabb4ca2180a","ios":"levelo://app?vid=b1056dba-e05c-4f76-9feb-eabb4ca2180a"},"vehicle_type_id":"4","last_reported":1734991723,"current_range_meters":36800,"station_id":"ce4bh0h2rcd13ifvqd50","pricing_plan_id":"cebpf4jnsgd1na2vs0mg"},{"bike_id":"7a56754c-34ea-424c-b77f-a51deb5d9566","system_id":"levelo_inurba_marseille","lat":43.2963,"lon":5.40593,"is_reserved":false,"is_disabled":false,"rental_uris":{"android":"levelo://app?vid=7a56754c-34ea-424c-b77f-a51deb5d9566","ios":"levelo://app?vid=7a56754c-34ea-424c-b77f-a51deb5d9566"},"vehicle_type_id":"4","last_reported":1734991723,"current_range_meters":38000,"station_id":"ce4bh0h2rcd13ifvqd60","pricing_plan_id":"cebpf4jnsgd1na2vs0mg"},{"bike_id":"eca594cc-7507-4ca1-bb28-4c48aaa1a04a","system_id":"levelo_inurba_marseille","lat":43.31711,"lon":5.43703,"is_reserved":false,"is_disabled":false,"rental_uris":{"android":"levelo://app?vid=eca594cc-7507-4ca1-bb28-4c48aaa1a04a","ios":"levelo://app?vid=eca594cc-7507-4ca1-bb28-4c48aaa1a04a"},"vehicle_type_id":"4","last_reported":1734991723,"current_range_meters":37600,"station_id":"ce4bhp92rcd13ifvqhcg","pricing_plan_id":"cebpf4jnsgd1na2vs0mg"},{"bike_id":"a2b682e2-83ef-4b16-9d16-65839c162e95","system_id":"levelo_inurba_marseille","lat":43.30607,"lon":5.37225,"is_reserved":false,"is_disabled":false,"rental_uris":{"android":"levelo://app?vid=a2b682e2-83ef-4b16-9d16-65839c162e95","ios":"levelo://app?vid=a2b682e2-83ef-4b16-9d16-65839c162e95"},"vehicle_type_id":"4","last_reported":1734991723,"current_range_meters":38800,"station_id":"ce4bgqh2rcd13ifvqc4g","pricing_plan_id":"cebpf4jnsgd1na2vs0mg"},{"bike_id":"cf12c232-c3a3-4785-8fed-9cea9aa4f082","system_id":"levelo_inurba_marseille","lat":43.27677,"lon":5.38919,"is_reserved":false,"is_disabled":false,"rental_uris":{"android":"levelo://app?vid=cf12c232-c3a3-4785-8fed-9cea9aa4f082","ios":"levelo://app?vid=cf12c232-c3a3-4785-8fed-9cea9aa4f082"},"vehicle_type_id":"4","last_reported":1734991723,"current_range_meters":16000,"station_id":"ce4bhi12rcd13ifvqfo0","pricing_plan_id":"cebpf4jnsgd1na2vs0mg"},{"bike_id":"7d51f556-7ada-4233-9b93-03f8f492aa76","system_id":"levelo_inurba_marseille","lat":43.24528,"lon":5.39506,"is_reserved":false,"is_disabled":true,"rental_uris":{"android":"levelo://app?vid=7d51f556-7ada-4233-9b93-03f8f492aa76","ios":"levelo://app?vid=7d51f556-7ada-4233-9b93-03f8f492aa76"},"vehicle_type_id":"4","last_reported":1734991723,"current_range_meters":11200,"station_id":"ce4bhlp2rcd13ifvqgjg","pricing_plan_id":"cebpf4jnsgd1na2vs0mg"},{"bike_id":"8b3a78bd-cf3f-4762-94a0-beffb610263d","system_id":"levelo_inurba_marseille","lat":43.31082,"lon":5.38347,"is_reserved":false,"is_disabled":false,"rental_uris":{"android":"levelo://app?vid=8b3a78bd-cf3f-4762-94a0-beffb610263d","ios":"levelo://app?vid=8b3a78bd-cf3f-4762-94a0-beffb610263d"},"vehicle_type_id":"4","last_reported":1734991723,"current_range_meters":38800,"station_id":"ce4bgv92rcd13ifvqcr0","pricing_plan_id":"cebpf4jnsgd1na2vs0mg"},{"bike_id":"50ed8d09-e307-4804-8048-b331687ea0e6","system_id":"levelo_inurba_marseille","lat":43.24671,"lon":5.38157,"is_reserved":false,"is_disabled":false,"rental_uris":{"android":"levelo://app?vid=50ed8d09-e307-4804-8048-b331687ea0e6","ios":"levelo://app?vid=50ed8d09-e307-4804-8048-b331687ea0e6"},"vehicle_type_id":"4","last_reported":1734991723,"current_range_meters":38800,"station_id":"ce4bhih2rcd13ifvqfr0","pricing_plan_id":"cebpf4jnsgd1na2vs0mg"},{"bike_id":"2fc5bb46-54f4-4773-b48f-90ed6ba2cec9","system_id":"levelo_inurba_marseille","lat":43.30146,"lon":5.39882,"is_reserved":false,"is_disabled":false,"rental_uris":{"android":"levelo://app?vid=2fc5bb46-54f4-4773-b48f-90ed6ba2cec9","ios":"levelo://app?vid=2fc5bb46-54f4-4773-b48f-90ed6ba2cec9"},"vehicle_type_id":"4","last_reported":1734991723,"current_range_meters":38000,"station_id":"ce4bh0h2rcd13ifvqd40","pricing_plan_id":"cebpf4jnsgd1na2vs0mg"},{"bike_id":"213bc904-ac7f-4cc9-bb02-fc34c779e745","system_id":"levelo_inurba_marseille","lat":43.27951,"lon":5.41044,"is_reserved":false,"is_disabled":false,"rental_uris":{"android":"levelo://app?vid=213bc904-ac7f-4cc9-bb02-fc34c779e745","ios":"levelo://app?vid=213bc904-ac7f-4cc9-bb02-fc34c779e745"},"vehicle_type_id":"4","last_reported":1734991723,"current_range_meters":32800,"station_id":"ce4bhnp2rcd13ifvqh0g","pricing_plan_id":"cebpf4jnsgd1na2vs0mg"},{"bike_id":"c2b13e1f-27c5-4ff9-b780-21ce47c387ee","system_id":"levelo_inurba_marseille","lat":43.231849,"lon":5.399893,"is_reserved":false,"is_disabled":false,"rental_uris":{"android":"levelo://app?vid=c2b13e1f-27c5-4ff9-b780-21ce47c387ee","ios":"levelo://app?vid=c2b13e1f-27c5-4ff9-b780-21ce47c387ee"},"vehicle_type_id":"4","last_reported":1734991723,"current_range_meters":37600,"station_id":"ce4bhn12rcd13ifvqgqg","pricing_plan_id":"cebpf4jnsgd1na2vs0mg"},{"bike_id":"652f906c-5e25-4f51-a03b-6af6fb0d93fa","system_id":"levelo_inurba_marseille","lat":43.29577,"lon":5.36726,"is_reserved":false,"is_disabled":false,"rental_uris":{"android":"levelo://app?vid=652f906c-5e25-4f51-a03b-6af6fb0d93fa","ios":"levelo://app?vid=652f906c-5e25-4f51-a03b-6af6fb0d93fa"},"vehicle_type_id":"4","last_reported":1734991723,"current_range_meters":38400,"station_id":"ce4bgph2rcd13ifvqc2g","pricing_plan_id":"cebpf4jnsgd1na2vs0mg"},{"bike_id":"a27329ac-67ac-4100-83f1-63375cef594e","system_id":"levelo_inurba_marseille","lat":43.29715,"lon":5.36606,"is_reserved":false,"is_disabled":false,"rental_uris":{"android":"levelo://app?vid=a27329ac-67ac-4100-83f1-63375cef594e","ios":"levelo://app?vid=a27329ac-67ac-4100-83f1-63375cef594e"},"vehicle_type_id":"4","last_reported":1734991723,"current_range_meters":25600,"station_id":"ce4bgn12rcd13ifvqbt0","pricing_plan_id":"cebpf4jnsgd1na2vs0mg"},{"bike_id":"13c39096-92de-47dd-a9ee-5b5cda0c5bbc","system_id":"levelo_inurba_marseille","lat":43.24647,"lon":5.3889,"is_reserved":false,"is_disabled":false,"rental_uris":{"android":"levelo://app?vid=13c39096-92de-47dd-a9ee-5b5cda0c5bbc","ios":"levelo://app?vid=13c39096-92de-47dd-a9ee-5b5cda0c5bbc"},"vehicle_type_id":"4","last_reported":1734991723,"current_range_meters":33600,"station_id":"ce4bhg12rcd13ifvqf60","pricing_plan_id":"cebpf4jnsgd1na2vs0mg"},{"bike_id":"c787057b-d2c3-47cb-afbf-5583f193229c","system_id":"levelo_inurba_marseille","lat":43.24644,"lon":5.38899,"is_reserved":false,"is_disabled":false,"rental_uris":{"android":"levelo://app?vid=c787057b-d2c3-47cb-afbf-5583f193229c","ios":"levelo://app?vid=c787057b-d2c3-47cb-afbf-5583f193229c"},"vehicle_type_id":"4","last_reported":1734991723,"current_range_meters":38800,"station_id":"ce4bhg12rcd13ifvqf60","pricing_plan_id":"cebpf4jnsgd1na2vs0mg"},{"bike_id":"d1408c54-5d72-4a56-aaa4-4833cdef7353","system_id":"levelo_inurba_marseille","lat":43.29179,"lon":5.358,"is_reserved":false,"is_disabled":false,"rental_uris":{"android":"levelo://app?vid=d1408c54-5d72-4a56-aaa4-4833cdef7353","ios":"levelo://app?vid=d1408c54-5d72-4a56-aaa4-4833cdef7353"},"vehicle_type_id":"4","last_reported":1734991723,"current_range_meters":35600,"station_id":"ce4bhb12rcd13ifvqel0","pricing_plan_id":"cebpf4jnsgd1na2vs0mg"},{"bike_id":"5329f495-98d5-4ee4-b53e-b98bd156a829","system_id":"levelo_inurba_marseille","lat":43.30139,"lon":5.39871,"is_reserved":false,"is_disabled":false,"rental_uris":{"android":"levelo://app?vid=5329f495-98d5-4ee4-b53e-b98bd156a829","ios":"levelo://app?vid=5329f495-98d5-4ee4-b53e-b98bd156a829"},"vehicle_type_id":"4","last_reported":1734991723,"current_range_meters":37600,"station_id":"ce4bh0h2rcd13ifvqd40","pricing_plan_id":"cebpf4jnsgd1na2vs0mg"},{"bike_id":"9c7eeb5b-f97e-4fc2-ab19-aaf7531bd9e2","system_id":"levelo_inurba_marseille","lat":43.30147,"lon":5.38086,"is_reserved":false,"is_disabled":false,"rental_uris":{"android":"levelo://app?vid=9c7eeb5b-f97e-4fc2-ab19-aaf7531bd9e2","ios":"levelo://app?vid=9c7eeb5b-f97e-4fc2-ab19-aaf7531bd9e2"},"vehicle_type_id":"4","last_reported":1734991723,"current_range_meters":28800,"station_id":"ce4bgjp2rcd13ifvqbh0","pricing_plan_id":"cebpf4jnsgd1na2vs0mg"},{"bike_id":"b7d3cdb3-4a74-4f21-b9ae-f381e76027e7","system_id":"levelo_inurba_marseille","lat":43.30143,"lon":5.38783,"is_reserved":false,"is_disabled":false,"rental_uris":{"android":"levelo://app?vid=b7d3cdb3-4a74-4f21-b9ae-f381e76027e7","ios":"levelo://app?vid=b7d3cdb3-4a74-4f21-b9ae-f381e76027e7"},"vehicle_type_id":"4","last_reported":1734991723,"current_range_meters":39200,"station_id":"ce4bghh2rcd13ifvqb60","pricing_plan_id":"cebpf4jnsgd1na2vs0mg"},{"bike_id":"b1d51ecc-32a3-43e5-abe1-febc589a9bb3","system_id":"levelo_inurba_marseille","lat":43.29877,"lon":5.38906,"is_reserved":false,"is_disabled":false,"rental_uris":{"android":"levelo://app?vid=b1d51ecc-32a3-43e5-abe1-febc589a9bb3","ios":"levelo://app?vid=b1d51ecc-32a3-43e5-abe1-febc589a9bb3"},"vehicle_type_id":"4","last_reported":1734991723,"current_range_meters":37600,"station_id":"ce4bh392rcd13ifvqdl0","pricing_plan_id":"cebpf4jnsgd1na2vs0mg"},{"bike_id":"2a6c7ac7-4bf1-4a8e-82c2-9458f66f73dc","system_id":"levelo_inurba_marseille","lat":43.28438,"lon":5.39186,"is_reserved":false,"is_disabled":false,"rental_uris":{"android":"levelo://app?vid=2a6c7ac7-4bf1-4a8e-82c2-9458f66f73dc","ios":"levelo://app?vid=2a6c7ac7-4bf1-4a8e-82c2-9458f66f73dc"},"vehicle_type_id":"4","last_reported":1734991723,"current_range_meters":30400,"station_id":"ce4bhoh2rcd13ifvqh5g","pricing_plan_id":"cebpf4jnsgd1na2vs0mg"},{"bike_id":"8066f755-db4c-4d64-90dc-1bd394e94fa2","system_id":"levelo_inurba_marseille","lat":43.33018,"lon":5.39036,"is_reserved":false,"is_disabled":false,"rental_uris":{"android":"levelo://app?vid=8066f755-db4c-4d64-90dc-1bd394e94fa2","ios":"levelo://app?vid=8066f755-db4c-4d64-90dc-1bd394e94fa2"},"vehicle_type_id":"4","last_reported":1734991723,"current_range_meters":39200,"station_id":"ce4bhr92rcd13ifvqhrg","pricing_plan_id":"cebpf4jnsgd1na2vs0mg"},{"bike_id":"4e6d0ca2-6374-490a-b48e-6cba90785a4f","system_id":"levelo_inurba_marseille","lat":43.24652,"lon":5.38889,"is_reserved":false,"is_disabled":false,"rental_uris":{"android":"levelo://app?vid=4e6d0ca2-6374-490a-b48e-6cba90785a4f","ios":"levelo://app?vid=4e6d0ca2-6374-490a-b48e-6cba90785a4f"},"vehicle_type_id":"4","last_reported":1734991723,"current_range_meters":25200,"station_id":"ce4bhg12rcd13ifvqf60","pricing_plan_id":"cebpf4jnsgd1na2vs0mg"},{"bike_id":"7530b7fa-2470-4a96-8350-8ef88aa02d45","system_id":"levelo_inurba_marseille","lat":43.28624,"lon":5.35102,"is_reserved":false,"is_disabled":false,"rental_uris":{"android":"levelo://app?vid=7530b7fa-2470-4a96-8350-8ef88aa02d45","ios":"levelo://app?vid=7530b7fa-2470-4a96-8350-8ef88aa02d45"},"vehicle_type_id":"4","last_reported":1734991723,"current_range_meters":32400,"station_id":"ce4bhch2rcd13ifvqeug","pricing_plan_id":"cebpf4jnsgd1na2vs0mg"},{"bike_id":"f956d62c-1dc2-41dd-b80f-de98aa147ea9","system_id":"levelo_inurba_marseille","lat":43.27816,"lon":5.40711,"is_reserved":false,"is_disabled":false,"rental_uris":{"android":"levelo://app?vid=f956d62c-1dc2-41dd-b80f-de98aa147ea9","ios":"levelo://app?vid=f956d62c-1dc2-41dd-b80f-de98aa147ea9"},"vehicle_type_id":"4","last_reported":1734991723,"current_range_meters":30000,"station_id":"ce4bhnh2rcd13ifvqgtg","pricing_plan_id":"cebpf4jnsgd1na2vs0mg"},{"bike_id":"c387ed0e-5769-4c33-af36-0f0bc7e04b24","system_id":"levelo_inurba_marseille","lat":43.26811,"lon":5.40261,"is_reserved":false,"is_disabled":false,"rental_uris":{"android":"levelo://app?vid=c387ed0e-5769-4c33-af36-0f0bc7e04b24","ios":"levelo://app?vid=c387ed0e-5769-4c33-af36-0f0bc7e04b24"},"vehicle_type_id":"4","last_reported":1734991723,"current_range_meters":29600,"station_id":"ce501612rcd8frsf0b60","pricing_plan_id":"cebpf4jnsgd1na2vs0mg"},{"bike_id":"89dde3a7-e099-423e-8e09-63b62753e8b9","system_id":"levelo_inurba_marseille","lat":43.25833,"lon":5.39425,"is_reserved":false,"is_disabled":false,"rental_uris":{"android":"levelo://app?vid=89dde3a7-e099-423e-8e09-63b62753e8b9","ios":"levelo://app?vid=89dde3a7-e099-423e-8e09-63b62753e8b9"},"vehicle_type_id":"4","last_reported":1734991723,"current_range_meters":32000,"station_id":"ce4bhip2rcd13ifvqft0","pricing_plan_id":"cebpf4jnsgd1na2vs0mg"},{"bike_id":"e6f255e7-c3a0-4128-a0b1-f18581ab0420","system_id":"levelo_inurba_marseille","lat":43.29908,"lon":5.38123,"is_reserved":false,"is_disabled":false,"rental_uris":{"android":"levelo://app?vid=e6f255e7-c3a0-4128-a0b1-f18581ab0420","ios":"levelo://app?vid=e6f255e7-c3a0-4128-a0b1-f18581ab0420"},"vehicle_type_id":"4","last_reported":1734991723,"current_range_meters":38800,"station_id":"ce4bgj12rcd13ifvqbc0","pricing_plan_id":"cebpf4jnsgd1na2vs0mg"},{"bike_id":"ba65d07a-204d-4be9-96e0-b91b2ca6d251","system_id":"levelo_inurba_marseille","lat":43.2694,"lon":5.40249,"is_reserved":false,"is_disabled":false,"rental_uris":{"android":"levelo://app?vid=ba65d07a-204d-4be9-96e0-b91b2ca6d251","ios":"levelo://app?vid=ba65d07a-204d-4be9-96e0-b91b2ca6d251"},"vehicle_type_id":"4","last_reported":1734991723,"current_range_meters":38800,"station_id":"cjm6bp8fraef2m0cb0m0","pricing_plan_id":"cebpf4jnsgd1na2vs0mg"},{"bike_id":"303b498d-56bc-4e31-9c6f-0c41d7dd6561","system_id":"levelo_inurba_marseille","lat":43.29626,"lon":5.37719,"is_reserved":false,"is_disabled":false,"rental_uris":{"android":"levelo://app?vid=303b498d-56bc-4e31-9c6f-0c41d7dd6561","ios":"levelo://app?vid=303b498d-56bc-4e31-9c6f-0c41d7dd6561"},"vehicle_type_id":"4","last_reported":1734991723,"current_range_meters":35600,"station_id":"ce4bgi92rcd13ifvqb90","pricing_plan_id":"cebpf4jnsgd1na2vs0mg"},{"bike_id":"43472636-57cd-411f-b3bd-d2bda7647d04","system_id":"levelo_inurba_marseille","lat":43.26941,"lon":5.40248,"is_reserved":false,"is_disabled":false,"rental_uris":{"android":"levelo://app?vid=43472636-57cd-411f-b3bd-d2bda7647d04","ios":"levelo://app?vid=43472636-57cd-411f-b3bd-d2bda7647d04"},"vehicle_type_id":"4","last_reported":1734991723,"current_range_meters":38000,"station_id":"cjm6bp8fraef2m0cb0m0","pricing_plan_id":"cebpf4jnsgd1na2vs0mg"},{"bike_id":"56c5b33c-c228-41ca-80c4-e4e2a1f7cb88","system_id":"levelo_inurba_marseille","lat":43.30442,"lon":5.38895,"is_reserved":false,"is_disabled":false,"rental_uris":{"android":"levelo://app?vid=56c5b33c-c228-41ca-80c4-e4e2a1f7cb88","ios":"levelo://app?vid=56c5b33c-c228-41ca-80c4-e4e2a1f7cb88"},"vehicle_type_id":"4","last_reported":1734991723,"current_range_meters":34000,"station_id":"ce4bgk12rcd13ifvqbi0","pricing_plan_id":"cebpf4jnsgd1na2vs0mg"},{"bike_id":"2558d0c0-8ff8-46ff-94a3-4d50dbd59c1c","system_id":"levelo_inurba_marseille","lat":43.29987,"lon":5.37192,"is_reserved":false,"is_disabled":false,"rental_uris":{"android":"levelo://app?vid=2558d0c0-8ff8-46ff-94a3-4d50dbd59c1c","ios":"levelo://app?vid=2558d0c0-8ff8-46ff-94a3-4d50dbd59c1c"},"vehicle_type_id":"4","last_reported":1734991723,"current_range_meters":35200,"station_id":"ce4bgr92rcd13ifvqc7g","pricing_plan_id":"cebpf4jnsgd1na2vs0mg"},{"bike_id":"83018152-5630-44de-83fd-2c686833736b","system_id":"levelo_inurba_marseille","lat":43.28618,"lon":5.35094,"is_reserved":false,"is_disabled":true,"rental_uris":{"android":"levelo://app?vid=83018152-5630-44de-83fd-2c686833736b","ios":"levelo://app?vid=83018152-5630-44de-83fd-2c686833736b"},"vehicle_type_id":"4","last_reported":1734991723,"current_range_meters":7200,"station_id":"ce4bhch2rcd13ifvqeug","pricing_plan_id":"cebpf4jnsgd1na2vs0mg"},{"bike_id":"58975c95-cbcc-4de2-ac6a-2c5c03741a00","system_id":"levelo_inurba_marseille","lat":43.27094,"lon":5.42279,"is_reserved":false,"is_disabled":false,"rental_uris":{"android":"levelo://app?vid=58975c95-cbcc-4de2-ac6a-2c5c03741a00","ios":"levelo://app?vid=58975c95-cbcc-4de2-ac6a-2c5c03741a00"},"vehicle_type_id":"4","last_reported":1734991723,"current_range_meters":38800,"station_id":"ce4bhk92rcd13ifvqgb0","pricing_plan_id":"cebpf4jnsgd1na2vs0mg"},{"bike_id":"dbf0bbb1-ae12-4a56-8df6-19b3f611ae3d","system_id":"levelo_inurba_marseille","lat":43.30257,"lon":5.40058,"is_reserved":false,"is_disabled":false,"rental_uris":{"android":"levelo://app?vid=dbf0bbb1-ae12-4a56-8df6-19b3f611ae3d","ios":"levelo://app?vid=dbf0bbb1-ae12-4a56-8df6-19b3f611ae3d"},"vehicle_type_id":"4","last_reported":1734991723,"current_range_meters":38800,"station_id":"ce4bgvh2rcd13ifvqcs0","pricing_plan_id":"cebpf4jnsgd1na2vs0mg"},{"bike_id":"e5b7f70e-d8e3-44d9-8582-413c5967227d","system_id":"levelo_inurba_marseille","lat":43.26495,"lon":5.39547,"is_reserved":false,"is_disabled":false,"rental_uris":{"android":"levelo://app?vid=e5b7f70e-d8e3-44d9-8582-413c5967227d","ios":"levelo://app?vid=e5b7f70e-d8e3-44d9-8582-413c5967227d"},"vehicle_type_id":"4","last_reported":1734991723,"current_range_meters":25600,"station_id":"ce4bhi12rcd13ifvqfq0","pricing_plan_id":"cebpf4jnsgd1na2vs0mg"},{"bike_id":"591e56d3-570f-4000-8104-235340497ab2","system_id":"levelo_inurba_marseille","lat":43.2802,"lon":5.36929,"is_reserved":false,"is_disabled":false,"rental_uris":{"android":"levelo://app?vid=591e56d3-570f-4000-8104-235340497ab2","ios":"levelo://app?vid=591e56d3-570f-4000-8104-235340497ab2"},"vehicle_type_id":"4","last_reported":1734991723,"current_range_meters":38800,"station_id":"ce4bha12rcd13ifvqef0","pricing_plan_id":"cebpf4jnsgd1na2vs0mg"},{"bike_id":"e69b1a15-ed5b-47d8-a307-67930b185ae6","system_id":"levelo_inurba_marseille","lat":43.25127,"lon":5.40317,"is_reserved":false,"is_disabled":false,"rental_uris":{"android":"levelo://app?vid=e69b1a15-ed5b-47d8-a307-67930b185ae6","ios":"levelo://app?vid=e69b1a15-ed5b-47d8-a307-67930b185ae6"},"vehicle_type_id":"4","last_reported":1734991723,"current_range_meters":38400,"station_id":"ce4bhlh2rcd13ifvqgig","pricing_plan_id":"cebpf4jnsgd1na2vs0mg"},{"bike_id":"8f270604-6b3f-436d-ae84-7e8b2641acb9","system_id":"levelo_inurba_marseille","lat":43.25088,"lon":5.39524,"is_reserved":false,"is_disabled":false,"rental_uris":{"android":"levelo://app?vid=8f270604-6b3f-436d-ae84-7e8b2641acb9","ios":"levelo://app?vid=8f270604-6b3f-436d-ae84-7e8b2641acb9"},"vehicle_type_id":"4","last_reported":1734991723,"current_range_meters":35600,"station_id":"ce4bhm12rcd13ifvqgkg","pricing_plan_id":"cebpf4jnsgd1na2vs0mg"},{"bike_id":"e99546a0-b289-48d7-96f5-5f2a5b9577f1","system_id":"levelo_inurba_marseille","lat":43.27372,"lon":5.36254,"is_reserved":false,"is_disabled":false,"rental_uris":{"android":"levelo://app?vid=e99546a0-b289-48d7-96f5-5f2a5b9577f1","ios":"levelo://app?vid=e99546a0-b289-48d7-96f5-5f2a5b9577f1"},"vehicle_type_id":"4","last_reported":1734991723,"current_range_meters":20800,"station_id":"ce4bhbh2rcd13ifvqeo0","pricing_plan_id":"cebpf4jnsgd1na2vs0mg"},{"bike_id":"9eccb0d6-48d8-4c3b-b85b-207069eb977d","system_id":"levelo_inurba_marseille","lat":43.25566,"lon":5.38228,"is_reserved":false,"is_disabled":false,"rental_uris":{"android":"levelo://app?vid=9eccb0d6-48d8-4c3b-b85b-207069eb977d","ios":"levelo://app?vid=9eccb0d6-48d8-4c3b-b85b-207069eb977d"},"vehicle_type_id":"4","last_reported":1734991723,"current_range_meters":36000,"station_id":"ce4bhih2rcd13ifvqfs0","pricing_plan_id":"cebpf4jnsgd1na2vs0mg"},{"bike_id":"5783f472-7468-4bde-a8a4-e8699731eecc","system_id":"levelo_inurba_marseille","lat":43.32047,"lon":5.41562,"is_reserved":false,"is_disabled":false,"rental_uris":{"android":"levelo://app?vid=5783f472-7468-4bde-a8a4-e8699731eecc","ios":"levelo://app?vid=5783f472-7468-4bde-a8a4-e8699731eecc"},"vehicle_type_id":"4","last_reported":1734991723,"current_range_meters":34800,"station_id":"ce4bhq92rcd13ifvqhkg","pricing_plan_id":"cebpf4jnsgd1na2vs0mg"},{"bike_id":"1bfb59b3-5d70-4c84-8077-a6771e996a2b","system_id":"levelo_inurba_marseille","lat":43.29948,"lon":5.36562,"is_reserved":false,"is_disabled":false,"rental_uris":{"android":"levelo://app?vid=1bfb59b3-5d70-4c84-8077-a6771e996a2b","ios":"levelo://app?vid=1bfb59b3-5d70-4c84-8077-a6771e996a2b"},"vehicle_type_id":"4","last_reported":1734991723,"current_range_meters":38000,"station_id":"ce4bgm92rcd13ifvqbr0","pricing_plan_id":"cebpf4jnsgd1na2vs0mg"},{"bike_id":"373eb665-430d-4124-b86f-17fdd0ad9196","system_id":"levelo_inurba_marseille","lat":43.29807,"lon":5.38103,"is_reserved":false,"is_disabled":false,"rental_uris":{"android":"levelo://app?vid=373eb665-430d-4124-b86f-17fdd0ad9196","ios":"levelo://app?vid=373eb665-430d-4124-b86f-17fdd0ad9196"},"vehicle_type_id":"4","last_reported":1734991723,"current_range_meters":32000,"station_id":"ce4bgip2rcd13ifvqbb0","pricing_plan_id":"cebpf4jnsgd1na2vs0mg"},{"bike_id":"aa5d5d16-a2f6-4c81-8cd4-c9ee96949ae4","system_id":"levelo_inurba_marseille","lat":43.23185,"lon":5.39975,"is_reserved":false,"is_disabled":false,"rental_uris":{"android":"levelo://app?vid=aa5d5d16-a2f6-4c81-8cd4-c9ee96949ae4","ios":"levelo://app?vid=aa5d5d16-a2f6-4c81-8cd4-c9ee96949ae4"},"vehicle_type_id":"4","last_reported":1734991723,"current_range_meters":37600,"station_id":"ce4bhn12rcd13ifvqgqg","pricing_plan_id":"cebpf4jnsgd1na2vs0mg"},{"bike_id":"68db534e-0067-497a-971b-c0ac21bdd722","system_id":"levelo_inurba_marseille","lat":43.2619,"lon":5.37919,"is_reserved":false,"is_disabled":false,"rental_uris":{"android":"levelo://app?vid=68db534e-0067-497a-971b-c0ac21bdd722","ios":"levelo://app?vid=68db534e-0067-497a-971b-c0ac21bdd722"},"vehicle_type_id":"4","last_reported":1734991723,"current_range_meters":35600,"station_id":"ce4bhjp2rcd13ifvqg90","pricing_plan_id":"cebpf4jnsgd1na2vs0mg"},{"bike_id":"1e73c81f-7d8d-42c9-8216-05e0c8d2e4e9","system_id":"levelo_inurba_marseille","lat":43.29628,"lon":5.37729,"is_reserved":false,"is_disabled":false,"rental_uris":{"android":"levelo://app?vid=1e73c81f-7d8d-42c9-8216-05e0c8d2e4e9","ios":"levelo://app?vid=1e73c81f-7d8d-42c9-8216-05e0c8d2e4e9"},"vehicle_type_id":"4","last_reported":1734991723,"current_range_meters":38800,"station_id":"ce4bgi92rcd13ifvqb90","pricing_plan_id":"cebpf4jnsgd1na2vs0mg"},{"bike_id":"180c51e8-707b-4d3a-bce6-60033fd0e9cc","system_id":"levelo_inurba_marseille","lat":43.29894,"lon":5.38138,"is_reserved":false,"is_disabled":false,"rental_uris":{"android":"levelo://app?vid=180c51e8-707b-4d3a-bce6-60033fd0e9cc","ios":"levelo://app?vid=180c51e8-707b-4d3a-bce6-60033fd0e9cc"},"vehicle_type_id":"4","last_reported":1734991723,"current_range_meters":38800,"station_id":"ce4bgj12rcd13ifvqbc0","pricing_plan_id":"cebpf4jnsgd1na2vs0mg"},{"bike_id":"f94ee3ef-df1d-4f7a-a675-d07a56ae02be","system_id":"levelo_inurba_marseille","lat":43.33735,"lon":5.39189,"is_reserved":false,"is_disabled":false,"rental_uris":{"android":"levelo://app?vid=f94ee3ef-df1d-4f7a-a675-d07a56ae02be","ios":"levelo://app?vid=f94ee3ef-df1d-4f7a-a675-d07a56ae02be"},"vehicle_type_id":"4","last_reported":1734991723,"current_range_meters":35200,"station_id":"ce4bhr92rcd13ifvqhsg","pricing_plan_id":"cebpf4jnsgd1na2vs0mg"},{"bike_id":"18bc712f-05f8-4bfe-a81a-9b0f3911a5b1","system_id":"levelo_inurba_marseille","lat":43.27564,"lon":5.3842,"is_reserved":false,"is_disabled":false,"rental_uris":{"android":"levelo://app?vid=18bc712f-05f8-4bfe-a81a-9b0f3911a5b1","ios":"levelo://app?vid=18bc712f-05f8-4bfe-a81a-9b0f3911a5b1"},"vehicle_type_id":"4","last_reported":1734991723,"current_range_meters":38800,"station_id":"ce4bhh92rcd13ifvqfi0","pricing_plan_id":"cebpf4jnsgd1na2vs0mg"},{"bike_id":"17848132-9d0b-498e-939f-005e27afd85a","system_id":"levelo_inurba_marseille","lat":43.28998,"lon":5.3561,"is_reserved":false,"is_disabled":false,"rental_uris":{"android":"levelo://app?vid=17848132-9d0b-498e-939f-005e27afd85a","ios":"levelo://app?vid=17848132-9d0b-498e-939f-005e27afd85a"},"vehicle_type_id":"4","last_reported":1734991723,"current_range_meters":30800,"station_id":"ce4bhb92rcd13ifvqen0","pricing_plan_id":"cebpf4jnsgd1na2vs0mg"},{"bike_id":"2d995820-d040-480b-a897-bf9d5f03891e","system_id":"levelo_inurba_marseille","lat":43.29383,"lon":5.37847,"is_reserved":false,"is_disabled":true,"rental_uris":{"android":"levelo://app?vid=2d995820-d040-480b-a897-bf9d5f03891e","ios":"levelo://app?vid=2d995820-d040-480b-a897-bf9d5f03891e"},"vehicle_type_id":"4","last_reported":1734991723,"current_range_meters":28800,"station_id":"ce4bgjh2rcd13ifvqbf0","pricing_plan_id":"cebpf4jnsgd1na2vs0mg"},{"bike_id":"f47cc58d-9be1-465e-a2bb-aa65af959fc4","system_id":"levelo_inurba_marseille","lat":43.28626,"lon":5.35124,"is_reserved":false,"is_disabled":false,"rental_uris":{"android":"levelo://app?vid=f47cc58d-9be1-465e-a2bb-aa65af959fc4","ios":"levelo://app?vid=f47cc58d-9be1-465e-a2bb-aa65af959fc4"},"vehicle_type_id":"4","last_reported":1734991723,"current_range_meters":38000,"station_id":"ce4bhch2rcd13ifvqeug","pricing_plan_id":"cebpf4jnsgd1na2vs0mg"},{"bike_id":"83bf9c78-f394-4941-bb08-edfb79bc7309","system_id":"levelo_inurba_marseille","lat":43.2973,"lon":5.37683,"is_reserved":false,"is_disabled":false,"rental_uris":{"android":"levelo://app?vid=83bf9c78-f394-4941-bb08-edfb79bc7309","ios":"levelo://app?vid=83bf9c78-f394-4941-bb08-edfb79bc7309"},"vehicle_type_id":"4","last_reported":1734991723,"current_range_meters":11200,"station_id":"ce4bgkh2rcd13ifvqbl0","pricing_plan_id":"cebpf4jnsgd1na2vs0mg"},{"bike_id":"8aa29a25-71b0-47b4-8794-3774a275bf08","system_id":"levelo_inurba_marseille","lat":43.27179,"lon":5.40982,"is_reserved":false,"is_disabled":false,"rental_uris":{"android":"levelo://app?vid=8aa29a25-71b0-47b4-8794-3774a275bf08","ios":"levelo://app?vid=8aa29a25-71b0-47b4-8794-3774a275bf08"},"vehicle_type_id":"4","last_reported":1734991723,"current_range_meters":18000,"station_id":"ce4bhl12rcd13ifvqgf0","pricing_plan_id":"cebpf4jnsgd1na2vs0mg"},{"bike_id":"50771762-6294-492b-bae5-db8bd88e73ed","system_id":"levelo_inurba_marseille","lat":43.27433,"lon":5.39413,"is_reserved":false,"is_disabled":false,"rental_uris":{"android":"levelo://app?vid=50771762-6294-492b-bae5-db8bd88e73ed","ios":"levelo://app?vid=50771762-6294-492b-bae5-db8bd88e73ed"},"vehicle_type_id":"4","last_reported":1734991723,"current_range_meters":39200,"station_id":"ce4bhdp2rcd13ifvqf20","pricing_plan_id":"cebpf4jnsgd1na2vs0mg"},{"bike_id":"3c8b5ca7-a8a6-4b4b-8fee-7765b3f47c9c","system_id":"levelo_inurba_marseille","lat":43.30142,"lon":5.38772,"is_reserved":false,"is_disabled":true,"rental_uris":{"android":"levelo://app?vid=3c8b5ca7-a8a6-4b4b-8fee-7765b3f47c9c","ios":"levelo://app?vid=3c8b5ca7-a8a6-4b4b-8fee-7765b3f47c9c"},"vehicle_type_id":"4","last_reported":1734991723,"current_range_meters":0,"station_id":"ce4bhoh2rcd13ifvqh6g","pricing_plan_id":"cebpf4jnsgd1na2vs0mg"},{"bike_id":"b9248108-92a5-4b77-ba17-3289b105396b","system_id":"levelo_inurba_marseille","lat":43.31702,"lon":5.40477,"is_reserved":false,"is_disabled":true,"rental_uris":{"android":"levelo://app?vid=b9248108-92a5-4b77-ba17-3289b105396b","ios":"levelo://app?vid=b9248108-92a5-4b77-ba17-3289b105396b"},"vehicle_type_id":"4","last_reported":1734991723,"current_range_meters":6400,"station_id":"ce4bh012rcd13ifvqd00","pricing_plan_id":"cebpf4jnsgd1na2vs0mg"},{"bike_id":"0b1dbe83-06bc-4dd0-a526-062173db1059","system_id":"levelo_inurba_marseille","lat":43.29286,"lon":5.40901,"is_reserved":false,"is_disabled":false,"rental_uris":{"android":"levelo://app?vid=0b1dbe83-06bc-4dd0-a526-062173db1059","ios":"levelo://app?vid=0b1dbe83-06bc-4dd0-a526-062173db1059"},"vehicle_type_id":"4","last_reported":1734991723,"current_range_meters":25200,"station_id":"ce4bh192rcd13ifvqdc0","pricing_plan_id":"cebpf4jnsgd1na2vs0mg"},{"bike_id":"6fc06629-22a5-4a9c-9ff7-c08cb127b87d","system_id":"levelo_inurba_marseille","lat":43.30253,"lon":5.4009,"is_reserved":false,"is_disabled":true,"rental_uris":{"android":"levelo://app?vid=6fc06629-22a5-4a9c-9ff7-c08cb127b87d","ios":"levelo://app?vid=6fc06629-22a5-4a9c-9ff7-c08cb127b87d"},"vehicle_type_id":"4","last_reported":1734991723,"current_range_meters":31200,"station_id":"ce4bgvh2rcd13ifvqcs0","pricing_plan_id":"cebpf4jnsgd1na2vs0mg"},{"bike_id":"82719b16-0394-44a1-963a-3161d6b762b8","system_id":"levelo_inurba_marseille","lat":43.29604,"lon":5.37139,"is_reserved":false,"is_disabled":false,"rental_uris":{"android":"levelo://app?vid=82719b16-0394-44a1-963a-3161d6b762b8","ios":"levelo://app?vid=82719b16-0394-44a1-963a-3161d6b762b8"},"vehicle_type_id":"4","last_reported":1734991723,"current_range_meters":38800,"station_id":"ce4bgnh2rcd13ifvqc0g","pricing_plan_id":"cebpf4jnsgd1na2vs0mg"},{"bike_id":"3e3649be-3a5e-4e93-a90d-6c78054c506e","system_id":"levelo_inurba_marseille","lat":43.29185,"lon":5.39317,"is_reserved":false,"is_disabled":false,"rental_uris":{"android":"levelo://app?vid=3e3649be-3a5e-4e93-a90d-6c78054c506e","ios":"levelo://app?vid=3e3649be-3a5e-4e93-a90d-6c78054c506e"},"vehicle_type_id":"4","last_reported":1734991723,"current_range_meters":39200,"station_id":"ce4bh192rcd13ifvqdd0","pricing_plan_id":"cebpf4jnsgd1na2vs0mg"},{"bike_id":"fbf0ad52-c373-4f9a-a599-782a3acdac7a","system_id":"levelo_inurba_marseille","lat":43.27202,"lon":5.40983,"is_reserved":false,"is_disabled":false,"rental_uris":{"android":"levelo://app?vid=fbf0ad52-c373-4f9a-a599-782a3acdac7a","ios":"levelo://app?vid=fbf0ad52-c373-4f9a-a599-782a3acdac7a"},"vehicle_type_id":"4","last_reported":1734991723,"current_range_meters":32000,"station_id":"ce4bhl12rcd13ifvqgf0","pricing_plan_id":"cebpf4jnsgd1na2vs0mg"},{"bike_id":"8c00be79-a82d-421b-9f37-4d80b003f520","system_id":"levelo_inurba_marseille","lat":43.33609,"lon":5.41032,"is_reserved":false,"is_disabled":false,"rental_uris":{"android":"levelo://app?vid=8c00be79-a82d-421b-9f37-4d80b003f520","ios":"levelo://app?vid=8c00be79-a82d-421b-9f37-4d80b003f520"},"vehicle_type_id":"4","last_reported":1734991723,"current_range_meters":38800,"station_id":"ce4bhqh2rcd13ifvqhmg","pricing_plan_id":"cebpf4jnsgd1na2vs0mg"},{"bike_id":"019c9b52-1621-4bc1-9424-1debddea8678","system_id":"levelo_inurba_marseille","lat":43.26498,"lon":5.39538,"is_reserved":false,"is_disabled":false,"rental_uris":{"android":"levelo://app?vid=019c9b52-1621-4bc1-9424-1debddea8678","ios":"levelo://app?vid=019c9b52-1621-4bc1-9424-1debddea8678"},"vehicle_type_id":"4","last_reported":1734991723,"current_range_meters":38800,"station_id":"ce4bhi12rcd13ifvqfq0","pricing_plan_id":"cebpf4jnsgd1na2vs0mg"},{"bike_id":"3b89f562-511c-4f78-86db-08cd99e862da","system_id":"levelo_inurba_marseille","lat":43.29717,"lon":5.36596,"is_reserved":false,"is_disabled":false,"rental_uris":{"android":"levelo://app?vid=3b89f562-511c-4f78-86db-08cd99e862da","ios":"levelo://app?vid=3b89f562-511c-4f78-86db-08cd99e862da"},"vehicle_type_id":"4","last_reported":1734991723,"current_range_meters":38800,"station_id":"ce4bgn12rcd13ifvqbt0","pricing_plan_id":"cebpf4jnsgd1na2vs0mg"},{"bike_id":"89057091-688a-498f-af84-2f421360afdd","system_id":"levelo_inurba_marseille","lat":43.305362,"lon":5.365255,"is_reserved":false,"is_disabled":false,"rental_uris":{"android":"levelo://app?vid=89057091-688a-498f-af84-2f421360afdd","ios":"levelo://app?vid=89057091-688a-498f-af84-2f421360afdd"},"vehicle_type_id":"4","last_reported":1734991723,"current_range_meters":34800,"station_id":"ce4bgs12rcd13ifvqcag","pricing_plan_id":"cebpf4jnsgd1na2vs0mg"},{"bike_id":"25c94e1b-df58-4bad-bbf3-f0564c6ea360","system_id":"levelo_inurba_marseille","lat":43.23177,"lon":5.39994,"is_reserved":false,"is_disabled":false,"rental_uris":{"android":"levelo://app?vid=25c94e1b-df58-4bad-bbf3-f0564c6ea360","ios":"levelo://app?vid=25c94e1b-df58-4bad-bbf3-f0564c6ea360"},"vehicle_type_id":"4","last_reported":1734991723,"current_range_meters":34800,"station_id":"ce4bhn12rcd13ifvqgqg","pricing_plan_id":"cebpf4jnsgd1na2vs0mg"},{"bike_id":"79553fd6-cbbb-424d-a498-4eb8200845ac","system_id":"levelo_inurba_marseille","lat":43.29864,"lon":5.39728,"is_reserved":false,"is_disabled":false,"rental_uris":{"android":"levelo://app?vid=79553fd6-cbbb-424d-a498-4eb8200845ac","ios":"levelo://app?vid=79553fd6-cbbb-424d-a498-4eb8200845ac"},"vehicle_type_id":"4","last_reported":1734991723,"current_range_meters":11600,"station_id":"ce4bh0h2rcd13ifvqd50","pricing_plan_id":"cebpf4jnsgd1na2vs0mg"},{"bike_id":"91c3eac2-5ae5-4135-8452-cda55eedad16","system_id":"levelo_inurba_marseille","lat":43.28347,"lon":5.38089,"is_reserved":false,"is_disabled":false,"rental_uris":{"android":"levelo://app?vid=91c3eac2-5ae5-4135-8452-cda55eedad16","ios":"levelo://app?vid=91c3eac2-5ae5-4135-8452-cda55eedad16"},"vehicle_type_id":"4","last_reported":1734991723,"current_range_meters":22800,"station_id":"ce4bh412rcd13ifvqdr0","pricing_plan_id":"cebpf4jnsgd1na2vs0mg"},{"bike_id":"537ef1bf-3a78-45af-b334-3a2c52a599a8","system_id":"levelo_inurba_marseille","lat":43.34148,"lon":5.40899,"is_reserved":false,"is_disabled":false,"rental_uris":{"android":"levelo://app?vid=537ef1bf-3a78-45af-b334-3a2c52a599a8","ios":"levelo://app?vid=537ef1bf-3a78-45af-b334-3a2c52a599a8"},"vehicle_type_id":"4","last_reported":1734991723,"current_range_meters":35200,"station_id":"ce4bhqh2rcd13ifvqhlg","pricing_plan_id":"cebpf4jnsgd1na2vs0mg"},{"bike_id":"c59345d4-1e21-4d77-99bd-e0121b8e1fb8","system_id":"levelo_inurba_marseille","lat":43.24817,"lon":5.37458,"is_reserved":false,"is_disabled":false,"rental_uris":{"android":"levelo://app?vid=c59345d4-1e21-4d77-99bd-e0121b8e1fb8","ios":"levelo://app?vid=c59345d4-1e21-4d77-99bd-e0121b8e1fb8"},"vehicle_type_id":"4","last_reported":1734991723,"current_range_meters":37600,"station_id":"ce4bhgh2rcd13ifvqfb0","pricing_plan_id":"cebpf4jnsgd1na2vs0mg"},{"bike_id":"a170b636-b0bc-4d53-95d7-9e44ebc84f8e","system_id":"levelo_inurba_marseille","lat":43.30132,"lon":5.39872,"is_reserved":false,"is_disabled":false,"rental_uris":{"android":"levelo://app?vid=a170b636-b0bc-4d53-95d7-9e44ebc84f8e","ios":"levelo://app?vid=a170b636-b0bc-4d53-95d7-9e44ebc84f8e"},"vehicle_type_id":"4","last_reported":1734991723,"current_range_meters":16800,"station_id":"ce4bh0h2rcd13ifvqd40","pricing_plan_id":"cebpf4jnsgd1na2vs0mg"},{"bike_id":"7a9f926a-2ee4-42f1-b402-b5c4fbc2bb6f","system_id":"levelo_inurba_marseille","lat":43.33024,"lon":5.3904,"is_reserved":false,"is_disabled":false,"rental_uris":{"android":"levelo://app?vid=7a9f926a-2ee4-42f1-b402-b5c4fbc2bb6f","ios":"levelo://app?vid=7a9f926a-2ee4-42f1-b402-b5c4fbc2bb6f"},"vehicle_type_id":"4","last_reported":1734991723,"current_range_meters":18800,"station_id":"ce4bhr92rcd13ifvqhrg","pricing_plan_id":"cebpf4jnsgd1na2vs0mg"},{"bike_id":"b07e0204-2c57-49d1-a1f7-320de8610e25","system_id":"levelo_inurba_marseille","lat":43.29402,"lon":5.37344,"is_reserved":false,"is_disabled":true,"rental_uris":{"android":"levelo://app?vid=b07e0204-2c57-49d1-a1f7-320de8610e25","ios":"levelo://app?vid=b07e0204-2c57-49d1-a1f7-320de8610e25"},"vehicle_type_id":"4","last_reported":1734991723,"current_range_meters":22400,"station_id":"","pricing_plan_id":"cebpf4jnsgd1na2vs0mg"},{"bike_id":"b8cc7cd3-7ec4-46c2-8a1a-a10433eda7e1","system_id":"levelo_inurba_marseille","lat":43.30915,"lon":5.36843,"is_reserved":false,"is_disabled":false,"rental_uris":{"android":"levelo://app?vid=b8cc7cd3-7ec4-46c2-8a1a-a10433eda7e1","ios":"levelo://app?vid=b8cc7cd3-7ec4-46c2-8a1a-a10433eda7e1"},"vehicle_type_id":"4","last_reported":1734991723,"current_range_meters":31200,"station_id":"ce4bgn92rcd13ifvqbvg","pricing_plan_id":"cebpf4jnsgd1na2vs0mg"},{"bike_id":"f97162d8-ac35-4106-9dab-07f272349842","system_id":"levelo_inurba_marseille","lat":43.25828,"lon":5.39423,"is_reserved":false,"is_disabled":false,"rental_uris":{"android":"levelo://app?vid=f97162d8-ac35-4106-9dab-07f272349842","ios":"levelo://app?vid=f97162d8-ac35-4106-9dab-07f272349842"},"vehicle_type_id":"4","last_reported":1734991723,"current_range_meters":38800,"station_id":"ce4bhip2rcd13ifvqft0","pricing_plan_id":"cebpf4jnsgd1na2vs0mg"},{"bike_id":"a22c6c33-be0d-40b1-b535-b083076c3b73","system_id":"levelo_inurba_marseille","lat":43.29735,"lon":5.37674,"is_reserved":false,"is_disabled":false,"rental_uris":{"android":"levelo://app?vid=a22c6c33-be0d-40b1-b535-b083076c3b73","ios":"levelo://app?vid=a22c6c33-be0d-40b1-b535-b083076c3b73"},"vehicle_type_id":"4","last_reported":1734991723,"current_range_meters":25600,"station_id":"ce4bgkh2rcd13ifvqbl0","pricing_plan_id":"cebpf4jnsgd1na2vs0mg"},{"bike_id":"7befd885-7fc8-4dc1-b970-da31c9e46ce6","system_id":"levelo_inurba_marseille","lat":43.26029,"lon":5.37548,"is_reserved":false,"is_disabled":false,"rental_uris":{"android":"levelo://app?vid=7befd885-7fc8-4dc1-b970-da31c9e46ce6","ios":"levelo://app?vid=7befd885-7fc8-4dc1-b970-da31c9e46ce6"},"vehicle_type_id":"4","last_reported":1734991723,"current_range_meters":30400,"station_id":"ce4bhgh2rcd13ifvqfa0","pricing_plan_id":"cebpf4jnsgd1na2vs0mg"},{"bike_id":"5586d5ae-9d11-4603-819f-6b0fe0972d6d","system_id":"levelo_inurba_marseille","lat":43.29626,"lon":5.37697,"is_reserved":false,"is_disabled":false,"rental_uris":{"android":"levelo://app?vid=5586d5ae-9d11-4603-819f-6b0fe0972d6d","ios":"levelo://app?vid=5586d5ae-9d11-4603-819f-6b0fe0972d6d"},"vehicle_type_id":"4","last_reported":1734991723,"current_range_meters":32800,"station_id":"ce4bgi92rcd13ifvqb90","pricing_plan_id":"cebpf4jnsgd1na2vs0mg"},{"bike_id":"f3fe0314-8e40-4845-abe1-4c14c28f0999","system_id":"levelo_inurba_marseille","lat":43.29257,"lon":5.40896,"is_reserved":false,"is_disabled":false,"rental_uris":{"android":"levelo://app?vid=f3fe0314-8e40-4845-abe1-4c14c28f0999","ios":"levelo://app?vid=f3fe0314-8e40-4845-abe1-4c14c28f0999"},"vehicle_type_id":"4","last_reported":1734991723,"current_range_meters":38800,"station_id":"ce4bh192rcd13ifvqdc0","pricing_plan_id":"cebpf4jnsgd1na2vs0mg"},{"bike_id":"bd04cbb4-2402-4a18-87e1-831b8038bca8","system_id":"levelo_inurba_marseille","lat":43.30138,"lon":5.37392,"is_reserved":false,"is_disabled":false,"rental_uris":{"android":"levelo://app?vid=bd04cbb4-2402-4a18-87e1-831b8038bca8","ios":"levelo://app?vid=bd04cbb4-2402-4a18-87e1-831b8038bca8"},"vehicle_type_id":"4","last_reported":1734991723,"current_range_meters":32000,"station_id":"ce4bgs92rcd13ifvqcc0","pricing_plan_id":"cebpf4jnsgd1na2vs0mg"},{"bike_id":"a52b6a95-03b2-4a39-91a2-596fa5130c55","system_id":"levelo_inurba_marseille","lat":43.26935,"lon":5.38912,"is_reserved":false,"is_disabled":false,"rental_uris":{"android":"levelo://app?vid=a52b6a95-03b2-4a39-91a2-596fa5130c55","ios":"levelo://app?vid=a52b6a95-03b2-4a39-91a2-596fa5130c55"},"vehicle_type_id":"4","last_reported":1734991723,"current_range_meters":38800,"station_id":"ce4bhhh2rcd13ifvqfl0","pricing_plan_id":"cebpf4jnsgd1na2vs0mg"},{"bike_id":"47553130-a675-447c-a7a9-1a37879694db","system_id":"levelo_inurba_marseille","lat":43.30286,"lon":5.39217,"is_reserved":false,"is_disabled":false,"rental_uris":{"android":"levelo://app?vid=47553130-a675-447c-a7a9-1a37879694db","ios":"levelo://app?vid=47553130-a675-447c-a7a9-1a37879694db"},"vehicle_type_id":"4","last_reported":1734991723,"current_range_meters":36800,"station_id":"ce4bgkh2rcd13ifvqbk0","pricing_plan_id":"cebpf4jnsgd1na2vs0mg"},{"bike_id":"5eab5fd0-471d-45fb-8155-031855e25edc","system_id":"levelo_inurba_marseille","lat":43.29581,"lon":5.36735,"is_reserved":false,"is_disabled":false,"rental_uris":{"android":"levelo://app?vid=5eab5fd0-471d-45fb-8155-031855e25edc","ios":"levelo://app?vid=5eab5fd0-471d-45fb-8155-031855e25edc"},"vehicle_type_id":"4","last_reported":1734991723,"current_range_meters":38000,"station_id":"ce4bgph2rcd13ifvqc2g","pricing_plan_id":"cebpf4jnsgd1na2vs0mg"},{"bike_id":"0f9f1654-63fd-4b65-a8fb-a5beee04226f","system_id":"levelo_inurba_marseille","lat":43.29641,"lon":5.37149,"is_reserved":false,"is_disabled":false,"rental_uris":{"android":"levelo://app?vid=0f9f1654-63fd-4b65-a8fb-a5beee04226f","ios":"levelo://app?vid=0f9f1654-63fd-4b65-a8fb-a5beee04226f"},"vehicle_type_id":"4","last_reported":1734991723,"current_range_meters":38800,"station_id":"ce4bgnh2rcd13ifvqc0g","pricing_plan_id":"cebpf4jnsgd1na2vs0mg"},{"bike_id":"db4eb3f1-a618-4c48-a0e8-20afbaef5fd1","system_id":"levelo_inurba_marseille","lat":43.30906,"lon":5.36874,"is_reserved":false,"is_disabled":false,"rental_uris":{"android":"levelo://app?vid=db4eb3f1-a618-4c48-a0e8-20afbaef5fd1","ios":"levelo://app?vid=db4eb3f1-a618-4c48-a0e8-20afbaef5fd1"},"vehicle_type_id":"4","last_reported":1734991723,"current_range_meters":20400,"station_id":"ce4bgn92rcd13ifvqbvg","pricing_plan_id":"cebpf4jnsgd1na2vs0mg"},{"bike_id":"9e318394-f763-49f8-913e-df55ebc1e1e4","system_id":"levelo_inurba_marseille","lat":43.2843,"lon":5.34994,"is_reserved":false,"is_disabled":false,"rental_uris":{"android":"levelo://app?vid=9e318394-f763-49f8-913e-df55ebc1e1e4","ios":"levelo://app?vid=9e318394-f763-49f8-913e-df55ebc1e1e4"},"vehicle_type_id":"4","last_reported":1734991723,"current_range_meters":14000,"station_id":"ce4bhbh2rcd13ifvqepg","pricing_plan_id":"cebpf4jnsgd1na2vs0mg"},{"bike_id":"134f27d3-43ec-49d1-8f23-8a0ad1f5ee6c","system_id":"levelo_inurba_marseille","lat":43.32469,"lon":5.36558,"is_reserved":false,"is_disabled":false,"rental_uris":{"android":"levelo://app?vid=134f27d3-43ec-49d1-8f23-8a0ad1f5ee6c","ios":"levelo://app?vid=134f27d3-43ec-49d1-8f23-8a0ad1f5ee6c"},"vehicle_type_id":"4","last_reported":1734991723,"current_range_meters":28000,"station_id":"ce4bhs12rcd13ifvqhvg","pricing_plan_id":"cebpf4jnsgd1na2vs0mg"},{"bike_id":"af066aef-491f-4dfd-a92b-3d7fd222e99d","system_id":"levelo_inurba_marseille","lat":43.28104,"lon":5.37841,"is_reserved":false,"is_disabled":false,"rental_uris":{"android":"levelo://app?vid=af066aef-491f-4dfd-a92b-3d7fd222e99d","ios":"levelo://app?vid=af066aef-491f-4dfd-a92b-3d7fd222e99d"},"vehicle_type_id":"4","last_reported":1734991723,"current_range_meters":14400,"station_id":"ce4bha12rcd13ifvqee0","pricing_plan_id":"cebpf4jnsgd1na2vs0mg"},{"bike_id":"656324e5-3737-41fd-9508-156d10479bbf","system_id":"levelo_inurba_marseille","lat":43.30125,"lon":5.38779,"is_reserved":false,"is_disabled":false,"rental_uris":{"android":"levelo://app?vid=656324e5-3737-41fd-9508-156d10479bbf","ios":"levelo://app?vid=656324e5-3737-41fd-9508-156d10479bbf"},"vehicle_type_id":"4","last_reported":1734991723,"current_range_meters":37600,"station_id":"ce4bhoh2rcd13ifvqh6g","pricing_plan_id":"cebpf4jnsgd1na2vs0mg"},{"bike_id":"4094ac40-fe97-4483-91f4-bc4b6a97b4f3","system_id":"levelo_inurba_marseille","lat":43.25834,"lon":5.39429,"is_reserved":false,"is_disabled":true,"rental_uris":{"android":"levelo://app?vid=4094ac40-fe97-4483-91f4-bc4b6a97b4f3","ios":"levelo://app?vid=4094ac40-fe97-4483-91f4-bc4b6a97b4f3"},"vehicle_type_id":"4","last_reported":1734991723,"current_range_meters":0,"station_id":"ce4bhip2rcd13ifvqft0","pricing_plan_id":"cebpf4jnsgd1na2vs0mg"},{"bike_id":"c46d2329-4880-42bc-b1de-2d10352ef372","system_id":"levelo_inurba_marseille","lat":43.29571,"lon":5.37526,"is_reserved":false,"is_disabled":false,"rental_uris":{"android":"levelo://app?vid=c46d2329-4880-42bc-b1de-2d10352ef372","ios":"levelo://app?vid=c46d2329-4880-42bc-b1de-2d10352ef372"},"vehicle_type_id":"4","last_reported":1734991723,"current_range_meters":28400,"station_id":"ce4bgh92rcd13ifvqb50","pricing_plan_id":"cebpf4jnsgd1na2vs0mg"},{"bike_id":"c7ff7852-d6c3-4d39-a37b-399e8a898ab1","system_id":"levelo_inurba_marseille","lat":43.29004,"lon":5.3561,"is_reserved":false,"is_disabled":false,"rental_uris":{"android":"levelo://app?vid=c7ff7852-d6c3-4d39-a37b-399e8a898ab1","ios":"levelo://app?vid=c7ff7852-d6c3-4d39-a37b-399e8a898ab1"},"vehicle_type_id":"4","last_reported":1734991723,"current_range_meters":32000,"station_id":"ce4bhb92rcd13ifvqen0","pricing_plan_id":"cebpf4jnsgd1na2vs0mg"},{"bike_id":"e05bf4ea-d74d-49ed-a7dc-94fa3a3cc350","system_id":"levelo_inurba_marseille","lat":43.32362,"lon":5.36755,"is_reserved":false,"is_disabled":false,"rental_uris":{"android":"levelo://app?vid=e05bf4ea-d74d-49ed-a7dc-94fa3a3cc350","ios":"levelo://app?vid=e05bf4ea-d74d-49ed-a7dc-94fa3a3cc350"},"vehicle_type_id":"4","last_reported":1734991723,"current_range_meters":11200,"station_id":"ce4bhsh2rcd13ifvqi2g","pricing_plan_id":"cebpf4jnsgd1na2vs0mg"},{"bike_id":"eba24a4d-a9c4-484e-b70f-439fb80e80b4","system_id":"levelo_inurba_marseille","lat":43.30598,"lon":5.39359,"is_reserved":false,"is_disabled":false,"rental_uris":{"android":"levelo://app?vid=eba24a4d-a9c4-484e-b70f-439fb80e80b4","ios":"levelo://app?vid=eba24a4d-a9c4-484e-b70f-439fb80e80b4"},"vehicle_type_id":"4","last_reported":1734991723,"current_range_meters":33600,"station_id":"ce4bh0p2rcd13ifvqd80","pricing_plan_id":"cebpf4jnsgd1na2vs0mg"},{"bike_id":"cdfc9c47-d2f0-4ded-bbe3-e1880f64dac7","system_id":"levelo_inurba_marseille","lat":43.30648,"lon":5.400736,"is_reserved":false,"is_disabled":false,"rental_uris":{"android":"levelo://app?vid=cdfc9c47-d2f0-4ded-bbe3-e1880f64dac7","ios":"levelo://app?vid=cdfc9c47-d2f0-4ded-bbe3-e1880f64dac7"},"vehicle_type_id":"4","last_reported":1734991723,"current_range_meters":39200,"station_id":"ce4bh112rcd13ifvqda0","pricing_plan_id":"cebpf4jnsgd1na2vs0mg"},{"bike_id":"54b8cda3-7b54-4c19-a920-d70427f30b4b","system_id":"levelo_inurba_marseille","lat":43.28471,"lon":5.35881,"is_reserved":false,"is_disabled":false,"rental_uris":{"android":"levelo://app?vid=54b8cda3-7b54-4c19-a920-d70427f30b4b","ios":"levelo://app?vid=54b8cda3-7b54-4c19-a920-d70427f30b4b"},"vehicle_type_id":"4","last_reported":1734991723,"current_range_meters":33600,"station_id":"ce4bhah2rcd13ifvqei0","pricing_plan_id":"cebpf4jnsgd1na2vs0mg"},{"bike_id":"d591ed7e-f6b1-4c2a-99af-0fb96c801503","system_id":"levelo_inurba_marseille","lat":43.28482,"lon":5.38447,"is_reserved":false,"is_disabled":true,"rental_uris":{"android":"levelo://app?vid=d591ed7e-f6b1-4c2a-99af-0fb96c801503","ios":"levelo://app?vid=d591ed7e-f6b1-4c2a-99af-0fb96c801503"},"vehicle_type_id":"4","last_reported":1734991723,"current_range_meters":23200,"station_id":"ce4bh512rcd13ifvqe3g","pricing_plan_id":"cebpf4jnsgd1na2vs0mg"},{"bike_id":"32ebf098-e002-4aa6-88f7-5b365ee05e11","system_id":"levelo_inurba_marseille","lat":43.24085,"lon":5.37745,"is_reserved":false,"is_disabled":true,"rental_uris":{"android":"levelo://app?vid=32ebf098-e002-4aa6-88f7-5b365ee05e11","ios":"levelo://app?vid=32ebf098-e002-4aa6-88f7-5b365ee05e11"},"vehicle_type_id":"4","last_reported":1734991723,"current_range_meters":0,"station_id":"ce4bhnp2rcd13ifvqgvg","pricing_plan_id":"cebpf4jnsgd1na2vs0mg"},{"bike_id":"4ee93c92-9880-47ce-bc8f-1615912a69b9","system_id":"levelo_inurba_marseille","lat":43.32339,"lon":5.40622,"is_reserved":false,"is_disabled":false,"rental_uris":{"android":"levelo://app?vid=4ee93c92-9880-47ce-bc8f-1615912a69b9","ios":"levelo://app?vid=4ee93c92-9880-47ce-bc8f-1615912a69b9"},"vehicle_type_id":"4","last_reported":1734991723,"current_range_meters":38800,"station_id":"ce4bhq92rcd13ifvqhjg","pricing_plan_id":"cebpf4jnsgd1na2vs0mg"},{"bike_id":"842888b9-0281-4137-8179-95fdfc851120","system_id":"levelo_inurba_marseille","lat":43.26948,"lon":5.4024,"is_reserved":false,"is_disabled":false,"rental_uris":{"android":"levelo://app?vid=842888b9-0281-4137-8179-95fdfc851120","ios":"levelo://app?vid=842888b9-0281-4137-8179-95fdfc851120"},"vehicle_type_id":"4","last_reported":1734991723,"current_range_meters":38400,"station_id":"cjm6bp8fraef2m0cb0m0","pricing_plan_id":"cebpf4jnsgd1na2vs0mg"},{"bike_id":"5af0d384-9a68-4517-82f0-e39af1ff8381","system_id":"levelo_inurba_marseille","lat":43.29786,"lon":5.39338,"is_reserved":false,"is_disabled":false,"rental_uris":{"android":"levelo://app?vid=5af0d384-9a68-4517-82f0-e39af1ff8381","ios":"levelo://app?vid=5af0d384-9a68-4517-82f0-e39af1ff8381"},"vehicle_type_id":"4","last_reported":1734991723,"current_range_meters":38800,"station_id":"chh1huq6cuj3fo74tm60","pricing_plan_id":"cebpf4jnsgd1na2vs0mg"},{"bike_id":"00f4c10a-164f-4cd6-9e41-11f80b9dea09","system_id":"levelo_inurba_marseille","lat":43.292,"lon":5.39317,"is_reserved":false,"is_disabled":false,"rental_uris":{"android":"levelo://app?vid=00f4c10a-164f-4cd6-9e41-11f80b9dea09","ios":"levelo://app?vid=00f4c10a-164f-4cd6-9e41-11f80b9dea09"},"vehicle_type_id":"4","last_reported":1734991723,"current_range_meters":33600,"station_id":"ce4bh192rcd13ifvqdd0","pricing_plan_id":"cebpf4jnsgd1na2vs0mg"},{"bike_id":"da204400-5833-4e6c-8e46-be4eeb3f4375","system_id":"levelo_inurba_marseille","lat":43.28927,"lon":5.36391,"is_reserved":false,"is_disabled":false,"rental_uris":{"android":"levelo://app?vid=da204400-5833-4e6c-8e46-be4eeb3f4375","ios":"levelo://app?vid=da204400-5833-4e6c-8e46-be4eeb3f4375"},"vehicle_type_id":"4","last_reported":1734991723,"current_range_meters":34000,"station_id":"ce4bhc92rcd13ifvqetg","pricing_plan_id":"cebpf4jnsgd1na2vs0mg"},{"bike_id":"85b80f61-13a5-4a12-a381-352d1429d14e","system_id":"levelo_inurba_marseille","lat":43.30147,"lon":5.38087,"is_reserved":false,"is_disabled":false,"rental_uris":{"android":"levelo://app?vid=85b80f61-13a5-4a12-a381-352d1429d14e","ios":"levelo://app?vid=85b80f61-13a5-4a12-a381-352d1429d14e"},"vehicle_type_id":"4","last_reported":1734991723,"current_range_meters":32800,"station_id":"ce4bgjp2rcd13ifvqbh0","pricing_plan_id":"cebpf4jnsgd1na2vs0mg"},{"bike_id":"ba623d7f-de4d-43e6-9a39-be19938e75fb","system_id":"levelo_inurba_marseille","lat":43.29369,"lon":5.37856,"is_reserved":false,"is_disabled":true,"rental_uris":{"android":"levelo://app?vid=ba623d7f-de4d-43e6-9a39-be19938e75fb","ios":"levelo://app?vid=ba623d7f-de4d-43e6-9a39-be19938e75fb"},"vehicle_type_id":"4","last_reported":1734991723,"current_range_meters":30800,"station_id":"","pricing_plan_id":"cebpf4jnsgd1na2vs0mg"},{"bike_id":"af7a8365-0aa8-48c2-85e3-e0dcc429b742","system_id":"levelo_inurba_marseille","lat":43.24548,"lon":5.39536,"is_reserved":false,"is_disabled":false,"rental_uris":{"android":"levelo://app?vid=af7a8365-0aa8-48c2-85e3-e0dcc429b742","ios":"levelo://app?vid=af7a8365-0aa8-48c2-85e3-e0dcc429b742"},"vehicle_type_id":"4","last_reported":1734991723,"current_range_meters":36400,"station_id":"ce4bhlp2rcd13ifvqgjg","pricing_plan_id":"cebpf4jnsgd1na2vs0mg"},{"bike_id":"50f17fe2-477a-4189-8008-39c21f61550e","system_id":"levelo_inurba_marseille","lat":43.30128,"lon":5.3877,"is_reserved":false,"is_disabled":false,"rental_uris":{"android":"levelo://app?vid=50f17fe2-477a-4189-8008-39c21f61550e","ios":"levelo://app?vid=50f17fe2-477a-4189-8008-39c21f61550e"},"vehicle_type_id":"4","last_reported":1734991723,"current_range_meters":39200,"station_id":"ce4bghh2rcd13ifvqb60","pricing_plan_id":"cebpf4jnsgd1na2vs0mg"},{"bike_id":"ff8d8fb1-9248-4ca9-a2f0-eef0ce001369","system_id":"levelo_inurba_marseille","lat":43.30144,"lon":5.38776,"is_reserved":false,"is_disabled":false,"rental_uris":{"android":"levelo://app?vid=ff8d8fb1-9248-4ca9-a2f0-eef0ce001369","ios":"levelo://app?vid=ff8d8fb1-9248-4ca9-a2f0-eef0ce001369"},"vehicle_type_id":"4","last_reported":1734991723,"current_range_meters":35200,"station_id":"ce4bhoh2rcd13ifvqh6g","pricing_plan_id":"cebpf4jnsgd1na2vs0mg"},{"bike_id":"36f06fa4-dbaf-4c6e-822c-51f0f8fb2bfa","system_id":"levelo_inurba_marseille","lat":43.30548,"lon":5.36696,"is_reserved":false,"is_disabled":false,"rental_uris":{"android":"levelo://app?vid=36f06fa4-dbaf-4c6e-822c-51f0f8fb2bfa","ios":"levelo://app?vid=36f06fa4-dbaf-4c6e-822c-51f0f8fb2bfa"},"vehicle_type_id":"4","last_reported":1734991723,"current_range_meters":38400,"station_id":"ce4bgrp2rcd13ifvqc9g","pricing_plan_id":"cebpf4jnsgd1na2vs0mg"},{"bike_id":"43acd082-bc23-4761-b45a-ec0922561ed0","system_id":"levelo_inurba_marseille","lat":43.29257,"lon":5.40905,"is_reserved":false,"is_disabled":false,"rental_uris":{"android":"levelo://app?vid=43acd082-bc23-4761-b45a-ec0922561ed0","ios":"levelo://app?vid=43acd082-bc23-4761-b45a-ec0922561ed0"},"vehicle_type_id":"4","last_reported":1734991723,"current_range_meters":25600,"station_id":"ce4bh192rcd13ifvqdc0","pricing_plan_id":"cebpf4jnsgd1na2vs0mg"},{"bike_id":"feaff7ea-9012-4e28-a181-e7ef187f9c66","system_id":"levelo_inurba_marseille","lat":43.2849,"lon":5.38415,"is_reserved":false,"is_disabled":true,"rental_uris":{"android":"levelo://app?vid=feaff7ea-9012-4e28-a181-e7ef187f9c66","ios":"levelo://app?vid=feaff7ea-9012-4e28-a181-e7ef187f9c66"},"vehicle_type_id":"4","last_reported":1734991723,"current_range_meters":38800,"station_id":"ce4bh512rcd13ifvqe3g","pricing_plan_id":"cebpf4jnsgd1na2vs0mg"},{"bike_id":"f8448348-5574-4b47-abf3-6a6fdc140e6b","system_id":"levelo_inurba_marseille","lat":43.26031,"lon":5.37548,"is_reserved":false,"is_disabled":false,"rental_uris":{"android":"levelo://app?vid=f8448348-5574-4b47-abf3-6a6fdc140e6b","ios":"levelo://app?vid=f8448348-5574-4b47-abf3-6a6fdc140e6b"},"vehicle_type_id":"4","last_reported":1734991723,"current_range_meters":38800,"station_id":"ce4bhgh2rcd13ifvqfa0","pricing_plan_id":"cebpf4jnsgd1na2vs0mg"},{"bike_id":"864c8c07-623f-46e0-a84e-8c24a90096f0","system_id":"levelo_inurba_marseille","lat":43.30537,"lon":5.36525,"is_reserved":false,"is_disabled":false,"rental_uris":{"android":"levelo://app?vid=864c8c07-623f-46e0-a84e-8c24a90096f0","ios":"levelo://app?vid=864c8c07-623f-46e0-a84e-8c24a90096f0"},"vehicle_type_id":"4","last_reported":1734991723,"current_range_meters":27600,"station_id":"ce4bgs12rcd13ifvqcag","pricing_plan_id":"cebpf4jnsgd1na2vs0mg"},{"bike_id":"b39883aa-395d-4d08-9cc6-4d670bc95440","system_id":"levelo_inurba_marseille","lat":43.3236,"lon":5.38879,"is_reserved":false,"is_disabled":false,"rental_uris":{"android":"levelo://app?vid=b39883aa-395d-4d08-9cc6-4d670bc95440","ios":"levelo://app?vid=b39883aa-395d-4d08-9cc6-4d670bc95440"},"vehicle_type_id":"4","last_reported":1734991723,"current_range_meters":27600,"station_id":"ce4bhqp2rcd13ifvqhog","pricing_plan_id":"cebpf4jnsgd1na2vs0mg"},{"bike_id":"d34e2855-ab7a-45da-868c-3c8a5ee14d3c","system_id":"levelo_inurba_marseille","lat":43.27972,"lon":5.38763,"is_reserved":false,"is_disabled":false,"rental_uris":{"android":"levelo://app?vid=d34e2855-ab7a-45da-868c-3c8a5ee14d3c","ios":"levelo://app?vid=d34e2855-ab7a-45da-868c-3c8a5ee14d3c"},"vehicle_type_id":"4","last_reported":1734991723,"current_range_meters":38000,"station_id":"ce4bhg12rcd13ifvqf80","pricing_plan_id":"cebpf4jnsgd1na2vs0mg"},{"bike_id":"9333fb60-bc09-462a-931a-9a6010ca0e15","system_id":"levelo_inurba_marseille","lat":43.27902,"lon":5.3801,"is_reserved":false,"is_disabled":false,"rental_uris":{"android":"levelo://app?vid=9333fb60-bc09-462a-931a-9a6010ca0e15","ios":"levelo://app?vid=9333fb60-bc09-462a-931a-9a6010ca0e15"},"vehicle_type_id":"4","last_reported":1734991723,"current_range_meters":38800,"station_id":"ce4bhf92rcd13ifvqf50","pricing_plan_id":"cebpf4jnsgd1na2vs0mg"},{"bike_id":"bd5c44c7-47b4-49bb-b83d-2354ade11583","system_id":"levelo_inurba_marseille","lat":43.25122,"lon":5.40317,"is_reserved":false,"is_disabled":false,"rental_uris":{"android":"levelo://app?vid=bd5c44c7-47b4-49bb-b83d-2354ade11583","ios":"levelo://app?vid=bd5c44c7-47b4-49bb-b83d-2354ade11583"},"vehicle_type_id":"4","last_reported":1734991723,"current_range_meters":38800,"station_id":"ce4bhlh2rcd13ifvqgig","pricing_plan_id":"cebpf4jnsgd1na2vs0mg"},{"bike_id":"ea807f8d-7062-425e-9f2f-32ec64619a49","system_id":"levelo_inurba_marseille","lat":43.29203,"lon":5.39314,"is_reserved":false,"is_disabled":false,"rental_uris":{"android":"levelo://app?vid=ea807f8d-7062-425e-9f2f-32ec64619a49","ios":"levelo://app?vid=ea807f8d-7062-425e-9f2f-32ec64619a49"},"vehicle_type_id":"4","last_reported":1734991723,"current_range_meters":22800,"station_id":"ce4bh192rcd13ifvqdd0","pricing_plan_id":"cebpf4jnsgd1na2vs0mg"},{"bike_id":"3399abc2-d911-4fce-bece-6f8024b14fdc","system_id":"levelo_inurba_marseille","lat":43.27841,"lon":5.39201,"is_reserved":false,"is_disabled":true,"rental_uris":{"android":"levelo://app?vid=3399abc2-d911-4fce-bece-6f8024b14fdc","ios":"levelo://app?vid=3399abc2-d911-4fce-bece-6f8024b14fdc"},"vehicle_type_id":"4","last_reported":1734991723,"current_range_meters":2000,"station_id":"ce4bhjp2rcd13ifvqga0","pricing_plan_id":"cebpf4jnsgd1na2vs0mg"},{"bike_id":"d37c52a6-1787-4d06-a3a4-b3e1756aba73","system_id":"levelo_inurba_marseille","lat":43.33609,"lon":5.41019,"is_reserved":false,"is_disabled":false,"rental_uris":{"android":"levelo://app?vid=d37c52a6-1787-4d06-a3a4-b3e1756aba73","ios":"levelo://app?vid=d37c52a6-1787-4d06-a3a4-b3e1756aba73"},"vehicle_type_id":"4","last_reported":1734991723,"current_range_meters":38800,"station_id":"ce4bhqh2rcd13ifvqhmg","pricing_plan_id":"cebpf4jnsgd1na2vs0mg"},