{"last_updated":1716739760,"ttl":30,"version":"2.2","data":{"bikes":[{"bike_id":"00bee605-c711-4ebc-a268-b829a95891a2","system_id":"levelo_inurba_marseille","lat":43.313391,"lon":5.36706,"is_reserved":false,"is_disabled":false,"rental_uris":{"android":"levelo://app?vid=00bee605-c711-4ebc-a268-b829a95891a2","ios":"levelo://app?vid=00bee605-c711-4ebc-a268-b829a95891a2"},"vehicle_type_id":"4","last_reported":1716739760,"current_range_meters":8800,"station_id":"ce4bgr92rcd13ifvqc6g","pricing_plan_id":"cebpf4jnsgd1na2vs0mg"},{"bike_id":"45f69cf0-a561-4985-9918-a74b520c5bee","system_id":"levelo_inurba_marseille","lat":43.31341,"lon":5.367098,"is_reserved":false,"is_disabled":false,"rental_uris":{"android":"levelo://app?vid=45f69cf0-a561-4985-9918-a74b520c5bee","ios":"levelo://app?vid=45f69cf0-a561-4985-9918-a74b520c5bee"},"vehicle_type_id":"4","last_reported":1716739760,"current_range_meters":4400,"station_id":"ce4bgr92rcd13ifvqc6g","pricing_plan_id":"cebpf4jnsgd1na2vs0mg"},{"bike_id":"338152ba-4916-4552-82bd-724ac65f11c1","system_id":"levelo_inurba_marseille","lat":43.31341,"lon":5.367098,"is_reserved":false,"is_disabled":false,"rental_uris":{"android":"levelo://app?vid=338152ba-4916-4552-82bd-724ac65f11c1","ios":"levelo://app?vid=338152ba-4916-4552-82bd-724ac65f11c1"},"vehicle_type_id":"4","last_reported":1716739760,"current_range_meters":6000,"station_id":"ce4bgr92rcd13ifvqc6g","pricing_plan_id":"cebpf4jnsgd1na2vs0mg"},{"bike_id":"892f1f38-5881-4422-8ae7-a45e5dd3fc37","system_id":"levelo_inurba_marseille","lat":43.312239,"lon":5.368562,"is_reserved":false,"is_disabled":false,"rental_uris":{"android":"levelo://app?vid=892f1f38-5881-4422-8ae7-a45e5dd3fc37","ios":"levelo://app?vid=892f1f38-5881-4422-8ae7-a45e5dd3fc37"},"vehicle_type_id":"4","last_reported":1716739760,"current_range_meters":26000,"station_id":"ce4bgl92rcd13ifvqbq0","pricing_plan_id":"cebpf4jnsgd1na2vs0mg"},{"bike_id":"1108a251-5f26-4b70-872b-d936dfe54380","system_id":"levelo_inurba_marseille","lat":43.309076,"lon":5.368465,"is_reserved":false,"is_disabled":false,"rental_uris":{"android":"levelo://app?vid=1108a251-5f26-4b70-872b-d936dfe54380","ios":"levelo://app?vid=1108a251-5f26-4b70-872b-d936dfe54380"},"vehicle_type_id":"4","last_reported":1716739760,"current_range_meters":20000,"station_id":"ce4bgn92rcd13ifvqbvg","pricing_plan_id":"cebpf4jnsgd1na2vs0mg"},{"bike_id":"6cd53691-487c-4327-8f01-2e67a80d6a02","system_id":"levelo_inurba_marseille","lat":43.314811,"lon":5.373103,"is_reserved":false,"is_disabled":false,"rental_uris":{"android":"levelo://app?vid=6cd53691-487c-4327-8f01-2e67a80d6a02","ios":"levelo://app?vid=6cd53691-487c-4327-8f01-2e67a80d6a02"},"vehicle_type_id":"4","last_reported":1716739760,"current_range_meters":14400,"station_id":"ce4bgt12rcd13ifvqcd0","pricing_plan_id":"cebpf4jnsgd1na2vs0mg"},{"bike_id":"05a6ffa7-eef3-41cb-8233-6d79e230107b","system_id":"levelo_inurba_marseille","lat":43.305368,"lon":5.367343,"is_reserved":false,"is_disabled":false,"rental_uris":{"android":"levelo://app?vid=05a6ffa7-eef3-41cb-8233-6d79e230107b","ios":"levelo://app?vid=05a6ffa7-eef3-41cb-8233-6d79e230107b"},"vehicle_type_id":"4","last_reported":1716739760,"current_range_meters":0,"station_id":"ce4bgrp2rcd13ifvqc9g","pricing_plan_id":"cebpf4jnsgd1na2vs0mg"},{"bike_id":"d74d3464-1f8c-4387-b7f4-0bd311503ab8","system_id":"levelo_inurba_marseille","lat":43.305368,"lon":5.367343,"is_reserved":false,"is_disabled":false,"rental_uris":{"android":"levelo://app?vid=d74d3464-1f8c-4387-b7f4-0bd311503ab8","ios":"levelo://app?vid=d74d3464-1f8c-4387-b7f4-0bd311503ab8"},"vehicle_type_id":"4","last_reported":1716739760,"current_range_meters":4800,"station_id":"ce4bgrp2rcd13ifvqc9g","pricing_plan_id":"cebpf4jnsgd1na2vs0mg"},{"bike_id":"336d3e7f-faea-4dce-92c8-700dd3d3eade","system_id":"levelo_inurba_marseille","lat":43.305368,"lon":5.367343,"is_reserved":false,"is_disabled":false,"rental_uris":{"android":"levelo://app?vid=336d3e7f-faea-4dce-92c8-700dd3d3eade","ios":"levelo://app?vid=336d3e7f-faea-4dce-92c8-700dd3d3eade"},"vehicle_type_id":"4","last_reported":1716739760,"current_range_meters":6000,"station_id":"ce4bgrp2rcd13ifvqc9g","pricing_plan_id":"cebpf4jnsgd1na2vs0mg"},{"bike_id":"bf495b8a-287d-4678-b750-686cbfff33c6","system_id":"levelo_inurba_marseille","lat":43.30528,"lon":5.3657,"is_reserved":false,"is_disabled":false,"rental_uris":{"android":"levelo://app?vid=bf495b8a-287d-4678-b750-686cbfff33c6","ios":"levelo://app?vid=bf495b8a-287d-4678-b750-686cbfff33c6"},"vehicle_type_id":"4","last_reported":1716739760,"current_range_meters":0,"station_id":"ce4bgs12rcd13ifvqcag","pricing_plan_id":"cebpf4jnsgd1na2vs0mg"},{"bike_id":"085f8808-1d82-4a31-a42a-8e58df7e3717","system_id":"levelo_inurba_marseille","lat":43.305989,"lon":5.37225,"is_reserved":false,"is_disabled":false,"rental_uris":{"android":"levelo://app?vid=085f8808-1d82-4a31-a42a-8e58df7e3717","ios":"levelo://app?vid=085f8808-1d82-4a31-a42a-8e58df7e3717"},"vehicle_type_id":"4","last_reported":1716739760,"current_range_meters":31200,"station_id":"ce4bgqh2rcd13ifvqc4g","pricing_plan_id":"cebpf4jnsgd1na2vs0mg"},{"bike_id":"1f7ea98b-9627-410e-bb76-eb294d0fbf08","system_id":"levelo_inurba_marseille","lat":43.311131,"lon":5.377651,"is_reserved":false,"is_disabled":false,"rental_uris":{"android":"levelo://app?vid=1f7ea98b-9627-410e-bb76-eb294d0fbf08","ios":"levelo://app?vid=1f7ea98b-9627-410e-bb76-eb294d0fbf08"},"vehicle_type_id":"4","last_reported":1716739760,"current_range_meters":12400,"station_id":"ce4bgt92rcd13ifvqcg0","pricing_plan_id":"cebpf4jnsgd1na2vs0mg"},{"bike_id":"99b5d845-3b50-4d48-bee3-6d7e73724e7b","system_id":"levelo_inurba_marseille","lat":43.311131,"lon":5.377651,"is_reserved":false,"is_disabled":false,"rental_uris":{"android":"levelo://app?vid=99b5d845-3b50-4d48-bee3-6d7e73724e7b","ios":"levelo://app?vid=99b5d845-3b50-4d48-bee3-6d7e73724e7b"},"vehicle_type_id":"4","last_reported":1716739760,"current_range_meters":0,"station_id":"ce4bgt92rcd13ifvqcg0","pricing_plan_id":"cebpf4jnsgd1na2vs0mg"},{"bike_id":"b4bea119-f668-4593-bb00-80b08f0a5dbd","system_id":"levelo_inurba_marseille","lat":43.31718,"lon":5.37746,"is_reserved":false,"is_disabled":false,"rental_uris":{"android":"levelo://app?vid=b4bea119-f668-4593-bb00-80b08f0a5dbd","ios":"levelo://app?vid=b4bea119-f668-4593-bb00-80b08f0a5dbd"},"vehicle_type_id":"4","last_reported":1716739760,"current_range_meters":0,"station_id":"ce4bgth2rcd13ifvqch0","pricing_plan_id":"cebpf4jnsgd1na2vs0mg"},{"bike_id":"ba3fddf9-b951-4696-8dfe-8e4a48e4ca96","system_id":"levelo_inurba_marseille","lat":43.317075,"lon":5.377367,"is_reserved":false,"is_disabled":false,"rental_uris":{"android":"levelo://app?vid=ba3fddf9-b951-4696-8dfe-8e4a48e4ca96","ios":"levelo://app?vid=ba3fddf9-b951-4696-8dfe-8e4a48e4ca96"},"vehicle_type_id":"4","last_reported":1716739760,"current_range_meters":28800,"station_id":"ce4bgth2rcd13ifvqch0","pricing_plan_id":"cebpf4jnsgd1na2vs0mg"},{"bike_id":"ccface55-e42b-4f6b-89c0-0f14bc47d425","system_id":"levelo_inurba_marseille","lat":43.30304,"lon":5.368987,"is_reserved":false,"is_disabled":false,"rental_uris":{"android":"levelo://app?vid=ccface55-e42b-4f6b-89c0-0f14bc47d425","ios":"levelo://app?vid=ccface55-e42b-4f6b-89c0-0f14bc47d425"},"vehicle_type_id":"4","last_reported":1716739760,"current_range_meters":800,"station_id":"ce4bgqh2rcd13ifvqc5g","pricing_plan_id":"cebpf4jnsgd1na2vs0mg"},{"bike_id":"d7c1a824-eb17-4ba3-9533-bc0e2babd7c0","system_id":"levelo_inurba_marseille","lat":43.30312,"lon":5.36917,"is_reserved":false,"is_disabled":false,"rental_uris":{"android":"levelo://app?vid=d7c1a824-eb17-4ba3-9533-bc0e2babd7c0","ios":"levelo://app?vid=d7c1a824-eb17-4ba3-9533-bc0e2babd7c0"},"vehicle_type_id":"4","last_reported":1716739760,"current_range_meters":1200,"station_id":"ce4bgqh2rcd13ifvqc5g","pricing_plan_id":"cebpf4jnsgd1na2vs0mg"},{"bike_id":"d90210d7-c641-433a-b86f-9949da37a93a","system_id":"levelo_inurba_marseille","lat":43.301939,"lon":5.366286,"is_reserved":false,"is_disabled":false,"rental_uris":{"android":"levelo://app?vid=d90210d7-c641-433a-b86f-9949da37a93a","ios":"levelo://app?vid=d90210d7-c641-433a-b86f-9949da37a93a"},"vehicle_type_id":"4","last_reported":1716739760,"current_range_meters":14000,"station_id":"ce4bgrh2rcd13ifvqc8g","pricing_plan_id":"cebpf4jnsgd1na2vs0mg"},{"bike_id":"ed38837c-dc88-46db-90f8-799b290a007b","system_id":"levelo_inurba_marseille","lat":43.30817,"lon":5.3815,"is_reserved":false,"is_disabled":false,"rental_uris":{"android":"levelo://app?vid=ed38837c-dc88-46db-90f8-799b290a007b","ios":"levelo://app?vid=ed38837c-dc88-46db-90f8-799b290a007b"},"vehicle_type_id":"4","last_reported":1716739760,"current_range_meters":18000,"station_id":"ce4bgt12rcd13ifvqce0","pricing_plan_id":"cebpf4jnsgd1na2vs0mg"},{"bike_id":"03964c16-f476-41b1-a323-7868900587b0","system_id":"levelo_inurba_marseille","lat":43.3081,"lon":5.38166,"is_reserved":false,"is_disabled":false,"rental_uris":{"android":"levelo://app?vid=03964c16-f476-41b1-a323-7868900587b0","ios":"levelo://app?vid=03964c16-f476-41b1-a323-7868900587b0"},"vehicle_type_id":"4","last_reported":1716739760,"current_range_meters":0,"station_id":"ce4bgt12rcd13ifvqce0","pricing_plan_id":"cebpf4jnsgd1na2vs0mg"},{"bike_id":"c456f866-b3e7-4301-8fc3-90c13219b920","system_id":"levelo_inurba_marseille","lat":43.30234,"lon":5.3743,"is_reserved":false,"is_disabled":false,"rental_uris":{"android":"levelo://app?vid=c456f866-b3e7-4301-8fc3-90c13219b920","ios":"levelo://app?vid=c456f866-b3e7-4301-8fc3-90c13219b920"},"vehicle_type_id":"4","last_reported":1716739760,"current_range_meters":12400,"station_id":"","pricing_plan_id":"cebpf4jnsgd1na2vs0mg"},{"bike_id":"01745d17-c846-42aa-9e10-e6d339cec988","system_id":"levelo_inurba_marseille","lat":43.304606,"lon":5.379026,"is_reserved":false,"is_disabled":false,"rental_uris":{"android":"levelo://app?vid=01745d17-c846-42aa-9e10-e6d339cec988","ios":"levelo://app?vid=01745d17-c846-42aa-9e10-e6d339cec988"},"vehicle_type_id":"4","last_reported":1716739760,"current_range_meters":18400,"station_id":"ce4bgup2rcd13ifvqcn0","pricing_plan_id":"cebpf4jnsgd1na2vs0mg"},{"bike_id":"72ba4090-3817-4ac9-a00a-506384b53c7f","system_id":"levelo_inurba_marseille","lat":43.32479,"lon":5.365746,"is_reserved":false,"is_disabled":false,"rental_uris":{"android":"levelo://app?vid=72ba4090-3817-4ac9-a00a-506384b53c7f","ios":"levelo://app?vid=72ba4090-3817-4ac9-a00a-506384b53c7f"},"vehicle_type_id":"4","last_reported":1716739760,"current_range_meters":30000,"station_id":"ce4bhs12rcd13ifvqhvg","pricing_plan_id":"cebpf4jnsgd1na2vs0mg"},{"bike_id":"0fe1c741-31ef-4c42-ae4f-9fc5e42ec0c2","system_id":"levelo_inurba_marseille","lat":43.324771,"lon":5.36557,"is_reserved":false,"is_disabled":false,"rental_uris":{"android":"levelo://app?vid=0fe1c741-31ef-4c42-ae4f-9fc5e42ec0c2","ios":"levelo://app?vid=0fe1c741-31ef-4c42-ae4f-9fc5e42ec0c2"},"vehicle_type_id":"4","last_reported":1716739760,"current_range_meters":21600,"station_id":"ce4bhs12rcd13ifvqhvg","pricing_plan_id":"cebpf4jnsgd1na2vs0mg"},{"bike_id":"99a35186-da9f-462a-b777-ca5d239a806c","system_id":"levelo_inurba_marseille","lat":43.324771,"lon":5.36557,"is_reserved":false,"is_disabled":false,"rental_uris":{"android":"levelo://app?vid=99a35186-da9f-462a-b777-ca5d239a806c","ios":"levelo://app?vid=99a35186-da9f-462a-b777-ca5d239a806c"},"vehicle_type_id":"4","last_reported":1716739760,"current_range_meters":18800,"station_id":"ce4bhs12rcd13ifvqhvg","pricing_plan_id":"cebpf4jnsgd1na2vs0mg"},{"bike_id":"1e27f010-3bdb-4762-a3d2-70f5517cc08d","system_id":"levelo_inurba_marseille","lat":43.324771,"lon":5.36557,"is_reserved":false,"is_disabled":false,"rental_uris":{"android":"levelo://app?vid=1e27f010-3bdb-4762-a3d2-70f5517cc08d","ios":"levelo://app?vid=1e27f010-3bdb-4762-a3d2-70f5517cc08d"},"vehicle_type_id":"4","last_reported":1716739760,"current_range_meters":27200,"station_id":"ce4bhs12rcd13ifvqhvg","pricing_plan_id":"cebpf4jnsgd1na2vs0mg"},{"bike_id":"11afafd0-4eff-440f-850c-1e17bea26cdf","system_id":"levelo_inurba_marseille","lat":43.324771,"lon":5.36557,"is_reserved":false,"is_disabled":false,"rental_uris":{"android":"levelo://app?vid=11afafd0-4eff-440f-850c-1e17bea26cdf","ios":"levelo://app?vid=11afafd0-4eff-440f-850c-1e17bea26cdf"},"vehicle_type_id":"4","last_reported":1716739760,"current_range_meters":16800,"station_id":"ce4bhs12rcd13ifvqhvg","pricing_plan_id":"cebpf4jnsgd1na2vs0mg"},{"bike_id":"71a56a80-db24-465f-af67-8ee54602e2c2","system_id":"levelo_inurba_marseille","lat":43.324771,"lon":5.36557,"is_reserved":false,"is_disabled":false,"rental_uris":{"android":"levelo://app?vid=71a56a80-db24-465f-af67-8ee54602e2c2","ios":"levelo://app?vid=71a56a80-db24-465f-af67-8ee54602e2c2"},"vehicle_type_id":"4","last_reported":1716739760,"current_range_meters":17200,"station_id":"ce4bhs12rcd13ifvqhvg","pricing_plan_id":"cebpf4jnsgd1na2vs0mg"},{"bike_id":"65730769-77be-4537-be32-48e2bdd5e515","system_id":"levelo_inurba_marseille","lat":43.310804,"lon":5.38359,"is_reserved":false,"is_disabled":false,"rental_uris":{"android":"levelo://app?vid=65730769-77be-4537-be32-48e2bdd5e515","ios":"levelo://app?vid=65730769-77be-4537-be32-48e2bdd5e515"},"vehicle_type_id":"4","last_reported":1716739760,"current_range_meters":1200,"station_id":"ce4bgv92rcd13ifvqcr0","pricing_plan_id":"cebpf4jnsgd1na2vs0mg"},{"bike_id":"2bd7ccb8-9918-4e3e-8cf2-d5d642e2d229","system_id":"levelo_inurba_marseille","lat":43.310804,"lon":5.38359,"is_reserved":false,"is_disabled":false,"rental_uris":{"android":"levelo://app?vid=2bd7ccb8-9918-4e3e-8cf2-d5d642e2d229","ios":"levelo://app?vid=2bd7ccb8-9918-4e3e-8cf2-d5d642e2d229"},"vehicle_type_id":"4","last_reported":1716739760,"current_range_meters":4000,"station_id":"ce4bgv92rcd13ifvqcr0","pricing_plan_id":"cebpf4jnsgd1na2vs0mg"},{"bike_id":"0ce0717b-56e6-4390-aefa-62f3721cb3df","system_id":"levelo_inurba_marseille","lat":43.302784,"lon":5.377158,"is_reserved":false,"is_disabled":false,"rental_uris":{"android":"levelo://app?vid=0ce0717b-56e6-4390-aefa-62f3721cb3df","ios":"levelo://app?vid=0ce0717b-56e6-4390-aefa-62f3721cb3df"},"vehicle_type_id":"4","last_reported":1716739760,"current_range_meters":2400,"station_id":"ce4bguh2rcd13ifvqcj0","pricing_plan_id":"cebpf4jnsgd1na2vs0mg"},{"bike_id":"edc312bb-3a60-404d-9631-531b7dd98636","system_id":"levelo_inurba_marseille","lat":43.313571,"lon":5.384829,"is_reserved":false,"is_disabled":false,"rental_uris":{"android":"levelo://app?vid=edc312bb-3a60-404d-9631-531b7dd98636","ios":"levelo://app?vid=edc312bb-3a60-404d-9631-531b7dd98636"},"vehicle_type_id":"4","last_reported":1716739760,"current_range_meters":3600,"station_id":"ce4bgt92rcd13ifvqcf0","pricing_plan_id":"cebpf4jnsgd1na2vs0mg"},{"bike_id":"01e7c28d-681e-4526-a76e-be4b6fd9232d","system_id":"levelo_inurba_marseille","lat":43.313592,"lon":5.384874,"is_reserved":false,"is_disabled":false,"rental_uris":{"android":"levelo://app?vid=01e7c28d-681e-4526-a76e-be4b6fd9232d","ios":"levelo://app?vid=01e7c28d-681e-4526-a76e-be4b6fd9232d"},"vehicle_type_id":"4","last_reported":1716739760,"current_range_meters":0,"station_id":"ce4bgt92rcd13ifvqcf0","pricing_plan_id":"cebpf4jnsgd1na2vs0mg"},{"bike_id":"f6404027-d648-460a-a54b-9ab305d24617","system_id":"levelo_inurba_marseille","lat":43.29936,"lon":5.3655,"is_reserved":false,"is_disabled":false,"rental_uris":{"android":"levelo://app?vid=f6404027-d648-460a-a54b-9ab305d24617","ios":"levelo://app?vid=f6404027-d648-460a-a54b-9ab305d24617"},"vehicle_type_id":"4","last_reported":1716739760,"current_range_meters":18400,"station_id":"","pricing_plan_id":"cebpf4jnsgd1na2vs0mg"},{"bike_id":"3bb34a97-1b86-4f58-b553-b30fe638ed4e","system_id":"levelo_inurba_marseille","lat":43.299222,"lon":5.365554,"is_reserved":false,"is_disabled":false,"rental_uris":{"android":"levelo://app?vid=3bb34a97-1b86-4f58-b553-b30fe638ed4e","ios":"levelo://app?vid=3bb34a97-1b86-4f58-b553-b30fe638ed4e"},"vehicle_type_id":"4","last_reported":1716739760,"current_range_meters":0,"station_id":"ce4bgm92rcd13ifvqbr0","pricing_plan_id":"cebpf4jnsgd1na2vs0mg"},{"bike_id":"2b815909-5eee-471e-9e8b-31c3e6ef02dd","system_id":"levelo_inurba_marseille","lat":43.299222,"lon":5.365554,"is_reserved":false,"is_disabled":false,"rental_uris":{"android":"levelo://app?vid=2b815909-5eee-471e-9e8b-31c3e6ef02dd","ios":"levelo://app?vid=2b815909-5eee-471e-9e8b-31c3e6ef02dd"},"vehicle_type_id":"4","last_reported":1716739760,"current_range_meters":6800,"station_id":"ce4bgm92rcd13ifvqbr0","pricing_plan_id":"cebpf4jnsgd1na2vs0mg"},{"bike_id":"d01da954-5ba6-4ecf-ba82-b61f67e8ac34","system_id":"levelo_inurba_marseille","lat":43.299724,"lon":5.371829,"is_reserved":false,"is_disabled":false,"rental_uris":{"android":"levelo://app?vid=d01da954-5ba6-4ecf-ba82-b61f67e8ac34","ios":"levelo://app?vid=d01da954-5ba6-4ecf-ba82-b61f67e8ac34"},"vehicle_type_id":"4","last_reported":1716739760,"current_range_meters":0,"station_id":"ce4bgr92rcd13ifvqc7g","pricing_plan_id":"cebpf4jnsgd1na2vs0mg"},{"bike_id":"0bcc9863-208a-4273-a09f-8352ad4d9222","system_id":"levelo_inurba_marseille","lat":43.298859,"lon":5.367044,"is_reserved":false,"is_disabled":false,"rental_uris":{"android":"levelo://app?vid=0bcc9863-208a-4273-a09f-8352ad4d9222","ios":"levelo://app?vid=0bcc9863-208a-4273-a09f-8352ad4d9222"},"vehicle_type_id":"4","last_reported":1716739760,"current_range_meters":22800,"station_id":"","pricing_plan_id":"cebpf4jnsgd1na2vs0mg"},{"bike_id":"f9593944-692d-4343-9acc-3c62a9102c54","system_id":"levelo_inurba_marseille","lat":43.29856,"lon":5.36282,"is_reserved":false,"is_disabled":false,"rental_uris":{"android":"levelo://app?vid=f9593944-692d-4343-9acc-3c62a9102c54","ios":"levelo://app?vid=f9593944-692d-4343-9acc-3c62a9102c54"},"vehicle_type_id":"4","last_reported":1716739760,"current_range_meters":0,"station_id":"ce4bgpp2rcd13ifvqc3g","pricing_plan_id":"cebpf4jnsgd1na2vs0mg"},{"bike_id":"253cc6b5-cc95-4946-9c26-370735d47052","system_id":"levelo_inurba_marseille","lat":43.29854,"lon":5.36294,"is_reserved":false,"is_disabled":false,"rental_uris":{"android":"levelo://app?vid=253cc6b5-cc95-4946-9c26-370735d47052","ios":"levelo://app?vid=253cc6b5-cc95-4946-9c26-370735d47052"},"vehicle_type_id":"4","last_reported":1716739760,"current_range_meters":5200,"station_id":"ce4bgpp2rcd13ifvqc3g","pricing_plan_id":"cebpf4jnsgd1na2vs0mg"},{"bike_id":"95d3283b-f8cb-4a8d-a5ab-d2c55ccd61e7","system_id":"levelo_inurba_marseille","lat":43.299426,"lon":5.374838,"is_reserved":false,"is_disabled":false,"rental_uris":{"android":"levelo://app?vid=95d3283b-f8cb-4a8d-a5ab-d2c55ccd61e7","ios":"levelo://app?vid=95d3283b-f8cb-4a8d-a5ab-d2c55ccd61e7"},"vehicle_type_id":"4","last_reported":1716739760,"current_range_meters":14800,"station_id":"","pricing_plan_id":"cebpf4jnsgd1na2vs0mg"},{"bike_id":"7c0279c4-785e-41cc-9875-11b1aa5697b0","system_id":"levelo_inurba_marseille","lat":43.298433,"lon":5.362774,"is_reserved":false,"is_disabled":false,"rental_uris":{"android":"levelo://app?vid=7c0279c4-785e-41cc-9875-11b1aa5697b0","ios":"levelo://app?vid=7c0279c4-785e-41cc-9875-11b1aa5697b0"},"vehicle_type_id":"4","last_reported":1716739760,"current_range_meters":31200,"station_id":"ce4bgpp2rcd13ifvqc3g","pricing_plan_id":"cebpf4jnsgd1na2vs0mg"},{"bike_id":"c70d197d-6f1a-411a-8287-034ce7bb850a","system_id":"levelo_inurba_marseille","lat":43.311734,"lon":5.387082,"is_reserved":false,"is_disabled":false,"rental_uris":{"android":"levelo://app?vid=c70d197d-6f1a-411a-8287-034ce7bb850a","ios":"levelo://app?vid=c70d197d-6f1a-411a-8287-034ce7bb850a"},"vehicle_type_id":"4","last_reported":1716739760,"current_range_meters":0,"station_id":"ce4bgv12rcd13ifvqcp0","pricing_plan_id":"cebpf4jnsgd1na2vs0mg"},{"bike_id":"8c8a252d-52cf-4d6c-9c5c-3dcfe2687393","system_id":"levelo_inurba_marseille","lat":43.298433,"lon":5.362774,"is_reserved":false,"is_disabled":false,"rental_uris":{"android":"levelo://app?vid=8c8a252d-52cf-4d6c-9c5c-3dcfe2687393","ios":"levelo://app?vid=8c8a252d-52cf-4d6c-9c5c-3dcfe2687393"},"vehicle_type_id":"4","last_reported":1716739760,"current_range_meters":800,"station_id":"ce4bgpp2rcd13ifvqc3g","pricing_plan_id":"cebpf4jnsgd1na2vs0mg"},{"bike_id":"e0e75d11-b858-4cca-9f52-9cb57b641e4a","system_id":"levelo_inurba_marseille","lat":43.298279,"lon":5.36297,"is_reserved":false,"is_disabled":false,"rental_uris":{"android":"levelo://app?vid=e0e75d11-b858-4cca-9f52-9cb57b641e4a","ios":"levelo://app?vid=e0e75d11-b858-4cca-9f52-9cb57b641e4a"},"vehicle_type_id":"4","last_reported":1716739760,"current_range_meters":20000,"station_id":"","pricing_plan_id":"cebpf4jnsgd1na2vs0mg"},{"bike_id":"ed492a4e-944e-43b3-bd26-4581a8e6f7a8","system_id":"levelo_inurba_marseille","lat":43.297794,"lon":5.370888,"is_reserved":false,"is_disabled":false,"rental_uris":{"android":"levelo://app?vid=ed492a4e-944e-43b3-bd26-4581a8e6f7a8","ios":"levelo://app?vid=ed492a4e-944e-43b3-bd26-4581a8e6f7a8"},"vehicle_type_id":"4","last_reported":1716739760,"current_range_meters":29600,"station_id":"ce4bgop2rcd13ifvqc1g","pricing_plan_id":"cebpf4jnsgd1na2vs0mg"},{"bike_id":"46373288-1ea0-47b5-8152-267fb323cbd6","system_id":"levelo_inurba_marseille","lat":43.297774,"lon":5.370875,"is_reserved":false,"is_disabled":false,"rental_uris":{"android":"levelo://app?vid=46373288-1ea0-47b5-8152-267fb323cbd6","ios":"levelo://app?vid=46373288-1ea0-47b5-8152-267fb323cbd6"},"vehicle_type_id":"4","last_reported":1716739760,"current_range_meters":6000,"station_id":"ce4bgop2rcd13ifvqc1g","pricing_plan_id":"cebpf4jnsgd1na2vs0mg"},{"bike_id":"e3bfcb18-8c0b-43df-8dfa-2dd0afa932a3","system_id":"levelo_inurba_marseille","lat":43.297774,"lon":5.370875,"is_reserved":false,"is_disabled":false,"rental_uris":{"android":"levelo://app?vid=e3bfcb18-8c0b-43df-8dfa-2dd0afa932a3","ios":"levelo://app?vid=e3bfcb18-8c0b-43df-8dfa-2dd0afa932a3"},"vehicle_type_id":"4","last_reported":1716739760,"current_range_meters":0,"station_id":"ce4bgop2rcd13ifvqc1g","pricing_plan_id":"cebpf4jnsgd1na2vs0mg"},{"bike_id":"d75371bb-dc2c-4c2e-81bc-68e020f8676a","system_id":"levelo_inurba_marseille","lat":43.322872,"lon":5.382756,"is_reserved":false,"is_disabled":false,"rental_uris":{"android":"levelo://app?vid=d75371bb-dc2c-4c2e-81bc-68e020f8676a","ios":"levelo://app?vid=d75371bb-dc2c-4c2e-81bc-68e020f8676a"},"vehicle_type_id":"4","last_reported":1716739760,"current_range_meters":3600,"station_id":"ce4bhr12rcd13ifvqhqg","pricing_plan_id":"cebpf4jnsgd1na2vs0mg"},{"bike_id":"75c40262-3a63-4242-828b-33a9ffa560f2","system_id":"levelo_inurba_marseille","lat":43.32286,"lon":5.38278,"is_reserved":false,"is_disabled":false,"rental_uris":{"android":"levelo://app?vid=75c40262-3a63-4242-828b-33a9ffa560f2","ios":"levelo://app?vid=75c40262-3a63-4242-828b-33a9ffa560f2"},"vehicle_type_id":"4","last_reported":1716739760,"current_range_meters":4800,"station_id":"ce4bhr12rcd13ifvqhqg","pricing_plan_id":"cebpf4jnsgd1na2vs0mg"},{"bike_id":"bb1b6cb5-f409-42c0-bdce-5204f699b8d1","system_id":"levelo_inurba_marseille","lat":43.32297,"lon":5.38274,"is_reserved":false,"is_disabled":false,"rental_uris":{"android":"levelo://app?vid=bb1b6cb5-f409-42c0-bdce-5204f699b8d1","ios":"levelo://app?vid=bb1b6cb5-f409-42c0-bdce-5204f699b8d1"},"vehicle_type_id":"4","last_reported":1716739760,"current_range_meters":4400,"station_id":"ce4bhr12rcd13ifvqhqg","pricing_plan_id":"cebpf4jnsgd1na2vs0mg"},{"bike_id":"0d85a290-84b8-4b38-904f-540bc1a9c9bb","system_id":"levelo_inurba_marseille","lat":43.297794,"lon":5.370888,"is_reserved":false,"is_disabled":false,"rental_uris":{"android":"levelo://app?vid=0d85a290-84b8-4b38-904f-540bc1a9c9bb","ios":"levelo://app?vid=0d85a290-84b8-4b38-904f-540bc1a9c9bb"},"vehicle_type_id":"4","last_reported":1716739760,"current_range_meters":1200,"station_id":"ce4bgop2rcd13ifvqc1g","pricing_plan_id":"cebpf4jnsgd1na2vs0mg"},{"bike_id":"89f755b5-724f-4772-a4fe-05adc29963b6","system_id":"levelo_inurba_marseille","lat":43.297163,"lon":5.365866,"is_reserved":false,"is_disabled":false,"rental_uris":{"android":"levelo://app?vid=89f755b5-724f-4772-a4fe-05adc29963b6","ios":"levelo://app?vid=89f755b5-724f-4772-a4fe-05adc29963b6"},"vehicle_type_id":"4","last_reported":1716739760,"current_range_meters":22000,"station_id":"ce4bgn12rcd13ifvqbt0","pricing_plan_id":"cebpf4jnsgd1na2vs0mg"},{"bike_id":"eb2c3386-b153-4c66-b530-edb8a69da7ba","system_id":"levelo_inurba_marseille","lat":43.2968,"lon":5.37291,"is_reserved":false,"is_disabled":false,"rental_uris":{"android":"levelo://app?vid=eb2c3386-b153-4c66-b530-edb8a69da7ba","ios":"levelo://app?vid=eb2c3386-b153-4c66-b530-edb8a69da7ba"},"vehicle_type_id":"4","last_reported":1716739760,"current_range_meters":29200,"station_id":"ce4bgk12rcd13ifvqbj0","pricing_plan_id":"cebpf4jnsgd1na2vs0mg"},{"bike_id":"4ef0add4-cc94-411f-974c-f71a9b103a6a","system_id":"levelo_inurba_marseille","lat":43.2968,"lon":5.37291,"is_reserved":false,"is_disabled":false,"rental_uris":{"android":"levelo://app?vid=4ef0add4-cc94-411f-974c-f71a9b103a6a","ios":"levelo://app?vid=4ef0add4-cc94-411f-974c-f71a9b103a6a"},"vehicle_type_id":"4","last_reported":1716739760,"current_range_meters":0,"station_id":"ce4bgk12rcd13ifvqbj0","pricing_plan_id":"cebpf4jnsgd1na2vs0mg"},{"bike_id":"b0181dbd-d16d-4347-9382-b450da867146","system_id":"levelo_inurba_marseille","lat":43.29657,"lon":5.36162,"is_reserved":false,"is_disabled":false,"rental_uris":{"android":"levelo://app?vid=b0181dbd-d16d-4347-9382-b450da867146","ios":"levelo://app?vid=b0181dbd-d16d-4347-9382-b450da867146"},"vehicle_type_id":"4","last_reported":1716739760,"current_range_meters":4400,"station_id":"","pricing_plan_id":"cebpf4jnsgd1na2vs0mg"},{"bike_id":"007bc0e7-f8ff-499a-a2ed-70ecde28ed68","system_id":"levelo_inurba_marseille","lat":43.296131,"lon":5.370773,"is_reserved":false,"is_disabled":false,"rental_uris":{"android":"levelo://app?vid=007bc0e7-f8ff-499a-a2ed-70ecde28ed68","ios":"levelo://app?vid=007bc0e7-f8ff-499a-a2ed-70ecde28ed68"},"vehicle_type_id":"4","last_reported":1716739760,"current_range_meters":0,"station_id":"ce4bgnh2rcd13ifvqc0g","pricing_plan_id":"cebpf4jnsgd1na2vs0mg"},{"bike_id":"2aeae8b5-99ab-4dbf-8f35-0796b078c712","system_id":"levelo_inurba_marseille","lat":43.29573,"lon":5.367355,"is_reserved":false,"is_disabled":false,"rental_uris":{"android":"levelo://app?vid=2aeae8b5-99ab-4dbf-8f35-0796b078c712","ios":"levelo://app?vid=2aeae8b5-99ab-4dbf-8f35-0796b078c712"},"vehicle_type_id":"4","last_reported":1716739760,"current_range_meters":3600,"station_id":"ce4bgph2rcd13ifvqc2g","pricing_plan_id":"cebpf4jnsgd1na2vs0mg"},{"bike_id":"2f8489ee-140a-4a20-9af1-77deb0365b28","system_id":"levelo_inurba_marseille","lat":43.296921,"lon":5.376579,"is_reserved":false,"is_disabled":false,"rental_uris":{"android":"levelo://app?vid=2f8489ee-140a-4a20-9af1-77deb0365b28","ios":"levelo://app?vid=2f8489ee-140a-4a20-9af1-77deb0365b28"},"vehicle_type_id":"4","last_reported":1716739760,"current_range_meters":8400,"station_id":"ce4bgkh2rcd13ifvqbl0","pricing_plan_id":"cebpf4jnsgd1na2vs0mg"},{"bike_id":"08c9a6f2-7118-47ea-937b-00e6f6c9eb95","system_id":"levelo_inurba_marseille","lat":43.299028,"lon":5.381509,"is_reserved":false,"is_disabled":false,"rental_uris":{"android":"levelo://app?vid=08c9a6f2-7118-47ea-937b-00e6f6c9eb95","ios":"levelo://app?vid=08c9a6f2-7118-47ea-937b-00e6f6c9eb95"},"vehicle_type_id":"4","last_reported":1716739760,"current_range_meters":1200,"station_id":"ce4bgj12rcd13ifvqbc0","pricing_plan_id":"cebpf4jnsgd1na2vs0mg"},{"bike_id":"0c06b253-7fd4-412c-8852-97eac128d118","system_id":"levelo_inurba_marseille","lat":43.309589,"lon":5.390258,"is_reserved":false,"is_disabled":false,"rental_uris":{"android":"levelo://app?vid=0c06b253-7fd4-412c-8852-97eac128d118","ios":"levelo://app?vid=0c06b253-7fd4-412c-8852-97eac128d118"},"vehicle_type_id":"4","last_reported":1716739760,"current_range_meters":800,"station_id":"ce4bgup2rcd13ifvqco0","pricing_plan_id":"cebpf4jnsgd1na2vs0mg"},{"bike_id":"25c70d21-d5bf-4b36-bc35-6ae2fcd5cc7a","system_id":"levelo_inurba_marseille","lat":43.296935,"lon":5.376544,"is_reserved":false,"is_disabled":false,"rental_uris":{"android":"levelo://app?vid=25c70d21-d5bf-4b36-bc35-6ae2fcd5cc7a","ios":"levelo://app?vid=25c70d21-d5bf-4b36-bc35-6ae2fcd5cc7a"},"vehicle_type_id":"4","last_reported":1716739760,"current_range_meters":4400,"station_id":"ce4bgkh2rcd13ifvqbl0","pricing_plan_id":"cebpf4jnsgd1na2vs0mg"},{"bike_id":"21603593-3e59-4cd2-979f-6b09a733a023","system_id":"levelo_inurba_marseille","lat":43.309589,"lon":5.390258,"is_reserved":false,"is_disabled":false,"rental_uris":{"android":"levelo://app?vid=21603593-3e59-4cd2-979f-6b09a733a023","ios":"levelo://app?vid=21603593-3e59-4cd2-979f-6b09a733a023"},"vehicle_type_id":"4","last_reported":1716739760,"current_range_meters":0,"station_id":"ce4bgup2rcd13ifvqco0","pricing_plan_id":"cebpf4jnsgd1na2vs0mg"},{"bike_id":"56577985-8f15-45d1-b765-f1ee599030dd","system_id":"levelo_inurba_marseille","lat":43.317557,"lon":5.390173,"is_reserved":false,"is_disabled":false,"rental_uris":{"android":"levelo://app?vid=56577985-8f15-45d1-b765-f1ee599030dd","ios":"levelo://app?vid=56577985-8f15-45d1-b765-f1ee599030dd"},"vehicle_type_id":"4","last_reported":1716739760,"current_range_meters":0,"station_id":"ce4bhqp2rcd13ifvqhng","pricing_plan_id":"cebpf4jnsgd1na2vs0mg"},{"bike_id":"1bd4f16d-c031-41d0-908d-d80cf4f4c7ca","system_id":"levelo_inurba_marseille","lat":43.317557,"lon":5.390173,"is_reserved":false,"is_disabled":false,"rental_uris":{"android":"levelo://app?vid=1bd4f16d-c031-41d0-908d-d80cf4f4c7ca","ios":"levelo://app?vid=1bd4f16d-c031-41d0-908d-d80cf4f4c7ca"},"vehicle_type_id":"4","last_reported":1716739760,"current_range_meters":5200,"station_id":"ce4bhqp2rcd13ifvqhng","pricing_plan_id":"cebpf4jnsgd1na2vs0mg"},{"bike_id":"db4d446d-7426-42e3-a924-1eca7d0c0cb1","system_id":"levelo_inurba_marseille","lat":43.298037,"lon":5.381066,"is_reserved":false,"is_disabled":false,"rental_uris":{"android":"levelo://app?vid=db4d446d-7426-42e3-a924-1eca7d0c0cb1","ios":"levelo://app?vid=db4d446d-7426-42e3-a924-1eca7d0c0cb1"},"vehicle_type_id":"4","last_reported":1716739760,"current_range_meters":17200,"station_id":"ce4bgip2rcd13ifvqbb0","pricing_plan_id":"cebpf4jnsgd1na2vs0mg"},{"bike_id":"63b238f2-f951-4687-9ece-23bb5fb0d7fa","system_id":"levelo_inurba_marseille","lat":43.298037,"lon":5.381066,"is_reserved":false,"is_disabled":false,"rental_uris":{"android":"levelo://app?vid=63b238f2-f951-4687-9ece-23bb5fb0d7fa","ios":"levelo://app?vid=63b238f2-f951-4687-9ece-23bb5fb0d7fa"},"vehicle_type_id":"4","last_reported":1716739760,"current_range_meters":10000,"station_id":"ce4bgip2rcd13ifvqbb0","pricing_plan_id":"cebpf4jnsgd1na2vs0mg"},{"bike_id":"997d3c16-c895-4b66-84ae-852bc48774ec","system_id":"levelo_inurba_marseille","lat":43.304274,"lon":5.388873,"is_reserved":false,"is_disabled":false,"rental_uris":{"android":"levelo://app?vid=997d3c16-c895-4b66-84ae-852bc48774ec","ios":"levelo://app?vid=997d3c16-c895-4b66-84ae-852bc48774ec"},"vehicle_type_id":"4","last_reported":1716739760,"current_range_meters":18000,"station_id":"ce4bgk12rcd13ifvqbi0","pricing_plan_id":"cebpf4jnsgd1na2vs0mg"},{"bike_id":"944c14e4-d476-4aee-9b3b-f7680aa53939","system_id":"levelo_inurba_marseille","lat":43.304278,"lon":5.388868,"is_reserved":false,"is_disabled":false,"rental_uris":{"android":"levelo://app?vid=944c14e4-d476-4aee-9b3b-f7680aa53939","ios":"levelo://app?vid=944c14e4-d476-4aee-9b3b-f7680aa53939"},"vehicle_type_id":"4","last_reported":1716739760,"current_range_meters":20000,"station_id":"ce4bgk12rcd13ifvqbi0","pricing_plan_id":"cebpf4jnsgd1na2vs0mg"},{"bike_id":"2bfe492c-c58f-4397-b628-cbe92ef017a1","system_id":"levelo_inurba_marseille","lat":43.304278,"lon":5.388868,"is_reserved":false,"is_disabled":false,"rental_uris":{"android":"levelo://app?vid=2bfe492c-c58f-4397-b628-cbe92ef017a1","ios":"levelo://app?vid=2bfe492c-c58f-4397-b628-cbe92ef017a1"},"vehicle_type_id":"4","last_reported":1716739760,"current_range_meters":27200,"station_id":"ce4bgk12rcd13ifvqbi0","pricing_plan_id":"cebpf4jnsgd1na2vs0mg"},{"bike_id":"415c95cf-be0a-4eda-8922-657a3c69f028","system_id":"levelo_inurba_marseille","lat":43.296263,"lon":5.377094,"is_reserved":false,"is_disabled":false,"rental_uris":{"android":"levelo://app?vid=415c95cf-be0a-4eda-8922-657a3c69f028","ios":"levelo://app?vid=415c95cf-be0a-4eda-8922-657a3c69f028"},"vehicle_type_id":"4","last_reported":1716739760,"current_range_meters":21200,"station_id":"ce4bgi92rcd13ifvqb90","pricing_plan_id":"cebpf4jnsgd1na2vs0mg"},{"bike_id":"52e3b11c-e1a4-45ff-b436-82cfb0713846","system_id":"levelo_inurba_marseille","lat":43.296263,"lon":5.377094,"is_reserved":false,"is_disabled":false,"rental_uris":{"android":"levelo://app?vid=52e3b11c-e1a4-45ff-b436-82cfb0713846","ios":"levelo://app?vid=52e3b11c-e1a4-45ff-b436-82cfb0713846"},"vehicle_type_id":"4","last_reported":1716739760,"current_range_meters":22400,"station_id":"ce4bgi92rcd13ifvqb90","pricing_plan_id":"cebpf4jnsgd1na2vs0mg"},{"bike_id":"4b95d6f3-c26d-4e43-89fc-d3d8bfe7f0ee","system_id":"levelo_inurba_marseille","lat":43.299707,"lon":5.384859,"is_reserved":false,"is_disabled":false,"rental_uris":{"android":"levelo://app?vid=4b95d6f3-c26d-4e43-89fc-d3d8bfe7f0ee","ios":"levelo://app?vid=4b95d6f3-c26d-4e43-89fc-d3d8bfe7f0ee"},"vehicle_type_id":"4","last_reported":1716739760,"current_range_meters":21200,"station_id":"ce4bgj92rcd13ifvqbd0","pricing_plan_id":"cebpf4jnsgd1na2vs0mg"},{"bike_id":"ea5c8d42-c861-4802-a2ac-9f57d3bd183f","system_id":"levelo_inurba_marseille","lat":43.299717,"lon":5.384845,"is_reserved":false,"is_disabled":false,"rental_uris":{"android":"levelo://app?vid=ea5c8d42-c861-4802-a2ac-9f57d3bd183f","ios":"levelo://app?vid=ea5c8d42-c861-4802-a2ac-9f57d3bd183f"},"vehicle_type_id":"4","last_reported":1716739760,"current_range_meters":31200,"station_id":"ce4bgj92rcd13ifvqbd0","pricing_plan_id":"cebpf4jnsgd1na2vs0mg"},{"bike_id":"022d3ae2-4837-433d-acce-84a642a6da37","system_id":"levelo_inurba_marseille","lat":43.295279,"lon":5.375048,"is_reserved":false,"is_disabled":false,"rental_uris":{"android":"levelo://app?vid=022d3ae2-4837-433d-acce-84a642a6da37","ios":"levelo://app?vid=022d3ae2-4837-433d-acce-84a642a6da37"},"vehicle_type_id":"4","last_reported":1716739760,"current_range_meters":14800,"station_id":"ce4bgkp2rcd13ifvqbmg","pricing_plan_id":"cebpf4jnsgd1na2vs0mg"},{"bike_id":"d014cf3e-048b-41f0-8f75-4b7171a47831","system_id":"levelo_inurba_marseille","lat":43.299724,"lon":5.384848,"is_reserved":false,"is_disabled":false,"rental_uris":{"android":"levelo://app?vid=d014cf3e-048b-41f0-8f75-4b7171a47831","ios":"levelo://app?vid=d014cf3e-048b-41f0-8f75-4b7171a47831"},"vehicle_type_id":"4","last_reported":1716739760,"current_range_meters":31600,"station_id":"ce4bgj92rcd13ifvqbd0","pricing_plan_id":"cebpf4jnsgd1na2vs0mg"},{"bike_id":"4828f042-b83c-4edc-bc58-eee1b7f09a9a","system_id":"levelo_inurba_marseille","lat":43.299724,"lon":5.384848,"is_reserved":false,"is_disabled":false,"rental_uris":{"android":"levelo://app?vid=4828f042-b83c-4edc-bc58-eee1b7f09a9a","ios":"levelo://app?vid=4828f042-b83c-4edc-bc58-eee1b7f09a9a"},"vehicle_type_id":"4","last_reported":1716739760,"current_range_meters":0,"station_id":"ce4bgj92rcd13ifvqbd0","pricing_plan_id":"cebpf4jnsgd1na2vs0mg"},{"bike_id":"04e791fc-09e7-4049-a5d2-ba98ab6037af","system_id":"levelo_inurba_marseille","lat":43.29602,"lon":5.381084,"is_reserved":false,"is_disabled":false,"rental_uris":{"android":"levelo://app?vid=04e791fc-09e7-4049-a5d2-ba98ab6037af","ios":"levelo://app?vid=04e791fc-09e7-4049-a5d2-ba98ab6037af"},"vehicle_type_id":"4","last_reported":1716739760,"current_range_meters":2000,"station_id":"ce4bgl12rcd13ifvqbo0","pricing_plan_id":"cebpf4jnsgd1na2vs0mg"},{"bike_id":"3375f088-e088-45ed-8d7e-97b06c51dba8","system_id":"levelo_inurba_marseille","lat":43.293249,"lon":5.371578,"is_reserved":false,"is_disabled":false,"rental_uris":{"android":"levelo://app?vid=3375f088-e088-45ed-8d7e-97b06c51dba8","ios":"levelo://app?vid=3375f088-e088-45ed-8d7e-97b06c51dba8"},"vehicle_type_id":"4","last_reported":1716739760,"current_range_meters":0,"station_id":"ce4bgh92rcd13ifvqb40","pricing_plan_id":"cebpf4jnsgd1na2vs0mg"},{"bike_id":"ffd5b455-7939-41f0-a87e-b74680cd8a5d","system_id":"levelo_inurba_marseille","lat":43.292749,"lon":5.368398,"is_reserved":false,"is_disabled":false,"rental_uris":{"android":"levelo://app?vid=ffd5b455-7939-41f0-a87e-b74680cd8a5d","ios":"levelo://app?vid=ffd5b455-7939-41f0-a87e-b74680cd8a5d"},"vehicle_type_id":"4","last_reported":1716739760,"current_range_meters":0,"station_id":"ce4bhbp2rcd13ifvqesg","pricing_plan_id":"cebpf4jnsgd1na2vs0mg"},{"bike_id":"22c80a67-f95f-4070-b70d-d76ecafcdf6d","system_id":"levelo_inurba_marseille","lat":43.293249,"lon":5.371578,"is_reserved":false,"is_disabled":false,"rental_uris":{"android":"levelo://app?vid=22c80a67-f95f-4070-b70d-d76ecafcdf6d","ios":"levelo://app?vid=22c80a67-f95f-4070-b70d-d76ecafcdf6d"},"vehicle_type_id":"4","last_reported":1716739760,"current_range_meters":19600,"station_id":"ce4bgh92rcd13ifvqb40","pricing_plan_id":"cebpf4jnsgd1na2vs0mg"},{"bike_id":"015e3c19-4689-4239-9561-657ae52ca308","system_id":"levelo_inurba_marseille","lat":43.293009,"lon":5.374584,"is_reserved":false,"is_disabled":false,"rental_uris":{"android":"levelo://app?vid=015e3c19-4689-4239-9561-657ae52ca308","ios":"levelo://app?vid=015e3c19-4689-4239-9561-657ae52ca308"},"vehicle_type_id":"4","last_reported":1716739760,"current_range_meters":400,"station_id":"ce4bgi12rcd13ifvqb70","pricing_plan_id":"cebpf4jnsgd1na2vs0mg"},{"bike_id":"e07e9fb9-cd12-4b39-a2dd-cfd2f242bbb9","system_id":"levelo_inurba_marseille","lat":43.293009,"lon":5.374584,"is_reserved":false,"is_disabled":false,"rental_uris":{"android":"levelo://app?vid=e07e9fb9-cd12-4b39-a2dd-cfd2f242bbb9","ios":"levelo://app?vid=e07e9fb9-cd12-4b39-a2dd-cfd2f242bbb9"},"vehicle_type_id":"4","last_reported":1716739760,"current_range_meters":12400,"station_id":"ce4bgi12rcd13ifvqb70","pricing_plan_id":"cebpf4jnsgd1na2vs0mg"},{"bike_id":"41073118-d6ed-402d-998d-005ac7da1002","system_id":"levelo_inurba_marseille","lat":43.30297,"lon":5.391953,"is_reserved":false,"is_disabled":false,"rental_uris":{"android":"levelo://app?vid=41073118-d6ed-402d-998d-005ac7da1002","ios":"levelo://app?vid=41073118-d6ed-402d-998d-005ac7da1002"},"vehicle_type_id":"4","last_reported":1716739760,"current_range_meters":0,"station_id":"","pricing_plan_id":"cebpf4jnsgd1na2vs0mg"},{"bike_id":"d4b4db1c-6084-46a9-8d5e-b035e3d7d421","system_id":"levelo_inurba_marseille","lat":43.305994,"lon":5.393687,"is_reserved":false,"is_disabled":false,"rental_uris":{"android":"levelo://app?vid=d4b4db1c-6084-46a9-8d5e-b035e3d7d421","ios":"levelo://app?vid=d4b4db1c-6084-46a9-8d5e-b035e3d7d421"},"vehicle_type_id":"4","last_reported":1716739760,"current_range_meters":0,"station_id":"ce4bh0p2rcd13ifvqd80","pricing_plan_id":"cebpf4jnsgd1na2vs0mg"},{"bike_id":"1beb5043-5373-4618-9727-2b74c11a27c9","system_id":"levelo_inurba_marseille","lat":43.292462,"lon":5.360902,"is_reserved":false,"is_disabled":false,"rental_uris":{"android":"levelo://app?vid=1beb5043-5373-4618-9727-2b74c11a27c9","ios":"levelo://app?vid=1beb5043-5373-4618-9727-2b74c11a27c9"},"vehicle_type_id":"4","last_reported":1716739760,"current_range_meters":0,"station_id":"ce4bhbh2rcd13ifvqeo0","pricing_plan_id":"cebpf4jnsgd1na2vs0mg"},{"bike_id":"d1a071a4-e0ef-40eb-9ee5-94a24d3691e8","system_id":"levelo_inurba_marseille","lat":43.2936,"lon":5.37835,"is_reserved":false,"is_disabled":false,"rental_uris":{"android":"levelo://app?vid=d1a071a4-e0ef-40eb-9ee5-94a24d3691e8","ios":"levelo://app?vid=d1a071a4-e0ef-40eb-9ee5-94a24d3691e8"},"vehicle_type_id":"4","last_reported":1716739760,"current_range_meters":0,"station_id":"ce4bgjh2rcd13ifvqbf0","pricing_plan_id":"cebpf4jnsgd1na2vs0mg"},{"bike_id":"08ba47fd-4330-4308-bacd-a443bad02cf0","system_id":"levelo_inurba_marseille","lat":43.29234,"lon":5.36068,"is_reserved":false,"is_disabled":false,"rental_uris":{"android":"levelo://app?vid=08ba47fd-4330-4308-bacd-a443bad02cf0","ios":"levelo://app?vid=08ba47fd-4330-4308-bacd-a443bad02cf0"},"vehicle_type_id":"4","last_reported":1716739760,"current_range_meters":8000,"station_id":"ce4bhbh2rcd13ifvqeqg","pricing_plan_id":"cebpf4jnsgd1na2vs0mg"},{"bike_id":"d35126bc-964e-426f-b8b2-f92550653048","system_id":"levelo_inurba_marseille","lat":43.292311,"lon":5.360731,"is_reserved":false,"is_disabled":false,"rental_uris":{"android":"levelo://app?vid=d35126bc-964e-426f-b8b2-f92550653048","ios":"levelo://app?vid=d35126bc-964e-426f-b8b2-f92550653048"},"vehicle_type_id":"4","last_reported":1716739760,"current_range_meters":0,"station_id":"ce4bhbh2rcd13ifvqeqg","pricing_plan_id":"cebpf4jnsgd1na2vs0mg"},{"bike_id":"1473ec54-fba4-4d6e-ada1-60f73846df63","system_id":"levelo_inurba_marseille","lat":43.300852,"lon":5.390859,"is_reserved":false,"is_disabled":false,"rental_uris":{"android":"levelo://app?vid=1473ec54-fba4-4d6e-ada1-60f73846df63","ios":"levelo://app?vid=1473ec54-fba4-4d6e-ada1-60f73846df63"},"vehicle_type_id":"4","last_reported":1716739760,"current_range_meters":18000,"station_id":"ce4bh192rcd13ifvqdb0","pricing_plan_id":"cebpf4jnsgd1na2vs0mg"},{"bike_id":"91d72808-6436-43c5-8a45-56b888a5716c","system_id":"levelo_inurba_marseille","lat":43.2923,"lon":5.36049,"is_reserved":false,"is_disabled":false,"rental_uris":{"android":"levelo://app?vid=91d72808-6436-43c5-8a45-56b888a5716c","ios":"levelo://app?vid=91d72808-6436-43c5-8a45-56b888a5716c"},"vehicle_type_id":"4","last_reported":1716739760,"current_range_meters":0,"station_id":"ce4bhbh2rcd13ifvqeqg","pricing_plan_id":"cebpf4jnsgd1na2vs0mg"},{"bike_id":"b3373a79-b049-49e8-8636-d3b258f72bf6","system_id":"levelo_inurba_marseille","lat":43.295279,"lon":5.375048,"is_reserved":false,"is_disabled":false,"rental_uris":{"android":"levelo://app?vid=b3373a79-b049-49e8-8636-d3b258f72bf6","ios":"levelo://app?vid=b3373a79-b049-49e8-8636-d3b258f72bf6"},"vehicle_type_id":"4","last_reported":1716739760,"current_range_meters":0,"station_id":"ce4bgkp2rcd13ifvqbmg","pricing_plan_id":"cebpf4jnsgd1na2vs0mg"},{"bike_id":"d4471351-7790-48d1-92e4-adff501f611d","system_id":"levelo_inurba_marseille","lat":43.300852,"lon":5.390859,"is_reserved":false,"is_disabled":false,"rental_uris":{"android":"levelo://app?vid=d4471351-7790-48d1-92e4-adff501f611d","ios":"levelo://app?vid=d4471351-7790-48d1-92e4-adff501f611d"},"vehicle_type_id":"4","last_reported":1716739760,"current_range_meters":23600,"station_id":"ce4bh192rcd13ifvqdb0","pricing_plan_id":"cebpf4jnsgd1na2vs0mg"},{"bike_id":"c6ed20b1-dbdf-4af9-bbc0-f8c9f4e9e7b5","system_id":"levelo_inurba_marseille","lat":43.29218,"lon":5.36047,"is_reserved":false,"is_disabled":false,"rental_uris":{"android":"levelo://app?vid=c6ed20b1-dbdf-4af9-bbc0-f8c9f4e9e7b5","ios":"levelo://app?vid=c6ed20b1-dbdf-4af9-bbc0-f8c9f4e9e7b5"},"vehicle_type_id":"4","last_reported":1716739760,"current_range_meters":0,"station_id":"ce4bhbh2rcd13ifvqeqg","pricing_plan_id":"cebpf4jnsgd1na2vs0mg"},{"bike_id":"4e822c66-d799-418b-af6b-05b88db76ee9","system_id":"levelo_inurba_marseille","lat":43.3008,"lon":5.39097,"is_reserved":false,"is_disabled":false,"rental_uris":{"android":"levelo://app?vid=4e822c66-d799-418b-af6b-05b88db76ee9","ios":"levelo://app?vid=4e822c66-d799-418b-af6b-05b88db76ee9"},"vehicle_type_id":"4","last_reported":1716739760,"current_range_meters":10400,"station_id":"ce4bh192rcd13ifvqdb0","pricing_plan_id":"cebpf4jnsgd1na2vs0mg"},{"bike_id":"3d20db31-b332-41a0-a695-0adf3978505d","system_id":"levelo_inurba_marseille","lat":43.291675,"lon":5.371583,"is_reserved":false,"is_disabled":false,"rental_uris":{"android":"levelo://app?vid=3d20db31-b332-41a0-a695-0adf3978505d","ios":"levelo://app?vid=3d20db31-b332-41a0-a695-0adf3978505d"},"vehicle_type_id":"4","last_reported":1716739760,"current_range_meters":0,"station_id":"ce4bha92rcd13ifvqeh0","pricing_plan_id":"cebpf4jnsgd1na2vs0mg"},{"bike_id":"0ac8ce04-50dc-4070-ac5a-f57cf24412ff","system_id":"levelo_inurba_marseille","lat":43.295437,"lon":5.385501,"is_reserved":false,"is_disabled":false,"rental_uris":{"android":"levelo://app?vid=0ac8ce04-50dc-4070-ac5a-f57cf24412ff","ios":"levelo://app?vid=0ac8ce04-50dc-4070-ac5a-f57cf24412ff"},"vehicle_type_id":"4","last_reported":1716739760,"current_range_meters":0,"station_id":"ce4bgih2rcd13ifvqba0","pricing_plan_id":"cebpf4jnsgd1na2vs0mg"},{"bike_id":"34e819d6-a7a0-4ed5-9aa2-f76bc7c54442","system_id":"levelo_inurba_marseille","lat":43.29529,"lon":5.385581,"is_reserved":false,"is_disabled":false,"rental_uris":{"android":"levelo://app?vid=34e819d6-a7a0-4ed5-9aa2-f76bc7c54442","ios":"levelo://app?vid=34e819d6-a7a0-4ed5-9aa2-f76bc7c54442"},"vehicle_type_id":"4","last_reported":1716739760,"current_range_meters":0,"station_id":"ce4bgih2rcd13ifvqba0","pricing_plan_id":"cebpf4jnsgd1na2vs0mg"},{"bike_id":"f75d2b30-00cb-41ed-a138-064aac3b6c0e","system_id":"levelo_inurba_marseille","lat":43.29529,"lon":5.385581,"is_reserved":false,"is_disabled":false,"rental_uris":{"android":"levelo://app?vid=f75d2b30-00cb-41ed-a138-064aac3b6c0e","ios":"levelo://app?vid=f75d2b30-00cb-41ed-a138-064aac3b6c0e"},"vehicle_type_id":"4","last_reported":1716739760,"current_range_meters":0,"station_id":"ce4bgih2rcd13ifvqba0","pricing_plan_id":"cebpf4jnsgd1na2vs0mg"},{"bike_id":"21a7be59-340d-4012-aa5f-622bf75441aa","system_id":"levelo_inurba_marseille","lat":43.29529,"lon":5.385581,"is_reserved":false,"is_disabled":false,"rental_uris":{"android":"levelo://app?vid=21a7be59-340d-4012-aa5f-622bf75441aa","ios":"levelo://app?vid=21a7be59-340d-4012-aa5f-622bf75441aa"},"vehicle_type_id":"4","last_reported":1716739760,"current_range_meters":1200,"station_id":"ce4bgih2rcd13ifvqba0","pricing_plan_id":"cebpf4jnsgd1na2vs0mg"},{"bike_id":"a52ec5fe-b041-46a7-beb7-87a6eb136902","system_id":"levelo_inurba_marseille","lat":43.290779,"lon":5.371482,"is_reserved":false,"is_disabled":false,"rental_uris":{"android":"levelo://app?vid=a52ec5fe-b041-46a7-beb7-87a6eb136902","ios":"levelo://app?vid=a52ec5fe-b041-46a7-beb7-87a6eb136902"},"vehicle_type_id":"4","last_reported":1716739760,"current_range_meters":0,"station_id":"ce4bh5p2rcd13ifvqe4g","pricing_plan_id":"cebpf4jnsgd1na2vs0mg"},{"bike_id":"f8a31dce-2f00-40de-8efd-2f935d2b6efd","system_id":"levelo_inurba_marseille","lat":43.28992,"lon":5.36593,"is_reserved":false,"is_disabled":false,"rental_uris":{"android":"levelo://app?vid=f8a31dce-2f00-40de-8efd-2f935d2b6efd","ios":"levelo://app?vid=f8a31dce-2f00-40de-8efd-2f935d2b6efd"},"vehicle_type_id":"4","last_reported":1716739760,"current_range_meters":6800,"station_id":"ce4bht12rcd13ifvqi60","pricing_plan_id":"cebpf4jnsgd1na2vs0mg"},{"bike_id":"2f3c4b6a-c4fe-4fd9-9781-209414be3389","system_id":"levelo_inurba_marseille","lat":43.290631,"lon":5.359244,"is_reserved":false,"is_disabled":false,"rental_uris":{"android":"levelo://app?vid=2f3c4b6a-c4fe-4fd9-9781-209414be3389","ios":"levelo://app?vid=2f3c4b6a-c4fe-4fd9-9781-209414be3389"},"vehicle_type_id":"4","last_reported":1716739760,"current_range_meters":7600,"station_id":"ce4bha92rcd13ifvqeg0","pricing_plan_id":"cebpf4jnsgd1na2vs0mg"},{"bike_id":"119f4f29-89d6-4cac-85fc-de592dc0c769","system_id":"levelo_inurba_marseille","lat":43.2895,"lon":5.36628,"is_reserved":false,"is_disabled":false,"rental_uris":{"android":"levelo://app?vid=119f4f29-89d6-4cac-85fc-de592dc0c769","ios":"levelo://app?vid=119f4f29-89d6-4cac-85fc-de592dc0c769"},"vehicle_type_id":"4","last_reported":1716739760,"current_range_meters":0,"station_id":"ce4bhap2rcd13ifvqek0","pricing_plan_id":"cebpf4jnsgd1na2vs0mg"},{"bike_id":"b2d667ee-ca11-44bd-a5f3-a079e29aab76","system_id":"levelo_inurba_marseille","lat":43.294153,"lon":5.386305,"is_reserved":false,"is_disabled":false,"rental_uris":{"android":"levelo://app?vid=b2d667ee-ca11-44bd-a5f3-a079e29aab76","ios":"levelo://app?vid=b2d667ee-ca11-44bd-a5f3-a079e29aab76"},"vehicle_type_id":"4","last_reported":1716739760,"current_range_meters":17200,"station_id":"ce4bh2h2rcd13ifvqdh0","pricing_plan_id":"cebpf4jnsgd1na2vs0mg"},{"bike_id":"dd771e24-1fa6-475a-adc3-15d555e19e53","system_id":"levelo_inurba_marseille","lat":43.294153,"lon":5.386305,"is_reserved":false,"is_disabled":false,"rental_uris":{"android":"levelo://app?vid=dd771e24-1fa6-475a-adc3-15d555e19e53","ios":"levelo://app?vid=dd771e24-1fa6-475a-adc3-15d555e19e53"},"vehicle_type_id":"4","last_reported":1716739760,"current_range_meters":10000,"station_id":"ce4bh2h2rcd13ifvqdh0","pricing_plan_id":"cebpf4jnsgd1na2vs0mg"},{"bike_id":"179ce0d3-d97f-4566-8593-5fcddb4a1490","system_id":"levelo_inurba_marseille","lat":43.294162,"lon":5.386292,"is_reserved":false,"is_disabled":false,"rental_uris":{"android":"levelo://app?vid=179ce0d3-d97f-4566-8593-5fcddb4a1490","ios":"levelo://app?vid=179ce0d3-d97f-4566-8593-5fcddb4a1490"},"vehicle_type_id":"4","last_reported":1716739760,"current_range_meters":20400,"station_id":"ce4bh2h2rcd13ifvqdh0","pricing_plan_id":"cebpf4jnsgd1na2vs0mg"},{"bike_id":"87f0e561-b894-4444-b973-50d5f4664d5b","system_id":"levelo_inurba_marseille","lat":43.289184,"lon":5.366408,"is_reserved":false,"is_disabled":false,"rental_uris":{"android":"levelo://app?vid=87f0e561-b894-4444-b973-50d5f4664d5b","ios":"levelo://app?vid=87f0e561-b894-4444-b973-50d5f4664d5b"},"vehicle_type_id":"4","last_reported":1716739760,"current_range_meters":0,"station_id":"ce4bhap2rcd13ifvqek0","pricing_plan_id":"cebpf4jnsgd1na2vs0mg"},{"bike_id":"9ec75dc2-b826-44fe-9b2c-b0ae6b46ea1a","system_id":"levelo_inurba_marseille","lat":43.28942,"lon":5.36639,"is_reserved":false,"is_disabled":false,"rental_uris":{"android":"levelo://app?vid=9ec75dc2-b826-44fe-9b2c-b0ae6b46ea1a","ios":"levelo://app?vid=9ec75dc2-b826-44fe-9b2c-b0ae6b46ea1a"},"vehicle_type_id":"4","last_reported":1716739760,"current_range_meters":14400,"station_id":"ce4bhap2rcd13ifvqek0","pricing_plan_id":"cebpf4jnsgd1na2vs0mg"},{"bike_id":"e68b2a7e-0cd1-4928-b183-07731f57c2f7","system_id":"levelo_inurba_marseille","lat":43.289184,"lon":5.366408,"is_reserved":false,"is_disabled":false,"rental_uris":{"android":"levelo://app?vid=e68b2a7e-0cd1-4928-b183-07731f57c2f7","ios":"levelo://app?vid=e68b2a7e-0cd1-4928-b183-07731f57c2f7"},"vehicle_type_id":"4","last_reported":1716739760,"current_range_meters":18800,"station_id":"ce4bhap2rcd13ifvqek0","pricing_plan_id":"cebpf4jnsgd1na2vs0mg"},{"bike_id":"06ae09bc-3cec-4344-b725-4ba34182b9a9","system_id":"levelo_inurba_marseille","lat":43.289184,"lon":5.366408,"is_reserved":false,"is_disabled":false,"rental_uris":{"android":"levelo://app?vid=06ae09bc-3cec-4344-b725-4ba34182b9a9","ios":"levelo://app?vid=06ae09bc-3cec-4344-b725-4ba34182b9a9"},"vehicle_type_id":"4","last_reported":1716739760,"current_range_meters":4800,"station_id":"ce4bhap2rcd13ifvqek0","pricing_plan_id":"cebpf4jnsgd1na2vs0mg"},{"bike_id":"b1288499-9d12-4b6a-9990-7ce2b7b55bcd","system_id":"levelo_inurba_marseille","lat":43.2894,"lon":5.36638,"is_reserved":false,"is_disabled":false,"rental_uris":{"android":"levelo://app?vid=b1288499-9d12-4b6a-9990-7ce2b7b55bcd","ios":"levelo://app?vid=b1288499-9d12-4b6a-9990-7ce2b7b55bcd"},"vehicle_type_id":"4","last_reported":1716739760,"current_range_meters":0,"station_id":"ce4bhap2rcd13ifvqek0","pricing_plan_id":"cebpf4jnsgd1na2vs0mg"},{"bike_id":"17149175-9f48-428e-8d0c-9d519a0a7124","system_id":"levelo_inurba_marseille","lat":43.289184,"lon":5.366408,"is_reserved":false,"is_disabled":false,"rental_uris":{"android":"levelo://app?vid=17149175-9f48-428e-8d0c-9d519a0a7124","ios":"levelo://app?vid=17149175-9f48-428e-8d0c-9d519a0a7124"},"vehicle_type_id":"4","last_reported":1716739760,"current_range_meters":7200,"station_id":"ce4bhap2rcd13ifvqek0","pricing_plan_id":"cebpf4jnsgd1na2vs0mg"},{"bike_id":"b1150177-9576-431c-8693-964b446b7261","system_id":"levelo_inurba_marseille","lat":43.289184,"lon":5.366408,"is_reserved":false,"is_disabled":false,"rental_uris":{"android":"levelo://app?vid=b1150177-9576-431c-8693-964b446b7261","ios":"levelo://app?vid=b1150177-9576-431c-8693-964b446b7261"},"vehicle_type_id":"4","last_reported":1716739760,"current_range_meters":26400,"station_id":"ce4bhap2rcd13ifvqek0","pricing_plan_id":"cebpf4jnsgd1na2vs0mg"},{"bike_id":"5ae794c8-f7a7-48ed-a89d-fd337d398c99","system_id":"levelo_inurba_marseille","lat":43.289468,"lon":5.363719,"is_reserved":false,"is_disabled":false,"rental_uris":{"android":"levelo://app?vid=5ae794c8-f7a7-48ed-a89d-fd337d398c99","ios":"levelo://app?vid=5ae794c8-f7a7-48ed-a89d-fd337d398c99"},"vehicle_type_id":"4","last_reported":1716739760,"current_range_meters":11200,"station_id":"ce4bhc92rcd13ifvqetg","pricing_plan_id":"cebpf4jnsgd1na2vs0mg"},{"bike_id":"3f6a713b-b5a0-44e8-a0ed-1cb623221f65","system_id":"levelo_inurba_marseille","lat":43.29268,"lon":5.38433,"is_reserved":false,"is_disabled":false,"rental_uris":{"android":"levelo://app?vid=3f6a713b-b5a0-44e8-a0ed-1cb623221f65","ios":"levelo://app?vid=3f6a713b-b5a0-44e8-a0ed-1cb623221f65"},"vehicle_type_id":"4","last_reported":1716739760,"current_range_meters":0,"station_id":"ce4bh692rcd13ifvqea0","pricing_plan_id":"cebpf4jnsgd1na2vs0mg"},{"bike_id":"b88ccd19-e614-4c45-94f0-0ee95b94bfd2","system_id":"levelo_inurba_marseille","lat":43.292642,"lon":5.384254,"is_reserved":false,"is_disabled":false,"rental_uris":{"android":"levelo://app?vid=b88ccd19-e614-4c45-94f0-0ee95b94bfd2","ios":"levelo://app?vid=b88ccd19-e614-4c45-94f0-0ee95b94bfd2"},"vehicle_type_id":"4","last_reported":1716739760,"current_range_meters":9200,"station_id":"ce4bh692rcd13ifvqea0","pricing_plan_id":"cebpf4jnsgd1na2vs0mg"},{"bike_id":"91b75ed6-01f8-43a0-a039-2347adf0b38a","system_id":"levelo_inurba_marseille","lat":43.292642,"lon":5.384254,"is_reserved":false,"is_disabled":false,"rental_uris":{"android":"levelo://app?vid=91b75ed6-01f8-43a0-a039-2347adf0b38a","ios":"levelo://app?vid=91b75ed6-01f8-43a0-a039-2347adf0b38a"},"vehicle_type_id":"4","last_reported":1716739760,"current_range_meters":18400,"station_id":"ce4bh692rcd13ifvqea0","pricing_plan_id":"cebpf4jnsgd1na2vs0mg"},{"bike_id":"7edcb092-ec28-448b-83bf-93e7149c8083","system_id":"levelo_inurba_marseille","lat":43.290104,"lon":5.356111,"is_reserved":false,"is_disabled":false,"rental_uris":{"android":"levelo://app?vid=7edcb092-ec28-448b-83bf-93e7149c8083","ios":"levelo://app?vid=7edcb092-ec28-448b-83bf-93e7149c8083"},"vehicle_type_id":"4","last_reported":1716739760,"current_range_meters":0,"station_id":"ce4bhb92rcd13ifvqen0","pricing_plan_id":"cebpf4jnsgd1na2vs0mg"},{"bike_id":"0467d78f-d5dd-44e7-9cec-f3d197eb713d","system_id":"levelo_inurba_marseille","lat":43.29096,"lon":5.38169,"is_reserved":false,"is_disabled":false,"rental_uris":{"android":"levelo://app?vid=0467d78f-d5dd-44e7-9cec-f3d197eb713d","ios":"levelo://app?vid=0467d78f-d5dd-44e7-9cec-f3d197eb713d"},"vehicle_type_id":"4","last_reported":1716739760,"current_range_meters":0,"station_id":"ce4bh512rcd13ifvqe2g","pricing_plan_id":"cebpf4jnsgd1na2vs0mg"},{"bike_id":"b0f1e23d-0532-4e18-a2c7-b0993116e454","system_id":"levelo_inurba_marseille","lat":43.29785,"lon":5.39344,"is_reserved":false,"is_disabled":false,"rental_uris":{"android":"levelo://app?vid=b0f1e23d-0532-4e18-a2c7-b0993116e454","ios":"levelo://app?vid=b0f1e23d-0532-4e18-a2c7-b0993116e454"},"vehicle_type_id":"4","last_reported":1716739760,"current_range_meters":22000,"station_id":"chh1huq6cuj3fo74tm60","pricing_plan_id":"cebpf4jnsgd1na2vs0mg"},{"bike_id":"b8b1e3f8-9e66-4686-aad7-47dbd7632264","system_id":"levelo_inurba_marseille","lat":43.295169,"lon":5.390426,"is_reserved":false,"is_disabled":false,"rental_uris":{"android":"levelo://app?vid=b8b1e3f8-9e66-4686-aad7-47dbd7632264","ios":"levelo://app?vid=b8b1e3f8-9e66-4686-aad7-47dbd7632264"},"vehicle_type_id":"4","last_reported":1716739760,"current_range_meters":4800,"station_id":"ce4bh3p2rcd13ifvqdp0","pricing_plan_id":"cebpf4jnsgd1na2vs0mg"},{"bike_id":"235758d8-721c-43af-83f2-cf2593741f82","system_id":"levelo_inurba_marseille","lat":43.33017,"lon":5.39042,"is_reserved":false,"is_disabled":false,"rental_uris":{"android":"levelo://app?vid=235758d8-721c-43af-83f2-cf2593741f82","ios":"levelo://app?vid=235758d8-721c-43af-83f2-cf2593741f82"},"vehicle_type_id":"4","last_reported":1716739760,"current_range_meters":17200,"station_id":"ce4bhr92rcd13ifvqhrg","pricing_plan_id":"cebpf4jnsgd1na2vs0mg"},{"bike_id":"6fb055cc-b404-4919-9ec2-131135e5728e","system_id":"levelo_inurba_marseille","lat":43.289777,"lon":5.378453,"is_reserved":false,"is_disabled":false,"rental_uris":{"android":"levelo://app?vid=6fb055cc-b404-4919-9ec2-131135e5728e","ios":"levelo://app?vid=6fb055cc-b404-4919-9ec2-131135e5728e"},"vehicle_type_id":"4","last_reported":1716739760,"current_range_meters":0,"station_id":"ce4bh9p2rcd13ifvqed0","pricing_plan_id":"cebpf4jnsgd1na2vs0mg"},{"bike_id":"e7e6c3b5-e4d4-4e84-99b1-d48a739799bc","system_id":"levelo_inurba_marseille","lat":43.33028,"lon":5.39035,"is_reserved":false,"is_disabled":false,"rental_uris":{"android":"levelo://app?vid=e7e6c3b5-e4d4-4e84-99b1-d48a739799bc","ios":"levelo://app?vid=e7e6c3b5-e4d4-4e84-99b1-d48a739799bc"},"vehicle_type_id":"4","last_reported":1716739760,"current_range_meters":28800,"station_id":"ce4bhr92rcd13ifvqhrg","pricing_plan_id":"cebpf4jnsgd1na2vs0mg"},{"bike_id":"5b9d210d-c413-4593-b9e6-19f203b5371d","system_id":"levelo_inurba_marseille","lat":43.295204,"lon":5.390406,"is_reserved":false,"is_disabled":false,"rental_uris":{"android":"levelo://app?vid=5b9d210d-c413-4593-b9e6-19f203b5371d","ios":"levelo://app?vid=5b9d210d-c413-4593-b9e6-19f203b5371d"},"vehicle_type_id":"4","last_reported":1716739760,"current_range_meters":16400,"station_id":"ce4bh3p2rcd13ifvqdp0","pricing_plan_id":"cebpf4jnsgd1na2vs0mg"},{"bike_id":"6246a0da-7b70-410c-86f3-33054be04f7a","system_id":"levelo_inurba_marseille","lat":43.295169,"lon":5.390426,"is_reserved":false,"is_disabled":false,"rental_uris":{"android":"levelo://app?vid=6246a0da-7b70-410c-86f3-33054be04f7a","ios":"levelo://app?vid=6246a0da-7b70-410c-86f3-33054be04f7a"},"vehicle_type_id":"4","last_reported":1716739760,"current_range_meters":800,"station_id":"ce4bh3p2rcd13ifvqdp0","pricing_plan_id":"cebpf4jnsgd1na2vs0mg"},{"bike_id":"c5a5532e-ce7b-4bff-9776-d61c26127f3f","system_id":"levelo_inurba_marseille","lat":43.295169,"lon":5.390426,"is_reserved":false,"is_disabled":false,"rental_uris":{"android":"levelo://app?vid=c5a5532e-ce7b-4bff-9776-d61c26127f3f","ios":"levelo://app?vid=c5a5532e-ce7b-4bff-9776-d61c26127f3f"},"vehicle_type_id":"4","last_reported":1716739760,"current_range_meters":0,"station_id":"ce4bh3p2rcd13ifvqdp0","pricing_plan_id":"cebpf4jnsgd1na2vs0mg"},{"bike_id":"46d47afe-4856-4919-9068-95fb6048e393","system_id":"levelo_inurba_marseille","lat":43.330442,"lon":5.389148,"is_reserved":false,"is_disabled":false,"rental_uris":{"android":"levelo://app?vid=46d47afe-4856-4919-9068-95fb6048e393","ios":"levelo://app?vid=46d47afe-4856-4919-9068-95fb6048e393"},"vehicle_type_id":"4","last_reported":1716739760,"current_range_meters":8800,"station_id":"ce4bhr92rcd13ifvqhrg","pricing_plan_id":"cebpf4jnsgd1na2vs0mg"},{"bike_id":"ba7bba16-c57b-44f6-9f9c-c9839289854f","system_id":"levelo_inurba_marseille","lat":43.31065,"lon":5.40081,"is_reserved":false,"is_disabled":false,"rental_uris":{"android":"levelo://app?vid=ba7bba16-c57b-44f6-9f9c-c9839289854f","ios":"levelo://app?vid=ba7bba16-c57b-44f6-9f9c-c9839289854f"},"vehicle_type_id":"4","last_reported":1716739760,"current_range_meters":9600,"station_id":"","pricing_plan_id":"cebpf4jnsgd1na2vs0mg"},{"bike_id":"08e10b0b-a0e9-4d67-a391-ea86cbc0643c","system_id":"levelo_inurba_marseille","lat":43.28856,"lon":5.358371,"is_reserved":false,"is_disabled":false,"rental_uris":{"android":"levelo://app?vid=08e10b0b-a0e9-4d67-a391-ea86cbc0643c","ios":"levelo://app?vid=08e10b0b-a0e9-4d67-a391-ea86cbc0643c"},"vehicle_type_id":"4","last_reported":1716739760,"current_range_meters":22800,"station_id":"ce4bhb12rcd13ifvqem0","pricing_plan_id":"cebpf4jnsgd1na2vs0mg"},{"bike_id":"1a1505af-a805-4e97-b6c5-ef86c8ad33ae","system_id":"levelo_inurba_marseille","lat":43.310735,"lon":5.401007,"is_reserved":false,"is_disabled":false,"rental_uris":{"android":"levelo://app?vid=1a1505af-a805-4e97-b6c5-ef86c8ad33ae","ios":"levelo://app?vid=1a1505af-a805-4e97-b6c5-ef86c8ad33ae"},"vehicle_type_id":"4","last_reported":1716739760,"current_range_meters":0,"station_id":"","pricing_plan_id":"cebpf4jnsgd1na2vs0mg"},{"bike_id":"5635fcc6-4f99-4f8d-9fdf-40cd6fb95890","system_id":"levelo_inurba_marseille","lat":43.28856,"lon":5.358371,"is_reserved":false,"is_disabled":false,"rental_uris":{"android":"levelo://app?vid=5635fcc6-4f99-4f8d-9fdf-40cd6fb95890","ios":"levelo://app?vid=5635fcc6-4f99-4f8d-9fdf-40cd6fb95890"},"vehicle_type_id":"4","last_reported":1716739760,"current_range_meters":3200,"station_id":"ce4bhb12rcd13ifvqem0","pricing_plan_id":"cebpf4jnsgd1na2vs0mg"},{"bike_id":"c817be8a-4d3f-428e-9e83-fb97be659edc","system_id":"levelo_inurba_marseille","lat":43.33739,"lon":5.37443,"is_reserved":false,"is_disabled":false,"rental_uris":{"android":"levelo://app?vid=c817be8a-4d3f-428e-9e83-fb97be659edc","ios":"levelo://app?vid=c817be8a-4d3f-428e-9e83-fb97be659edc"},"vehicle_type_id":"4","last_reported":1716739760,"current_range_meters":20400,"station_id":"","pricing_plan_id":"cebpf4jnsgd1na2vs0mg"},{"bike_id":"d285ff35-b206-49be-821e-f4d21bb3d277","system_id":"levelo_inurba_marseille","lat":43.312609,"lon":5.401662,"is_reserved":false,"is_disabled":false,"rental_uris":{"android":"levelo://app?vid=d285ff35-b206-49be-821e-f4d21bb3d277","ios":"levelo://app?vid=d285ff35-b206-49be-821e-f4d21bb3d277"},"vehicle_type_id":"4","last_reported":1716739760,"current_range_meters":14400,"station_id":"ce4bh092rcd13ifvqd30","pricing_plan_id":"cebpf4jnsgd1na2vs0mg"},{"bike_id":"5e08015a-b315-49d5-b067-121fc243166b","system_id":"levelo_inurba_marseille","lat":43.33752,"lon":5.37436,"is_reserved":false,"is_disabled":false,"rental_uris":{"android":"levelo://app?vid=5e08015a-b315-49d5-b067-121fc243166b","ios":"levelo://app?vid=5e08015a-b315-49d5-b067-121fc243166b"},"vehicle_type_id":"4","last_reported":1716739760,"current_range_meters":15200,"station_id":"","pricing_plan_id":"cebpf4jnsgd1na2vs0mg"},{"bike_id":"4baa171a-6f41-4b4c-bcc1-759d97c52644","system_id":"levelo_inurba_marseille","lat":43.337567,"lon":5.374574,"is_reserved":false,"is_disabled":false,"rental_uris":{"android":"levelo://app?vid=4baa171a-6f41-4b4c-bcc1-759d97c52644","ios":"levelo://app?vid=4baa171a-6f41-4b4c-bcc1-759d97c52644"},"vehicle_type_id":"4","last_reported":1716739760,"current_range_meters":18400,"station_id":"","pricing_plan_id":"cebpf4jnsgd1na2vs0mg"},{"bike_id":"4d476eee-4013-46a3-be70-3fc5198fa0f9","system_id":"levelo_inurba_marseille","lat":43.33763,"lon":5.374318,"is_reserved":false,"is_disabled":false,"rental_uris":{"android":"levelo://app?vid=4d476eee-4013-46a3-be70-3fc5198fa0f9","ios":"levelo://app?vid=4d476eee-4013-46a3-be70-3fc5198fa0f9"},"vehicle_type_id":"4","last_reported":1716739760,"current_range_meters":12000,"station_id":"","pricing_plan_id":"cebpf4jnsgd1na2vs0mg"},{"bike_id":"732798ba-2b9a-45ce-babd-a4bca6a10e63","system_id":"levelo_inurba_marseille","lat":43.337625,"lon":5.374405,"is_reserved":false,"is_disabled":false,"rental_uris":{"android":"levelo://app?vid=732798ba-2b9a-45ce-babd-a4bca6a10e63","ios":"levelo://app?vid=732798ba-2b9a-45ce-babd-a4bca6a10e63"},"vehicle_type_id":"4","last_reported":1716739760,"current_range_meters":12000,"station_id":"","pricing_plan_id":"cebpf4jnsgd1na2vs0mg"},{"bike_id":"de609f3b-f2e7-4b37-96b4-3315c7ebe8bb","system_id":"levelo_inurba_marseille","lat":43.33764,"lon":5.37471,"is_reserved":false,"is_disabled":false,"rental_uris":{"android":"levelo://app?vid=de609f3b-f2e7-4b37-96b4-3315c7ebe8bb","ios":"levelo://app?vid=de609f3b-f2e7-4b37-96b4-3315c7ebe8bb"},"vehicle_type_id":"4","last_reported":1716739760,"current_range_meters":14400,"station_id":"","pricing_plan_id":"cebpf4jnsgd1na2vs0mg"},{"bike_id":"9b3e1c80-5fbd-48a3-90f6-54d193cf56f8","system_id":"levelo_inurba_marseille","lat":43.30638,"lon":5.40092,"is_reserved":false,"is_disabled":false,"rental_uris":{"android":"levelo://app?vid=9b3e1c80-5fbd-48a3-90f6-54d193cf56f8","ios":"levelo://app?vid=9b3e1c80-5fbd-48a3-90f6-54d193cf56f8"},"vehicle_type_id":"4","last_reported":1716739760,"current_range_meters":11200,"station_id":"ce4bh112rcd13ifvqda0","pricing_plan_id":"cebpf4jnsgd1na2vs0mg"},{"bike_id":"825fa8d8-f677-44ea-959e-e28a76bf9c1f","system_id":"levelo_inurba_marseille","lat":43.33773,"lon":5.37477,"is_reserved":false,"is_disabled":false,"rental_uris":{"android":"levelo://app?vid=825fa8d8-f677-44ea-959e-e28a76bf9c1f","ios":"levelo://app?vid=825fa8d8-f677-44ea-959e-e28a76bf9c1f"},"vehicle_type_id":"4","last_reported":1716739760,"current_range_meters":15200,"station_id":"","pricing_plan_id":"cebpf4jnsgd1na2vs0mg"},{"bike_id":"b70fe2ff-f7aa-44e6-84cb-6d6d2c39a94b","system_id":"levelo_inurba_marseille","lat":43.301117,"lon":5.398795,"is_reserved":false,"is_disabled":false,"rental_uris":{"android":"levelo://app?vid=b70fe2ff-f7aa-44e6-84cb-6d6d2c39a94b","ios":"levelo://app?vid=b70fe2ff-f7aa-44e6-84cb-6d6d2c39a94b"},"vehicle_type_id":"4","last_reported":1716739760,"current_range_meters":0,"station_id":"ce4bh0h2rcd13ifvqd40","pricing_plan_id":"cebpf4jnsgd1na2vs0mg"},{"bike_id":"13976907-3433-4bab-bc8e-a4d86c213c64","system_id":"levelo_inurba_marseille","lat":43.2871,"lon":5.37394,"is_reserved":false,"is_disabled":false,"rental_uris":{"android":"levelo://app?vid=13976907-3433-4bab-bc8e-a4d86c213c64","ios":"levelo://app?vid=13976907-3433-4bab-bc8e-a4d86c213c64"},"vehicle_type_id":"4","last_reported":1716739760,"current_range_meters":0,"station_id":"ce4bh3p2rcd13ifvqdq0","pricing_plan_id":"cebpf4jnsgd1na2vs0mg"},{"bike_id":"2cd27264-c1e2-4f2a-8e94-64074e6eaeea","system_id":"levelo_inurba_marseille","lat":43.286961,"lon":5.373785,"is_reserved":false,"is_disabled":false,"rental_uris":{"android":"levelo://app?vid=2cd27264-c1e2-4f2a-8e94-64074e6eaeea","ios":"levelo://app?vid=2cd27264-c1e2-4f2a-8e94-64074e6eaeea"},"vehicle_type_id":"4","last_reported":1716739760,"current_range_meters":400,"station_id":"ce4bh3p2rcd13ifvqdq0","pricing_plan_id":"cebpf4jnsgd1na2vs0mg"},{"bike_id":"f9650dd3-24a8-490a-8c78-8ea16edbc436","system_id":"levelo_inurba_marseille","lat":43.298681,"lon":5.397225,"is_reserved":false,"is_disabled":false,"rental_uris":{"android":"levelo://app?vid=f9650dd3-24a8-490a-8c78-8ea16edbc436","ios":"levelo://app?vid=f9650dd3-24a8-490a-8c78-8ea16edbc436"},"vehicle_type_id":"4","last_reported":1716739760,"current_range_meters":2400,"station_id":"ce4bh0h2rcd13ifvqd50","pricing_plan_id":"cebpf4jnsgd1na2vs0mg"},{"bike_id":"132ac07d-ecd1-4ae0-bbdf-8ec57c4862c5","system_id":"levelo_inurba_marseille","lat":43.295194,"lon":5.39397,"is_reserved":false,"is_disabled":false,"rental_uris":{"android":"levelo://app?vid=132ac07d-ecd1-4ae0-bbdf-8ec57c4862c5","ios":"levelo://app?vid=132ac07d-ecd1-4ae0-bbdf-8ec57c4862c5"},"vehicle_type_id":"4","last_reported":1716739760,"current_range_meters":14800,"station_id":"ce4bh292rcd13ifvqdf0","pricing_plan_id":"cebpf4jnsgd1na2vs0mg"},{"bike_id":"52bcb3ef-e271-4e46-bc88-f830bf6a5fec","system_id":"levelo_inurba_marseille","lat":43.29033,"lon":5.38634,"is_reserved":false,"is_disabled":false,"rental_uris":{"android":"levelo://app?vid=52bcb3ef-e271-4e46-bc88-f830bf6a5fec","ios":"levelo://app?vid=52bcb3ef-e271-4e46-bc88-f830bf6a5fec"},"vehicle_type_id":"4","last_reported":1716739760,"current_range_meters":3200,"station_id":"ce4bh4p2rcd13ifvqe0g","pricing_plan_id":"cebpf4jnsgd1na2vs0mg"},{"bike_id":"891c5036-c091-4f1d-9f04-4476f88d13cb","system_id":"levelo_inurba_marseille","lat":43.289307,"lon":5.38406,"is_reserved":false,"is_disabled":false,"rental_uris":{"android":"levelo://app?vid=891c5036-c091-4f1d-9f04-4476f88d13cb","ios":"levelo://app?vid=891c5036-c091-4f1d-9f04-4476f88d13cb"},"vehicle_type_id":"4","last_reported":1716739760,"current_range_meters":26400,"station_id":"ce4bh612rcd13ifvqe6g","pricing_plan_id":"cebpf4jnsgd1na2vs0mg"},{"bike_id":"5fd99c38-c84f-4c58-a72d-d4b983e27ec9","system_id":"levelo_inurba_marseille","lat":43.289307,"lon":5.38406,"is_reserved":false,"is_disabled":false,"rental_uris":{"android":"levelo://app?vid=5fd99c38-c84f-4c58-a72d-d4b983e27ec9","ios":"levelo://app?vid=5fd99c38-c84f-4c58-a72d-d4b983e27ec9"},"vehicle_type_id":"4","last_reported":1716739760,"current_range_meters":24400,"station_id":"ce4bh612rcd13ifvqe6g","pricing_plan_id":"cebpf4jnsgd1na2vs0mg"},{"bike_id":"d4f6eb04-f200-4d33-bc2d-9b09910adad9","system_id":"levelo_inurba_marseille","lat":43.302443,"lon":5.40058,"is_reserved":false,"is_disabled":false,"rental_uris":{"android":"levelo://app?vid=d4f6eb04-f200-4d33-bc2d-9b09910adad9","ios":"levelo://app?vid=d4f6eb04-f200-4d33-bc2d-9b09910adad9"},"vehicle_type_id":"4","last_reported":1716739760,"current_range_meters":24800,"station_id":"ce4bgvh2rcd13ifvqcs0","pricing_plan_id":"cebpf4jnsgd1na2vs0mg"},{"bike_id":"7e47d035-a86b-4c91-84de-fc66b7c0b0d1","system_id":"levelo_inurba_marseille","lat":43.286039,"lon":5.370679,"is_reserved":false,"is_disabled":false,"rental_uris":{"android":"levelo://app?vid=7e47d035-a86b-4c91-84de-fc66b7c0b0d1","ios":"levelo://app?vid=7e47d035-a86b-4c91-84de-fc66b7c0b0d1"},"vehicle_type_id":"4","last_reported":1716739760,"current_range_meters":23200,"station_id":"ce4bht12rcd13ifvqi60","pricing_plan_id":"cebpf4jnsgd1na2vs0mg"},{"bike_id":"6133496a-75d0-4430-bd96-28ddb200c783","system_id":"levelo_inurba_marseille","lat":43.286039,"lon":5.370681,"is_reserved":false,"is_disabled":false,"rental_uris":{"android":"levelo://app?vid=6133496a-75d0-4430-bd96-28ddb200c783","ios":"levelo://app?vid=6133496a-75d0-4430-bd96-28ddb200c783"},"vehicle_type_id":"4","last_reported":1716739760,"current_range_meters":8000,"station_id":"ce4bht12rcd13ifvqi60","pricing_plan_id":"cebpf4jnsgd1na2vs0mg"},{"bike_id":"d02c9950-6005-410a-b18d-9bc1ff6c8e94","system_id":"levelo_inurba_marseille","lat":43.287184,"lon":5.37937,"is_reserved":false,"is_disabled":false,"rental_uris":{"android":"levelo://app?vid=d02c9950-6005-410a-b18d-9bc1ff6c8e94","ios":"levelo://app?vid=d02c9950-6005-410a-b18d-9bc1ff6c8e94"},"vehicle_type_id":"4","last_reported":1716739760,"current_range_meters":4800,"station_id":"ce4bh9p2rcd13ifvqec0","pricing_plan_id":"cebpf4jnsgd1na2vs0mg"},{"bike_id":"ac24d0f3-e5b4-4ad3-80d9-eccc5b99e31c","system_id":"levelo_inurba_marseille","lat":43.290336,"lon":5.386425,"is_reserved":false,"is_disabled":false,"rental_uris":{"android":"levelo://app?vid=ac24d0f3-e5b4-4ad3-80d9-eccc5b99e31c","ios":"levelo://app?vid=ac24d0f3-e5b4-4ad3-80d9-eccc5b99e31c"},"vehicle_type_id":"4","last_reported":1716739760,"current_range_meters":14400,"station_id":"ce4bh4p2rcd13ifvqe0g","pricing_plan_id":"cebpf4jnsgd1na2vs0mg"},{"bike_id":"58514f3a-dc19-4217-b7fc-fb40ed42922d","system_id":"levelo_inurba_marseille","lat":43.291994,"lon":5.392907,"is_reserved":false,"is_disabled":false,"rental_uris":{"android":"levelo://app?vid=58514f3a-dc19-4217-b7fc-fb40ed42922d","ios":"levelo://app?vid=58514f3a-dc19-4217-b7fc-fb40ed42922d"},"vehicle_type_id":"4","last_reported":1716739760,"current_range_meters":12400,"station_id":"ce4bh192rcd13ifvqdd0","pricing_plan_id":"cebpf4jnsgd1na2vs0mg"},{"bike_id":"1795a328-09e8-4380-bf7f-ed76b5eb415c","system_id":"levelo_inurba_marseille","lat":43.291994,"lon":5.392907,"is_reserved":false,"is_disabled":false,"rental_uris":{"android":"levelo://app?vid=1795a328-09e8-4380-bf7f-ed76b5eb415c","ios":"levelo://app?vid=1795a328-09e8-4380-bf7f-ed76b5eb415c"},"vehicle_type_id":"4","last_reported":1716739760,"current_range_meters":3600,"station_id":"ce4bh192rcd13ifvqdd0","pricing_plan_id":"cebpf4jnsgd1na2vs0mg"},{"bike_id":"605cf4c4-ef0f-4e6b-af83-8a9570cc4ee5","system_id":"levelo_inurba_marseille","lat":43.284538,"lon":5.358657,"is_reserved":false,"is_disabled":false,"rental_uris":{"android":"levelo://app?vid=605cf4c4-ef0f-4e6b-af83-8a9570cc4ee5","ios":"levelo://app?vid=605cf4c4-ef0f-4e6b-af83-8a9570cc4ee5"},"vehicle_type_id":"4","last_reported":1716739760,"current_range_meters":11200,"station_id":"ce4bhah2rcd13ifvqei0","pricing_plan_id":"cebpf4jnsgd1na2vs0mg"},{"bike_id":"ba06b794-660b-4ada-90e0-f555b8630b29","system_id":"levelo_inurba_marseille","lat":43.284534,"lon":5.358662,"is_reserved":false,"is_disabled":false,"rental_uris":{"android":"levelo://app?vid=ba06b794-660b-4ada-90e0-f555b8630b29","ios":"levelo://app?vid=ba06b794-660b-4ada-90e0-f555b8630b29"},"vehicle_type_id":"4","last_reported":1716739760,"current_range_meters":6800,"station_id":"ce4bhah2rcd13ifvqei0","pricing_plan_id":"cebpf4jnsgd1na2vs0mg"},{"bike_id":"4e5da731-9800-43ab-8b2d-3e4dc9a23bad","system_id":"levelo_inurba_marseille","lat":43.294314,"lon":5.397498,"is_reserved":false,"is_disabled":false,"rental_uris":{"android":"levelo://app?vid=4e5da731-9800-43ab-8b2d-3e4dc9a23bad","ios":"levelo://app?vid=4e5da731-9800-43ab-8b2d-3e4dc9a23bad"},"vehicle_type_id":"4","last_reported":1716739760,"current_range_meters":11600,"station_id":"ce4bh3h2rcd13ifvqdo0","pricing_plan_id":"cebpf4jnsgd1na2vs0mg"},{"bike_id":"e2686ba7-1569-449c-aeac-c7b6b3d9a06f","system_id":"levelo_inurba_marseille","lat":43.2862,"lon":5.35107,"is_reserved":false,"is_disabled":false,"rental_uris":{"android":"levelo://app?vid=e2686ba7-1569-449c-aeac-c7b6b3d9a06f","ios":"levelo://app?vid=e2686ba7-1569-449c-aeac-c7b6b3d9a06f"},"vehicle_type_id":"4","last_reported":1716739760,"current_range_meters":0,"station_id":"ce4bhch2rcd13ifvqeug","pricing_plan_id":"cebpf4jnsgd1na2vs0mg"},{"bike_id":"a8cb391f-17dd-475e-997f-b046e6ae102c","system_id":"levelo_inurba_marseille","lat":43.285856,"lon":5.350771,"is_reserved":false,"is_disabled":false,"rental_uris":{"android":"levelo://app?vid=a8cb391f-17dd-475e-997f-b046e6ae102c","ios":"levelo://app?vid=a8cb391f-17dd-475e-997f-b046e6ae102c"},"vehicle_type_id":"4","last_reported":1716739760,"current_range_meters":15200,"station_id":"ce4bhch2rcd13ifvqeug","pricing_plan_id":"cebpf4jnsgd1na2vs0mg"},{"bike_id":"6c01a62d-5d37-40cd-bc4d-29201b0f5de0","system_id":"levelo_inurba_marseille","lat":43.28619,"lon":5.35101,"is_reserved":false,"is_disabled":false,"rental_uris":{"android":"levelo://app?vid=6c01a62d-5d37-40cd-bc4d-29201b0f5de0","ios":"levelo://app?vid=6c01a62d-5d37-40cd-bc4d-29201b0f5de0"},"vehicle_type_id":"4","last_reported":1716739760,"current_range_meters":0,"station_id":"ce4bhch2rcd13ifvqeug","pricing_plan_id":"cebpf4jnsgd1na2vs0mg"},{"bike_id":"d7fa826b-eb48-48c9-a348-6c644096a9d5","system_id":"levelo_inurba_marseille","lat":43.285848,"lon":5.350787,"is_reserved":false,"is_disabled":false,"rental_uris":{"android":"levelo://app?vid=d7fa826b-eb48-48c9-a348-6c644096a9d5","ios":"levelo://app?vid=d7fa826b-eb48-48c9-a348-6c644096a9d5"},"vehicle_type_id":"4","last_reported":1716739760,"current_range_meters":12000,"station_id":"ce4bhch2rcd13ifvqeug","pricing_plan_id":"cebpf4jnsgd1na2vs0mg"},{"bike_id":"fccc4f54-9243-44e9-8965-f31072501ca1","system_id":"levelo_inurba_marseille","lat":43.29984,"lon":5.40274,"is_reserved":false,"is_disabled":false,"rental_uris":{"android":"levelo://app?vid=fccc4f54-9243-44e9-8965-f31072501ca1","ios":"levelo://app?vid=fccc4f54-9243-44e9-8965-f31072501ca1"},"vehicle_type_id":"4","last_reported":1716739760,"current_range_meters":18400,"station_id":"","pricing_plan_id":"cebpf4jnsgd1na2vs0mg"},{"bike_id":"660f09cf-52f4-4063-b765-ab78c2b7336f","system_id":"levelo_inurba_marseille","lat":43.29955,"lon":5.40261,"is_reserved":false,"is_disabled":false,"rental_uris":{"android":"levelo://app?vid=660f09cf-52f4-4063-b765-ab78c2b7336f","ios":"levelo://app?vid=660f09cf-52f4-4063-b765-ab78c2b7336f"},"vehicle_type_id":"4","last_reported":1716739760,"current_range_meters":18400,"station_id":"","pricing_plan_id":"cebpf4jnsgd1na2vs0mg"},{"bike_id":"e6d6b8c1-6ede-419e-aec5-348452c1a5ad","system_id":"levelo_inurba_marseille","lat":43.283998,"lon":5.375062,"is_reserved":false,"is_disabled":false,"rental_uris":{"android":"levelo://app?vid=e6d6b8c1-6ede-419e-aec5-348452c1a5ad","ios":"levelo://app?vid=e6d6b8c1-6ede-419e-aec5-348452c1a5ad"},"vehicle_type_id":"4","last_reported":1716739760,"current_range_meters":2000,"station_id":"ce4bh412rcd13ifvqds0","pricing_plan_id":"cebpf4jnsgd1na2vs0mg"},{"bike_id":"31c53f04-164c-4fd6-9837-8ea90000f1ec","system_id":"levelo_inurba_marseille","lat":43.28415,"lon":5.37516,"is_reserved":false,"is_disabled":false,"rental_uris":{"android":"levelo://app?vid=31c53f04-164c-4fd6-9837-8ea90000f1ec","ios":"levelo://app?vid=31c53f04-164c-4fd6-9837-8ea90000f1ec"},"vehicle_type_id":"4","last_reported":1716739760,"current_range_meters":0,"station_id":"ce4bh412rcd13ifvqds0","pricing_plan_id":"cebpf4jnsgd1na2vs0mg"},{"bike_id":"42ec1652-4f25-4038-be51-5857fb89485f","system_id":"levelo_inurba_marseille","lat":43.283998,"lon":5.375062,"is_reserved":false,"is_disabled":false,"rental_uris":{"android":"levelo://app?vid=42ec1652-4f25-4038-be51-5857fb89485f","ios":"levelo://app?vid=42ec1652-4f25-4038-be51-5857fb89485f"},"vehicle_type_id":"4","last_reported":1716739760,"current_range_meters":0,"station_id":"ce4bh412rcd13ifvqds0","pricing_plan_id":"cebpf4jnsgd1na2vs0mg"},{"bike_id":"f6e35dc8-4be0-4737-ab48-ed6f36b34d72","system_id":"levelo_inurba_marseille","lat":43.286039,"lon":5.370679,"is_reserved":false,"is_disabled":false,"rental_uris":{"android":"levelo://app?vid=f6e35dc8-4be0-4737-ab48-ed6f36b34d72","ios":"levelo://app?vid=f6e35dc8-4be0-4737-ab48-ed6f36b34d72"},"vehicle_type_id":"4","last_reported":1716739760,"current_range_meters":4000,"station_id":"ce4bht12rcd13ifvqi60","pricing_plan_id":"cebpf4jnsgd1na2vs0mg"},{"bike_id":"4bcdbeb6-699f-40ca-87d3-9d73a2e1764d","system_id":"levelo_inurba_marseille","lat":43.29957,"lon":5.40293,"is_reserved":false,"is_disabled":false,"rental_uris":{"android":"levelo://app?vid=4bcdbeb6-699f-40ca-87d3-9d73a2e1764d","ios":"levelo://app?vid=4bcdbeb6-699f-40ca-87d3-9d73a2e1764d"},"vehicle_type_id":"4","last_reported":1716739760,"current_range_meters":10000,"station_id":"","pricing_plan_id":"cebpf4jnsgd1na2vs0mg"},{"bike_id":"e6d613e9-edf0-4959-8884-bd3bf2e7669a","system_id":"levelo_inurba_marseille","lat":43.295713,"lon":5.399639,"is_reserved":false,"is_disabled":false,"rental_uris":{"android":"levelo://app?vid=e6d613e9-edf0-4959-8884-bd3bf2e7669a","ios":"levelo://app?vid=e6d613e9-edf0-4959-8884-bd3bf2e7669a"},"vehicle_type_id":"4","last_reported":1716739760,"current_range_meters":18000,"station_id":"ce4bh312rcd13ifvqdj0","pricing_plan_id":"cebpf4jnsgd1na2vs0mg"},{"bike_id":"36fb3490-a76c-4542-9cbf-99d28c86583e","system_id":"levelo_inurba_marseille","lat":43.29945,"lon":5.40293,"is_reserved":false,"is_disabled":false,"rental_uris":{"android":"levelo://app?vid=36fb3490-a76c-4542-9cbf-99d28c86583e","ios":"levelo://app?vid=36fb3490-a76c-4542-9cbf-99d28c86583e"},"vehicle_type_id":"4","last_reported":1716739760,"current_range_meters":10000,"station_id":"","pricing_plan_id":"cebpf4jnsgd1na2vs0mg"},{"bike_id":"26879562-a620-4492-9fea-8aefe63ff97d","system_id":"levelo_inurba_marseille","lat":43.286595,"lon":5.386795,"is_reserved":false,"is_disabled":false,"rental_uris":{"android":"levelo://app?vid=26879562-a620-4492-9fea-8aefe63ff97d","ios":"levelo://app?vid=26879562-a620-4492-9fea-8aefe63ff97d"},"vehicle_type_id":"4","last_reported":1716739760,"current_range_meters":30800,"station_id":"ce4bh492rcd13ifvqdug","pricing_plan_id":"cebpf4jnsgd1na2vs0mg"},{"bike_id":"4e0d527a-3170-4e77-a645-d3f9bbf497b3","system_id":"levelo_inurba_marseille","lat":43.286595,"lon":5.386795,"is_reserved":false,"is_disabled":false,"rental_uris":{"android":"levelo://app?vid=4e0d527a-3170-4e77-a645-d3f9bbf497b3","ios":"levelo://app?vid=4e0d527a-3170-4e77-a645-d3f9bbf497b3"},"vehicle_type_id":"4","last_reported":1716739760,"current_range_meters":3600,"station_id":"ce4bh492rcd13ifvqdug","pricing_plan_id":"cebpf4jnsgd1na2vs0mg"},{"bike_id":"98412d5e-893d-434c-805f-a2f3356fb4d6","system_id":"levelo_inurba_marseille","lat":43.32289,"lon":5.40636,"is_reserved":false,"is_disabled":false,"rental_uris":{"android":"levelo://app?vid=98412d5e-893d-434c-805f-a2f3356fb4d6","ios":"levelo://app?vid=98412d5e-893d-434c-805f-a2f3356fb4d6"},"vehicle_type_id":"4","last_reported":1716739760,"current_range_meters":9200,"station_id":"","pricing_plan_id":"cebpf4jnsgd1na2vs0mg"},{"bike_id":"d29c87be-c1ed-47ba-a406-0ea460677331","system_id":"levelo_inurba_marseille","lat":43.33717,"lon":5.391857,"is_reserved":false,"is_disabled":false,"rental_uris":{"android":"levelo://app?vid=d29c87be-c1ed-47ba-a406-0ea460677331","ios":"levelo://app?vid=d29c87be-c1ed-47ba-a406-0ea460677331"},"vehicle_type_id":"4","last_reported":1716739760,"current_range_meters":30800,"station_id":"ce4bhr92rcd13ifvqhsg","pricing_plan_id":"cebpf4jnsgd1na2vs0mg"},{"bike_id":"f98e1806-7000-4877-836b-8d9e2d5e1d4f","system_id":"levelo_inurba_marseille","lat":43.33726,"lon":5.39185,"is_reserved":false,"is_disabled":false,"rental_uris":{"android":"levelo://app?vid=f98e1806-7000-4877-836b-8d9e2d5e1d4f","ios":"levelo://app?vid=f98e1806-7000-4877-836b-8d9e2d5e1d4f"},"vehicle_type_id":"4","last_reported":1716739760,"current_range_meters":0,"station_id":"ce4bhr92rcd13ifvqhsg","pricing_plan_id":"cebpf4jnsgd1na2vs0mg"},{"bike_id":"be110534-ab1b-4662-aeff-05ef7c4acf56","system_id":"levelo_inurba_marseille","lat":43.323464,"lon":5.406297,"is_reserved":false,"is_disabled":false,"rental_uris":{"android":"levelo://app?vid=be110534-ab1b-4662-aeff-05ef7c4acf56","ios":"levelo://app?vid=be110534-ab1b-4662-aeff-05ef7c4acf56"},"vehicle_type_id":"4","last_reported":1716739760,"current_range_meters":29600,"station_id":"ce4bhq92rcd13ifvqhjg","pricing_plan_id":"cebpf4jnsgd1na2vs0mg"},{"bike_id":"0ef2d9ca-4b81-49ce-a254-89a38dc552ac","system_id":"levelo_inurba_marseille","lat":43.29626,"lon":5.40224,"is_reserved":false,"is_disabled":false,"rental_uris":{"android":"levelo://app?vid=0ef2d9ca-4b81-49ce-a254-89a38dc552ac","ios":"levelo://app?vid=0ef2d9ca-4b81-49ce-a254-89a38dc552ac"},"vehicle_type_id":"4","last_reported":1716739760,"current_range_meters":12800,"station_id":"","pricing_plan_id":"cebpf4jnsgd1na2vs0mg"},{"bike_id":"89f01fbd-1223-45c8-b170-0c29661ae1f1","system_id":"levelo_inurba_marseille","lat":43.284793,"lon":5.384113,"is_reserved":false,"is_disabled":false,"rental_uris":{"android":"levelo://app?vid=89f01fbd-1223-45c8-b170-0c29661ae1f1","ios":"levelo://app?vid=89f01fbd-1223-45c8-b170-0c29661ae1f1"},"vehicle_type_id":"4","last_reported":1716739760,"current_range_meters":5600,"station_id":"ce4bh512rcd13ifvqe3g","pricing_plan_id":"cebpf4jnsgd1na2vs0mg"},{"bike_id":"b71bd731-9895-4ae1-a802-295c69eb373e","system_id":"levelo_inurba_marseille","lat":43.284787,"lon":5.384116,"is_reserved":false,"is_disabled":false,"rental_uris":{"android":"levelo://app?vid=b71bd731-9895-4ae1-a802-295c69eb373e","ios":"levelo://app?vid=b71bd731-9895-4ae1-a802-295c69eb373e"},"vehicle_type_id":"4","last_reported":1716739760,"current_range_meters":1600,"station_id":"ce4bh512rcd13ifvqe3g","pricing_plan_id":"cebpf4jnsgd1na2vs0mg"},{"bike_id":"92939d15-5e30-41a0-82a8-929054270e80","system_id":"levelo_inurba_marseille","lat":43.284787,"lon":5.384116,"is_reserved":false,"is_disabled":false,"rental_uris":{"android":"levelo://app?vid=92939d15-5e30-41a0-82a8-929054270e80","ios":"levelo://app?vid=92939d15-5e30-41a0-82a8-929054270e80"},"vehicle_type_id":"4","last_reported":1716739760,"current_range_meters":6800,"station_id":"ce4bh512rcd13ifvqe3g","pricing_plan_id":"cebpf4jnsgd1na2vs0mg"},{"bike_id":"e1f3b9f4-e6ba-4c3f-9187-c69b561d604a","system_id":"levelo_inurba_marseille","lat":43.288497,"lon":5.393089,"is_reserved":false,"is_disabled":false,"rental_uris":{"android":"levelo://app?vid=e1f3b9f4-e6ba-4c3f-9187-c69b561d604a","ios":"levelo://app?vid=e1f3b9f4-e6ba-4c3f-9187-c69b561d604a"},"vehicle_type_id":"4","last_reported":1716739760,"current_range_meters":14400,"station_id":"ce4bh2p2rcd13ifvqdi0","pricing_plan_id":"cebpf4jnsgd1na2vs0mg"},{"bike_id":"98e23cbb-a4b1-4384-9450-76c870914809","system_id":"levelo_inurba_marseille","lat":43.288501,"lon":5.393087,"is_reserved":false,"is_disabled":false,"rental_uris":{"android":"levelo://app?vid=98e23cbb-a4b1-4384-9450-76c870914809","ios":"levelo://app?vid=98e23cbb-a4b1-4384-9450-76c870914809"},"vehicle_type_id":"4","last_reported":1716739760,"current_range_meters":16800,"station_id":"ce4bh2p2rcd13ifvqdi0","pricing_plan_id":"cebpf4jnsgd1na2vs0mg"},{"bike_id":"fde79369-1c3a-4a33-bf3c-24183bede801","system_id":"levelo_inurba_marseille","lat":43.288497,"lon":5.393089,"is_reserved":false,"is_disabled":false,"rental_uris":{"android":"levelo://app?vid=fde79369-1c3a-4a33-bf3c-24183bede801","ios":"levelo://app?vid=fde79369-1c3a-4a33-bf3c-24183bede801"},"vehicle_type_id":"4","last_reported":1716739760,"current_range_meters":400,"station_id":"ce4bh2p2rcd13ifvqdi0","pricing_plan_id":"cebpf4jnsgd1na2vs0mg"},{"bike_id":"8f86b2fb-76df-4ed0-b360-0fafc72584e1","system_id":"levelo_inurba_marseille","lat":43.319179,"lon":5.407725,"is_reserved":false,"is_disabled":false,"rental_uris":{"android":"levelo://app?vid=8f86b2fb-76df-4ed0-b360-0fafc72584e1","ios":"levelo://app?vid=8f86b2fb-76df-4ed0-b360-0fafc72584e1"},"vehicle_type_id":"4","last_reported":1716739760,"current_range_meters":5600,"station_id":"ce4bhq12rcd13ifvqhig","pricing_plan_id":"cebpf4jnsgd1na2vs0mg"},{"bike_id":"f6995c0f-461b-4e7f-9dc0-e8852894cd90","system_id":"levelo_inurba_marseille","lat":43.283498,"lon":5.380948,"is_reserved":false,"is_disabled":false,"rental_uris":{"android":"levelo://app?vid=f6995c0f-461b-4e7f-9dc0-e8852894cd90","ios":"levelo://app?vid=f6995c0f-461b-4e7f-9dc0-e8852894cd90"},"vehicle_type_id":"4","last_reported":1716739760,"current_range_meters":8400,"station_id":"ce4bh412rcd13ifvqdr0","pricing_plan_id":"cebpf4jnsgd1na2vs0mg"},{"bike_id":"31623acb-fa97-4cfd-b352-25d872866538","system_id":"levelo_inurba_marseille","lat":43.284214,"lon":5.349706,"is_reserved":false,"is_disabled":false,"rental_uris":{"android":"levelo://app?vid=31623acb-fa97-4cfd-b352-25d872866538","ios":"levelo://app?vid=31623acb-fa97-4cfd-b352-25d872866538"},"vehicle_type_id":"4","last_reported":1716739760,"current_range_meters":31200,"station_id":"ce4bhbh2rcd13ifvqepg","pricing_plan_id":"cebpf4jnsgd1na2vs0mg"},{"bike_id":"6bcab233-d1e2-4be2-8ecb-8252cab7b668","system_id":"levelo_inurba_marseille","lat":43.2841,"lon":5.34989,"is_reserved":false,"is_disabled":false,"rental_uris":{"android":"levelo://app?vid=6bcab233-d1e2-4be2-8ecb-8252cab7b668","ios":"levelo://app?vid=6bcab233-d1e2-4be2-8ecb-8252cab7b668"},"vehicle_type_id":"4","last_reported":1716739760,"current_range_meters":0,"station_id":"ce4bhbh2rcd13ifvqepg","pricing_plan_id":"cebpf4jnsgd1na2vs0mg"},{"bike_id":"a571fb94-8156-48a2-847c-3a6492c2073f","system_id":"levelo_inurba_marseille","lat":43.282654,"lon":5.35067,"is_reserved":false,"is_disabled":false,"rental_uris":{"android":"levelo://app?vid=a571fb94-8156-48a2-847c-3a6492c2073f","ios":"levelo://app?vid=a571fb94-8156-48a2-847c-3a6492c2073f"},"vehicle_type_id":"4","last_reported":1716739760,"current_range_meters":0,"station_id":"ce4bhbp2rcd13ifvqerg","pricing_plan_id":"cebpf4jnsgd1na2vs0mg"},{"bike_id":"b5890150-091b-400a-a043-f15118ecf27d","system_id":"levelo_inurba_marseille","lat":43.282754,"lon":5.350519,"is_reserved":false,"is_disabled":false,"rental_uris":{"android":"levelo://app?vid=b5890150-091b-400a-a043-f15118ecf27d","ios":"levelo://app?vid=b5890150-091b-400a-a043-f15118ecf27d"},"vehicle_type_id":"4","last_reported":1716739760,"current_range_meters":0,"station_id":"ce4bhbp2rcd13ifvqerg","pricing_plan_id":"cebpf4jnsgd1na2vs0mg"},{"bike_id":"883f0308-1252-4674-ab1f-09ab0b6b8a47","system_id":"levelo_inurba_marseille","lat":43.283502,"lon":5.386471,"is_reserved":false,"is_disabled":false,"rental_uris":{"android":"levelo://app?vid=883f0308-1252-4674-ab1f-09ab0b6b8a47","ios":"levelo://app?vid=883f0308-1252-4674-ab1f-09ab0b6b8a47"},"vehicle_type_id":"4","last_reported":1716739760,"current_range_meters":4400,"station_id":"ce4bh492rcd13ifvqdvg","pricing_plan_id":"cebpf4jnsgd1na2vs0mg"},{"bike_id":"e73227be-b04e-4072-adbe-9c179261a394","system_id":"levelo_inurba_marseille","lat":43.283502,"lon":5.386471,"is_reserved":false,"is_disabled":false,"rental_uris":{"android":"levelo://app?vid=e73227be-b04e-4072-adbe-9c179261a394","ios":"levelo://app?vid=e73227be-b04e-4072-adbe-9c179261a394"},"vehicle_type_id":"4","last_reported":1716739760,"current_range_meters":25600,"station_id":"ce4bh492rcd13ifvqdvg","pricing_plan_id":"cebpf4jnsgd1na2vs0mg"},{"bike_id":"1869c6be-5bd6-4590-8ca2-4015ae4e25b8","system_id":"levelo_inurba_marseille","lat":43.29041,"lon":5.399634,"is_reserved":false,"is_disabled":false,"rental_uris":{"android":"levelo://app?vid=1869c6be-5bd6-4590-8ca2-4015ae4e25b8","ios":"levelo://app?vid=1869c6be-5bd6-4590-8ca2-4015ae4e25b8"},"vehicle_type_id":"4","last_reported":1716739760,"current_range_meters":21600,"station_id":"ce4bh392rcd13ifvqdm0","pricing_plan_id":"cebpf4jnsgd1na2vs0mg"},{"bike_id":"88f95724-bcc2-4459-a86a-ff7c86be8428","system_id":"levelo_inurba_marseille","lat":43.290412,"lon":5.399633,"is_reserved":false,"is_disabled":false,"rental_uris":{"android":"levelo://app?vid=88f95724-bcc2-4459-a86a-ff7c86be8428","ios":"levelo://app?vid=88f95724-bcc2-4459-a86a-ff7c86be8428"},"vehicle_type_id":"4","last_reported":1716739760,"current_range_meters":16400,"station_id":"ce4bh392rcd13ifvqdm0","pricing_plan_id":"cebpf4jnsgd1na2vs0mg"},{"bike_id":"351f5781-a747-479a-8e1a-b7e3f923e070","system_id":"levelo_inurba_marseille","lat":43.29041,"lon":5.399634,"is_reserved":false,"is_disabled":false,"rental_uris":{"android":"levelo://app?vid=351f5781-a747-479a-8e1a-b7e3f923e070","ios":"levelo://app?vid=351f5781-a747-479a-8e1a-b7e3f923e070"},"vehicle_type_id":"4","last_reported":1716739760,"current_range_meters":1600,"station_id":"ce4bh392rcd13ifvqdm0","pricing_plan_id":"cebpf4jnsgd1na2vs0mg"},{"bike_id":"47a4e399-ba26-4b33-a4e2-cc9b832fae1d","system_id":"levelo_inurba_marseille","lat":43.284462,"lon":5.392121,"is_reserved":false,"is_disabled":false,"rental_uris":{"android":"levelo://app?vid=47a4e399-ba26-4b33-a4e2-cc9b832fae1d","ios":"levelo://app?vid=47a4e399-ba26-4b33-a4e2-cc9b832fae1d"},"vehicle_type_id":"4","last_reported":1716739760,"current_range_meters":27600,"station_id":"ce4bhoh2rcd13ifvqh5g","pricing_plan_id":"cebpf4jnsgd1na2vs0mg"},{"bike_id":"9c17647d-4891-4007-bb57-f6e65e02e199","system_id":"levelo_inurba_marseille","lat":43.284462,"lon":5.392121,"is_reserved":false,"is_disabled":false,"rental_uris":{"android":"levelo://app?vid=9c17647d-4891-4007-bb57-f6e65e02e199","ios":"levelo://app?vid=9c17647d-4891-4007-bb57-f6e65e02e199"},"vehicle_type_id":"4","last_reported":1716739760,"current_range_meters":22400,"station_id":"ce4bhoh2rcd13ifvqh5g","pricing_plan_id":"cebpf4jnsgd1na2vs0mg"},{"bike_id":"e37d1e9a-3f1c-45e8-8bde-6ae0046d5306","system_id":"levelo_inurba_marseille","lat":43.30851,"lon":5.41324,"is_reserved":false,"is_disabled":false,"rental_uris":{"android":"levelo://app?vid=e37d1e9a-3f1c-45e8-8bde-6ae0046d5306","ios":"levelo://app?vid=e37d1e9a-3f1c-45e8-8bde-6ae0046d5306"},"vehicle_type_id":"4","last_reported":1716739760,"current_range_meters":16400,"station_id":"","pricing_plan_id":"cebpf4jnsgd1na2vs0mg"},{"bike_id":"ec7e38ba-c718-4c39-9491-0bedb9b7cc33","system_id":"levelo_inurba_marseille","lat":43.32659,"lon":5.40991,"is_reserved":false,"is_disabled":false,"rental_uris":{"android":"levelo://app?vid=ec7e38ba-c718-4c39-9491-0bedb9b7cc33","ios":"levelo://app?vid=ec7e38ba-c718-4c39-9491-0bedb9b7cc33"},"vehicle_type_id":"4","last_reported":1716739760,"current_range_meters":6400,"station_id":"ce4bhpp2rcd13ifvqhgg","pricing_plan_id":"cebpf4jnsgd1na2vs0mg"},{"bike_id":"75b3fea8-7703-4c63-9225-e1c6aa5cd387","system_id":"levelo_inurba_marseille","lat":43.326605,"lon":5.409903,"is_reserved":false,"is_disabled":false,"rental_uris":{"android":"levelo://app?vid=75b3fea8-7703-4c63-9225-e1c6aa5cd387","ios":"levelo://app?vid=75b3fea8-7703-4c63-9225-e1c6aa5cd387"},"vehicle_type_id":"4","last_reported":1716739760,"current_range_meters":24000,"station_id":"ce4bhpp2rcd13ifvqhgg","pricing_plan_id":"cebpf4jnsgd1na2vs0mg"},{"bike_id":"a139818f-4e77-456d-9212-39f0c9a9cff9","system_id":"levelo_inurba_marseille","lat":43.326605,"lon":5.409903,"is_reserved":false,"is_disabled":false,"rental_uris":{"android":"levelo://app?vid=a139818f-4e77-456d-9212-39f0c9a9cff9","ios":"levelo://app?vid=a139818f-4e77-456d-9212-39f0c9a9cff9"},"vehicle_type_id":"4","last_reported":1716739760,"current_range_meters":10800,"station_id":"ce4bhpp2rcd13ifvqhgg","pricing_plan_id":"cebpf4jnsgd1na2vs0mg"},{"bike_id":"70e7dd40-1417-4e60-a3dd-e75ee080bdc2","system_id":"levelo_inurba_marseille","lat":43.326605,"lon":5.409903,"is_reserved":false,"is_disabled":false,"rental_uris":{"android":"levelo://app?vid=70e7dd40-1417-4e60-a3dd-e75ee080bdc2","ios":"levelo://app?vid=70e7dd40-1417-4e60-a3dd-e75ee080bdc2"},"vehicle_type_id":"4","last_reported":1716739760,"current_range_meters":7600,"station_id":"ce4bhpp2rcd13ifvqhgg","pricing_plan_id":"cebpf4jnsgd1na2vs0mg"},{"bike_id":"c35cd649-a8f3-4a15-a186-960611628a38","system_id":"levelo_inurba_marseille","lat":43.304188,"lon":5.412904,"is_reserved":false,"is_disabled":false,"rental_uris":{"android":"levelo://app?vid=c35cd649-a8f3-4a15-a186-960611628a38","ios":"levelo://app?vid=c35cd649-a8f3-4a15-a186-960611628a38"},"vehicle_type_id":"4","last_reported":1716739760,"current_range_meters":5600,"station_id":"ce4bhop2rcd13ifvqh8g","pricing_plan_id":"cebpf4jnsgd1na2vs0mg"},{"bike_id":"b0588350-8b9e-4086-916a-145215067032","system_id":"levelo_inurba_marseille","lat":43.28756,"lon":5.39991,"is_reserved":false,"is_disabled":false,"rental_uris":{"android":"levelo://app?vid=b0588350-8b9e-4086-916a-145215067032","ios":"levelo://app?vid=b0588350-8b9e-4086-916a-145215067032"},"vehicle_type_id":"4","last_reported":1716739760,"current_range_meters":20000,"station_id":"ce4bho92rcd13ifvqh3g","pricing_plan_id":"cebpf4jnsgd1na2vs0mg"},{"bike_id":"e30ac13e-8b67-42ab-9ca9-0fbb9240f0ea","system_id":"levelo_inurba_marseille","lat":43.299579,"lon":5.413255,"is_reserved":false,"is_disabled":false,"rental_uris":{"android":"levelo://app?vid=e30ac13e-8b67-42ab-9ca9-0fbb9240f0ea","ios":"levelo://app?vid=e30ac13e-8b67-42ab-9ca9-0fbb9240f0ea"},"vehicle_type_id":"4","last_reported":1716739760,"current_range_meters":27600,"station_id":"ce4bhp12rcd13ifvqh9g","pricing_plan_id":"cebpf4jnsgd1na2vs0mg"},{"bike_id":"c07e61a2-644b-43ed-99e7-3ba5add23516","system_id":"levelo_inurba_marseille","lat":43.279742,"lon":5.38744,"is_reserved":false,"is_disabled":false,"rental_uris":{"android":"levelo://app?vid=c07e61a2-644b-43ed-99e7-3ba5add23516","ios":"levelo://app?vid=c07e61a2-644b-43ed-99e7-3ba5add23516"},"vehicle_type_id":"4","last_reported":1716739760,"current_range_meters":10000,"station_id":"ce4bhg12rcd13ifvqf80","pricing_plan_id":"cebpf4jnsgd1na2vs0mg"},{"bike_id":"87e788bb-fa35-4821-a9bb-f89d788cbc0a","system_id":"levelo_inurba_marseille","lat":43.320045,"lon":5.415048,"is_reserved":false,"is_disabled":false,"rental_uris":{"android":"levelo://app?vid=87e788bb-fa35-4821-a9bb-f89d788cbc0a","ios":"levelo://app?vid=87e788bb-fa35-4821-a9bb-f89d788cbc0a"},"vehicle_type_id":"4","last_reported":1716739760,"current_range_meters":800,"station_id":"ce4bhq92rcd13ifvqhkg","pricing_plan_id":"cebpf4jnsgd1na2vs0mg"},{"bike_id":"681c2735-d8c6-4767-9e93-d2271b57db96","system_id":"levelo_inurba_marseille","lat":43.279742,"lon":5.38744,"is_reserved":false,"is_disabled":false,"rental_uris":{"android":"levelo://app?vid=681c2735-d8c6-4767-9e93-d2271b57db96","ios":"levelo://app?vid=681c2735-d8c6-4767-9e93-d2271b57db96"},"vehicle_type_id":"4","last_reported":1716739760,"current_range_meters":5200,"station_id":"ce4bhg12rcd13ifvqf80","pricing_plan_id":"cebpf4jnsgd1na2vs0mg"},{"bike_id":"416d09c6-d74d-4fbf-93dc-5f7733dfdf5b","system_id":"levelo_inurba_marseille","lat":43.276179,"lon":5.361009,"is_reserved":false,"is_disabled":false,"rental_uris":{"android":"levelo://app?vid=416d09c6-d74d-4fbf-93dc-5f7733dfdf5b","ios":"levelo://app?vid=416d09c6-d74d-4fbf-93dc-5f7733dfdf5b"},"vehicle_type_id":"4","last_reported":1716739760,"current_range_meters":2800,"station_id":"ce4bgj92rcd13ifvqbe0","pricing_plan_id":"cebpf4jnsgd1na2vs0mg"},{"bike_id":"170cdfe5-902d-4261-92cb-8cbbebb8b8fd","system_id":"levelo_inurba_marseille","lat":43.325233,"lon":5.414318,"is_reserved":false,"is_disabled":false,"rental_uris":{"android":"levelo://app?vid=170cdfe5-902d-4261-92cb-8cbbebb8b8fd","ios":"levelo://app?vid=170cdfe5-902d-4261-92cb-8cbbebb8b8fd"},"vehicle_type_id":"4","last_reported":1716739760,"current_range_meters":25600,"station_id":"ce4bhq12rcd13ifvqhhg","pricing_plan_id":"cebpf4jnsgd1na2vs0mg"},{"bike_id":"939a6c0d-f005-4d5b-9599-696861c75dad","system_id":"levelo_inurba_marseille","lat":43.276771,"lon":5.388799,"is_reserved":false,"is_disabled":false,"rental_uris":{"android":"levelo://app?vid=939a6c0d-f005-4d5b-9599-696861c75dad","ios":"levelo://app?vid=939a6c0d-f005-4d5b-9599-696861c75dad"},"vehicle_type_id":"4","last_reported":1716739760,"current_range_meters":4000,"station_id":"ce4bhi12rcd13ifvqfo0","pricing_plan_id":"cebpf4jnsgd1na2vs0mg"},{"bike_id":"c0e7db95-06ae-421a-bb19-11d829d832c8","system_id":"levelo_inurba_marseille","lat":43.280784,"lon":5.396622,"is_reserved":false,"is_disabled":false,"rental_uris":{"android":"levelo://app?vid=c0e7db95-06ae-421a-bb19-11d829d832c8","ios":"levelo://app?vid=c0e7db95-06ae-421a-bb19-11d829d832c8"},"vehicle_type_id":"4","last_reported":1716739760,"current_range_meters":11200,"station_id":"ce4bho12rcd13ifvqh2g","pricing_plan_id":"cebpf4jnsgd1na2vs0mg"},{"bike_id":"c4a45cb0-2168-44ca-9cc7-5bff8da0d59a","system_id":"levelo_inurba_marseille","lat":43.280784,"lon":5.396622,"is_reserved":false,"is_disabled":false,"rental_uris":{"android":"levelo://app?vid=c4a45cb0-2168-44ca-9cc7-5bff8da0d59a","ios":"levelo://app?vid=c4a45cb0-2168-44ca-9cc7-5bff8da0d59a"},"vehicle_type_id":"4","last_reported":1716739760,"current_range_meters":15200,"station_id":"ce4bho12rcd13ifvqh2g","pricing_plan_id":"cebpf4jnsgd1na2vs0mg"},{"bike_id":"27e4028b-d10b-4609-b471-bc6f96460b96","system_id":"levelo_inurba_marseille","lat":43.278401,"lon":5.392152,"is_reserved":false,"is_disabled":false,"rental_uris":{"android":"levelo://app?vid=27e4028b-d10b-4609-b471-bc6f96460b96","ios":"levelo://app?vid=27e4028b-d10b-4609-b471-bc6f96460b96"},"vehicle_type_id":"4","last_reported":1716739760,"current_range_meters":10800,"station_id":"ce4bhjp2rcd13ifvqga0","pricing_plan_id":"cebpf4jnsgd1na2vs0mg"},{"bike_id":"069ac703-667b-46ed-b857-faf8416d66d2","system_id":"levelo_inurba_marseille","lat":43.27385,"lon":5.36269,"is_reserved":false,"is_disabled":false,"rental_uris":{"android":"levelo://app?vid=069ac703-667b-46ed-b857-faf8416d66d2","ios":"levelo://app?vid=069ac703-667b-46ed-b857-faf8416d66d2"},"vehicle_type_id":"4","last_reported":1716739760,"current_range_meters":3600,"station_id":"ce4bhbh2rcd13ifvqeo0","pricing_plan_id":"cebpf4jnsgd1na2vs0mg"},{"bike_id":"c4419aca-7332-4c7f-b2fd-da43bb6d71f4","system_id":"levelo_inurba_marseille","lat":43.273832,"lon":5.36258,"is_reserved":false,"is_disabled":false,"rental_uris":{"android":"levelo://app?vid=c4419aca-7332-4c7f-b2fd-da43bb6d71f4","ios":"levelo://app?vid=c4419aca-7332-4c7f-b2fd-da43bb6d71f4"},"vehicle_type_id":"4","last_reported":1716739760,"current_range_meters":8400,"station_id":"ce4bhbh2rcd13ifvqeo0","pricing_plan_id":"cebpf4jnsgd1na2vs0mg"},{"bike_id":"ec99bb3c-774b-4250-ad12-2caa3e65acd1","system_id":"levelo_inurba_marseille","lat":43.27382,"lon":5.36254,"is_reserved":false,"is_disabled":false,"rental_uris":{"android":"levelo://app?vid=ec99bb3c-774b-4250-ad12-2caa3e65acd1","ios":"levelo://app?vid=ec99bb3c-774b-4250-ad12-2caa3e65acd1"},"vehicle_type_id":"4","last_reported":1716739760,"current_range_meters":0,"station_id":"ce4bhbh2rcd13ifvqeo0","pricing_plan_id":"cebpf4jnsgd1na2vs0mg"},{"bike_id":"e3a2b2b6-187d-4343-844a-b547bdd1948a","system_id":"levelo_inurba_marseille","lat":43.27377,"lon":5.3626,"is_reserved":false,"is_disabled":false,"rental_uris":{"android":"levelo://app?vid=e3a2b2b6-187d-4343-844a-b547bdd1948a","ios":"levelo://app?vid=e3a2b2b6-187d-4343-844a-b547bdd1948a"},