{"last_updated":1688019030,"ttl":30,"version":"2.2","data":{"bikes":[{"bike_id":"5fb04636-fa8b-4781-9ebb-cc54f827924a","system_id":"levelo_inurba_marseille","lat":43.313391,"lon":5.36706,"is_reserved":false,"is_disabled":false,"rental_uris":{"android":"levelo://app?vid=5fb04636-fa8b-4781-9ebb-cc54f827924a","ios":"levelo://app?vid=5fb04636-fa8b-4781-9ebb-cc54f827924a"},"vehicle_type_id":"4","last_reported":1688019030,"current_range_meters":27200,"station_id":"ce4bgr92rcd13ifvqc6g","pricing_plan_id":"free"},{"bike_id":"88f59ad9-3c1d-4ee6-9ec2-c840b81f9b94","system_id":"levelo_inurba_marseille","lat":43.313391,"lon":5.36706,"is_reserved":false,"is_disabled":false,"rental_uris":{"android":"levelo://app?vid=88f59ad9-3c1d-4ee6-9ec2-c840b81f9b94","ios":"levelo://app?vid=88f59ad9-3c1d-4ee6-9ec2-c840b81f9b94"},"vehicle_type_id":"4","last_reported":1688019030,"current_range_meters":20000,"station_id":"ce4bgr92rcd13ifvqc6g","pricing_plan_id":"free"},{"bike_id":"5fa89240-acfd-4bcf-8cf6-158f5a521ba4","system_id":"levelo_inurba_marseille","lat":43.313391,"lon":5.36706,"is_reserved":false,"is_disabled":false,"rental_uris":{"android":"levelo://app?vid=5fa89240-acfd-4bcf-8cf6-158f5a521ba4","ios":"levelo://app?vid=5fa89240-acfd-4bcf-8cf6-158f5a521ba4"},"vehicle_type_id":"4","last_reported":1688019030,"current_range_meters":29200,"station_id":"ce4bgr92rcd13ifvqc6g","pricing_plan_id":"free"},{"bike_id":"3bea5d15-6635-4dbd-93cf-32730c610d73","system_id":"levelo_inurba_marseille","lat":43.313391,"lon":5.36706,"is_reserved":false,"is_disabled":false,"rental_uris":{"android":"levelo://app?vid=3bea5d15-6635-4dbd-93cf-32730c610d73","ios":"levelo://app?vid=3bea5d15-6635-4dbd-93cf-32730c610d73"},"vehicle_type_id":"4","last_reported":1688019030,"current_range_meters":16800,"station_id":"ce4bgr92rcd13ifvqc6g","pricing_plan_id":"free"},{"bike_id":"a40cc3ce-f52c-434d-a4ad-c39395b410b5","system_id":"levelo_inurba_marseille","lat":43.313391,"lon":5.36706,"is_reserved":false,"is_disabled":false,"rental_uris":{"android":"levelo://app?vid=a40cc3ce-f52c-434d-a4ad-c39395b410b5","ios":"levelo://app?vid=a40cc3ce-f52c-434d-a4ad-c39395b410b5"},"vehicle_type_id":"4","last_reported":1688019030,"current_range_meters":26400,"station_id":"ce4bgr92rcd13ifvqc6g","pricing_plan_id":"free"},{"bike_id":"07381a75-513d-4693-b7b9-52da0f06b7b1","system_id":"levelo_inurba_marseille","lat":43.313391,"lon":5.36706,"is_reserved":false,"is_disabled":false,"rental_uris":{"android":"levelo://app?vid=07381a75-513d-4693-b7b9-52da0f06b7b1","ios":"levelo://app?vid=07381a75-513d-4693-b7b9-52da0f06b7b1"},"vehicle_type_id":"4","last_reported":1688019030,"current_range_meters":26800,"station_id":"ce4bgr92rcd13ifvqc6g","pricing_plan_id":"free"},{"bike_id":"5afcfe28-c711-4153-b1a0-306765a89ac3","system_id":"levelo_inurba_marseille","lat":43.31353,"lon":5.36714,"is_reserved":false,"is_disabled":false,"rental_uris":{"android":"levelo://app?vid=5afcfe28-c711-4153-b1a0-306765a89ac3","ios":"levelo://app?vid=5afcfe28-c711-4153-b1a0-306765a89ac3"},"vehicle_type_id":"4","last_reported":1688019030,"current_range_meters":28000,"station_id":"ce4bgr92rcd13ifvqc6g","pricing_plan_id":"free"},{"bike_id":"b81eb7fb-b353-496b-9e72-03cef16cf206","system_id":"levelo_inurba_marseille","lat":43.313391,"lon":5.36706,"is_reserved":false,"is_disabled":false,"rental_uris":{"android":"levelo://app?vid=b81eb7fb-b353-496b-9e72-03cef16cf206","ios":"levelo://app?vid=b81eb7fb-b353-496b-9e72-03cef16cf206"},"vehicle_type_id":"4","last_reported":1688019030,"current_range_meters":17600,"station_id":"ce4bgr92rcd13ifvqc6g","pricing_plan_id":"free"},{"bike_id":"666c1415-28e9-4944-87f5-29a628446c75","system_id":"levelo_inurba_marseille","lat":43.312239,"lon":5.368562,"is_reserved":false,"is_disabled":false,"rental_uris":{"android":"levelo://app?vid=666c1415-28e9-4944-87f5-29a628446c75","ios":"levelo://app?vid=666c1415-28e9-4944-87f5-29a628446c75"},"vehicle_type_id":"4","last_reported":1688019030,"current_range_meters":31200,"station_id":"ce4bgl92rcd13ifvqbq0","pricing_plan_id":"free"},{"bike_id":"867db04e-96e6-4d9a-8a4a-585ec207e62b","system_id":"levelo_inurba_marseille","lat":43.312239,"lon":5.368562,"is_reserved":false,"is_disabled":false,"rental_uris":{"android":"levelo://app?vid=867db04e-96e6-4d9a-8a4a-585ec207e62b","ios":"levelo://app?vid=867db04e-96e6-4d9a-8a4a-585ec207e62b"},"vehicle_type_id":"4","last_reported":1688019030,"current_range_meters":18800,"station_id":"ce4bgl92rcd13ifvqbq0","pricing_plan_id":"free"},{"bike_id":"428787b6-a7fd-4f46-9411-58506183424c","system_id":"levelo_inurba_marseille","lat":43.312239,"lon":5.368562,"is_reserved":false,"is_disabled":false,"rental_uris":{"android":"levelo://app?vid=428787b6-a7fd-4f46-9411-58506183424c","ios":"levelo://app?vid=428787b6-a7fd-4f46-9411-58506183424c"},"vehicle_type_id":"4","last_reported":1688019030,"current_range_meters":20400,"station_id":"ce4bgl92rcd13ifvqbq0","pricing_plan_id":"free"},{"bike_id":"0cdc768b-4b5a-453c-b703-e4760024de73","system_id":"levelo_inurba_marseille","lat":43.312239,"lon":5.368562,"is_reserved":false,"is_disabled":false,"rental_uris":{"android":"levelo://app?vid=0cdc768b-4b5a-453c-b703-e4760024de73","ios":"levelo://app?vid=0cdc768b-4b5a-453c-b703-e4760024de73"},"vehicle_type_id":"4","last_reported":1688019030,"current_range_meters":21600,"station_id":"ce4bgl92rcd13ifvqbq0","pricing_plan_id":"free"},{"bike_id":"50b7b51e-fc58-4481-a7ac-a090868a5f34","system_id":"levelo_inurba_marseille","lat":43.309076,"lon":5.368465,"is_reserved":false,"is_disabled":false,"rental_uris":{"android":"levelo://app?vid=50b7b51e-fc58-4481-a7ac-a090868a5f34","ios":"levelo://app?vid=50b7b51e-fc58-4481-a7ac-a090868a5f34"},"vehicle_type_id":"4","last_reported":1688019030,"current_range_meters":31200,"station_id":"ce4bgn92rcd13ifvqbvg","pricing_plan_id":"free"},{"bike_id":"a3ad5ddf-b156-444a-ba80-c7957a9a1cdb","system_id":"levelo_inurba_marseille","lat":43.309076,"lon":5.368465,"is_reserved":false,"is_disabled":false,"rental_uris":{"android":"levelo://app?vid=a3ad5ddf-b156-444a-ba80-c7957a9a1cdb","ios":"levelo://app?vid=a3ad5ddf-b156-444a-ba80-c7957a9a1cdb"},"vehicle_type_id":"4","last_reported":1688019030,"current_range_meters":27600,"station_id":"ce4bgn92rcd13ifvqbvg","pricing_plan_id":"free"},{"bike_id":"682cfa9a-97e1-4d3d-8fd8-9552a7471304","system_id":"levelo_inurba_marseille","lat":43.30908,"lon":5.36846,"is_reserved":false,"is_disabled":false,"rental_uris":{"android":"levelo://app?vid=682cfa9a-97e1-4d3d-8fd8-9552a7471304","ios":"levelo://app?vid=682cfa9a-97e1-4d3d-8fd8-9552a7471304"},"vehicle_type_id":"4","last_reported":1688019030,"current_range_meters":19200,"station_id":"ce4bgn92rcd13ifvqbvg","pricing_plan_id":"free"},{"bike_id":"2a6ffc8b-8303-4ef8-ad51-332b6b3a2dc4","system_id":"levelo_inurba_marseille","lat":43.309076,"lon":5.368465,"is_reserved":false,"is_disabled":false,"rental_uris":{"android":"levelo://app?vid=2a6ffc8b-8303-4ef8-ad51-332b6b3a2dc4","ios":"levelo://app?vid=2a6ffc8b-8303-4ef8-ad51-332b6b3a2dc4"},"vehicle_type_id":"4","last_reported":1688019030,"current_range_meters":26000,"station_id":"ce4bgn92rcd13ifvqbvg","pricing_plan_id":"free"},{"bike_id":"9328740b-bf7f-42ce-896f-b3b49cb35795","system_id":"levelo_inurba_marseille","lat":43.309076,"lon":5.368465,"is_reserved":false,"is_disabled":false,"rental_uris":{"android":"levelo://app?vid=9328740b-bf7f-42ce-896f-b3b49cb35795","ios":"levelo://app?vid=9328740b-bf7f-42ce-896f-b3b49cb35795"},"vehicle_type_id":"4","last_reported":1688019030,"current_range_meters":22800,"station_id":"ce4bgn92rcd13ifvqbvg","pricing_plan_id":"free"},{"bike_id":"83102379-ef32-49b4-b644-bbcf45a242ee","system_id":"levelo_inurba_marseille","lat":43.309076,"lon":5.368465,"is_reserved":false,"is_disabled":false,"rental_uris":{"android":"levelo://app?vid=83102379-ef32-49b4-b644-bbcf45a242ee","ios":"levelo://app?vid=83102379-ef32-49b4-b644-bbcf45a242ee"},"vehicle_type_id":"4","last_reported":1688019030,"current_range_meters":30000,"station_id":"ce4bgn92rcd13ifvqbvg","pricing_plan_id":"free"},{"bike_id":"0af57025-7798-4dda-860c-96fc00e09229","system_id":"levelo_inurba_marseille","lat":43.308606,"lon":5.372099,"is_reserved":false,"is_disabled":false,"rental_uris":{"android":"levelo://app?vid=0af57025-7798-4dda-860c-96fc00e09229","ios":"levelo://app?vid=0af57025-7798-4dda-860c-96fc00e09229"},"vehicle_type_id":"4","last_reported":1688019030,"current_range_meters":19200,"station_id":"ce4bguh2rcd13ifvqckg","pricing_plan_id":"free"},{"bike_id":"1cac643d-cbc0-4eb6-8f78-0fd53b4c4d35","system_id":"levelo_inurba_marseille","lat":43.3089,"lon":5.37189,"is_reserved":false,"is_disabled":false,"rental_uris":{"android":"levelo://app?vid=1cac643d-cbc0-4eb6-8f78-0fd53b4c4d35","ios":"levelo://app?vid=1cac643d-cbc0-4eb6-8f78-0fd53b4c4d35"},"vehicle_type_id":"4","last_reported":1688019030,"current_range_meters":23200,"station_id":"","pricing_plan_id":"free"},{"bike_id":"5e500329-cb17-489d-aaa3-940ed48bd3f7","system_id":"levelo_inurba_marseille","lat":43.30888,"lon":5.37199,"is_reserved":false,"is_disabled":false,"rental_uris":{"android":"levelo://app?vid=5e500329-cb17-489d-aaa3-940ed48bd3f7","ios":"levelo://app?vid=5e500329-cb17-489d-aaa3-940ed48bd3f7"},"vehicle_type_id":"4","last_reported":1688019030,"current_range_meters":2400,"station_id":"ce4bguh2rcd13ifvqckg","pricing_plan_id":"free"},{"bike_id":"7b50763c-d315-484a-bf33-ff60b54880f0","system_id":"levelo_inurba_marseille","lat":43.305714,"lon":5.365633,"is_reserved":false,"is_disabled":false,"rental_uris":{"android":"levelo://app?vid=7b50763c-d315-484a-bf33-ff60b54880f0","ios":"levelo://app?vid=7b50763c-d315-484a-bf33-ff60b54880f0"},"vehicle_type_id":"4","last_reported":1688019030,"current_range_meters":8800,"station_id":"ce4bgs12rcd13ifvqcag","pricing_plan_id":"free"},{"bike_id":"1e1ca0bb-ff3c-479e-92b8-6ec926e0ce06","system_id":"levelo_inurba_marseille","lat":43.305706,"lon":5.365654,"is_reserved":false,"is_disabled":false,"rental_uris":{"android":"levelo://app?vid=1e1ca0bb-ff3c-479e-92b8-6ec926e0ce06","ios":"levelo://app?vid=1e1ca0bb-ff3c-479e-92b8-6ec926e0ce06"},"vehicle_type_id":"4","last_reported":1688019030,"current_range_meters":30400,"station_id":"ce4bgs12rcd13ifvqcag","pricing_plan_id":"free"},{"bike_id":"d3e6ddb3-b737-4ba9-b18f-d453c5a7a6a6","system_id":"levelo_inurba_marseille","lat":43.30535,"lon":5.3671,"is_reserved":false,"is_disabled":false,"rental_uris":{"android":"levelo://app?vid=d3e6ddb3-b737-4ba9-b18f-d453c5a7a6a6","ios":"levelo://app?vid=d3e6ddb3-b737-4ba9-b18f-d453c5a7a6a6"},"vehicle_type_id":"4","last_reported":1688019030,"current_range_meters":29600,"station_id":"ce4bgrp2rcd13ifvqc9g","pricing_plan_id":"free"},{"bike_id":"77df3e95-3755-40ad-9b99-c371f7af1230","system_id":"levelo_inurba_marseille","lat":43.305368,"lon":5.367343,"is_reserved":false,"is_disabled":false,"rental_uris":{"android":"levelo://app?vid=77df3e95-3755-40ad-9b99-c371f7af1230","ios":"levelo://app?vid=77df3e95-3755-40ad-9b99-c371f7af1230"},"vehicle_type_id":"4","last_reported":1688019030,"current_range_meters":6800,"station_id":"ce4bgrp2rcd13ifvqc9g","pricing_plan_id":"free"},{"bike_id":"3c56d7fd-5cdf-4dd0-b508-8c85d10de0b8","system_id":"levelo_inurba_marseille","lat":43.305706,"lon":5.365654,"is_reserved":false,"is_disabled":false,"rental_uris":{"android":"levelo://app?vid=3c56d7fd-5cdf-4dd0-b508-8c85d10de0b8","ios":"levelo://app?vid=3c56d7fd-5cdf-4dd0-b508-8c85d10de0b8"},"vehicle_type_id":"4","last_reported":1688019030,"current_range_meters":28800,"station_id":"ce4bgs12rcd13ifvqcag","pricing_plan_id":"free"},{"bike_id":"d76ad425-7132-4ea9-8bc3-3990801c74de","system_id":"levelo_inurba_marseille","lat":43.3054,"lon":5.36536,"is_reserved":false,"is_disabled":false,"rental_uris":{"android":"levelo://app?vid=d76ad425-7132-4ea9-8bc3-3990801c74de","ios":"levelo://app?vid=d76ad425-7132-4ea9-8bc3-3990801c74de"},"vehicle_type_id":"4","last_reported":1688019030,"current_range_meters":22400,"station_id":"ce4bgs12rcd13ifvqcag","pricing_plan_id":"free"},{"bike_id":"eed923ad-945e-48e3-be0e-1be669064b3c","system_id":"levelo_inurba_marseille","lat":43.305368,"lon":5.367343,"is_reserved":false,"is_disabled":false,"rental_uris":{"android":"levelo://app?vid=eed923ad-945e-48e3-be0e-1be669064b3c","ios":"levelo://app?vid=eed923ad-945e-48e3-be0e-1be669064b3c"},"vehicle_type_id":"4","last_reported":1688019030,"current_range_meters":29600,"station_id":"ce4bgrp2rcd13ifvqc9g","pricing_plan_id":"free"},{"bike_id":"975b1a72-462d-4b87-8fae-a73645327eca","system_id":"levelo_inurba_marseille","lat":43.305368,"lon":5.367343,"is_reserved":false,"is_disabled":false,"rental_uris":{"android":"levelo://app?vid=975b1a72-462d-4b87-8fae-a73645327eca","ios":"levelo://app?vid=975b1a72-462d-4b87-8fae-a73645327eca"},"vehicle_type_id":"4","last_reported":1688019030,"current_range_meters":24400,"station_id":"ce4bgrp2rcd13ifvqc9g","pricing_plan_id":"free"},{"bike_id":"06bdd52b-483e-4c66-b1ee-82946917b3db","system_id":"levelo_inurba_marseille","lat":43.305706,"lon":5.365654,"is_reserved":false,"is_disabled":false,"rental_uris":{"android":"levelo://app?vid=06bdd52b-483e-4c66-b1ee-82946917b3db","ios":"levelo://app?vid=06bdd52b-483e-4c66-b1ee-82946917b3db"},"vehicle_type_id":"4","last_reported":1688019030,"current_range_meters":28000,"station_id":"ce4bgs12rcd13ifvqcag","pricing_plan_id":"free"},{"bike_id":"ba06a905-a067-45fe-b622-1c9363d4fb5e","system_id":"levelo_inurba_marseille","lat":43.31113,"lon":5.37787,"is_reserved":false,"is_disabled":false,"rental_uris":{"android":"levelo://app?vid=ba06a905-a067-45fe-b622-1c9363d4fb5e","ios":"levelo://app?vid=ba06a905-a067-45fe-b622-1c9363d4fb5e"},"vehicle_type_id":"4","last_reported":1688019030,"current_range_meters":11600,"station_id":"ce4bgt92rcd13ifvqcg0","pricing_plan_id":"free"},{"bike_id":"5475abdf-382b-4406-9b00-b60dd9387aaf","system_id":"levelo_inurba_marseille","lat":43.317075,"lon":5.377367,"is_reserved":false,"is_disabled":false,"rental_uris":{"android":"levelo://app?vid=5475abdf-382b-4406-9b00-b60dd9387aaf","ios":"levelo://app?vid=5475abdf-382b-4406-9b00-b60dd9387aaf"},"vehicle_type_id":"4","last_reported":1688019030,"current_range_meters":27200,"station_id":"ce4bgth2rcd13ifvqch0","pricing_plan_id":"free"},{"bike_id":"3cebd16e-1437-47b4-8e1a-740cb4d52c12","system_id":"levelo_inurba_marseille","lat":43.31531,"lon":5.38019,"is_reserved":false,"is_disabled":false,"rental_uris":{"android":"levelo://app?vid=3cebd16e-1437-47b4-8e1a-740cb4d52c12","ios":"levelo://app?vid=3cebd16e-1437-47b4-8e1a-740cb4d52c12"},"vehicle_type_id":"4","last_reported":1688019030,"current_range_meters":2800,"station_id":"ce4bhsp2rcd13ifvqi50","pricing_plan_id":"free"},{"bike_id":"7454166a-faca-47b4-ab1c-0a1d8e29e877","system_id":"levelo_inurba_marseille","lat":43.3153,"lon":5.3802,"is_reserved":false,"is_disabled":false,"rental_uris":{"android":"levelo://app?vid=7454166a-faca-47b4-ab1c-0a1d8e29e877","ios":"levelo://app?vid=7454166a-faca-47b4-ab1c-0a1d8e29e877"},"vehicle_type_id":"4","last_reported":1688019030,"current_range_meters":22800,"station_id":"ce4bhsp2rcd13ifvqi50","pricing_plan_id":"free"},{"bike_id":"87ca850a-369d-4b22-8bf4-79a53e7dfa3b","system_id":"levelo_inurba_marseille","lat":43.315293,"lon":5.380349,"is_reserved":false,"is_disabled":false,"rental_uris":{"android":"levelo://app?vid=87ca850a-369d-4b22-8bf4-79a53e7dfa3b","ios":"levelo://app?vid=87ca850a-369d-4b22-8bf4-79a53e7dfa3b"},"vehicle_type_id":"4","last_reported":1688019030,"current_range_meters":12400,"station_id":"ce4bhsp2rcd13ifvqi50","pricing_plan_id":"free"},{"bike_id":"af98ed91-5956-447e-bc96-83e9e2e00d82","system_id":"levelo_inurba_marseille","lat":43.315293,"lon":5.380349,"is_reserved":false,"is_disabled":false,"rental_uris":{"android":"levelo://app?vid=af98ed91-5956-447e-bc96-83e9e2e00d82","ios":"levelo://app?vid=af98ed91-5956-447e-bc96-83e9e2e00d82"},"vehicle_type_id":"4","last_reported":1688019030,"current_range_meters":29600,"station_id":"ce4bhsp2rcd13ifvqi50","pricing_plan_id":"free"},{"bike_id":"bfa2ea86-2d5f-48f3-9948-85929b75c514","system_id":"levelo_inurba_marseille","lat":43.315293,"lon":5.380349,"is_reserved":false,"is_disabled":false,"rental_uris":{"android":"levelo://app?vid=bfa2ea86-2d5f-48f3-9948-85929b75c514","ios":"levelo://app?vid=bfa2ea86-2d5f-48f3-9948-85929b75c514"},"vehicle_type_id":"4","last_reported":1688019030,"current_range_meters":31200,"station_id":"ce4bhsp2rcd13ifvqi50","pricing_plan_id":"free"},{"bike_id":"ddaf1801-b153-4d90-b63e-af4f7d9b9af3","system_id":"levelo_inurba_marseille","lat":43.315293,"lon":5.380349,"is_reserved":false,"is_disabled":false,"rental_uris":{"android":"levelo://app?vid=ddaf1801-b153-4d90-b63e-af4f7d9b9af3","ios":"levelo://app?vid=ddaf1801-b153-4d90-b63e-af4f7d9b9af3"},"vehicle_type_id":"4","last_reported":1688019030,"current_range_meters":25600,"station_id":"ce4bhsp2rcd13ifvqi50","pricing_plan_id":"free"},{"bike_id":"b2a69c58-8bb4-4d9d-85e9-7ab6715faf83","system_id":"levelo_inurba_marseille","lat":43.31533,"lon":5.38032,"is_reserved":false,"is_disabled":false,"rental_uris":{"android":"levelo://app?vid=b2a69c58-8bb4-4d9d-85e9-7ab6715faf83","ios":"levelo://app?vid=b2a69c58-8bb4-4d9d-85e9-7ab6715faf83"},"vehicle_type_id":"4","last_reported":1688019030,"current_range_meters":26000,"station_id":"ce4bhsp2rcd13ifvqi50","pricing_plan_id":"free"},{"bike_id":"5757c4d3-cd72-45b6-8ae3-ed12f776ecc8","system_id":"levelo_inurba_marseille","lat":43.31532,"lon":5.38036,"is_reserved":false,"is_disabled":false,"rental_uris":{"android":"levelo://app?vid=5757c4d3-cd72-45b6-8ae3-ed12f776ecc8","ios":"levelo://app?vid=5757c4d3-cd72-45b6-8ae3-ed12f776ecc8"},"vehicle_type_id":"4","last_reported":1688019030,"current_range_meters":19200,"station_id":"ce4bhsp2rcd13ifvqi50","pricing_plan_id":"free"},{"bike_id":"ef8e9b83-f0f7-400a-bc09-066de146cfea","system_id":"levelo_inurba_marseille","lat":43.301939,"lon":5.366286,"is_reserved":false,"is_disabled":false,"rental_uris":{"android":"levelo://app?vid=ef8e9b83-f0f7-400a-bc09-066de146cfea","ios":"levelo://app?vid=ef8e9b83-f0f7-400a-bc09-066de146cfea"},"vehicle_type_id":"4","last_reported":1688019030,"current_range_meters":27200,"station_id":"ce4bgrh2rcd13ifvqc8g","pricing_plan_id":"free"},{"bike_id":"a70a2b28-bbf9-4103-ab46-71787ed5f195","system_id":"levelo_inurba_marseille","lat":43.308012,"lon":5.381511,"is_reserved":false,"is_disabled":false,"rental_uris":{"android":"levelo://app?vid=a70a2b28-bbf9-4103-ab46-71787ed5f195","ios":"levelo://app?vid=a70a2b28-bbf9-4103-ab46-71787ed5f195"},"vehicle_type_id":"4","last_reported":1688019030,"current_range_meters":29600,"station_id":"ce4bgt12rcd13ifvqce0","pricing_plan_id":"free"},{"bike_id":"2944ffd6-afbc-4a0f-92b3-e1aca9b17c78","system_id":"levelo_inurba_marseille","lat":43.308012,"lon":5.381511,"is_reserved":false,"is_disabled":false,"rental_uris":{"android":"levelo://app?vid=2944ffd6-afbc-4a0f-92b3-e1aca9b17c78","ios":"levelo://app?vid=2944ffd6-afbc-4a0f-92b3-e1aca9b17c78"},"vehicle_type_id":"4","last_reported":1688019030,"current_range_meters":24400,"station_id":"ce4bgt12rcd13ifvqce0","pricing_plan_id":"free"},{"bike_id":"af034248-3019-4acd-ab1c-34cbb87331dd","system_id":"levelo_inurba_marseille","lat":43.304606,"lon":5.379026,"is_reserved":false,"is_disabled":false,"rental_uris":{"android":"levelo://app?vid=af034248-3019-4acd-ab1c-34cbb87331dd","ios":"levelo://app?vid=af034248-3019-4acd-ab1c-34cbb87331dd"},"vehicle_type_id":"4","last_reported":1688019030,"current_range_meters":15600,"station_id":"ce4bgup2rcd13ifvqcn0","pricing_plan_id":"free"},{"bike_id":"860b18d7-cbcb-41ce-8277-21e0fe610a07","system_id":"levelo_inurba_marseille","lat":43.304606,"lon":5.379026,"is_reserved":false,"is_disabled":false,"rental_uris":{"android":"levelo://app?vid=860b18d7-cbcb-41ce-8277-21e0fe610a07","ios":"levelo://app?vid=860b18d7-cbcb-41ce-8277-21e0fe610a07"},"vehicle_type_id":"4","last_reported":1688019030,"current_range_meters":26400,"station_id":"ce4bgup2rcd13ifvqcn0","pricing_plan_id":"free"},{"bike_id":"75ae1869-1396-4340-a5b2-345ac40273c7","system_id":"levelo_inurba_marseille","lat":43.304606,"lon":5.379026,"is_reserved":false,"is_disabled":false,"rental_uris":{"android":"levelo://app?vid=75ae1869-1396-4340-a5b2-345ac40273c7","ios":"levelo://app?vid=75ae1869-1396-4340-a5b2-345ac40273c7"},"vehicle_type_id":"4","last_reported":1688019030,"current_range_meters":7600,"station_id":"ce4bgup2rcd13ifvqcn0","pricing_plan_id":"free"},{"bike_id":"0dcf64ab-8b77-468e-855c-dd6a20ec43c6","system_id":"levelo_inurba_marseille","lat":43.304606,"lon":5.379026,"is_reserved":false,"is_disabled":false,"rental_uris":{"android":"levelo://app?vid=0dcf64ab-8b77-468e-855c-dd6a20ec43c6","ios":"levelo://app?vid=0dcf64ab-8b77-468e-855c-dd6a20ec43c6"},"vehicle_type_id":"4","last_reported":1688019030,"current_range_meters":8800,"station_id":"ce4bgup2rcd13ifvqcn0","pricing_plan_id":"free"},{"bike_id":"800edb12-1f78-4fea-bf10-a911bcb50421","system_id":"levelo_inurba_marseille","lat":43.304606,"lon":5.379026,"is_reserved":false,"is_disabled":false,"rental_uris":{"android":"levelo://app?vid=800edb12-1f78-4fea-bf10-a911bcb50421","ios":"levelo://app?vid=800edb12-1f78-4fea-bf10-a911bcb50421"},"vehicle_type_id":"4","last_reported":1688019030,"current_range_meters":31200,"station_id":"ce4bgup2rcd13ifvqcn0","pricing_plan_id":"free"},{"bike_id":"a44e109b-898a-4d85-922a-d0c9a9008efe","system_id":"levelo_inurba_marseille","lat":43.304606,"lon":5.379026,"is_reserved":false,"is_disabled":false,"rental_uris":{"android":"levelo://app?vid=a44e109b-898a-4d85-922a-d0c9a9008efe","ios":"levelo://app?vid=a44e109b-898a-4d85-922a-d0c9a9008efe"},"vehicle_type_id":"4","last_reported":1688019030,"current_range_meters":23200,"station_id":"ce4bgup2rcd13ifvqcn0","pricing_plan_id":"free"},{"bike_id":"4264a98c-68ba-4679-bf80-2b5975eb70cf","system_id":"levelo_inurba_marseille","lat":43.304606,"lon":5.379026,"is_reserved":false,"is_disabled":false,"rental_uris":{"android":"levelo://app?vid=4264a98c-68ba-4679-bf80-2b5975eb70cf","ios":"levelo://app?vid=4264a98c-68ba-4679-bf80-2b5975eb70cf"},"vehicle_type_id":"4","last_reported":1688019030,"current_range_meters":26800,"station_id":"ce4bgup2rcd13ifvqcn0","pricing_plan_id":"free"},{"bike_id":"3853d5e3-ddd4-4d3e-95f9-18f217ac1330","system_id":"levelo_inurba_marseille","lat":43.304606,"lon":5.379026,"is_reserved":false,"is_disabled":false,"rental_uris":{"android":"levelo://app?vid=3853d5e3-ddd4-4d3e-95f9-18f217ac1330","ios":"levelo://app?vid=3853d5e3-ddd4-4d3e-95f9-18f217ac1330"},"vehicle_type_id":"4","last_reported":1688019030,"current_range_meters":11600,"station_id":"ce4bgup2rcd13ifvqcn0","pricing_plan_id":"free"},{"bike_id":"a1eb4a9d-b19e-47f8-80ba-ad38e52a3c71","system_id":"levelo_inurba_marseille","lat":43.304606,"lon":5.379026,"is_reserved":false,"is_disabled":false,"rental_uris":{"android":"levelo://app?vid=a1eb4a9d-b19e-47f8-80ba-ad38e52a3c71","ios":"levelo://app?vid=a1eb4a9d-b19e-47f8-80ba-ad38e52a3c71"},"vehicle_type_id":"4","last_reported":1688019030,"current_range_meters":26400,"station_id":"ce4bgup2rcd13ifvqcn0","pricing_plan_id":"free"},{"bike_id":"209c4020-a212-4755-b154-896c48725490","system_id":"levelo_inurba_marseille","lat":43.304606,"lon":5.379026,"is_reserved":false,"is_disabled":false,"rental_uris":{"android":"levelo://app?vid=209c4020-a212-4755-b154-896c48725490","ios":"levelo://app?vid=209c4020-a212-4755-b154-896c48725490"},"vehicle_type_id":"4","last_reported":1688019030,"current_range_meters":10000,"station_id":"ce4bgup2rcd13ifvqcn0","pricing_plan_id":"free"},{"bike_id":"370ef1d2-34a0-4d0b-830c-db5573188535","system_id":"levelo_inurba_marseille","lat":43.304606,"lon":5.379026,"is_reserved":false,"is_disabled":false,"rental_uris":{"android":"levelo://app?vid=370ef1d2-34a0-4d0b-830c-db5573188535","ios":"levelo://app?vid=370ef1d2-34a0-4d0b-830c-db5573188535"},"vehicle_type_id":"4","last_reported":1688019030,"current_range_meters":24400,"station_id":"ce4bgup2rcd13ifvqcn0","pricing_plan_id":"free"},{"bike_id":"62b0d016-6cbd-4a1e-8324-018c1e49b069","system_id":"levelo_inurba_marseille","lat":43.304606,"lon":5.379026,"is_reserved":false,"is_disabled":false,"rental_uris":{"android":"levelo://app?vid=62b0d016-6cbd-4a1e-8324-018c1e49b069","ios":"levelo://app?vid=62b0d016-6cbd-4a1e-8324-018c1e49b069"},"vehicle_type_id":"4","last_reported":1688019030,"current_range_meters":26000,"station_id":"ce4bgup2rcd13ifvqcn0","pricing_plan_id":"free"},{"bike_id":"9a4dbb4a-be84-40b0-aa0f-eb7773e6d94a","system_id":"levelo_inurba_marseille","lat":43.304606,"lon":5.379026,"is_reserved":false,"is_disabled":false,"rental_uris":{"android":"levelo://app?vid=9a4dbb4a-be84-40b0-aa0f-eb7773e6d94a","ios":"levelo://app?vid=9a4dbb4a-be84-40b0-aa0f-eb7773e6d94a"},"vehicle_type_id":"4","last_reported":1688019030,"current_range_meters":28000,"station_id":"ce4bgup2rcd13ifvqcn0","pricing_plan_id":"free"},{"bike_id":"73b59030-e2bc-4bec-a064-9891e2f903cc","system_id":"levelo_inurba_marseille","lat":43.304606,"lon":5.379026,"is_reserved":false,"is_disabled":false,"rental_uris":{"android":"levelo://app?vid=73b59030-e2bc-4bec-a064-9891e2f903cc","ios":"levelo://app?vid=73b59030-e2bc-4bec-a064-9891e2f903cc"},"vehicle_type_id":"4","last_reported":1688019030,"current_range_meters":30800,"station_id":"ce4bgup2rcd13ifvqcn0","pricing_plan_id":"free"},{"bike_id":"32b6bac8-7e9e-4a6c-98e4-45478e57061c","system_id":"levelo_inurba_marseille","lat":43.30142,"lon":5.37419,"is_reserved":false,"is_disabled":false,"rental_uris":{"android":"levelo://app?vid=32b6bac8-7e9e-4a6c-98e4-45478e57061c","ios":"levelo://app?vid=32b6bac8-7e9e-4a6c-98e4-45478e57061c"},"vehicle_type_id":"4","last_reported":1688019030,"current_range_meters":26000,"station_id":"ce4bgs92rcd13ifvqcc0","pricing_plan_id":"free"},{"bike_id":"740ae76d-c821-409c-aa17-298a86a224a5","system_id":"levelo_inurba_marseille","lat":43.30143,"lon":5.37413,"is_reserved":false,"is_disabled":false,"rental_uris":{"android":"levelo://app?vid=740ae76d-c821-409c-aa17-298a86a224a5","ios":"levelo://app?vid=740ae76d-c821-409c-aa17-298a86a224a5"},"vehicle_type_id":"4","last_reported":1688019030,"current_range_meters":28800,"station_id":"ce4bgs92rcd13ifvqcc0","pricing_plan_id":"free"},{"bike_id":"7cd6710a-f626-4b2c-85a4-a307d67d3908","system_id":"levelo_inurba_marseille","lat":43.30139,"lon":5.37414,"is_reserved":false,"is_disabled":false,"rental_uris":{"android":"levelo://app?vid=7cd6710a-f626-4b2c-85a4-a307d67d3908","ios":"levelo://app?vid=7cd6710a-f626-4b2c-85a4-a307d67d3908"},"vehicle_type_id":"4","last_reported":1688019030,"current_range_meters":9600,"station_id":"ce4bgs92rcd13ifvqcc0","pricing_plan_id":"free"},{"bike_id":"96fb06f9-13c6-4da4-bcde-d26f438a6e12","system_id":"levelo_inurba_marseille","lat":43.30143,"lon":5.37428,"is_reserved":false,"is_disabled":false,"rental_uris":{"android":"levelo://app?vid=96fb06f9-13c6-4da4-bcde-d26f438a6e12","ios":"levelo://app?vid=96fb06f9-13c6-4da4-bcde-d26f438a6e12"},"vehicle_type_id":"4","last_reported":1688019030,"current_range_meters":21200,"station_id":"ce4bgs92rcd13ifvqcc0","pricing_plan_id":"free"},{"bike_id":"34ee49b9-c50b-4a68-a7c0-e16e42a93913","system_id":"levelo_inurba_marseille","lat":43.32534,"lon":5.36873,"is_reserved":false,"is_disabled":false,"rental_uris":{"android":"levelo://app?vid=34ee49b9-c50b-4a68-a7c0-e16e42a93913","ios":"levelo://app?vid=34ee49b9-c50b-4a68-a7c0-e16e42a93913"},"vehicle_type_id":"4","last_reported":1688019030,"current_range_meters":18000,"station_id":"","pricing_plan_id":"free"},{"bike_id":"41d64167-2260-4409-97ee-42635082e26e","system_id":"levelo_inurba_marseille","lat":43.319935,"lon":5.381699,"is_reserved":false,"is_disabled":false,"rental_uris":{"android":"levelo://app?vid=41d64167-2260-4409-97ee-42635082e26e","ios":"levelo://app?vid=41d64167-2260-4409-97ee-42635082e26e"},"vehicle_type_id":"4","last_reported":1688019030,"current_range_meters":24000,"station_id":"ce4bhr12rcd13ifvqhpg","pricing_plan_id":"free"},{"bike_id":"ce1dd1d5-b694-4bf7-9df6-62f71fdacc67","system_id":"levelo_inurba_marseille","lat":43.319935,"lon":5.381699,"is_reserved":false,"is_disabled":false,"rental_uris":{"android":"levelo://app?vid=ce1dd1d5-b694-4bf7-9df6-62f71fdacc67","ios":"levelo://app?vid=ce1dd1d5-b694-4bf7-9df6-62f71fdacc67"},"vehicle_type_id":"4","last_reported":1688019030,"current_range_meters":16000,"station_id":"ce4bhr12rcd13ifvqhpg","pricing_plan_id":"free"},{"bike_id":"7b7d52f9-d607-4d42-b4ad-8eb4fb36330c","system_id":"levelo_inurba_marseille","lat":43.319935,"lon":5.381699,"is_reserved":false,"is_disabled":false,"rental_uris":{"android":"levelo://app?vid=7b7d52f9-d607-4d42-b4ad-8eb4fb36330c","ios":"levelo://app?vid=7b7d52f9-d607-4d42-b4ad-8eb4fb36330c"},"vehicle_type_id":"4","last_reported":1688019030,"current_range_meters":26800,"station_id":"ce4bhr12rcd13ifvqhpg","pricing_plan_id":"free"},{"bike_id":"03f8c943-6c55-4e34-a6f4-b9e30e421165","system_id":"levelo_inurba_marseille","lat":43.313571,"lon":5.384829,"is_reserved":false,"is_disabled":false,"rental_uris":{"android":"levelo://app?vid=03f8c943-6c55-4e34-a6f4-b9e30e421165","ios":"levelo://app?vid=03f8c943-6c55-4e34-a6f4-b9e30e421165"},"vehicle_type_id":"4","last_reported":1688019030,"current_range_meters":18400,"station_id":"ce4bgt92rcd13ifvqcf0","pricing_plan_id":"free"},{"bike_id":"dfdc704f-68a1-4ce3-9663-2917b1b843ec","system_id":"levelo_inurba_marseille","lat":43.313571,"lon":5.384829,"is_reserved":false,"is_disabled":false,"rental_uris":{"android":"levelo://app?vid=dfdc704f-68a1-4ce3-9663-2917b1b843ec","ios":"levelo://app?vid=dfdc704f-68a1-4ce3-9663-2917b1b843ec"},"vehicle_type_id":"4","last_reported":1688019030,"current_range_meters":4800,"station_id":"ce4bgt92rcd13ifvqcf0","pricing_plan_id":"free"},{"bike_id":"36045b68-11d5-468a-a018-858b71776e33","system_id":"levelo_inurba_marseille","lat":43.31363,"lon":5.38499,"is_reserved":false,"is_disabled":false,"rental_uris":{"android":"levelo://app?vid=36045b68-11d5-468a-a018-858b71776e33","ios":"levelo://app?vid=36045b68-11d5-468a-a018-858b71776e33"},"vehicle_type_id":"4","last_reported":1688019030,"current_range_meters":27200,"station_id":"ce4bgt92rcd13ifvqcf0","pricing_plan_id":"free"},{"bike_id":"e2349e9a-7fcb-4103-9060-b44c0dd7a4b5","system_id":"levelo_inurba_marseille","lat":43.31369,"lon":5.38499,"is_reserved":false,"is_disabled":false,"rental_uris":{"android":"levelo://app?vid=e2349e9a-7fcb-4103-9060-b44c0dd7a4b5","ios":"levelo://app?vid=e2349e9a-7fcb-4103-9060-b44c0dd7a4b5"},"vehicle_type_id":"4","last_reported":1688019030,"current_range_meters":25200,"station_id":"ce4bgt92rcd13ifvqcf0","pricing_plan_id":"free"},{"bike_id":"79209e07-407b-4901-be43-3111fe94f6db","system_id":"levelo_inurba_marseille","lat":43.31374,"lon":5.38502,"is_reserved":false,"is_disabled":false,"rental_uris":{"android":"levelo://app?vid=79209e07-407b-4901-be43-3111fe94f6db","ios":"levelo://app?vid=79209e07-407b-4901-be43-3111fe94f6db"},"vehicle_type_id":"4","last_reported":1688019030,"current_range_meters":31200,"station_id":"ce4bgt92rcd13ifvqcf0","pricing_plan_id":"free"},{"bike_id":"fb0106c4-ee66-4ff0-904c-a6ed80b7463c","system_id":"levelo_inurba_marseille","lat":43.298566,"lon":5.362961,"is_reserved":false,"is_disabled":false,"rental_uris":{"android":"levelo://app?vid=fb0106c4-ee66-4ff0-904c-a6ed80b7463c","ios":"levelo://app?vid=fb0106c4-ee66-4ff0-904c-a6ed80b7463c"},"vehicle_type_id":"4","last_reported":1688019030,"current_range_meters":28800,"station_id":"ce4bgpp2rcd13ifvqc3g","pricing_plan_id":"free"},{"bike_id":"ce7c8b77-6216-44fa-b460-cf44a0f71a1e","system_id":"levelo_inurba_marseille","lat":43.29849,"lon":5.36291,"is_reserved":false,"is_disabled":false,"rental_uris":{"android":"levelo://app?vid=ce7c8b77-6216-44fa-b460-cf44a0f71a1e","ios":"levelo://app?vid=ce7c8b77-6216-44fa-b460-cf44a0f71a1e"},"vehicle_type_id":"4","last_reported":1688019030,"current_range_meters":10000,"station_id":"ce4bgpp2rcd13ifvqc3g","pricing_plan_id":"free"},{"bike_id":"cc4f3e0e-29f4-426f-811e-0a3daf7bb18b","system_id":"levelo_inurba_marseille","lat":43.30542,"lon":5.38425,"is_reserved":false,"is_disabled":false,"rental_uris":{"android":"levelo://app?vid=cc4f3e0e-29f4-426f-811e-0a3daf7bb18b","ios":"levelo://app?vid=cc4f3e0e-29f4-426f-811e-0a3daf7bb18b"},"vehicle_type_id":"4","last_reported":1688019030,"current_range_meters":4400,"station_id":"ce4bgg92rcd13ifvqb30","pricing_plan_id":"free"},{"bike_id":"62584700-e2e2-4bbd-a67a-bd733d28b430","system_id":"levelo_inurba_marseille","lat":43.30544,"lon":5.38429,"is_reserved":false,"is_disabled":false,"rental_uris":{"android":"levelo://app?vid=62584700-e2e2-4bbd-a67a-bd733d28b430","ios":"levelo://app?vid=62584700-e2e2-4bbd-a67a-bd733d28b430"},"vehicle_type_id":"4","last_reported":1688019030,"current_range_meters":12800,"station_id":"ce4bgg92rcd13ifvqb30","pricing_plan_id":"free"},{"bike_id":"1b0667aa-4aee-424a-8d6f-cfe4a932222b","system_id":"levelo_inurba_marseille","lat":43.30541,"lon":5.38427,"is_reserved":false,"is_disabled":false,"rental_uris":{"android":"levelo://app?vid=1b0667aa-4aee-424a-8d6f-cfe4a932222b","ios":"levelo://app?vid=1b0667aa-4aee-424a-8d6f-cfe4a932222b"},"vehicle_type_id":"4","last_reported":1688019030,"current_range_meters":13600,"station_id":"ce4bgg92rcd13ifvqb30","pricing_plan_id":"free"},{"bike_id":"b786931a-268f-48dd-b096-bf600a9c6aa5","system_id":"levelo_inurba_marseille","lat":43.29924,"lon":5.37455,"is_reserved":false,"is_disabled":false,"rental_uris":{"android":"levelo://app?vid=b786931a-268f-48dd-b096-bf600a9c6aa5","ios":"levelo://app?vid=b786931a-268f-48dd-b096-bf600a9c6aa5"},"vehicle_type_id":"4","last_reported":1688019030,"current_range_meters":0,"station_id":"ce4bgjh2rcd13ifvqbg0","pricing_plan_id":"free"},{"bike_id":"f6491a13-91fd-4e51-b010-42cc9b618007","system_id":"levelo_inurba_marseille","lat":43.30542,"lon":5.38428,"is_reserved":false,"is_disabled":false,"rental_uris":{"android":"levelo://app?vid=f6491a13-91fd-4e51-b010-42cc9b618007","ios":"levelo://app?vid=f6491a13-91fd-4e51-b010-42cc9b618007"},"vehicle_type_id":"4","last_reported":1688019030,"current_range_meters":30400,"station_id":"ce4bgg92rcd13ifvqb30","pricing_plan_id":"free"},{"bike_id":"375846e4-f3a0-400b-a72f-1c91e1f1926d","system_id":"levelo_inurba_marseille","lat":43.30537,"lon":5.38427,"is_reserved":false,"is_disabled":false,"rental_uris":{"android":"levelo://app?vid=375846e4-f3a0-400b-a72f-1c91e1f1926d","ios":"levelo://app?vid=375846e4-f3a0-400b-a72f-1c91e1f1926d"},"vehicle_type_id":"4","last_reported":1688019030,"current_range_meters":22000,"station_id":"ce4bgg92rcd13ifvqb30","pricing_plan_id":"free"},{"bike_id":"101875b6-d285-4f45-a14e-69dbe523c234","system_id":"levelo_inurba_marseille","lat":43.30551,"lon":5.38441,"is_reserved":false,"is_disabled":false,"rental_uris":{"android":"levelo://app?vid=101875b6-d285-4f45-a14e-69dbe523c234","ios":"levelo://app?vid=101875b6-d285-4f45-a14e-69dbe523c234"},"vehicle_type_id":"4","last_reported":1688019030,"current_range_meters":16400,"station_id":"ce4bgg92rcd13ifvqb30","pricing_plan_id":"free"},{"bike_id":"1c441bea-3b37-4a82-b1d1-3cd14afe21f5","system_id":"levelo_inurba_marseille","lat":43.298433,"lon":5.362774,"is_reserved":false,"is_disabled":false,"rental_uris":{"android":"levelo://app?vid=1c441bea-3b37-4a82-b1d1-3cd14afe21f5","ios":"levelo://app?vid=1c441bea-3b37-4a82-b1d1-3cd14afe21f5"},"vehicle_type_id":"4","last_reported":1688019030,"current_range_meters":24400,"station_id":"ce4bgpp2rcd13ifvqc3g","pricing_plan_id":"free"},{"bike_id":"402ba3b8-6671-4f22-ae2a-ad19bdd58f7c","system_id":"levelo_inurba_marseille","lat":43.328371,"lon":5.366909,"is_reserved":false,"is_disabled":false,"rental_uris":{"android":"levelo://app?vid=402ba3b8-6671-4f22-ae2a-ad19bdd58f7c","ios":"levelo://app?vid=402ba3b8-6671-4f22-ae2a-ad19bdd58f7c"},"vehicle_type_id":"4","last_reported":1688019030,"current_range_meters":30400,"station_id":"ce4bhs92rcd13ifvqi0g","pricing_plan_id":"free"},{"bike_id":"0437ffa0-8102-4bb9-a1c7-63c8304f83f8","system_id":"levelo_inurba_marseille","lat":43.328371,"lon":5.366909,"is_reserved":false,"is_disabled":false,"rental_uris":{"android":"levelo://app?vid=0437ffa0-8102-4bb9-a1c7-63c8304f83f8","ios":"levelo://app?vid=0437ffa0-8102-4bb9-a1c7-63c8304f83f8"},"vehicle_type_id":"4","last_reported":1688019030,"current_range_meters":31200,"station_id":"ce4bhs92rcd13ifvqi0g","pricing_plan_id":"free"},{"bike_id":"4ad0820a-b4f0-4687-9297-85e68595ea74","system_id":"levelo_inurba_marseille","lat":43.328371,"lon":5.366909,"is_reserved":false,"is_disabled":false,"rental_uris":{"android":"levelo://app?vid=4ad0820a-b4f0-4687-9297-85e68595ea74","ios":"levelo://app?vid=4ad0820a-b4f0-4687-9297-85e68595ea74"},"vehicle_type_id":"4","last_reported":1688019030,"current_range_meters":12800,"station_id":"ce4bhs92rcd13ifvqi0g","pricing_plan_id":"free"},{"bike_id":"783683ac-9ca0-4d0b-9d55-dd150046cbd8","system_id":"levelo_inurba_marseille","lat":43.328371,"lon":5.366909,"is_reserved":false,"is_disabled":false,"rental_uris":{"android":"levelo://app?vid=783683ac-9ca0-4d0b-9d55-dd150046cbd8","ios":"levelo://app?vid=783683ac-9ca0-4d0b-9d55-dd150046cbd8"},"vehicle_type_id":"4","last_reported":1688019030,"current_range_meters":23600,"station_id":"ce4bhs92rcd13ifvqi0g","pricing_plan_id":"free"},{"bike_id":"a8856259-ebd9-40c9-ac17-cc683c6c5114","system_id":"levelo_inurba_marseille","lat":43.328371,"lon":5.366909,"is_reserved":false,"is_disabled":false,"rental_uris":{"android":"levelo://app?vid=a8856259-ebd9-40c9-ac17-cc683c6c5114","ios":"levelo://app?vid=a8856259-ebd9-40c9-ac17-cc683c6c5114"},"vehicle_type_id":"4","last_reported":1688019030,"current_range_meters":18400,"station_id":"ce4bhs92rcd13ifvqi0g","pricing_plan_id":"free"},{"bike_id":"aba24cac-9149-4a7e-be6a-f15d19b76734","system_id":"levelo_inurba_marseille","lat":43.32828,"lon":5.36687,"is_reserved":false,"is_disabled":false,"rental_uris":{"android":"levelo://app?vid=aba24cac-9149-4a7e-be6a-f15d19b76734","ios":"levelo://app?vid=aba24cac-9149-4a7e-be6a-f15d19b76734"},"vehicle_type_id":"4","last_reported":1688019030,"current_range_meters":26000,"station_id":"ce4bhs92rcd13ifvqi0g","pricing_plan_id":"free"},{"bike_id":"86b9fb7f-a2c3-4082-9faa-7e3f901f5c30","system_id":"levelo_inurba_marseille","lat":43.328371,"lon":5.366909,"is_reserved":false,"is_disabled":false,"rental_uris":{"android":"levelo://app?vid=86b9fb7f-a2c3-4082-9faa-7e3f901f5c30","ios":"levelo://app?vid=86b9fb7f-a2c3-4082-9faa-7e3f901f5c30"},"vehicle_type_id":"4","last_reported":1688019030,"current_range_meters":17200,"station_id":"ce4bhs92rcd13ifvqi0g","pricing_plan_id":"free"},{"bike_id":"07fc5e4e-23c0-4e7f-baff-848452f6a527","system_id":"levelo_inurba_marseille","lat":43.328371,"lon":5.366909,"is_reserved":false,"is_disabled":false,"rental_uris":{"android":"levelo://app?vid=07fc5e4e-23c0-4e7f-baff-848452f6a527","ios":"levelo://app?vid=07fc5e4e-23c0-4e7f-baff-848452f6a527"},"vehicle_type_id":"4","last_reported":1688019030,"current_range_meters":20000,"station_id":"ce4bhs92rcd13ifvqi0g","pricing_plan_id":"free"},{"bike_id":"462db590-b876-4a06-b3ad-4990340677a3","system_id":"levelo_inurba_marseille","lat":43.328371,"lon":5.366909,"is_reserved":false,"is_disabled":false,"rental_uris":{"android":"levelo://app?vid=462db590-b876-4a06-b3ad-4990340677a3","ios":"levelo://app?vid=462db590-b876-4a06-b3ad-4990340677a3"},"vehicle_type_id":"4","last_reported":1688019030,"current_range_meters":22400,"station_id":"ce4bhs92rcd13ifvqi0g","pricing_plan_id":"free"},{"bike_id":"52c17931-f235-4280-a010-fb1d15e44b39","system_id":"levelo_inurba_marseille","lat":43.32835,"lon":5.36679,"is_reserved":false,"is_disabled":false,"rental_uris":{"android":"levelo://app?vid=52c17931-f235-4280-a010-fb1d15e44b39","ios":"levelo://app?vid=52c17931-f235-4280-a010-fb1d15e44b39"},"vehicle_type_id":"4","last_reported":1688019030,"current_range_meters":26000,"station_id":"ce4bhs92rcd13ifvqi0g","pricing_plan_id":"free"},{"bike_id":"b1950386-65cd-46ee-aff6-058967088e94","system_id":"levelo_inurba_marseille","lat":43.297163,"lon":5.365866,"is_reserved":false,"is_disabled":false,"rental_uris":{"android":"levelo://app?vid=b1950386-65cd-46ee-aff6-058967088e94","ios":"levelo://app?vid=b1950386-65cd-46ee-aff6-058967088e94"},"vehicle_type_id":"4","last_reported":1688019030,"current_range_meters":29200,"station_id":"ce4bgn12rcd13ifvqbt0","pricing_plan_id":"free"},{"bike_id":"8d98417a-cbe4-4269-8bc9-598373a7d5de","system_id":"levelo_inurba_marseille","lat":43.32866,"lon":5.36295,"is_reserved":false,"is_disabled":false,"rental_uris":{"android":"levelo://app?vid=8d98417a-cbe4-4269-8bc9-598373a7d5de","ios":"levelo://app?vid=8d98417a-cbe4-4269-8bc9-598373a7d5de"},"vehicle_type_id":"4","last_reported":1688019030,"current_range_meters":0,"station_id":"","pricing_plan_id":"free"},{"bike_id":"8a0f29df-1c47-4742-9cca-bceef00c6fe9","system_id":"levelo_inurba_marseille","lat":43.31519,"lon":5.3892,"is_reserved":false,"is_disabled":false,"rental_uris":{"android":"levelo://app?vid=8a0f29df-1c47-4742-9cca-bceef00c6fe9","ios":"levelo://app?vid=8a0f29df-1c47-4742-9cca-bceef00c6fe9"},"vehicle_type_id":"4","last_reported":1688019030,"current_range_meters":27200,"station_id":"","pricing_plan_id":"free"},{"bike_id":"2745a0ee-8120-48d9-bf79-f45b2a1a14d7","system_id":"levelo_inurba_marseille","lat":43.2968,"lon":5.37291,"is_reserved":false,"is_disabled":false,"rental_uris":{"android":"levelo://app?vid=2745a0ee-8120-48d9-bf79-f45b2a1a14d7","ios":"levelo://app?vid=2745a0ee-8120-48d9-bf79-f45b2a1a14d7"},"vehicle_type_id":"4","last_reported":1688019030,"current_range_meters":28000,"station_id":"ce4bgk12rcd13ifvqbj0","pricing_plan_id":"free"},{"bike_id":"a6ea72aa-47d4-4c54-bd46-2a7f20f273b5","system_id":"levelo_inurba_marseille","lat":43.296131,"lon":5.370773,"is_reserved":false,"is_disabled":false,"rental_uris":{"android":"levelo://app?vid=a6ea72aa-47d4-4c54-bd46-2a7f20f273b5","ios":"levelo://app?vid=a6ea72aa-47d4-4c54-bd46-2a7f20f273b5"},"vehicle_type_id":"4","last_reported":1688019030,"current_range_meters":30400,"station_id":"ce4bgnh2rcd13ifvqc0g","pricing_plan_id":"free"},{"bike_id":"02bc03f1-ccca-43f5-839f-728790c19b1c","system_id":"levelo_inurba_marseille","lat":43.296131,"lon":5.370773,"is_reserved":false,"is_disabled":false,"rental_uris":{"android":"levelo://app?vid=02bc03f1-ccca-43f5-839f-728790c19b1c","ios":"levelo://app?vid=02bc03f1-ccca-43f5-839f-728790c19b1c"},"vehicle_type_id":"4","last_reported":1688019030,"current_range_meters":31200,"station_id":"ce4bgnh2rcd13ifvqc0g","pricing_plan_id":"free"},{"bike_id":"72264398-ffc6-4148-addb-6a3bbbf2876f","system_id":"levelo_inurba_marseille","lat":43.296131,"lon":5.370773,"is_reserved":false,"is_disabled":false,"rental_uris":{"android":"levelo://app?vid=72264398-ffc6-4148-addb-6a3bbbf2876f","ios":"levelo://app?vid=72264398-ffc6-4148-addb-6a3bbbf2876f"},"vehicle_type_id":"4","last_reported":1688019030,"current_range_meters":10000,"station_id":"ce4bgnh2rcd13ifvqc0g","pricing_plan_id":"free"},{"bike_id":"daf7a1e7-7d92-47e9-b05a-4e02fe8de392","system_id":"levelo_inurba_marseille","lat":43.29573,"lon":5.367355,"is_reserved":false,"is_disabled":false,"rental_uris":{"android":"levelo://app?vid=daf7a1e7-7d92-47e9-b05a-4e02fe8de392","ios":"levelo://app?vid=daf7a1e7-7d92-47e9-b05a-4e02fe8de392"},"vehicle_type_id":"4","last_reported":1688019030,"current_range_meters":6000,"station_id":"ce4bgph2rcd13ifvqc2g","pricing_plan_id":"free"},{"bike_id":"9e685e36-17d6-404b-90b4-42cd61cd4fa8","system_id":"levelo_inurba_marseille","lat":43.29573,"lon":5.367355,"is_reserved":false,"is_disabled":false,"rental_uris":{"android":"levelo://app?vid=9e685e36-17d6-404b-90b4-42cd61cd4fa8","ios":"levelo://app?vid=9e685e36-17d6-404b-90b4-42cd61cd4fa8"},"vehicle_type_id":"4","last_reported":1688019030,"current_range_meters":30000,"station_id":"ce4bgph2rcd13ifvqc2g","pricing_plan_id":"free"},{"bike_id":"c10e0bb7-1a39-4db4-b315-0cd72e5af236","system_id":"levelo_inurba_marseille","lat":43.317557,"lon":5.390173,"is_reserved":false,"is_disabled":false,"rental_uris":{"android":"levelo://app?vid=c10e0bb7-1a39-4db4-b315-0cd72e5af236","ios":"levelo://app?vid=c10e0bb7-1a39-4db4-b315-0cd72e5af236"},"vehicle_type_id":"4","last_reported":1688019030,"current_range_meters":26800,"station_id":"ce4bhqp2rcd13ifvqhng","pricing_plan_id":"free"},{"bike_id":"183f2102-0d6e-4b49-9474-b70bc6c4cb3e","system_id":"levelo_inurba_marseille","lat":43.31761,"lon":5.39006,"is_reserved":false,"is_disabled":false,"rental_uris":{"android":"levelo://app?vid=183f2102-0d6e-4b49-9474-b70bc6c4cb3e","ios":"levelo://app?vid=183f2102-0d6e-4b49-9474-b70bc6c4cb3e"},"vehicle_type_id":"4","last_reported":1688019030,"current_range_meters":16000,"station_id":"ce4bhqp2rcd13ifvqhng","pricing_plan_id":"free"},{"bike_id":"6e697468-4b87-48f1-bb0e-7028d9af6005","system_id":"levelo_inurba_marseille","lat":43.31753,"lon":5.39015,"is_reserved":false,"is_disabled":false,"rental_uris":{"android":"levelo://app?vid=6e697468-4b87-48f1-bb0e-7028d9af6005","ios":"levelo://app?vid=6e697468-4b87-48f1-bb0e-7028d9af6005"},"vehicle_type_id":"4","last_reported":1688019030,"current_range_meters":7600,"station_id":"ce4bhqp2rcd13ifvqhng","pricing_plan_id":"free"},{"bike_id":"85dc18e1-dedd-449e-a51c-90ae514b182b","system_id":"levelo_inurba_marseille","lat":43.317557,"lon":5.390173,"is_reserved":false,"is_disabled":false,"rental_uris":{"android":"levelo://app?vid=85dc18e1-dedd-449e-a51c-90ae514b182b","ios":"levelo://app?vid=85dc18e1-dedd-449e-a51c-90ae514b182b"},"vehicle_type_id":"4","last_reported":1688019030,"current_range_meters":30800,"station_id":"ce4bhqp2rcd13ifvqhng","pricing_plan_id":"free"},{"bike_id":"fd44272b-efc7-40de-9be8-4a1d38c4952b","system_id":"levelo_inurba_marseille","lat":43.317557,"lon":5.390173,"is_reserved":false,"is_disabled":false,"rental_uris":{"android":"levelo://app?vid=fd44272b-efc7-40de-9be8-4a1d38c4952b","ios":"levelo://app?vid=fd44272b-efc7-40de-9be8-4a1d38c4952b"},"vehicle_type_id":"4","last_reported":1688019030,"current_range_meters":24400,"station_id":"ce4bhqp2rcd13ifvqhng","pricing_plan_id":"free"},{"bike_id":"886c96eb-831e-4df0-b49f-b9285d1b7c2d","system_id":"levelo_inurba_marseille","lat":43.317557,"lon":5.390173,"is_reserved":false,"is_disabled":false,"rental_uris":{"android":"levelo://app?vid=886c96eb-831e-4df0-b49f-b9285d1b7c2d","ios":"levelo://app?vid=886c96eb-831e-4df0-b49f-b9285d1b7c2d"},"vehicle_type_id":"4","last_reported":1688019030,"current_range_meters":24000,"station_id":"ce4bhqp2rcd13ifvqhng","pricing_plan_id":"free"},{"bike_id":"87fe7ecc-58f3-4d60-a392-44f44f76d63a","system_id":"levelo_inurba_marseille","lat":43.3176,"lon":5.39017,"is_reserved":false,"is_disabled":false,"rental_uris":{"android":"levelo://app?vid=87fe7ecc-58f3-4d60-a392-44f44f76d63a","ios":"levelo://app?vid=87fe7ecc-58f3-4d60-a392-44f44f76d63a"},"vehicle_type_id":"4","last_reported":1688019030,"current_range_meters":31200,"station_id":"ce4bhqp2rcd13ifvqhng","pricing_plan_id":"free"},{"bike_id":"af36ff0a-bd97-4d56-8581-1343aca75b9f","system_id":"levelo_inurba_marseille","lat":43.31757,"lon":5.39021,"is_reserved":false,"is_disabled":false,"rental_uris":{"android":"levelo://app?vid=af36ff0a-bd97-4d56-8581-1343aca75b9f","ios":"levelo://app?vid=af36ff0a-bd97-4d56-8581-1343aca75b9f"},"vehicle_type_id":"4","last_reported":1688019030,"current_range_meters":6400,"station_id":"ce4bhqp2rcd13ifvqhng","pricing_plan_id":"free"},{"bike_id":"58c8632f-8960-459d-9749-0913f3c0c6f5","system_id":"levelo_inurba_marseille","lat":43.29797,"lon":5.38101,"is_reserved":false,"is_disabled":false,"rental_uris":{"android":"levelo://app?vid=58c8632f-8960-459d-9749-0913f3c0c6f5","ios":"levelo://app?vid=58c8632f-8960-459d-9749-0913f3c0c6f5"},"vehicle_type_id":"4","last_reported":1688019030,"current_range_meters":18800,"station_id":"ce4bgip2rcd13ifvqbb0","pricing_plan_id":"free"},{"bike_id":"9dddb9e9-0b4d-411b-9152-05f8717e3bd6","system_id":"levelo_inurba_marseille","lat":43.304278,"lon":5.388868,"is_reserved":false,"is_disabled":false,"rental_uris":{"android":"levelo://app?vid=9dddb9e9-0b4d-411b-9152-05f8717e3bd6","ios":"levelo://app?vid=9dddb9e9-0b4d-411b-9152-05f8717e3bd6"},"vehicle_type_id":"4","last_reported":1688019030,"current_range_meters":20800,"station_id":"ce4bgk12rcd13ifvqbi0","pricing_plan_id":"free"},{"bike_id":"081162b8-13a7-48c8-bba5-1e5cc130b4ca","system_id":"levelo_inurba_marseille","lat":43.304278,"lon":5.388868,"is_reserved":false,"is_disabled":false,"rental_uris":{"android":"levelo://app?vid=081162b8-13a7-48c8-bba5-1e5cc130b4ca","ios":"levelo://app?vid=081162b8-13a7-48c8-bba5-1e5cc130b4ca"},"vehicle_type_id":"4","last_reported":1688019030,"current_range_meters":30800,"station_id":"ce4bgk12rcd13ifvqbi0","pricing_plan_id":"free"},{"bike_id":"0e2d1fcc-de9f-491c-92d3-3d6ce4b6d325","system_id":"levelo_inurba_marseille","lat":43.304274,"lon":5.388873,"is_reserved":false,"is_disabled":false,"rental_uris":{"android":"levelo://app?vid=0e2d1fcc-de9f-491c-92d3-3d6ce4b6d325","ios":"levelo://app?vid=0e2d1fcc-de9f-491c-92d3-3d6ce4b6d325"},"vehicle_type_id":"4","last_reported":1688019030,"current_range_meters":31200,"station_id":"ce4bgk12rcd13ifvqbi0","pricing_plan_id":"free"},{"bike_id":"bbdcef07-ca64-4357-b184-f3f18b2de7a2","system_id":"levelo_inurba_marseille","lat":43.30436,"lon":5.38893,"is_reserved":false,"is_disabled":false,"rental_uris":{"android":"levelo://app?vid=bbdcef07-ca64-4357-b184-f3f18b2de7a2","ios":"levelo://app?vid=bbdcef07-ca64-4357-b184-f3f18b2de7a2"},"vehicle_type_id":"4","last_reported":1688019030,"current_range_meters":30800,"station_id":"ce4bgk12rcd13ifvqbi0","pricing_plan_id":"free"},{"bike_id":"1fd043d1-b349-444b-9c5c-4f853d4348e3","system_id":"levelo_inurba_marseille","lat":43.29618,"lon":5.37712,"is_reserved":false,"is_disabled":false,"rental_uris":{"android":"levelo://app?vid=1fd043d1-b349-444b-9c5c-4f853d4348e3","ios":"levelo://app?vid=1fd043d1-b349-444b-9c5c-4f853d4348e3"},"vehicle_type_id":"4","last_reported":1688019030,"current_range_meters":31200,"station_id":"ce4bgi92rcd13ifvqb90","pricing_plan_id":"free"},{"bike_id":"a1969672-49f3-4775-b4e9-9e1d140ca00b","system_id":"levelo_inurba_marseille","lat":43.29981,"lon":5.38483,"is_reserved":false,"is_disabled":false,"rental_uris":{"android":"levelo://app?vid=a1969672-49f3-4775-b4e9-9e1d140ca00b","ios":"levelo://app?vid=a1969672-49f3-4775-b4e9-9e1d140ca00b"},"vehicle_type_id":"4","last_reported":1688019030,"current_range_meters":1200,"station_id":"ce4bgj92rcd13ifvqbd0","pricing_plan_id":"free"},{"bike_id":"25e5491a-b7a8-4408-8c8b-9094b045bc2e","system_id":"levelo_inurba_marseille","lat":43.295279,"lon":5.375048,"is_reserved":false,"is_disabled":false,"rental_uris":{"android":"levelo://app?vid=25e5491a-b7a8-4408-8c8b-9094b045bc2e","ios":"levelo://app?vid=25e5491a-b7a8-4408-8c8b-9094b045bc2e"},"vehicle_type_id":"4","last_reported":1688019030,"current_range_meters":25600,"station_id":"ce4bgkp2rcd13ifvqbmg","pricing_plan_id":"free"},{"bike_id":"eb886fca-52b6-4614-b06f-1805965dde05","system_id":"levelo_inurba_marseille","lat":43.32362,"lon":5.38872,"is_reserved":false,"is_disabled":false,"rental_uris":{"android":"levelo://app?vid=eb886fca-52b6-4614-b06f-1805965dde05","ios":"levelo://app?vid=eb886fca-52b6-4614-b06f-1805965dde05"},"vehicle_type_id":"4","last_reported":1688019030,"current_range_meters":30800,"station_id":"ce4bhqp2rcd13ifvqhog","pricing_plan_id":"free"},{"bike_id":"f643e89f-7b99-471b-bb9b-6e4b4a01963a","system_id":"levelo_inurba_marseille","lat":43.32363,"lon":5.38875,"is_reserved":false,"is_disabled":false,"rental_uris":{"android":"levelo://app?vid=f643e89f-7b99-471b-bb9b-6e4b4a01963a","ios":"levelo://app?vid=f643e89f-7b99-471b-bb9b-6e4b4a01963a"},"vehicle_type_id":"4","last_reported":1688019030,"current_range_meters":31200,"station_id":"ce4bhqp2rcd13ifvqhog","pricing_plan_id":"free"},{"bike_id":"c5beb34f-c736-47d1-a353-cd99976b1013","system_id":"levelo_inurba_marseille","lat":43.32367,"lon":5.388836,"is_reserved":false,"is_disabled":false,"rental_uris":{"android":"levelo://app?vid=c5beb34f-c736-47d1-a353-cd99976b1013","ios":"levelo://app?vid=c5beb34f-c736-47d1-a353-cd99976b1013"},"vehicle_type_id":"4","last_reported":1688019030,"current_range_meters":8400,"station_id":"ce4bhqp2rcd13ifvqhog","pricing_plan_id":"free"},{"bike_id":"dc198606-a22d-4666-8f25-25f1597c7a6b","system_id":"levelo_inurba_marseille","lat":43.32367,"lon":5.388836,"is_reserved":false,"is_disabled":false,"rental_uris":{"android":"levelo://app?vid=dc198606-a22d-4666-8f25-25f1597c7a6b","ios":"levelo://app?vid=dc198606-a22d-4666-8f25-25f1597c7a6b"},"vehicle_type_id":"4","last_reported":1688019030,"current_range_meters":12400,"station_id":"ce4bhqp2rcd13ifvqhog","pricing_plan_id":"free"},{"bike_id":"3b460742-8001-4680-8942-abbbe8bfcb64","system_id":"levelo_inurba_marseille","lat":43.32365,"lon":5.3888,"is_reserved":false,"is_disabled":false,"rental_uris":{"android":"levelo://app?vid=3b460742-8001-4680-8942-abbbe8bfcb64","ios":"levelo://app?vid=3b460742-8001-4680-8942-abbbe8bfcb64"},"vehicle_type_id":"4","last_reported":1688019030,"current_range_meters":21200,"station_id":"ce4bhqp2rcd13ifvqhog","pricing_plan_id":"free"},{"bike_id":"227ae2a4-c44d-4dab-9e1d-f6fd4855e662","system_id":"levelo_inurba_marseille","lat":43.32365,"lon":5.38883,"is_reserved":false,"is_disabled":false,"rental_uris":{"android":"levelo://app?vid=227ae2a4-c44d-4dab-9e1d-f6fd4855e662","ios":"levelo://app?vid=227ae2a4-c44d-4dab-9e1d-f6fd4855e662"},"vehicle_type_id":"4","last_reported":1688019030,"current_range_meters":0,"station_id":"ce4bhqp2rcd13ifvqhog","pricing_plan_id":"free"},{"bike_id":"6047a7c6-8c97-46b2-8fe1-2c9b8980c374","system_id":"levelo_inurba_marseille","lat":43.32367,"lon":5.388836,"is_reserved":false,"is_disabled":false,"rental_uris":{"android":"levelo://app?vid=6047a7c6-8c97-46b2-8fe1-2c9b8980c374","ios":"levelo://app?vid=6047a7c6-8c97-46b2-8fe1-2c9b8980c374"},"vehicle_type_id":"4","last_reported":1688019030,"current_range_meters":30800,"station_id":"ce4bhqp2rcd13ifvqhog","pricing_plan_id":"free"},{"bike_id":"60fd608b-ac7b-4f8d-83c9-1e65e52cca81","system_id":"levelo_inurba_marseille","lat":43.32367,"lon":5.38883,"is_reserved":false,"is_disabled":false,"rental_uris":{"android":"levelo://app?vid=60fd608b-ac7b-4f8d-83c9-1e65e52cca81","ios":"levelo://app?vid=60fd608b-ac7b-4f8d-83c9-1e65e52cca81"},"vehicle_type_id":"4","last_reported":1688019030,"current_range_meters":23600,"station_id":"ce4bhqp2rcd13ifvqhog","pricing_plan_id":"free"},{"bike_id":"a9751b2e-ff35-4236-a8b3-18c2895411ad","system_id":"levelo_inurba_marseille","lat":43.32367,"lon":5.388836,"is_reserved":false,"is_disabled":false,"rental_uris":{"android":"levelo://app?vid=a9751b2e-ff35-4236-a8b3-18c2895411ad","ios":"levelo://app?vid=a9751b2e-ff35-4236-a8b3-18c2895411ad"},"vehicle_type_id":"4","last_reported":1688019030,"current_range_meters":31200,"station_id":"ce4bhqp2rcd13ifvqhog","pricing_plan_id":"free"},{"bike_id":"4b4e611d-1b21-4fe6-a41f-8225e3e3ac40","system_id":"levelo_inurba_marseille","lat":43.32367,"lon":5.388836,"is_reserved":false,"is_disabled":false,"rental_uris":{"android":"levelo://app?vid=4b4e611d-1b21-4fe6-a41f-8225e3e3ac40","ios":"levelo://app?vid=4b4e611d-1b21-4fe6-a41f-8225e3e3ac40"},"vehicle_type_id":"4","last_reported":1688019030,"current_range_meters":25600,"station_id":"ce4bhqp2rcd13ifvqhog","pricing_plan_id":"free"},{"bike_id":"abd681d9-c52f-4774-a57c-e904eb472a58","system_id":"levelo_inurba_marseille","lat":43.32367,"lon":5.388836,"is_reserved":false,"is_disabled":false,"rental_uris":{"android":"levelo://app?vid=abd681d9-c52f-4774-a57c-e904eb472a58","ios":"levelo://app?vid=abd681d9-c52f-4774-a57c-e904eb472a58"},"vehicle_type_id":"4","last_reported":1688019030,"current_range_meters":31200,"station_id":"ce4bhqp2rcd13ifvqhog","pricing_plan_id":"free"},{"bike_id":"dfb50179-c345-41ab-a383-532269ec033a","system_id":"levelo_inurba_marseille","lat":43.32367,"lon":5.388836,"is_reserved":false,"is_disabled":false,"rental_uris":{"android":"levelo://app?vid=dfb50179-c345-41ab-a383-532269ec033a","ios":"levelo://app?vid=dfb50179-c345-41ab-a383-532269ec033a"},"vehicle_type_id":"4","last_reported":1688019030,"current_range_meters":9200,"station_id":"ce4bhqp2rcd13ifvqhog","pricing_plan_id":"free"},{"bike_id":"c737b305-2f9e-411a-b1ca-26b0f745d0f2","system_id":"levelo_inurba_marseille","lat":43.33188,"lon":5.36161,"is_reserved":false,"is_disabled":false,"rental_uris":{"android":"levelo://app?vid=c737b305-2f9e-411a-b1ca-26b0f745d0f2","ios":"levelo://app?vid=c737b305-2f9e-411a-b1ca-26b0f745d0f2"},"vehicle_type_id":"4","last_reported":1688019030,"current_range_meters":7200,"station_id":"","pricing_plan_id":"free"},{"bike_id":"1fbdb043-15d6-4b7d-b475-1e80ac0af422","system_id":"levelo_inurba_marseille","lat":43.29601,"lon":5.381084,"is_reserved":false,"is_disabled":false,"rental_uris":{"android":"levelo://app?vid=1fbdb043-15d6-4b7d-b475-1e80ac0af422","ios":"levelo://app?vid=1fbdb043-15d6-4b7d-b475-1e80ac0af422"},"vehicle_type_id":"4","last_reported":1688019030,"current_range_meters":29200,"station_id":"ce4bgl12rcd13ifvqbo0","pricing_plan_id":"free"},{"bike_id":"40b052f8-a011-4e66-aa5d-aeb00935e521","system_id":"levelo_inurba_marseille","lat":43.29602,"lon":5.381084,"is_reserved":false,"is_disabled":false,"rental_uris":{"android":"levelo://app?vid=40b052f8-a011-4e66-aa5d-aeb00935e521","ios":"levelo://app?vid=40b052f8-a011-4e66-aa5d-aeb00935e521"},"vehicle_type_id":"4","last_reported":1688019030,"current_range_meters":28800,"station_id":"ce4bgl12rcd13ifvqbo0","pricing_plan_id":"free"},{"bike_id":"26f5788d-31d2-4429-9839-820ee42b687f","system_id":"levelo_inurba_marseille","lat":43.292749,"lon":5.368398,"is_reserved":false,"is_disabled":false,"rental_uris":{"android":"levelo://app?vid=26f5788d-31d2-4429-9839-820ee42b687f","ios":"levelo://app?vid=26f5788d-31d2-4429-9839-820ee42b687f"},"vehicle_type_id":"4","last_reported":1688019030,"current_range_meters":9200,"station_id":"ce4bhbp2rcd13ifvqesg","pricing_plan_id":"free"},{"bike_id":"fc332a68-636f-4de0-8608-ee4a36fd0577","system_id":"levelo_inurba_marseille","lat":43.293249,"lon":5.371578,"is_reserved":false,"is_disabled":false,"rental_uris":{"android":"levelo://app?vid=fc332a68-636f-4de0-8608-ee4a36fd0577","ios":"levelo://app?vid=fc332a68-636f-4de0-8608-ee4a36fd0577"},"vehicle_type_id":"4","last_reported":1688019030,"current_range_meters":20800,"station_id":"ce4bgh92rcd13ifvqb40","pricing_plan_id":"free"},{"bike_id":"cec0f3b0-0913-47f6-9cf6-1289e93fa9d7","system_id":"levelo_inurba_marseille","lat":43.292749,"lon":5.368402,"is_reserved":false,"is_disabled":false,"rental_uris":{"android":"levelo://app?vid=cec0f3b0-0913-47f6-9cf6-1289e93fa9d7","ios":"levelo://app?vid=cec0f3b0-0913-47f6-9cf6-1289e93fa9d7"},"vehicle_type_id":"4","last_reported":1688019030,"current_range_meters":31600,"station_id":"ce4bhbp2rcd13ifvqesg","pricing_plan_id":"free"},{"bike_id":"d7884d76-1c43-4541-b2da-7c11e6d6ef11","system_id":"levelo_inurba_marseille","lat":43.292749,"lon":5.368402,"is_reserved":false,"is_disabled":false,"rental_uris":{"android":"levelo://app?vid=d7884d76-1c43-4541-b2da-7c11e6d6ef11","ios":"levelo://app?vid=d7884d76-1c43-4541-b2da-7c11e6d6ef11"},"vehicle_type_id":"4","last_reported":1688019030,"current_range_meters":17200,"station_id":"ce4bhbp2rcd13ifvqesg","pricing_plan_id":"free"},{"bike_id":"c6f83365-dc3e-4008-991d-7b246d6edbbd","system_id":"levelo_inurba_marseille","lat":43.292749,"lon":5.368402,"is_reserved":false,"is_disabled":false,"rental_uris":{"android":"levelo://app?vid=c6f83365-dc3e-4008-991d-7b246d6edbbd","ios":"levelo://app?vid=c6f83365-dc3e-4008-991d-7b246d6edbbd"},"vehicle_type_id":"4","last_reported":1688019030,"current_range_meters":31200,"station_id":"ce4bhbp2rcd13ifvqesg","pricing_plan_id":"free"},{"bike_id":"c57baacc-926b-4754-be71-c042ffb72c97","system_id":"levelo_inurba_marseille","lat":43.292749,"lon":5.368398,"is_reserved":false,"is_disabled":false,"rental_uris":{"android":"levelo://app?vid=c57baacc-926b-4754-be71-c042ffb72c97","ios":"levelo://app?vid=c57baacc-926b-4754-be71-c042ffb72c97"},"vehicle_type_id":"4","last_reported":1688019030,"current_range_meters":31200,"station_id":"ce4bhbp2rcd13ifvqesg","pricing_plan_id":"free"},{"bike_id":"d3b61ecb-5bf0-4808-a88d-50edf47c8e20","system_id":"levelo_inurba_marseille","lat":43.292749,"lon":5.368402,"is_reserved":false,"is_disabled":false,"rental_uris":{"android":"levelo://app?vid=d3b61ecb-5bf0-4808-a88d-50edf47c8e20","ios":"levelo://app?vid=d3b61ecb-5bf0-4808-a88d-50edf47c8e20"},"vehicle_type_id":"4","last_reported":1688019030,"current_range_meters":31600,"station_id":"ce4bhbp2rcd13ifvqesg","pricing_plan_id":"free"},{"bike_id":"4dfab534-5e54-48e9-925f-f1d40392f297","system_id":"levelo_inurba_marseille","lat":43.30601,"lon":5.39349,"is_reserved":false,"is_disabled":false,"rental_uris":{"android":"levelo://app?vid=4dfab534-5e54-48e9-925f-f1d40392f297","ios":"levelo://app?vid=4dfab534-5e54-48e9-925f-f1d40392f297"},"vehicle_type_id":"4","last_reported":1688019030,"current_range_meters":0,"station_id":"ce4bh0p2rcd13ifvqd80","pricing_plan_id":"free"},{"bike_id":"20c545f3-07ae-4d84-867b-08a1c9efd9cd","system_id":"levelo_inurba_marseille","lat":43.293009,"lon":5.374584,"is_reserved":false,"is_disabled":false,"rental_uris":{"android":"levelo://app?vid=20c545f3-07ae-4d84-867b-08a1c9efd9cd","ios":"levelo://app?vid=20c545f3-07ae-4d84-867b-08a1c9efd9cd"},"vehicle_type_id":"4","last_reported":1688019030,"current_range_meters":29200,"station_id":"ce4bgi12rcd13ifvqb70","pricing_plan_id":"free"},{"bike_id":"10fe7959-7f7b-4d57-8592-818a16e96ff0","system_id":"levelo_inurba_marseille","lat":43.305994,"lon":5.393687,"is_reserved":false,"is_disabled":false,"rental_uris":{"android":"levelo://app?vid=10fe7959-7f7b-4d57-8592-818a16e96ff0","ios":"levelo://app?vid=10fe7959-7f7b-4d57-8592-818a16e96ff0"},"vehicle_type_id":"4","last_reported":1688019030,"current_range_meters":31200,"station_id":"ce4bh0p2rcd13ifvqd80","pricing_plan_id":"free"},{"bike_id":"397aa999-0525-4784-9327-e28a9075814a","system_id":"levelo_inurba_marseille","lat":43.29223,"lon":5.36061,"is_reserved":false,"is_disabled":false,"rental_uris":{"android":"levelo://app?vid=397aa999-0525-4784-9327-e28a9075814a","ios":"levelo://app?vid=397aa999-0525-4784-9327-e28a9075814a"},"vehicle_type_id":"4","last_reported":1688019030,"current_range_meters":26400,"station_id":"","pricing_plan_id":"free"},{"bike_id":"15203370-12b6-4bd9-9556-772676c57688","system_id":"levelo_inurba_marseille","lat":43.29215,"lon":5.36055,"is_reserved":false,"is_disabled":false,"rental_uris":{"android":"levelo://app?vid=15203370-12b6-4bd9-9556-772676c57688","ios":"levelo://app?vid=15203370-12b6-4bd9-9556-772676c57688"},"vehicle_type_id":"4","last_reported":1688019030,"current_range_meters":31200,"station_id":"","pricing_plan_id":"free"},{"bike_id":"35bc0c56-2b80-4661-8b74-685c2ca9628a","system_id":"levelo_inurba_marseille","lat":43.2927,"lon":5.37622,"is_reserved":false,"is_disabled":false,"rental_uris":{"android":"levelo://app?vid=35bc0c56-2b80-4661-8b74-685c2ca9628a","ios":"levelo://app?vid=35bc0c56-2b80-4661-8b74-685c2ca9628a"},"vehicle_type_id":"4","last_reported":1688019030,"current_range_meters":30400,"station_id":"ce4bgi12rcd13ifvqb80","pricing_plan_id":"free"},{"bike_id":"781a14d6-7b93-4101-8669-f237e660a479","system_id":"levelo_inurba_marseille","lat":43.2926,"lon":5.37609,"is_reserved":false,"is_disabled":false,"rental_uris":{"android":"levelo://app?vid=781a14d6-7b93-4101-8669-f237e660a479","ios":"levelo://app?vid=781a14d6-7b93-4101-8669-f237e660a479"},"vehicle_type_id":"4","last_reported":1688019030,"current_range_meters":27600,"station_id":"ce4bgi12rcd13ifvqb80","pricing_plan_id":"free"},{"bike_id":"26cdd2da-f485-46c0-b854-83cc77531568","system_id":"levelo_inurba_marseille","lat":43.292663,"lon":5.376394,"is_reserved":false,"is_disabled":false,"rental_uris":{"android":"levelo://app?vid=26cdd2da-f485-46c0-b854-83cc77531568","ios":"levelo://app?vid=26cdd2da-f485-46c0-b854-83cc77531568"},"vehicle_type_id":"4","last_reported":1688019030,"current_range_meters":30800,"station_id":"ce4bgi12rcd13ifvqb80","pricing_plan_id":"free"},{"bike_id":"48822b9b-09cf-4079-b38e-076ea2e0c288","system_id":"levelo_inurba_marseille","lat":43.291675,"lon":5.371583,"is_reserved":false,"is_disabled":false,"rental_uris":{"android":"levelo://app?vid=48822b9b-09cf-4079-b38e-076ea2e0c288","ios":"levelo://app?vid=48822b9b-09cf-4079-b38e-076ea2e0c288"},"vehicle_type_id":"4","last_reported":1688019030,"current_range_meters":29200,"station_id":"ce4bha92rcd13ifvqeh0","pricing_plan_id":"free"},{"bike_id":"ea969a68-4e21-47ee-b610-c1550e135a0e","system_id":"levelo_inurba_marseille","lat":43.309038,"lon":5.396546,"is_reserved":false,"is_disabled":false,"rental_uris":{"android":"levelo://app?vid=ea969a68-4e21-47ee-b610-c1550e135a0e","ios":"levelo://app?vid=ea969a68-4e21-47ee-b610-c1550e135a0e"},"vehicle_type_id":"4","last_reported":1688019030,"current_range_meters":31200,"station_id":"ce4bh012rcd13ifvqcv0","pricing_plan_id":"free"},{"bike_id":"f77ecad7-f123-4c0a-bf68-57befe5e94b6","system_id":"levelo_inurba_marseille","lat":43.309038,"lon":5.396546,"is_reserved":false,"is_disabled":false,"rental_uris":{"android":"levelo://app?vid=f77ecad7-f123-4c0a-bf68-57befe5e94b6","ios":"levelo://app?vid=f77ecad7-f123-4c0a-bf68-57befe5e94b6"},"vehicle_type_id":"4","last_reported":1688019030,"current_range_meters":31200,"station_id":"ce4bh012rcd13ifvqcv0","pricing_plan_id":"free"},{"bike_id":"95e9287a-ba5a-46f7-b4bb-7be33bf6e61d","system_id":"levelo_inurba_marseille","lat":43.309038,"lon":5.396546,"is_reserved":false,"is_disabled":false,"rental_uris":{"android":"levelo://app?vid=95e9287a-ba5a-46f7-b4bb-7be33bf6e61d","ios":"levelo://app?vid=95e9287a-ba5a-46f7-b4bb-7be33bf6e61d"},"vehicle_type_id":"4","last_reported":1688019030,"current_range_meters":9200,"station_id":"ce4bh012rcd13ifvqcv0","pricing_plan_id":"free"},{"bike_id":"09536ee0-a80a-4816-a7f2-d344a901189d","system_id":"levelo_inurba_marseille","lat":43.29194,"lon":5.35801,"is_reserved":false,"is_disabled":false,"rental_uris":{"android":"levelo://app?vid=09536ee0-a80a-4816-a7f2-d344a901189d","ios":"levelo://app?vid=09536ee0-a80a-4816-a7f2-d344a901189d"},"vehicle_type_id":"4","last_reported":1688019030,"current_range_meters":22800,"station_id":"ce4bhb12rcd13ifvqel0","pricing_plan_id":"free"},{"bike_id":"0f37b807-bd94-4d2a-9948-0a3095a4e958","system_id":"levelo_inurba_marseille","lat":43.29192,"lon":5.35803,"is_reserved":false,"is_disabled":false,"rental_uris":{"android":"levelo://app?vid=0f37b807-bd94-4d2a-9948-0a3095a4e958","ios":"levelo://app?vid=0f37b807-bd94-4d2a-9948-0a3095a4e958"},"vehicle_type_id":"4","last_reported":1688019030,"current_range_meters":25200,"station_id":"ce4bhb12rcd13ifvqel0","pricing_plan_id":"free"},{"bike_id":"5ff91ee3-cdbb-4fe2-ac0f-69272597255d","system_id":"levelo_inurba_marseille","lat":43.30892,"lon":5.39646,"is_reserved":false,"is_disabled":false,"rental_uris":{"android":"levelo://app?vid=5ff91ee3-cdbb-4fe2-ac0f-69272597255d","ios":"levelo://app?vid=5ff91ee3-cdbb-4fe2-ac0f-69272597255d"},"vehicle_type_id":"4","last_reported":1688019030,"current_range_meters":22000,"station_id":"ce4bh012rcd13ifvqcv0","pricing_plan_id":"free"},{"bike_id":"40cb841a-849a-45ce-8d9d-8ffb233a759c","system_id":"levelo_inurba_marseille","lat":43.29189,"lon":5.35802,"is_reserved":false,"is_disabled":false,"rental_uris":{"android":"levelo://app?vid=40cb841a-849a-45ce-8d9d-8ffb233a759c","ios":"levelo://app?vid=40cb841a-849a-45ce-8d9d-8ffb233a759c"},"vehicle_type_id":"4","last_reported":1688019030,"current_range_meters":22800,"station_id":"ce4bhb12rcd13ifvqel0","pricing_plan_id":"free"},{"bike_id":"a0b1d88b-bb86-4845-8cfe-2b743d23cb4c","system_id":"levelo_inurba_marseille","lat":43.31331,"lon":5.39693,"is_reserved":false,"is_disabled":false,"rental_uris":{"android":"levelo://app?vid=a0b1d88b-bb86-4845-8cfe-2b743d23cb4c","ios":"levelo://app?vid=a0b1d88b-bb86-4845-8cfe-2b743d23cb4c"},"vehicle_type_id":"4","last_reported":1688019030,"current_range_meters":28000,"station_id":"ce4bgvp2rcd13ifvqcu0","pricing_plan_id":"free"},{"bike_id":"05cdaff0-2dee-4d32-8dee-c8536b3712f2","system_id":"levelo_inurba_marseille","lat":43.31341,"lon":5.39694,"is_reserved":false,"is_disabled":false,"rental_uris":{"android":"levelo://app?vid=05cdaff0-2dee-4d32-8dee-c8536b3712f2","ios":"levelo://app?vid=05cdaff0-2dee-4d32-8dee-c8536b3712f2"},"vehicle_type_id":"4","last_reported":1688019030,"current_range_meters":22800,"station_id":"ce4bgvp2rcd13ifvqcu0","pricing_plan_id":"free"},{"bike_id":"3488bca4-9c87-4b3e-8597-fc289ad66beb","system_id":"levelo_inurba_marseille","lat":43.31326,"lon":5.39697,"is_reserved":false,"is_disabled":false,"rental_uris":{"android":"levelo://app?vid=3488bca4-9c87-4b3e-8597-fc289ad66beb","ios":"levelo://app?vid=3488bca4-9c87-4b3e-8597-fc289ad66beb"},"vehicle_type_id":"4","last_reported":1688019030,"current_range_meters":8000,"station_id":"ce4bgvp2rcd13ifvqcu0","pricing_plan_id":"free"},{"bike_id":"11215a62-7565-400f-a689-882f728eec92","system_id":"levelo_inurba_marseille","lat":43.31338,"lon":5.39698,"is_reserved":false,"is_disabled":false,"rental_uris":{"android":"levelo://app?vid=11215a62-7565-400f-a689-882f728eec92","ios":"levelo://app?vid=11215a62-7565-400f-a689-882f728eec92"},"vehicle_type_id":"4","last_reported":1688019030,"current_range_meters":31200,"station_id":"ce4bgvp2rcd13ifvqcu0","pricing_plan_id":"free"},{"bike_id":"925bd06c-5a4e-42a5-9de5-34feee82d2ba","system_id":"levelo_inurba_marseille","lat":43.30889,"lon":5.39653,"is_reserved":false,"is_disabled":false,"rental_uris":{"android":"levelo://app?vid=925bd06c-5a4e-42a5-9de5-34feee82d2ba","ios":"levelo://app?vid=925bd06c-5a4e-42a5-9de5-34feee82d2ba"},"vehicle_type_id":"4","last_reported":1688019030,"current_range_meters":22400,"station_id":"","pricing_plan_id":"free"},{"bike_id":"32619e63-ef17-4ad1-adde-eadaf014f053","system_id":"levelo_inurba_marseille","lat":43.31332,"lon":5.39701,"is_reserved":false,"is_disabled":false,"rental_uris":{"android":"levelo://app?vid=32619e63-ef17-4ad1-adde-eadaf014f053","ios":"levelo://app?vid=32619e63-ef17-4ad1-adde-eadaf014f053"},"vehicle_type_id":"4","last_reported":1688019030,"current_range_meters":31200,"station_id":"ce4bgvp2rcd13ifvqcu0","pricing_plan_id":"free"},{"bike_id":"9836ceda-c455-4fc0-be08-89cad1b3c575","system_id":"levelo_inurba_marseille","lat":43.31336,"lon":5.39702,"is_reserved":false,"is_disabled":false,"rental_uris":{"android":"levelo://app?vid=9836ceda-c455-4fc0-be08-89cad1b3c575","ios":"levelo://app?vid=9836ceda-c455-4fc0-be08-89cad1b3c575"},"vehicle_type_id":"4","last_reported":1688019030,"current_range_meters":18800,"station_id":"ce4bgvp2rcd13ifvqcu0","pricing_plan_id":"free"},{"bike_id":"f50ae5bf-278f-48ef-b838-f4623a38d353","system_id":"levelo_inurba_marseille","lat":43.308787,"lon":5.396688,"is_reserved":false,"is_disabled":false,"rental_uris":{"android":"levelo://app?vid=f50ae5bf-278f-48ef-b838-f4623a38d353","ios":"levelo://app?vid=f50ae5bf-278f-48ef-b838-f4623a38d353"},"vehicle_type_id":"4","last_reported":1688019030,"current_range_meters":14000,"station_id":"","pricing_plan_id":"free"},{"bike_id":"7b46dd1f-41e8-4b73-baef-d93b5ae332f7","system_id":"levelo_inurba_marseille","lat":43.290779,"lon":5.371482,"is_reserved":false,"is_disabled":false,"rental_uris":{"android":"levelo://app?vid=7b46dd1f-41e8-4b73-baef-d93b5ae332f7","ios":"levelo://app?vid=7b46dd1f-41e8-4b73-baef-d93b5ae332f7"},"vehicle_type_id":"4","last_reported":1688019030,"current_range_meters":28400,"station_id":"ce4bh5p2rcd13ifvqe4g","pricing_plan_id":"free"},{"bike_id":"6867df42-30dd-4825-b7fe-404564247748","system_id":"levelo_inurba_marseille","lat":43.294174,"lon":5.386231,"is_reserved":false,"is_disabled":false,"rental_uris":{"android":"levelo://app?vid=6867df42-30dd-4825-b7fe-404564247748","ios":"levelo://app?vid=6867df42-30dd-4825-b7fe-404564247748"},"vehicle_type_id":"4","last_reported":1688019030,"current_range_meters":8000,"station_id":"","pricing_plan_id":"free"},{"bike_id":"399ef6b6-bd49-40a3-a085-0dfa050cfb9f","system_id":"levelo_inurba_marseille","lat":43.29411,"lon":5.38614,"is_reserved":false,"is_disabled":false,"rental_uris":{"android":"levelo://app?vid=399ef6b6-bd49-40a3-a085-0dfa050cfb9f","ios":"levelo://app?vid=399ef6b6-bd49-40a3-a085-0dfa050cfb9f"},"vehicle_type_id":"4","last_reported":1688019030,"current_range_meters":1200,"station_id":"","pricing_plan_id":"free"},{"bike_id":"09029260-e150-461c-923e-533fa3421568","system_id":"levelo_inurba_marseille","lat":43.290327,"lon":5.375711,"is_reserved":false,"is_disabled":false,"rental_uris":{"android":"levelo://app?vid=09029260-e150-461c-923e-533fa3421568","ios":"levelo://app?vid=09029260-e150-461c-923e-533fa3421568"},"vehicle_type_id":"4","last_reported":1688019030,"current_range_meters":30800,"station_id":"ce4bh692rcd13ifvqe90","pricing_plan_id":"free"},{"bike_id":"707182cc-0d34-4a70-b260-0bf7a0071cd3","system_id":"levelo_inurba_marseille","lat":43.292642,"lon":5.384254,"is_reserved":false,"is_disabled":false,"rental_uris":{"android":"levelo://app?vid=707182cc-0d34-4a70-b260-0bf7a0071cd3","ios":"levelo://app?vid=707182cc-0d34-4a70-b260-0bf7a0071cd3"},"vehicle_type_id":"4","last_reported":1688019030,"current_range_meters":28400,"station_id":"ce4bh692rcd13ifvqea0","pricing_plan_id":"free"},{"bike_id":"1deec734-5210-439e-b390-725ec2f70134","system_id":"levelo_inurba_marseille","lat":43.33038,"lon":5.38925,"is_reserved":false,"is_disabled":false,"rental_uris":{"android":"levelo://app?vid=1deec734-5210-439e-b390-725ec2f70134","ios":"levelo://app?vid=1deec734-5210-439e-b390-725ec2f70134"},"vehicle_type_id":"4","last_reported":1688019030,"current_range_meters":17200,"station_id":"ce4bhr92rcd13ifvqhrg","pricing_plan_id":"free"},{"bike_id":"f5bcc45d-d106-485b-932c-fb296afd3e24","system_id":"levelo_inurba_marseille","lat":43.33041,"lon":5.38921,"is_reserved":false,"is_disabled":false,"rental_uris":{"android":"levelo://app?vid=f5bcc45d-d106-485b-932c-fb296afd3e24","ios":"levelo://app?vid=f5bcc45d-d106-485b-932c-fb296afd3e24"},"vehicle_type_id":"4","last_reported":1688019030,"current_range_meters":17200,"station_id":"ce4bhr92rcd13ifvqhrg","pricing_plan_id":"free"},{"bike_id":"8690e345-5cc5-431c-92e0-a1eb4795645f","system_id":"levelo_inurba_marseille","lat":43.33044,"lon":5.38917,"is_reserved":false,"is_disabled":false,"rental_uris":{"android":"levelo://app?vid=8690e345-5cc5-431c-92e0-a1eb4795645f","ios":"levelo://app?vid=8690e345-5cc5-431c-92e0-a1eb4795645f"},"vehicle_type_id":"4","last_reported":1688019030,"current_range_meters":28000,"station_id":"ce4bhr92rcd13ifvqhrg","pricing_plan_id":"free"},{"bike_id":"f791cd7c-b8f7-43c1-93df-17bc665123c7","system_id":"levelo_inurba_marseille","lat":43.3304,"lon":5.38923,"is_reserved":false,"is_disabled":false,"rental_uris":{"android":"levelo://app?vid=f791cd7c-b8f7-43c1-93df-17bc665123c7","ios":"levelo://app?vid=f791cd7c-b8f7-43c1-93df-17bc665123c7"},"vehicle_type_id":"4","last_reported":1688019030,"current_range_meters":22400,"station_id":"ce4bhr92rcd13ifvqhrg","pricing_plan_id":"free"},{"bike_id":"56e56a8f-6758-414d-8770-da800265c565","system_id":"levelo_inurba_marseille","lat":43.33042,"lon":5.38922,"is_reserved":false,"is_disabled":false,"rental_uris":{"android":"levelo://app?vid=56e56a8f-6758-414d-8770-da800265c565","ios":"levelo://app?vid=56e56a8f-6758-414d-8770-da800265c565"},"vehicle_type_id":"4","last_reported":1688019030,"current_range_meters":3600,"station_id":"ce4bhr92rcd13ifvqhrg","pricing_plan_id":"free"},{"bike_id":"61b37d50-d6db-452f-8d3c-ff942364e3e1","system_id":"levelo_inurba_marseille","lat":43.33042,"lon":5.38922,"is_reserved":false,"is_disabled":false,"rental_uris":{"android":"levelo://app?vid=61b37d50-d6db-452f-8d3c-ff942364e3e1","ios":"levelo://app?vid=61b37d50-d6db-452f-8d3c-ff942364e3e1"},"vehicle_type_id":"4","last_reported":1688019030,"current_range_meters":11600,"station_id":"ce4bhr92rcd13ifvqhrg","pricing_plan_id":"free"},{"bike_id":"dc41910d-322a-450c-ae26-da6783f4c6d8","system_id":"levelo_inurba_marseille","lat":43.33044,"lon":5.38924,"is_reserved":false,"is_disabled":false,"rental_uris":{"android":"levelo://app?vid=dc41910d-322a-450c-ae26-da6783f4c6d8","ios":"levelo://app?vid=dc41910d-322a-450c-ae26-da6783f4c6d8"},"vehicle_type_id":"4","last_reported":1688019030,"current_range_meters":21200,"station_id":"ce4bhr92rcd13ifvqhrg","pricing_plan_id":"free"},{"bike_id":"4c2b9e1e-b954-4735-bd46-c30b55b92a5c","system_id":"levelo_inurba_marseille","lat":43.295169,"lon":5.390426,"is_reserved":false,"is_disabled":false,"rental_uris":{"android":"levelo://app?vid=4c2b9e1e-b954-4735-bd46-c30b55b92a5c","ios":"levelo://app?vid=4c2b9e1e-b954-4735-bd46-c30b55b92a5c"},"vehicle_type_id":"4","last_reported":1688019030,"current_range_meters":13200,"station_id":"ce4bh3p2rcd13ifvqdp0","pricing_plan_id":"free"},{"bike_id":"043ba6dc-123e-44a5-9532-9c533d1c50d0","system_id":"levelo_inurba_marseille","lat":43.295169,"lon":5.390426,"is_reserved":false,"is_disabled":false,"rental_uris":{"android":"levelo://app?vid=043ba6dc-123e-44a5-9532-9c533d1c50d0","ios":"levelo://app?vid=043ba6dc-123e-44a5-9532-9c533d1c50d0"},"vehicle_type_id":"4","last_reported":1688019030,"current_range_meters":14000,"station_id":"ce4bh3p2rcd13ifvqdp0","pricing_plan_id":"free"},{"bike_id":"a72e4031-6bc2-47b4-92ce-a5878fcb7cfb","system_id":"levelo_inurba_marseille","lat":43.29153,"lon":5.38466,"is_reserved":false,"is_disabled":false,"rental_uris":{"android":"levelo://app?vid=a72e4031-6bc2-47b4-92ce-a5878fcb7cfb","ios":"levelo://app?vid=a72e4031-6bc2-47b4-92ce-a5878fcb7cfb"},"vehicle_type_id":"4","last_reported":1688019030,"current_range_meters":10000,"station_id":"","pricing_plan_id":"free"},{"bike_id":"50addb93-59ca-464f-9bd3-af34b1190966","system_id":"levelo_inurba_marseille","lat":43.33732,"lon":5.37399,"is_reserved":false,"is_disabled":false,"rental_uris":{"android":"levelo://app?vid=50addb93-59ca-464f-9bd3-af34b1190966","ios":"levelo://app?vid=50addb93-59ca-464f-9bd3-af34b1190966"},"vehicle_type_id":"4","last_reported":1688019030,"current_range_meters":31200,"station_id":"","pricing_plan_id":"free"},{"bike_id":"9a39590e-34b1-4a32-b6a0-234afb21b766","system_id":"levelo_inurba_marseille","lat":43.337321,"lon":5.374445,"is_reserved":false,"is_disabled":false,"rental_uris":{"android":"levelo://app?vid=9a39590e-34b1-4a32-b6a0-234afb21b766","ios":"levelo://app?vid=9a39590e-34b1-4a32-b6a0-234afb21b766"},"vehicle_type_id":"4","last_reported":1688019030,"current_range_meters":31200,"station_id":"","pricing_plan_id":"free"},{"bike_id":"18bb2c91-cd9b-4bc7-9a1f-4d3c919a3ea0","system_id":"levelo_inurba_marseille","lat":43.30935,"lon":5.40138,"is_reserved":false,"is_disabled":false,"rental_uris":{"android":"levelo://app?vid=18bb2c91-cd9b-4bc7-9a1f-4d3c919a3ea0","ios":"levelo://app?vid=18bb2c91-cd9b-4bc7-9a1f-4d3c919a3ea0"},"vehicle_type_id":"4","last_reported":1688019030,"current_range_meters":31200,"station_id":"ce4bgvp2rcd13ifvqct0","pricing_plan_id":"free"},{"bike_id":"b8bf73c4-9484-46f1-97b5-8575db35b481","system_id":"levelo_inurba_marseille","lat":43.3374,"lon":5.37474,"is_reserved":false,"is_disabled":false,"rental_uris":{"android":"levelo://app?vid=b8bf73c4-9484-46f1-97b5-8575db35b481","ios":"levelo://app?vid=b8bf73c4-9484-46f1-97b5-8575db35b481"},"vehicle_type_id":"4","last_reported":1688019030,"current_range_meters":30000,"station_id":"","pricing_plan_id":"free"},{"bike_id":"865d29fc-8c99-408c-9c13-6f7ef1420733","system_id":"levelo_inurba_marseille","lat":43.309267,"lon":5.401391,"is_reserved":false,"is_disabled":false,"rental_uris":{"android":"levelo://app?vid=865d29fc-8c99-408c-9c13-6f7ef1420733","ios":"levelo://app?vid=865d29fc-8c99-408c-9c13-6f7ef1420733"},"vehicle_type_id":"4","last_reported":1688019030,"current_range_meters":30800,"station_id":"","pricing_plan_id":"free"},{"bike_id":"a110ae6e-4ef9-4bb5-b06b-9b095dc72472","system_id":"levelo_inurba_marseille","lat":43.30931,"lon":5.4014,"is_reserved":false,"is_disabled":false,"rental_uris":{"android":"levelo://app?vid=a110ae6e-4ef9-4bb5-b06b-9b095dc72472","ios":"levelo://app?vid=a110ae6e-4ef9-4bb5-b06b-9b095dc72472"},"vehicle_type_id":"4","last_reported":1688019030,"current_range_meters":25600,"station_id":"ce4bgvp2rcd13ifvqct0","pricing_plan_id":"free"},{"bike_id":"e29ca51d-a37e-4bc0-babc-abf840339508","system_id":"levelo_inurba_marseille","lat":43.30934,"lon":5.40141,"is_reserved":false,"is_disabled":false,"rental_uris":{"android":"levelo://app?vid=e29ca51d-a37e-4bc0-babc-abf840339508","ios":"levelo://app?vid=e29ca51d-a37e-4bc0-babc-abf840339508"},"vehicle_type_id":"4","last_reported":1688019030,"current_range_meters":28400,"station_id":"ce4bgvp2rcd13ifvqct0","pricing_plan_id":"free"},{"bike_id":"8f1c6eb1-4ad1-4b07-83ef-ee68d5f188c3","system_id":"levelo_inurba_marseille","lat":43.30941,"lon":5.40143,"is_reserved":false,"is_disabled":false,"rental_uris":{"android":"levelo://app?vid=8f1c6eb1-4ad1-4b07-83ef-ee68d5f188c3","ios":"levelo://app?vid=8f1c6eb1-4ad1-4b07-83ef-ee68d5f188c3"},"vehicle_type_id":"4","last_reported":1688019030,"current_range_meters":24000,"station_id":"ce4bgvp2rcd13ifvqct0","pricing_plan_id":"free"},{"bike_id":"d3e6dbb5-5f1c-424b-bb9b-3aeab0e25dfe","system_id":"levelo_inurba_marseille","lat":43.30938,"lon":5.40143,"is_reserved":false,"is_disabled":false,"rental_uris":{"android":"levelo://app?vid=d3e6dbb5-5f1c-424b-bb9b-3aeab0e25dfe","ios":"levelo://app?vid=d3e6dbb5-5f1c-424b-bb9b-3aeab0e25dfe"},"vehicle_type_id":"4","last_reported":1688019030,"current_range_meters":27200,"station_id":"ce4bgvp2rcd13ifvqct0","pricing_plan_id":"free"},{"bike_id":"c285ff1f-263e-4e37-a698-c11f196cfbf5","system_id":"levelo_inurba_marseille","lat":43.30942,"lon":5.40144,"is_reserved":false,"is_disabled":false,"rental_uris":{"android":"levelo://app?vid=c285ff1f-263e-4e37-a698-c11f196cfbf5","ios":"levelo://app?vid=c285ff1f-263e-4e37-a698-c11f196cfbf5"},"vehicle_type_id":"4","last_reported":1688019030,"current_range_meters":27600,"station_id":"ce4bgvp2rcd13ifvqct0","pricing_plan_id":"free"},{"bike_id":"6e70f1a6-50e6-46c8-b606-6dad4155d359","system_id":"levelo_inurba_marseille","lat":43.3093,"lon":5.40142,"is_reserved":false,"is_disabled":false,"rental_uris":{"android":"levelo://app?vid=6e70f1a6-50e6-46c8-b606-6dad4155d359","ios":"levelo://app?vid=6e70f1a6-50e6-46c8-b606-6dad4155d359"},"vehicle_type_id":"4","last_reported":1688019030,"current_range_meters":24800,"station_id":"ce4bgvp2rcd13ifvqct0","pricing_plan_id":"free"},{"bike_id":"c86ad949-dbab-4c65-9b4a-f67e9c1683a5","system_id":"levelo_inurba_marseille","lat":43.309371,"lon":5.401449,"is_reserved":false,"is_disabled":false,"rental_uris":{"android":"levelo://app?vid=c86ad949-dbab-4c65-9b4a-f67e9c1683a5","ios":"levelo://app?vid=c86ad949-dbab-4c65-9b4a-f67e9c1683a5"},"vehicle_type_id":"4","last_reported":1688019030,"current_range_meters":31200,"station_id":"ce4bgvp2rcd13ifvqct0","pricing_plan_id":"free"},{"bike_id":"c8e7f529-6dba-48ed-8a26-3d160dd117fc","system_id":"levelo_inurba_marseille","lat":43.30928,"lon":5.40142,"is_reserved":false,"is_disabled":false,"rental_uris":{"android":"levelo://app?vid=c8e7f529-6dba-48ed-8a26-3d160dd117fc","ios":"levelo://app?vid=c8e7f529-6dba-48ed-8a26-3d160dd117fc"},"vehicle_type_id":"4","last_reported":1688019030,"current_range_meters":31200,"station_id":"ce4bgvp2rcd13ifvqct0","pricing_plan_id":"free"},{"bike_id":"ed147100-08f0-4637-8d28-0a3732bac54a","system_id":"levelo_inurba_marseille","lat":43.30938,"lon":5.40144,"is_reserved":false,"is_disabled":false,"rental_uris":{"android":"levelo://app?vid=ed147100-08f0-4637-8d28-0a3732bac54a","ios":"levelo://app?vid=ed147100-08f0-4637-8d28-0a3732bac54a"},"vehicle_type_id":"4","last_reported":1688019030,"current_range_meters":24800,"station_id":"ce4bgvp2rcd13ifvqct0","pricing_plan_id":"free"},{"bike_id":"5a7920c9-d73b-47fc-adf5-8ea174c3cdde","system_id":"levelo_inurba_marseille","lat":43.309371,"lon":5.401449,"is_reserved":false,"is_disabled":false,"rental_uris":{"android":"levelo://app?vid=5a7920c9-d73b-47fc-adf5-8ea174c3cdde","ios":"levelo://app?vid=5a7920c9-d73b-47fc-adf5-8ea174c3cdde"},"vehicle_type_id":"4","last_reported":1688019030,"current_range_meters":12400,"station_id":"ce4bgvp2rcd13ifvqct0","pricing_plan_id":"free"},{"bike_id":"c18555c9-4d0d-4874-aff1-38a93a2b3496","system_id":"levelo_inurba_marseille","lat":43.30934,"lon":5.40144,"is_reserved":false,"is_disabled":false,"rental_uris":{"android":"levelo://app?vid=c18555c9-4d0d-4874-aff1-38a93a2b3496","ios":"levelo://app?vid=c18555c9-4d0d-4874-aff1-38a93a2b3496"},"vehicle_type_id":"4","last_reported":1688019030,"current_range_meters":31200,"station_id":"ce4bgvp2rcd13ifvqct0","pricing_plan_id":"free"},{"bike_id":"f5be8ad6-702e-494a-b364-9057662a7c86","system_id":"levelo_inurba_marseille","lat":43.30937,"lon":5.40145,"is_reserved":false,"is_disabled":false,"rental_uris":{"android":"levelo://app?vid=f5be8ad6-702e-494a-b364-9057662a7c86","ios":"levelo://app?vid=f5be8ad6-702e-494a-b364-9057662a7c86"},"vehicle_type_id":"4","last_reported":1688019030,"current_range_meters":25200,"station_id":"ce4bgvp2rcd13ifvqct0","pricing_plan_id":"free"},{"bike_id":"05dff1d3-ed20-4c7b-9236-78fa0d9f9331","system_id":"levelo_inurba_marseille","lat":43.306412,"lon":5.401035,"is_reserved":false,"is_disabled":false,"rental_uris":{"android":"levelo://app?vid=05dff1d3-ed20-4c7b-9236-78fa0d9f9331","ios":"levelo://app?vid=05dff1d3-ed20-4c7b-9236-78fa0d9f9331"},"vehicle_type_id":"4","last_reported":1688019030,"current_range_meters":23600,"station_id":"ce4bh112rcd13ifvqda0","pricing_plan_id":"free"},{"bike_id":"5fa5f010-868d-45f8-986e-e536c6874f49","system_id":"levelo_inurba_marseille","lat":43.306412,"lon":5.401035,"is_reserved":false,"is_disabled":false,"rental_uris":{"android":"levelo://app?vid=5fa5f010-868d-45f8-986e-e536c6874f49","ios":"levelo://app?vid=5fa5f010-868d-45f8-986e-e536c6874f49"},"vehicle_type_id":"4","last_reported":1688019030,"current_range_meters":30400,"station_id":"ce4bh112rcd13ifvqda0","pricing_plan_id":"free"},{"bike_id":"39367391-49b3-4cc3-b6dc-8bf5ea906169","system_id":"levelo_inurba_marseille","lat":43.30928,"lon":5.40145,"is_reserved":false,"is_disabled":false,"rental_uris":{"android":"levelo://app?vid=39367391-49b3-4cc3-b6dc-8bf5ea906169","ios":"levelo://app?vid=39367391-49b3-4cc3-b6dc-8bf5ea906169"},"vehicle_type_id":"4","last_reported":1688019030,"current_range_meters":24800,"station_id":"ce4bgvp2rcd13ifvqct0","pricing_plan_id":"free"},{"bike_id":"b152602a-aaa7-4eed-93ba-89050d9c58ba","system_id":"levelo_inurba_marseille","lat":43.3067,"lon":5.40078,"is_reserved":false,"is_disabled":false,"rental_uris":{"android":"levelo://app?vid=b152602a-aaa7-4eed-93ba-89050d9c58ba","ios":"levelo://app?vid=b152602a-aaa7-4eed-93ba-89050d9c58ba"},"vehicle_type_id":"4","last_reported":1688019030,"current_range_meters":20800,"station_id":"","pricing_plan_id":"free"},{"bike_id":"7fe88840-4989-4c34-8f62-4136fa8cd788","system_id":"levelo_inurba_marseille","lat":43.3093,"lon":5.40147,"is_reserved":false,"is_disabled":false,"rental_uris":{"android":"levelo://app?vid=7fe88840-4989-4c34-8f62-4136fa8cd788","ios":"levelo://app?vid=7fe88840-4989-4c34-8f62-4136fa8cd788"},"vehicle_type_id":"4","last_reported":1688019030,"current_range_meters":19600,"station_id":"ce4bgvp2rcd13ifvqct0","pricing_plan_id":"free"},{"bike_id":"ae2b928d-a170-4122-b691-9c1474992148","system_id":"levelo_inurba_marseille","lat":43.30928,"lon":5.40147,"is_reserved":false,"is_disabled":false,"rental_uris":{"android":"levelo://app?vid=ae2b928d-a170-4122-b691-9c1474992148","ios":"levelo://app?vid=ae2b928d-a170-4122-b691-9c1474992148"},"vehicle_type_id":"4","last_reported":1688019030,"current_range_meters":13600,"station_id":"ce4bgvp2rcd13ifvqct0","pricing_plan_id":"free"},{"bike_id":"18d09a1c-5151-47aa-ac75-06fb4500a2fc","system_id":"levelo_inurba_marseille","lat":43.309371,"lon":5.401449,"is_reserved":false,"is_disabled":false,"rental_uris":{"android":"levelo://app?vid=18d09a1c-5151-47aa-ac75-06fb4500a2fc","ios":"levelo://app?vid=18d09a1c-5151-47aa-ac75-06fb4500a2fc"},"vehicle_type_id":"4","last_reported":1688019030,"current_range_meters":16800,"station_id":"ce4bgvp2rcd13ifvqct0","pricing_plan_id":"free"},{"bike_id":"476cd57c-2e9c-4f0d-a086-f93a7e3396f6","system_id":"levelo_inurba_marseille","lat":43.337516,"lon":5.374747,"is_reserved":false,"is_disabled":false,"rental_uris":{"android":"levelo://app?vid=476cd57c-2e9c-4f0d-a086-f93a7e3396f6","ios":"levelo://app?vid=476cd57c-2e9c-4f0d-a086-f93a7e3396f6"},"vehicle_type_id":"4","last_reported":1688019030,"current_range_meters":25600,"station_id":"","pricing_plan_id":"free"},{"bike_id":"40aebf82-a02b-4a28-a595-78add932a53a","system_id":"levelo_inurba_marseille","lat":43.306412,"lon":5.401035,"is_reserved":false,"is_disabled":false,"rental_uris":{"android":"levelo://app?vid=40aebf82-a02b-4a28-a595-78add932a53a","ios":"levelo://app?vid=40aebf82-a02b-4a28-a595-78add932a53a"},"vehicle_type_id":"4","last_reported":1688019030,"current_range_meters":23600,"station_id":"ce4bh112rcd13ifvqda0","pricing_plan_id":"free"},{"bike_id":"b70398ad-b54b-45d1-91fa-f0143d7a0db7","system_id":"levelo_inurba_marseille","lat":43.30652,"lon":5.40083,"is_reserved":false,"is_disabled":false,"rental_uris":{"android":"levelo://app?vid=b70398ad-b54b-45d1-91fa-f0143d7a0db7","ios":"levelo://app?vid=b70398ad-b54b-45d1-91fa-f0143d7a0db7"},"vehicle_type_id":"4","last_reported":1688019030,"current_range_meters":23600,"station_id":"ce4bh112rcd13ifvqda0","pricing_plan_id":"free"},{"bike_id":"30662fe7-9b22-42c2-a2e7-c2844c6af901","system_id":"levelo_inurba_marseille","lat":43.30642,"lon":5.401031,"is_reserved":false,"is_disabled":false,"rental_uris":{"android":"levelo://app?vid=30662fe7-9b22-42c2-a2e7-c2844c6af901","ios":"levelo://app?vid=30662fe7-9b22-42c2-a2e7-c2844c6af901"},"vehicle_type_id":"4","last_reported":1688019030,"current_range_meters":31200,"station_id":"ce4bh112rcd13ifvqda0","pricing_plan_id":"free"},{"bike_id":"2d8231c1-bb8b-40d5-8b27-6f004089ea8e","system_id":"levelo_inurba_marseille","lat":43.30667,"lon":5.40091,"is_reserved":false,"is_disabled":false,"rental_uris":{"android":"levelo://app?vid=2d8231c1-bb8b-40d5-8b27-6f004089ea8e","ios":"levelo://app?vid=2d8231c1-bb8b-40d5-8b27-6f004089ea8e"},"vehicle_type_id":"4","last_reported":1688019030,"current_range_meters":30800,"station_id":"ce4bh112rcd13ifvqda0","pricing_plan_id":"free"},{"bike_id":"603c1e31-6330-46df-ae32-abc2abb619df","system_id":"levelo_inurba_marseille","lat":43.301117,"lon":5.398795,"is_reserved":false,"is_disabled":false,"rental_uris":{"android":"levelo://app?vid=603c1e31-6330-46df-ae32-abc2abb619df","ios":"levelo://app?vid=603c1e31-6330-46df-ae32-abc2abb619df"},"vehicle_type_id":"4","last_reported":1688019030,"current_range_meters":29200,"station_id":"ce4bh0h2rcd13ifvqd40","pricing_plan_id":"free"},{"bike_id":"0ce4a665-00ae-480c-b160-ffab3727d0b7","system_id":"levelo_inurba_marseille","lat":43.30143,"lon":5.39888,"is_reserved":false,"is_disabled":false,"rental_uris":{"android":"levelo://app?vid=0ce4a665-00ae-480c-b160-ffab3727d0b7","ios":"levelo://app?vid=0ce4a665-00ae-480c-b160-ffab3727d0b7"},"vehicle_type_id":"4","last_reported":1688019030,"current_range_meters":30800,"station_id":"","pricing_plan_id":"free"},{"bike_id":"e731ef54-1a9c-4b21-9e04-2f981d310d17","system_id":"levelo_inurba_marseille","lat":43.302759,"lon":5.400793,"is_reserved":false,"is_disabled":false,"rental_uris":{"android":"levelo://app?vid=e731ef54-1a9c-4b21-9e04-2f981d310d17","ios":"levelo://app?vid=e731ef54-1a9c-4b21-9e04-2f981d310d17"},"vehicle_type_id":"4","last_reported":1688019030,"current_range_meters":31200,"station_id":"ce4bgvh2rcd13ifvqcs0","pricing_plan_id":"free"},{"bike_id":"8d0067f7-1991-4083-8aab-ea2d4812d682","system_id":"levelo_inurba_marseille","lat":43.28606,"lon":5.37066,"is_reserved":false,"is_disabled":false,"rental_uris":{"android":"levelo://app?vid=8d0067f7-1991-4083-8aab-ea2d4812d682","ios":"levelo://app?vid=8d0067f7-1991-4083-8aab-ea2d4812d682"},"vehicle_type_id":"4","last_reported":1688019030,"current_range_meters":27200,"station_id":"ce4bht12rcd13ifvqi60","pricing_plan_id":"free"},{"bike_id":"a46f06b9-2c31-4cb9-8fea-fdbd6220395e","system_id":"levelo_inurba_marseille","lat":43.287184,"lon":5.37937,"is_reserved":false,"is_disabled":false,"rental_uris":{"android":"levelo://app?vid=a46f06b9-2c31-4cb9-8fea-fdbd6220395e","ios":"levelo://app?vid=a46f06b9-2c31-4cb9-8fea-fdbd6220395e"},"vehicle_type_id":"4","last_reported":1688019030,"current_range_meters":26400,"station_id":"ce4bh9p2rcd13ifvqec0","pricing_plan_id":"free"},{"bike_id":"277ac3e6-b923-4200-abc3-5dee1c6d10a5","system_id":"levelo_inurba_marseille","lat":43.287184,"lon":5.37937,"is_reserved":false,"is_disabled":false,"rental_uris":{"android":"levelo://app?vid=277ac3e6-b923-4200-abc3-5dee1c6d10a5","ios":"levelo://app?vid=277ac3e6-b923-4200-abc3-5dee1c6d10a5"},"vehicle_type_id":"4","last_reported":1688019030,"current_range_meters":24000,"station_id":"ce4bh9p2rcd13ifvqec0","pricing_plan_id":"free"},{"bike_id":"8eb68e8e-5173-4767-bc1e-3f676a6635f9","system_id":"levelo_inurba_marseille","lat":43.31639,"lon":5.40416,"is_reserved":false,"is_disabled":false,"rental_uris":{"android":"levelo://app?vid=8eb68e8e-5173-4767-bc1e-3f676a6635f9","ios":"levelo://app?vid=8eb68e8e-5173-4767-bc1e-3f676a6635f9"},"vehicle_type_id":"4","last_reported":1688019030,"current_range_meters":9600,"station_id":"ce4bh012rcd13ifvqd00","pricing_plan_id":"free"},{"bike_id":"f75754d1-f1ba-4961-9429-b1210589a4af","system_id":"levelo_inurba_marseille","lat":43.316517,"lon":5.404375,"is_reserved":false,"is_disabled":false,"rental_uris":{"android":"levelo://app?vid=f75754d1-f1ba-4961-9429-b1210589a4af","ios":"levelo://app?vid=f75754d1-f1ba-4961-9429-b1210589a4af"},"vehicle_type_id":"4","last_reported":1688019030,"current_range_meters":0,"station_id":"ce4bh012rcd13ifvqd00","pricing_plan_id":"free"},{"bike_id":"4587815d-1650-4d86-aae4-747e62d5eff9","system_id":"levelo_inurba_marseille","lat":43.316517,"lon":5.404375,"is_reserved":false,"is_disabled":false,"rental_uris":{"android":"levelo://app?vid=4587815d-1650-4d86-aae4-747e62d5eff9","ios":"levelo://app?vid=4587815d-1650-4d86-aae4-747e62d5eff9"},"vehicle_type_id":"4","last_reported":1688019030,"current_range_meters":19200,"station_id":"ce4bh012rcd13ifvqd00","pricing_plan_id":"free"},{"bike_id":"f1e3911c-d444-443e-bd17-a5210ccc444f","system_id":"levelo_inurba_marseille","lat":43.316517,"lon":5.404375,"is_reserved":false,"is_disabled":false,"rental_uris":{"android":"levelo://app?vid=f1e3911c-d444-443e-bd17-a5210ccc444f","ios":"levelo://app?vid=f1e3911c-d444-443e-bd17-a5210ccc444f"},"vehicle_type_id":"4","last_reported":1688019030,"current_range_meters":17600,"station_id":"ce4bh012rcd13ifvqd00","pricing_plan_id":"free"},{"bike_id":"bfb4e5e2-6408-4180-b227-aa9695c2b121","system_id":"levelo_inurba_marseille","lat":43.316517,"lon":5.404375,"is_reserved":false,"is_disabled":false,"rental_uris":{"android":"levelo://app?vid=bfb4e5e2-6408-4180-b227-aa9695c2b121","ios":"levelo://app?vid=bfb4e5e2-6408-4180-b227-aa9695c2b121"},"vehicle_type_id":"4","last_reported":1688019030,"current_range_meters":23200,"station_id":"ce4bh012rcd13ifvqd00","pricing_plan_id":"free"},{"bike_id":"d69fed3a-efe9-46fb-b1dc-1240b8978d3e","system_id":"levelo_inurba_marseille","lat":43.316517,"lon":5.404375,"is_reserved":false,"is_disabled":false,"rental_uris":{"android":"levelo://app?vid=d69fed3a-efe9-46fb-b1dc-1240b8978d3e","ios":"levelo://app?vid=d69fed3a-efe9-46fb-b1dc-1240b8978d3e"},"vehicle_type_id":"4","last_reported":1688019030,"current_range_meters":22800,"station_id":"ce4bh012rcd13ifvqd00","pricing_plan_id":"free"},{"bike_id":"75bf6d99-8e14-4ca3-b197-65f547a94487","system_id":"levelo_inurba_marseille","lat":43.316517,"lon":5.404375,"is_reserved":false,"is_disabled":false,"rental_uris":{"android":"levelo://app?vid=75bf6d99-8e14-4ca3-b197-65f547a94487","ios":"levelo://app?vid=75bf6d99-8e14-4ca3-b197-65f547a94487"},"vehicle_type_id":"4","last_reported":1688019030,"current_range_meters":8000,"station_id":"ce4bh012rcd13ifvqd00","pricing_plan_id":"free"},{"bike_id":"40fdc17b-01a8-4884-aa97-e0301abbba57","system_id":"levelo_inurba_marseille","lat":43.316517,"lon":5.404375,"is_reserved":false,"is_disabled":false,"rental_uris":{"android":"levelo://app?vid=40fdc17b-01a8-4884-aa97-e0301abbba57","ios":"levelo://app?vid=40fdc17b-01a8-4884-aa97-e0301abbba57"},"vehicle_type_id":"4","last_reported":1688019030,"current_range_meters":31200,"station_id":"ce4bh012rcd13ifvqd00","pricing_plan_id":"free"},{"bike_id":"3ebc5e54-b424-4a20-8d75-a51c93172817","system_id":"levelo_inurba_marseille","lat":43.29443,"lon":5.39766,"is_reserved":false,"is_disabled":false,"rental_uris":{"android":"levelo://app?vid=3ebc5e54-b424-4a20-8d75-a51c93172817","ios":"levelo://app?vid=3ebc5e54-b424-4a20-8d75-a51c93172817"},"vehicle_type_id":"4","last_reported":1688019030,"current_range_meters":31200,"station_id":"ce4bh3h2rcd13ifvqdo0","pricing_plan_id":"free"},{"bike_id":"34d981b3-2ef4-4d0b-bd96-a7ee69f3a7d7","system_id":"levelo_inurba_marseille","lat":43.28614,"lon":5.35101,"is_reserved":false,"is_disabled":false,"rental_uris":{"android":"levelo://app?vid=34d981b3-2ef4-4d0b-bd96-a7ee69f3a7d7","ios":"levelo://app?vid=34d981b3-2ef4-4d0b-bd96-a7ee69f3a7d7"},"vehicle_type_id":"4","last_reported":1688019030,"current_range_meters":29200,"station_id":"ce4bhch2rcd13ifvqeug","pricing_plan_id":"free"},{"bike_id":"05dcf4b4-2701-41da-b1d6-1dab7334c87b","system_id":"levelo_inurba_marseille","lat":43.295713,"lon":5.399639,"is_reserved":false,"is_disabled":false,"rental_uris":{"android":"levelo://app?vid=05dcf4b4-2701-41da-b1d6-1dab7334c87b","ios":"levelo://app?vid=05dcf4b4-2701-41da-b1d6-1dab7334c87b"},"vehicle_type_id":"4","last_reported":1688019030,"current_range_meters":31200,"station_id":"ce4bh312rcd13ifvqdj0","pricing_plan_id":"free"},{"bike_id":"a5556d88-b96b-47af-943f-f83681d45990","system_id":"levelo_inurba_marseille","lat":43.29567,"lon":5.39976,"is_reserved":false,"is_disabled":false,"rental_uris":{"android":"levelo://app?vid=a5556d88-b96b-47af-943f-f83681d45990","ios":"levelo://app?vid=a5556d88-b96b-47af-943f-f83681d45990"},"vehicle_type_id":"4","last_reported":1688019030,"current_range_meters":12400,"station_id":"ce4bh312rcd13ifvqdj0","pricing_plan_id":"free"},{"bike_id":"b4c950db-352f-4a1a-8e3c-c05101a6dad0","system_id":"levelo_inurba_marseille","lat":43.28803,"lon":5.39133,"is_reserved":false,"is_disabled":false,"rental_uris":{"android":"levelo://app?vid=b4c950db-352f-4a1a-8e3c-c05101a6dad0","ios":"levelo://app?vid=b4c950db-352f-4a1a-8e3c-c05101a6dad0"},"vehicle_type_id":"4","last_reported":1688019030,"current_range_meters":30400,"station_id":"","pricing_plan_id":"free"},{"bike_id":"fb87834d-7136-4369-b171-470a70fc379c","system_id":"levelo_inurba_marseille","lat":43.28485,"lon":5.38418,"is_reserved":false,"is_disabled":false,"rental_uris":{"android":"levelo://app?vid=fb87834d-7136-4369-b171-470a70fc379c","ios":"levelo://app?vid=fb87834d-7136-4369-b171-470a70fc379c"},"vehicle_type_id":"4","last_reported":1688019030,"current_range_meters":4000,"station_id":"ce4bh512rcd13ifvqe3g","pricing_plan_id":"free"},{"bike_id":"23c043d8-9cdd-4cfa-b7c5-e19367052367","system_id":"levelo_inurba_marseille","lat":43.28469,"lon":5.38408,"is_reserved":false,"is_disabled":false,"rental_uris":{"android":"levelo://app?vid=23c043d8-9cdd-4cfa-b7c5-e19367052367","ios":"levelo://app?vid=23c043d8-9cdd-4cfa-b7c5-e19367052367"},"vehicle_type_id":"4","last_reported":1688019030,"current_range_meters":30000,"station_id":"ce4bh512rcd13ifvqe3g","pricing_plan_id":"free"},{"bike_id":"4c10843b-cdf4-4108-8689-56cee01b5a35","system_id":"levelo_inurba_marseille","lat":43.2884,"lon":5.39303,"is_reserved":false,"is_disabled":false,"rental_uris":{"android":"levelo://app?vid=4c10843b-cdf4-4108-8689-56cee01b5a35","ios":"levelo://app?vid=4c10843b-cdf4-4108-8689-56cee01b5a35"},"vehicle_type_id":"4","last_reported":1688019030,"current_range_meters":18800,"station_id":"ce4bh2p2rcd13ifvqdi0","pricing_plan_id":"free"},