{"last_updated":1702112780,"ttl":30,"version":"2.2","data":{"bikes":[{"bike_id":"1825785e-17af-4d62-ac76-6621bd720d67","system_id":"levelo_inurba_marseille","lat":43.305706,"lon":5.365654,"is_reserved":false,"is_disabled":false,"rental_uris":{"android":"levelo://app?vid=1825785e-17af-4d62-ac76-6621bd720d67","ios":"levelo://app?vid=1825785e-17af-4d62-ac76-6621bd720d67"},"vehicle_type_id":"4","last_reported":1702112780,"current_range_meters":25200,"station_id":"ce4bgs12rcd13ifvqcag","pricing_plan_id":"free"},{"bike_id":"946857c4-51d1-4d86-89cf-9a9c23f1c0b3","system_id":"levelo_inurba_marseille","lat":43.305706,"lon":5.365654,"is_reserved":false,"is_disabled":false,"rental_uris":{"android":"levelo://app?vid=946857c4-51d1-4d86-89cf-9a9c23f1c0b3","ios":"levelo://app?vid=946857c4-51d1-4d86-89cf-9a9c23f1c0b3"},"vehicle_type_id":"4","last_reported":1702112780,"current_range_meters":21200,"station_id":"ce4bgs12rcd13ifvqcag","pricing_plan_id":"free"},{"bike_id":"e50a0d9c-af0a-4e60-b6b7-2f9fc9cf5c58","system_id":"levelo_inurba_marseille","lat":43.31702,"lon":5.37727,"is_reserved":false,"is_disabled":false,"rental_uris":{"android":"levelo://app?vid=e50a0d9c-af0a-4e60-b6b7-2f9fc9cf5c58","ios":"levelo://app?vid=e50a0d9c-af0a-4e60-b6b7-2f9fc9cf5c58"},"vehicle_type_id":"4","last_reported":1702112780,"current_range_meters":23600,"station_id":"ce4bgth2rcd13ifvqch0","pricing_plan_id":"free"},{"bike_id":"833db060-2e7c-4780-bfc1-a8e7732c469e","system_id":"levelo_inurba_marseille","lat":43.317075,"lon":5.377367,"is_reserved":false,"is_disabled":false,"rental_uris":{"android":"levelo://app?vid=833db060-2e7c-4780-bfc1-a8e7732c469e","ios":"levelo://app?vid=833db060-2e7c-4780-bfc1-a8e7732c469e"},"vehicle_type_id":"4","last_reported":1702112780,"current_range_meters":21200,"station_id":"ce4bgth2rcd13ifvqch0","pricing_plan_id":"free"},{"bike_id":"e5b5ac6f-b531-4754-a0ca-e8f5bab4dd45","system_id":"levelo_inurba_marseille","lat":43.317075,"lon":5.377367,"is_reserved":false,"is_disabled":false,"rental_uris":{"android":"levelo://app?vid=e5b5ac6f-b531-4754-a0ca-e8f5bab4dd45","ios":"levelo://app?vid=e5b5ac6f-b531-4754-a0ca-e8f5bab4dd45"},"vehicle_type_id":"4","last_reported":1702112780,"current_range_meters":27600,"station_id":"ce4bgth2rcd13ifvqch0","pricing_plan_id":"free"},{"bike_id":"d98a3d07-eb67-4785-85de-395303f28fb9","system_id":"levelo_inurba_marseille","lat":43.30143,"lon":5.37413,"is_reserved":false,"is_disabled":false,"rental_uris":{"android":"levelo://app?vid=d98a3d07-eb67-4785-85de-395303f28fb9","ios":"levelo://app?vid=d98a3d07-eb67-4785-85de-395303f28fb9"},"vehicle_type_id":"4","last_reported":1702112780,"current_range_meters":27200,"station_id":"ce4bgs92rcd13ifvqcc0","pricing_plan_id":"free"},{"bike_id":"924c7182-8d77-41cb-a263-1f83b21f0af5","system_id":"levelo_inurba_marseille","lat":43.302784,"lon":5.377158,"is_reserved":false,"is_disabled":false,"rental_uris":{"android":"levelo://app?vid=924c7182-8d77-41cb-a263-1f83b21f0af5","ios":"levelo://app?vid=924c7182-8d77-41cb-a263-1f83b21f0af5"},"vehicle_type_id":"4","last_reported":1702112780,"current_range_meters":21200,"station_id":"ce4bguh2rcd13ifvqcj0","pricing_plan_id":"free"},{"bike_id":"d32d2bb0-57e0-4c22-83ea-53fe045920d6","system_id":"levelo_inurba_marseille","lat":43.302784,"lon":5.377158,"is_reserved":false,"is_disabled":false,"rental_uris":{"android":"levelo://app?vid=d32d2bb0-57e0-4c22-83ea-53fe045920d6","ios":"levelo://app?vid=d32d2bb0-57e0-4c22-83ea-53fe045920d6"},"vehicle_type_id":"4","last_reported":1702112780,"current_range_meters":28400,"station_id":"ce4bguh2rcd13ifvqcj0","pricing_plan_id":"free"},{"bike_id":"12c5ed45-dd2b-4f3d-92a2-007b91a2b718","system_id":"levelo_inurba_marseille","lat":43.319935,"lon":5.381699,"is_reserved":false,"is_disabled":false,"rental_uris":{"android":"levelo://app?vid=12c5ed45-dd2b-4f3d-92a2-007b91a2b718","ios":"levelo://app?vid=12c5ed45-dd2b-4f3d-92a2-007b91a2b718"},"vehicle_type_id":"4","last_reported":1702112780,"current_range_meters":14000,"station_id":"ce4bhr12rcd13ifvqhpg","pricing_plan_id":"free"},{"bike_id":"ee0e638f-d618-41fa-ac21-fbf44fdd47b0","system_id":"levelo_inurba_marseille","lat":43.319935,"lon":5.381699,"is_reserved":false,"is_disabled":false,"rental_uris":{"android":"levelo://app?vid=ee0e638f-d618-41fa-ac21-fbf44fdd47b0","ios":"levelo://app?vid=ee0e638f-d618-41fa-ac21-fbf44fdd47b0"},"vehicle_type_id":"4","last_reported":1702112780,"current_range_meters":30000,"station_id":"ce4bhr12rcd13ifvqhpg","pricing_plan_id":"free"},{"bike_id":"bc5fbb97-360a-4591-ac4b-df0879d1eab4","system_id":"levelo_inurba_marseille","lat":43.31356,"lon":5.38493,"is_reserved":false,"is_disabled":false,"rental_uris":{"android":"levelo://app?vid=bc5fbb97-360a-4591-ac4b-df0879d1eab4","ios":"levelo://app?vid=bc5fbb97-360a-4591-ac4b-df0879d1eab4"},"vehicle_type_id":"4","last_reported":1702112780,"current_range_meters":23600,"station_id":"ce4bgt92rcd13ifvqcf0","pricing_plan_id":"free"},{"bike_id":"911adf76-9cdd-4e85-98ee-71c7cc6593a0","system_id":"levelo_inurba_marseille","lat":43.29937,"lon":5.36545,"is_reserved":false,"is_disabled":false,"rental_uris":{"android":"levelo://app?vid=911adf76-9cdd-4e85-98ee-71c7cc6593a0","ios":"levelo://app?vid=911adf76-9cdd-4e85-98ee-71c7cc6593a0"},"vehicle_type_id":"4","last_reported":1702112780,"current_range_meters":17200,"station_id":"ce4bgm92rcd13ifvqbr0","pricing_plan_id":"free"},{"bike_id":"38f1223e-a214-4eb0-9b54-a70de861d11b","system_id":"levelo_inurba_marseille","lat":43.322872,"lon":5.382756,"is_reserved":false,"is_disabled":false,"rental_uris":{"android":"levelo://app?vid=38f1223e-a214-4eb0-9b54-a70de861d11b","ios":"levelo://app?vid=38f1223e-a214-4eb0-9b54-a70de861d11b"},"vehicle_type_id":"4","last_reported":1702112780,"current_range_meters":23200,"station_id":"ce4bhr12rcd13ifvqhqg","pricing_plan_id":"free"},{"bike_id":"d04bedf3-fa0d-476a-afc0-f8735ca347d1","system_id":"levelo_inurba_marseille","lat":43.322872,"lon":5.382756,"is_reserved":false,"is_disabled":false,"rental_uris":{"android":"levelo://app?vid=d04bedf3-fa0d-476a-afc0-f8735ca347d1","ios":"levelo://app?vid=d04bedf3-fa0d-476a-afc0-f8735ca347d1"},"vehicle_type_id":"4","last_reported":1702112780,"current_range_meters":8400,"station_id":"ce4bhr12rcd13ifvqhqg","pricing_plan_id":"free"},{"bike_id":"c7434962-efe8-4461-8be2-21b47b98f22c","system_id":"levelo_inurba_marseille","lat":43.322872,"lon":5.382756,"is_reserved":false,"is_disabled":false,"rental_uris":{"android":"levelo://app?vid=c7434962-efe8-4461-8be2-21b47b98f22c","ios":"levelo://app?vid=c7434962-efe8-4461-8be2-21b47b98f22c"},"vehicle_type_id":"4","last_reported":1702112780,"current_range_meters":16400,"station_id":"ce4bhr12rcd13ifvqhqg","pricing_plan_id":"free"},{"bike_id":"6ac675f1-e0be-498c-ad2f-b742a949d4b0","system_id":"levelo_inurba_marseille","lat":43.298218,"lon":5.374416,"is_reserved":false,"is_disabled":false,"rental_uris":{"android":"levelo://app?vid=6ac675f1-e0be-498c-ad2f-b742a949d4b0","ios":"levelo://app?vid=6ac675f1-e0be-498c-ad2f-b742a949d4b0"},"vehicle_type_id":"4","last_reported":1702112780,"current_range_meters":2800,"station_id":"","pricing_plan_id":"free"},{"bike_id":"594379a6-9dbe-4ac5-9a3c-a7cbcc29e291","system_id":"levelo_inurba_marseille","lat":43.328371,"lon":5.366909,"is_reserved":false,"is_disabled":false,"rental_uris":{"android":"levelo://app?vid=594379a6-9dbe-4ac5-9a3c-a7cbcc29e291","ios":"levelo://app?vid=594379a6-9dbe-4ac5-9a3c-a7cbcc29e291"},"vehicle_type_id":"4","last_reported":1702112780,"current_range_meters":24000,"station_id":"ce4bhs92rcd13ifvqi0g","pricing_plan_id":"free"},{"bike_id":"e9d50717-1f3f-423c-8fa7-4cfe37540c5f","system_id":"levelo_inurba_marseille","lat":43.297163,"lon":5.365866,"is_reserved":false,"is_disabled":false,"rental_uris":{"android":"levelo://app?vid=e9d50717-1f3f-423c-8fa7-4cfe37540c5f","ios":"levelo://app?vid=e9d50717-1f3f-423c-8fa7-4cfe37540c5f"},"vehicle_type_id":"4","last_reported":1702112780,"current_range_meters":27600,"station_id":"ce4bgn12rcd13ifvqbt0","pricing_plan_id":"free"},{"bike_id":"ee60dd09-2b5b-4f0b-8fbe-5c1a8b48e0ab","system_id":"levelo_inurba_marseille","lat":43.297163,"lon":5.365866,"is_reserved":false,"is_disabled":false,"rental_uris":{"android":"levelo://app?vid=ee60dd09-2b5b-4f0b-8fbe-5c1a8b48e0ab","ios":"levelo://app?vid=ee60dd09-2b5b-4f0b-8fbe-5c1a8b48e0ab"},"vehicle_type_id":"4","last_reported":1702112780,"current_range_meters":29200,"station_id":"ce4bgn12rcd13ifvqbt0","pricing_plan_id":"free"},{"bike_id":"cb3150b9-f5c3-41cd-96bf-a86361bea72c","system_id":"levelo_inurba_marseille","lat":43.296262,"lon":5.371514,"is_reserved":false,"is_disabled":false,"rental_uris":{"android":"levelo://app?vid=cb3150b9-f5c3-41cd-96bf-a86361bea72c","ios":"levelo://app?vid=cb3150b9-f5c3-41cd-96bf-a86361bea72c"},"vehicle_type_id":"4","last_reported":1702112780,"current_range_meters":25600,"station_id":"","pricing_plan_id":"free"},{"bike_id":"677d3152-7079-497f-a4d4-d016273502fb","system_id":"levelo_inurba_marseille","lat":43.296129,"lon":5.370777,"is_reserved":false,"is_disabled":false,"rental_uris":{"android":"levelo://app?vid=677d3152-7079-497f-a4d4-d016273502fb","ios":"levelo://app?vid=677d3152-7079-497f-a4d4-d016273502fb"},"vehicle_type_id":"4","last_reported":1702112780,"current_range_meters":20000,"station_id":"ce4bgnh2rcd13ifvqc0g","pricing_plan_id":"free"},{"bike_id":"ff7d43a8-dfef-4523-9e21-a8e04fe4808e","system_id":"levelo_inurba_marseille","lat":43.296224,"lon":5.371532,"is_reserved":false,"is_disabled":false,"rental_uris":{"android":"levelo://app?vid=ff7d43a8-dfef-4523-9e21-a8e04fe4808e","ios":"levelo://app?vid=ff7d43a8-dfef-4523-9e21-a8e04fe4808e"},"vehicle_type_id":"4","last_reported":1702112780,"current_range_meters":20400,"station_id":"","pricing_plan_id":"free"},{"bike_id":"92dc65d6-6823-4de3-93d4-056f738f090c","system_id":"levelo_inurba_marseille","lat":43.316538,"lon":5.38954,"is_reserved":false,"is_disabled":false,"rental_uris":{"android":"levelo://app?vid=92dc65d6-6823-4de3-93d4-056f738f090c","ios":"levelo://app?vid=92dc65d6-6823-4de3-93d4-056f738f090c"},"vehicle_type_id":"4","last_reported":1702112780,"current_range_meters":0,"station_id":"","pricing_plan_id":"free"},{"bike_id":"876532af-199e-486a-937f-82e75b08f425","system_id":"levelo_inurba_marseille","lat":43.29573,"lon":5.367355,"is_reserved":false,"is_disabled":false,"rental_uris":{"android":"levelo://app?vid=876532af-199e-486a-937f-82e75b08f425","ios":"levelo://app?vid=876532af-199e-486a-937f-82e75b08f425"},"vehicle_type_id":"4","last_reported":1702112780,"current_range_meters":31200,"station_id":"ce4bgph2rcd13ifvqc2g","pricing_plan_id":"free"},{"bike_id":"d30a5129-9b2e-4dd2-bdbd-27264148d65f","system_id":"levelo_inurba_marseille","lat":43.296921,"lon":5.376579,"is_reserved":false,"is_disabled":false,"rental_uris":{"android":"levelo://app?vid=d30a5129-9b2e-4dd2-bdbd-27264148d65f","ios":"levelo://app?vid=d30a5129-9b2e-4dd2-bdbd-27264148d65f"},"vehicle_type_id":"4","last_reported":1702112780,"current_range_meters":23200,"station_id":"ce4bgkh2rcd13ifvqbl0","pricing_plan_id":"free"},{"bike_id":"2ba3d187-866c-4a09-817b-c1c02eaa1f0f","system_id":"levelo_inurba_marseille","lat":43.317557,"lon":5.390173,"is_reserved":false,"is_disabled":false,"rental_uris":{"android":"levelo://app?vid=2ba3d187-866c-4a09-817b-c1c02eaa1f0f","ios":"levelo://app?vid=2ba3d187-866c-4a09-817b-c1c02eaa1f0f"},"vehicle_type_id":"4","last_reported":1702112780,"current_range_meters":29600,"station_id":"ce4bhqp2rcd13ifvqhng","pricing_plan_id":"free"},{"bike_id":"228baed1-e399-40e0-a2e5-7b8608918327","system_id":"levelo_inurba_marseille","lat":43.317557,"lon":5.390173,"is_reserved":false,"is_disabled":false,"rental_uris":{"android":"levelo://app?vid=228baed1-e399-40e0-a2e5-7b8608918327","ios":"levelo://app?vid=228baed1-e399-40e0-a2e5-7b8608918327"},"vehicle_type_id":"4","last_reported":1702112780,"current_range_meters":29200,"station_id":"ce4bhqp2rcd13ifvqhng","pricing_plan_id":"free"},{"bike_id":"06fc1708-68b4-4178-a0cc-2f5a8f4103aa","system_id":"levelo_inurba_marseille","lat":43.295748,"lon":5.37522,"is_reserved":false,"is_disabled":false,"rental_uris":{"android":"levelo://app?vid=06fc1708-68b4-4178-a0cc-2f5a8f4103aa","ios":"levelo://app?vid=06fc1708-68b4-4178-a0cc-2f5a8f4103aa"},"vehicle_type_id":"4","last_reported":1702112780,"current_range_meters":25600,"station_id":"ce4bgh92rcd13ifvqb50","pricing_plan_id":"free"},{"bike_id":"b73486dd-504f-4e18-bcfb-9af0af268cbf","system_id":"levelo_inurba_marseille","lat":43.295748,"lon":5.37522,"is_reserved":false,"is_disabled":false,"rental_uris":{"android":"levelo://app?vid=b73486dd-504f-4e18-bcfb-9af0af268cbf","ios":"levelo://app?vid=b73486dd-504f-4e18-bcfb-9af0af268cbf"},"vehicle_type_id":"4","last_reported":1702112780,"current_range_meters":24000,"station_id":"ce4bgh92rcd13ifvqb50","pricing_plan_id":"free"},{"bike_id":"d766ea63-cafc-40e0-81ec-c3941720313e","system_id":"levelo_inurba_marseille","lat":43.295748,"lon":5.37522,"is_reserved":false,"is_disabled":false,"rental_uris":{"android":"levelo://app?vid=d766ea63-cafc-40e0-81ec-c3941720313e","ios":"levelo://app?vid=d766ea63-cafc-40e0-81ec-c3941720313e"},"vehicle_type_id":"4","last_reported":1702112780,"current_range_meters":29600,"station_id":"ce4bgh92rcd13ifvqb50","pricing_plan_id":"free"},{"bike_id":"d279596a-a12c-4db6-9065-bfd40a0c35ec","system_id":"levelo_inurba_marseille","lat":43.29649,"lon":5.37954,"is_reserved":false,"is_disabled":false,"rental_uris":{"android":"levelo://app?vid=d279596a-a12c-4db6-9065-bfd40a0c35ec","ios":"levelo://app?vid=d279596a-a12c-4db6-9065-bfd40a0c35ec"},"vehicle_type_id":"4","last_reported":1702112780,"current_range_meters":22800,"station_id":"","pricing_plan_id":"free"},{"bike_id":"e4380772-0cc4-42aa-8069-884f657a0a21","system_id":"levelo_inurba_marseille","lat":43.32367,"lon":5.388836,"is_reserved":false,"is_disabled":false,"rental_uris":{"android":"levelo://app?vid=e4380772-0cc4-42aa-8069-884f657a0a21","ios":"levelo://app?vid=e4380772-0cc4-42aa-8069-884f657a0a21"},"vehicle_type_id":"4","last_reported":1702112780,"current_range_meters":31200,"station_id":"ce4bhqp2rcd13ifvqhog","pricing_plan_id":"free"},{"bike_id":"5a1f6bc8-e270-4ee1-b3a7-8b734b52a9ea","system_id":"levelo_inurba_marseille","lat":43.32367,"lon":5.38886,"is_reserved":false,"is_disabled":false,"rental_uris":{"android":"levelo://app?vid=5a1f6bc8-e270-4ee1-b3a7-8b734b52a9ea","ios":"levelo://app?vid=5a1f6bc8-e270-4ee1-b3a7-8b734b52a9ea"},"vehicle_type_id":"4","last_reported":1702112780,"current_range_meters":15200,"station_id":"ce4bhqp2rcd13ifvqhog","pricing_plan_id":"free"},{"bike_id":"24073613-5cec-4b81-8f4e-13b4440c154c","system_id":"levelo_inurba_marseille","lat":43.29305,"lon":5.37173,"is_reserved":false,"is_disabled":false,"rental_uris":{"android":"levelo://app?vid=24073613-5cec-4b81-8f4e-13b4440c154c","ios":"levelo://app?vid=24073613-5cec-4b81-8f4e-13b4440c154c"},"vehicle_type_id":"4","last_reported":1702112780,"current_range_meters":10000,"station_id":"ce4bgh92rcd13ifvqb40","pricing_plan_id":"free"},{"bike_id":"27242d55-c6a0-48c6-843f-10ecc7488eac","system_id":"levelo_inurba_marseille","lat":43.29301,"lon":5.37176,"is_reserved":false,"is_disabled":false,"rental_uris":{"android":"levelo://app?vid=27242d55-c6a0-48c6-843f-10ecc7488eac","ios":"levelo://app?vid=27242d55-c6a0-48c6-843f-10ecc7488eac"},"vehicle_type_id":"4","last_reported":1702112780,"current_range_meters":28800,"station_id":"ce4bgh92rcd13ifvqb40","pricing_plan_id":"free"},{"bike_id":"75f2efc0-9d4d-4efb-a485-e8a5a4ad0ab5","system_id":"levelo_inurba_marseille","lat":43.293009,"lon":5.374584,"is_reserved":false,"is_disabled":false,"rental_uris":{"android":"levelo://app?vid=75f2efc0-9d4d-4efb-a485-e8a5a4ad0ab5","ios":"levelo://app?vid=75f2efc0-9d4d-4efb-a485-e8a5a4ad0ab5"},"vehicle_type_id":"4","last_reported":1702112780,"current_range_meters":27200,"station_id":"ce4bgi12rcd13ifvqb70","pricing_plan_id":"free"},{"bike_id":"460f79a4-e725-47dd-be94-bb971a47269d","system_id":"levelo_inurba_marseille","lat":43.293009,"lon":5.374584,"is_reserved":false,"is_disabled":false,"rental_uris":{"android":"levelo://app?vid=460f79a4-e725-47dd-be94-bb971a47269d","ios":"levelo://app?vid=460f79a4-e725-47dd-be94-bb971a47269d"},"vehicle_type_id":"4","last_reported":1702112780,"current_range_meters":22400,"station_id":"ce4bgi12rcd13ifvqb70","pricing_plan_id":"free"},{"bike_id":"cab63b78-92c1-41cb-bf10-b334d8a2cd79","system_id":"levelo_inurba_marseille","lat":43.2936,"lon":5.37835,"is_reserved":false,"is_disabled":false,"rental_uris":{"android":"levelo://app?vid=cab63b78-92c1-41cb-bf10-b334d8a2cd79","ios":"levelo://app?vid=cab63b78-92c1-41cb-bf10-b334d8a2cd79"},"vehicle_type_id":"4","last_reported":1702112780,"current_range_meters":22000,"station_id":"ce4bgjh2rcd13ifvqbf0","pricing_plan_id":"free"},{"bike_id":"2144bc7a-53e8-4270-9847-7cd31483a354","system_id":"levelo_inurba_marseille","lat":43.30296,"lon":5.3922,"is_reserved":false,"is_disabled":false,"rental_uris":{"android":"levelo://app?vid=2144bc7a-53e8-4270-9847-7cd31483a354","ios":"levelo://app?vid=2144bc7a-53e8-4270-9847-7cd31483a354"},"vehicle_type_id":"4","last_reported":1702112780,"current_range_meters":28800,"station_id":"ce4bgkh2rcd13ifvqbk0","pricing_plan_id":"free"},{"bike_id":"5d1793e1-9d7c-48f3-9b2e-b94d36e2d8ed","system_id":"levelo_inurba_marseille","lat":43.2936,"lon":5.37835,"is_reserved":false,"is_disabled":false,"rental_uris":{"android":"levelo://app?vid=5d1793e1-9d7c-48f3-9b2e-b94d36e2d8ed","ios":"levelo://app?vid=5d1793e1-9d7c-48f3-9b2e-b94d36e2d8ed"},"vehicle_type_id":"4","last_reported":1702112780,"current_range_meters":28400,"station_id":"ce4bgjh2rcd13ifvqbf0","pricing_plan_id":"free"},{"bike_id":"62c050ba-b651-4071-b7fd-5a2294becb8c","system_id":"levelo_inurba_marseille","lat":43.2936,"lon":5.37835,"is_reserved":false,"is_disabled":false,"rental_uris":{"android":"levelo://app?vid=62c050ba-b651-4071-b7fd-5a2294becb8c","ios":"levelo://app?vid=62c050ba-b651-4071-b7fd-5a2294becb8c"},"vehicle_type_id":"4","last_reported":1702112780,"current_range_meters":10400,"station_id":"ce4bgjh2rcd13ifvqbf0","pricing_plan_id":"free"},{"bike_id":"8e8723aa-2a14-4bbc-b6a5-6e66f870c03d","system_id":"levelo_inurba_marseille","lat":43.292311,"lon":5.360731,"is_reserved":false,"is_disabled":false,"rental_uris":{"android":"levelo://app?vid=8e8723aa-2a14-4bbc-b6a5-6e66f870c03d","ios":"levelo://app?vid=8e8723aa-2a14-4bbc-b6a5-6e66f870c03d"},"vehicle_type_id":"4","last_reported":1702112780,"current_range_meters":28000,"station_id":"ce4bhbh2rcd13ifvqeqg","pricing_plan_id":"free"},{"bike_id":"f5d36385-4e2f-440e-af6f-534bb8d29d7b","system_id":"levelo_inurba_marseille","lat":43.292311,"lon":5.360731,"is_reserved":false,"is_disabled":false,"rental_uris":{"android":"levelo://app?vid=f5d36385-4e2f-440e-af6f-534bb8d29d7b","ios":"levelo://app?vid=f5d36385-4e2f-440e-af6f-534bb8d29d7b"},"vehicle_type_id":"4","last_reported":1702112780,"current_range_meters":26400,"station_id":"ce4bhbh2rcd13ifvqeqg","pricing_plan_id":"free"},{"bike_id":"ffe8e861-9583-46be-9da3-462d5c1037ee","system_id":"levelo_inurba_marseille","lat":43.29267,"lon":5.37623,"is_reserved":false,"is_disabled":false,"rental_uris":{"android":"levelo://app?vid=ffe8e861-9583-46be-9da3-462d5c1037ee","ios":"levelo://app?vid=ffe8e861-9583-46be-9da3-462d5c1037ee"},"vehicle_type_id":"4","last_reported":1702112780,"current_range_meters":12000,"station_id":"ce4bgi12rcd13ifvqb80","pricing_plan_id":"free"},{"bike_id":"ecc6431b-436d-47e0-a3cd-e64c2fb3a28a","system_id":"levelo_inurba_marseille","lat":43.291675,"lon":5.371583,"is_reserved":false,"is_disabled":false,"rental_uris":{"android":"levelo://app?vid=ecc6431b-436d-47e0-a3cd-e64c2fb3a28a","ios":"levelo://app?vid=ecc6431b-436d-47e0-a3cd-e64c2fb3a28a"},"vehicle_type_id":"4","last_reported":1702112780,"current_range_meters":15600,"station_id":"ce4bha92rcd13ifvqeh0","pricing_plan_id":"free"},{"bike_id":"25370a0e-e806-4f5e-a418-6aeaa4287291","system_id":"levelo_inurba_marseille","lat":43.29187,"lon":5.35797,"is_reserved":false,"is_disabled":false,"rental_uris":{"android":"levelo://app?vid=25370a0e-e806-4f5e-a418-6aeaa4287291","ios":"levelo://app?vid=25370a0e-e806-4f5e-a418-6aeaa4287291"},"vehicle_type_id":"4","last_reported":1702112780,"current_range_meters":17200,"station_id":"ce4bhb12rcd13ifvqel0","pricing_plan_id":"free"},{"bike_id":"1e25e456-869f-405c-b242-85c3d043406a","system_id":"levelo_inurba_marseille","lat":43.282754,"lon":5.350519,"is_reserved":false,"is_disabled":false,"rental_uris":{"android":"levelo://app?vid=1e25e456-869f-405c-b242-85c3d043406a","ios":"levelo://app?vid=1e25e456-869f-405c-b242-85c3d043406a"},"vehicle_type_id":"4","last_reported":1702112780,"current_range_meters":23200,"station_id":"ce4bhbp2rcd13ifvqerg","pricing_plan_id":"free"},{"bike_id":"84845275-1f76-43c0-b52c-72fe22d4c7b0","system_id":"levelo_inurba_marseille","lat":43.302008,"lon":5.394694,"is_reserved":false,"is_disabled":false,"rental_uris":{"android":"levelo://app?vid=84845275-1f76-43c0-b52c-72fe22d4c7b0","ios":"levelo://app?vid=84845275-1f76-43c0-b52c-72fe22d4c7b0"},"vehicle_type_id":"4","last_reported":1702112780,"current_range_meters":29200,"station_id":"ce4bh0p2rcd13ifvqd70","pricing_plan_id":"free"},{"bike_id":"a02a1b20-1fb1-4951-988a-77389649024d","system_id":"levelo_inurba_marseille","lat":43.289259,"lon":5.366364,"is_reserved":false,"is_disabled":false,"rental_uris":{"android":"levelo://app?vid=a02a1b20-1fb1-4951-988a-77389649024d","ios":"levelo://app?vid=a02a1b20-1fb1-4951-988a-77389649024d"},"vehicle_type_id":"4","last_reported":1702112780,"current_range_meters":12800,"station_id":"","pricing_plan_id":"free"},{"bike_id":"400690de-82e4-42ab-8566-d6ecd22cfab1","system_id":"levelo_inurba_marseille","lat":43.330442,"lon":5.389148,"is_reserved":false,"is_disabled":false,"rental_uris":{"android":"levelo://app?vid=400690de-82e4-42ab-8566-d6ecd22cfab1","ios":"levelo://app?vid=400690de-82e4-42ab-8566-d6ecd22cfab1"},"vehicle_type_id":"4","last_reported":1702112780,"current_range_meters":26800,"station_id":"ce4bhr92rcd13ifvqhrg","pricing_plan_id":"free"},{"bike_id":"8f6f10a7-e824-409e-80f7-f7456a0b63dd","system_id":"levelo_inurba_marseille","lat":43.33038,"lon":5.38924,"is_reserved":false,"is_disabled":false,"rental_uris":{"android":"levelo://app?vid=8f6f10a7-e824-409e-80f7-f7456a0b63dd","ios":"levelo://app?vid=8f6f10a7-e824-409e-80f7-f7456a0b63dd"},"vehicle_type_id":"4","last_reported":1702112780,"current_range_meters":15200,"station_id":"ce4bhr92rcd13ifvqhrg","pricing_plan_id":"free"},{"bike_id":"5c851a12-5741-43b3-816f-010057363b5e","system_id":"levelo_inurba_marseille","lat":43.330411,"lon":5.389199,"is_reserved":false,"is_disabled":false,"rental_uris":{"android":"levelo://app?vid=5c851a12-5741-43b3-816f-010057363b5e","ios":"levelo://app?vid=5c851a12-5741-43b3-816f-010057363b5e"},"vehicle_type_id":"4","last_reported":1702112780,"current_range_meters":8800,"station_id":"ce4bhr92rcd13ifvqhrg","pricing_plan_id":"free"},{"bike_id":"ce18ae7e-3845-4a46-8c8c-674d4d2c7da0","system_id":"levelo_inurba_marseille","lat":43.33044,"lon":5.38922,"is_reserved":false,"is_disabled":false,"rental_uris":{"android":"levelo://app?vid=ce18ae7e-3845-4a46-8c8c-674d4d2c7da0","ios":"levelo://app?vid=ce18ae7e-3845-4a46-8c8c-674d4d2c7da0"},"vehicle_type_id":"4","last_reported":1702112780,"current_range_meters":15600,"station_id":"ce4bhr92rcd13ifvqhrg","pricing_plan_id":"free"},{"bike_id":"dc3c1c41-2092-48f0-9bd8-bb99eb483a6b","system_id":"levelo_inurba_marseille","lat":43.290104,"lon":5.356111,"is_reserved":false,"is_disabled":false,"rental_uris":{"android":"levelo://app?vid=dc3c1c41-2092-48f0-9bd8-bb99eb483a6b","ios":"levelo://app?vid=dc3c1c41-2092-48f0-9bd8-bb99eb483a6b"},"vehicle_type_id":"4","last_reported":1702112780,"current_range_meters":24800,"station_id":"ce4bhb92rcd13ifvqen0","pricing_plan_id":"free"},{"bike_id":"8acecd2b-024e-4b61-a7eb-bd0769997007","system_id":"levelo_inurba_marseille","lat":43.290094,"lon":5.381264,"is_reserved":false,"is_disabled":false,"rental_uris":{"android":"levelo://app?vid=8acecd2b-024e-4b61-a7eb-bd0769997007","ios":"levelo://app?vid=8acecd2b-024e-4b61-a7eb-bd0769997007"},"vehicle_type_id":"4","last_reported":1702112780,"current_range_meters":28000,"station_id":"ce4bh4p2rcd13ifvqe1g","pricing_plan_id":"free"},{"bike_id":"98cec118-16b8-4a81-af7b-16c08d9a569e","system_id":"levelo_inurba_marseille","lat":43.33753,"lon":5.37463,"is_reserved":false,"is_disabled":false,"rental_uris":{"android":"levelo://app?vid=98cec118-16b8-4a81-af7b-16c08d9a569e","ios":"levelo://app?vid=98cec118-16b8-4a81-af7b-16c08d9a569e"},"vehicle_type_id":"4","last_reported":1702112780,"current_range_meters":27600,"station_id":"","pricing_plan_id":"free"},{"bike_id":"124240cb-dd79-4679-961f-0ec4c1b61267","system_id":"levelo_inurba_marseille","lat":43.306412,"lon":5.401035,"is_reserved":false,"is_disabled":false,"rental_uris":{"android":"levelo://app?vid=124240cb-dd79-4679-961f-0ec4c1b61267","ios":"levelo://app?vid=124240cb-dd79-4679-961f-0ec4c1b61267"},"vehicle_type_id":"4","last_reported":1702112780,"current_range_meters":29200,"station_id":"ce4bh112rcd13ifvqda0","pricing_plan_id":"free"},{"bike_id":"5e6a3cc2-3c17-45c7-8129-a2db8a57ff5d","system_id":"levelo_inurba_marseille","lat":43.337837,"lon":5.374757,"is_reserved":false,"is_disabled":false,"rental_uris":{"android":"levelo://app?vid=5e6a3cc2-3c17-45c7-8129-a2db8a57ff5d","ios":"levelo://app?vid=5e6a3cc2-3c17-45c7-8129-a2db8a57ff5d"},"vehicle_type_id":"4","last_reported":1702112780,"current_range_meters":25600,"station_id":"","pricing_plan_id":"free"},{"bike_id":"066175bb-9259-4227-8cd4-78cd43f21020","system_id":"levelo_inurba_marseille","lat":43.287284,"lon":5.360876,"is_reserved":false,"is_disabled":false,"rental_uris":{"android":"levelo://app?vid=066175bb-9259-4227-8cd4-78cd43f21020","ios":"levelo://app?vid=066175bb-9259-4227-8cd4-78cd43f21020"},"vehicle_type_id":"4","last_reported":1702112780,"current_range_meters":30400,"station_id":"cki0cbj6b192h4jlfktg","pricing_plan_id":"free"},{"bike_id":"29d017db-b734-437f-b457-d855d49b5bac","system_id":"levelo_inurba_marseille","lat":43.28702,"lon":5.37394,"is_reserved":false,"is_disabled":false,"rental_uris":{"android":"levelo://app?vid=29d017db-b734-437f-b457-d855d49b5bac","ios":"levelo://app?vid=29d017db-b734-437f-b457-d855d49b5bac"},"vehicle_type_id":"4","last_reported":1702112780,"current_range_meters":25200,"station_id":"ce4bh3p2rcd13ifvqdq0","pricing_plan_id":"free"},{"bike_id":"4e00aaa9-0ab2-47e2-ba52-4041c3f7aff4","system_id":"levelo_inurba_marseille","lat":43.286593,"lon":5.363346,"is_reserved":false,"is_disabled":false,"rental_uris":{"android":"levelo://app?vid=4e00aaa9-0ab2-47e2-ba52-4041c3f7aff4","ios":"levelo://app?vid=4e00aaa9-0ab2-47e2-ba52-4041c3f7aff4"},"vehicle_type_id":"4","last_reported":1702112780,"current_range_meters":12800,"station_id":"ce4bhah2rcd13ifvqej0","pricing_plan_id":"free"},{"bike_id":"41af2f09-e134-4774-bb41-cd7e426cf111","system_id":"levelo_inurba_marseille","lat":43.295194,"lon":5.39397,"is_reserved":false,"is_disabled":false,"rental_uris":{"android":"levelo://app?vid=41af2f09-e134-4774-bb41-cd7e426cf111","ios":"levelo://app?vid=41af2f09-e134-4774-bb41-cd7e426cf111"},"vehicle_type_id":"4","last_reported":1702112780,"current_range_meters":21200,"station_id":"ce4bh292rcd13ifvqdf0","pricing_plan_id":"free"},{"bike_id":"11827d9c-dab2-4e6e-a8a5-19328753934f","system_id":"levelo_inurba_marseille","lat":43.286039,"lon":5.370681,"is_reserved":false,"is_disabled":false,"rental_uris":{"android":"levelo://app?vid=11827d9c-dab2-4e6e-a8a5-19328753934f","ios":"levelo://app?vid=11827d9c-dab2-4e6e-a8a5-19328753934f"},"vehicle_type_id":"4","last_reported":1702112780,"current_range_meters":18000,"station_id":"ce4bht12rcd13ifvqi60","pricing_plan_id":"free"},{"bike_id":"49658399-508d-489c-8ecf-17152ba09692","system_id":"levelo_inurba_marseille","lat":43.286039,"lon":5.370679,"is_reserved":false,"is_disabled":false,"rental_uris":{"android":"levelo://app?vid=49658399-508d-489c-8ecf-17152ba09692","ios":"levelo://app?vid=49658399-508d-489c-8ecf-17152ba09692"},"vehicle_type_id":"4","last_reported":1702112780,"current_range_meters":18800,"station_id":"ce4bht12rcd13ifvqi60","pricing_plan_id":"free"},{"bike_id":"63dd53fe-e70c-4b5e-914b-525f14509266","system_id":"levelo_inurba_marseille","lat":43.3169,"lon":5.40476,"is_reserved":false,"is_disabled":false,"rental_uris":{"android":"levelo://app?vid=63dd53fe-e70c-4b5e-914b-525f14509266","ios":"levelo://app?vid=63dd53fe-e70c-4b5e-914b-525f14509266"},"vehicle_type_id":"4","last_reported":1702112780,"current_range_meters":12000,"station_id":"ce4bh012rcd13ifvqd00","pricing_plan_id":"free"},{"bike_id":"139b5c27-953e-4eba-b438-40258d263d4d","system_id":"levelo_inurba_marseille","lat":43.28461,"lon":5.3589,"is_reserved":false,"is_disabled":false,"rental_uris":{"android":"levelo://app?vid=139b5c27-953e-4eba-b438-40258d263d4d","ios":"levelo://app?vid=139b5c27-953e-4eba-b438-40258d263d4d"},"vehicle_type_id":"4","last_reported":1702112780,"current_range_meters":31200,"station_id":"ce4bhah2rcd13ifvqei0","pricing_plan_id":"free"},{"bike_id":"c6fe9f00-9b73-4e8f-b600-1d49cfc12157","system_id":"levelo_inurba_marseille","lat":43.2846,"lon":5.35892,"is_reserved":false,"is_disabled":false,"rental_uris":{"android":"levelo://app?vid=c6fe9f00-9b73-4e8f-b600-1d49cfc12157","ios":"levelo://app?vid=c6fe9f00-9b73-4e8f-b600-1d49cfc12157"},"vehicle_type_id":"4","last_reported":1702112780,"current_range_meters":15200,"station_id":"ce4bhah2rcd13ifvqei0","pricing_plan_id":"free"},{"bike_id":"56380940-1685-40ff-9442-5aea03747329","system_id":"levelo_inurba_marseille","lat":43.284585,"lon":5.35891,"is_reserved":false,"is_disabled":false,"rental_uris":{"android":"levelo://app?vid=56380940-1685-40ff-9442-5aea03747329","ios":"levelo://app?vid=56380940-1685-40ff-9442-5aea03747329"},"vehicle_type_id":"4","last_reported":1702112780,"current_range_meters":22800,"station_id":"ce4bhah2rcd13ifvqei0","pricing_plan_id":"free"},{"bike_id":"591cb939-6b0a-4b19-83ff-445e61f6c1d6","system_id":"levelo_inurba_marseille","lat":43.28458,"lon":5.358935,"is_reserved":false,"is_disabled":false,"rental_uris":{"android":"levelo://app?vid=591cb939-6b0a-4b19-83ff-445e61f6c1d6","ios":"levelo://app?vid=591cb939-6b0a-4b19-83ff-445e61f6c1d6"},"vehicle_type_id":"4","last_reported":1702112780,"current_range_meters":31200,"station_id":"ce4bhah2rcd13ifvqei0","pricing_plan_id":"free"},{"bike_id":"441b82a9-77aa-44f1-bfd8-b490f77f947a","system_id":"levelo_inurba_marseille","lat":43.284521,"lon":5.358919,"is_reserved":false,"is_disabled":false,"rental_uris":{"android":"levelo://app?vid=441b82a9-77aa-44f1-bfd8-b490f77f947a","ios":"levelo://app?vid=441b82a9-77aa-44f1-bfd8-b490f77f947a"},"vehicle_type_id":"4","last_reported":1702112780,"current_range_meters":14000,"station_id":"ce4bhah2rcd13ifvqei0","pricing_plan_id":"free"},{"bike_id":"da87a1b6-df1e-41cd-b3f0-7abc8219a39f","system_id":"levelo_inurba_marseille","lat":43.284517,"lon":5.358867,"is_reserved":false,"is_disabled":false,"rental_uris":{"android":"levelo://app?vid=da87a1b6-df1e-41cd-b3f0-7abc8219a39f","ios":"levelo://app?vid=da87a1b6-df1e-41cd-b3f0-7abc8219a39f"},"vehicle_type_id":"4","last_reported":1702112780,"current_range_meters":0,"station_id":"ce4bhah2rcd13ifvqei0","pricing_plan_id":"free"},{"bike_id":"6ae86d4f-25b2-4f8e-b785-b23802eeeb1a","system_id":"levelo_inurba_marseille","lat":43.286167,"lon":5.351067,"is_reserved":false,"is_disabled":false,"rental_uris":{"android":"levelo://app?vid=6ae86d4f-25b2-4f8e-b785-b23802eeeb1a","ios":"levelo://app?vid=6ae86d4f-25b2-4f8e-b785-b23802eeeb1a"},"vehicle_type_id":"4","last_reported":1702112780,"current_range_meters":25200,"station_id":"","pricing_plan_id":"free"},{"bike_id":"a74a3878-4eea-4074-b70f-591ba450338d","system_id":"levelo_inurba_marseille","lat":43.28612,"lon":5.35101,"is_reserved":false,"is_disabled":false,"rental_uris":{"android":"levelo://app?vid=a74a3878-4eea-4074-b70f-591ba450338d","ios":"levelo://app?vid=a74a3878-4eea-4074-b70f-591ba450338d"},"vehicle_type_id":"4","last_reported":1702112780,"current_range_meters":29200,"station_id":"ce4bhch2rcd13ifvqeug","pricing_plan_id":"free"},{"bike_id":"78c36d60-2bae-4932-b2cc-0fc466d2af8d","system_id":"levelo_inurba_marseille","lat":43.28416,"lon":5.37515,"is_reserved":false,"is_disabled":false,"rental_uris":{"android":"levelo://app?vid=78c36d60-2bae-4932-b2cc-0fc466d2af8d","ios":"levelo://app?vid=78c36d60-2bae-4932-b2cc-0fc466d2af8d"},"vehicle_type_id":"4","last_reported":1702112780,"current_range_meters":0,"station_id":"ce4bh412rcd13ifvqds0","pricing_plan_id":"free"},{"bike_id":"324d6f9f-42f6-4266-9049-e3939b639ea9","system_id":"levelo_inurba_marseille","lat":43.337168,"lon":5.391825,"is_reserved":false,"is_disabled":false,"rental_uris":{"android":"levelo://app?vid=324d6f9f-42f6-4266-9049-e3939b639ea9","ios":"levelo://app?vid=324d6f9f-42f6-4266-9049-e3939b639ea9"},"vehicle_type_id":"4","last_reported":1702112780,"current_range_meters":26400,"station_id":"ce4bhr92rcd13ifvqhsg","pricing_plan_id":"free"},{"bike_id":"7bac831d-5d3e-43e9-9263-1b81a2a7b97d","system_id":"levelo_inurba_marseille","lat":43.323464,"lon":5.406297,"is_reserved":false,"is_disabled":false,"rental_uris":{"android":"levelo://app?vid=7bac831d-5d3e-43e9-9263-1b81a2a7b97d","ios":"levelo://app?vid=7bac831d-5d3e-43e9-9263-1b81a2a7b97d"},"vehicle_type_id":"4","last_reported":1702112780,"current_range_meters":23200,"station_id":"ce4bhq92rcd13ifvqhjg","pricing_plan_id":"free"},{"bike_id":"efe9d2cc-d0eb-4e85-b313-6bf62b4d4d4c","system_id":"levelo_inurba_marseille","lat":43.33717,"lon":5.391857,"is_reserved":false,"is_disabled":false,"rental_uris":{"android":"levelo://app?vid=efe9d2cc-d0eb-4e85-b313-6bf62b4d4d4c","ios":"levelo://app?vid=efe9d2cc-d0eb-4e85-b313-6bf62b4d4d4c"},"vehicle_type_id":"4","last_reported":1702112780,"current_range_meters":0,"station_id":"ce4bhr92rcd13ifvqhsg","pricing_plan_id":"free"},{"bike_id":"394e7ef0-8795-4b05-b68f-3db5b0a2f588","system_id":"levelo_inurba_marseille","lat":43.33717,"lon":5.391857,"is_reserved":false,"is_disabled":false,"rental_uris":{"android":"levelo://app?vid=394e7ef0-8795-4b05-b68f-3db5b0a2f588","ios":"levelo://app?vid=394e7ef0-8795-4b05-b68f-3db5b0a2f588"},"vehicle_type_id":"4","last_reported":1702112780,"current_range_meters":29200,"station_id":"ce4bhr92rcd13ifvqhsg","pricing_plan_id":"free"},{"bike_id":"a7230183-1dd3-4c8b-a272-6fb2177393fb","system_id":"levelo_inurba_marseille","lat":43.284793,"lon":5.384119,"is_reserved":false,"is_disabled":false,"rental_uris":{"android":"levelo://app?vid=a7230183-1dd3-4c8b-a272-6fb2177393fb","ios":"levelo://app?vid=a7230183-1dd3-4c8b-a272-6fb2177393fb"},"vehicle_type_id":"4","last_reported":1702112780,"current_range_meters":20000,"station_id":"ce4bh512rcd13ifvqe3g","pricing_plan_id":"free"},{"bike_id":"2ca14446-306f-4eec-a71a-fdafae2b1900","system_id":"levelo_inurba_marseille","lat":43.284787,"lon":5.384116,"is_reserved":false,"is_disabled":false,"rental_uris":{"android":"levelo://app?vid=2ca14446-306f-4eec-a71a-fdafae2b1900","ios":"levelo://app?vid=2ca14446-306f-4eec-a71a-fdafae2b1900"},"vehicle_type_id":"4","last_reported":1702112780,"current_range_meters":25600,"station_id":"ce4bh512rcd13ifvqe3g","pricing_plan_id":"free"},{"bike_id":"4c031f33-c497-4d42-b48d-0014bb52218e","system_id":"levelo_inurba_marseille","lat":43.283494,"lon":5.380945,"is_reserved":false,"is_disabled":false,"rental_uris":{"android":"levelo://app?vid=4c031f33-c497-4d42-b48d-0014bb52218e","ios":"levelo://app?vid=4c031f33-c497-4d42-b48d-0014bb52218e"},"vehicle_type_id":"4","last_reported":1702112780,"current_range_meters":25600,"station_id":"ce4bh412rcd13ifvqdr0","pricing_plan_id":"free"},{"bike_id":"acbe90a0-2225-4d24-93e4-2d88e4a13367","system_id":"levelo_inurba_marseille","lat":43.283498,"lon":5.380948,"is_reserved":false,"is_disabled":false,"rental_uris":{"android":"levelo://app?vid=acbe90a0-2225-4d24-93e4-2d88e4a13367","ios":"levelo://app?vid=acbe90a0-2225-4d24-93e4-2d88e4a13367"},"vehicle_type_id":"4","last_reported":1702112780,"current_range_meters":28800,"station_id":"ce4bh412rcd13ifvqdr0","pricing_plan_id":"free"},{"bike_id":"094f244e-a634-4401-be80-c0e1dd45234e","system_id":"levelo_inurba_marseille","lat":43.283494,"lon":5.380945,"is_reserved":false,"is_disabled":false,"rental_uris":{"android":"levelo://app?vid=094f244e-a634-4401-be80-c0e1dd45234e","ios":"levelo://app?vid=094f244e-a634-4401-be80-c0e1dd45234e"},"vehicle_type_id":"4","last_reported":1702112780,"current_range_meters":24800,"station_id":"ce4bh412rcd13ifvqdr0","pricing_plan_id":"free"},{"bike_id":"9bf2b7f0-ca8b-4a0b-aad0-d4fee0652ce3","system_id":"levelo_inurba_marseille","lat":43.283498,"lon":5.380948,"is_reserved":false,"is_disabled":false,"rental_uris":{"android":"levelo://app?vid=9bf2b7f0-ca8b-4a0b-aad0-d4fee0652ce3","ios":"levelo://app?vid=9bf2b7f0-ca8b-4a0b-aad0-d4fee0652ce3"},"vehicle_type_id":"4","last_reported":1702112780,"current_range_meters":23200,"station_id":"ce4bh412rcd13ifvqdr0","pricing_plan_id":"free"},{"bike_id":"bcce3b25-1537-4198-b1da-695a0ed0517f","system_id":"levelo_inurba_marseille","lat":43.284214,"lon":5.349706,"is_reserved":false,"is_disabled":false,"rental_uris":{"android":"levelo://app?vid=bcce3b25-1537-4198-b1da-695a0ed0517f","ios":"levelo://app?vid=bcce3b25-1537-4198-b1da-695a0ed0517f"},"vehicle_type_id":"4","last_reported":1702112780,"current_range_meters":27600,"station_id":"ce4bhbh2rcd13ifvqepg","pricing_plan_id":"free"},{"bike_id":"6b790828-6b74-4e67-84eb-1cbb80a76640","system_id":"levelo_inurba_marseille","lat":43.282754,"lon":5.350519,"is_reserved":false,"is_disabled":false,"rental_uris":{"android":"levelo://app?vid=6b790828-6b74-4e67-84eb-1cbb80a76640","ios":"levelo://app?vid=6b790828-6b74-4e67-84eb-1cbb80a76640"},"vehicle_type_id":"4","last_reported":1702112780,"current_range_meters":21200,"station_id":"ce4bhbp2rcd13ifvqerg","pricing_plan_id":"free"},{"bike_id":"4fcca0f6-58dd-47c0-9d91-6b6b9ef9c751","system_id":"levelo_inurba_marseille","lat":43.282744,"lon":5.350533,"is_reserved":false,"is_disabled":false,"rental_uris":{"android":"levelo://app?vid=4fcca0f6-58dd-47c0-9d91-6b6b9ef9c751","ios":"levelo://app?vid=4fcca0f6-58dd-47c0-9d91-6b6b9ef9c751"},"vehicle_type_id":"4","last_reported":1702112780,"current_range_meters":28000,"station_id":"ce4bhbp2rcd13ifvqerg","pricing_plan_id":"free"},{"bike_id":"a5a55f7b-f872-43d7-a8c9-437e741fe606","system_id":"levelo_inurba_marseille","lat":43.282754,"lon":5.350519,"is_reserved":false,"is_disabled":false,"rental_uris":{"android":"levelo://app?vid=a5a55f7b-f872-43d7-a8c9-437e741fe606","ios":"levelo://app?vid=a5a55f7b-f872-43d7-a8c9-437e741fe606"},"vehicle_type_id":"4","last_reported":1702112780,"current_range_meters":27200,"station_id":"ce4bhbp2rcd13ifvqerg","pricing_plan_id":"free"},{"bike_id":"fd55973d-c6c2-4e1d-95c4-b7e753eaea9b","system_id":"levelo_inurba_marseille","lat":43.28267,"lon":5.35068,"is_reserved":false,"is_disabled":false,"rental_uris":{"android":"levelo://app?vid=fd55973d-c6c2-4e1d-95c4-b7e753eaea9b","ios":"levelo://app?vid=fd55973d-c6c2-4e1d-95c4-b7e753eaea9b"},"vehicle_type_id":"4","last_reported":1702112780,"current_range_meters":19600,"station_id":"ce4bhbp2rcd13ifvqerg","pricing_plan_id":"free"},{"bike_id":"b8563099-ece3-45c3-8ef1-f068ee71708f","system_id":"levelo_inurba_marseille","lat":43.282754,"lon":5.350519,"is_reserved":false,"is_disabled":false,"rental_uris":{"android":"levelo://app?vid=b8563099-ece3-45c3-8ef1-f068ee71708f","ios":"levelo://app?vid=b8563099-ece3-45c3-8ef1-f068ee71708f"},"vehicle_type_id":"4","last_reported":1702112780,"current_range_meters":6400,"station_id":"ce4bhbp2rcd13ifvqerg","pricing_plan_id":"free"},{"bike_id":"add42bf1-5cf6-4379-a8b6-46622f002f02","system_id":"levelo_inurba_marseille","lat":43.28036,"lon":5.36941,"is_reserved":false,"is_disabled":false,"rental_uris":{"android":"levelo://app?vid=add42bf1-5cf6-4379-a8b6-46622f002f02","ios":"levelo://app?vid=add42bf1-5cf6-4379-a8b6-46622f002f02"},"vehicle_type_id":"4","last_reported":1702112780,"current_range_meters":20000,"station_id":"ce4bha12rcd13ifvqef0","pricing_plan_id":"free"},{"bike_id":"e52ddfd6-0ddd-4c7b-ab34-3c7fe5c2aaef","system_id":"levelo_inurba_marseille","lat":43.326605,"lon":5.409903,"is_reserved":false,"is_disabled":false,"rental_uris":{"android":"levelo://app?vid=e52ddfd6-0ddd-4c7b-ab34-3c7fe5c2aaef","ios":"levelo://app?vid=e52ddfd6-0ddd-4c7b-ab34-3c7fe5c2aaef"},"vehicle_type_id":"4","last_reported":1702112780,"current_range_meters":31200,"station_id":"ce4bhpp2rcd13ifvqhgg","pricing_plan_id":"free"},{"bike_id":"5e578afd-3e4d-4841-96fa-cf1bf643d8d9","system_id":"levelo_inurba_marseille","lat":43.326605,"lon":5.409903,"is_reserved":false,"is_disabled":false,"rental_uris":{"android":"levelo://app?vid=5e578afd-3e4d-4841-96fa-cf1bf643d8d9","ios":"levelo://app?vid=5e578afd-3e4d-4841-96fa-cf1bf643d8d9"},"vehicle_type_id":"4","last_reported":1702112780,"current_range_meters":20000,"station_id":"ce4bhpp2rcd13ifvqhgg","pricing_plan_id":"free"},{"bike_id":"c0763524-47cd-4818-80fc-1b29f8280dc8","system_id":"levelo_inurba_marseille","lat":43.326605,"lon":5.409903,"is_reserved":false,"is_disabled":false,"rental_uris":{"android":"levelo://app?vid=c0763524-47cd-4818-80fc-1b29f8280dc8","ios":"levelo://app?vid=c0763524-47cd-4818-80fc-1b29f8280dc8"},"vehicle_type_id":"4","last_reported":1702112780,"current_range_meters":31200,"station_id":"ce4bhpp2rcd13ifvqhgg","pricing_plan_id":"free"},{"bike_id":"c6edb2c0-fca4-4817-ac1a-8acfbd5f7de7","system_id":"levelo_inurba_marseille","lat":43.326605,"lon":5.409903,"is_reserved":false,"is_disabled":false,"rental_uris":{"android":"levelo://app?vid=c6edb2c0-fca4-4817-ac1a-8acfbd5f7de7","ios":"levelo://app?vid=c6edb2c0-fca4-4817-ac1a-8acfbd5f7de7"},"vehicle_type_id":"4","last_reported":1702112780,"current_range_meters":30000,"station_id":"ce4bhpp2rcd13ifvqhgg","pricing_plan_id":"free"},{"bike_id":"602a54ad-4929-4a4f-9c51-e372b2edb079","system_id":"levelo_inurba_marseille","lat":43.32656,"lon":5.40998,"is_reserved":false,"is_disabled":false,"rental_uris":{"android":"levelo://app?vid=602a54ad-4929-4a4f-9c51-e372b2edb079","ios":"levelo://app?vid=602a54ad-4929-4a4f-9c51-e372b2edb079"},"vehicle_type_id":"4","last_reported":1702112780,"current_range_meters":30800,"station_id":"ce4bhpp2rcd13ifvqhgg","pricing_plan_id":"free"},{"bike_id":"df2fa591-e017-46d5-b19e-b98eb6a1ab8b","system_id":"levelo_inurba_marseille","lat":43.304118,"lon":5.41287,"is_reserved":false,"is_disabled":false,"rental_uris":{"android":"levelo://app?vid=df2fa591-e017-46d5-b19e-b98eb6a1ab8b","ios":"levelo://app?vid=df2fa591-e017-46d5-b19e-b98eb6a1ab8b"},"vehicle_type_id":"4","last_reported":1702112780,"current_range_meters":24400,"station_id":"ce4bhop2rcd13ifvqh8g","pricing_plan_id":"free"},{"bike_id":"11bad7b2-af7a-40ce-ba05-6a9b58414cea","system_id":"levelo_inurba_marseille","lat":43.287154,"lon":5.399979,"is_reserved":false,"is_disabled":false,"rental_uris":{"android":"levelo://app?vid=11bad7b2-af7a-40ce-ba05-6a9b58414cea","ios":"levelo://app?vid=11bad7b2-af7a-40ce-ba05-6a9b58414cea"},"vehicle_type_id":"4","last_reported":1702112780,"current_range_meters":30000,"station_id":"ce4bho92rcd13ifvqh3g","pricing_plan_id":"free"},{"bike_id":"ff2f4825-91c4-4487-bfc5-d44d71d52695","system_id":"levelo_inurba_marseille","lat":43.292569,"lon":5.409107,"is_reserved":false,"is_disabled":false,"rental_uris":{"android":"levelo://app?vid=ff2f4825-91c4-4487-bfc5-d44d71d52695","ios":"levelo://app?vid=ff2f4825-91c4-4487-bfc5-d44d71d52695"},"vehicle_type_id":"4","last_reported":1702112780,"current_range_meters":7200,"station_id":"ce4bh192rcd13ifvqdc0","pricing_plan_id":"free"},{"bike_id":"70ac7416-454d-4b9e-8657-0711b043e459","system_id":"levelo_inurba_marseille","lat":43.320045,"lon":5.415046,"is_reserved":false,"is_disabled":false,"rental_uris":{"android":"levelo://app?vid=70ac7416-454d-4b9e-8657-0711b043e459","ios":"levelo://app?vid=70ac7416-454d-4b9e-8657-0711b043e459"},"vehicle_type_id":"4","last_reported":1702112780,"current_range_meters":28400,"station_id":"ce4bhq92rcd13ifvqhkg","pricing_plan_id":"free"},{"bike_id":"21edfed3-fb59-4281-84d0-ebb8bb92a86b","system_id":"levelo_inurba_marseille","lat":43.279742,"lon":5.38744,"is_reserved":false,"is_disabled":false,"rental_uris":{"android":"levelo://app?vid=21edfed3-fb59-4281-84d0-ebb8bb92a86b","ios":"levelo://app?vid=21edfed3-fb59-4281-84d0-ebb8bb92a86b"},"vehicle_type_id":"4","last_reported":1702112780,"current_range_meters":7600,"station_id":"ce4bhg12rcd13ifvqf80","pricing_plan_id":"free"},{"bike_id":"71b63bbf-97e6-4b65-9ef6-e4b2a4c6338d","system_id":"levelo_inurba_marseille","lat":43.325243,"lon":5.414326,"is_reserved":false,"is_disabled":false,"rental_uris":{"android":"levelo://app?vid=71b63bbf-97e6-4b65-9ef6-e4b2a4c6338d","ios":"levelo://app?vid=71b63bbf-97e6-4b65-9ef6-e4b2a4c6338d"},"vehicle_type_id":"4","last_reported":1702112780,"current_range_meters":26400,"station_id":"ce4bhq12rcd13ifvqhhg","pricing_plan_id":"free"},{"bike_id":"cad2aa93-1dd6-4f61-aed7-63bd8874b030","system_id":"levelo_inurba_marseille","lat":43.30355,"lon":5.41875,"is_reserved":false,"is_disabled":false,"rental_uris":{"android":"levelo://app?vid=cad2aa93-1dd6-4f61-aed7-63bd8874b030","ios":"levelo://app?vid=cad2aa93-1dd6-4f61-aed7-63bd8874b030"},"vehicle_type_id":"4","last_reported":1702112780,"current_range_meters":4800,"station_id":"ce4bhop2rcd13ifvqh7g","pricing_plan_id":"free"},{"bike_id":"24543067-89fb-4809-919a-61ff64ddfd63","system_id":"levelo_inurba_marseille","lat":43.33612,"lon":5.410321,"is_reserved":false,"is_disabled":false,"rental_uris":{"android":"levelo://app?vid=24543067-89fb-4809-919a-61ff64ddfd63","ios":"levelo://app?vid=24543067-89fb-4809-919a-61ff64ddfd63"},"vehicle_type_id":"4","last_reported":1702112780,"current_range_meters":2800,"station_id":"ce4bhqh2rcd13ifvqhmg","pricing_plan_id":"free"},{"bike_id":"00aefffc-0b3f-4f37-b088-c293e94bb941","system_id":"levelo_inurba_marseille","lat":43.27383,"lon":5.36252,"is_reserved":false,"is_disabled":false,"rental_uris":{"android":"levelo://app?vid=00aefffc-0b3f-4f37-b088-c293e94bb941","ios":"levelo://app?vid=00aefffc-0b3f-4f37-b088-c293e94bb941"},"vehicle_type_id":"4","last_reported":1702112780,"current_range_meters":22800,"station_id":"ce4bhbh2rcd13ifvqeo0","pricing_plan_id":"free"},{"bike_id":"8524bb52-56a5-458d-82f3-0a1f0ef4e77b","system_id":"levelo_inurba_marseille","lat":43.273613,"lon":5.362705,"is_reserved":false,"is_disabled":false,"rental_uris":{"android":"levelo://app?vid=8524bb52-56a5-458d-82f3-0a1f0ef4e77b","ios":"levelo://app?vid=8524bb52-56a5-458d-82f3-0a1f0ef4e77b"},"vehicle_type_id":"4","last_reported":1702112780,"current_range_meters":17600,"station_id":"ce4bhbh2rcd13ifvqeo0","pricing_plan_id":"free"},{"bike_id":"fc4bcc5b-5f4e-42a1-8cca-78d5c651475f","system_id":"levelo_inurba_marseille","lat":43.317121,"lon":5.423936,"is_reserved":false,"is_disabled":false,"rental_uris":{"android":"levelo://app?vid=fc4bcc5b-5f4e-42a1-8cca-78d5c651475f","ios":"levelo://app?vid=fc4bcc5b-5f4e-42a1-8cca-78d5c651475f"},"vehicle_type_id":"4","last_reported":1702112780,"current_range_meters":26800,"station_id":"ce4bhp92rcd13ifvqhbg","pricing_plan_id":"free"},{"bike_id":"b5e520e0-8911-4af3-a2d4-7d3ed4e4e33e","system_id":"levelo_inurba_marseille","lat":43.31712,"lon":5.424,"is_reserved":false,"is_disabled":false,"rental_uris":{"android":"levelo://app?vid=b5e520e0-8911-4af3-a2d4-7d3ed4e4e33e","ios":"levelo://app?vid=b5e520e0-8911-4af3-a2d4-7d3ed4e4e33e"},"vehicle_type_id":"4","last_reported":1702112780,"current_range_meters":11200,"station_id":"ce4bhp92rcd13ifvqhbg","pricing_plan_id":"free"},{"bike_id":"02791883-a925-42a0-9dd3-b7193f6a574b","system_id":"levelo_inurba_marseille","lat":43.31715,"lon":5.424,"is_reserved":false,"is_disabled":false,"rental_uris":{"android":"levelo://app?vid=02791883-a925-42a0-9dd3-b7193f6a574b","ios":"levelo://app?vid=02791883-a925-42a0-9dd3-b7193f6a574b"},"vehicle_type_id":"4","last_reported":1702112780,"current_range_meters":4800,"station_id":"ce4bhp92rcd13ifvqhbg","pricing_plan_id":"free"},{"bike_id":"e6ff414d-6f05-44d2-b7c6-4a89a6fc64e2","system_id":"levelo_inurba_marseille","lat":43.310869,"lon":5.424268,"is_reserved":false,"is_disabled":false,"rental_uris":{"android":"levelo://app?vid=e6ff414d-6f05-44d2-b7c6-4a89a6fc64e2","ios":"levelo://app?vid=e6ff414d-6f05-44d2-b7c6-4a89a6fc64e2"},"vehicle_type_id":"4","last_reported":1702112780,"current_range_meters":5600,"station_id":"ce4bhp92rcd13ifvqhag","pricing_plan_id":"free"},{"bike_id":"0f7a9644-c470-46e7-ae97-75a010349f8b","system_id":"levelo_inurba_marseille","lat":43.317121,"lon":5.423936,"is_reserved":false,"is_disabled":false,"rental_uris":{"android":"levelo://app?vid=0f7a9644-c470-46e7-ae97-75a010349f8b","ios":"levelo://app?vid=0f7a9644-c470-46e7-ae97-75a010349f8b"},"vehicle_type_id":"4","last_reported":1702112780,"current_range_meters":26400,"station_id":"ce4bhp92rcd13ifvqhbg","pricing_plan_id":"free"},{"bike_id":"3382fddf-23bf-43e2-9be0-1a0233fdea3a","system_id":"levelo_inurba_marseille","lat":43.31085,"lon":5.42428,"is_reserved":false,"is_disabled":false,"rental_uris":{"android":"levelo://app?vid=3382fddf-23bf-43e2-9be0-1a0233fdea3a","ios":"levelo://app?vid=3382fddf-23bf-43e2-9be0-1a0233fdea3a"},"vehicle_type_id":"4","last_reported":1702112780,"current_range_meters":29200,"station_id":"ce4bhp92rcd13ifvqhag","pricing_plan_id":"free"},{"bike_id":"88e59060-d458-48a8-8abe-8a1913097d92","system_id":"levelo_inurba_marseille","lat":43.31716,"lon":5.42402,"is_reserved":false,"is_disabled":false,"rental_uris":{"android":"levelo://app?vid=88e59060-d458-48a8-8abe-8a1913097d92","ios":"levelo://app?vid=88e59060-d458-48a8-8abe-8a1913097d92"},"vehicle_type_id":"4","last_reported":1702112780,"current_range_meters":26000,"station_id":"ce4bhp92rcd13ifvqhbg","pricing_plan_id":"free"},{"bike_id":"80038031-3601-4c51-b66a-c6c9131d41d1","system_id":"levelo_inurba_marseille","lat":43.310785,"lon":5.424305,"is_reserved":false,"is_disabled":false,"rental_uris":{"android":"levelo://app?vid=80038031-3601-4c51-b66a-c6c9131d41d1","ios":"levelo://app?vid=80038031-3601-4c51-b66a-c6c9131d41d1"},"vehicle_type_id":"4","last_reported":1702112780,"current_range_meters":30400,"station_id":"ce4bhp92rcd13ifvqhag","pricing_plan_id":"free"},{"bike_id":"c58024d2-cabc-4012-868c-d0b5976a6bb0","system_id":"levelo_inurba_marseille","lat":43.317121,"lon":5.423936,"is_reserved":false,"is_disabled":false,"rental_uris":{"android":"levelo://app?vid=c58024d2-cabc-4012-868c-d0b5976a6bb0","ios":"levelo://app?vid=c58024d2-cabc-4012-868c-d0b5976a6bb0"},"vehicle_type_id":"4","last_reported":1702112780,"current_range_meters":29200,"station_id":"ce4bhp92rcd13ifvqhbg","pricing_plan_id":"free"},{"bike_id":"e7bd1e73-4f86-473d-905c-a7b0f3d6ad8a","system_id":"levelo_inurba_marseille","lat":43.31723,"lon":5.42405,"is_reserved":false,"is_disabled":false,"rental_uris":{"android":"levelo://app?vid=e7bd1e73-4f86-473d-905c-a7b0f3d6ad8a","ios":"levelo://app?vid=e7bd1e73-4f86-473d-905c-a7b0f3d6ad8a"},"vehicle_type_id":"4","last_reported":1702112780,"current_range_meters":18000,"station_id":"ce4bhp92rcd13ifvqhbg","pricing_plan_id":"free"},{"bike_id":"fe6596e6-baa8-4e45-9baf-7421815b8310","system_id":"levelo_inurba_marseille","lat":43.31083,"lon":5.42432,"is_reserved":false,"is_disabled":false,"rental_uris":{"android":"levelo://app?vid=fe6596e6-baa8-4e45-9baf-7421815b8310","ios":"levelo://app?vid=fe6596e6-baa8-4e45-9baf-7421815b8310"},"vehicle_type_id":"4","last_reported":1702112780,"current_range_meters":16000,"station_id":"ce4bhp92rcd13ifvqhag","pricing_plan_id":"free"},{"bike_id":"48e3df08-57dc-434d-a06c-f6f751cd351f","system_id":"levelo_inurba_marseille","lat":43.310785,"lon":5.424305,"is_reserved":false,"is_disabled":false,"rental_uris":{"android":"levelo://app?vid=48e3df08-57dc-434d-a06c-f6f751cd351f","ios":"levelo://app?vid=48e3df08-57dc-434d-a06c-f6f751cd351f"},"vehicle_type_id":"4","last_reported":1702112780,"current_range_meters":20800,"station_id":"ce4bhp92rcd13ifvqhag","pricing_plan_id":"free"},{"bike_id":"63133364-316e-458e-b234-bbd4926c63fc","system_id":"levelo_inurba_marseille","lat":43.27583,"lon":5.39474,"is_reserved":false,"is_disabled":false,"rental_uris":{"android":"levelo://app?vid=63133364-316e-458e-b234-bbd4926c63fc","ios":"levelo://app?vid=63133364-316e-458e-b234-bbd4926c63fc"},"vehicle_type_id":"4","last_reported":1702112780,"current_range_meters":8400,"station_id":"","pricing_plan_id":"free"},{"bike_id":"3e4a4c93-9b65-4b8c-ad85-0235506115da","system_id":"levelo_inurba_marseille","lat":43.274099,"lon":5.394019,"is_reserved":false,"is_disabled":false,"rental_uris":{"android":"levelo://app?vid=3e4a4c93-9b65-4b8c-ad85-0235506115da","ios":"levelo://app?vid=3e4a4c93-9b65-4b8c-ad85-0235506115da"},"vehicle_type_id":"4","last_reported":1702112780,"current_range_meters":23200,"station_id":"ce4bhdp2rcd13ifvqf20","pricing_plan_id":"free"},{"bike_id":"fc6794cf-495d-453d-b822-fc2923d07b21","system_id":"levelo_inurba_marseille","lat":43.30413,"lon":5.42544,"is_reserved":false,"is_disabled":false,"rental_uris":{"android":"levelo://app?vid=fc6794cf-495d-453d-b822-fc2923d07b21","ios":"levelo://app?vid=fc6794cf-495d-453d-b822-fc2923d07b21"},"vehicle_type_id":"4","last_reported":1702112780,"current_range_meters":12000,"station_id":"ce4bhoh2rcd13ifvqh6g","pricing_plan_id":"free"},{"bike_id":"b0ace1ee-48c1-47ff-b8ca-0f59683651a4","system_id":"levelo_inurba_marseille","lat":43.295523,"lon":5.422926,"is_reserved":false,"is_disabled":false,"rental_uris":{"android":"levelo://app?vid=b0ace1ee-48c1-47ff-b8ca-0f59683651a4","ios":"levelo://app?vid=b0ace1ee-48c1-47ff-b8ca-0f59683651a4"},"vehicle_type_id":"4","last_reported":1702112780,"current_range_meters":30000,"station_id":"ce4bhph2rcd13ifvqhdg","pricing_plan_id":"free"},{"bike_id":"d04013a3-534f-4ad9-a405-306181f29573","system_id":"levelo_inurba_marseille","lat":43.295511,"lon":5.422926,"is_reserved":false,"is_disabled":false,"rental_uris":{"android":"levelo://app?vid=d04013a3-534f-4ad9-a405-306181f29573","ios":"levelo://app?vid=d04013a3-534f-4ad9-a405-306181f29573"},"vehicle_type_id":"4","last_reported":1702112780,"current_range_meters":14800,"station_id":"ce4bhph2rcd13ifvqhdg","pricing_plan_id":"free"},{"bike_id":"5ed4ca3b-e38e-4196-acea-f278768787eb","system_id":"levelo_inurba_marseille","lat":43.295511,"lon":5.422926,"is_reserved":false,"is_disabled":false,"rental_uris":{"android":"levelo://app?vid=5ed4ca3b-e38e-4196-acea-f278768787eb","ios":"levelo://app?vid=5ed4ca3b-e38e-4196-acea-f278768787eb"},"vehicle_type_id":"4","last_reported":1702112780,"current_range_meters":31200,"station_id":"ce4bhph2rcd13ifvqhdg","pricing_plan_id":"free"},{"bike_id":"4f9e48a0-eacd-4e63-bd3c-330b19e5c041","system_id":"levelo_inurba_marseille","lat":43.295511,"lon":5.422926,"is_reserved":false,"is_disabled":false,"rental_uris":{"android":"levelo://app?vid=4f9e48a0-eacd-4e63-bd3c-330b19e5c041","ios":"levelo://app?vid=4f9e48a0-eacd-4e63-bd3c-330b19e5c041"},"vehicle_type_id":"4","last_reported":1702112780,"current_range_meters":31200,"station_id":"ce4bhph2rcd13ifvqhdg","pricing_plan_id":"free"},{"bike_id":"8f021145-48f8-459b-aef0-f8921e18b0a0","system_id":"levelo_inurba_marseille","lat":43.27214,"lon":5.3925,"is_reserved":false,"is_disabled":false,"rental_uris":{"android":"levelo://app?vid=8f021145-48f8-459b-aef0-f8921e18b0a0","ios":"levelo://app?vid=8f021145-48f8-459b-aef0-f8921e18b0a0"},"vehicle_type_id":"4","last_reported":1702112780,"current_range_meters":2400,"station_id":"","pricing_plan_id":"free"},{"bike_id":"cd337572-0ffd-4033-81f2-afa31815e4ce","system_id":"levelo_inurba_marseille","lat":43.26951,"lon":5.38628,"is_reserved":false,"is_disabled":false,"rental_uris":{"android":"levelo://app?vid=cd337572-0ffd-4033-81f2-afa31815e4ce","ios":"levelo://app?vid=cd337572-0ffd-4033-81f2-afa31815e4ce"},"vehicle_type_id":"4","last_reported":1702112780,"current_range_meters":25600,"station_id":"ce4bhh92rcd13ifvqfh0","pricing_plan_id":"free"},{"bike_id":"d0e524d2-9a51-4078-bd64-3c49605fffc0","system_id":"levelo_inurba_marseille","lat":43.26932,"lon":5.38926,"is_reserved":false,"is_disabled":false,"rental_uris":{"android":"levelo://app?vid=d0e524d2-9a51-4078-bd64-3c49605fffc0","ios":"levelo://app?vid=d0e524d2-9a51-4078-bd64-3c49605fffc0"},"vehicle_type_id":"4","last_reported":1702112780,"current_range_meters":1200,"station_id":"ce4bhhh2rcd13ifvqfl0","pricing_plan_id":"free"},{"bike_id":"fdcda1a8-9bff-47c1-8f71-c133277bd44a","system_id":"levelo_inurba_marseille","lat":43.269319,"lon":5.389397,"is_reserved":false,"is_disabled":false,"rental_uris":{"android":"levelo://app?vid=fdcda1a8-9bff-47c1-8f71-c133277bd44a","ios":"levelo://app?vid=fdcda1a8-9bff-47c1-8f71-c133277bd44a"},"vehicle_type_id":"4","last_reported":1702112780,"current_range_meters":16400,"station_id":"ce4bhhh2rcd13ifvqfl0","pricing_plan_id":"free"},{"bike_id":"6a42104f-e497-4f32-91f4-a30846d5a312","system_id":"levelo_inurba_marseille","lat":43.265714,"lon":5.372891,"is_reserved":false,"is_disabled":false,"rental_uris":{"android":"levelo://app?vid=6a42104f-e497-4f32-91f4-a30846d5a312","ios":"levelo://app?vid=6a42104f-e497-4f32-91f4-a30846d5a312"},"vehicle_type_id":"4","last_reported":1702112780,"current_range_meters":24400,"station_id":"ce4bhg12rcd13ifvqf70","pricing_plan_id":"free"},{"bike_id":"3315ff64-44e6-417a-b2e7-1e8925684364","system_id":"levelo_inurba_marseille","lat":43.279881,"lon":5.416579,"is_reserved":false,"is_disabled":false,"rental_uris":{"android":"levelo://app?vid=3315ff64-44e6-417a-b2e7-1e8925684364","ios":"levelo://app?vid=3315ff64-44e6-417a-b2e7-1e8925684364"},"vehicle_type_id":"4","last_reported":1702112780,"current_range_meters":3600,"station_id":"ce4bho12rcd13ifvqh1g","pricing_plan_id":"free"},{"bike_id":"f3065d6a-4d50-46ca-9bd0-63fffebb1129","system_id":"levelo_inurba_marseille","lat":43.265714,"lon":5.372891,"is_reserved":false,"is_disabled":false,"rental_uris":{"android":"levelo://app?vid=f3065d6a-4d50-46ca-9bd0-63fffebb1129","ios":"levelo://app?vid=f3065d6a-4d50-46ca-9bd0-63fffebb1129"},"vehicle_type_id":"4","last_reported":1702112780,"current_range_meters":26400,"station_id":"ce4bhg12rcd13ifvqf70","pricing_plan_id":"free"},{"bike_id":"8140807f-4a5f-4495-b23b-fe3acd4a5647","system_id":"levelo_inurba_marseille","lat":43.267966,"lon":5.393976,"is_reserved":false,"is_disabled":false,"rental_uris":{"android":"levelo://app?vid=8140807f-4a5f-4495-b23b-fe3acd4a5647","ios":"levelo://app?vid=8140807f-4a5f-4495-b23b-fe3acd4a5647"},"vehicle_type_id":"4","last_reported":1702112780,"current_range_meters":27200,"station_id":"ce4bhh12rcd13ifvqfg0","pricing_plan_id":"free"},{"bike_id":"953e4af0-c270-490b-8a35-21adbad82a34","system_id":"levelo_inurba_marseille","lat":43.308051,"lon":5.43527,"is_reserved":false,"is_disabled":false,"rental_uris":{"android":"levelo://app?vid=953e4af0-c270-490b-8a35-21adbad82a34","ios":"levelo://app?vid=953e4af0-c270-490b-8a35-21adbad82a34"},"vehicle_type_id":"4","last_reported":1702112780,"current_range_meters":21200,"station_id":"ce4bhph2rcd13ifvqheg","pricing_plan_id":"free"},{"bike_id":"e132b7fa-bdd6-4418-b1a5-031ca34f3a66","system_id":"levelo_inurba_marseille","lat":43.265565,"lon":5.390141,"is_reserved":false,"is_disabled":false,"rental_uris":{"android":"levelo://app?vid=e132b7fa-bdd6-4418-b1a5-031ca34f3a66","ios":"levelo://app?vid=e132b7fa-bdd6-4418-b1a5-031ca34f3a66"},"vehicle_type_id":"4","last_reported":1702112780,"current_range_meters":25200,"station_id":"ce4bhe12rcd13ifvqf30","pricing_plan_id":"free"},{"bike_id":"f9b02aaf-db50-4ee2-a015-da8c6eb9c2f1","system_id":"levelo_inurba_marseille","lat":43.261782,"lon":5.374515,"is_reserved":false,"is_disabled":false,"rental_uris":{"android":"levelo://app?vid=f9b02aaf-db50-4ee2-a015-da8c6eb9c2f1","ios":"levelo://app?vid=f9b02aaf-db50-4ee2-a015-da8c6eb9c2f1"},"vehicle_type_id":"4","last_reported":1702112780,"current_range_meters":31200,"station_id":"ce4bhgp2rcd13ifvqfc0","pricing_plan_id":"free"},{"bike_id":"10bd98e0-d0a2-4a25-a407-cc97034aa68c","system_id":"levelo_inurba_marseille","lat":43.31713,"lon":5.43702,"is_reserved":false,"is_disabled":false,"rental_uris":{"android":"levelo://app?vid=10bd98e0-d0a2-4a25-a407-cc97034aa68c","ios":"levelo://app?vid=10bd98e0-d0a2-4a25-a407-cc97034aa68c"},"vehicle_type_id":"4","last_reported":1702112780,"current_range_meters":8000,"station_id":"ce4bhp92rcd13ifvqhcg","pricing_plan_id":"free"},{"bike_id":"766f9bc5-cf93-4903-bf4f-bd10204d701c","system_id":"levelo_inurba_marseille","lat":43.261782,"lon":5.374515,"is_reserved":false,"is_disabled":false,"rental_uris":{"android":"levelo://app?vid=766f9bc5-cf93-4903-bf4f-bd10204d701c","ios":"levelo://app?vid=766f9bc5-cf93-4903-bf4f-bd10204d701c"},"vehicle_type_id":"4","last_reported":1702112780,"current_range_meters":21200,"station_id":"ce4bhgp2rcd13ifvqfc0","pricing_plan_id":"free"},{"bike_id":"ea004e79-19db-4587-a5b2-f49332aa3fda","system_id":"levelo_inurba_marseille","lat":43.317104,"lon":5.436818,"is_reserved":false,"is_disabled":false,"rental_uris":{"android":"levelo://app?vid=ea004e79-19db-4587-a5b2-f49332aa3fda","ios":"levelo://app?vid=ea004e79-19db-4587-a5b2-f49332aa3fda"},"vehicle_type_id":"4","last_reported":1702112780,"current_range_meters":21200,"station_id":"ce4bhp92rcd13ifvqhcg","pricing_plan_id":"free"},{"bike_id":"7bffc4ea-9a78-4f9c-8551-13bce1b1dbc7","system_id":"levelo_inurba_marseille","lat":43.317104,"lon":5.436818,"is_reserved":false,"is_disabled":false,"rental_uris":{"android":"levelo://app?vid=7bffc4ea-9a78-4f9c-8551-13bce1b1dbc7","ios":"levelo://app?vid=7bffc4ea-9a78-4f9c-8551-13bce1b1dbc7"},"vehicle_type_id":"4","last_reported":1702112780,"current_range_meters":31200,"station_id":"ce4bhp92rcd13ifvqhcg","pricing_plan_id":"free"},{"bike_id":"b81bca47-bca3-417b-8256-550bf92b75b0","system_id":"levelo_inurba_marseille","lat":43.262012,"lon":5.379307,"is_reserved":false,"is_disabled":false,"rental_uris":{"android":"levelo://app?vid=b81bca47-bca3-417b-8256-550bf92b75b0","ios":"levelo://app?vid=b81bca47-bca3-417b-8256-550bf92b75b0"},"vehicle_type_id":"4","last_reported":1702112780,"current_range_meters":26800,"station_id":"ce4bhjp2rcd13ifvqg90","pricing_plan_id":"free"},{"bike_id":"c2c623b9-a6bc-4c80-b114-622ef50bdeac","system_id":"levelo_inurba_marseille","lat":43.26202,"lon":5.379299,"is_reserved":false,"is_disabled":false,"rental_uris":{"android":"levelo://app?vid=c2c623b9-a6bc-4c80-b114-622ef50bdeac","ios":"levelo://app?vid=c2c623b9-a6bc-4c80-b114-622ef50bdeac"},"vehicle_type_id":"4","last_reported":1702112780,"current_range_meters":20800,"station_id":"ce4bhjp2rcd13ifvqg90","pricing_plan_id":"free"},{"bike_id":"e682df97-8240-4ca3-aae3-148a900e0dc3","system_id":"levelo_inurba_marseille","lat":43.26202,"lon":5.379299,"is_reserved":false,"is_disabled":false,"rental_uris":{"android":"levelo://app?vid=e682df97-8240-4ca3-aae3-148a900e0dc3","ios":"levelo://app?vid=e682df97-8240-4ca3-aae3-148a900e0dc3"},"vehicle_type_id":"4","last_reported":1702112780,"current_range_meters":27600,"station_id":"ce4bhjp2rcd13ifvqg90","pricing_plan_id":"free"},{"bike_id":"3b2d4f90-1617-43d7-8846-712b04edc48a","system_id":"levelo_inurba_marseille","lat":43.271368,"lon":5.40928,"is_reserved":false,"is_disabled":false,"rental_uris":{"android":"levelo://app?vid=3b2d4f90-1617-43d7-8846-712b04edc48a","ios":"levelo://app?vid=3b2d4f90-1617-43d7-8846-712b04edc48a"},"vehicle_type_id":"4","last_reported":1702112780,"current_range_meters":22800,"station_id":"ce4bhl12rcd13ifvqgf0","pricing_plan_id":"free"},{"bike_id":"089a56e4-f254-4271-978a-cf9b913cc864","system_id":"levelo_inurba_marseille","lat":43.271388,"lon":5.409269,"is_reserved":false,"is_disabled":false,"rental_uris":{"android":"levelo://app?vid=089a56e4-f254-4271-978a-cf9b913cc864","ios":"levelo://app?vid=089a56e4-f254-4271-978a-cf9b913cc864"},"vehicle_type_id":"4","last_reported":1702112780,"current_range_meters":26000,"station_id":"ce4bhl12rcd13ifvqgf0","pricing_plan_id":"free"},{"bike_id":"c16ba598-e268-423a-ba8d-6002d2a98117","system_id":"levelo_inurba_marseille","lat":43.298768,"lon":5.43643,"is_reserved":false,"is_disabled":false,"rental_uris":{"android":"levelo://app?vid=c16ba598-e268-423a-ba8d-6002d2a98117","ios":"levelo://app?vid=c16ba598-e268-423a-ba8d-6002d2a98117"},"vehicle_type_id":"4","last_reported":1702112780,"current_range_meters":31600,"station_id":"ce4bhpp2rcd13ifvqhfg","pricing_plan_id":"free"},{"bike_id":"6b17b896-99f2-456b-929e-df3811eeb274","system_id":"levelo_inurba_marseille","lat":43.298768,"lon":5.43643,"is_reserved":false,"is_disabled":false,"rental_uris":{"android":"levelo://app?vid=6b17b896-99f2-456b-929e-df3811eeb274","ios":"levelo://app?vid=6b17b896-99f2-456b-929e-df3811eeb274"},"vehicle_type_id":"4","last_reported":1702112780,"current_range_meters":28400,"station_id":"ce4bhpp2rcd13ifvqhfg","pricing_plan_id":"free"},{"bike_id":"5215ad78-0811-4492-88ee-04afc35bf3a5","system_id":"levelo_inurba_marseille","lat":43.298768,"lon":5.43643,"is_reserved":false,"is_disabled":false,"rental_uris":{"android":"levelo://app?vid=5215ad78-0811-4492-88ee-04afc35bf3a5","ios":"levelo://app?vid=5215ad78-0811-4492-88ee-04afc35bf3a5"},"vehicle_type_id":"4","last_reported":1702112780,"current_range_meters":31600,"station_id":"ce4bhpp2rcd13ifvqhfg","pricing_plan_id":"free"},{"bike_id":"70c52fa1-91be-4fbd-9217-7a0c668f9310","system_id":"levelo_inurba_marseille","lat":43.298982,"lon":5.436633,"is_reserved":false,"is_disabled":false,"rental_uris":{"android":"levelo://app?vid=70c52fa1-91be-4fbd-9217-7a0c668f9310","ios":"levelo://app?vid=70c52fa1-91be-4fbd-9217-7a0c668f9310"},"vehicle_type_id":"4","last_reported":1702112780,"current_range_meters":26400,"station_id":"ce4bhpp2rcd13ifvqhfg","pricing_plan_id":"free"},{"bike_id":"2cd90db9-b508-45af-afd0-5b4b8fae22ee","system_id":"levelo_inurba_marseille","lat":43.298768,"lon":5.43643,"is_reserved":false,"is_disabled":false,"rental_uris":{"android":"levelo://app?vid=2cd90db9-b508-45af-afd0-5b4b8fae22ee","ios":"levelo://app?vid=2cd90db9-b508-45af-afd0-5b4b8fae22ee"},"vehicle_type_id":"4","last_reported":1702112780,"current_range_meters":28400,"station_id":"ce4bhpp2rcd13ifvqhfg","pricing_plan_id":"free"},{"bike_id":"ca4db8a8-5b98-4b78-bc3d-514f38028a3d","system_id":"levelo_inurba_marseille","lat":43.298768,"lon":5.43643,"is_reserved":false,"is_disabled":false,"rental_uris":{"android":"levelo://app?vid=ca4db8a8-5b98-4b78-bc3d-514f38028a3d","ios":"levelo://app?vid=ca4db8a8-5b98-4b78-bc3d-514f38028a3d"},"vehicle_type_id":"4","last_reported":1702112780,"current_range_meters":31600,"station_id":"ce4bhpp2rcd13ifvqhfg","pricing_plan_id":"free"},{"bike_id":"9f325604-7097-43d9-8e58-831174294b2f","system_id":"levelo_inurba_marseille","lat":43.298768,"lon":5.43643,"is_reserved":false,"is_disabled":false,"rental_uris":{"android":"levelo://app?vid=9f325604-7097-43d9-8e58-831174294b2f","ios":"levelo://app?vid=9f325604-7097-43d9-8e58-831174294b2f"},"vehicle_type_id":"4","last_reported":1702112780,"current_range_meters":23200,"station_id":"ce4bhpp2rcd13ifvqhfg","pricing_plan_id":"free"},{"bike_id":"83e2018e-7127-4415-8bbf-2e347a9c6750","system_id":"levelo_inurba_marseille","lat":43.29896,"lon":5.43673,"is_reserved":false,"is_disabled":false,"rental_uris":{"android":"levelo://app?vid=83e2018e-7127-4415-8bbf-2e347a9c6750","ios":"levelo://app?vid=83e2018e-7127-4415-8bbf-2e347a9c6750"},"vehicle_type_id":"4","last_reported":1702112780,"current_range_meters":0,"station_id":"ce4bhpp2rcd13ifvqhfg","pricing_plan_id":"free"},{"bike_id":"4f68f183-a711-4386-a731-e8ea8e2f115e","system_id":"levelo_inurba_marseille","lat":43.298768,"lon":5.43643,"is_reserved":false,"is_disabled":false,"rental_uris":{"android":"levelo://app?vid=4f68f183-a711-4386-a731-e8ea8e2f115e","ios":"levelo://app?vid=4f68f183-a711-4386-a731-e8ea8e2f115e"},"vehicle_type_id":"4","last_reported":1702112780,"current_range_meters":26000,"station_id":"ce4bhpp2rcd13ifvqhfg","pricing_plan_id":"free"},{"bike_id":"d3dc4849-a8f2-4ec1-9ff5-0f9c0b1fbf95","system_id":"levelo_inurba_marseille","lat":43.281548,"lon":5.42643,"is_reserved":false,"is_disabled":false,"rental_uris":{"android":"levelo://app?vid=d3dc4849-a8f2-4ec1-9ff5-0f9c0b1fbf95","ios":"levelo://app?vid=d3dc4849-a8f2-4ec1-9ff5-0f9c0b1fbf95"},"vehicle_type_id":"4","last_reported":1702112780,"current_range_meters":23200,"station_id":"ce4bhnh2rcd13ifvqgug","pricing_plan_id":"free"},{"bike_id":"2d70b9fc-8d42-4ce5-98c1-cdfca249cc2c","system_id":"levelo_inurba_marseille","lat":43.2815,"lon":5.4264,"is_reserved":false,"is_disabled":false,"rental_uris":{"android":"levelo://app?vid=2d70b9fc-8d42-4ce5-98c1-cdfca249cc2c","ios":"levelo://app?vid=2d70b9fc-8d42-4ce5-98c1-cdfca249cc2c"},"vehicle_type_id":"4","last_reported":1702112780,"current_range_meters":28400,"station_id":"ce4bhnh2rcd13ifvqgug","pricing_plan_id":"free"},{"bike_id":"f56607a5-8c0d-4214-a86e-b954d1fd309d","system_id":"levelo_inurba_marseille","lat":43.2815,"lon":5.42644,"is_reserved":false,"is_disabled":false,"rental_uris":{"android":"levelo://app?vid=f56607a5-8c0d-4214-a86e-b954d1fd309d","ios":"levelo://app?vid=f56607a5-8c0d-4214-a86e-b954d1fd309d"},"vehicle_type_id":"4","last_reported":1702112780,"current_range_meters":400,"station_id":"ce4bhnh2rcd13ifvqgug","pricing_plan_id":"free"},{"bike_id":"bf0f85ca-5630-4c1a-b3f1-d0fc5f67252f","system_id":"levelo_inurba_marseille","lat":43.281548,"lon":5.42643,"is_reserved":false,"is_disabled":false,"rental_uris":{"android":"levelo://app?vid=bf0f85ca-5630-4c1a-b3f1-d0fc5f67252f","ios":"levelo://app?vid=bf0f85ca-5630-4c1a-b3f1-d0fc5f67252f"},"vehicle_type_id":"4","last_reported":1702112780,"current_range_meters":31200,"station_id":"ce4bhnh2rcd13ifvqgug","pricing_plan_id":"free"},{"bike_id":"6eb4aaf3-ac8c-46c9-b250-8cc03494daef","system_id":"levelo_inurba_marseille","lat":43.2607,"lon":5.393983,"is_reserved":false,"is_disabled":false,"rental_uris":{"android":"levelo://app?vid=6eb4aaf3-ac8c-46c9-b250-8cc03494daef","ios":"levelo://app?vid=6eb4aaf3-ac8c-46c9-b250-8cc03494daef"},"vehicle_type_id":"4","last_reported":1702112780,"current_range_meters":28800,"station_id":"ce4bhh92rcd13ifvqfj0","pricing_plan_id":"free"},{"bike_id":"dc314a54-9749-4de6-a9e7-5498795c6ccf","system_id":"levelo_inurba_marseille","lat":43.275028,"lon":5.424534,"is_reserved":false,"is_disabled":false,"rental_uris":{"android":"levelo://app?vid=dc314a54-9749-4de6-a9e7-5498795c6ccf","ios":"levelo://app?vid=dc314a54-9749-4de6-a9e7-5498795c6ccf"},"vehicle_type_id":"4","last_reported":1702112780,"current_range_meters":28800,"station_id":"ce4bhn92rcd13ifvqgrg","pricing_plan_id":"free"},{"bike_id":"5c6c0a20-db46-4949-8b8f-87d395f35c91","system_id":"levelo_inurba_marseille","lat":43.275028,"lon":5.424534,"is_reserved":false,"is_disabled":false,"rental_uris":{"android":"levelo://app?vid=5c6c0a20-db46-4949-8b8f-87d395f35c91","ios":"levelo://app?vid=5c6c0a20-db46-4949-8b8f-87d395f35c91"},"vehicle_type_id":"4","last_reported":1702112780,"current_range_meters":31600,"station_id":"ce4bhn92rcd13ifvqgrg","pricing_plan_id":"free"},{"bike_id":"81142fc0-e6d9-4e1f-ae31-ca988411e3e0","system_id":"levelo_inurba_marseille","lat":43.255817,"lon":5.38241,"is_reserved":false,"is_disabled":false,"rental_uris":{"android":"levelo://app?vid=81142fc0-e6d9-4e1f-ae31-ca988411e3e0","ios":"levelo://app?vid=81142fc0-e6d9-4e1f-ae31-ca988411e3e0"},"vehicle_type_id":"4","last_reported":1702112780,"current_range_meters":24400,"station_id":"ce4bhih2rcd13ifvqfs0","pricing_plan_id":"free"},{"bike_id":"8abbf737-67d5-43e8-a940-280135ae0cd8","system_id":"levelo_inurba_marseille","lat":43.25496,"lon":5.37651,"is_reserved":false,"is_disabled":false,"rental_uris":{"android":"levelo://app?vid=8abbf737-67d5-43e8-a940-280135ae0cd8","ios":"levelo://app?vid=8abbf737-67d5-43e8-a940-280135ae0cd8"},"vehicle_type_id":"4","last_reported":1702112780,"current_range_meters":31200,"station_id":"ce4bhh12rcd13ifvqff0","pricing_plan_id":"free"},{"bike_id":"6ed089ef-9932-4c16-91e9-dafe344c662d","system_id":"levelo_inurba_marseille","lat":43.270721,"lon":5.422764,"is_reserved":false,"is_disabled":false,"rental_uris":{"android":"levelo://app?vid=6ed089ef-9932-4c16-91e9-dafe344c662d","ios":"levelo://app?vid=6ed089ef-9932-4c16-91e9-dafe344c662d"},"vehicle_type_id":"4","last_reported":1702112780,"current_range_meters":22400,"station_id":"ce4bhk92rcd13ifvqgb0","pricing_plan_id":"free"},{"bike_id":"b892416b-65d0-482e-a86c-e596080a2ad5","system_id":"levelo_inurba_marseille","lat":43.27069,"lon":5.42282,"is_reserved":false,"is_disabled":false,"rental_uris":{"android":"levelo://app?vid=b892416b-65d0-482e-a86c-e596080a2ad5","ios":"levelo://app?vid=b892416b-65d0-482e-a86c-e596080a2ad5"},"vehicle_type_id":"4","last_reported":1702112780,"current_range_meters":23200,"station_id":"ce4bhk92rcd13ifvqgb0","pricing_plan_id":"free"},{"bike_id":"8544b240-4563-4356-b729-81f1ce86de4e","system_id":"levelo_inurba_marseille","lat":43.258658,"lon":5.398935,"is_reserved":false,"is_disabled":false,"rental_uris":{"android":"levelo://app?vid=8544b240-4563-4356-b729-81f1ce86de4e","ios":"levelo://app?vid=8544b240-4563-4356-b729-81f1ce86de4e"},"vehicle_type_id":"4","last_reported":1702112780,"current_range_meters":31200,"station_id":"ce4bhl92rcd13ifvqghg","pricing_plan_id":"free"},{"bike_id":"c4df22de-68a0-40f7-b2c2-6a6aaf6b0bbb","system_id":"levelo_inurba_marseille","lat":43.258658,"lon":5.398935,"is_reserved":false,"is_disabled":false,"rental_uris":{"android":"levelo://app?vid=c4df22de-68a0-40f7-b2c2-6a6aaf6b0bbb","ios":"levelo://app?vid=c4df22de-68a0-40f7-b2c2-6a6aaf6b0bbb"},"vehicle_type_id":"4","last_reported":1702112780,"current_range_meters":20000,"station_id":"ce4bhl92rcd13ifvqghg","pricing_plan_id":"free"},{"bike_id":"3a377878-b713-4aaf-aad2-3a453208969a","system_id":"levelo_inurba_marseille","lat":43.25924,"lon":5.40914,"is_reserved":false,"is_disabled":false,"rental_uris":{"android":"levelo://app?vid=3a377878-b713-4aaf-aad2-3a453208969a","ios":"levelo://app?vid=3a377878-b713-4aaf-aad2-3a453208969a"},"vehicle_type_id":"4","last_reported":1702112780,"current_range_meters":17600,"station_id":"ce4bhm92rcd13ifvqglg","pricing_plan_id":"free"},{"bike_id":"9c0ddfb3-23a0-4f2d-87b9-6806835818c0","system_id":"levelo_inurba_marseille","lat":43.257079,"lon":5.411051,"is_reserved":false,"is_disabled":false,"rental_uris":{"android":"levelo://app?vid=9c0ddfb3-23a0-4f2d-87b9-6806835818c0","ios":"levelo://app?vid=9c0ddfb3-23a0-4f2d-87b9-6806835818c0"},"vehicle_type_id":"4","last_reported":1702112780,"current_range_meters":26800,"station_id":"ce4bhkp2rcd13ifvqgd0","pricing_plan_id":"free"},{"bike_id":"a32c97e0-e502-4792-a963-4ea2d8db05fe","system_id":"levelo_inurba_marseille","lat":43.24693,"lon":5.382096,"is_reserved":false,"is_disabled":false,"rental_uris":{"android":"levelo://app?vid=a32c97e0-e502-4792-a963-4ea2d8db05fe","ios":"levelo://app?vid=a32c97e0-e502-4792-a963-4ea2d8db05fe"},"vehicle_type_id":"4","last_reported":1702112780,"current_range_meters":28400,"station_id":"ce4bhih2rcd13ifvqfr0","pricing_plan_id":"free"},{"bike_id":"780ecb94-fb8a-4ef6-b203-33556b9bd786","system_id":"levelo_inurba_marseille","lat":43.25102,"lon":5.403214,"is_reserved":false,"is_disabled":false,"rental_uris":{"android":"levelo://app?vid=780ecb94-fb8a-4ef6-b203-33556b9bd786","ios":"levelo://app?vid=780ecb94-fb8a-4ef6-b203-33556b9bd786"},"vehicle_type_id":"4","last_reported":1702112780,"current_range_meters":22000,"station_id":"ce4bhlh2rcd13ifvqgig","pricing_plan_id":"free"},{"bike_id":"a5a000a3-6683-4473-96b8-df3cbadc336b","system_id":"levelo_inurba_marseille","lat":43.25102,"lon":5.403214,"is_reserved":false,"is_disabled":false,"rental_uris":{"android":"levelo://app?vid=a5a000a3-6683-4473-96b8-df3cbadc336b","ios":"levelo://app?vid=a5a000a3-6683-4473-96b8-df3cbadc336b"},"vehicle_type_id":"4","last_reported":1702112780,"current_range_meters":15200,"station_id":"ce4bhlh2rcd13ifvqgig","pricing_plan_id":"free"},{"bike_id":"6b2d81c2-ffbe-4ac1-8327-c215b6692d14","system_id":"levelo_inurba_marseille","lat":43.25102,"lon":5.403214,"is_reserved":false,"is_disabled":false,"rental_uris":{"android":"levelo://app?vid=6b2d81c2-ffbe-4ac1-8327-c215b6692d14","ios":"levelo://app?vid=6b2d81c2-ffbe-4ac1-8327-c215b6692d14"},"vehicle_type_id":"4","last_reported":1702112780,"current_range_meters":30000,"station_id":"ce4bhlh2rcd13ifvqgig","pricing_plan_id":"free"},{"bike_id":"d8ec6ef7-52db-4dde-9927-1128a313208a","system_id":"levelo_inurba_marseille","lat":43.246461,"lon":5.389014,"is_reserved":false,"is_disabled":false,"rental_uris":{"android":"levelo://app?vid=d8ec6ef7-52db-4dde-9927-1128a313208a","ios":"levelo://app?vid=d8ec6ef7-52db-4dde-9927-1128a313208a"},"vehicle_type_id":"4","last_reported":1702112780,"current_range_meters":24000,"station_id":"ce4bhg12rcd13ifvqf60","pricing_plan_id":"free"},{"bike_id":"6fc9a2eb-0bc4-4389-b1f2-a7c90c2f9a07","system_id":"levelo_inurba_marseille","lat":43.24389,"lon":5.37052,"is_reserved":false,"is_disabled":false,"rental_uris":{"android":"levelo://app?vid=6fc9a2eb-0bc4-4389-b1f2-a7c90c2f9a07","ios":"levelo://app?vid=6fc9a2eb-0bc4-4389-b1f2-a7c90c2f9a07"},"vehicle_type_id":"4","last_reported":1702112780,"current_range_meters":25200,"station_id":"ce4bhhh2rcd13ifvqfk0","pricing_plan_id":"free"},{"bike_id":"e6b1ec81-ce9d-4367-ae87-6e5064f4fd3b","system_id":"levelo_inurba_marseille","lat":43.243884,"lon":5.370736,"is_reserved":false,"is_disabled":false,"rental_uris":{"android":"levelo://app?vid=e6b1ec81-ce9d-4367-ae87-6e5064f4fd3b","ios":"levelo://app?vid=e6b1ec81-ce9d-4367-ae87-6e5064f4fd3b"},"vehicle_type_id":"4","last_reported":1702112780,"current_range_meters":30400,"station_id":"ce4bhhh2rcd13ifvqfk0","pricing_plan_id":"free"},{"bike_id":"90b46009-8f90-4cc7-8ea1-08f62555240b","system_id":"levelo_inurba_marseille","lat":43.245581,"lon":5.395069,"is_reserved":false,"is_disabled":false,"rental_uris":{"android":"levelo://app?vid=90b46009-8f90-4cc7-8ea1-08f62555240b","ios":"levelo://app?vid=90b46009-8f90-4cc7-8ea1-08f62555240b"},"vehicle_type_id":"4","last_reported":1702112780,"current_range_meters":20800,"station_id":"ce4bhlp2rcd13ifvqgjg","pricing_plan_id":"free"},{"bike_id":"b3705516-da65-4902-b345-4cc53e261fdf","system_id":"levelo_inurba_marseille","lat":43.2408,"lon":5.37759,"is_reserved":false,"is_disabled":false,"rental_uris":{"android":"levelo://app?vid=b3705516-da65-4902-b345-4cc53e261fdf","ios":"levelo://app?vid=b3705516-da65-4902-b345-4cc53e261fdf"},"vehicle_type_id":"4","last_reported":1702112780,"current_range_meters":18800,"station_id":"","pricing_plan_id":"free"},{"bike_id":"868bb225-bffe-4b2e-9a8b-56b2a9d28e58","system_id":"levelo_inurba_marseille","lat":43.240623,"lon":5.377642,"is_reserved":false,"is_disabled":false,"rental_uris":{"android":"levelo://app?vid=868bb225-bffe-4b2e-9a8b-56b2a9d28e58","ios":"levelo://app?vid=868bb225-bffe-4b2e-9a8b-56b2a9d28e58"},"vehicle_type_id":"4","last_reported":1702112780,"current_range_meters":18400,"station_id":"ce4bhnp2rcd13ifvqgvg","pricing_plan_id":"free"},{"bike_id":"07f04f98-06c9-4309-b3fe-4415621f48f3","system_id":"levelo_inurba_marseille","lat":43.239703,"lon":5.366308,"is_reserved":false,"is_disabled":false,"rental_uris":{"android":"levelo://app?vid=07f04f98-06c9-4309-b3fe-4415621f48f3","ios":"levelo://app?vid=07f04f98-06c9-4309-b3fe-4415621f48f3"},"vehicle_type_id":"4","last_reported":1702112780,"current_range_meters":24400,"station_id":"ce4bhi12rcd13ifvqfp0","pricing_plan_id":"free"},{"bike_id":"f3af0f29-c6b3-45f1-8540-3a752563e91b","system_id":"levelo_inurba_marseille","lat":43.23969,"lon":5.36623,"is_reserved":false,"is_disabled":false,"rental_uris":{"android":"levelo://app?vid=f3af0f29-c6b3-45f1-8540-3a752563e91b","ios":"levelo://app?vid=f3af0f29-c6b3-45f1-8540-3a752563e91b"},"vehicle_type_id":"4","last_reported":1702112780,"current_range_meters":11200,"station_id":"ce4bhi12rcd13ifvqfp0","pricing_plan_id":"free"},{"bike_id":"93fd8d33-bd13-40ab-b32d-bfac25f014e4","system_id":"levelo_inurba_marseille","lat":43.239588,"lon":5.366238,"is_reserved":false,"is_disabled":false,"rental_uris":{"android":"levelo://app?vid=93fd8d33-bd13-40ab-b32d-bfac25f014e4","ios":"levelo://app?vid=93fd8d33-bd13-40ab-b32d-bfac25f014e4"},"vehicle_type_id":"4","last_reported":1702112780,"current_range_meters":9600,"station_id":"ce4bhi12rcd13ifvqfp0","pricing_plan_id":"free"},{"bike_id":"a6a4b85e-4149-43b9-9e51-1a32a90de556","system_id":"levelo_inurba_marseille","lat":43.239588,"lon":5.366238,"is_reserved":false,"is_disabled":false,"rental_uris":{"android":"levelo://app?vid=a6a4b85e-4149-43b9-9e51-1a32a90de556","ios":"levelo://app?vid=a6a4b85e-4149-43b9-9e51-1a32a90de556"},"vehicle_type_id":"4","last_reported":1702112780,"current_range_meters":31200,"station_id":"ce4bhi12rcd13ifvqfp0","pricing_plan_id":"free"},{"bike_id":"93954539-37ab-42cb-8148-c6cd6174d0ce","system_id":"levelo_inurba_marseille","lat":43.23962,"lon":5.36625,"is_reserved":false,"is_disabled":false,"rental_uris":{"android":"levelo://app?vid=93954539-37ab-42cb-8148-c6cd6174d0ce","ios":"levelo://app?vid=93954539-37ab-42cb-8148-c6cd6174d0ce"},"vehicle_type_id":"4","last_reported":1702112780,"current_range_meters":30000,"station_id":"ce4bhi12rcd13ifvqfp0","pricing_plan_id":"free"},{"bike_id":"19de1d90-0ef7-4697-bd3a-3e98bd2bf2e7","system_id":"levelo_inurba_marseille","lat":43.239588,"lon":5.366238,"is_reserved":false,"is_disabled":false,"rental_uris":{"android":"levelo://app?vid=19de1d90-0ef7-4697-bd3a-3e98bd2bf2e7","ios":"levelo://app?vid=19de1d90-0ef7-4697-bd3a-3e98bd2bf2e7"},"vehicle_type_id":"4","last_reported":1702112780,"current_range_meters":31200,"station_id":"ce4bhi12rcd13ifvqfp0","pricing_plan_id":"free"},{"bike_id":"c044812f-23c8-40b9-9235-f3a1ed3758bf","system_id":"levelo_inurba_marseille","lat":43.239588,"lon":5.366238,"is_reserved":false,"is_disabled":false,"rental_uris":{"android":"levelo://app?vid=c044812f-23c8-40b9-9235-f3a1ed3758bf","ios":"levelo://app?vid=c044812f-23c8-40b9-9235-f3a1ed3758bf"},"vehicle_type_id":"4","last_reported":1702112780,"current_range_meters":15600,"station_id":"ce4bhi12rcd13ifvqfp0","pricing_plan_id":"free"},{"bike_id":"8df37565-07df-4422-a214-552c70866e84","system_id":"levelo_inurba_marseille","lat":43.23958,"lon":5.36633,"is_reserved":false,"is_disabled":false,"rental_uris":{"android":"levelo://app?vid=8df37565-07df-4422-a214-552c70866e84","ios":"levelo://app?vid=8df37565-07df-4422-a214-552c70866e84"},"vehicle_type_id":"4","last_reported":1702112780,"current_range_meters":23200,"station_id":"ce4bhi12rcd13ifvqfp0","pricing_plan_id":"free"},{"bike_id":"1d8e9bd7-e6ff-447e-b845-0049da0206d3","system_id":"levelo_inurba_marseille","lat":43.231919,"lon":5.355532,"is_reserved":false,"is_disabled":false,"rental_uris":{"android":"levelo://app?vid=1d8e9bd7-e6ff-447e-b845-0049da0206d3","ios":"levelo://app?vid=1d8e9bd7-e6ff-447e-b845-0049da0206d3"},"vehicle_type_id":"4","last_reported":1702112780,"current_range_meters":28000,"station_id":"ce4bhu92rcd13ifvqi70","pricing_plan_id":"free"},{"bike_id":"19ba5a50-7ba0-4da5-96be-2e26583e1f0f","system_id":"levelo_inurba_marseille","lat":43.231919,"lon":5.355532,"is_reserved":false,"is_disabled":false,"rental_uris":{"android":"levelo://app?vid=19ba5a50-7ba0-4da5-96be-2e26583e1f0f","ios":"levelo://app?vid=19ba5a50-7ba0-4da5-96be-2e26583e1f0f"},"vehicle_type_id":"4","last_reported":1702112780,"current_range_meters":14000,"station_id":"ce4bhu92rcd13ifvqi70","pricing_plan_id":"free"},{"bike_id":"c3cc5da6-5c49-4257-ab3a-242bb99906d5","system_id":"levelo_inurba_marseille","lat":43.23196,"lon":5.35543,"is_reserved":false,"is_disabled":false,"rental_uris":{"android":"levelo://app?vid=c3cc5da6-5c49-4257-ab3a-242bb99906d5","ios":"levelo://app?vid=c3cc5da6-5c49-4257-ab3a-242bb99906d5"},"vehicle_type_id":"4","last_reported":1702112780,"current_range_meters":30800,"station_id":"ce4bhu92rcd13ifvqi70","pricing_plan_id":"free"},{"bike_id":"c6004eb4-873a-4661-a0e7-ea9140f6bd61","system_id":"levelo_inurba_marseille","lat":43.231919,"lon":5.355532,"is_reserved":false,"is_disabled":false,"rental_uris":{"android":"levelo://app?vid=c6004eb4-873a-4661-a0e7-ea9140f6bd61","ios":"levelo://app?vid=c6004eb4-873a-4661-a0e7-ea9140f6bd61"},"vehicle_type_id":"4","last_reported":1702112780,"current_range_meters":29600,"station_id":"ce4bhu92rcd13ifvqi70","pricing_plan_id":"free"},{"bike_id":"2d162bbc-a411-450c-a9d5-a61a23484d14","system_id":"levelo_inurba_marseille","lat":43.231919,"lon":5.355532,"is_reserved":false,"is_disabled":false,"rental_uris":{"android":"levelo://app?vid=2d162bbc-a411-450c-a9d5-a61a23484d14","ios":"levelo://app?vid=2d162bbc-a411-450c-a9d5-a61a23484d14"},"vehicle_type_id":"4","last_reported":1702112780,"current_range_meters":30800,"station_id":"ce4bhu92rcd13ifvqi70","pricing_plan_id":"free"},{"bike_id":"be845917-f52e-4a9f-83ff-909546a09332","system_id":"levelo_inurba_marseille","lat":43.231794,"lon":5.400052,"is_reserved":false,"is_disabled":false,"rental_uris":{"android":"levelo://app?vid=be845917-f52e-4a9f-83ff-909546a09332","ios":"levelo://app?vid=be845917-f52e-4a9f-83ff-909546a09332"},"vehicle_type_id":"4","last_reported":1702112780,"current_range_meters":31200,"station_id":"ce4bhn12rcd13ifvqgqg","pricing_plan_id":"free"},{"bike_id":"18920ba5-4ce1-41cc-940f-647195c9ea38","system_id":"levelo_inurba_marseille","lat":43.23187,"lon":5.399798,"is_reserved":false,"is_disabled":false,"rental_uris":{"android":"levelo://app?vid=18920ba5-4ce1-41cc-940f-647195c9ea38","ios":"levelo://app?vid=18920ba5-4ce1-41cc-940f-647195c9ea38"},"vehicle_type_id":"4","last_reported":1702112780,"current_range_meters":16000,"station_id":"ce4bhn12rcd13ifvqgqg","pricing_plan_id":"free"},{"bike_id":"6c4620c0-0d4d-493f-9950-4fd3c4457696","system_id":"levelo_inurba_marseille","lat":43.231794,"lon":5.400052,"is_reserved":false,"is_disabled":false,"rental_uris":{"android":"levelo://app?vid=6c4620c0-0d4d-493f-9950-4fd3c4457696","ios":"levelo://app?vid=6c4620c0-0d4d-493f-9950-4fd3c4457696"},"vehicle_type_id":"4","last_reported":1702112780,"current_range_meters":31200,"station_id":"ce4bhn12rcd13ifvqgqg","pricing_plan_id":"free"},{"bike_id":"1364bb53-1feb-4c66-bc1b-fe1d777b1c2f","system_id":"levelo_inurba_marseille","lat":43.231873,"lon":5.399821,"is_reserved":false,"is_disabled":false,"rental_uris":{"android":"levelo://app?vid=1364bb53-1feb-4c66-bc1b-fe1d777b1c2f","ios":"levelo://app?vid=1364bb53-1feb-4c66-bc1b-fe1d777b1c2f"},"vehicle_type_id":"4","last_reported":1702112780,"current_range_meters":28800,"station_id":"ce4bhn12rcd13ifvqgqg","pricing_plan_id":"free"},{"bike_id":"5c4c14b0-15b0-4600-8dc6-cdbde00bef8b","system_id":"levelo_inurba_marseille","lat":43.231856,"lon":5.399754,"is_reserved":false,"is_disabled":false,"rental_uris":{"android":"levelo://app?vid=5c4c14b0-15b0-4600-8dc6-cdbde00bef8b","ios":"levelo://app?vid=5c4c14b0-15b0-4600-8dc6-cdbde00bef8b"},"vehicle_type_id":"4","last_reported":1702112780,"current_range_meters":30800,"station_id":"ce4bhn12rcd13ifvqgqg","pricing_plan_id":"free"},{"bike_id":"d7354235-71f2-4aeb-aa26-9572f0d131ef","system_id":"levelo_inurba_marseille","lat":43.231854,"lon":5.39979,"is_reserved":false,"is_disabled":false,"rental_uris":{"android":"levelo://app?vid=d7354235-71f2-4aeb-aa26-9572f0d131ef","ios":"levelo://app?vid=d7354235-71f2-4aeb-aa26-9572f0d131ef"},"vehicle_type_id":"4","last_reported":1702112780,"current_range_meters":30400,"station_id":"ce4bhn12rcd13ifvqgqg","pricing_plan_id":"free"},{"bike_id":"1c690641-a72b-433d-b1af-d36beaec8f2e","system_id":"levelo_inurba_marseille","lat":43.231883,"lon":5.399943,"is_reserved":false,"is_disabled":false,"rental_uris":{"android":"levelo://app?vid=1c690641-a72b-433d-b1af-d36beaec8f2e","ios":"levelo://app?vid=1c690641-a72b-433d-b1af-d36beaec8f2e"},"vehicle_type_id":"4","last_reported":1702112780,"current_range_meters":27200,"station_id":"ce4bhn12rcd13ifvqgqg","pricing_plan_id":"free"},{"bike_id":"34665144-ce30-468a-b218-97ce329e0725","system_id":"levelo_inurba_marseille","lat":43.23182,"lon":5.39985,"is_reserved":false,"is_disabled":false,"rental_uris":{"android":"levelo://app?vid=34665144-ce30-468a-b218-97ce329e0725","ios":"levelo://app?vid=34665144-ce30-468a-b218-97ce329e0725"},"vehicle_type_id":"4","last_reported":1702112780,"current_range_meters":19600,"station_id":"ce4bhn12rcd13ifvqgqg","pricing_plan_id":"free"},{"bike_id":"e024353c-5e6e-427e-80d3-5305f95eda50","system_id":"levelo_inurba_marseille","lat":43.23152,"lon":5.4372,"is_reserved":false,"is_disabled":false,"rental_uris":{"android":"levelo://app?vid=e024353c-5e6e-427e-80d3-5305f95eda50","ios":"levelo://app?vid=e024353c-5e6e-427e-80d3-5305f95eda50"},"vehicle_type_id":"4","last_reported":1702112780,"current_range_meters":2800,"station_id":"ce4bhmp2rcd13ifvqgog","pricing_plan_id":"free"},{"bike_id":"ef4926f7-6b54-4abf-be7f-64a72128c3e0","system_id":"levelo_inurba_marseille","lat":43.231562,"lon":5.436933,"is_reserved":false,"is_disabled":false,"rental_uris":{"android":"levelo://app?vid=ef4926f7-6b54-4abf-be7f-64a72128c3e0","ios":"levelo://app?vid=ef4926f7-6b54-4abf-be7f-64a72128c3e0"},"vehicle_type_id":"4","last_reported":1702112780,"current_range_meters":27600,"station_id":"ce4bhmp2rcd13ifvqgog","pricing_plan_id":"free"}]}}