{"last_updated":1732900102,"ttl":60,"version":"2.2","data":{"bikes":[{"bike_id":"36fc3c20-27e2-4f29-9654-896150ce5513","system_id":"levelo_inurba_marseille","lat":43.30413,"lon":5.41299,"is_reserved":false,"is_disabled":true,"rental_uris":{"android":"levelo://app?vid=36fc3c20-27e2-4f29-9654-896150ce5513","ios":"levelo://app?vid=36fc3c20-27e2-4f29-9654-896150ce5513"},"vehicle_type_id":"4","last_reported":1732900103,"current_range_meters":0,"station_id":"ce4bhop2rcd13ifvqh8g","pricing_plan_id":"cebpf4jnsgd1na2vs0mg"},{"bike_id":"a6938546-9c24-4db5-ab33-e50997791d9c","system_id":"levelo_inurba_marseille","lat":43.28148,"lon":5.42642,"is_reserved":false,"is_disabled":true,"rental_uris":{"android":"levelo://app?vid=a6938546-9c24-4db5-ab33-e50997791d9c","ios":"levelo://app?vid=a6938546-9c24-4db5-ab33-e50997791d9c"},"vehicle_type_id":"4","last_reported":1732900103,"current_range_meters":0,"station_id":"ce4bhnh2rcd13ifvqgug","pricing_plan_id":"cebpf4jnsgd1na2vs0mg"},{"bike_id":"c610d709-291b-4895-9abb-d4af76e78629","system_id":"levelo_inurba_marseille","lat":43.30417,"lon":5.41282,"is_reserved":false,"is_disabled":false,"rental_uris":{"android":"levelo://app?vid=c610d709-291b-4895-9abb-d4af76e78629","ios":"levelo://app?vid=c610d709-291b-4895-9abb-d4af76e78629"},"vehicle_type_id":"4","last_reported":1732900103,"current_range_meters":4800,"station_id":"ce4bhop2rcd13ifvqh8g","pricing_plan_id":"cebpf4jnsgd1na2vs0mg"},{"bike_id":"b856c8b4-412d-4c25-bdd4-e6b29aed04cb","system_id":"levelo_inurba_marseille","lat":43.22941,"lon":5.35379,"is_reserved":false,"is_disabled":false,"rental_uris":{"android":"levelo://app?vid=b856c8b4-412d-4c25-bdd4-e6b29aed04cb","ios":"levelo://app?vid=b856c8b4-412d-4c25-bdd4-e6b29aed04cb"},"vehicle_type_id":"4","last_reported":1732900103,"current_range_meters":38800,"station_id":"cpo3532slgdg3j2ikp40","pricing_plan_id":"cebpf4jnsgd1na2vs0mg"},{"bike_id":"3ac80748-050e-4f41-8ff5-2d54f88f3cc8","system_id":"levelo_inurba_marseille","lat":43.31223,"lon":5.36857,"is_reserved":false,"is_disabled":true,"rental_uris":{"android":"levelo://app?vid=3ac80748-050e-4f41-8ff5-2d54f88f3cc8","ios":"levelo://app?vid=3ac80748-050e-4f41-8ff5-2d54f88f3cc8"},"vehicle_type_id":"4","last_reported":1732900103,"current_range_meters":0,"station_id":"ce4bgl92rcd13ifvqbq0","pricing_plan_id":"cebpf4jnsgd1na2vs0mg"},{"bike_id":"40ca90ea-9465-47d2-a08a-277a2591b568","system_id":"levelo_inurba_marseille","lat":43.27914,"lon":5.39581,"is_reserved":false,"is_disabled":true,"rental_uris":{"android":"levelo://app?vid=40ca90ea-9465-47d2-a08a-277a2591b568","ios":"levelo://app?vid=40ca90ea-9465-47d2-a08a-277a2591b568"},"vehicle_type_id":"4","last_reported":1732900103,"current_range_meters":0,"station_id":"ce4bhf92rcd13ifvqf40","pricing_plan_id":"cebpf4jnsgd1na2vs0mg"},{"bike_id":"17823f69-6a12-4614-9332-bf738a43c886","system_id":"levelo_inurba_marseille","lat":43.27814,"lon":5.4072,"is_reserved":false,"is_disabled":false,"rental_uris":{"android":"levelo://app?vid=17823f69-6a12-4614-9332-bf738a43c886","ios":"levelo://app?vid=17823f69-6a12-4614-9332-bf738a43c886"},"vehicle_type_id":"4","last_reported":1732900103,"current_range_meters":34000,"station_id":"ce4bhnh2rcd13ifvqgtg","pricing_plan_id":"cebpf4jnsgd1na2vs0mg"},{"bike_id":"eca77658-f2b0-4306-b367-4fc1fa7f16a7","system_id":"levelo_inurba_marseille","lat":43.30135,"lon":5.39845,"is_reserved":false,"is_disabled":false,"rental_uris":{"android":"levelo://app?vid=eca77658-f2b0-4306-b367-4fc1fa7f16a7","ios":"levelo://app?vid=eca77658-f2b0-4306-b367-4fc1fa7f16a7"},"vehicle_type_id":"4","last_reported":1732900103,"current_range_meters":22000,"station_id":"ce4bh0h2rcd13ifvqd40","pricing_plan_id":"cebpf4jnsgd1na2vs0mg"},{"bike_id":"9e604125-e89b-4012-8fb7-b8134484dea1","system_id":"levelo_inurba_marseille","lat":43.29704,"lon":5.36622,"is_reserved":false,"is_disabled":false,"rental_uris":{"android":"levelo://app?vid=9e604125-e89b-4012-8fb7-b8134484dea1","ios":"levelo://app?vid=9e604125-e89b-4012-8fb7-b8134484dea1"},"vehicle_type_id":"4","last_reported":1732900103,"current_range_meters":38000,"station_id":"ce4bgn12rcd13ifvqbt0","pricing_plan_id":"cebpf4jnsgd1na2vs0mg"},{"bike_id":"1de5ff66-85a6-4511-81be-5fc8e931fbb2","system_id":"levelo_inurba_marseille","lat":43.28266,"lon":5.35065,"is_reserved":false,"is_disabled":true,"rental_uris":{"android":"levelo://app?vid=1de5ff66-85a6-4511-81be-5fc8e931fbb2","ios":"levelo://app?vid=1de5ff66-85a6-4511-81be-5fc8e931fbb2"},"vehicle_type_id":"4","last_reported":1732900103,"current_range_meters":0,"station_id":"ce4bhbp2rcd13ifvqerg","pricing_plan_id":"cebpf4jnsgd1na2vs0mg"},{"bike_id":"7259834a-7ed7-40fe-b2d8-e60e6a7db69f","system_id":"levelo_inurba_marseille","lat":43.29572,"lon":5.39985,"is_reserved":false,"is_disabled":false,"rental_uris":{"android":"levelo://app?vid=7259834a-7ed7-40fe-b2d8-e60e6a7db69f","ios":"levelo://app?vid=7259834a-7ed7-40fe-b2d8-e60e6a7db69f"},"vehicle_type_id":"4","last_reported":1732900103,"current_range_meters":37600,"station_id":"ce4bh312rcd13ifvqdj0","pricing_plan_id":"cebpf4jnsgd1na2vs0mg"},{"bike_id":"7d155704-b70c-4b47-8cb6-1675ec26a150","system_id":"levelo_inurba_marseille","lat":43.32288,"lon":5.38269,"is_reserved":false,"is_disabled":false,"rental_uris":{"android":"levelo://app?vid=7d155704-b70c-4b47-8cb6-1675ec26a150","ios":"levelo://app?vid=7d155704-b70c-4b47-8cb6-1675ec26a150"},"vehicle_type_id":"4","last_reported":1732900103,"current_range_meters":4800,"station_id":"ce4bhr12rcd13ifvqhqg","pricing_plan_id":"cebpf4jnsgd1na2vs0mg"},{"bike_id":"0f89d075-2cf2-41bd-acfc-d27c7f5011f5","system_id":"levelo_inurba_marseille","lat":43.28931,"lon":5.364,"is_reserved":false,"is_disabled":true,"rental_uris":{"android":"levelo://app?vid=0f89d075-2cf2-41bd-acfc-d27c7f5011f5","ios":"levelo://app?vid=0f89d075-2cf2-41bd-acfc-d27c7f5011f5"},"vehicle_type_id":"4","last_reported":1732900103,"current_range_meters":0,"station_id":"ce4bhc92rcd13ifvqetg","pricing_plan_id":"cebpf4jnsgd1na2vs0mg"},{"bike_id":"9b9b4866-f123-4e9b-bc92-12f1937e5433","system_id":"levelo_inurba_marseille","lat":43.27182,"lon":5.41004,"is_reserved":false,"is_disabled":false,"rental_uris":{"android":"levelo://app?vid=9b9b4866-f123-4e9b-bc92-12f1937e5433","ios":"levelo://app?vid=9b9b4866-f123-4e9b-bc92-12f1937e5433"},"vehicle_type_id":"4","last_reported":1732900103,"current_range_meters":24000,"station_id":"ce4bhl12rcd13ifvqgf0","pricing_plan_id":"cebpf4jnsgd1na2vs0mg"},{"bike_id":"3b429824-5471-476f-97ce-421aa555b47f","system_id":"levelo_inurba_marseille","lat":43.27071,"lon":5.42281,"is_reserved":false,"is_disabled":true,"rental_uris":{"android":"levelo://app?vid=3b429824-5471-476f-97ce-421aa555b47f","ios":"levelo://app?vid=3b429824-5471-476f-97ce-421aa555b47f"},"vehicle_type_id":"4","last_reported":1732900103,"current_range_meters":0,"station_id":"ce4bhk92rcd13ifvqgb0","pricing_plan_id":"cebpf4jnsgd1na2vs0mg"},{"bike_id":"da7d095c-a8c9-41a3-891f-c61d091f71a5","system_id":"levelo_inurba_marseille","lat":43.29557,"lon":5.42297,"is_reserved":false,"is_disabled":false,"rental_uris":{"android":"levelo://app?vid=da7d095c-a8c9-41a3-891f-c61d091f71a5","ios":"levelo://app?vid=da7d095c-a8c9-41a3-891f-c61d091f71a5"},"vehicle_type_id":"4","last_reported":1732900103,"current_range_meters":11200,"station_id":"ce4bhph2rcd13ifvqhdg","pricing_plan_id":"cebpf4jnsgd1na2vs0mg"},{"bike_id":"b157dd6f-ba2f-47ba-bd39-18a314b5bf66","system_id":"levelo_inurba_marseille","lat":43.29314,"lon":5.37165,"is_reserved":false,"is_disabled":false,"rental_uris":{"android":"levelo://app?vid=b157dd6f-ba2f-47ba-bd39-18a314b5bf66","ios":"levelo://app?vid=b157dd6f-ba2f-47ba-bd39-18a314b5bf66"},"vehicle_type_id":"4","last_reported":1732900103,"current_range_meters":19600,"station_id":"ce4bgh92rcd13ifvqb40","pricing_plan_id":"cebpf4jnsgd1na2vs0mg"},{"bike_id":"f88321f6-872f-4a07-8742-af690b32a3ed","system_id":"levelo_inurba_marseille","lat":43.31365,"lon":5.3849,"is_reserved":false,"is_disabled":false,"rental_uris":{"android":"levelo://app?vid=f88321f6-872f-4a07-8742-af690b32a3ed","ios":"levelo://app?vid=f88321f6-872f-4a07-8742-af690b32a3ed"},"vehicle_type_id":"4","last_reported":1732900103,"current_range_meters":3600,"station_id":"ce4bgt92rcd13ifvqcf0","pricing_plan_id":"cebpf4jnsgd1na2vs0mg"},{"bike_id":"db98c21b-b053-48b3-96d1-56469d9fdf9f","system_id":"levelo_inurba_marseille","lat":43.31759,"lon":5.39016,"is_reserved":false,"is_disabled":false,"rental_uris":{"android":"levelo://app?vid=db98c21b-b053-48b3-96d1-56469d9fdf9f","ios":"levelo://app?vid=db98c21b-b053-48b3-96d1-56469d9fdf9f"},"vehicle_type_id":"4","last_reported":1732900103,"current_range_meters":19600,"station_id":"ce4bhqp2rcd13ifvqhng","pricing_plan_id":"cebpf4jnsgd1na2vs0mg"},{"bike_id":"6f7949e1-de87-4a49-8620-fec27e04447f","system_id":"levelo_inurba_marseille","lat":43.337277,"lon":5.391895,"is_reserved":false,"is_disabled":false,"rental_uris":{"android":"levelo://app?vid=6f7949e1-de87-4a49-8620-fec27e04447f","ios":"levelo://app?vid=6f7949e1-de87-4a49-8620-fec27e04447f"},"vehicle_type_id":"4","last_reported":1732900103,"current_range_meters":30400,"station_id":"ce4bhr92rcd13ifvqhsg","pricing_plan_id":"cebpf4jnsgd1na2vs0mg"},{"bike_id":"f7670037-2a39-46ff-8ba8-b259bfbe7ea6","system_id":"levelo_inurba_marseille","lat":43.29028,"lon":5.38132,"is_reserved":false,"is_disabled":false,"rental_uris":{"android":"levelo://app?vid=f7670037-2a39-46ff-8ba8-b259bfbe7ea6","ios":"levelo://app?vid=f7670037-2a39-46ff-8ba8-b259bfbe7ea6"},"vehicle_type_id":"4","last_reported":1732900103,"current_range_meters":2800,"station_id":"ce4bh4p2rcd13ifvqe1g","pricing_plan_id":"cebpf4jnsgd1na2vs0mg"},{"bike_id":"79da6e11-068f-4f85-891a-bf5d6033ae1b","system_id":"levelo_inurba_marseille","lat":43.291889,"lon":5.393212,"is_reserved":false,"is_disabled":true,"rental_uris":{"android":"levelo://app?vid=79da6e11-068f-4f85-891a-bf5d6033ae1b","ios":"levelo://app?vid=79da6e11-068f-4f85-891a-bf5d6033ae1b"},"vehicle_type_id":"4","last_reported":1732900103,"current_range_meters":28000,"station_id":"ce4bh192rcd13ifvqdd0","pricing_plan_id":"cebpf4jnsgd1na2vs0mg"},{"bike_id":"b3d32e09-ef75-4057-bdc1-79f2821bb39a","system_id":"levelo_inurba_marseille","lat":43.29282,"lon":5.40113,"is_reserved":false,"is_disabled":false,"rental_uris":{"android":"levelo://app?vid=b3d32e09-ef75-4057-bdc1-79f2821bb39a","ios":"levelo://app?vid=b3d32e09-ef75-4057-bdc1-79f2821bb39a"},"vehicle_type_id":"4","last_reported":1732900103,"current_range_meters":6400,"station_id":"ce4bh312rcd13ifvqdk0","pricing_plan_id":"cebpf4jnsgd1na2vs0mg"},{"bike_id":"c8e18c54-9b3f-4cd1-ad67-6ca07bf358c8","system_id":"levelo_inurba_marseille","lat":43.33023,"lon":5.39034,"is_reserved":false,"is_disabled":false,"rental_uris":{"android":"levelo://app?vid=c8e18c54-9b3f-4cd1-ad67-6ca07bf358c8","ios":"levelo://app?vid=c8e18c54-9b3f-4cd1-ad67-6ca07bf358c8"},"vehicle_type_id":"4","last_reported":1732900103,"current_range_meters":11200,"station_id":"ce4bhr92rcd13ifvqhrg","pricing_plan_id":"cebpf4jnsgd1na2vs0mg"},{"bike_id":"ea892bfc-250a-4bbc-826d-f378ba2b4d02","system_id":"levelo_inurba_marseille","lat":43.23063,"lon":5.35492,"is_reserved":false,"is_disabled":false,"rental_uris":{"android":"levelo://app?vid=ea892bfc-250a-4bbc-826d-f378ba2b4d02","ios":"levelo://app?vid=ea892bfc-250a-4bbc-826d-f378ba2b4d02"},"vehicle_type_id":"4","last_reported":1732900103,"current_range_meters":19600,"station_id":"cpo3342slgdg3j2ifvpg","pricing_plan_id":"cebpf4jnsgd1na2vs0mg"},{"bike_id":"33a24d77-219f-4194-9b79-c11a09cf8b88","system_id":"levelo_inurba_marseille","lat":43.28458,"lon":5.35895,"is_reserved":false,"is_disabled":false,"rental_uris":{"android":"levelo://app?vid=33a24d77-219f-4194-9b79-c11a09cf8b88","ios":"levelo://app?vid=33a24d77-219f-4194-9b79-c11a09cf8b88"},"vehicle_type_id":"4","last_reported":1732900103,"current_range_meters":8000,"station_id":"ce4bhah2rcd13ifvqei0","pricing_plan_id":"cebpf4jnsgd1na2vs0mg"},{"bike_id":"8bdd29d3-1d6b-4336-8dd2-85b755c1c512","system_id":"levelo_inurba_marseille","lat":43.29185,"lon":5.35812,"is_reserved":false,"is_disabled":false,"rental_uris":{"android":"levelo://app?vid=8bdd29d3-1d6b-4336-8dd2-85b755c1c512","ios":"levelo://app?vid=8bdd29d3-1d6b-4336-8dd2-85b755c1c512"},"vehicle_type_id":"4","last_reported":1732900103,"current_range_meters":36000,"station_id":"ce4bhb12rcd13ifvqel0","pricing_plan_id":"cebpf4jnsgd1na2vs0mg"},{"bike_id":"4709c438-f4af-415a-a919-d27302b75dca","system_id":"levelo_inurba_marseille","lat":43.23194,"lon":5.35553,"is_reserved":false,"is_disabled":false,"rental_uris":{"android":"levelo://app?vid=4709c438-f4af-415a-a919-d27302b75dca","ios":"levelo://app?vid=4709c438-f4af-415a-a919-d27302b75dca"},"vehicle_type_id":"4","last_reported":1732900103,"current_range_meters":39200,"station_id":"ce4bhu92rcd13ifvqi70","pricing_plan_id":"cebpf4jnsgd1na2vs0mg"},{"bike_id":"19d8d449-a0eb-4c0e-9592-0053e853ceac","system_id":"levelo_inurba_marseille","lat":43.33007,"lon":5.39048,"is_reserved":false,"is_disabled":false,"rental_uris":{"android":"levelo://app?vid=19d8d449-a0eb-4c0e-9592-0053e853ceac","ios":"levelo://app?vid=19d8d449-a0eb-4c0e-9592-0053e853ceac"},"vehicle_type_id":"4","last_reported":1732900103,"current_range_meters":38000,"station_id":"ce4bhr92rcd13ifvqhrg","pricing_plan_id":"cebpf4jnsgd1na2vs0mg"},{"bike_id":"d1486dd5-23d4-40bc-bb61-4a3c8126196a","system_id":"levelo_inurba_marseille","lat":43.27365,"lon":5.362563,"is_reserved":false,"is_disabled":true,"rental_uris":{"android":"levelo://app?vid=d1486dd5-23d4-40bc-bb61-4a3c8126196a","ios":"levelo://app?vid=d1486dd5-23d4-40bc-bb61-4a3c8126196a"},"vehicle_type_id":"4","last_reported":1732900103,"current_range_meters":39200,"station_id":"ce4bhbh2rcd13ifvqeo0","pricing_plan_id":"cebpf4jnsgd1na2vs0mg"},{"bike_id":"f0d2a098-7ddb-4601-ae15-20c32e03cbe5","system_id":"levelo_inurba_marseille","lat":43.28146,"lon":5.42667,"is_reserved":false,"is_disabled":false,"rental_uris":{"android":"levelo://app?vid=f0d2a098-7ddb-4601-ae15-20c32e03cbe5","ios":"levelo://app?vid=f0d2a098-7ddb-4601-ae15-20c32e03cbe5"},"vehicle_type_id":"4","last_reported":1732900103,"current_range_meters":27200,"station_id":"ce4bhnh2rcd13ifvqgug","pricing_plan_id":"cebpf4jnsgd1na2vs0mg"},{"bike_id":"5dc9edb1-f8c3-4553-889d-f73c08836757","system_id":"levelo_inurba_marseille","lat":43.32482,"lon":5.36597,"is_reserved":false,"is_disabled":true,"rental_uris":{"android":"levelo://app?vid=5dc9edb1-f8c3-4553-889d-f73c08836757","ios":"levelo://app?vid=5dc9edb1-f8c3-4553-889d-f73c08836757"},"vehicle_type_id":"4","last_reported":1732900103,"current_range_meters":7200,"station_id":"ce4bhs12rcd13ifvqhvg","pricing_plan_id":"cebpf4jnsgd1na2vs0mg"},{"bike_id":"274a9a9a-d2ad-4d60-ac46-f9f8eb7a761e","system_id":"levelo_inurba_marseille","lat":43.302663,"lon":5.377137,"is_reserved":false,"is_disabled":true,"rental_uris":{"android":"levelo://app?vid=274a9a9a-d2ad-4d60-ac46-f9f8eb7a761e","ios":"levelo://app?vid=274a9a9a-d2ad-4d60-ac46-f9f8eb7a761e"},"vehicle_type_id":"4","last_reported":1732900103,"current_range_meters":800,"station_id":"ce4bguh2rcd13ifvqcj0","pricing_plan_id":"cebpf4jnsgd1na2vs0mg"},{"bike_id":"b5e58432-5822-4cca-b9ae-6f24a5288981","system_id":"levelo_inurba_marseille","lat":43.30141,"lon":5.39857,"is_reserved":false,"is_disabled":false,"rental_uris":{"android":"levelo://app?vid=b5e58432-5822-4cca-b9ae-6f24a5288981","ios":"levelo://app?vid=b5e58432-5822-4cca-b9ae-6f24a5288981"},"vehicle_type_id":"4","last_reported":1732900103,"current_range_meters":10000,"station_id":"ce4bh0h2rcd13ifvqd40","pricing_plan_id":"cebpf4jnsgd1na2vs0mg"},{"bike_id":"89cf1498-db5f-4de7-8146-53299fa4542b","system_id":"levelo_inurba_marseille","lat":43.30208,"lon":5.39455,"is_reserved":false,"is_disabled":false,"rental_uris":{"android":"levelo://app?vid=89cf1498-db5f-4de7-8146-53299fa4542b","ios":"levelo://app?vid=89cf1498-db5f-4de7-8146-53299fa4542b"},"vehicle_type_id":"4","last_reported":1732900103,"current_range_meters":26800,"station_id":"ce4bh0p2rcd13ifvqd70","pricing_plan_id":"cebpf4jnsgd1na2vs0mg"},{"bike_id":"94ddd20c-e5b2-4c73-a61a-2ac668abc7d2","system_id":"levelo_inurba_marseille","lat":43.31994,"lon":5.38146,"is_reserved":false,"is_disabled":false,"rental_uris":{"android":"levelo://app?vid=94ddd20c-e5b2-4c73-a61a-2ac668abc7d2","ios":"levelo://app?vid=94ddd20c-e5b2-4c73-a61a-2ac668abc7d2"},"vehicle_type_id":"4","last_reported":1732900103,"current_range_meters":38800,"station_id":"ce4bhr12rcd13ifvqhpg","pricing_plan_id":"cebpf4jnsgd1na2vs0mg"},{"bike_id":"fe2c00d6-fab6-472b-887d-35960cae9038","system_id":"levelo_inurba_marseille","lat":43.25933,"lon":5.40907,"is_reserved":false,"is_disabled":true,"rental_uris":{"android":"levelo://app?vid=fe2c00d6-fab6-472b-887d-35960cae9038","ios":"levelo://app?vid=fe2c00d6-fab6-472b-887d-35960cae9038"},"vehicle_type_id":"4","last_reported":1732900103,"current_range_meters":0,"station_id":"ce4bhm92rcd13ifvqglg","pricing_plan_id":"cebpf4jnsgd1na2vs0mg"},{"bike_id":"4035e70a-9b35-49ff-8763-9565717e2e74","system_id":"levelo_inurba_marseille","lat":43.28467,"lon":5.35888,"is_reserved":false,"is_disabled":true,"rental_uris":{"android":"levelo://app?vid=4035e70a-9b35-49ff-8763-9565717e2e74","ios":"levelo://app?vid=4035e70a-9b35-49ff-8763-9565717e2e74"},"vehicle_type_id":"4","last_reported":1732900103,"current_range_meters":8800,"station_id":"ce4bhah2rcd13ifvqei0","pricing_plan_id":"cebpf4jnsgd1na2vs0mg"},{"bike_id":"bc749360-3ce4-4dd6-a0ac-83aa82c323a7","system_id":"levelo_inurba_marseille","lat":43.28148,"lon":5.42643,"is_reserved":false,"is_disabled":true,"rental_uris":{"android":"levelo://app?vid=bc749360-3ce4-4dd6-a0ac-83aa82c323a7","ios":"levelo://app?vid=bc749360-3ce4-4dd6-a0ac-83aa82c323a7"},"vehicle_type_id":"4","last_reported":1732900103,"current_range_meters":38400,"station_id":"ce4bhnh2rcd13ifvqgug","pricing_plan_id":"cebpf4jnsgd1na2vs0mg"},{"bike_id":"2dd2496f-1567-4b45-a167-c4a219178d62","system_id":"levelo_inurba_marseille","lat":43.28092,"lon":5.37831,"is_reserved":false,"is_disabled":false,"rental_uris":{"android":"levelo://app?vid=2dd2496f-1567-4b45-a167-c4a219178d62","ios":"levelo://app?vid=2dd2496f-1567-4b45-a167-c4a219178d62"},"vehicle_type_id":"4","last_reported":1732900103,"current_range_meters":9200,"station_id":"ce4bha12rcd13ifvqee0","pricing_plan_id":"cebpf4jnsgd1na2vs0mg"},{"bike_id":"4d4c884f-6933-49c0-8899-f9856d90f44d","system_id":"levelo_inurba_marseille","lat":43.29748,"lon":5.37971,"is_reserved":false,"is_disabled":true,"rental_uris":{"android":"levelo://app?vid=4d4c884f-6933-49c0-8899-f9856d90f44d","ios":"levelo://app?vid=4d4c884f-6933-49c0-8899-f9856d90f44d"},"vehicle_type_id":"4","last_reported":1732900103,"current_range_meters":0,"station_id":"","pricing_plan_id":"cebpf4jnsgd1na2vs0mg"},{"bike_id":"d82dda49-f000-4b9b-bb5a-ab2b369ce3c1","system_id":"levelo_inurba_marseille","lat":43.323364,"lon":5.406272,"is_reserved":false,"is_disabled":false,"rental_uris":{"android":"levelo://app?vid=d82dda49-f000-4b9b-bb5a-ab2b369ce3c1","ios":"levelo://app?vid=d82dda49-f000-4b9b-bb5a-ab2b369ce3c1"},"vehicle_type_id":"4","last_reported":1732900103,"current_range_meters":3200,"station_id":"ce4bhq92rcd13ifvqhjg","pricing_plan_id":"cebpf4jnsgd1na2vs0mg"},{"bike_id":"02895370-c40c-4c5d-869e-dbb8ac908e5c","system_id":"levelo_inurba_marseille","lat":43.27272,"lon":5.4096,"is_reserved":false,"is_disabled":false,"rental_uris":{"android":"levelo://app?vid=02895370-c40c-4c5d-869e-dbb8ac908e5c","ios":"levelo://app?vid=02895370-c40c-4c5d-869e-dbb8ac908e5c"},"vehicle_type_id":"4","last_reported":1732900103,"current_range_meters":14400,"station_id":"ce4bhl12rcd13ifvqgf0","pricing_plan_id":"cebpf4jnsgd1na2vs0mg"},{"bike_id":"9009be37-c6b1-406b-b0a8-fbab355f715e","system_id":"levelo_inurba_marseille","lat":43.33767,"lon":5.37492,"is_reserved":false,"is_disabled":false,"rental_uris":{"android":"levelo://app?vid=9009be37-c6b1-406b-b0a8-fbab355f715e","ios":"levelo://app?vid=9009be37-c6b1-406b-b0a8-fbab355f715e"},"vehicle_type_id":"4","last_reported":1732900103,"current_range_meters":36000,"station_id":"","pricing_plan_id":"cebpf4jnsgd1na2vs0mg"},{"bike_id":"bb9bb3d8-e7f2-41a1-99f2-47eb7dabe2be","system_id":"levelo_inurba_marseille","lat":43.27066,"lon":5.40259,"is_reserved":false,"is_disabled":true,"rental_uris":{"android":"levelo://app?vid=bb9bb3d8-e7f2-41a1-99f2-47eb7dabe2be","ios":"levelo://app?vid=bb9bb3d8-e7f2-41a1-99f2-47eb7dabe2be"},"vehicle_type_id":"4","last_reported":1732900103,"current_range_meters":0,"station_id":"ce4bhk92rcd13ifvqgc0","pricing_plan_id":"cebpf4jnsgd1na2vs0mg"},{"bike_id":"d2807836-6000-47ca-b96b-95836404774c","system_id":"levelo_inurba_marseille","lat":43.30206,"lon":5.39397,"is_reserved":false,"is_disabled":true,"rental_uris":{"android":"levelo://app?vid=d2807836-6000-47ca-b96b-95836404774c","ios":"levelo://app?vid=d2807836-6000-47ca-b96b-95836404774c"},"vehicle_type_id":"4","last_reported":1732900103,"current_range_meters":12800,"station_id":"","pricing_plan_id":"cebpf4jnsgd1na2vs0mg"},{"bike_id":"be1ea8ae-bb6c-4cc9-9878-4dd6e7c328d6","system_id":"levelo_inurba_marseille","lat":43.32105,"lon":5.36781,"is_reserved":false,"is_disabled":false,"rental_uris":{"android":"levelo://app?vid=be1ea8ae-bb6c-4cc9-9878-4dd6e7c328d6","ios":"levelo://app?vid=be1ea8ae-bb6c-4cc9-9878-4dd6e7c328d6"},"vehicle_type_id":"4","last_reported":1732900103,"current_range_meters":35200,"station_id":"ce4bhrh2rcd13ifvqhug","pricing_plan_id":"cebpf4jnsgd1na2vs0mg"},{"bike_id":"9589002c-1bab-46c5-9d09-a7efb8d9d194","system_id":"levelo_inurba_marseille","lat":43.28482,"lon":5.34989,"is_reserved":false,"is_disabled":false,"rental_uris":{"android":"levelo://app?vid=9589002c-1bab-46c5-9d09-a7efb8d9d194","ios":"levelo://app?vid=9589002c-1bab-46c5-9d09-a7efb8d9d194"},"vehicle_type_id":"4","last_reported":1732900103,"current_range_meters":16800,"station_id":"","pricing_plan_id":"cebpf4jnsgd1na2vs0mg"},{"bike_id":"5cc87b7b-e8e2-4f57-bf4a-d5911689f04d","system_id":"levelo_inurba_marseille","lat":43.29267,"lon":5.40298,"is_reserved":false,"is_disabled":false,"rental_uris":{"android":"levelo://app?vid=5cc87b7b-e8e2-4f57-bf4a-d5911689f04d","ios":"levelo://app?vid=5cc87b7b-e8e2-4f57-bf4a-d5911689f04d"},"vehicle_type_id":"4","last_reported":1732900103,"current_range_meters":30400,"station_id":"","pricing_plan_id":"cebpf4jnsgd1na2vs0mg"},{"bike_id":"77be03dd-3d99-4535-adc0-1c7477c4a3a3","system_id":"levelo_inurba_marseille","lat":43.32287,"lon":5.38288,"is_reserved":false,"is_disabled":false,"rental_uris":{"android":"levelo://app?vid=77be03dd-3d99-4535-adc0-1c7477c4a3a3","ios":"levelo://app?vid=77be03dd-3d99-4535-adc0-1c7477c4a3a3"},"vehicle_type_id":"4","last_reported":1732900103,"current_range_meters":23200,"station_id":"ce4bhr12rcd13ifvqhqg","pricing_plan_id":"cebpf4jnsgd1na2vs0mg"},{"bike_id":"16afab22-7b5c-4b87-8447-f122c435c6e4","system_id":"levelo_inurba_marseille","lat":43.28685,"lon":5.37402,"is_reserved":false,"is_disabled":false,"rental_uris":{"android":"levelo://app?vid=16afab22-7b5c-4b87-8447-f122c435c6e4","ios":"levelo://app?vid=16afab22-7b5c-4b87-8447-f122c435c6e4"},"vehicle_type_id":"4","last_reported":1732900103,"current_range_meters":36800,"station_id":"ce4bh3p2rcd13ifvqdq0","pricing_plan_id":"cebpf4jnsgd1na2vs0mg"},{"bike_id":"748bdbb2-aaf8-493a-8952-c38c72dc9c12","system_id":"levelo_inurba_marseille","lat":43.30298,"lon":5.39211,"is_reserved":false,"is_disabled":false,"rental_uris":{"android":"levelo://app?vid=748bdbb2-aaf8-493a-8952-c38c72dc9c12","ios":"levelo://app?vid=748bdbb2-aaf8-493a-8952-c38c72dc9c12"},"vehicle_type_id":"4","last_reported":1732900103,"current_range_meters":28000,"station_id":"ce4bgkh2rcd13ifvqbk0","pricing_plan_id":"cebpf4jnsgd1na2vs0mg"},{"bike_id":"2ecb2b25-0a90-4c2c-b405-879d41192bfa","system_id":"levelo_inurba_marseille","lat":43.30123,"lon":5.39843,"is_reserved":false,"is_disabled":false,"rental_uris":{"android":"levelo://app?vid=2ecb2b25-0a90-4c2c-b405-879d41192bfa","ios":"levelo://app?vid=2ecb2b25-0a90-4c2c-b405-879d41192bfa"},"vehicle_type_id":"4","last_reported":1732900103,"current_range_meters":32400,"station_id":"ce4bh0h2rcd13ifvqd40","pricing_plan_id":"cebpf4jnsgd1na2vs0mg"},{"bike_id":"ee238efa-19cf-4a36-a600-6ba976c5600a","system_id":"levelo_inurba_marseille","lat":43.24659,"lon":5.38166,"is_reserved":false,"is_disabled":false,"rental_uris":{"android":"levelo://app?vid=ee238efa-19cf-4a36-a600-6ba976c5600a","ios":"levelo://app?vid=ee238efa-19cf-4a36-a600-6ba976c5600a"},"vehicle_type_id":"4","last_reported":1732900103,"current_range_meters":33200,"station_id":"ce4bhih2rcd13ifvqfr0","pricing_plan_id":"cebpf4jnsgd1na2vs0mg"},{"bike_id":"01c2ede9-78b5-4b48-b997-6259690d4c7f","system_id":"levelo_inurba_marseille","lat":43.26563,"lon":5.39005,"is_reserved":false,"is_disabled":false,"rental_uris":{"android":"levelo://app?vid=01c2ede9-78b5-4b48-b997-6259690d4c7f","ios":"levelo://app?vid=01c2ede9-78b5-4b48-b997-6259690d4c7f"},"vehicle_type_id":"4","last_reported":1732900103,"current_range_meters":14400,"station_id":"ce4bhe12rcd13ifvqf30","pricing_plan_id":"cebpf4jnsgd1na2vs0mg"},{"bike_id":"d47f77da-5b67-45c3-961e-21075b0df58a","system_id":"levelo_inurba_marseille","lat":43.27315,"lon":5.3907,"is_reserved":false,"is_disabled":false,"rental_uris":{"android":"levelo://app?vid=d47f77da-5b67-45c3-961e-21075b0df58a","ios":"levelo://app?vid=d47f77da-5b67-45c3-961e-21075b0df58a"},"vehicle_type_id":"4","last_reported":1732900103,"current_range_meters":23200,"station_id":"ce4bhgp2rcd13ifvqfe0","pricing_plan_id":"cebpf4jnsgd1na2vs0mg"},{"bike_id":"e8fa7be1-2407-41a7-b843-e7c70f1917ef","system_id":"levelo_inurba_marseille","lat":43.2761,"lon":5.36109,"is_reserved":false,"is_disabled":true,"rental_uris":{"android":"levelo://app?vid=e8fa7be1-2407-41a7-b843-e7c70f1917ef","ios":"levelo://app?vid=e8fa7be1-2407-41a7-b843-e7c70f1917ef"},"vehicle_type_id":"4","last_reported":1732900103,"current_range_meters":0,"station_id":"ce4bgj92rcd13ifvqbe0","pricing_plan_id":"cebpf4jnsgd1na2vs0mg"},{"bike_id":"92d039f7-ef4f-446f-a1ee-e72a2d771e1f","system_id":"levelo_inurba_marseille","lat":43.23192,"lon":5.39992,"is_reserved":false,"is_disabled":false,"rental_uris":{"android":"levelo://app?vid=92d039f7-ef4f-446f-a1ee-e72a2d771e1f","ios":"levelo://app?vid=92d039f7-ef4f-446f-a1ee-e72a2d771e1f"},"vehicle_type_id":"4","last_reported":1732900103,"current_range_meters":16400,"station_id":"ce4bhn12rcd13ifvqgqg","pricing_plan_id":"cebpf4jnsgd1na2vs0mg"},{"bike_id":"df0dfc86-7540-4a0c-8976-9af5497d0a2c","system_id":"levelo_inurba_marseille","lat":43.337444,"lon":5.374475,"is_reserved":false,"is_disabled":false,"rental_uris":{"android":"levelo://app?vid=df0dfc86-7540-4a0c-8976-9af5497d0a2c","ios":"levelo://app?vid=df0dfc86-7540-4a0c-8976-9af5497d0a2c"},"vehicle_type_id":"4","last_reported":1732900103,"current_range_meters":24800,"station_id":"","pricing_plan_id":"cebpf4jnsgd1na2vs0mg"},{"bike_id":"d6a0ff66-87dd-49de-a09b-bea530d1c972","system_id":"levelo_inurba_marseille","lat":43.255708,"lon":5.382388,"is_reserved":false,"is_disabled":true,"rental_uris":{"android":"levelo://app?vid=d6a0ff66-87dd-49de-a09b-bea530d1c972","ios":"levelo://app?vid=d6a0ff66-87dd-49de-a09b-bea530d1c972"},"vehicle_type_id":"4","last_reported":1732900103,"current_range_meters":31200,"station_id":"ce4bhih2rcd13ifvqfs0","pricing_plan_id":"cebpf4jnsgd1na2vs0mg"},{"bike_id":"6a643b38-1545-4270-9676-8a5616c6fd17","system_id":"levelo_inurba_marseille","lat":43.31368,"lon":5.38362,"is_reserved":false,"is_disabled":false,"rental_uris":{"android":"levelo://app?vid=6a643b38-1545-4270-9676-8a5616c6fd17","ios":"levelo://app?vid=6a643b38-1545-4270-9676-8a5616c6fd17"},"vehicle_type_id":"4","last_reported":1732900103,"current_range_meters":27600,"station_id":"","pricing_plan_id":"cebpf4jnsgd1na2vs0mg"},{"bike_id":"851a98d2-6df7-46a5-897a-2fc45d7d37ec","system_id":"levelo_inurba_marseille","lat":43.29416,"lon":5.38622,"is_reserved":false,"is_disabled":false,"rental_uris":{"android":"levelo://app?vid=851a98d2-6df7-46a5-897a-2fc45d7d37ec","ios":"levelo://app?vid=851a98d2-6df7-46a5-897a-2fc45d7d37ec"},"vehicle_type_id":"4","last_reported":1732900103,"current_range_meters":26800,"station_id":"ce4bh2h2rcd13ifvqdh0","pricing_plan_id":"cebpf4jnsgd1na2vs0mg"},{"bike_id":"cef7d09c-062a-4f70-9aa9-cf47401718bc","system_id":"levelo_inurba_marseille","lat":43.29229,"lon":5.36401,"is_reserved":false,"is_disabled":false,"rental_uris":{"android":"levelo://app?vid=cef7d09c-062a-4f70-9aa9-cf47401718bc","ios":"levelo://app?vid=cef7d09c-062a-4f70-9aa9-cf47401718bc"},"vehicle_type_id":"4","last_reported":1732900103,"current_range_meters":19200,"station_id":"ce4bgh92rcd13ifvqb40","pricing_plan_id":"cebpf4jnsgd1na2vs0mg"},{"bike_id":"3ca8d527-6c31-4160-8bc9-0dbae13780f9","system_id":"levelo_inurba_marseille","lat":43.28456,"lon":5.35887,"is_reserved":false,"is_disabled":true,"rental_uris":{"android":"levelo://app?vid=3ca8d527-6c31-4160-8bc9-0dbae13780f9","ios":"levelo://app?vid=3ca8d527-6c31-4160-8bc9-0dbae13780f9"},"vehicle_type_id":"4","last_reported":1732900103,"current_range_meters":22800,"station_id":"ce4bhah2rcd13ifvqei0","pricing_plan_id":"cebpf4jnsgd1na2vs0mg"},{"bike_id":"91c8507b-82e0-4ef9-bf26-072dfcfd047a","system_id":"levelo_inurba_marseille","lat":43.25699,"lon":5.4114,"is_reserved":false,"is_disabled":false,"rental_uris":{"android":"levelo://app?vid=91c8507b-82e0-4ef9-bf26-072dfcfd047a","ios":"levelo://app?vid=91c8507b-82e0-4ef9-bf26-072dfcfd047a"},"vehicle_type_id":"4","last_reported":1732900103,"current_range_meters":7200,"station_id":"ce4bhkp2rcd13ifvqgd0","pricing_plan_id":"cebpf4jnsgd1na2vs0mg"},{"bike_id":"a985c880-13b0-471f-be68-7059b51df585","system_id":"levelo_inurba_marseille","lat":43.268003,"lon":5.402671,"is_reserved":false,"is_disabled":true,"rental_uris":{"android":"levelo://app?vid=a985c880-13b0-471f-be68-7059b51df585","ios":"levelo://app?vid=a985c880-13b0-471f-be68-7059b51df585"},"vehicle_type_id":"4","last_reported":1732900103,"current_range_meters":800,"station_id":"ce501612rcd8frsf0b60","pricing_plan_id":"cebpf4jnsgd1na2vs0mg"},{"bike_id":"455149af-8777-48e0-b9db-48c2f882a760","system_id":"levelo_inurba_marseille","lat":43.28348,"lon":5.38103,"is_reserved":false,"is_disabled":false,"rental_uris":{"android":"levelo://app?vid=455149af-8777-48e0-b9db-48c2f882a760","ios":"levelo://app?vid=455149af-8777-48e0-b9db-48c2f882a760"},"vehicle_type_id":"4","last_reported":1732900103,"current_range_meters":4800,"station_id":"ce4bh412rcd13ifvqdr0","pricing_plan_id":"cebpf4jnsgd1na2vs0mg"},{"bike_id":"14bc0bec-05e4-4dd2-822f-e4dd1fdac057","system_id":"levelo_inurba_marseille","lat":43.28148,"lon":5.42651,"is_reserved":false,"is_disabled":true,"rental_uris":{"android":"levelo://app?vid=14bc0bec-05e4-4dd2-822f-e4dd1fdac057","ios":"levelo://app?vid=14bc0bec-05e4-4dd2-822f-e4dd1fdac057"},"vehicle_type_id":"4","last_reported":1732900103,"current_range_meters":0,"station_id":"ce4bhnh2rcd13ifvqgug","pricing_plan_id":"cebpf4jnsgd1na2vs0mg"},{"bike_id":"4a2be555-d056-454c-bed3-fe781ba86f8e","system_id":"levelo_inurba_marseille","lat":43.25889,"lon":5.39954,"is_reserved":false,"is_disabled":true,"rental_uris":{"android":"levelo://app?vid=4a2be555-d056-454c-bed3-fe781ba86f8e","ios":"levelo://app?vid=4a2be555-d056-454c-bed3-fe781ba86f8e"},"vehicle_type_id":"4","last_reported":1732900103,"current_range_meters":6800,"station_id":"","pricing_plan_id":"cebpf4jnsgd1na2vs0mg"},{"bike_id":"74f23ffc-9be2-4ce9-b233-6490342bcf82","system_id":"levelo_inurba_marseille","lat":43.24166,"lon":5.36395,"is_reserved":false,"is_disabled":false,"rental_uris":{"android":"levelo://app?vid=74f23ffc-9be2-4ce9-b233-6490342bcf82","ios":"levelo://app?vid=74f23ffc-9be2-4ce9-b233-6490342bcf82"},"vehicle_type_id":"4","last_reported":1732900103,"current_range_meters":8800,"station_id":"cpo36qri1sfpv3e86is0","pricing_plan_id":"cebpf4jnsgd1na2vs0mg"},{"bike_id":"149cbc14-0894-4485-abf0-1d0584f14756","system_id":"levelo_inurba_marseille","lat":43.2781,"lon":5.40719,"is_reserved":false,"is_disabled":true,"rental_uris":{"android":"levelo://app?vid=149cbc14-0894-4485-abf0-1d0584f14756","ios":"levelo://app?vid=149cbc14-0894-4485-abf0-1d0584f14756"},"vehicle_type_id":"4","last_reported":1732900103,"current_range_meters":0,"station_id":"ce4bhnh2rcd13ifvqgtg","pricing_plan_id":"cebpf4jnsgd1na2vs0mg"},{"bike_id":"80ee5806-271f-4b24-a602-2dc27d804313","system_id":"levelo_inurba_marseille","lat":43.321042,"lon":5.367763,"is_reserved":false,"is_disabled":false,"rental_uris":{"android":"levelo://app?vid=80ee5806-271f-4b24-a602-2dc27d804313","ios":"levelo://app?vid=80ee5806-271f-4b24-a602-2dc27d804313"},"vehicle_type_id":"4","last_reported":1732900103,"current_range_meters":14400,"station_id":"ce4bhrh2rcd13ifvqhug","pricing_plan_id":"cebpf4jnsgd1na2vs0mg"},{"bike_id":"a99e441f-fcb3-4edf-8132-a5c34ea369bf","system_id":"levelo_inurba_marseille","lat":43.26945,"lon":5.40251,"is_reserved":false,"is_disabled":true,"rental_uris":{"android":"levelo://app?vid=a99e441f-fcb3-4edf-8132-a5c34ea369bf","ios":"levelo://app?vid=a99e441f-fcb3-4edf-8132-a5c34ea369bf"},"vehicle_type_id":"4","last_reported":1732900103,"current_range_meters":0,"station_id":"cjm6bp8fraef2m0cb0m0","pricing_plan_id":"cebpf4jnsgd1na2vs0mg"},{"bike_id":"37d56447-0d71-40a8-94cf-48c83af3813b","system_id":"levelo_inurba_marseille","lat":43.29431,"lon":5.38623,"is_reserved":false,"is_disabled":false,"rental_uris":{"android":"levelo://app?vid=37d56447-0d71-40a8-94cf-48c83af3813b","ios":"levelo://app?vid=37d56447-0d71-40a8-94cf-48c83af3813b"},"vehicle_type_id":"4","last_reported":1732900103,"current_range_meters":30400,"station_id":"ce4bh2h2rcd13ifvqdh0","pricing_plan_id":"cebpf4jnsgd1na2vs0mg"},{"bike_id":"6e38bc38-ac03-4eb2-9313-c9c792f3aaf8","system_id":"levelo_inurba_marseille","lat":43.28029,"lon":5.36947,"is_reserved":false,"is_disabled":true,"rental_uris":{"android":"levelo://app?vid=6e38bc38-ac03-4eb2-9313-c9c792f3aaf8","ios":"levelo://app?vid=6e38bc38-ac03-4eb2-9313-c9c792f3aaf8"},"vehicle_type_id":"4","last_reported":1732900103,"current_range_meters":800,"station_id":"ce4bha12rcd13ifvqef0","pricing_plan_id":"cebpf4jnsgd1na2vs0mg"},{"bike_id":"a0accefe-c99e-4cb9-8f29-6e44170ffa13","system_id":"levelo_inurba_marseille","lat":43.30414,"lon":5.39757,"is_reserved":false,"is_disabled":true,"rental_uris":{"android":"levelo://app?vid=a0accefe-c99e-4cb9-8f29-6e44170ffa13","ios":"levelo://app?vid=a0accefe-c99e-4cb9-8f29-6e44170ffa13"},"vehicle_type_id":"4","last_reported":1732900103,"current_range_meters":34800,"station_id":"ce4bh092rcd13ifvqd20","pricing_plan_id":"cebpf4jnsgd1na2vs0mg"},{"bike_id":"caec5743-9551-49a1-bc6f-66ea9df752cc","system_id":"levelo_inurba_marseille","lat":43.33032,"lon":5.39047,"is_reserved":false,"is_disabled":false,"rental_uris":{"android":"levelo://app?vid=caec5743-9551-49a1-bc6f-66ea9df752cc","ios":"levelo://app?vid=caec5743-9551-49a1-bc6f-66ea9df752cc"},"vehicle_type_id":"4","last_reported":1732900103,"current_range_meters":36000,"station_id":"ce4bhr92rcd13ifvqhrg","pricing_plan_id":"cebpf4jnsgd1na2vs0mg"},{"bike_id":"95ba6d7a-6fcb-4e9f-bbde-2fca521bc8d4","system_id":"levelo_inurba_marseille","lat":43.3054,"lon":5.36712,"is_reserved":false,"is_disabled":true,"rental_uris":{"android":"levelo://app?vid=95ba6d7a-6fcb-4e9f-bbde-2fca521bc8d4","ios":"levelo://app?vid=95ba6d7a-6fcb-4e9f-bbde-2fca521bc8d4"},"vehicle_type_id":"4","last_reported":1732900103,"current_range_meters":0,"station_id":"ce4bgrp2rcd13ifvqc9g","pricing_plan_id":"cebpf4jnsgd1na2vs0mg"},{"bike_id":"81d9f7be-c3c6-4233-bf11-948e6f22debc","system_id":"levelo_inurba_marseille","lat":43.32361,"lon":5.38884,"is_reserved":false,"is_disabled":false,"rental_uris":{"android":"levelo://app?vid=81d9f7be-c3c6-4233-bf11-948e6f22debc","ios":"levelo://app?vid=81d9f7be-c3c6-4233-bf11-948e6f22debc"},"vehicle_type_id":"4","last_reported":1732900103,"current_range_meters":36400,"station_id":"ce4bhqp2rcd13ifvqhog","pricing_plan_id":"cebpf4jnsgd1na2vs0mg"},{"bike_id":"2860b59e-ca9d-40bb-aa92-76539ae1d5f6","system_id":"levelo_inurba_marseille","lat":43.31999,"lon":5.38159,"is_reserved":false,"is_disabled":false,"rental_uris":{"android":"levelo://app?vid=2860b59e-ca9d-40bb-aa92-76539ae1d5f6","ios":"levelo://app?vid=2860b59e-ca9d-40bb-aa92-76539ae1d5f6"},"vehicle_type_id":"4","last_reported":1732900103,"current_range_meters":34800,"station_id":"ce4bhr12rcd13ifvqhpg","pricing_plan_id":"cebpf4jnsgd1na2vs0mg"},{"bike_id":"def90535-8063-4c54-b688-08f7d163ce9a","system_id":"levelo_inurba_marseille","lat":43.29416,"lon":5.38624,"is_reserved":false,"is_disabled":true,"rental_uris":{"android":"levelo://app?vid=def90535-8063-4c54-b688-08f7d163ce9a","ios":"levelo://app?vid=def90535-8063-4c54-b688-08f7d163ce9a"},"vehicle_type_id":"4","last_reported":1732900103,"current_range_meters":1200,"station_id":"ce4bh2h2rcd13ifvqdh0","pricing_plan_id":"cebpf4jnsgd1na2vs0mg"},{"bike_id":"91b6a540-5ffc-4ba9-b7a9-a3ed8d7201d1","system_id":"levelo_inurba_marseille","lat":43.27204,"lon":5.39187,"is_reserved":false,"is_disabled":true,"rental_uris":{"android":"levelo://app?vid=91b6a540-5ffc-4ba9-b7a9-a3ed8d7201d1","ios":"levelo://app?vid=91b6a540-5ffc-4ba9-b7a9-a3ed8d7201d1"},"vehicle_type_id":"4","last_reported":1732900103,"current_range_meters":1200,"station_id":"ce4bhhp2rcd13ifvqfm0","pricing_plan_id":"cebpf4jnsgd1na2vs0mg"},{"bike_id":"f84b9b2d-13ce-443e-9617-17ba03750350","system_id":"levelo_inurba_marseille","lat":43.31711,"lon":5.37736,"is_reserved":false,"is_disabled":false,"rental_uris":{"android":"levelo://app?vid=f84b9b2d-13ce-443e-9617-17ba03750350","ios":"levelo://app?vid=f84b9b2d-13ce-443e-9617-17ba03750350"},"vehicle_type_id":"4","last_reported":1732900103,"current_range_meters":23200,"station_id":"ce4bgth2rcd13ifvqch0","pricing_plan_id":"cebpf4jnsgd1na2vs0mg"},{"bike_id":"29a80c71-9648-4a26-b6c9-5f69092eaa01","system_id":"levelo_inurba_marseille","lat":43.27067,"lon":5.42273,"is_reserved":false,"is_disabled":true,"rental_uris":{"android":"levelo://app?vid=29a80c71-9648-4a26-b6c9-5f69092eaa01","ios":"levelo://app?vid=29a80c71-9648-4a26-b6c9-5f69092eaa01"},"vehicle_type_id":"4","last_reported":1732900103,"current_range_meters":38800,"station_id":"ce4bhk92rcd13ifvqgb0","pricing_plan_id":"cebpf4jnsgd1na2vs0mg"},{"bike_id":"8a1cfcec-41e8-462c-bd1d-f29828e7ae10","system_id":"levelo_inurba_marseille","lat":43.30479,"lon":5.36735,"is_reserved":false,"is_disabled":false,"rental_uris":{"android":"levelo://app?vid=8a1cfcec-41e8-462c-bd1d-f29828e7ae10","ios":"levelo://app?vid=8a1cfcec-41e8-462c-bd1d-f29828e7ae10"},"vehicle_type_id":"4","last_reported":1732900103,"current_range_meters":6800,"station_id":"","pricing_plan_id":"cebpf4jnsgd1na2vs0mg"},{"bike_id":"33fee591-6380-4f3c-b085-e5081ac3f192","system_id":"levelo_inurba_marseille","lat":43.23192,"lon":5.35553,"is_reserved":false,"is_disabled":false,"rental_uris":{"android":"levelo://app?vid=33fee591-6380-4f3c-b085-e5081ac3f192","ios":"levelo://app?vid=33fee591-6380-4f3c-b085-e5081ac3f192"},"vehicle_type_id":"4","last_reported":1732900103,"current_range_meters":18800,"station_id":"ce4bhu92rcd13ifvqi70","pricing_plan_id":"cebpf4jnsgd1na2vs0mg"},{"bike_id":"5b6140a7-7f65-4ca3-a3f2-419ab04c93da","system_id":"levelo_inurba_marseille","lat":43.22929,"lon":5.35377,"is_reserved":false,"is_disabled":false,"rental_uris":{"android":"levelo://app?vid=5b6140a7-7f65-4ca3-a3f2-419ab04c93da","ios":"levelo://app?vid=5b6140a7-7f65-4ca3-a3f2-419ab04c93da"},"vehicle_type_id":"4","last_reported":1732900103,"current_range_meters":27200,"station_id":"cpo3532slgdg3j2ikp40","pricing_plan_id":"cebpf4jnsgd1na2vs0mg"},{"bike_id":"0174841e-8011-4a7b-bd18-480101bee765","system_id":"levelo_inurba_marseille","lat":43.23968,"lon":5.36629,"is_reserved":false,"is_disabled":true,"rental_uris":{"android":"levelo://app?vid=0174841e-8011-4a7b-bd18-480101bee765","ios":"levelo://app?vid=0174841e-8011-4a7b-bd18-480101bee765"},"vehicle_type_id":"4","last_reported":1732900103,"current_range_meters":400,"station_id":"ce4bhi12rcd13ifvqfp0","pricing_plan_id":"cebpf4jnsgd1na2vs0mg"},{"bike_id":"22c1bfd5-2253-4320-9402-cc1277c088c4","system_id":"levelo_inurba_marseille","lat":43.26945,"lon":5.40252,"is_reserved":false,"is_disabled":true,"rental_uris":{"android":"levelo://app?vid=22c1bfd5-2253-4320-9402-cc1277c088c4","ios":"levelo://app?vid=22c1bfd5-2253-4320-9402-cc1277c088c4"},"vehicle_type_id":"4","last_reported":1732900103,"current_range_meters":0,"station_id":"cjm6bp8fraef2m0cb0m0","pricing_plan_id":"cebpf4jnsgd1na2vs0mg"},{"bike_id":"52c5ec48-d9d2-4224-8f63-3b7560e41bcc","system_id":"levelo_inurba_marseille","lat":43.24179,"lon":5.39737,"is_reserved":false,"is_disabled":true,"rental_uris":{"android":"levelo://app?vid=52c5ec48-d9d2-4224-8f63-3b7560e41bcc","ios":"levelo://app?vid=52c5ec48-d9d2-4224-8f63-3b7560e41bcc"},"vehicle_type_id":"4","last_reported":1732900103,"current_range_meters":2800,"station_id":"ce4bhn12rcd13ifvqgpg","pricing_plan_id":"cebpf4jnsgd1na2vs0mg"},{"bike_id":"ab905efa-77c9-48c8-aa45-f0e63f134eb5","system_id":"levelo_inurba_marseille","lat":43.27985,"lon":5.41664,"is_reserved":false,"is_disabled":true,"rental_uris":{"android":"levelo://app?vid=ab905efa-77c9-48c8-aa45-f0e63f134eb5","ios":"levelo://app?vid=ab905efa-77c9-48c8-aa45-f0e63f134eb5"},"vehicle_type_id":"4","last_reported":1732900103,"current_range_meters":400,"station_id":"ce4bho12rcd13ifvqh1g","pricing_plan_id":"cebpf4jnsgd1na2vs0mg"},{"bike_id":"759518f4-9f32-4b72-97fe-df61c6c7bd05","system_id":"levelo_inurba_marseille","lat":43.31281,"lon":5.40147,"is_reserved":false,"is_disabled":true,"rental_uris":{"android":"levelo://app?vid=759518f4-9f32-4b72-97fe-df61c6c7bd05","ios":"levelo://app?vid=759518f4-9f32-4b72-97fe-df61c6c7bd05"},"vehicle_type_id":"4","last_reported":1732900103,"current_range_meters":6400,"station_id":"ce4bh092rcd13ifvqd30","pricing_plan_id":"cebpf4jnsgd1na2vs0mg"},{"bike_id":"acfb7208-ec2f-4784-87a4-1d6512118d4e","system_id":"levelo_inurba_marseille","lat":43.24544,"lon":5.39523,"is_reserved":false,"is_disabled":true,"rental_uris":{"android":"levelo://app?vid=acfb7208-ec2f-4784-87a4-1d6512118d4e","ios":"levelo://app?vid=acfb7208-ec2f-4784-87a4-1d6512118d4e"},"vehicle_type_id":"4","last_reported":1732900103,"current_range_meters":0,"station_id":"ce4bhlp2rcd13ifvqgjg","pricing_plan_id":"cebpf4jnsgd1na2vs0mg"},{"bike_id":"4d8c52a6-898a-483a-af2c-690fbaafb5d1","system_id":"levelo_inurba_marseille","lat":43.24996,"lon":5.38936,"is_reserved":false,"is_disabled":true,"rental_uris":{"android":"levelo://app?vid=4d8c52a6-898a-483a-af2c-690fbaafb5d1","ios":"levelo://app?vid=4d8c52a6-898a-483a-af2c-690fbaafb5d1"},"vehicle_type_id":"4","last_reported":1732900103,"current_range_meters":0,"station_id":"ce4bhgp2rcd13ifvqfd0","pricing_plan_id":"cebpf4jnsgd1na2vs0mg"},{"bike_id":"584d6055-95f8-4b7f-bde9-9818196c8852","system_id":"levelo_inurba_marseille","lat":43.30136,"lon":5.39849,"is_reserved":false,"is_disabled":false,"rental_uris":{"android":"levelo://app?vid=584d6055-95f8-4b7f-bde9-9818196c8852","ios":"levelo://app?vid=584d6055-95f8-4b7f-bde9-9818196c8852"},"vehicle_type_id":"4","last_reported":1732900103,"current_range_meters":18000,"station_id":"ce4bh0h2rcd13ifvqd40","pricing_plan_id":"cebpf4jnsgd1na2vs0mg"},{"bike_id":"dca7969c-5d93-4a4a-8ad2-170d7eead36c","system_id":"levelo_inurba_marseille","lat":43.29304,"lon":5.3715,"is_reserved":false,"is_disabled":false,"rental_uris":{"android":"levelo://app?vid=dca7969c-5d93-4a4a-8ad2-170d7eead36c","ios":"levelo://app?vid=dca7969c-5d93-4a4a-8ad2-170d7eead36c"},"vehicle_type_id":"4","last_reported":1732900103,"current_range_meters":33600,"station_id":"ce4bgh92rcd13ifvqb40","pricing_plan_id":"cebpf4jnsgd1na2vs0mg"},{"bike_id":"01522269-a97e-4da2-9369-e567e90a62b5","system_id":"levelo_inurba_marseille","lat":43.248017,"lon":5.37462,"is_reserved":false,"is_disabled":false,"rental_uris":{"android":"levelo://app?vid=01522269-a97e-4da2-9369-e567e90a62b5","ios":"levelo://app?vid=01522269-a97e-4da2-9369-e567e90a62b5"},"vehicle_type_id":"4","last_reported":1732900103,"current_range_meters":39200,"station_id":"ce4bhgh2rcd13ifvqfb0","pricing_plan_id":"cebpf4jnsgd1na2vs0mg"},{"bike_id":"7a117f6f-1166-45ed-abee-891ceea1d56c","system_id":"levelo_inurba_marseille","lat":43.29789,"lon":5.39344,"is_reserved":false,"is_disabled":false,"rental_uris":{"android":"levelo://app?vid=7a117f6f-1166-45ed-abee-891ceea1d56c","ios":"levelo://app?vid=7a117f6f-1166-45ed-abee-891ceea1d56c"},"vehicle_type_id":"4","last_reported":1732900103,"current_range_meters":16400,"station_id":"chh1huq6cuj3fo74tm60","pricing_plan_id":"cebpf4jnsgd1na2vs0mg"},{"bike_id":"76cf05b8-b737-43a2-a8b0-2a3350d05016","system_id":"levelo_inurba_marseille","lat":43.27054,"lon":5.40258,"is_reserved":false,"is_disabled":true,"rental_uris":{"android":"levelo://app?vid=76cf05b8-b737-43a2-a8b0-2a3350d05016","ios":"levelo://app?vid=76cf05b8-b737-43a2-a8b0-2a3350d05016"},"vehicle_type_id":"4","last_reported":1732900103,"current_range_meters":0,"station_id":"ce4bhk92rcd13ifvqgc0","pricing_plan_id":"cebpf4jnsgd1na2vs0mg"},{"bike_id":"2839c06e-dfc6-4bb4-92dd-cd78c43581f0","system_id":"levelo_inurba_marseille","lat":43.23197,"lon":5.35555,"is_reserved":false,"is_disabled":false,"rental_uris":{"android":"levelo://app?vid=2839c06e-dfc6-4bb4-92dd-cd78c43581f0","ios":"levelo://app?vid=2839c06e-dfc6-4bb4-92dd-cd78c43581f0"},"vehicle_type_id":"4","last_reported":1732900103,"current_range_meters":19200,"station_id":"ce4bhu92rcd13ifvqi70","pricing_plan_id":"cebpf4jnsgd1na2vs0mg"},{"bike_id":"a988f333-257b-45f8-8cfe-8cff82baab39","system_id":"levelo_inurba_marseille","lat":43.30136,"lon":5.39856,"is_reserved":false,"is_disabled":false,"rental_uris":{"android":"levelo://app?vid=a988f333-257b-45f8-8cfe-8cff82baab39","ios":"levelo://app?vid=a988f333-257b-45f8-8cfe-8cff82baab39"},"vehicle_type_id":"4","last_reported":1732900103,"current_range_meters":10800,"station_id":"","pricing_plan_id":"cebpf4jnsgd1na2vs0mg"},{"bike_id":"2b6b7270-0c2c-407a-9148-b81b19b42f53","system_id":"levelo_inurba_marseille","lat":43.28613,"lon":5.35105,"is_reserved":false,"is_disabled":false,"rental_uris":{"android":"levelo://app?vid=2b6b7270-0c2c-407a-9148-b81b19b42f53","ios":"levelo://app?vid=2b6b7270-0c2c-407a-9148-b81b19b42f53"},"vehicle_type_id":"4","last_reported":1732900103,"current_range_meters":3600,"station_id":"ce4bhch2rcd13ifvqeug","pricing_plan_id":"cebpf4jnsgd1na2vs0mg"},{"bike_id":"4b78dd6b-114b-4df8-8655-7220c3a772fe","system_id":"levelo_inurba_marseille","lat":43.25086,"lon":5.39527,"is_reserved":false,"is_disabled":false,"rental_uris":{"android":"levelo://app?vid=4b78dd6b-114b-4df8-8655-7220c3a772fe","ios":"levelo://app?vid=4b78dd6b-114b-4df8-8655-7220c3a772fe"},"vehicle_type_id":"4","last_reported":1732900103,"current_range_meters":30800,"station_id":"ce4bhm12rcd13ifvqgkg","pricing_plan_id":"cebpf4jnsgd1na2vs0mg"},{"bike_id":"fe1c6c60-0f4f-4b5c-a7ea-9f2ff8347245","system_id":"levelo_inurba_marseille","lat":43.27618,"lon":5.36129,"is_reserved":false,"is_disabled":true,"rental_uris":{"android":"levelo://app?vid=fe1c6c60-0f4f-4b5c-a7ea-9f2ff8347245","ios":"levelo://app?vid=fe1c6c60-0f4f-4b5c-a7ea-9f2ff8347245"},"vehicle_type_id":"4","last_reported":1732900103,"current_range_meters":0,"station_id":"ce4bgj92rcd13ifvqbe0","pricing_plan_id":"cebpf4jnsgd1na2vs0mg"},{"bike_id":"95e16b67-0d53-4cca-8aaa-2b831d4e43c6","system_id":"levelo_inurba_marseille","lat":43.33021,"lon":5.39036,"is_reserved":false,"is_disabled":false,"rental_uris":{"android":"levelo://app?vid=95e16b67-0d53-4cca-8aaa-2b831d4e43c6","ios":"levelo://app?vid=95e16b67-0d53-4cca-8aaa-2b831d4e43c6"},"vehicle_type_id":"4","last_reported":1732900103,"current_range_meters":34800,"station_id":"ce4bhr92rcd13ifvqhrg","pricing_plan_id":"cebpf4jnsgd1na2vs0mg"},{"bike_id":"4e9f31e2-2263-4210-af28-b4e6ed23527a","system_id":"levelo_inurba_marseille","lat":43.29581,"lon":5.36751,"is_reserved":false,"is_disabled":false,"rental_uris":{"android":"levelo://app?vid=4e9f31e2-2263-4210-af28-b4e6ed23527a","ios":"levelo://app?vid=4e9f31e2-2263-4210-af28-b4e6ed23527a"},"vehicle_type_id":"4","last_reported":1732900103,"current_range_meters":10800,"station_id":"ce4bgph2rcd13ifvqc2g","pricing_plan_id":"cebpf4jnsgd1na2vs0mg"},{"bike_id":"036a8ba2-b0d6-4a50-915e-56d89d9e0795","system_id":"levelo_inurba_marseille","lat":43.28566,"lon":5.39517,"is_reserved":false,"is_disabled":false,"rental_uris":{"android":"levelo://app?vid=036a8ba2-b0d6-4a50-915e-56d89d9e0795","ios":"levelo://app?vid=036a8ba2-b0d6-4a50-915e-56d89d9e0795"},"vehicle_type_id":"4","last_reported":1732900103,"current_range_meters":38800,"station_id":"ce4bh292rcd13ifvqdg0","pricing_plan_id":"cebpf4jnsgd1na2vs0mg"},{"bike_id":"078156b4-9cb0-42ad-b2dc-01029014c62b","system_id":"levelo_inurba_marseille","lat":43.28153,"lon":5.42649,"is_reserved":false,"is_disabled":false,"rental_uris":{"android":"levelo://app?vid=078156b4-9cb0-42ad-b2dc-01029014c62b","ios":"levelo://app?vid=078156b4-9cb0-42ad-b2dc-01029014c62b"},"vehicle_type_id":"4","last_reported":1732900103,"current_range_meters":8400,"station_id":"ce4bhnh2rcd13ifvqgug","pricing_plan_id":"cebpf4jnsgd1na2vs0mg"},{"bike_id":"a5ede4d0-2bea-4381-aa79-6fc67760e710","system_id":"levelo_inurba_marseille","lat":43.29004,"lon":5.3562,"is_reserved":false,"is_disabled":true,"rental_uris":{"android":"levelo://app?vid=a5ede4d0-2bea-4381-aa79-6fc67760e710","ios":"levelo://app?vid=a5ede4d0-2bea-4381-aa79-6fc67760e710"},"vehicle_type_id":"4","last_reported":1732900103,"current_range_meters":2000,"station_id":"ce4bhb92rcd13ifvqen0","pricing_plan_id":"cebpf4jnsgd1na2vs0mg"},{"bike_id":"f86bfa7c-d97b-49ae-8add-e5b738996df7","system_id":"levelo_inurba_marseille","lat":43.30329,"lon":5.40441,"is_reserved":false,"is_disabled":false,"rental_uris":{"android":"levelo://app?vid=f86bfa7c-d97b-49ae-8add-e5b738996df7","ios":"levelo://app?vid=f86bfa7c-d97b-49ae-8add-e5b738996df7"},"vehicle_type_id":"4","last_reported":1732900103,"current_range_meters":25200,"station_id":"ce4bh012rcd13ifvqd10","pricing_plan_id":"cebpf4jnsgd1na2vs0mg"},{"bike_id":"5cbf1539-18e9-4c34-b3ac-bb7a0181213c","system_id":"levelo_inurba_marseille","lat":43.31614,"lon":5.37871,"is_reserved":false,"is_disabled":false,"rental_uris":{"android":"levelo://app?vid=5cbf1539-18e9-4c34-b3ac-bb7a0181213c","ios":"levelo://app?vid=5cbf1539-18e9-4c34-b3ac-bb7a0181213c"},"vehicle_type_id":"4","last_reported":1732900103,"current_range_meters":18800,"station_id":"","pricing_plan_id":"cebpf4jnsgd1na2vs0mg"},{"bike_id":"a4a5c412-4e09-4925-8c2d-6527fd758178","system_id":"levelo_inurba_marseille","lat":43.29043,"lon":5.35907,"is_reserved":false,"is_disabled":false,"rental_uris":{"android":"levelo://app?vid=a4a5c412-4e09-4925-8c2d-6527fd758178","ios":"levelo://app?vid=a4a5c412-4e09-4925-8c2d-6527fd758178"},"vehicle_type_id":"4","last_reported":1732900103,"current_range_meters":22000,"station_id":"ce4bha92rcd13ifvqeg0","pricing_plan_id":"cebpf4jnsgd1na2vs0mg"},{"bike_id":"be7c9bf1-8041-4ab9-8264-3db364f3e8b9","system_id":"levelo_inurba_marseille","lat":43.29025,"lon":5.38136,"is_reserved":false,"is_disabled":false,"rental_uris":{"android":"levelo://app?vid=be7c9bf1-8041-4ab9-8264-3db364f3e8b9","ios":"levelo://app?vid=be7c9bf1-8041-4ab9-8264-3db364f3e8b9"},"vehicle_type_id":"4","last_reported":1732900103,"current_range_meters":38400,"station_id":"ce4bh4p2rcd13ifvqe1g","pricing_plan_id":"cebpf4jnsgd1na2vs0mg"},{"bike_id":"e7207d0a-b299-4288-8240-4a673909305a","system_id":"levelo_inurba_marseille","lat":43.24165,"lon":5.36394,"is_reserved":false,"is_disabled":false,"rental_uris":{"android":"levelo://app?vid=e7207d0a-b299-4288-8240-4a673909305a","ios":"levelo://app?vid=e7207d0a-b299-4288-8240-4a673909305a"},"vehicle_type_id":"4","last_reported":1732900103,"current_range_meters":31200,"station_id":"cpo36qri1sfpv3e86is0","pricing_plan_id":"cebpf4jnsgd1na2vs0mg"},{"bike_id":"a5909545-3e09-4859-9fda-9ffe4e6e4883","system_id":"levelo_inurba_marseille","lat":43.23066,"lon":5.35491,"is_reserved":false,"is_disabled":false,"rental_uris":{"android":"levelo://app?vid=a5909545-3e09-4859-9fda-9ffe4e6e4883","ios":"levelo://app?vid=a5909545-3e09-4859-9fda-9ffe4e6e4883"},"vehicle_type_id":"4","last_reported":1732900103,"current_range_meters":16800,"station_id":"cpo3342slgdg3j2ifvpg","pricing_plan_id":"cebpf4jnsgd1na2vs0mg"},{"bike_id":"c54fa7c9-a127-4d75-ac3d-fe8ea889edd3","system_id":"levelo_inurba_marseille","lat":43.30143,"lon":5.39861,"is_reserved":false,"is_disabled":true,"rental_uris":{"android":"levelo://app?vid=c54fa7c9-a127-4d75-ac3d-fe8ea889edd3","ios":"levelo://app?vid=c54fa7c9-a127-4d75-ac3d-fe8ea889edd3"},"vehicle_type_id":"4","last_reported":1732900103,"current_range_meters":24800,"station_id":"ce4bh0h2rcd13ifvqd40","pricing_plan_id":"cebpf4jnsgd1na2vs0mg"},{"bike_id":"e6959926-0341-4174-9dfd-91f6ab9287a9","system_id":"levelo_inurba_marseille","lat":43.3171,"lon":5.43712,"is_reserved":false,"is_disabled":false,"rental_uris":{"android":"levelo://app?vid=e6959926-0341-4174-9dfd-91f6ab9287a9","ios":"levelo://app?vid=e6959926-0341-4174-9dfd-91f6ab9287a9"},"vehicle_type_id":"4","last_reported":1732900103,"current_range_meters":14400,"station_id":"ce4bhp92rcd13ifvqhcg","pricing_plan_id":"cebpf4jnsgd1na2vs0mg"},{"bike_id":"1f3be82a-39fb-49be-9f70-2df7092d6f3c","system_id":"levelo_inurba_marseille","lat":43.32446,"lon":5.3655,"is_reserved":false,"is_disabled":false,"rental_uris":{"android":"levelo://app?vid=1f3be82a-39fb-49be-9f70-2df7092d6f3c","ios":"levelo://app?vid=1f3be82a-39fb-49be-9f70-2df7092d6f3c"},"vehicle_type_id":"4","last_reported":1732900103,"current_range_meters":11600,"station_id":"ce4bhs12rcd13ifvqhvg","pricing_plan_id":"cebpf4jnsgd1na2vs0mg"},{"bike_id":"c3e07ef7-c68d-4d38-8a14-53031f3b8a85","system_id":"levelo_inurba_marseille","lat":43.28081,"lon":5.39666,"is_reserved":false,"is_disabled":false,"rental_uris":{"android":"levelo://app?vid=c3e07ef7-c68d-4d38-8a14-53031f3b8a85","ios":"levelo://app?vid=c3e07ef7-c68d-4d38-8a14-53031f3b8a85"},"vehicle_type_id":"4","last_reported":1732900103,"current_range_meters":10800,"station_id":"ce4bho12rcd13ifvqh2g","pricing_plan_id":"cebpf4jnsgd1na2vs0mg"},{"bike_id":"2435a069-43bc-4d5c-9886-46decc843fd1","system_id":"levelo_inurba_marseille","lat":43.3014,"lon":5.37397,"is_reserved":false,"is_disabled":false,"rental_uris":{"android":"levelo://app?vid=2435a069-43bc-4d5c-9886-46decc843fd1","ios":"levelo://app?vid=2435a069-43bc-4d5c-9886-46decc843fd1"},"vehicle_type_id":"4","last_reported":1732900103,"current_range_meters":30400,"station_id":"ce4bgs92rcd13ifvqcc0","pricing_plan_id":"cebpf4jnsgd1na2vs0mg"},{"bike_id":"e5951ee3-4a5a-4ebb-b469-096c5188dfa3","system_id":"levelo_inurba_marseille","lat":43.23194,"lon":5.35558,"is_reserved":false,"is_disabled":false,"rental_uris":{"android":"levelo://app?vid=e5951ee3-4a5a-4ebb-b469-096c5188dfa3","ios":"levelo://app?vid=e5951ee3-4a5a-4ebb-b469-096c5188dfa3"},"vehicle_type_id":"4","last_reported":1732900103,"current_range_meters":23200,"station_id":"ce4bhu92rcd13ifvqi70","pricing_plan_id":"cebpf4jnsgd1na2vs0mg"},{"bike_id":"f9a63393-5401-4f98-ae5a-dfbb8291ab6d","system_id":"levelo_inurba_marseille","lat":43.3004,"lon":5.37551,"is_reserved":false,"is_disabled":true,"rental_uris":{"android":"levelo://app?vid=f9a63393-5401-4f98-ae5a-dfbb8291ab6d","ios":"levelo://app?vid=f9a63393-5401-4f98-ae5a-dfbb8291ab6d"},"vehicle_type_id":"4","last_reported":1732900103,"current_range_meters":0,"station_id":"","pricing_plan_id":"cebpf4jnsgd1na2vs0mg"},{"bike_id":"d2300a67-e59d-4c6d-84e8-89c1777cddcc","system_id":"levelo_inurba_marseille","lat":43.3199,"lon":5.38155,"is_reserved":false,"is_disabled":false,"rental_uris":{"android":"levelo://app?vid=d2300a67-e59d-4c6d-84e8-89c1777cddcc","ios":"levelo://app?vid=d2300a67-e59d-4c6d-84e8-89c1777cddcc"},"vehicle_type_id":"4","last_reported":1732900103,"current_range_meters":38000,"station_id":"ce4bhr12rcd13ifvqhpg","pricing_plan_id":"cebpf4jnsgd1na2vs0mg"},{"bike_id":"528930c0-b7d4-43f4-a8be-ec9050a39ddf","system_id":"levelo_inurba_marseille","lat":43.29611,"lon":5.38105,"is_reserved":false,"is_disabled":false,"rental_uris":{"android":"levelo://app?vid=528930c0-b7d4-43f4-a8be-ec9050a39ddf","ios":"levelo://app?vid=528930c0-b7d4-43f4-a8be-ec9050a39ddf"},"vehicle_type_id":"4","last_reported":1732900103,"current_range_meters":17600,"station_id":"ce4bgl12rcd13ifvqbo0","pricing_plan_id":"cebpf4jnsgd1na2vs0mg"},{"bike_id":"209edce5-94bd-42b7-894c-233f806592a5","system_id":"levelo_inurba_marseille","lat":43.3236,"lon":5.36759,"is_reserved":false,"is_disabled":false,"rental_uris":{"android":"levelo://app?vid=209edce5-94bd-42b7-894c-233f806592a5","ios":"levelo://app?vid=209edce5-94bd-42b7-894c-233f806592a5"},"vehicle_type_id":"4","last_reported":1732900103,"current_range_meters":33200,"station_id":"ce4bhsh2rcd13ifvqi2g","pricing_plan_id":"cebpf4jnsgd1na2vs0mg"},{"bike_id":"cb90edb8-6b97-4f13-aaf4-7fc553c35336","system_id":"levelo_inurba_marseille","lat":43.31721,"lon":5.37795,"is_reserved":false,"is_disabled":false,"rental_uris":{"android":"levelo://app?vid=cb90edb8-6b97-4f13-aaf4-7fc553c35336","ios":"levelo://app?vid=cb90edb8-6b97-4f13-aaf4-7fc553c35336"},"vehicle_type_id":"4","last_reported":1732900103,"current_range_meters":37600,"station_id":"ce4bgth2rcd13ifvqch0","pricing_plan_id":"cebpf4jnsgd1na2vs0mg"},{"bike_id":"48176e2d-f786-4dc5-b3b2-dfea3f1362d7","system_id":"levelo_inurba_marseille","lat":43.29411,"lon":5.3863,"is_reserved":false,"is_disabled":false,"rental_uris":{"android":"levelo://app?vid=48176e2d-f786-4dc5-b3b2-dfea3f1362d7","ios":"levelo://app?vid=48176e2d-f786-4dc5-b3b2-dfea3f1362d7"},"vehicle_type_id":"4","last_reported":1732900103,"current_range_meters":28800,"station_id":"ce4bh2h2rcd13ifvqdh0","pricing_plan_id":"cebpf4jnsgd1na2vs0mg"},{"bike_id":"a1de088e-f9bc-437b-86db-027b9d5a0352","system_id":"levelo_inurba_marseille","lat":43.33027,"lon":5.39041,"is_reserved":false,"is_disabled":false,"rental_uris":{"android":"levelo://app?vid=a1de088e-f9bc-437b-86db-027b9d5a0352","ios":"levelo://app?vid=a1de088e-f9bc-437b-86db-027b9d5a0352"},"vehicle_type_id":"4","last_reported":1732900103,"current_range_meters":6400,"station_id":"ce4bhr92rcd13ifvqhrg","pricing_plan_id":"cebpf4jnsgd1na2vs0mg"},{"bike_id":"de8dedfd-c65e-4ce5-b8ec-b5ab34a22a6e","system_id":"levelo_inurba_marseille","lat":43.27068,"lon":5.42282,"is_reserved":false,"is_disabled":true,"rental_uris":{"android":"levelo://app?vid=de8dedfd-c65e-4ce5-b8ec-b5ab34a22a6e","ios":"levelo://app?vid=de8dedfd-c65e-4ce5-b8ec-b5ab34a22a6e"},"vehicle_type_id":"4","last_reported":1732900103,"current_range_meters":39200,"station_id":"ce4bhk92rcd13ifvqgb0","pricing_plan_id":"cebpf4jnsgd1na2vs0mg"},{"bike_id":"c0f4aadd-0594-4032-a62a-639863ccd2f2","system_id":"levelo_inurba_marseille","lat":43.27177,"lon":5.40989,"is_reserved":false,"is_disabled":false,"rental_uris":{"android":"levelo://app?vid=c0f4aadd-0594-4032-a62a-639863ccd2f2","ios":"levelo://app?vid=c0f4aadd-0594-4032-a62a-639863ccd2f2"},"vehicle_type_id":"4","last_reported":1732900103,"current_range_meters":23200,"station_id":"ce4bhl12rcd13ifvqgf0","pricing_plan_id":"cebpf4jnsgd1na2vs0mg"},{"bike_id":"38798db8-5bd5-4792-b41b-6f809d1b1c45","system_id":"levelo_inurba_marseille","lat":43.31998,"lon":5.3815,"is_reserved":false,"is_disabled":false,"rental_uris":{"android":"levelo://app?vid=38798db8-5bd5-4792-b41b-6f809d1b1c45","ios":"levelo://app?vid=38798db8-5bd5-4792-b41b-6f809d1b1c45"},"vehicle_type_id":"4","last_reported":1732900103,"current_range_meters":22000,"station_id":"ce4bhr12rcd13ifvqhpg","pricing_plan_id":"cebpf4jnsgd1na2vs0mg"},{"bike_id":"650ebe34-19f1-4337-8178-fe8a76954ab7","system_id":"levelo_inurba_marseille","lat":43.31334,"lon":5.39697,"is_reserved":false,"is_disabled":false,"rental_uris":{"android":"levelo://app?vid=650ebe34-19f1-4337-8178-fe8a76954ab7","ios":"levelo://app?vid=650ebe34-19f1-4337-8178-fe8a76954ab7"},"vehicle_type_id":"4","last_reported":1732900103,"current_range_meters":39200,"station_id":"ce4bgvp2rcd13ifvqcu0","pricing_plan_id":"cebpf4jnsgd1na2vs0mg"},{"bike_id":"47a43e08-c0ab-48e4-8264-39798859023a","system_id":"levelo_inurba_marseille","lat":43.31071,"lon":5.36975,"is_reserved":false,"is_disabled":false,"rental_uris":{"android":"levelo://app?vid=47a43e08-c0ab-48e4-8264-39798859023a","ios":"levelo://app?vid=47a43e08-c0ab-48e4-8264-39798859023a"},"vehicle_type_id":"4","last_reported":1732900103,"current_range_meters":24400,"station_id":"","pricing_plan_id":"cebpf4jnsgd1na2vs0mg"},{"bike_id":"d1fd7c18-081f-4165-90f6-fbb5157ea749","system_id":"levelo_inurba_marseille","lat":43.27975,"lon":5.38757,"is_reserved":false,"is_disabled":true,"rental_uris":{"android":"levelo://app?vid=d1fd7c18-081f-4165-90f6-fbb5157ea749","ios":"levelo://app?vid=d1fd7c18-081f-4165-90f6-fbb5157ea749"},"vehicle_type_id":"4","last_reported":1732900103,"current_range_meters":0,"station_id":"ce4bhg12rcd13ifvqf80","pricing_plan_id":"cebpf4jnsgd1na2vs0mg"},{"bike_id":"cf002d38-17c9-44fd-9354-c7910c4bd3ff","system_id":"levelo_inurba_marseille","lat":43.33028,"lon":5.39041,"is_reserved":false,"is_disabled":false,"rental_uris":{"android":"levelo://app?vid=cf002d38-17c9-44fd-9354-c7910c4bd3ff","ios":"levelo://app?vid=cf002d38-17c9-44fd-9354-c7910c4bd3ff"},"vehicle_type_id":"4","last_reported":1732900103,"current_range_meters":38000,"station_id":"ce4bhr92rcd13ifvqhrg","pricing_plan_id":"cebpf4jnsgd1na2vs0mg"},{"bike_id":"ff0b6a9a-8510-49e0-9edf-7b3e62add97c","system_id":"levelo_inurba_marseille","lat":43.27374,"lon":5.36258,"is_reserved":false,"is_disabled":false,"rental_uris":{"android":"levelo://app?vid=ff0b6a9a-8510-49e0-9edf-7b3e62add97c","ios":"levelo://app?vid=ff0b6a9a-8510-49e0-9edf-7b3e62add97c"},"vehicle_type_id":"4","last_reported":1732900103,"current_range_meters":34800,"station_id":"ce4bhbh2rcd13ifvqeo0","pricing_plan_id":"cebpf4jnsgd1na2vs0mg"},{"bike_id":"382b1432-efef-472a-a15e-c3a11d22ed32","system_id":"levelo_inurba_marseille","lat":43.27946,"lon":5.41051,"is_reserved":false,"is_disabled":false,"rental_uris":{"android":"levelo://app?vid=382b1432-efef-472a-a15e-c3a11d22ed32","ios":"levelo://app?vid=382b1432-efef-472a-a15e-c3a11d22ed32"},"vehicle_type_id":"4","last_reported":1732900103,"current_range_meters":13600,"station_id":"ce4bhnp2rcd13ifvqh0g","pricing_plan_id":"cebpf4jnsgd1na2vs0mg"},{"bike_id":"43746d86-8a13-4845-9faf-ae69b548d714","system_id":"levelo_inurba_marseille","lat":43.29459,"lon":5.37917,"is_reserved":false,"is_disabled":true,"rental_uris":{"android":"levelo://app?vid=43746d86-8a13-4845-9faf-ae69b548d714","ios":"levelo://app?vid=43746d86-8a13-4845-9faf-ae69b548d714"},"vehicle_type_id":"4","last_reported":1732900103,"current_range_meters":0,"station_id":"","pricing_plan_id":"cebpf4jnsgd1na2vs0mg"},{"bike_id":"b625b5ed-e429-4c2c-862b-f3c5e8a5223a","system_id":"levelo_inurba_marseille","lat":43.298052,"lon":5.381164,"is_reserved":false,"is_disabled":false,"rental_uris":{"android":"levelo://app?vid=b625b5ed-e429-4c2c-862b-f3c5e8a5223a","ios":"levelo://app?vid=b625b5ed-e429-4c2c-862b-f3c5e8a5223a"},"vehicle_type_id":"4","last_reported":1732900103,"current_range_meters":28400,"station_id":"ce4bgip2rcd13ifvqbb0","pricing_plan_id":"cebpf4jnsgd1na2vs0mg"},{"bike_id":"1f1571e0-df04-46a9-96da-b655c46a6aed","system_id":"levelo_inurba_marseille","lat":43.26193,"lon":5.3745,"is_reserved":false,"is_disabled":false,"rental_uris":{"android":"levelo://app?vid=1f1571e0-df04-46a9-96da-b655c46a6aed","ios":"levelo://app?vid=1f1571e0-df04-46a9-96da-b655c46a6aed"},"vehicle_type_id":"4","last_reported":1732900103,"current_range_meters":13600,"station_id":"ce4bhgp2rcd13ifvqfc0","pricing_plan_id":"cebpf4jnsgd1na2vs0mg"},{"bike_id":"a2af717a-4a7c-499b-9d19-1f88374f5fa0","system_id":"levelo_inurba_marseille","lat":43.30789,"lon":5.38166,"is_reserved":false,"is_disabled":false,"rental_uris":{"android":"levelo://app?vid=a2af717a-4a7c-499b-9d19-1f88374f5fa0","ios":"levelo://app?vid=a2af717a-4a7c-499b-9d19-1f88374f5fa0"},"vehicle_type_id":"4","last_reported":1732900103,"current_range_meters":25600,"station_id":"ce4bgt12rcd13ifvqce0","pricing_plan_id":"cebpf4jnsgd1na2vs0mg"},{"bike_id":"15e24c31-4292-4084-bcd3-e24f0a31685e","system_id":"levelo_inurba_marseille","lat":43.28422,"lon":5.3499,"is_reserved":false,"is_disabled":true,"rental_uris":{"android":"levelo://app?vid=15e24c31-4292-4084-bcd3-e24f0a31685e","ios":"levelo://app?vid=15e24c31-4292-4084-bcd3-e24f0a31685e"},"vehicle_type_id":"4","last_reported":1732900103,"current_range_meters":38400,"station_id":"ce4bhbh2rcd13ifvqepg","pricing_plan_id":"cebpf4jnsgd1na2vs0mg"},{"bike_id":"60bcfd83-20b5-46ea-b55f-3d3dab37186e","system_id":"levelo_inurba_marseille","lat":43.30421,"lon":5.39746,"is_reserved":false,"is_disabled":true,"rental_uris":{"android":"levelo://app?vid=60bcfd83-20b5-46ea-b55f-3d3dab37186e","ios":"levelo://app?vid=60bcfd83-20b5-46ea-b55f-3d3dab37186e"},"vehicle_type_id":"4","last_reported":1732900103,"current_range_meters":0,"station_id":"ce4bh092rcd13ifvqd20","pricing_plan_id":"cebpf4jnsgd1na2vs0mg"},{"bike_id":"986d5667-aaac-4c0a-895c-0eef52882877","system_id":"levelo_inurba_marseille","lat":43.29427,"lon":5.38626,"is_reserved":false,"is_disabled":false,"rental_uris":{"android":"levelo://app?vid=986d5667-aaac-4c0a-895c-0eef52882877","ios":"levelo://app?vid=986d5667-aaac-4c0a-895c-0eef52882877"},"vehicle_type_id":"4","last_reported":1732900103,"current_range_meters":35200,"station_id":"ce4bh2h2rcd13ifvqdh0","pricing_plan_id":"cebpf4jnsgd1na2vs0mg"},{"bike_id":"6d499547-77a4-4906-86b5-c2496546d362","system_id":"levelo_inurba_marseille","lat":43.28845,"lon":5.35869,"is_reserved":false,"is_disabled":false,"rental_uris":{"android":"levelo://app?vid=6d499547-77a4-4906-86b5-c2496546d362","ios":"levelo://app?vid=6d499547-77a4-4906-86b5-c2496546d362"},"vehicle_type_id":"4","last_reported":1732900103,"current_range_meters":32400,"station_id":"ce4bhb12rcd13ifvqem0","pricing_plan_id":"cebpf4jnsgd1na2vs0mg"},{"bike_id":"9244d9fe-8890-4efa-bf2a-6d9fc44453ad","system_id":"levelo_inurba_marseille","lat":43.26783,"lon":5.39371,"is_reserved":false,"is_disabled":true,"rental_uris":{"android":"levelo://app?vid=9244d9fe-8890-4efa-bf2a-6d9fc44453ad","ios":"levelo://app?vid=9244d9fe-8890-4efa-bf2a-6d9fc44453ad"},"vehicle_type_id":"4","last_reported":1732900103,"current_range_meters":0,"station_id":"ce4bhh12rcd13ifvqfg0","pricing_plan_id":"cebpf4jnsgd1na2vs0mg"},{"bike_id":"b6678e4d-32ef-44fc-8407-286daf3f240d","system_id":"levelo_inurba_marseille","lat":43.297,"lon":5.37706,"is_reserved":false,"is_disabled":false,"rental_uris":{"android":"levelo://app?vid=b6678e4d-32ef-44fc-8407-286daf3f240d","ios":"levelo://app?vid=b6678e4d-32ef-44fc-8407-286daf3f240d"},"vehicle_type_id":"4","last_reported":1732900103,"current_range_meters":22000,"station_id":"ce4bgkh2rcd13ifvqbl0","pricing_plan_id":"cebpf4jnsgd1na2vs0mg"},{"bike_id":"fc4d15f5-6256-45a3-90d6-77bb4c676955","system_id":"levelo_inurba_marseille","lat":43.296284,"lon":5.377877,"is_reserved":false,"is_disabled":true,"rental_uris":{"android":"levelo://app?vid=fc4d15f5-6256-45a3-90d6-77bb4c676955","ios":"levelo://app?vid=fc4d15f5-6256-45a3-90d6-77bb4c676955"},"vehicle_type_id":"4","last_reported":1732900103,"current_range_meters":28400,"station_id":"","pricing_plan_id":"cebpf4jnsgd1na2vs0mg"},{"bike_id":"8a0291f2-ebd3-4755-be2d-09bbcc22d5e3","system_id":"levelo_inurba_marseille","lat":43.28083,"lon":5.39667,"is_reserved":false,"is_disabled":false,"rental_uris":{"android":"levelo://app?vid=8a0291f2-ebd3-4755-be2d-09bbcc22d5e3","ios":"levelo://app?vid=8a0291f2-ebd3-4755-be2d-09bbcc22d5e3"},"vehicle_type_id":"4","last_reported":1732900103,"current_range_meters":4800,"station_id":"ce4bho12rcd13ifvqh2g","pricing_plan_id":"cebpf4jnsgd1na2vs0mg"},{"bike_id":"c88f8730-1176-4717-97e2-17c27b15274f","system_id":"levelo_inurba_marseille","lat":43.23198,"lon":5.35547,"is_reserved":false,"is_disabled":false,"rental_uris":{"android":"levelo://app?vid=c88f8730-1176-4717-97e2-17c27b15274f","ios":"levelo://app?vid=c88f8730-1176-4717-97e2-17c27b15274f"},"vehicle_type_id":"4","last_reported":1732900103,"current_range_meters":38800,"station_id":"ce4bhu92rcd13ifvqi70","pricing_plan_id":"cebpf4jnsgd1na2vs0mg"},{"bike_id":"d5695902-7089-4495-9c93-047cbb158ac7","system_id":"levelo_inurba_marseille","lat":43.3013,"lon":5.39841,"is_reserved":false,"is_disabled":false,"rental_uris":{"android":"levelo://app?vid=d5695902-7089-4495-9c93-047cbb158ac7","ios":"levelo://app?vid=d5695902-7089-4495-9c93-047cbb158ac7"},"vehicle_type_id":"4","last_reported":1732900103,"current_range_meters":12800,"station_id":"ce4bh0h2rcd13ifvqd40","pricing_plan_id":"cebpf4jnsgd1na2vs0mg"},{"bike_id":"5547a441-9653-482c-905c-97a54076438b","system_id":"levelo_inurba_marseille","lat":43.3236,"lon":5.36758,"is_reserved":false,"is_disabled":false,"rental_uris":{"android":"levelo://app?vid=5547a441-9653-482c-905c-97a54076438b","ios":"levelo://app?vid=5547a441-9653-482c-905c-97a54076438b"},"vehicle_type_id":"4","last_reported":1732900103,"current_range_meters":20400,"station_id":"ce4bhsh2rcd13ifvqi2g","pricing_plan_id":"cebpf4jnsgd1na2vs0mg"},{"bike_id":"5c85a269-38ae-4362-8024-0d5b819dfedc","system_id":"levelo_inurba_marseille","lat":43.29415,"lon":5.38621,"is_reserved":false,"is_disabled":false,"rental_uris":{"android":"levelo://app?vid=5c85a269-38ae-4362-8024-0d5b819dfedc","ios":"levelo://app?vid=5c85a269-38ae-4362-8024-0d5b819dfedc"},"vehicle_type_id":"4","last_reported":1732900103,"current_range_meters":7200,"station_id":"ce4bh2h2rcd13ifvqdh0","pricing_plan_id":"cebpf4jnsgd1na2vs0mg"},{"bike_id":"83747400-ac2f-494f-87a8-60ffa2404f57","system_id":"levelo_inurba_marseille","lat":43.29296,"lon":5.37449,"is_reserved":false,"is_disabled":false,"rental_uris":{"android":"levelo://app?vid=83747400-ac2f-494f-87a8-60ffa2404f57","ios":"levelo://app?vid=83747400-ac2f-494f-87a8-60ffa2404f57"},"vehicle_type_id":"4","last_reported":1732900103,"current_range_meters":19200,"station_id":"ce4bgi12rcd13ifvqb70","pricing_plan_id":"cebpf4jnsgd1na2vs0mg"},{"bike_id":"2545b486-f597-4ecd-8508-05df785b0c49","system_id":"levelo_inurba_marseille","lat":43.33022,"lon":5.39042,"is_reserved":false,"is_disabled":false,"rental_uris":{"android":"levelo://app?vid=2545b486-f597-4ecd-8508-05df785b0c49","ios":"levelo://app?vid=2545b486-f597-4ecd-8508-05df785b0c49"},"vehicle_type_id":"4","last_reported":1732900103,"current_range_meters":39200,"station_id":"ce4bhr92rcd13ifvqhrg","pricing_plan_id":"cebpf4jnsgd1na2vs0mg"},{"bike_id":"53832248-7ea6-4cc6-856c-2b60c3f17998","system_id":"levelo_inurba_marseille","lat":43.2955,"lon":5.42282,"is_reserved":false,"is_disabled":true,"rental_uris":{"android":"levelo://app?vid=53832248-7ea6-4cc6-856c-2b60c3f17998","ios":"levelo://app?vid=53832248-7ea6-4cc6-856c-2b60c3f17998"},"vehicle_type_id":"4","last_reported":1732900103,"current_range_meters":38800,"station_id":"ce4bhph2rcd13ifvqhdg","pricing_plan_id":"cebpf4jnsgd1na2vs0mg"},{"bike_id":"d90eac26-6839-4f62-bc42-d74a7845f6a2","system_id":"levelo_inurba_marseille","lat":43.25113,"lon":5.40325,"is_reserved":false,"is_disabled":false,"rental_uris":{"android":"levelo://app?vid=d90eac26-6839-4f62-bc42-d74a7845f6a2","ios":"levelo://app?vid=d90eac26-6839-4f62-bc42-d74a7845f6a2"},"vehicle_type_id":"4","last_reported":1732900103,"current_range_meters":6000,"station_id":"ce4bhlh2rcd13ifvqgig","pricing_plan_id":"cebpf4jnsgd1na2vs0mg"},{"bike_id":"f28fa9be-67da-4588-a0f4-8f844a505aa6","system_id":"levelo_inurba_marseille","lat":43.26679,"lon":5.38272,"is_reserved":false,"is_disabled":false,"rental_uris":{"android":"levelo://app?vid=f28fa9be-67da-4588-a0f4-8f844a505aa6","ios":"levelo://app?vid=f28fa9be-67da-4588-a0f4-8f844a505aa6"},"vehicle_type_id":"4","last_reported":1732900103,"current_range_meters":35600,"station_id":"ce4bhg92rcd13ifvqf90","pricing_plan_id":"cebpf4jnsgd1na2vs0mg"},{"bike_id":"3ef1941d-f7ef-4f97-a5a5-d2918d107a8d","system_id":"levelo_inurba_marseille","lat":43.26193,"lon":5.37451,"is_reserved":false,"is_disabled":true,"rental_uris":{"android":"levelo://app?vid=3ef1941d-f7ef-4f97-a5a5-d2918d107a8d","ios":"levelo://app?vid=3ef1941d-f7ef-4f97-a5a5-d2918d107a8d"},"vehicle_type_id":"4","last_reported":1732900103,"current_range_meters":0,"station_id":"ce4bhgp2rcd13ifvqfc0","pricing_plan_id":"cebpf4jnsgd1na2vs0mg"},{"bike_id":"23a76ef9-fbbb-4d36-80dd-ff248048f9e9","system_id":"levelo_inurba_marseille","lat":43.31712,"lon":5.37755,"is_reserved":false,"is_disabled":false,"rental_uris":{"android":"levelo://app?vid=23a76ef9-fbbb-4d36-80dd-ff248048f9e9","ios":"levelo://app?vid=23a76ef9-fbbb-4d36-80dd-ff248048f9e9"},"vehicle_type_id":"4","last_reported":1732900103,"current_range_meters":39200,"station_id":"ce4bgth2rcd13ifvqch0","pricing_plan_id":"cebpf4jnsgd1na2vs0mg"},{"bike_id":"b49783ba-f63a-4665-b71b-cc1e4271e8ad","system_id":"levelo_inurba_marseille","lat":43.31706,"lon":5.43707,"is_reserved":false,"is_disabled":false,"rental_uris":{"android":"levelo://app?vid=b49783ba-f63a-4665-b71b-cc1e4271e8ad","ios":"levelo://app?vid=b49783ba-f63a-4665-b71b-cc1e4271e8ad"},"vehicle_type_id":"4","last_reported":1732900103,"current_range_meters":39200,"station_id":"ce4bhp92rcd13ifvqhcg","pricing_plan_id":"cebpf4jnsgd1na2vs0mg"},{"bike_id":"2853f29b-4ad9-4fc6-a0af-2419821afe19","system_id":"levelo_inurba_marseille","lat":43.33054,"lon":5.39135,"is_reserved":false,"is_disabled":false,"rental_uris":{"android":"levelo://app?vid=2853f29b-4ad9-4fc6-a0af-2419821afe19","ios":"levelo://app?vid=2853f29b-4ad9-4fc6-a0af-2419821afe19"},"vehicle_type_id":"4","last_reported":1732900103,"current_range_meters":3600,"station_id":"","pricing_plan_id":"cebpf4jnsgd1na2vs0mg"},{"bike_id":"1647d783-154e-4812-a1ba-d52345fc9ed9","system_id":"levelo_inurba_marseille","lat":43.29531,"lon":5.38532,"is_reserved":false,"is_disabled":false,"rental_uris":{"android":"levelo://app?vid=1647d783-154e-4812-a1ba-d52345fc9ed9","ios":"levelo://app?vid=1647d783-154e-4812-a1ba-d52345fc9ed9"},"vehicle_type_id":"4","last_reported":1732900103,"current_range_meters":22400,"station_id":"ce4bgih2rcd13ifvqba0","pricing_plan_id":"cebpf4jnsgd1na2vs0mg"},{"bike_id":"30700a40-8d56-4ec3-b037-f47748877f98","system_id":"levelo_inurba_marseille","lat":43.29342,"lon":5.3884,"is_reserved":false,"is_disabled":false,"rental_uris":{"android":"levelo://app?vid=30700a40-8d56-4ec3-b037-f47748877f98","ios":"levelo://app?vid=30700a40-8d56-4ec3-b037-f47748877f98"},"vehicle_type_id":"4","last_reported":1732900103,"current_range_meters":16000,"station_id":"","pricing_plan_id":"cebpf4jnsgd1na2vs0mg"},{"bike_id":"fa7445db-b417-4718-bd39-0ebb7d2512f6","system_id":"levelo_inurba_marseille","lat":43.298682,"lon":5.436783,"is_reserved":false,"is_disabled":false,"rental_uris":{"android":"levelo://app?vid=fa7445db-b417-4718-bd39-0ebb7d2512f6","ios":"levelo://app?vid=fa7445db-b417-4718-bd39-0ebb7d2512f6"},"vehicle_type_id":"4","last_reported":1732900103,"current_range_meters":17600,"station_id":"ce4bhpp2rcd13ifvqhfg","pricing_plan_id":"cebpf4jnsgd1na2vs0mg"},{"bike_id":"9e944db9-d48e-4848-b5fa-4af701aee80b","system_id":"levelo_inurba_marseille","lat":48.80797,"lon":2.40127,"is_reserved":false,"is_disabled":true,"rental_uris":{"android":"levelo://app?vid=9e944db9-d48e-4848-b5fa-4af701aee80b","ios":"levelo://app?vid=9e944db9-d48e-4848-b5fa-4af701aee80b"},"vehicle_type_id":"4","last_reported":1732900103,"current_range_meters":18800,"station_id":"","pricing_plan_id":"cebpf4jnsgd1na2vs0mg"},{"bike_id":"e5a949e4-26a7-4b0d-85ed-9548d0681b63","system_id":"levelo_inurba_marseille","lat":43.27896,"lon":5.38006,"is_reserved":false,"is_disabled":true,"rental_uris":{"android":"levelo://app?vid=e5a949e4-26a7-4b0d-85ed-9548d0681b63","ios":"levelo://app?vid=e5a949e4-26a7-4b0d-85ed-9548d0681b63"},"vehicle_type_id":"4","last_reported":1732900103,"current_range_meters":0,"station_id":"ce4bhf92rcd13ifvqf50","pricing_plan_id":"cebpf4jnsgd1na2vs0mg"},{"bike_id":"bbb70a9c-3e6f-47ad-8588-efd51d0cc498","system_id":"levelo_inurba_marseille","lat":43.27181,"lon":5.41,"is_reserved":false,"is_disabled":true,"rental_uris":{"android":"levelo://app?vid=bbb70a9c-3e6f-47ad-8588-efd51d0cc498","ios":"levelo://app?vid=bbb70a9c-3e6f-47ad-8588-efd51d0cc498"},"vehicle_type_id":"4","last_reported":1732900103,"current_range_meters":0,"station_id":"ce4bhl12rcd13ifvqgf0","pricing_plan_id":"cebpf4jnsgd1na2vs0mg"},{"bike_id":"d416c952-98ce-4b92-a239-44a6324c3d10","system_id":"levelo_inurba_marseille","lat":43.28271,"lon":5.3506,"is_reserved":false,"is_disabled":false,"rental_uris":{"android":"levelo://app?vid=d416c952-98ce-4b92-a239-44a6324c3d10","ios":"levelo://app?vid=d416c952-98ce-4b92-a239-44a6324c3d10"},"vehicle_type_id":"4","last_reported":1732900103,"current_range_meters":36800,"station_id":"ce4bhbp2rcd13ifvqerg","pricing_plan_id":"cebpf4jnsgd1na2vs0mg"},{"bike_id":"c759dc3e-f429-4233-9299-404345f6814a","system_id":"levelo_inurba_marseille","lat":43.29857,"lon":5.36282,"is_reserved":false,"is_disabled":false,"rental_uris":{"android":"levelo://app?vid=c759dc3e-f429-4233-9299-404345f6814a","ios":"levelo://app?vid=c759dc3e-f429-4233-9299-404345f6814a"},"vehicle_type_id":"4","last_reported":1732900103,"current_range_meters":36400,"station_id":"ce4bgpp2rcd13ifvqc3g","pricing_plan_id":"cebpf4jnsgd1na2vs0mg"},{"bike_id":"52a9e1ce-1b19-4138-a77c-e249f3ee3449","system_id":"levelo_inurba_marseille","lat":43.29378,"lon":5.37862,"is_reserved":false,"is_disabled":false,"rental_uris":{"android":"levelo://app?vid=52a9e1ce-1b19-4138-a77c-e249f3ee3449","ios":"levelo://app?vid=52a9e1ce-1b19-4138-a77c-e249f3ee3449"},"vehicle_type_id":"4","last_reported":1732900103,"current_range_meters":16000,"station_id":"ce4bgjh2rcd13ifvqbf0","pricing_plan_id":"cebpf4jnsgd1na2vs0mg"},{"bike_id":"19c79683-1c98-4f51-b983-f38b27e85955","system_id":"levelo_inurba_marseille","lat":43.30335,"lon":5.39409,"is_reserved":false,"is_disabled":true,"rental_uris":{"android":"levelo://app?vid=19c79683-1c98-4f51-b983-f38b27e85955","ios":"levelo://app?vid=19c79683-1c98-4f51-b983-f38b27e85955"},"vehicle_type_id":"4","last_reported":1732900103,"current_range_meters":0,"station_id":"","pricing_plan_id":"cebpf4jnsgd1na2vs0mg"},{"bike_id":"b9e10dca-0b0d-4bd8-9ef1-ef5b25344c46","system_id":"levelo_inurba_marseille","lat":43.27178,"lon":5.40989,"is_reserved":false,"is_disabled":false,"rental_uris":{"android":"levelo://app?vid=b9e10dca-0b0d-4bd8-9ef1-ef5b25344c46","ios":"levelo://app?vid=b9e10dca-0b0d-4bd8-9ef1-ef5b25344c46"},"vehicle_type_id":"4","last_reported":1732900103,"current_range_meters":6400,"station_id":"ce4bhl12rcd13ifvqgf0","pricing_plan_id":"cebpf4jnsgd1na2vs0mg"},{"bike_id":"7254bdef-a455-47e2-ab83-c0f290db94bb","system_id":"levelo_inurba_marseille","lat":43.28455,"lon":5.359,"is_reserved":false,"is_disabled":true,"rental_uris":{"android":"levelo://app?vid=7254bdef-a455-47e2-ab83-c0f290db94bb","ios":"levelo://app?vid=7254bdef-a455-47e2-ab83-c0f290db94bb"},"vehicle_type_id":"4","last_reported":1732900103,"current_range_meters":38800,"station_id":"ce4bhah2rcd13ifvqei0","pricing_plan_id":"cebpf4jnsgd1na2vs0mg"},{"bike_id":"0e109c27-562e-4c88-86de-4f9f547cfb1e","system_id":"levelo_inurba_marseille","lat":43.30145,"lon":5.38092,"is_reserved":false,"is_disabled":false,"rental_uris":{"android":"levelo://app?vid=0e109c27-562e-4c88-86de-4f9f547cfb1e","ios":"levelo://app?vid=0e109c27-562e-4c88-86de-4f9f547cfb1e"},"vehicle_type_id":"4","last_reported":1732900103,"current_range_meters":9600,"station_id":"ce4bgjp2rcd13ifvqbh0","pricing_plan_id":"cebpf4jnsgd1na2vs0mg"},{"bike_id":"bdd5f811-e5ab-4552-8fa4-14e37da84acf","system_id":"levelo_inurba_marseille","lat":43.27811,"lon":5.40714,"is_reserved":false,"is_disabled":false,"rental_uris":{"android":"levelo://app?vid=bdd5f811-e5ab-4552-8fa4-14e37da84acf","ios":"levelo://app?vid=bdd5f811-e5ab-4552-8fa4-14e37da84acf"},"vehicle_type_id":"4","last_reported":1732900103,"current_range_meters":22000,"station_id":"ce4bhnh2rcd13ifvqgtg","pricing_plan_id":"cebpf4jnsgd1na2vs0mg"},{"bike_id":"04f218e4-a082-468c-a966-283a69d3b401","system_id":"levelo_inurba_marseille","lat":43.24655,"lon":5.38908,"is_reserved":false,"is_disabled":false,"rental_uris":{"android":"levelo://app?vid=04f218e4-a082-468c-a966-283a69d3b401","ios":"levelo://app?vid=04f218e4-a082-468c-a966-283a69d3b401"},"vehicle_type_id":"4","last_reported":1732900103,"current_range_meters":30800,"station_id":"ce4bhg12rcd13ifvqf60","pricing_plan_id":"cebpf4jnsgd1na2vs0mg"},{"bike_id":"3e7c4243-a515-4d1f-ae97-53bb3e458cb7","system_id":"levelo_inurba_marseille","lat":43.29529,"lon":5.38549,"is_reserved":false,"is_disabled":false,"rental_uris":{"android":"levelo://app?vid=3e7c4243-a515-4d1f-ae97-53bb3e458cb7","ios":"levelo://app?vid=3e7c4243-a515-4d1f-ae97-53bb3e458cb7"},"vehicle_type_id":"4","last_reported":1732900103,"current_range_meters":20000,"station_id":"ce4bgih2rcd13ifvqba0","pricing_plan_id":"cebpf4jnsgd1na2vs0mg"},{"bike_id":"b154b0f1-7821-4f31-a8ce-cda9f9d42561","system_id":"levelo_inurba_marseille","lat":43.30139,"lon":5.3987,"is_reserved":false,"is_disabled":false,"rental_uris":{"android":"levelo://app?vid=b154b0f1-7821-4f31-a8ce-cda9f9d42561","ios":"levelo://app?vid=b154b0f1-7821-4f31-a8ce-cda9f9d42561"},"vehicle_type_id":"4","last_reported":1732900103,"current_range_meters":16800,"station_id":"ce4bh0h2rcd13ifvqd40","pricing_plan_id":"cebpf4jnsgd1na2vs0mg"},{"bike_id":"155f9dfd-372f-46b0-bea0-a3a937ac2886","system_id":"levelo_inurba_marseille","lat":43.30136,"lon":5.37414,"is_reserved":false,"is_disabled":true,"rental_uris":{"android":"levelo://app?vid=155f9dfd-372f-46b0-bea0-a3a937ac2886","ios":"levelo://app?vid=155f9dfd-372f-46b0-bea0-a3a937ac2886"},"vehicle_type_id":"4","last_reported":1732900103,"current_range_meters":25600,"station_id":"ce4bgs92rcd13ifvqcc0","pricing_plan_id":"cebpf4jnsgd1na2vs0mg"},{"bike_id":"4d1817bc-f90c-4370-86fe-1ef0f7bf1316","system_id":"levelo_inurba_marseille","lat":43.25825,"lon":5.39436,"is_reserved":false,"is_disabled":false,"rental_uris":{"android":"levelo://app?vid=4d1817bc-f90c-4370-86fe-1ef0f7bf1316","ios":"levelo://app?vid=4d1817bc-f90c-4370-86fe-1ef0f7bf1316"},"vehicle_type_id":"4","last_reported":1732900103,"current_range_meters":4000,"station_id":"ce4bhip2rcd13ifvqft0","pricing_plan_id":"cebpf4jnsgd1na2vs0mg"},{"bike_id":"202ceef9-7259-48a9-aa1e-d8da8494241e","system_id":"levelo_inurba_marseille","lat":43.28343,"lon":5.38112,"is_reserved":false,"is_disabled":true,"rental_uris":{"android":"levelo://app?vid=202ceef9-7259-48a9-aa1e-d8da8494241e","ios":"levelo://app?vid=202ceef9-7259-48a9-aa1e-d8da8494241e"},"vehicle_type_id":"4","last_reported":1732900103,"current_range_meters":1200,"station_id":"ce4bh412rcd13ifvqdr0","pricing_plan_id":"cebpf4jnsgd1na2vs0mg"},{"bike_id":"0b04b097-2893-4f10-8734-391faba162de","system_id":"levelo_inurba_marseille","lat":43.25932,"lon":5.40917,"is_reserved":false,"is_disabled":true,"rental_uris":{"android":"levelo://app?vid=0b04b097-2893-4f10-8734-391faba162de","ios":"levelo://app?vid=0b04b097-2893-4f10-8734-391faba162de"},"vehicle_type_id":"4","last_reported":1732900103,"current_range_meters":0,"station_id":"ce4bhm92rcd13ifvqglg","pricing_plan_id":"cebpf4jnsgd1na2vs0mg"},{"bike_id":"0dea9ac8-793e-4386-8ad8-bf0c3d9446f1","system_id":"levelo_inurba_marseille","lat":43.337444,"lon":5.374475,"is_reserved":false,"is_disabled":false,"rental_uris":{"android":"levelo://app?vid=0dea9ac8-793e-4386-8ad8-bf0c3d9446f1","ios":"levelo://app?vid=0dea9ac8-793e-4386-8ad8-bf0c3d9446f1"},"vehicle_type_id":"4","last_reported":1732900103,"current_range_meters":22400,"station_id":"","pricing_plan_id":"cebpf4jnsgd1na2vs0mg"},{"bike_id":"8dcebc0e-78ce-415a-b5fd-3bb6311cfc11","system_id":"levelo_inurba_marseille","lat":43.23141,"lon":5.43701,"is_reserved":false,"is_disabled":true,"rental_uris":{"android":"levelo://app?vid=8dcebc0e-78ce-415a-b5fd-3bb6311cfc11","ios":"levelo://app?vid=8dcebc0e-78ce-415a-b5fd-3bb6311cfc11"},"vehicle_type_id":"4","last_reported":1732900103,"current_range_meters":0,"station_id":"ce4bhmp2rcd13ifvqgog","pricing_plan_id":"cebpf4jnsgd1na2vs0mg"},{"bike_id":"b4980014-a978-4f81-b0c3-e83b5ca8647d","system_id":"levelo_inurba_marseille","lat":43.30145,"lon":5.39859,"is_reserved":false,"is_disabled":false,"rental_uris":{"android":"levelo://app?vid=b4980014-a978-4f81-b0c3-e83b5ca8647d","ios":"levelo://app?vid=b4980014-a978-4f81-b0c3-e83b5ca8647d"},"vehicle_type_id":"4","last_reported":1732900103,"current_range_meters":14800,"station_id":"ce4bh0h2rcd13ifvqd40","pricing_plan_id":"cebpf4jnsgd1na2vs0mg"},{"bike_id":"7859f90c-d3e4-4149-b631-012171e5f653","system_id":"levelo_inurba_marseille","lat":43.336371,"lon":5.409172,"is_reserved":false,"is_disabled":false,"rental_uris":{"android":"levelo://app?vid=7859f90c-d3e4-4149-b631-012171e5f653","ios":"levelo://app?vid=7859f90c-d3e4-4149-b631-012171e5f653"},"vehicle_type_id":"4","last_reported":1732900103,"current_range_meters":32800,"station_id":"ce4bhqh2rcd13ifvqhmg","pricing_plan_id":"cebpf4jnsgd1na2vs0mg"},{"bike_id":"e8ce372d-c95b-463e-af37-d0b409208627","system_id":"levelo_inurba_marseille","lat":43.24386,"lon":5.37062,"is_reserved":false,"is_disabled":false,"rental_uris":{"android":"levelo://app?vid=e8ce372d-c95b-463e-af37-d0b409208627","ios":"levelo://app?vid=e8ce372d-c95b-463e-af37-d0b409208627"},"vehicle_type_id":"4","last_reported":1732900103,"current_range_meters":39200,"station_id":"ce4bhhh2rcd13ifvqfk0","pricing_plan_id":"cebpf4jnsgd1na2vs0mg"},{"bike_id":"c46f82f0-31c8-4a60-86a0-cb7218ad67d9","system_id":"levelo_inurba_marseille","lat":43.2797,"lon":5.38727,"is_reserved":false,"is_disabled":true,"rental_uris":{"android":"levelo://app?vid=c46f82f0-31c8-4a60-86a0-cb7218ad67d9","ios":"levelo://app?vid=c46f82f0-31c8-4a60-86a0-cb7218ad67d9"},"vehicle_type_id":"4","last_reported":1732900103,"current_range_meters":0,"station_id":"ce4bhg12rcd13ifvqf80","pricing_plan_id":"cebpf4jnsgd1na2vs0mg"},{"bike_id":"4defbfce-e973-4e6e-80c3-e8fc5847d2b3","system_id":"levelo_inurba_marseille","lat":43.24391,"lon":5.3707,"is_reserved":false,"is_disabled":true,"rental_uris":{"android":"levelo://app?vid=4defbfce-e973-4e6e-80c3-e8fc5847d2b3","ios":"levelo://app?vid=4defbfce-e973-4e6e-80c3-e8fc5847d2b3"},"vehicle_type_id":"4","last_reported":1732900103,"current_range_meters":400,"station_id":"ce4bhhh2rcd13ifvqfk0","pricing_plan_id":"cebpf4jnsgd1na2vs0mg"},{"bike_id":"2260d058-4d13-4ec1-8213-a916340f9800","system_id":"levelo_inurba_marseille","lat":43.29875,"lon":5.39739,"is_reserved":false,"is_disabled":false,"rental_uris":{"android":"levelo://app?vid=2260d058-4d13-4ec1-8213-a916340f9800","ios":"levelo://app?vid=2260d058-4d13-4ec1-8213-a916340f9800"},"vehicle_type_id":"4","last_reported":1732900103,"current_range_meters":4400,"station_id":"ce4bh0h2rcd13ifvqd50","pricing_plan_id":"cebpf4jnsgd1na2vs0mg"},{"bike_id":"88ded992-0c63-4339-83ef-5d942fdb98bf","system_id":"levelo_inurba_marseille","lat":43.27614,"lon":5.36114,"is_reserved":false,"is_disabled":false,"rental_uris":{"android":"levelo://app?vid=88ded992-0c63-4339-83ef-5d942fdb98bf","ios":"levelo://app?vid=88ded992-0c63-4339-83ef-5d942fdb98bf"},"vehicle_type_id":"4","last_reported":1732900103,"current_range_meters":26800,"station_id":"ce4bgj92rcd13ifvqbe0","pricing_plan_id":"cebpf4jnsgd1na2vs0mg"},{"bike_id":"14b110d2-961d-49f4-b4a1-f492a069f7ad","system_id":"levelo_inurba_marseille","lat":43.29259,"lon":5.38442,"is_reserved":false,"is_disabled":false,"rental_uris":{"android":"levelo://app?vid=14b110d2-961d-49f4-b4a1-f492a069f7ad","ios":"levelo://app?vid=14b110d2-961d-49f4-b4a1-f492a069f7ad"},"vehicle_type_id":"4","last_reported":1732900103,"current_range_meters":32000,"station_id":"ce4bh692rcd13ifvqea0","pricing_plan_id":"cebpf4jnsgd1na2vs0mg"},{"bike_id":"d3d07596-6043-4aa6-86ca-cd4ebee1f985","system_id":"levelo_inurba_marseille","lat":43.29897,"lon":5.43661,"is_reserved":false,"is_disabled":true,"rental_uris":{"android":"levelo://app?vid=d3d07596-6043-4aa6-86ca-cd4ebee1f985","ios":"levelo://app?vid=d3d07596-6043-4aa6-86ca-cd4ebee1f985"},"vehicle_type_id":"4","last_reported":1732900103,"current_range_meters":800,"station_id":"ce4bhpp2rcd13ifvqhfg","pricing_plan_id":"cebpf4jnsgd1na2vs0mg"},{"bike_id":"3fdabd45-b5ea-4b96-a5b0-11ccf3a620e8","system_id":"levelo_inurba_marseille","lat":43.29587,"lon":5.38109,"is_reserved":false,"is_disabled":false,"rental_uris":{"android":"levelo://app?vid=3fdabd45-b5ea-4b96-a5b0-11ccf3a620e8","ios":"levelo://app?vid=3fdabd45-b5ea-4b96-a5b0-11ccf3a620e8"},"vehicle_type_id":"4","last_reported":1732900103,"current_range_meters":24800,"station_id":"ce4bgl12rcd13ifvqbo0","pricing_plan_id":"cebpf4jnsgd1na2vs0mg"},{"bike_id":"1d87ed66-25fe-46b6-b3d6-5a4293a76e33","system_id":"levelo_inurba_marseille","lat":43.29214,"lon":5.36059,"is_reserved":false,"is_disabled":true,"rental_uris":{"android":"levelo://app?vid=1d87ed66-25fe-46b6-b3d6-5a4293a76e33","ios":"levelo://app?vid=1d87ed66-25fe-46b6-b3d6-5a4293a76e33"},"vehicle_type_id":"4","last_reported":1732900103,"current_range_meters":29600,"station_id":"ce4bhbh2rcd13ifvqeqg","pricing_plan_id":"cebpf4jnsgd1na2vs0mg"},{"bike_id":"7f14a55c-7d33-4f35-a0b3-e9def067ee56","system_id":"levelo_inurba_marseille","lat":43.30134,"lon":5.39859,"is_reserved":false,"is_disabled":false,"rental_uris":{"android":"levelo://app?vid=7f14a55c-7d33-4f35-a0b3-e9def067ee56","ios":"levelo://app?vid=7f14a55c-7d33-4f35-a0b3-e9def067ee56"},"vehicle_type_id":"4","last_reported":1732900103,"current_range_meters":28800,"station_id":"ce4bh0h2rcd13ifvqd40","pricing_plan_id":"cebpf4jnsgd1na2vs0mg"},{"bike_id":"e7d3f983-79ab-47e3-bbaf-ad6869124c72","system_id":"levelo_inurba_marseille","lat":43.30307,"lon":5.39204,"is_reserved":false,"is_disabled":false,"rental_uris":{"android":"levelo://app?vid=e7d3f983-79ab-47e3-bbaf-ad6869124c72","ios":"levelo://app?vid=e7d3f983-79ab-47e3-bbaf-ad6869124c72"},"vehicle_type_id":"4","last_reported":1732900103,"current_range_meters":10000,"station_id":"ce4bgkh2rcd13ifvqbk0","pricing_plan_id":"cebpf4jnsgd1na2vs0mg"},{"bike_id":"37c13e1d-4478-4499-be04-f29562f0d26f","system_id":"levelo_inurba_marseille","lat":43.31718,"lon":5.4241,"is_reserved":false,"is_disabled":false,"rental_uris":{"android":"levelo://app?vid=37c13e1d-4478-4499-be04-f29562f0d26f","ios":"levelo://app?vid=37c13e1d-4478-4499-be04-f29562f0d26f"},"vehicle_type_id":"4","last_reported":1732900103,"current_range_meters":39200,"station_id":"ce4bhp92rcd13ifvqhbg","pricing_plan_id":"cebpf4jnsgd1na2vs0mg"},{"bike_id":"c84eb194-ee45-4f95-85f7-ef63100feaba","system_id":"levelo_inurba_marseille","lat":43.28069,"lon":5.3966,"is_reserved":false,"is_disabled":false,"rental_uris":{"android":"levelo://app?vid=c84eb194-ee45-4f95-85f7-ef63100feaba","ios":"levelo://app?vid=c84eb194-ee45-4f95-85f7-ef63100feaba"},"vehicle_type_id":"4","last_reported":1732900103,"current_range_meters":38000,"station_id":"ce4bho12rcd13ifvqh2g","pricing_plan_id":"cebpf4jnsgd1na2vs0mg"},{"bike_id":"ad61a188-49a1-49c9-bc78-33c0bbe33d85","system_id":"levelo_inurba_marseille","lat":43.26206,"lon":5.37929,"is_reserved":false,"is_disabled":false,"rental_uris":{"android":"levelo://app?vid=ad61a188-49a1-49c9-bc78-33c0bbe33d85","ios":"levelo://app?vid=ad61a188-49a1-49c9-bc78-33c0bbe33d85"},"vehicle_type_id":"4","last_reported":1732900103,"current_range_meters":35200,"station_id":"ce4bhjp2rcd13ifvqg90","pricing_plan_id":"cebpf4jnsgd1na2vs0mg"},{"bike_id":"f0d6ba8b-8ecc-41c4-9cbf-3d374e6d166a","system_id":"levelo_inurba_marseille","lat":43.29308,"lon":5.37176,"is_reserved":false,"is_disabled":true,"rental_uris":{"android":"levelo://app?vid=f0d6ba8b-8ecc-41c4-9cbf-3d374e6d166a","ios":"levelo://app?vid=f0d6ba8b-8ecc-41c4-9cbf-3d374e6d166a"},"vehicle_type_id":"4","last_reported":1732900103,"current_range_meters":6400,"station_id":"ce4bgh92rcd13ifvqb40","pricing_plan_id":"cebpf4jnsgd1na2vs0mg"},{"bike_id":"5e29acae-7be9-4cd0-a698-f53c00428a8d","system_id":"levelo_inurba_marseille","lat":43.32372,"lon":5.38878,"is_reserved":false,"is_disabled":false,"rental_uris":{"android":"levelo://app?vid=5e29acae-7be9-4cd0-a698-f53c00428a8d","ios":"levelo://app?vid=5e29acae-7be9-4cd0-a698-f53c00428a8d"},"vehicle_type_id":"4","last_reported":1732900103,"current_range_meters":38000,"station_id":"ce4bhqp2rcd13ifvqhog","pricing_plan_id":"cebpf4jnsgd1na2vs0mg"},{"bike_id":"5b741824-6922-4647-b80f-989e1c0b7538","system_id":"levelo_inurba_marseille","lat":43.33748,"lon":5.37446,"is_reserved":false,"is_disabled":false,"rental_uris":{"android":"levelo://app?vid=5b741824-6922-4647-b80f-989e1c0b7538","ios":"levelo://app?vid=5b741824-6922-4647-b80f-989e1c0b7538"},"vehicle_type_id":"4","last_reported":1732900103,"current_range_meters":12400,"station_id":"","pricing_plan_id":"cebpf4jnsgd1na2vs0mg"},{"bike_id":"3bdec86a-49eb-4345-a3a9-4af600112972","system_id":"levelo_inurba_marseille","lat":43.30553,"lon":5.36564,"is_reserved":false,"is_disabled":true,"rental_uris":{"android":"levelo://app?vid=3bdec86a-49eb-4345-a3a9-4af600112972","ios":"levelo://app?vid=3bdec86a-49eb-4345-a3a9-4af600112972"},"vehicle_type_id":"4","last_reported":1732900103,"current_range_meters":0,"station_id":"ce4bgs12rcd13ifvqcag","pricing_plan_id":"cebpf4jnsgd1na2vs0mg"},{"bike_id":"ec975877-8603-4af0-8dff-f8b7b6f64ccc","system_id":"levelo_inurba_marseille","lat":43.25082,"lon":5.39528,"is_reserved":false,"is_disabled":false,"rental_uris":{"android":"levelo://app?vid=ec975877-8603-4af0-8dff-f8b7b6f64ccc","ios":"levelo://app?vid=ec975877-8603-4af0-8dff-f8b7b6f64ccc"},"vehicle_type_id":"4","last_reported":1732900103,"current_range_meters":24400,"station_id":"ce4bhm12rcd13ifvqgkg","pricing_plan_id":"cebpf4jnsgd1na2vs0mg"},{"bike_id":"dd2074ee-4a79-48ee-836b-6a7faa2cbb2c","system_id":"levelo_inurba_marseille","lat":43.32368,"lon":5.38883,"is_reserved":false,"is_disabled":false,"rental_uris":{"android":"levelo://app?vid=dd2074ee-4a79-48ee-836b-6a7faa2cbb2c","ios":"levelo://app?vid=dd2074ee-4a79-48ee-836b-6a7faa2cbb2c"},"vehicle_type_id":"4","last_reported":1732900103,"current_range_meters":34800,"station_id":"ce4bhqp2rcd13ifvqhog","pricing_plan_id":"cebpf4jnsgd1na2vs0mg"},{"bike_id":"e6d89a8c-8304-4f92-9a3c-a86662d0a5fe","system_id":"levelo_inurba_marseille","lat":43.27321,"lon":5.391,"is_reserved":false,"is_disabled":false,"rental_uris":{"android":"levelo://app?vid=e6d89a8c-8304-4f92-9a3c-a86662d0a5fe","ios":"levelo://app?vid=e6d89a8c-8304-4f92-9a3c-a86662d0a5fe"},"vehicle_type_id":"4","last_reported":1732900103,"current_range_meters":6800,"station_id":"ce4bhgp2rcd13ifvqfe0","pricing_plan_id":"cebpf4jnsgd1na2vs0mg"},{"bike_id":"586727ad-4a42-406f-8266-396d5231857a","system_id":"levelo_inurba_marseille","lat":43.2717,"lon":5.41003,"is_reserved":false,"is_disabled":false,"rental_uris":{"android":"levelo://app?vid=586727ad-4a42-406f-8266-396d5231857a","ios":"levelo://app?vid=586727ad-4a42-406f-8266-396d5231857a"},"vehicle_type_id":"4","last_reported":1732900103,"current_range_meters":13600,"station_id":"ce4bhl12rcd13ifvqgf0","pricing_plan_id":"cebpf4jnsgd1na2vs0mg"},{"bike_id":"e3f0048e-c5ad-4379-a45a-f01073ebf199","system_id":"levelo_inurba_marseille","lat":43.30318,"lon":5.40445,"is_reserved":false,"is_disabled":false,"rental_uris":{"android":"levelo://app?vid=e3f0048e-c5ad-4379-a45a-f01073ebf199","ios":"levelo://app?vid=e3f0048e-c5ad-4379-a45a-f01073ebf199"},"vehicle_type_id":"4","last_reported":1732900103,"current_range_meters":6800,"station_id":"ce4bh012rcd13ifvqd10","pricing_plan_id":"cebpf4jnsgd1na2vs0mg"},{"bike_id":"4c1ba871-848d-40fb-8efc-b8373426eefb","system_id":"levelo_inurba_marseille","lat":43.33741,"lon":5.37436,"is_reserved":false,"is_disabled":false,"rental_uris":{"android":"levelo://app?vid=4c1ba871-848d-40fb-8efc-b8373426eefb","ios":"levelo://app?vid=4c1ba871-848d-40fb-8efc-b8373426eefb"},"vehicle_type_id":"4","last_reported":1732900103,"current_range_meters":18000,"station_id":"","pricing_plan_id":"cebpf4jnsgd1na2vs0mg"},{"bike_id":"c9f43e50-badc-4d07-ac06-647adae28326","system_id":"levelo_inurba_marseille","lat":43.27669,"lon":5.38911,"is_reserved":false,"is_disabled":true,"rental_uris":{"android":"levelo://app?vid=c9f43e50-badc-4d07-ac06-647adae28326","ios":"levelo://app?vid=c9f43e50-badc-4d07-ac06-647adae28326"},"vehicle_type_id":"4","last_reported":1732900103,"current_range_meters":38400,"station_id":"ce4bhi12rcd13ifvqfo0","pricing_plan_id":"cebpf4jnsgd1na2vs0mg"},{"bike_id":"b0cc4eb8-e8b4-46bf-9bdf-474fcd3cedd1","system_id":"levelo_inurba_marseille","lat":43.30433,"lon":5.38899,"is_reserved":false,"is_disabled":false,"rental_uris":{"android":"levelo://app?vid=b0cc4eb8-e8b4-46bf-9bdf-474fcd3cedd1","ios":"levelo://app?vid=b0cc4eb8-e8b4-46bf-9bdf-474fcd3cedd1"},"vehicle_type_id":"4","last_reported":1732900103,"current_range_meters":13600,"station_id":"ce4bgk12rcd13ifvqbi0","pricing_plan_id":"cebpf4jnsgd1na2vs0mg"},{"bike_id":"eb0ef418-69b2-4f14-8bde-6ffc57db2e4c","system_id":"levelo_inurba_marseille","lat":43.27174,"lon":5.40995,"is_reserved":false,"is_disabled":false,"rental_uris":{"android":"levelo://app?vid=eb0ef418-69b2-4f14-8bde-6ffc57db2e4c","ios":"levelo://app?vid=eb0ef418-69b2-4f14-8bde-6ffc57db2e4c"},"vehicle_type_id":"4","last_reported":1732900103,"current_range_meters":14000,"station_id":"ce4bhl12rcd13ifvqgf0","pricing_plan_id":"cebpf4jnsgd1na2vs0mg"},{"bike_id":"9ad6f25f-0b9f-4f9e-9f5b-405da2a66b95","system_id":"levelo_inurba_marseille","lat":43.29553,"lon":5.42286,"is_reserved":false,"is_disabled":true,"rental_uris":{"android":"levelo://app?vid=9ad6f25f-0b9f-4f9e-9f5b-405da2a66b95","ios":"levelo://app?vid=9ad6f25f-0b9f-4f9e-9f5b-405da2a66b95"},"vehicle_type_id":"4","last_reported":1732900103,"current_range_meters":37600,"station_id":"ce4bhph2rcd13ifvqhdg","pricing_plan_id":"cebpf4jnsgd1na2vs0mg"},{"bike_id":"c70e4602-8f00-4ea7-8fec-fd2ced346f98","system_id":"levelo_inurba_marseille","lat":43.29732,"lon":5.37942,"is_reserved":false,"is_disabled":false,"rental_uris":{"android":"levelo://app?vid=c70e4602-8f00-4ea7-8fec-fd2ced346f98","ios":"levelo://app?vid=c70e4602-8f00-4ea7-8fec-fd2ced346f98"},"vehicle_type_id":"4","last_reported":1732900103,"current_range_meters":7200,"station_id":"","pricing_plan_id":"cebpf4jnsgd1na2vs0mg"},{"bike_id":"3cc6c714-a2de-4dab-9bc3-43b8e1d82557","system_id":"levelo_inurba_marseille","lat":43.27316,"lon":5.39079,"is_reserved":false,"is_disabled":false,"rental_uris":{"android":"levelo://app?vid=3cc6c714-a2de-4dab-9bc3-43b8e1d82557","ios":"levelo://app?vid=3cc6c714-a2de-4dab-9bc3-43b8e1d82557"},"vehicle_type_id":"4","last_reported":1732900103,"current_range_meters":37600,"station_id":"ce4bhgp2rcd13ifvqfe0","pricing_plan_id":"cebpf4jnsgd1na2vs0mg"},{"bike_id":"56d3ba3e-49f6-4894-b901-aee390c43187","system_id":"levelo_inurba_marseille","lat":43.31992,"lon":5.38157,"is_reserved":false,"is_disabled":false,"rental_uris":{"android":"levelo://app?vid=56d3ba3e-49f6-4894-b901-aee390c43187","ios":"levelo://app?vid=56d3ba3e-49f6-4894-b901-aee390c43187"},"vehicle_type_id":"4","last_reported":1732900103,"current_range_meters":39200,"station_id":"ce4bhr12rcd13ifvqhpg","pricing_plan_id":"cebpf4jnsgd1na2vs0mg"},{"bike_id":"e4a54b5f-e31d-4376-b099-16ffaecb8bf3","system_id":"levelo_inurba_marseille","lat":43.33027,"lon":5.39036,"is_reserved":false,"is_disabled":false,"rental_uris":{"android":"levelo://app?vid=e4a54b5f-e31d-4376-b099-16ffaecb8bf3","ios":"levelo://app?vid=e4a54b5f-e31d-4376-b099-16ffaecb8bf3"},"vehicle_type_id":"4","last_reported":1732900103,"current_range_meters":35200,"station_id":"ce4bhr92rcd13ifvqhrg","pricing_plan_id":"cebpf4jnsgd1na2vs0mg"},{"bike_id":"b23dda81-7f16-47cc-9a5a-be1824a1be1d","system_id":"levelo_inurba_marseille","lat":43.27379,"lon":5.36267,"is_reserved":false,"is_disabled":false,"rental_uris":{"android":"levelo://app?vid=b23dda81-7f16-47cc-9a5a-be1824a1be1d","ios":"levelo://app?vid=b23dda81-7f16-47cc-9a5a-be1824a1be1d"},"vehicle_type_id":"4","last_reported":1732900103,"current_range_meters":19600,"station_id":"ce4bhbh2rcd13ifvqeo0","pricing_plan_id":"cebpf4jnsgd1na2vs0mg"},