{"last_updated":1693731961,"ttl":30,"version":"2.2","data":{"bikes":[{"bike_id":"f5972aba-a1c6-442d-9e37-487ad36a4f4c","system_id":"levelo_inurba_marseille","lat":43.31218,"lon":5.36859,"is_reserved":false,"is_disabled":false,"rental_uris":{"android":"levelo://app?vid=f5972aba-a1c6-442d-9e37-487ad36a4f4c","ios":"levelo://app?vid=f5972aba-a1c6-442d-9e37-487ad36a4f4c"},"vehicle_type_id":"4","last_reported":1693731961,"current_range_meters":23600,"station_id":"ce4bgl92rcd13ifvqbq0","pricing_plan_id":"free"},{"bike_id":"0c8643f9-4b1d-46ee-b69b-0aa44f2c4fca","system_id":"levelo_inurba_marseille","lat":43.309076,"lon":5.368465,"is_reserved":false,"is_disabled":false,"rental_uris":{"android":"levelo://app?vid=0c8643f9-4b1d-46ee-b69b-0aa44f2c4fca","ios":"levelo://app?vid=0c8643f9-4b1d-46ee-b69b-0aa44f2c4fca"},"vehicle_type_id":"4","last_reported":1693731961,"current_range_meters":29600,"station_id":"ce4bgn92rcd13ifvqbvg","pricing_plan_id":"free"},{"bike_id":"0808d417-352a-4330-bf1a-d762d73cb47d","system_id":"levelo_inurba_marseille","lat":43.309076,"lon":5.368465,"is_reserved":false,"is_disabled":false,"rental_uris":{"android":"levelo://app?vid=0808d417-352a-4330-bf1a-d762d73cb47d","ios":"levelo://app?vid=0808d417-352a-4330-bf1a-d762d73cb47d"},"vehicle_type_id":"4","last_reported":1693731961,"current_range_meters":31200,"station_id":"ce4bgn92rcd13ifvqbvg","pricing_plan_id":"free"},{"bike_id":"d2be997d-44d2-40a5-bb20-02aeaaf65fa5","system_id":"levelo_inurba_marseille","lat":43.31506,"lon":5.37297,"is_reserved":false,"is_disabled":false,"rental_uris":{"android":"levelo://app?vid=d2be997d-44d2-40a5-bb20-02aeaaf65fa5","ios":"levelo://app?vid=d2be997d-44d2-40a5-bb20-02aeaaf65fa5"},"vehicle_type_id":"4","last_reported":1693731961,"current_range_meters":30800,"station_id":"ce4bgt12rcd13ifvqcd0","pricing_plan_id":"free"},{"bike_id":"0e61d085-7772-422c-8e2c-514b9df06273","system_id":"levelo_inurba_marseille","lat":43.314811,"lon":5.373103,"is_reserved":false,"is_disabled":false,"rental_uris":{"android":"levelo://app?vid=0e61d085-7772-422c-8e2c-514b9df06273","ios":"levelo://app?vid=0e61d085-7772-422c-8e2c-514b9df06273"},"vehicle_type_id":"4","last_reported":1693731961,"current_range_meters":28000,"station_id":"ce4bgt12rcd13ifvqcd0","pricing_plan_id":"free"},{"bike_id":"276b236b-dfef-4e7a-ab60-045aa52480ef","system_id":"levelo_inurba_marseille","lat":43.314811,"lon":5.373104,"is_reserved":false,"is_disabled":false,"rental_uris":{"android":"levelo://app?vid=276b236b-dfef-4e7a-ab60-045aa52480ef","ios":"levelo://app?vid=276b236b-dfef-4e7a-ab60-045aa52480ef"},"vehicle_type_id":"4","last_reported":1693731961,"current_range_meters":13200,"station_id":"ce4bgt12rcd13ifvqcd0","pricing_plan_id":"free"},{"bike_id":"4e435e1d-15bf-48d1-b89f-410b50a990d2","system_id":"levelo_inurba_marseille","lat":43.309039,"lon":5.371797,"is_reserved":false,"is_disabled":false,"rental_uris":{"android":"levelo://app?vid=4e435e1d-15bf-48d1-b89f-410b50a990d2","ios":"levelo://app?vid=4e435e1d-15bf-48d1-b89f-410b50a990d2"},"vehicle_type_id":"4","last_reported":1693731961,"current_range_meters":17200,"station_id":"ce4bguh2rcd13ifvqckg","pricing_plan_id":"free"},{"bike_id":"dbdfb9f1-27ea-41a9-8aaa-8528b50c591b","system_id":"levelo_inurba_marseille","lat":43.309039,"lon":5.371797,"is_reserved":false,"is_disabled":false,"rental_uris":{"android":"levelo://app?vid=dbdfb9f1-27ea-41a9-8aaa-8528b50c591b","ios":"levelo://app?vid=dbdfb9f1-27ea-41a9-8aaa-8528b50c591b"},"vehicle_type_id":"4","last_reported":1693731961,"current_range_meters":31600,"station_id":"ce4bguh2rcd13ifvqckg","pricing_plan_id":"free"},{"bike_id":"19689661-bd5c-4aaa-b660-cc3e7d3389f5","system_id":"levelo_inurba_marseille","lat":43.309039,"lon":5.371797,"is_reserved":false,"is_disabled":false,"rental_uris":{"android":"levelo://app?vid=19689661-bd5c-4aaa-b660-cc3e7d3389f5","ios":"levelo://app?vid=19689661-bd5c-4aaa-b660-cc3e7d3389f5"},"vehicle_type_id":"4","last_reported":1693731961,"current_range_meters":30400,"station_id":"ce4bguh2rcd13ifvqckg","pricing_plan_id":"free"},{"bike_id":"ff7992b7-d2a1-4154-b17c-ed551e75c13c","system_id":"levelo_inurba_marseille","lat":43.30823,"lon":5.37162,"is_reserved":false,"is_disabled":false,"rental_uris":{"android":"levelo://app?vid=ff7992b7-d2a1-4154-b17c-ed551e75c13c","ios":"levelo://app?vid=ff7992b7-d2a1-4154-b17c-ed551e75c13c"},"vehicle_type_id":"4","last_reported":1693731961,"current_range_meters":25600,"station_id":"","pricing_plan_id":"free"},{"bike_id":"bf4a240a-bd5c-44d4-a827-f7792f658b85","system_id":"levelo_inurba_marseille","lat":43.31493,"lon":5.37624,"is_reserved":false,"is_disabled":false,"rental_uris":{"android":"levelo://app?vid=bf4a240a-bd5c-44d4-a827-f7792f658b85","ios":"levelo://app?vid=bf4a240a-bd5c-44d4-a827-f7792f658b85"},"vehicle_type_id":"4","last_reported":1693731961,"current_range_meters":5200,"station_id":"","pricing_plan_id":"free"},{"bike_id":"2c4ebf48-8a2d-43c1-9dd6-27cf1c599535","system_id":"levelo_inurba_marseille","lat":43.30548,"lon":5.36578,"is_reserved":false,"is_disabled":false,"rental_uris":{"android":"levelo://app?vid=2c4ebf48-8a2d-43c1-9dd6-27cf1c599535","ios":"levelo://app?vid=2c4ebf48-8a2d-43c1-9dd6-27cf1c599535"},"vehicle_type_id":"4","last_reported":1693731961,"current_range_meters":12000,"station_id":"ce4bgs12rcd13ifvqcag","pricing_plan_id":"free"},{"bike_id":"24ad48c7-ed21-4072-b3dd-fc13135b8651","system_id":"levelo_inurba_marseille","lat":43.30542,"lon":5.36712,"is_reserved":false,"is_disabled":false,"rental_uris":{"android":"levelo://app?vid=24ad48c7-ed21-4072-b3dd-fc13135b8651","ios":"levelo://app?vid=24ad48c7-ed21-4072-b3dd-fc13135b8651"},"vehicle_type_id":"4","last_reported":1693731961,"current_range_meters":30000,"station_id":"ce4bgrp2rcd13ifvqc9g","pricing_plan_id":"free"},{"bike_id":"9b1ca53e-c3c8-434e-bb74-535c93d814d3","system_id":"levelo_inurba_marseille","lat":43.305714,"lon":5.365633,"is_reserved":false,"is_disabled":false,"rental_uris":{"android":"levelo://app?vid=9b1ca53e-c3c8-434e-bb74-535c93d814d3","ios":"levelo://app?vid=9b1ca53e-c3c8-434e-bb74-535c93d814d3"},"vehicle_type_id":"4","last_reported":1693731961,"current_range_meters":18000,"station_id":"ce4bgs12rcd13ifvqcag","pricing_plan_id":"free"},{"bike_id":"66aecccc-286c-4e58-9df8-6f609aa30b90","system_id":"levelo_inurba_marseille","lat":43.305714,"lon":5.365633,"is_reserved":false,"is_disabled":false,"rental_uris":{"android":"levelo://app?vid=66aecccc-286c-4e58-9df8-6f609aa30b90","ios":"levelo://app?vid=66aecccc-286c-4e58-9df8-6f609aa30b90"},"vehicle_type_id":"4","last_reported":1693731961,"current_range_meters":28000,"station_id":"ce4bgs12rcd13ifvqcag","pricing_plan_id":"free"},{"bike_id":"2391f7ca-8a61-4614-aa60-641fca99d548","system_id":"levelo_inurba_marseille","lat":43.305714,"lon":5.365633,"is_reserved":false,"is_disabled":false,"rental_uris":{"android":"levelo://app?vid=2391f7ca-8a61-4614-aa60-641fca99d548","ios":"levelo://app?vid=2391f7ca-8a61-4614-aa60-641fca99d548"},"vehicle_type_id":"4","last_reported":1693731961,"current_range_meters":31200,"station_id":"ce4bgs12rcd13ifvqcag","pricing_plan_id":"free"},{"bike_id":"d3a32db9-4c9b-455b-b9a7-e9088b58cf61","system_id":"levelo_inurba_marseille","lat":43.305714,"lon":5.365633,"is_reserved":false,"is_disabled":false,"rental_uris":{"android":"levelo://app?vid=d3a32db9-4c9b-455b-b9a7-e9088b58cf61","ios":"levelo://app?vid=d3a32db9-4c9b-455b-b9a7-e9088b58cf61"},"vehicle_type_id":"4","last_reported":1693731961,"current_range_meters":24400,"station_id":"ce4bgs12rcd13ifvqcag","pricing_plan_id":"free"},{"bike_id":"977137e9-d834-4e08-94ea-1e59044ba408","system_id":"levelo_inurba_marseille","lat":43.305706,"lon":5.365654,"is_reserved":false,"is_disabled":false,"rental_uris":{"android":"levelo://app?vid=977137e9-d834-4e08-94ea-1e59044ba408","ios":"levelo://app?vid=977137e9-d834-4e08-94ea-1e59044ba408"},"vehicle_type_id":"4","last_reported":1693731961,"current_range_meters":27600,"station_id":"ce4bgs12rcd13ifvqcag","pricing_plan_id":"free"},{"bike_id":"89a84bd6-8e30-4275-8c90-1190f8e1d663","system_id":"levelo_inurba_marseille","lat":43.305714,"lon":5.365633,"is_reserved":false,"is_disabled":false,"rental_uris":{"android":"levelo://app?vid=89a84bd6-8e30-4275-8c90-1190f8e1d663","ios":"levelo://app?vid=89a84bd6-8e30-4275-8c90-1190f8e1d663"},"vehicle_type_id":"4","last_reported":1693731961,"current_range_meters":30800,"station_id":"ce4bgs12rcd13ifvqcag","pricing_plan_id":"free"},{"bike_id":"d3a0b2a6-b839-4ab7-87f4-67f9eaac3cf4","system_id":"levelo_inurba_marseille","lat":43.305706,"lon":5.365654,"is_reserved":false,"is_disabled":false,"rental_uris":{"android":"levelo://app?vid=d3a0b2a6-b839-4ab7-87f4-67f9eaac3cf4","ios":"levelo://app?vid=d3a0b2a6-b839-4ab7-87f4-67f9eaac3cf4"},"vehicle_type_id":"4","last_reported":1693731961,"current_range_meters":28400,"station_id":"ce4bgs12rcd13ifvqcag","pricing_plan_id":"free"},{"bike_id":"e5bad64d-8dc2-41ae-9ea2-384c894a4b39","system_id":"levelo_inurba_marseille","lat":43.305706,"lon":5.365654,"is_reserved":false,"is_disabled":false,"rental_uris":{"android":"levelo://app?vid=e5bad64d-8dc2-41ae-9ea2-384c894a4b39","ios":"levelo://app?vid=e5bad64d-8dc2-41ae-9ea2-384c894a4b39"},"vehicle_type_id":"4","last_reported":1693731961,"current_range_meters":28000,"station_id":"ce4bgs12rcd13ifvqcag","pricing_plan_id":"free"},{"bike_id":"b909a5f5-67cb-440e-8d1c-0d89ef24353c","system_id":"levelo_inurba_marseille","lat":43.305706,"lon":5.365654,"is_reserved":false,"is_disabled":false,"rental_uris":{"android":"levelo://app?vid=b909a5f5-67cb-440e-8d1c-0d89ef24353c","ios":"levelo://app?vid=b909a5f5-67cb-440e-8d1c-0d89ef24353c"},"vehicle_type_id":"4","last_reported":1693731961,"current_range_meters":29600,"station_id":"ce4bgs12rcd13ifvqcag","pricing_plan_id":"free"},{"bike_id":"e5ebbcfe-4881-475d-bc4d-e96ff9d6cb38","system_id":"levelo_inurba_marseille","lat":43.305706,"lon":5.365654,"is_reserved":false,"is_disabled":false,"rental_uris":{"android":"levelo://app?vid=e5ebbcfe-4881-475d-bc4d-e96ff9d6cb38","ios":"levelo://app?vid=e5ebbcfe-4881-475d-bc4d-e96ff9d6cb38"},"vehicle_type_id":"4","last_reported":1693731961,"current_range_meters":30000,"station_id":"ce4bgs12rcd13ifvqcag","pricing_plan_id":"free"},{"bike_id":"aed31e0b-266f-4aac-a064-28af692f94db","system_id":"levelo_inurba_marseille","lat":43.305989,"lon":5.37225,"is_reserved":false,"is_disabled":false,"rental_uris":{"android":"levelo://app?vid=aed31e0b-266f-4aac-a064-28af692f94db","ios":"levelo://app?vid=aed31e0b-266f-4aac-a064-28af692f94db"},"vehicle_type_id":"4","last_reported":1693731961,"current_range_meters":19600,"station_id":"ce4bgqh2rcd13ifvqc4g","pricing_plan_id":"free"},{"bike_id":"93fb63f2-c78c-4b7d-9ce2-a7f7a3f395d9","system_id":"levelo_inurba_marseille","lat":43.305989,"lon":5.37225,"is_reserved":false,"is_disabled":false,"rental_uris":{"android":"levelo://app?vid=93fb63f2-c78c-4b7d-9ce2-a7f7a3f395d9","ios":"levelo://app?vid=93fb63f2-c78c-4b7d-9ce2-a7f7a3f395d9"},"vehicle_type_id":"4","last_reported":1693731961,"current_range_meters":22800,"station_id":"ce4bgqh2rcd13ifvqc4g","pricing_plan_id":"free"},{"bike_id":"1c27b8ae-a7a2-4a0f-8ade-e7f1cf43b8a1","system_id":"levelo_inurba_marseille","lat":43.31112,"lon":5.37764,"is_reserved":false,"is_disabled":false,"rental_uris":{"android":"levelo://app?vid=1c27b8ae-a7a2-4a0f-8ade-e7f1cf43b8a1","ios":"levelo://app?vid=1c27b8ae-a7a2-4a0f-8ade-e7f1cf43b8a1"},"vehicle_type_id":"4","last_reported":1693731961,"current_range_meters":27200,"station_id":"ce4bgt92rcd13ifvqcg0","pricing_plan_id":"free"},{"bike_id":"f1e8e01f-cfd0-4cf2-9c8c-3714279ea634","system_id":"levelo_inurba_marseille","lat":43.311131,"lon":5.377651,"is_reserved":false,"is_disabled":false,"rental_uris":{"android":"levelo://app?vid=f1e8e01f-cfd0-4cf2-9c8c-3714279ea634","ios":"levelo://app?vid=f1e8e01f-cfd0-4cf2-9c8c-3714279ea634"},"vehicle_type_id":"4","last_reported":1693731961,"current_range_meters":29200,"station_id":"ce4bgt92rcd13ifvqcg0","pricing_plan_id":"free"},{"bike_id":"5fef88c3-f981-4485-96c2-532e8f00abd0","system_id":"levelo_inurba_marseille","lat":43.30782,"lon":5.37654,"is_reserved":false,"is_disabled":false,"rental_uris":{"android":"levelo://app?vid=5fef88c3-f981-4485-96c2-532e8f00abd0","ios":"levelo://app?vid=5fef88c3-f981-4485-96c2-532e8f00abd0"},"vehicle_type_id":"4","last_reported":1693731961,"current_range_meters":28400,"station_id":"ce4bgv92rcd13ifvqcq0","pricing_plan_id":"free"},{"bike_id":"2491daf6-930b-43f9-8e5f-e11cc5d80888","system_id":"levelo_inurba_marseille","lat":43.303046,"lon":5.368981,"is_reserved":false,"is_disabled":false,"rental_uris":{"android":"levelo://app?vid=2491daf6-930b-43f9-8e5f-e11cc5d80888","ios":"levelo://app?vid=2491daf6-930b-43f9-8e5f-e11cc5d80888"},"vehicle_type_id":"4","last_reported":1693731961,"current_range_meters":17200,"station_id":"ce4bgqh2rcd13ifvqc5g","pricing_plan_id":"free"},{"bike_id":"6b41117c-e6a1-4e3c-ba34-bc6c7e7bd85e","system_id":"levelo_inurba_marseille","lat":43.303046,"lon":5.368981,"is_reserved":false,"is_disabled":false,"rental_uris":{"android":"levelo://app?vid=6b41117c-e6a1-4e3c-ba34-bc6c7e7bd85e","ios":"levelo://app?vid=6b41117c-e6a1-4e3c-ba34-bc6c7e7bd85e"},"vehicle_type_id":"4","last_reported":1693731961,"current_range_meters":30400,"station_id":"ce4bgqh2rcd13ifvqc5g","pricing_plan_id":"free"},{"bike_id":"56386c27-d7af-4c64-af42-5ec7e5f3699b","system_id":"levelo_inurba_marseille","lat":43.315293,"lon":5.380349,"is_reserved":false,"is_disabled":false,"rental_uris":{"android":"levelo://app?vid=56386c27-d7af-4c64-af42-5ec7e5f3699b","ios":"levelo://app?vid=56386c27-d7af-4c64-af42-5ec7e5f3699b"},"vehicle_type_id":"4","last_reported":1693731961,"current_range_meters":21600,"station_id":"ce4bhsp2rcd13ifvqi50","pricing_plan_id":"free"},{"bike_id":"a19c7449-f78a-4deb-9967-deff2fa271b3","system_id":"levelo_inurba_marseille","lat":43.31537,"lon":5.38031,"is_reserved":false,"is_disabled":false,"rental_uris":{"android":"levelo://app?vid=a19c7449-f78a-4deb-9967-deff2fa271b3","ios":"levelo://app?vid=a19c7449-f78a-4deb-9967-deff2fa271b3"},"vehicle_type_id":"4","last_reported":1693731961,"current_range_meters":18400,"station_id":"ce4bhsp2rcd13ifvqi50","pricing_plan_id":"free"},{"bike_id":"62bc5f67-2328-4a6d-948b-df04f291da75","system_id":"levelo_inurba_marseille","lat":43.31535,"lon":5.38033,"is_reserved":false,"is_disabled":false,"rental_uris":{"android":"levelo://app?vid=62bc5f67-2328-4a6d-948b-df04f291da75","ios":"levelo://app?vid=62bc5f67-2328-4a6d-948b-df04f291da75"},"vehicle_type_id":"4","last_reported":1693731961,"current_range_meters":31600,"station_id":"ce4bhsp2rcd13ifvqi50","pricing_plan_id":"free"},{"bike_id":"3a736e2f-bbb8-49f4-b3c4-3572920705e9","system_id":"levelo_inurba_marseille","lat":43.31532,"lon":5.38037,"is_reserved":false,"is_disabled":false,"rental_uris":{"android":"levelo://app?vid=3a736e2f-bbb8-49f4-b3c4-3572920705e9","ios":"levelo://app?vid=3a736e2f-bbb8-49f4-b3c4-3572920705e9"},"vehicle_type_id":"4","last_reported":1693731961,"current_range_meters":4000,"station_id":"ce4bhsp2rcd13ifvqi50","pricing_plan_id":"free"},{"bike_id":"5666f8f6-3e88-4f20-8b42-e2994c0ced32","system_id":"levelo_inurba_marseille","lat":43.301939,"lon":5.366286,"is_reserved":false,"is_disabled":false,"rental_uris":{"android":"levelo://app?vid=5666f8f6-3e88-4f20-8b42-e2994c0ced32","ios":"levelo://app?vid=5666f8f6-3e88-4f20-8b42-e2994c0ced32"},"vehicle_type_id":"4","last_reported":1693731961,"current_range_meters":27600,"station_id":"ce4bgrh2rcd13ifvqc8g","pricing_plan_id":"free"},{"bike_id":"5a2742a8-c0ce-4774-99b4-02ef1c69796e","system_id":"levelo_inurba_marseille","lat":43.3019,"lon":5.36619,"is_reserved":false,"is_disabled":false,"rental_uris":{"android":"levelo://app?vid=5a2742a8-c0ce-4774-99b4-02ef1c69796e","ios":"levelo://app?vid=5a2742a8-c0ce-4774-99b4-02ef1c69796e"},"vehicle_type_id":"4","last_reported":1693731961,"current_range_meters":29600,"station_id":"ce4bgrh2rcd13ifvqc8g","pricing_plan_id":"free"},{"bike_id":"1b44c48f-8c31-48d6-ab69-251708e3759f","system_id":"levelo_inurba_marseille","lat":43.301939,"lon":5.366286,"is_reserved":false,"is_disabled":false,"rental_uris":{"android":"levelo://app?vid=1b44c48f-8c31-48d6-ab69-251708e3759f","ios":"levelo://app?vid=1b44c48f-8c31-48d6-ab69-251708e3759f"},"vehicle_type_id":"4","last_reported":1693731961,"current_range_meters":26000,"station_id":"ce4bgrh2rcd13ifvqc8g","pricing_plan_id":"free"},{"bike_id":"1cbb7c47-c6d6-47d3-ab15-80dcf4384745","system_id":"levelo_inurba_marseille","lat":43.301939,"lon":5.366286,"is_reserved":false,"is_disabled":false,"rental_uris":{"android":"levelo://app?vid=1cbb7c47-c6d6-47d3-ab15-80dcf4384745","ios":"levelo://app?vid=1cbb7c47-c6d6-47d3-ab15-80dcf4384745"},"vehicle_type_id":"4","last_reported":1693731961,"current_range_meters":16800,"station_id":"ce4bgrh2rcd13ifvqc8g","pricing_plan_id":"free"},{"bike_id":"82ba0885-5648-4c4d-989f-6bbbf3aa04db","system_id":"levelo_inurba_marseille","lat":43.30803,"lon":5.38154,"is_reserved":false,"is_disabled":false,"rental_uris":{"android":"levelo://app?vid=82ba0885-5648-4c4d-989f-6bbbf3aa04db","ios":"levelo://app?vid=82ba0885-5648-4c4d-989f-6bbbf3aa04db"},"vehicle_type_id":"4","last_reported":1693731961,"current_range_meters":31200,"station_id":"ce4bgt12rcd13ifvqce0","pricing_plan_id":"free"},{"bike_id":"8c31e043-c13a-4a83-bb17-498459ad59cb","system_id":"levelo_inurba_marseille","lat":43.304606,"lon":5.379026,"is_reserved":false,"is_disabled":false,"rental_uris":{"android":"levelo://app?vid=8c31e043-c13a-4a83-bb17-498459ad59cb","ios":"levelo://app?vid=8c31e043-c13a-4a83-bb17-498459ad59cb"},"vehicle_type_id":"4","last_reported":1693731961,"current_range_meters":28800,"station_id":"ce4bgup2rcd13ifvqcn0","pricing_plan_id":"free"},{"bike_id":"a6779252-abd5-412c-bb9f-b45fd07c7819","system_id":"levelo_inurba_marseille","lat":43.304606,"lon":5.379026,"is_reserved":false,"is_disabled":false,"rental_uris":{"android":"levelo://app?vid=a6779252-abd5-412c-bb9f-b45fd07c7819","ios":"levelo://app?vid=a6779252-abd5-412c-bb9f-b45fd07c7819"},"vehicle_type_id":"4","last_reported":1693731961,"current_range_meters":24800,"station_id":"ce4bgup2rcd13ifvqcn0","pricing_plan_id":"free"},{"bike_id":"a071a186-f947-4574-ac76-a886d7db2706","system_id":"levelo_inurba_marseille","lat":43.304606,"lon":5.379026,"is_reserved":false,"is_disabled":false,"rental_uris":{"android":"levelo://app?vid=a071a186-f947-4574-ac76-a886d7db2706","ios":"levelo://app?vid=a071a186-f947-4574-ac76-a886d7db2706"},"vehicle_type_id":"4","last_reported":1693731961,"current_range_meters":29200,"station_id":"ce4bgup2rcd13ifvqcn0","pricing_plan_id":"free"},{"bike_id":"273d0f75-710d-4aa4-b1fc-2a9e763da417","system_id":"levelo_inurba_marseille","lat":43.304606,"lon":5.379026,"is_reserved":false,"is_disabled":false,"rental_uris":{"android":"levelo://app?vid=273d0f75-710d-4aa4-b1fc-2a9e763da417","ios":"levelo://app?vid=273d0f75-710d-4aa4-b1fc-2a9e763da417"},"vehicle_type_id":"4","last_reported":1693731961,"current_range_meters":24000,"station_id":"ce4bgup2rcd13ifvqcn0","pricing_plan_id":"free"},{"bike_id":"102769d9-af73-4c20-a2c2-c226ee943de0","system_id":"levelo_inurba_marseille","lat":43.304606,"lon":5.379026,"is_reserved":false,"is_disabled":false,"rental_uris":{"android":"levelo://app?vid=102769d9-af73-4c20-a2c2-c226ee943de0","ios":"levelo://app?vid=102769d9-af73-4c20-a2c2-c226ee943de0"},"vehicle_type_id":"4","last_reported":1693731961,"current_range_meters":31200,"station_id":"ce4bgup2rcd13ifvqcn0","pricing_plan_id":"free"},{"bike_id":"3a3b11b6-fd1c-43a0-8dfa-7767150474e1","system_id":"levelo_inurba_marseille","lat":43.304606,"lon":5.379026,"is_reserved":false,"is_disabled":false,"rental_uris":{"android":"levelo://app?vid=3a3b11b6-fd1c-43a0-8dfa-7767150474e1","ios":"levelo://app?vid=3a3b11b6-fd1c-43a0-8dfa-7767150474e1"},"vehicle_type_id":"4","last_reported":1693731961,"current_range_meters":28400,"station_id":"ce4bgup2rcd13ifvqcn0","pricing_plan_id":"free"},{"bike_id":"dc1fd754-b882-4507-a150-d6777eda25c4","system_id":"levelo_inurba_marseille","lat":43.304606,"lon":5.379026,"is_reserved":false,"is_disabled":false,"rental_uris":{"android":"levelo://app?vid=dc1fd754-b882-4507-a150-d6777eda25c4","ios":"levelo://app?vid=dc1fd754-b882-4507-a150-d6777eda25c4"},"vehicle_type_id":"4","last_reported":1693731961,"current_range_meters":31200,"station_id":"ce4bgup2rcd13ifvqcn0","pricing_plan_id":"free"},{"bike_id":"70ce080f-0161-4084-9539-3b27b8cd4d82","system_id":"levelo_inurba_marseille","lat":43.304606,"lon":5.379026,"is_reserved":false,"is_disabled":false,"rental_uris":{"android":"levelo://app?vid=70ce080f-0161-4084-9539-3b27b8cd4d82","ios":"levelo://app?vid=70ce080f-0161-4084-9539-3b27b8cd4d82"},"vehicle_type_id":"4","last_reported":1693731961,"current_range_meters":31200,"station_id":"ce4bgup2rcd13ifvqcn0","pricing_plan_id":"free"},{"bike_id":"b89f2944-a700-48a4-844a-5165358a5fdb","system_id":"levelo_inurba_marseille","lat":43.302784,"lon":5.377158,"is_reserved":false,"is_disabled":false,"rental_uris":{"android":"levelo://app?vid=b89f2944-a700-48a4-844a-5165358a5fdb","ios":"levelo://app?vid=b89f2944-a700-48a4-844a-5165358a5fdb"},"vehicle_type_id":"4","last_reported":1693731961,"current_range_meters":14400,"station_id":"ce4bguh2rcd13ifvqcj0","pricing_plan_id":"free"},{"bike_id":"65291745-6b87-4a6d-804c-69a387f1c58a","system_id":"levelo_inurba_marseille","lat":43.302784,"lon":5.377158,"is_reserved":false,"is_disabled":false,"rental_uris":{"android":"levelo://app?vid=65291745-6b87-4a6d-804c-69a387f1c58a","ios":"levelo://app?vid=65291745-6b87-4a6d-804c-69a387f1c58a"},"vehicle_type_id":"4","last_reported":1693731961,"current_range_meters":31200,"station_id":"ce4bguh2rcd13ifvqcj0","pricing_plan_id":"free"},{"bike_id":"fadf2036-dd65-4647-83bf-90cdba689009","system_id":"levelo_inurba_marseille","lat":43.302784,"lon":5.377158,"is_reserved":false,"is_disabled":false,"rental_uris":{"android":"levelo://app?vid=fadf2036-dd65-4647-83bf-90cdba689009","ios":"levelo://app?vid=fadf2036-dd65-4647-83bf-90cdba689009"},"vehicle_type_id":"4","last_reported":1693731961,"current_range_meters":31200,"station_id":"ce4bguh2rcd13ifvqcj0","pricing_plan_id":"free"},{"bike_id":"c5355a10-2501-4d4f-b713-de336cfe64fe","system_id":"levelo_inurba_marseille","lat":43.302784,"lon":5.377158,"is_reserved":false,"is_disabled":false,"rental_uris":{"android":"levelo://app?vid=c5355a10-2501-4d4f-b713-de336cfe64fe","ios":"levelo://app?vid=c5355a10-2501-4d4f-b713-de336cfe64fe"},"vehicle_type_id":"4","last_reported":1693731961,"current_range_meters":31200,"station_id":"ce4bguh2rcd13ifvqcj0","pricing_plan_id":"free"},{"bike_id":"cc28612f-b913-4e07-81a1-e8a4df49747b","system_id":"levelo_inurba_marseille","lat":43.319935,"lon":5.381699,"is_reserved":false,"is_disabled":false,"rental_uris":{"android":"levelo://app?vid=cc28612f-b913-4e07-81a1-e8a4df49747b","ios":"levelo://app?vid=cc28612f-b913-4e07-81a1-e8a4df49747b"},"vehicle_type_id":"4","last_reported":1693731961,"current_range_meters":8400,"station_id":"ce4bhr12rcd13ifvqhpg","pricing_plan_id":"free"},{"bike_id":"3ce12e8d-2187-433e-90ea-725012bee47a","system_id":"levelo_inurba_marseille","lat":43.31993,"lon":5.38147,"is_reserved":false,"is_disabled":false,"rental_uris":{"android":"levelo://app?vid=3ce12e8d-2187-433e-90ea-725012bee47a","ios":"levelo://app?vid=3ce12e8d-2187-433e-90ea-725012bee47a"},"vehicle_type_id":"4","last_reported":1693731961,"current_range_meters":18400,"station_id":"ce4bhr12rcd13ifvqhpg","pricing_plan_id":"free"},{"bike_id":"2a2aab7a-3e31-445b-bec0-a2f254c9d22c","system_id":"levelo_inurba_marseille","lat":43.31998,"lon":5.38162,"is_reserved":false,"is_disabled":false,"rental_uris":{"android":"levelo://app?vid=2a2aab7a-3e31-445b-bec0-a2f254c9d22c","ios":"levelo://app?vid=2a2aab7a-3e31-445b-bec0-a2f254c9d22c"},"vehicle_type_id":"4","last_reported":1693731961,"current_range_meters":30000,"station_id":"ce4bhr12rcd13ifvqhpg","pricing_plan_id":"free"},{"bike_id":"9a7f2198-67b6-4bc5-8e03-216c69e9d457","system_id":"levelo_inurba_marseille","lat":43.313571,"lon":5.384829,"is_reserved":false,"is_disabled":false,"rental_uris":{"android":"levelo://app?vid=9a7f2198-67b6-4bc5-8e03-216c69e9d457","ios":"levelo://app?vid=9a7f2198-67b6-4bc5-8e03-216c69e9d457"},"vehicle_type_id":"4","last_reported":1693731961,"current_range_meters":30000,"station_id":"ce4bgt92rcd13ifvqcf0","pricing_plan_id":"free"},{"bike_id":"dd89b5d1-ec59-4afe-9dba-b13707efb206","system_id":"levelo_inurba_marseille","lat":43.29939,"lon":5.36536,"is_reserved":false,"is_disabled":false,"rental_uris":{"android":"levelo://app?vid=dd89b5d1-ec59-4afe-9dba-b13707efb206","ios":"levelo://app?vid=dd89b5d1-ec59-4afe-9dba-b13707efb206"},"vehicle_type_id":"4","last_reported":1693731961,"current_range_meters":28400,"station_id":"ce4bgm92rcd13ifvqbr0","pricing_plan_id":"free"},{"bike_id":"db6e8e84-4a36-458c-843b-905f93e8126f","system_id":"levelo_inurba_marseille","lat":43.299724,"lon":5.371829,"is_reserved":false,"is_disabled":false,"rental_uris":{"android":"levelo://app?vid=db6e8e84-4a36-458c-843b-905f93e8126f","ios":"levelo://app?vid=db6e8e84-4a36-458c-843b-905f93e8126f"},"vehicle_type_id":"4","last_reported":1693731961,"current_range_meters":22000,"station_id":"ce4bgr92rcd13ifvqc7g","pricing_plan_id":"free"},{"bike_id":"d3b3ecfd-5e44-48fd-a733-1834180e209f","system_id":"levelo_inurba_marseille","lat":43.29934,"lon":5.36556,"is_reserved":false,"is_disabled":false,"rental_uris":{"android":"levelo://app?vid=d3b3ecfd-5e44-48fd-a733-1834180e209f","ios":"levelo://app?vid=d3b3ecfd-5e44-48fd-a733-1834180e209f"},"vehicle_type_id":"4","last_reported":1693731961,"current_range_meters":19200,"station_id":"ce4bgm92rcd13ifvqbr0","pricing_plan_id":"free"},{"bike_id":"3671351a-3869-49f1-b329-afdf12681bcd","system_id":"levelo_inurba_marseille","lat":43.299724,"lon":5.371829,"is_reserved":false,"is_disabled":false,"rental_uris":{"android":"levelo://app?vid=3671351a-3869-49f1-b329-afdf12681bcd","ios":"levelo://app?vid=3671351a-3869-49f1-b329-afdf12681bcd"},"vehicle_type_id":"4","last_reported":1693731961,"current_range_meters":22800,"station_id":"ce4bgr92rcd13ifvqc7g","pricing_plan_id":"free"},{"bike_id":"778c22a1-c95f-4203-bb55-b468ae4da917","system_id":"levelo_inurba_marseille","lat":43.299724,"lon":5.371829,"is_reserved":false,"is_disabled":false,"rental_uris":{"android":"levelo://app?vid=778c22a1-c95f-4203-bb55-b468ae4da917","ios":"levelo://app?vid=778c22a1-c95f-4203-bb55-b468ae4da917"},"vehicle_type_id":"4","last_reported":1693731961,"current_range_meters":27200,"station_id":"ce4bgr92rcd13ifvqc7g","pricing_plan_id":"free"},{"bike_id":"707b498f-a5fd-4c8b-88de-29b5abb0411f","system_id":"levelo_inurba_marseille","lat":43.29963,"lon":5.37181,"is_reserved":false,"is_disabled":false,"rental_uris":{"android":"levelo://app?vid=707b498f-a5fd-4c8b-88de-29b5abb0411f","ios":"levelo://app?vid=707b498f-a5fd-4c8b-88de-29b5abb0411f"},"vehicle_type_id":"4","last_reported":1693731961,"current_range_meters":29200,"station_id":"ce4bgr92rcd13ifvqc7g","pricing_plan_id":"free"},{"bike_id":"baec0348-4faf-4560-a423-eb44a6c55762","system_id":"levelo_inurba_marseille","lat":43.29858,"lon":5.36283,"is_reserved":false,"is_disabled":false,"rental_uris":{"android":"levelo://app?vid=baec0348-4faf-4560-a423-eb44a6c55762","ios":"levelo://app?vid=baec0348-4faf-4560-a423-eb44a6c55762"},"vehicle_type_id":"4","last_reported":1693731961,"current_range_meters":31200,"station_id":"ce4bgpp2rcd13ifvqc3g","pricing_plan_id":"free"},{"bike_id":"70c6c842-d587-4a6e-b723-47f63ab6baf5","system_id":"levelo_inurba_marseille","lat":43.298433,"lon":5.362774,"is_reserved":false,"is_disabled":false,"rental_uris":{"android":"levelo://app?vid=70c6c842-d587-4a6e-b723-47f63ab6baf5","ios":"levelo://app?vid=70c6c842-d587-4a6e-b723-47f63ab6baf5"},"vehicle_type_id":"4","last_reported":1693731961,"current_range_meters":28800,"station_id":"ce4bgpp2rcd13ifvqc3g","pricing_plan_id":"free"},{"bike_id":"002070ce-e01f-4202-8bc2-a5ea3a4a56b6","system_id":"levelo_inurba_marseille","lat":43.299243,"lon":5.37481,"is_reserved":false,"is_disabled":false,"rental_uris":{"android":"levelo://app?vid=002070ce-e01f-4202-8bc2-a5ea3a4a56b6","ios":"levelo://app?vid=002070ce-e01f-4202-8bc2-a5ea3a4a56b6"},"vehicle_type_id":"4","last_reported":1693731961,"current_range_meters":18800,"station_id":"ce4bgjh2rcd13ifvqbg0","pricing_plan_id":"free"},{"bike_id":"8a5fb710-c6f4-4fc0-9700-2587a9846816","system_id":"levelo_inurba_marseille","lat":43.298433,"lon":5.362774,"is_reserved":false,"is_disabled":false,"rental_uris":{"android":"levelo://app?vid=8a5fb710-c6f4-4fc0-9700-2587a9846816","ios":"levelo://app?vid=8a5fb710-c6f4-4fc0-9700-2587a9846816"},"vehicle_type_id":"4","last_reported":1693731961,"current_range_meters":17600,"station_id":"ce4bgpp2rcd13ifvqc3g","pricing_plan_id":"free"},{"bike_id":"7efc0595-7f76-4804-94bc-795c59f06d0d","system_id":"levelo_inurba_marseille","lat":43.298433,"lon":5.362774,"is_reserved":false,"is_disabled":false,"rental_uris":{"android":"levelo://app?vid=7efc0595-7f76-4804-94bc-795c59f06d0d","ios":"levelo://app?vid=7efc0595-7f76-4804-94bc-795c59f06d0d"},"vehicle_type_id":"4","last_reported":1693731961,"current_range_meters":8800,"station_id":"ce4bgpp2rcd13ifvqc3g","pricing_plan_id":"free"},{"bike_id":"6a83f616-48d0-49ae-8438-96363fcf4837","system_id":"levelo_inurba_marseille","lat":43.298433,"lon":5.362774,"is_reserved":false,"is_disabled":false,"rental_uris":{"android":"levelo://app?vid=6a83f616-48d0-49ae-8438-96363fcf4837","ios":"levelo://app?vid=6a83f616-48d0-49ae-8438-96363fcf4837"},"vehicle_type_id":"4","last_reported":1693731961,"current_range_meters":17200,"station_id":"ce4bgpp2rcd13ifvqc3g","pricing_plan_id":"free"},{"bike_id":"94b3fcb6-5a4e-469d-a7a1-70d0ff2b3e0b","system_id":"levelo_inurba_marseille","lat":43.298433,"lon":5.362774,"is_reserved":false,"is_disabled":false,"rental_uris":{"android":"levelo://app?vid=94b3fcb6-5a4e-469d-a7a1-70d0ff2b3e0b","ios":"levelo://app?vid=94b3fcb6-5a4e-469d-a7a1-70d0ff2b3e0b"},"vehicle_type_id":"4","last_reported":1693731961,"current_range_meters":6800,"station_id":"ce4bgpp2rcd13ifvqc3g","pricing_plan_id":"free"},{"bike_id":"ce7f1555-247f-4e2b-a53e-52ea754b84c6","system_id":"levelo_inurba_marseille","lat":43.29915,"lon":5.3746,"is_reserved":false,"is_disabled":false,"rental_uris":{"android":"levelo://app?vid=ce7f1555-247f-4e2b-a53e-52ea754b84c6","ios":"levelo://app?vid=ce7f1555-247f-4e2b-a53e-52ea754b84c6"},"vehicle_type_id":"4","last_reported":1693731961,"current_range_meters":0,"station_id":"ce4bgjh2rcd13ifvqbg0","pricing_plan_id":"free"},{"bike_id":"58e3adba-d274-4039-b90c-03cfd6994b5e","system_id":"levelo_inurba_marseille","lat":43.299243,"lon":5.374807,"is_reserved":false,"is_disabled":false,"rental_uris":{"android":"levelo://app?vid=58e3adba-d274-4039-b90c-03cfd6994b5e","ios":"levelo://app?vid=58e3adba-d274-4039-b90c-03cfd6994b5e"},"vehicle_type_id":"4","last_reported":1693731961,"current_range_meters":23200,"station_id":"ce4bgjh2rcd13ifvqbg0","pricing_plan_id":"free"},{"bike_id":"026801a0-4822-477b-93a5-d715dd67dd19","system_id":"levelo_inurba_marseille","lat":43.299243,"lon":5.37481,"is_reserved":false,"is_disabled":false,"rental_uris":{"android":"levelo://app?vid=026801a0-4822-477b-93a5-d715dd67dd19","ios":"levelo://app?vid=026801a0-4822-477b-93a5-d715dd67dd19"},"vehicle_type_id":"4","last_reported":1693731961,"current_range_meters":19200,"station_id":"ce4bgjh2rcd13ifvqbg0","pricing_plan_id":"free"},{"bike_id":"8143ebd5-c5c5-467f-a353-1c0066f90341","system_id":"levelo_inurba_marseille","lat":43.297774,"lon":5.370875,"is_reserved":false,"is_disabled":false,"rental_uris":{"android":"levelo://app?vid=8143ebd5-c5c5-467f-a353-1c0066f90341","ios":"levelo://app?vid=8143ebd5-c5c5-467f-a353-1c0066f90341"},"vehicle_type_id":"4","last_reported":1693731961,"current_range_meters":31200,"station_id":"ce4bgop2rcd13ifvqc1g","pricing_plan_id":"free"},{"bike_id":"924d6452-f7f7-4baa-af9a-49926af70474","system_id":"levelo_inurba_marseille","lat":43.29781,"lon":5.3711,"is_reserved":false,"is_disabled":false,"rental_uris":{"android":"levelo://app?vid=924d6452-f7f7-4baa-af9a-49926af70474","ios":"levelo://app?vid=924d6452-f7f7-4baa-af9a-49926af70474"},"vehicle_type_id":"4","last_reported":1693731961,"current_range_meters":26000,"station_id":"ce4bgop2rcd13ifvqc1g","pricing_plan_id":"free"},{"bike_id":"46946f53-efc3-4c4a-955d-dabfa3c8bfb3","system_id":"levelo_inurba_marseille","lat":43.32294,"lon":5.38257,"is_reserved":false,"is_disabled":false,"rental_uris":{"android":"levelo://app?vid=46946f53-efc3-4c4a-955d-dabfa3c8bfb3","ios":"levelo://app?vid=46946f53-efc3-4c4a-955d-dabfa3c8bfb3"},"vehicle_type_id":"4","last_reported":1693731961,"current_range_meters":16400,"station_id":"ce4bhr12rcd13ifvqhqg","pricing_plan_id":"free"},{"bike_id":"c5d64b6b-5ea6-4632-9c7b-98d246aab59d","system_id":"levelo_inurba_marseille","lat":43.32286,"lon":5.38269,"is_reserved":false,"is_disabled":false,"rental_uris":{"android":"levelo://app?vid=c5d64b6b-5ea6-4632-9c7b-98d246aab59d","ios":"levelo://app?vid=c5d64b6b-5ea6-4632-9c7b-98d246aab59d"},"vehicle_type_id":"4","last_reported":1693731961,"current_range_meters":29600,"station_id":"ce4bhr12rcd13ifvqhqg","pricing_plan_id":"free"},{"bike_id":"e705e8db-e6de-4e53-b481-4321f0191c5f","system_id":"levelo_inurba_marseille","lat":43.32287,"lon":5.3827,"is_reserved":false,"is_disabled":false,"rental_uris":{"android":"levelo://app?vid=e705e8db-e6de-4e53-b481-4321f0191c5f","ios":"levelo://app?vid=e705e8db-e6de-4e53-b481-4321f0191c5f"},"vehicle_type_id":"4","last_reported":1693731961,"current_range_meters":24400,"station_id":"ce4bhr12rcd13ifvqhqg","pricing_plan_id":"free"},{"bike_id":"4fc236d4-e222-4f43-9793-5688a75f93e6","system_id":"levelo_inurba_marseille","lat":43.32291,"lon":5.38272,"is_reserved":false,"is_disabled":false,"rental_uris":{"android":"levelo://app?vid=4fc236d4-e222-4f43-9793-5688a75f93e6","ios":"levelo://app?vid=4fc236d4-e222-4f43-9793-5688a75f93e6"},"vehicle_type_id":"4","last_reported":1693731961,"current_range_meters":10400,"station_id":"ce4bhr12rcd13ifvqhqg","pricing_plan_id":"free"},{"bike_id":"90f1fc97-49d0-4df8-9f32-3dfcd4a32851","system_id":"levelo_inurba_marseille","lat":43.32289,"lon":5.38275,"is_reserved":false,"is_disabled":false,"rental_uris":{"android":"levelo://app?vid=90f1fc97-49d0-4df8-9f32-3dfcd4a32851","ios":"levelo://app?vid=90f1fc97-49d0-4df8-9f32-3dfcd4a32851"},"vehicle_type_id":"4","last_reported":1693731961,"current_range_meters":10400,"station_id":"ce4bhr12rcd13ifvqhqg","pricing_plan_id":"free"},{"bike_id":"f165bad6-ab1c-4320-8df4-80cfe43c793a","system_id":"levelo_inurba_marseille","lat":43.32828,"lon":5.36686,"is_reserved":false,"is_disabled":false,"rental_uris":{"android":"levelo://app?vid=f165bad6-ab1c-4320-8df4-80cfe43c793a","ios":"levelo://app?vid=f165bad6-ab1c-4320-8df4-80cfe43c793a"},"vehicle_type_id":"4","last_reported":1693731961,"current_range_meters":18000,"station_id":"ce4bhs92rcd13ifvqi0g","pricing_plan_id":"free"},{"bike_id":"b9c1f0a9-2b5d-461e-bcfc-0c0ecf168387","system_id":"levelo_inurba_marseille","lat":43.32828,"lon":5.36682,"is_reserved":false,"is_disabled":false,"rental_uris":{"android":"levelo://app?vid=b9c1f0a9-2b5d-461e-bcfc-0c0ecf168387","ios":"levelo://app?vid=b9c1f0a9-2b5d-461e-bcfc-0c0ecf168387"},"vehicle_type_id":"4","last_reported":1693731961,"current_range_meters":31200,"station_id":"ce4bhs92rcd13ifvqi0g","pricing_plan_id":"free"},{"bike_id":"bc3d3895-b793-44c6-8e40-393f8836a482","system_id":"levelo_inurba_marseille","lat":43.297163,"lon":5.365866,"is_reserved":false,"is_disabled":false,"rental_uris":{"android":"levelo://app?vid=bc3d3895-b793-44c6-8e40-393f8836a482","ios":"levelo://app?vid=bc3d3895-b793-44c6-8e40-393f8836a482"},"vehicle_type_id":"4","last_reported":1693731961,"current_range_meters":28000,"station_id":"ce4bgn12rcd13ifvqbt0","pricing_plan_id":"free"},{"bike_id":"d5cf1e07-1088-47a1-85e8-de69e165c560","system_id":"levelo_inurba_marseille","lat":43.297163,"lon":5.365866,"is_reserved":false,"is_disabled":false,"rental_uris":{"android":"levelo://app?vid=d5cf1e07-1088-47a1-85e8-de69e165c560","ios":"levelo://app?vid=d5cf1e07-1088-47a1-85e8-de69e165c560"},"vehicle_type_id":"4","last_reported":1693731961,"current_range_meters":11600,"station_id":"ce4bgn12rcd13ifvqbt0","pricing_plan_id":"free"},{"bike_id":"dd789220-e7b5-42c1-b9dc-dc4243148021","system_id":"levelo_inurba_marseille","lat":43.29708,"lon":5.36615,"is_reserved":false,"is_disabled":false,"rental_uris":{"android":"levelo://app?vid=dd789220-e7b5-42c1-b9dc-dc4243148021","ios":"levelo://app?vid=dd789220-e7b5-42c1-b9dc-dc4243148021"},"vehicle_type_id":"4","last_reported":1693731961,"current_range_meters":30000,"station_id":"ce4bgn12rcd13ifvqbt0","pricing_plan_id":"free"},{"bike_id":"bd0bd295-6ecc-40c4-a4d0-89f645593756","system_id":"levelo_inurba_marseille","lat":43.297163,"lon":5.365866,"is_reserved":false,"is_disabled":false,"rental_uris":{"android":"levelo://app?vid=bd0bd295-6ecc-40c4-a4d0-89f645593756","ios":"levelo://app?vid=bd0bd295-6ecc-40c4-a4d0-89f645593756"},"vehicle_type_id":"4","last_reported":1693731961,"current_range_meters":20800,"station_id":"ce4bgn12rcd13ifvqbt0","pricing_plan_id":"free"},{"bike_id":"dc8874f5-01ec-48da-8e91-fc1d4bafe872","system_id":"levelo_inurba_marseille","lat":43.297163,"lon":5.365866,"is_reserved":false,"is_disabled":false,"rental_uris":{"android":"levelo://app?vid=dc8874f5-01ec-48da-8e91-fc1d4bafe872","ios":"levelo://app?vid=dc8874f5-01ec-48da-8e91-fc1d4bafe872"},"vehicle_type_id":"4","last_reported":1693731961,"current_range_meters":31200,"station_id":"ce4bgn12rcd13ifvqbt0","pricing_plan_id":"free"},{"bike_id":"e4c957cd-020e-4e84-b9bb-5fffc97029e3","system_id":"levelo_inurba_marseille","lat":43.31606,"lon":5.38902,"is_reserved":false,"is_disabled":false,"rental_uris":{"android":"levelo://app?vid=e4c957cd-020e-4e84-b9bb-5fffc97029e3","ios":"levelo://app?vid=e4c957cd-020e-4e84-b9bb-5fffc97029e3"},"vehicle_type_id":"4","last_reported":1693731961,"current_range_meters":22800,"station_id":"","pricing_plan_id":"free"},{"bike_id":"323e3b14-9e8f-4d14-8383-0b3ba99c6245","system_id":"levelo_inurba_marseille","lat":43.2968,"lon":5.37291,"is_reserved":false,"is_disabled":false,"rental_uris":{"android":"levelo://app?vid=323e3b14-9e8f-4d14-8383-0b3ba99c6245","ios":"levelo://app?vid=323e3b14-9e8f-4d14-8383-0b3ba99c6245"},"vehicle_type_id":"4","last_reported":1693731961,"current_range_meters":24800,"station_id":"ce4bgk12rcd13ifvqbj0","pricing_plan_id":"free"},{"bike_id":"443be296-4870-4522-b928-ca3cc71e3a45","system_id":"levelo_inurba_marseille","lat":43.296131,"lon":5.370791,"is_reserved":false,"is_disabled":false,"rental_uris":{"android":"levelo://app?vid=443be296-4870-4522-b928-ca3cc71e3a45","ios":"levelo://app?vid=443be296-4870-4522-b928-ca3cc71e3a45"},"vehicle_type_id":"4","last_reported":1693731961,"current_range_meters":27600,"station_id":"ce4bgnh2rcd13ifvqc0g","pricing_plan_id":"free"},{"bike_id":"1b2c5b22-53a9-42a2-b8d8-9cb58f4bdff1","system_id":"levelo_inurba_marseille","lat":43.296131,"lon":5.370791,"is_reserved":false,"is_disabled":false,"rental_uris":{"android":"levelo://app?vid=1b2c5b22-53a9-42a2-b8d8-9cb58f4bdff1","ios":"levelo://app?vid=1b2c5b22-53a9-42a2-b8d8-9cb58f4bdff1"},"vehicle_type_id":"4","last_reported":1693731961,"current_range_meters":15600,"station_id":"ce4bgnh2rcd13ifvqc0g","pricing_plan_id":"free"},{"bike_id":"772d979b-3e36-4faa-b84f-58cced1d26a2","system_id":"levelo_inurba_marseille","lat":43.296131,"lon":5.370791,"is_reserved":false,"is_disabled":false,"rental_uris":{"android":"levelo://app?vid=772d979b-3e36-4faa-b84f-58cced1d26a2","ios":"levelo://app?vid=772d979b-3e36-4faa-b84f-58cced1d26a2"},"vehicle_type_id":"4","last_reported":1693731961,"current_range_meters":31600,"station_id":"ce4bgnh2rcd13ifvqc0g","pricing_plan_id":"free"},{"bike_id":"1b9bc2f1-2c20-423d-bf5d-f767812b516e","system_id":"levelo_inurba_marseille","lat":43.296131,"lon":5.370791,"is_reserved":false,"is_disabled":false,"rental_uris":{"android":"levelo://app?vid=1b9bc2f1-2c20-423d-bf5d-f767812b516e","ios":"levelo://app?vid=1b9bc2f1-2c20-423d-bf5d-f767812b516e"},"vehicle_type_id":"4","last_reported":1693731961,"current_range_meters":26000,"station_id":"ce4bgnh2rcd13ifvqc0g","pricing_plan_id":"free"},{"bike_id":"87a52f30-ab7e-4fde-b5ea-4ebeacf1b1fb","system_id":"levelo_inurba_marseille","lat":43.29573,"lon":5.367355,"is_reserved":false,"is_disabled":false,"rental_uris":{"android":"levelo://app?vid=87a52f30-ab7e-4fde-b5ea-4ebeacf1b1fb","ios":"levelo://app?vid=87a52f30-ab7e-4fde-b5ea-4ebeacf1b1fb"},"vehicle_type_id":"4","last_reported":1693731961,"current_range_meters":30400,"station_id":"ce4bgph2rcd13ifvqc2g","pricing_plan_id":"free"},{"bike_id":"b860c12e-1c24-4607-8f7d-ce847b912611","system_id":"levelo_inurba_marseille","lat":43.296129,"lon":5.370777,"is_reserved":false,"is_disabled":false,"rental_uris":{"android":"levelo://app?vid=b860c12e-1c24-4607-8f7d-ce847b912611","ios":"levelo://app?vid=b860c12e-1c24-4607-8f7d-ce847b912611"},"vehicle_type_id":"4","last_reported":1693731961,"current_range_meters":27200,"station_id":"ce4bgnh2rcd13ifvqc0g","pricing_plan_id":"free"},{"bike_id":"e35db6d2-94d0-4a2b-b716-6d9f458e76c0","system_id":"levelo_inurba_marseille","lat":43.29573,"lon":5.367355,"is_reserved":false,"is_disabled":false,"rental_uris":{"android":"levelo://app?vid=e35db6d2-94d0-4a2b-b716-6d9f458e76c0","ios":"levelo://app?vid=e35db6d2-94d0-4a2b-b716-6d9f458e76c0"},"vehicle_type_id":"4","last_reported":1693731961,"current_range_meters":25200,"station_id":"ce4bgph2rcd13ifvqc2g","pricing_plan_id":"free"},{"bike_id":"9dc93a3a-b5b0-41dd-9772-84ccc1dce558","system_id":"levelo_inurba_marseille","lat":43.296131,"lon":5.370791,"is_reserved":false,"is_disabled":false,"rental_uris":{"android":"levelo://app?vid=9dc93a3a-b5b0-41dd-9772-84ccc1dce558","ios":"levelo://app?vid=9dc93a3a-b5b0-41dd-9772-84ccc1dce558"},"vehicle_type_id":"4","last_reported":1693731961,"current_range_meters":31200,"station_id":"ce4bgnh2rcd13ifvqc0g","pricing_plan_id":"free"},{"bike_id":"7d98a398-6b5d-4f8b-9643-f35eec2ae8fc","system_id":"levelo_inurba_marseille","lat":43.29573,"lon":5.367355,"is_reserved":false,"is_disabled":false,"rental_uris":{"android":"levelo://app?vid=7d98a398-6b5d-4f8b-9643-f35eec2ae8fc","ios":"levelo://app?vid=7d98a398-6b5d-4f8b-9643-f35eec2ae8fc"},"vehicle_type_id":"4","last_reported":1693731961,"current_range_meters":26000,"station_id":"ce4bgph2rcd13ifvqc2g","pricing_plan_id":"free"},{"bike_id":"e45e61fb-923f-4945-b7b8-fdf2cfb422b5","system_id":"levelo_inurba_marseille","lat":43.296131,"lon":5.370791,"is_reserved":false,"is_disabled":false,"rental_uris":{"android":"levelo://app?vid=e45e61fb-923f-4945-b7b8-fdf2cfb422b5","ios":"levelo://app?vid=e45e61fb-923f-4945-b7b8-fdf2cfb422b5"},"vehicle_type_id":"4","last_reported":1693731961,"current_range_meters":31200,"station_id":"ce4bgnh2rcd13ifvqc0g","pricing_plan_id":"free"},{"bike_id":"9ed4542a-ccf5-485b-9279-751339cddbe3","system_id":"levelo_inurba_marseille","lat":43.296131,"lon":5.370791,"is_reserved":false,"is_disabled":false,"rental_uris":{"android":"levelo://app?vid=9ed4542a-ccf5-485b-9279-751339cddbe3","ios":"levelo://app?vid=9ed4542a-ccf5-485b-9279-751339cddbe3"},"vehicle_type_id":"4","last_reported":1693731961,"current_range_meters":5200,"station_id":"ce4bgnh2rcd13ifvqc0g","pricing_plan_id":"free"},{"bike_id":"aec61703-aac1-4a86-b3e5-8f29edb9a1b6","system_id":"levelo_inurba_marseille","lat":43.29573,"lon":5.367355,"is_reserved":false,"is_disabled":false,"rental_uris":{"android":"levelo://app?vid=aec61703-aac1-4a86-b3e5-8f29edb9a1b6","ios":"levelo://app?vid=aec61703-aac1-4a86-b3e5-8f29edb9a1b6"},"vehicle_type_id":"4","last_reported":1693731961,"current_range_meters":7600,"station_id":"ce4bgph2rcd13ifvqc2g","pricing_plan_id":"free"},{"bike_id":"f356a980-61da-4ad1-8aab-865fe7c3c4a5","system_id":"levelo_inurba_marseille","lat":43.29573,"lon":5.367355,"is_reserved":false,"is_disabled":false,"rental_uris":{"android":"levelo://app?vid=f356a980-61da-4ad1-8aab-865fe7c3c4a5","ios":"levelo://app?vid=f356a980-61da-4ad1-8aab-865fe7c3c4a5"},"vehicle_type_id":"4","last_reported":1693731961,"current_range_meters":30000,"station_id":"ce4bgph2rcd13ifvqc2g","pricing_plan_id":"free"},{"bike_id":"f42bf2ff-aee7-4a79-a50d-9e40b7614b48","system_id":"levelo_inurba_marseille","lat":43.29573,"lon":5.367355,"is_reserved":false,"is_disabled":false,"rental_uris":{"android":"levelo://app?vid=f42bf2ff-aee7-4a79-a50d-9e40b7614b48","ios":"levelo://app?vid=f42bf2ff-aee7-4a79-a50d-9e40b7614b48"},"vehicle_type_id":"4","last_reported":1693731961,"current_range_meters":31200,"station_id":"ce4bgph2rcd13ifvqc2g","pricing_plan_id":"free"},{"bike_id":"d3139180-8ba9-4c91-b6e4-8baae3c22113","system_id":"levelo_inurba_marseille","lat":43.296131,"lon":5.370773,"is_reserved":false,"is_disabled":false,"rental_uris":{"android":"levelo://app?vid=d3139180-8ba9-4c91-b6e4-8baae3c22113","ios":"levelo://app?vid=d3139180-8ba9-4c91-b6e4-8baae3c22113"},"vehicle_type_id":"4","last_reported":1693731961,"current_range_meters":31200,"station_id":"ce4bgnh2rcd13ifvqc0g","pricing_plan_id":"free"},{"bike_id":"9d76f072-654a-4e4c-847c-36400dbfbdc2","system_id":"levelo_inurba_marseille","lat":43.296131,"lon":5.370791,"is_reserved":false,"is_disabled":false,"rental_uris":{"android":"levelo://app?vid=9d76f072-654a-4e4c-847c-36400dbfbdc2","ios":"levelo://app?vid=9d76f072-654a-4e4c-847c-36400dbfbdc2"},"vehicle_type_id":"4","last_reported":1693731961,"current_range_meters":800,"station_id":"ce4bgnh2rcd13ifvqc0g","pricing_plan_id":"free"},{"bike_id":"70abc4d8-dbee-4eb3-8c1f-e0317a6fa042","system_id":"levelo_inurba_marseille","lat":43.29573,"lon":5.367355,"is_reserved":false,"is_disabled":false,"rental_uris":{"android":"levelo://app?vid=70abc4d8-dbee-4eb3-8c1f-e0317a6fa042","ios":"levelo://app?vid=70abc4d8-dbee-4eb3-8c1f-e0317a6fa042"},"vehicle_type_id":"4","last_reported":1693731961,"current_range_meters":18800,"station_id":"ce4bgph2rcd13ifvqc2g","pricing_plan_id":"free"},{"bike_id":"05c8aca1-b5ff-479b-a26d-a4fc37d022e6","system_id":"levelo_inurba_marseille","lat":43.296921,"lon":5.376579,"is_reserved":false,"is_disabled":false,"rental_uris":{"android":"levelo://app?vid=05c8aca1-b5ff-479b-a26d-a4fc37d022e6","ios":"levelo://app?vid=05c8aca1-b5ff-479b-a26d-a4fc37d022e6"},"vehicle_type_id":"4","last_reported":1693731961,"current_range_meters":31200,"station_id":"ce4bgkh2rcd13ifvqbl0","pricing_plan_id":"free"},{"bike_id":"3a445d00-a294-4f0d-a89b-18b2057dc2d2","system_id":"levelo_inurba_marseille","lat":43.299028,"lon":5.381509,"is_reserved":false,"is_disabled":false,"rental_uris":{"android":"levelo://app?vid=3a445d00-a294-4f0d-a89b-18b2057dc2d2","ios":"levelo://app?vid=3a445d00-a294-4f0d-a89b-18b2057dc2d2"},"vehicle_type_id":"4","last_reported":1693731961,"current_range_meters":21600,"station_id":"ce4bgj12rcd13ifvqbc0","pricing_plan_id":"free"},{"bike_id":"0ffe865a-be90-46f9-8b76-8daad217f875","system_id":"levelo_inurba_marseille","lat":43.296935,"lon":5.376544,"is_reserved":false,"is_disabled":false,"rental_uris":{"android":"levelo://app?vid=0ffe865a-be90-46f9-8b76-8daad217f875","ios":"levelo://app?vid=0ffe865a-be90-46f9-8b76-8daad217f875"},"vehicle_type_id":"4","last_reported":1693731961,"current_range_meters":30000,"station_id":"ce4bgkh2rcd13ifvqbl0","pricing_plan_id":"free"},{"bike_id":"1fd1eaad-6163-4bc5-b59b-08c3da8722d0","system_id":"levelo_inurba_marseille","lat":43.296935,"lon":5.376544,"is_reserved":false,"is_disabled":false,"rental_uris":{"android":"levelo://app?vid=1fd1eaad-6163-4bc5-b59b-08c3da8722d0","ios":"levelo://app?vid=1fd1eaad-6163-4bc5-b59b-08c3da8722d0"},"vehicle_type_id":"4","last_reported":1693731961,"current_range_meters":28000,"station_id":"ce4bgkh2rcd13ifvqbl0","pricing_plan_id":"free"},{"bike_id":"2c93ce6f-c5e1-4ec9-9941-ebb7469bb8f2","system_id":"levelo_inurba_marseille","lat":43.31763,"lon":5.39005,"is_reserved":false,"is_disabled":false,"rental_uris":{"android":"levelo://app?vid=2c93ce6f-c5e1-4ec9-9941-ebb7469bb8f2","ios":"levelo://app?vid=2c93ce6f-c5e1-4ec9-9941-ebb7469bb8f2"},"vehicle_type_id":"4","last_reported":1693731961,"current_range_meters":13200,"station_id":"ce4bhqp2rcd13ifvqhng","pricing_plan_id":"free"},{"bike_id":"5f67fd7f-86bf-482a-bcc4-9636c0b1fc7e","system_id":"levelo_inurba_marseille","lat":43.317557,"lon":5.390173,"is_reserved":false,"is_disabled":false,"rental_uris":{"android":"levelo://app?vid=5f67fd7f-86bf-482a-bcc4-9636c0b1fc7e","ios":"levelo://app?vid=5f67fd7f-86bf-482a-bcc4-9636c0b1fc7e"},"vehicle_type_id":"4","last_reported":1693731961,"current_range_meters":31200,"station_id":"ce4bhqp2rcd13ifvqhng","pricing_plan_id":"free"},{"bike_id":"537964b2-c0ce-4615-8e84-2cfd4bae041f","system_id":"levelo_inurba_marseille","lat":43.317557,"lon":5.390173,"is_reserved":false,"is_disabled":false,"rental_uris":{"android":"levelo://app?vid=537964b2-c0ce-4615-8e84-2cfd4bae041f","ios":"levelo://app?vid=537964b2-c0ce-4615-8e84-2cfd4bae041f"},"vehicle_type_id":"4","last_reported":1693731961,"current_range_meters":31200,"station_id":"ce4bhqp2rcd13ifvqhng","pricing_plan_id":"free"},{"bike_id":"ac17af9c-edc3-458b-bc72-62298feed5fe","system_id":"levelo_inurba_marseille","lat":43.317557,"lon":5.390173,"is_reserved":false,"is_disabled":false,"rental_uris":{"android":"levelo://app?vid=ac17af9c-edc3-458b-bc72-62298feed5fe","ios":"levelo://app?vid=ac17af9c-edc3-458b-bc72-62298feed5fe"},"vehicle_type_id":"4","last_reported":1693731961,"current_range_meters":31600,"station_id":"ce4bhqp2rcd13ifvqhng","pricing_plan_id":"free"},{"bike_id":"5e9cac29-c97b-4139-8a14-866831b0594d","system_id":"levelo_inurba_marseille","lat":43.317557,"lon":5.390173,"is_reserved":false,"is_disabled":false,"rental_uris":{"android":"levelo://app?vid=5e9cac29-c97b-4139-8a14-866831b0594d","ios":"levelo://app?vid=5e9cac29-c97b-4139-8a14-866831b0594d"},"vehicle_type_id":"4","last_reported":1693731961,"current_range_meters":24400,"station_id":"ce4bhqp2rcd13ifvqhng","pricing_plan_id":"free"},{"bike_id":"84f934b9-d550-4872-9064-b3727d9e8d60","system_id":"levelo_inurba_marseille","lat":43.31756,"lon":5.39022,"is_reserved":false,"is_disabled":false,"rental_uris":{"android":"levelo://app?vid=84f934b9-d550-4872-9064-b3727d9e8d60","ios":"levelo://app?vid=84f934b9-d550-4872-9064-b3727d9e8d60"},"vehicle_type_id":"4","last_reported":1693731961,"current_range_meters":25600,"station_id":"ce4bhqp2rcd13ifvqhng","pricing_plan_id":"free"},{"bike_id":"dcb86ec1-2f65-4ebf-aad1-6be8771d4c82","system_id":"levelo_inurba_marseille","lat":43.31756,"lon":5.39022,"is_reserved":false,"is_disabled":false,"rental_uris":{"android":"levelo://app?vid=dcb86ec1-2f65-4ebf-aad1-6be8771d4c82","ios":"levelo://app?vid=dcb86ec1-2f65-4ebf-aad1-6be8771d4c82"},"vehicle_type_id":"4","last_reported":1693731961,"current_range_meters":16000,"station_id":"ce4bhqp2rcd13ifvqhng","pricing_plan_id":"free"},{"bike_id":"dc144c73-e37c-44a3-b0b1-2234a3ecb298","system_id":"levelo_inurba_marseille","lat":43.31753,"lon":5.39026,"is_reserved":false,"is_disabled":false,"rental_uris":{"android":"levelo://app?vid=dc144c73-e37c-44a3-b0b1-2234a3ecb298","ios":"levelo://app?vid=dc144c73-e37c-44a3-b0b1-2234a3ecb298"},"vehicle_type_id":"4","last_reported":1693731961,"current_range_meters":31200,"station_id":"ce4bhqp2rcd13ifvqhng","pricing_plan_id":"free"},{"bike_id":"f7fcfaa3-db36-4e3b-9698-82613bb3dc8a","system_id":"levelo_inurba_marseille","lat":43.295748,"lon":5.37522,"is_reserved":false,"is_disabled":false,"rental_uris":{"android":"levelo://app?vid=f7fcfaa3-db36-4e3b-9698-82613bb3dc8a","ios":"levelo://app?vid=f7fcfaa3-db36-4e3b-9698-82613bb3dc8a"},"vehicle_type_id":"4","last_reported":1693731961,"current_range_meters":14000,"station_id":"ce4bgh92rcd13ifvqb50","pricing_plan_id":"free"},{"bike_id":"74903d8e-7ced-4e69-ba7e-76402c364d92","system_id":"levelo_inurba_marseille","lat":43.295748,"lon":5.37522,"is_reserved":false,"is_disabled":false,"rental_uris":{"android":"levelo://app?vid=74903d8e-7ced-4e69-ba7e-76402c364d92","ios":"levelo://app?vid=74903d8e-7ced-4e69-ba7e-76402c364d92"},"vehicle_type_id":"4","last_reported":1693731961,"current_range_meters":0,"station_id":"ce4bgh92rcd13ifvqb50","pricing_plan_id":"free"},{"bike_id":"a54fd10e-c63e-4852-9fdf-bf09d3704a43","system_id":"levelo_inurba_marseille","lat":43.295748,"lon":5.37522,"is_reserved":false,"is_disabled":false,"rental_uris":{"android":"levelo://app?vid=a54fd10e-c63e-4852-9fdf-bf09d3704a43","ios":"levelo://app?vid=a54fd10e-c63e-4852-9fdf-bf09d3704a43"},"vehicle_type_id":"4","last_reported":1693731961,"current_range_meters":28400,"station_id":"ce4bgh92rcd13ifvqb50","pricing_plan_id":"free"},{"bike_id":"759bd711-36b0-4680-b91f-3cd680fd0bb5","system_id":"levelo_inurba_marseille","lat":43.295748,"lon":5.37522,"is_reserved":false,"is_disabled":false,"rental_uris":{"android":"levelo://app?vid=759bd711-36b0-4680-b91f-3cd680fd0bb5","ios":"levelo://app?vid=759bd711-36b0-4680-b91f-3cd680fd0bb5"},"vehicle_type_id":"4","last_reported":1693731961,"current_range_meters":24800,"station_id":"ce4bgh92rcd13ifvqb50","pricing_plan_id":"free"},{"bike_id":"9eb2e4d8-768c-44b3-9ff7-4dc3b4e657e8","system_id":"levelo_inurba_marseille","lat":43.29607,"lon":5.37713,"is_reserved":false,"is_disabled":false,"rental_uris":{"android":"levelo://app?vid=9eb2e4d8-768c-44b3-9ff7-4dc3b4e657e8","ios":"levelo://app?vid=9eb2e4d8-768c-44b3-9ff7-4dc3b4e657e8"},"vehicle_type_id":"4","last_reported":1693731961,"current_range_meters":30000,"station_id":"ce4bgi92rcd13ifvqb90","pricing_plan_id":"free"},{"bike_id":"2be9321e-7f35-46e6-ab55-2071a06a7c81","system_id":"levelo_inurba_marseille","lat":43.299707,"lon":5.384859,"is_reserved":false,"is_disabled":false,"rental_uris":{"android":"levelo://app?vid=2be9321e-7f35-46e6-ab55-2071a06a7c81","ios":"levelo://app?vid=2be9321e-7f35-46e6-ab55-2071a06a7c81"},"vehicle_type_id":"4","last_reported":1693731961,"current_range_meters":22400,"station_id":"ce4bgj92rcd13ifvqbd0","pricing_plan_id":"free"},{"bike_id":"a93434d4-265e-4e39-b3bf-562e95be310a","system_id":"levelo_inurba_marseille","lat":43.299724,"lon":5.384848,"is_reserved":false,"is_disabled":false,"rental_uris":{"android":"levelo://app?vid=a93434d4-265e-4e39-b3bf-562e95be310a","ios":"levelo://app?vid=a93434d4-265e-4e39-b3bf-562e95be310a"},"vehicle_type_id":"4","last_reported":1693731961,"current_range_meters":25600,"station_id":"ce4bgj92rcd13ifvqbd0","pricing_plan_id":"free"},{"bike_id":"579e89f3-3c55-4a76-8cf6-f5dd0ceabfb9","system_id":"levelo_inurba_marseille","lat":43.32363,"lon":5.38876,"is_reserved":false,"is_disabled":false,"rental_uris":{"android":"levelo://app?vid=579e89f3-3c55-4a76-8cf6-f5dd0ceabfb9","ios":"levelo://app?vid=579e89f3-3c55-4a76-8cf6-f5dd0ceabfb9"},"vehicle_type_id":"4","last_reported":1693731961,"current_range_meters":31200,"station_id":"ce4bhqp2rcd13ifvqhog","pricing_plan_id":"free"},{"bike_id":"9417f977-ad9e-454d-b7a1-9669d5aa5e6f","system_id":"levelo_inurba_marseille","lat":43.32367,"lon":5.388836,"is_reserved":false,"is_disabled":false,"rental_uris":{"android":"levelo://app?vid=9417f977-ad9e-454d-b7a1-9669d5aa5e6f","ios":"levelo://app?vid=9417f977-ad9e-454d-b7a1-9669d5aa5e6f"},"vehicle_type_id":"4","last_reported":1693731961,"current_range_meters":17600,"station_id":"ce4bhqp2rcd13ifvqhog","pricing_plan_id":"free"},{"bike_id":"cfaf0d98-a6b3-47ca-96cb-9273b3e5cd3a","system_id":"levelo_inurba_marseille","lat":43.32367,"lon":5.388836,"is_reserved":false,"is_disabled":false,"rental_uris":{"android":"levelo://app?vid=cfaf0d98-a6b3-47ca-96cb-9273b3e5cd3a","ios":"levelo://app?vid=cfaf0d98-a6b3-47ca-96cb-9273b3e5cd3a"},"vehicle_type_id":"4","last_reported":1693731961,"current_range_meters":13200,"station_id":"ce4bhqp2rcd13ifvqhog","pricing_plan_id":"free"},{"bike_id":"3672bd60-f186-4944-a52d-affef38041cf","system_id":"levelo_inurba_marseille","lat":43.32367,"lon":5.388836,"is_reserved":false,"is_disabled":false,"rental_uris":{"android":"levelo://app?vid=3672bd60-f186-4944-a52d-affef38041cf","ios":"levelo://app?vid=3672bd60-f186-4944-a52d-affef38041cf"},"vehicle_type_id":"4","last_reported":1693731961,"current_range_meters":20400,"station_id":"ce4bhqp2rcd13ifvqhog","pricing_plan_id":"free"},{"bike_id":"18991bb4-9404-4bb7-b4d1-b723f3550d77","system_id":"levelo_inurba_marseille","lat":43.29601,"lon":5.381084,"is_reserved":false,"is_disabled":false,"rental_uris":{"android":"levelo://app?vid=18991bb4-9404-4bb7-b4d1-b723f3550d77","ios":"levelo://app?vid=18991bb4-9404-4bb7-b4d1-b723f3550d77"},"vehicle_type_id":"4","last_reported":1693731961,"current_range_meters":9200,"station_id":"ce4bgl12rcd13ifvqbo0","pricing_plan_id":"free"},{"bike_id":"cec07a80-57f6-409a-a938-bf7ff5c2a64f","system_id":"levelo_inurba_marseille","lat":43.29602,"lon":5.381084,"is_reserved":false,"is_disabled":false,"rental_uris":{"android":"levelo://app?vid=cec07a80-57f6-409a-a938-bf7ff5c2a64f","ios":"levelo://app?vid=cec07a80-57f6-409a-a938-bf7ff5c2a64f"},"vehicle_type_id":"4","last_reported":1693731961,"current_range_meters":30400,"station_id":"ce4bgl12rcd13ifvqbo0","pricing_plan_id":"free"},{"bike_id":"4a8124f5-5119-4f8e-8d8b-ef42fc619251","system_id":"levelo_inurba_marseille","lat":43.29284,"lon":5.36835,"is_reserved":false,"is_disabled":false,"rental_uris":{"android":"levelo://app?vid=4a8124f5-5119-4f8e-8d8b-ef42fc619251","ios":"levelo://app?vid=4a8124f5-5119-4f8e-8d8b-ef42fc619251"},"vehicle_type_id":"4","last_reported":1693731961,"current_range_meters":26000,"station_id":"ce4bhbp2rcd13ifvqesg","pricing_plan_id":"free"},{"bike_id":"6e0767ae-3bbd-4771-8185-93c4ba7dc24f","system_id":"levelo_inurba_marseille","lat":43.293249,"lon":5.371578,"is_reserved":false,"is_disabled":false,"rental_uris":{"android":"levelo://app?vid=6e0767ae-3bbd-4771-8185-93c4ba7dc24f","ios":"levelo://app?vid=6e0767ae-3bbd-4771-8185-93c4ba7dc24f"},"vehicle_type_id":"4","last_reported":1693731961,"current_range_meters":30800,"station_id":"ce4bgh92rcd13ifvqb40","pricing_plan_id":"free"},{"bike_id":"8c34190f-92c5-40b7-8f58-75399112d7e2","system_id":"levelo_inurba_marseille","lat":43.29307,"lon":5.37173,"is_reserved":false,"is_disabled":false,"rental_uris":{"android":"levelo://app?vid=8c34190f-92c5-40b7-8f58-75399112d7e2","ios":"levelo://app?vid=8c34190f-92c5-40b7-8f58-75399112d7e2"},"vehicle_type_id":"4","last_reported":1693731961,"current_range_meters":23600,"station_id":"ce4bgh92rcd13ifvqb40","pricing_plan_id":"free"},{"bike_id":"a44d3c94-d423-4be5-934a-266306263665","system_id":"levelo_inurba_marseille","lat":43.29279,"lon":5.36841,"is_reserved":false,"is_disabled":false,"rental_uris":{"android":"levelo://app?vid=a44d3c94-d423-4be5-934a-266306263665","ios":"levelo://app?vid=a44d3c94-d423-4be5-934a-266306263665"},"vehicle_type_id":"4","last_reported":1693731961,"current_range_meters":23200,"station_id":"ce4bhbp2rcd13ifvqesg","pricing_plan_id":"free"},{"bike_id":"d8e3fefd-963c-4019-97f4-b696975fc0ea","system_id":"levelo_inurba_marseille","lat":43.29276,"lon":5.36842,"is_reserved":false,"is_disabled":false,"rental_uris":{"android":"levelo://app?vid=d8e3fefd-963c-4019-97f4-b696975fc0ea","ios":"levelo://app?vid=d8e3fefd-963c-4019-97f4-b696975fc0ea"},"vehicle_type_id":"4","last_reported":1693731961,"current_range_meters":24000,"station_id":"ce4bhbp2rcd13ifvqesg","pricing_plan_id":"free"},{"bike_id":"ed721ca2-94dc-4001-a82d-d9e73776f896","system_id":"levelo_inurba_marseille","lat":43.29274,"lon":5.36843,"is_reserved":false,"is_disabled":false,"rental_uris":{"android":"levelo://app?vid=ed721ca2-94dc-4001-a82d-d9e73776f896","ios":"levelo://app?vid=ed721ca2-94dc-4001-a82d-d9e73776f896"},"vehicle_type_id":"4","last_reported":1693731961,"current_range_meters":25200,"station_id":"ce4bhbp2rcd13ifvqesg","pricing_plan_id":"free"},{"bike_id":"af378848-4ab5-4a0c-a75c-c290cd6c3483","system_id":"levelo_inurba_marseille","lat":43.32459,"lon":5.38946,"is_reserved":false,"is_disabled":false,"rental_uris":{"android":"levelo://app?vid=af378848-4ab5-4a0c-a75c-c290cd6c3483","ios":"levelo://app?vid=af378848-4ab5-4a0c-a75c-c290cd6c3483"},"vehicle_type_id":"4","last_reported":1693731961,"current_range_meters":0,"station_id":"","pricing_plan_id":"free"},{"bike_id":"0ae7ac11-e9a7-45b1-bece-d3b75ea0c386","system_id":"levelo_inurba_marseille","lat":43.31825,"lon":5.39369,"is_reserved":false,"is_disabled":false,"rental_uris":{"android":"levelo://app?vid=0ae7ac11-e9a7-45b1-bece-d3b75ea0c386","ios":"levelo://app?vid=0ae7ac11-e9a7-45b1-bece-d3b75ea0c386"},"vehicle_type_id":"4","last_reported":1693731961,"current_range_meters":28000,"station_id":"","pricing_plan_id":"free"},{"bike_id":"377a7a96-023e-41cd-a459-44efb75f55e8","system_id":"levelo_inurba_marseille","lat":43.293009,"lon":5.374584,"is_reserved":false,"is_disabled":false,"rental_uris":{"android":"levelo://app?vid=377a7a96-023e-41cd-a459-44efb75f55e8","ios":"levelo://app?vid=377a7a96-023e-41cd-a459-44efb75f55e8"},"vehicle_type_id":"4","last_reported":1693731961,"current_range_meters":30000,"station_id":"ce4bgi12rcd13ifvqb70","pricing_plan_id":"free"},{"bike_id":"638e186d-8649-4354-8b08-5294cb2b921c","system_id":"levelo_inurba_marseille","lat":43.29308,"lon":5.37464,"is_reserved":false,"is_disabled":false,"rental_uris":{"android":"levelo://app?vid=638e186d-8649-4354-8b08-5294cb2b921c","ios":"levelo://app?vid=638e186d-8649-4354-8b08-5294cb2b921c"},"vehicle_type_id":"4","last_reported":1693731961,"current_range_meters":28000,"station_id":"ce4bgi12rcd13ifvqb70","pricing_plan_id":"free"},{"bike_id":"a2d36297-60dc-4c35-988f-4029ad0b1361","system_id":"levelo_inurba_marseille","lat":43.29303,"lon":5.3746,"is_reserved":false,"is_disabled":false,"rental_uris":{"android":"levelo://app?vid=a2d36297-60dc-4c35-988f-4029ad0b1361","ios":"levelo://app?vid=a2d36297-60dc-4c35-988f-4029ad0b1361"},"vehicle_type_id":"4","last_reported":1693731961,"current_range_meters":27600,"station_id":"ce4bgi12rcd13ifvqb70","pricing_plan_id":"free"},{"bike_id":"0724f352-a262-45b7-9b71-9a09ff17d945","system_id":"levelo_inurba_marseille","lat":43.30293,"lon":5.39203,"is_reserved":false,"is_disabled":false,"rental_uris":{"android":"levelo://app?vid=0724f352-a262-45b7-9b71-9a09ff17d945","ios":"levelo://app?vid=0724f352-a262-45b7-9b71-9a09ff17d945"},"vehicle_type_id":"4","last_reported":1693731961,"current_range_meters":18400,"station_id":"ce4bgkh2rcd13ifvqbk0","pricing_plan_id":"free"},{"bike_id":"38fef587-7cc5-4800-b069-87b8f296a10a","system_id":"levelo_inurba_marseille","lat":43.30297,"lon":5.39208,"is_reserved":false,"is_disabled":false,"rental_uris":{"android":"levelo://app?vid=38fef587-7cc5-4800-b069-87b8f296a10a","ios":"levelo://app?vid=38fef587-7cc5-4800-b069-87b8f296a10a"},"vehicle_type_id":"4","last_reported":1693731961,"current_range_meters":16400,"station_id":"ce4bgkh2rcd13ifvqbk0","pricing_plan_id":"free"},{"bike_id":"04537a62-5335-4d4e-9d9a-62d8c8bc6748","system_id":"levelo_inurba_marseille","lat":43.29368,"lon":5.37845,"is_reserved":false,"is_disabled":false,"rental_uris":{"android":"levelo://app?vid=04537a62-5335-4d4e-9d9a-62d8c8bc6748","ios":"levelo://app?vid=04537a62-5335-4d4e-9d9a-62d8c8bc6748"},"vehicle_type_id":"4","last_reported":1693731961,"current_range_meters":12000,"station_id":"ce4bgjh2rcd13ifvqbf0","pricing_plan_id":"free"},{"bike_id":"59d4a7cc-c4d8-47e1-a63f-2e26b5d209c3","system_id":"levelo_inurba_marseille","lat":43.29362,"lon":5.37843,"is_reserved":false,"is_disabled":false,"rental_uris":{"android":"levelo://app?vid=59d4a7cc-c4d8-47e1-a63f-2e26b5d209c3","ios":"levelo://app?vid=59d4a7cc-c4d8-47e1-a63f-2e26b5d209c3"},"vehicle_type_id":"4","last_reported":1693731961,"current_range_meters":30400,"station_id":"ce4bgjh2rcd13ifvqbf0","pricing_plan_id":"free"},{"bike_id":"2d548861-96e7-4de6-9c28-3d5a38f2dcd1","system_id":"levelo_inurba_marseille","lat":43.292311,"lon":5.360731,"is_reserved":false,"is_disabled":false,"rental_uris":{"android":"levelo://app?vid=2d548861-96e7-4de6-9c28-3d5a38f2dcd1","ios":"levelo://app?vid=2d548861-96e7-4de6-9c28-3d5a38f2dcd1"},"vehicle_type_id":"4","last_reported":1693731961,"current_range_meters":30400,"station_id":"ce4bhbh2rcd13ifvqeqg","pricing_plan_id":"free"},{"bike_id":"89452747-920a-451e-9e09-db3002f54586","system_id":"levelo_inurba_marseille","lat":43.292311,"lon":5.360731,"is_reserved":false,"is_disabled":false,"rental_uris":{"android":"levelo://app?vid=89452747-920a-451e-9e09-db3002f54586","ios":"levelo://app?vid=89452747-920a-451e-9e09-db3002f54586"},"vehicle_type_id":"4","last_reported":1693731961,"current_range_meters":31600,"station_id":"ce4bhbh2rcd13ifvqeqg","pricing_plan_id":"free"},{"bike_id":"e4299e54-a666-4b2a-8213-5eb43d061b7c","system_id":"levelo_inurba_marseille","lat":43.292311,"lon":5.360731,"is_reserved":false,"is_disabled":false,"rental_uris":{"android":"levelo://app?vid=e4299e54-a666-4b2a-8213-5eb43d061b7c","ios":"levelo://app?vid=e4299e54-a666-4b2a-8213-5eb43d061b7c"},"vehicle_type_id":"4","last_reported":1693731961,"current_range_meters":22400,"station_id":"ce4bhbh2rcd13ifvqeqg","pricing_plan_id":"free"},{"bike_id":"42aaca17-1d95-4484-b2a9-06bc658b2e9f","system_id":"levelo_inurba_marseille","lat":43.292311,"lon":5.360731,"is_reserved":false,"is_disabled":false,"rental_uris":{"android":"levelo://app?vid=42aaca17-1d95-4484-b2a9-06bc658b2e9f","ios":"levelo://app?vid=42aaca17-1d95-4484-b2a9-06bc658b2e9f"},"vehicle_type_id":"4","last_reported":1693731961,"current_range_meters":21200,"station_id":"ce4bhbh2rcd13ifvqeqg","pricing_plan_id":"free"},{"bike_id":"7bb1ce98-ff62-48d8-ae88-bb0fa21b68a6","system_id":"levelo_inurba_marseille","lat":43.291675,"lon":5.371583,"is_reserved":false,"is_disabled":false,"rental_uris":{"android":"levelo://app?vid=7bb1ce98-ff62-48d8-ae88-bb0fa21b68a6","ios":"levelo://app?vid=7bb1ce98-ff62-48d8-ae88-bb0fa21b68a6"},"vehicle_type_id":"4","last_reported":1693731961,"current_range_meters":26000,"station_id":"ce4bha92rcd13ifvqeh0","pricing_plan_id":"free"},{"bike_id":"f9226249-af67-4614-90f2-3162a5798128","system_id":"levelo_inurba_marseille","lat":43.29257,"lon":5.37625,"is_reserved":false,"is_disabled":false,"rental_uris":{"android":"levelo://app?vid=f9226249-af67-4614-90f2-3162a5798128","ios":"levelo://app?vid=f9226249-af67-4614-90f2-3162a5798128"},"vehicle_type_id":"4","last_reported":1693731961,"current_range_meters":31200,"station_id":"","pricing_plan_id":"free"},{"bike_id":"24f8e746-2bf9-45f0-9977-8a919bccb225","system_id":"levelo_inurba_marseille","lat":43.292663,"lon":5.376389,"is_reserved":false,"is_disabled":false,"rental_uris":{"android":"levelo://app?vid=24f8e746-2bf9-45f0-9977-8a919bccb225","ios":"levelo://app?vid=24f8e746-2bf9-45f0-9977-8a919bccb225"},"vehicle_type_id":"4","last_reported":1693731961,"current_range_meters":7200,"station_id":"ce4bgi12rcd13ifvqb80","pricing_plan_id":"free"},{"bike_id":"d1aa779f-910e-4215-a79c-e5f526a08d0e","system_id":"levelo_inurba_marseille","lat":43.292663,"lon":5.376389,"is_reserved":false,"is_disabled":false,"rental_uris":{"android":"levelo://app?vid=d1aa779f-910e-4215-a79c-e5f526a08d0e","ios":"levelo://app?vid=d1aa779f-910e-4215-a79c-e5f526a08d0e"},"vehicle_type_id":"4","last_reported":1693731961,"current_range_meters":26800,"station_id":"ce4bgi12rcd13ifvqb80","pricing_plan_id":"free"},{"bike_id":"b127cb02-a67f-4944-955b-2653cb69db42","system_id":"levelo_inurba_marseille","lat":43.29142,"lon":5.36689,"is_reserved":false,"is_disabled":false,"rental_uris":{"android":"levelo://app?vid=b127cb02-a67f-4944-955b-2653cb69db42","ios":"levelo://app?vid=b127cb02-a67f-4944-955b-2653cb69db42"},"vehicle_type_id":"4","last_reported":1693731961,"current_range_meters":18800,"station_id":"ce4bhc92rcd13ifvqetg","pricing_plan_id":"free"},{"bike_id":"5364ea4e-8cec-4720-9401-555e301d5b3f","system_id":"levelo_inurba_marseille","lat":43.291981,"lon":5.358019,"is_reserved":false,"is_disabled":false,"rental_uris":{"android":"levelo://app?vid=5364ea4e-8cec-4720-9401-555e301d5b3f","ios":"levelo://app?vid=5364ea4e-8cec-4720-9401-555e301d5b3f"},"vehicle_type_id":"4","last_reported":1693731961,"current_range_meters":29200,"station_id":"ce4bhb12rcd13ifvqel0","pricing_plan_id":"free"},{"bike_id":"64978ea2-e5c7-4c42-bf48-29d587169b6d","system_id":"levelo_inurba_marseille","lat":43.29197,"lon":5.35799,"is_reserved":false,"is_disabled":false,"rental_uris":{"android":"levelo://app?vid=64978ea2-e5c7-4c42-bf48-29d587169b6d","ios":"levelo://app?vid=64978ea2-e5c7-4c42-bf48-29d587169b6d"},"vehicle_type_id":"4","last_reported":1693731961,"current_range_meters":29600,"station_id":"ce4bhb12rcd13ifvqel0","pricing_plan_id":"free"},{"bike_id":"e29f26f4-0418-4195-9e39-075441f8730a","system_id":"levelo_inurba_marseille","lat":43.29193,"lon":5.35805,"is_reserved":false,"is_disabled":false,"rental_uris":{"android":"levelo://app?vid=e29f26f4-0418-4195-9e39-075441f8730a","ios":"levelo://app?vid=e29f26f4-0418-4195-9e39-075441f8730a"},"vehicle_type_id":"4","last_reported":1693731961,"current_range_meters":26400,"station_id":"ce4bhb12rcd13ifvqel0","pricing_plan_id":"free"},{"bike_id":"8459f256-55a7-404e-bef2-87bd77139aaa","system_id":"levelo_inurba_marseille","lat":43.29195,"lon":5.35794,"is_reserved":false,"is_disabled":false,"rental_uris":{"android":"levelo://app?vid=8459f256-55a7-404e-bef2-87bd77139aaa","ios":"levelo://app?vid=8459f256-55a7-404e-bef2-87bd77139aaa"},"vehicle_type_id":"4","last_reported":1693731961,"current_range_meters":23600,"station_id":"ce4bhb12rcd13ifvqel0","pricing_plan_id":"free"},{"bike_id":"2d252964-1983-489d-bd50-40b7f17a5e22","system_id":"levelo_inurba_marseille","lat":43.309038,"lon":5.396546,"is_reserved":false,"is_disabled":false,"rental_uris":{"android":"levelo://app?vid=2d252964-1983-489d-bd50-40b7f17a5e22","ios":"levelo://app?vid=2d252964-1983-489d-bd50-40b7f17a5e22"},"vehicle_type_id":"4","last_reported":1693731961,"current_range_meters":31200,"station_id":"ce4bh012rcd13ifvqcv0","pricing_plan_id":"free"},{"bike_id":"8e0d063e-7511-4b16-8503-f97503cbeed6","system_id":"levelo_inurba_marseille","lat":43.30896,"lon":5.39649,"is_reserved":false,"is_disabled":false,"rental_uris":{"android":"levelo://app?vid=8e0d063e-7511-4b16-8503-f97503cbeed6","ios":"levelo://app?vid=8e0d063e-7511-4b16-8503-f97503cbeed6"},"vehicle_type_id":"4","last_reported":1693731961,"current_range_meters":29600,"station_id":"ce4bh012rcd13ifvqcv0","pricing_plan_id":"free"},{"bike_id":"73c2e0c0-a939-4bc3-943a-e52094180bff","system_id":"levelo_inurba_marseille","lat":43.29183,"lon":5.35797,"is_reserved":false,"is_disabled":false,"rental_uris":{"android":"levelo://app?vid=73c2e0c0-a939-4bc3-943a-e52094180bff","ios":"levelo://app?vid=73c2e0c0-a939-4bc3-943a-e52094180bff"},"vehicle_type_id":"4","last_reported":1693731961,"current_range_meters":13200,"station_id":"ce4bhb12rcd13ifvqel0","pricing_plan_id":"free"},{"bike_id":"666bc5c0-cdd7-4031-8e2e-032b53f34025","system_id":"levelo_inurba_marseille","lat":43.290779,"lon":5.371482,"is_reserved":false,"is_disabled":false,"rental_uris":{"android":"levelo://app?vid=666bc5c0-cdd7-4031-8e2e-032b53f34025","ios":"levelo://app?vid=666bc5c0-cdd7-4031-8e2e-032b53f34025"},"vehicle_type_id":"4","last_reported":1693731961,"current_range_meters":24800,"station_id":"ce4bh5p2rcd13ifvqe4g","pricing_plan_id":"free"},{"bike_id":"1326ab12-c32a-4f44-af8b-8217472b072d","system_id":"levelo_inurba_marseille","lat":43.289184,"lon":5.366408,"is_reserved":false,"is_disabled":false,"rental_uris":{"android":"levelo://app?vid=1326ab12-c32a-4f44-af8b-8217472b072d","ios":"levelo://app?vid=1326ab12-c32a-4f44-af8b-8217472b072d"},"vehicle_type_id":"4","last_reported":1693731961,"current_range_meters":18000,"station_id":"ce4bhap2rcd13ifvqek0","pricing_plan_id":"free"},{"bike_id":"2f93318d-a393-4e93-88c9-60d3ec241b0e","system_id":"levelo_inurba_marseille","lat":43.289184,"lon":5.366408,"is_reserved":false,"is_disabled":false,"rental_uris":{"android":"levelo://app?vid=2f93318d-a393-4e93-88c9-60d3ec241b0e","ios":"levelo://app?vid=2f93318d-a393-4e93-88c9-60d3ec241b0e"},"vehicle_type_id":"4","last_reported":1693731961,"current_range_meters":30800,"station_id":"ce4bhap2rcd13ifvqek0","pricing_plan_id":"free"},{"bike_id":"f0c19c9d-2580-48be-b840-02e9ca203009","system_id":"levelo_inurba_marseille","lat":43.304296,"lon":5.397513,"is_reserved":false,"is_disabled":false,"rental_uris":{"android":"levelo://app?vid=f0c19c9d-2580-48be-b840-02e9ca203009","ios":"levelo://app?vid=f0c19c9d-2580-48be-b840-02e9ca203009"},"vehicle_type_id":"4","last_reported":1693731961,"current_range_meters":16400,"station_id":"ce4bh092rcd13ifvqd20","pricing_plan_id":"free"},{"bike_id":"25da56db-4c0a-4617-81ff-90bcc1fb6d89","system_id":"levelo_inurba_marseille","lat":43.30427,"lon":5.39739,"is_reserved":false,"is_disabled":false,"rental_uris":{"android":"levelo://app?vid=25da56db-4c0a-4617-81ff-90bcc1fb6d89","ios":"levelo://app?vid=25da56db-4c0a-4617-81ff-90bcc1fb6d89"},"vehicle_type_id":"4","last_reported":1693731961,"current_range_meters":26800,"station_id":"ce4bh092rcd13ifvqd20","pricing_plan_id":"free"},{"bike_id":"9b0babcf-9b19-430e-b465-a6f28231434b","system_id":"levelo_inurba_marseille","lat":43.304274,"lon":5.397513,"is_reserved":false,"is_disabled":false,"rental_uris":{"android":"levelo://app?vid=9b0babcf-9b19-430e-b465-a6f28231434b","ios":"levelo://app?vid=9b0babcf-9b19-430e-b465-a6f28231434b"},"vehicle_type_id":"4","last_reported":1693731961,"current_range_meters":28400,"station_id":"ce4bh092rcd13ifvqd20","pricing_plan_id":"free"},{"bike_id":"a61605fa-32fa-4719-a089-084e0e19c29e","system_id":"levelo_inurba_marseille","lat":43.30429,"lon":5.39751,"is_reserved":false,"is_disabled":false,"rental_uris":{"android":"levelo://app?vid=a61605fa-32fa-4719-a089-084e0e19c29e","ios":"levelo://app?vid=a61605fa-32fa-4719-a089-084e0e19c29e"},"vehicle_type_id":"4","last_reported":1693731961,"current_range_meters":30000,"station_id":"","pricing_plan_id":"free"},{"bike_id":"cb430186-2527-4fa6-8c71-ea159230baa6","system_id":"levelo_inurba_marseille","lat":43.304274,"lon":5.397513,"is_reserved":false,"is_disabled":false,"rental_uris":{"android":"levelo://app?vid=cb430186-2527-4fa6-8c71-ea159230baa6","ios":"levelo://app?vid=cb430186-2527-4fa6-8c71-ea159230baa6"},"vehicle_type_id":"4","last_reported":1693731961,"current_range_meters":30400,"station_id":"ce4bh092rcd13ifvqd20","pricing_plan_id":"free"},{"bike_id":"87d224d5-0d9e-4c07-bbcb-784d6df40232","system_id":"levelo_inurba_marseille","lat":43.292642,"lon":5.384254,"is_reserved":false,"is_disabled":false,"rental_uris":{"android":"levelo://app?vid=87d224d5-0d9e-4c07-bbcb-784d6df40232","ios":"levelo://app?vid=87d224d5-0d9e-4c07-bbcb-784d6df40232"},"vehicle_type_id":"4","last_reported":1693731961,"current_range_meters":18000,"station_id":"ce4bh692rcd13ifvqea0","pricing_plan_id":"free"},{"bike_id":"b1f35195-d9f8-42db-9598-29afaf3af044","system_id":"levelo_inurba_marseille","lat":43.290103,"lon":5.356114,"is_reserved":false,"is_disabled":false,"rental_uris":{"android":"levelo://app?vid=b1f35195-d9f8-42db-9598-29afaf3af044","ios":"levelo://app?vid=b1f35195-d9f8-42db-9598-29afaf3af044"},"vehicle_type_id":"4","last_reported":1693731961,"current_range_meters":26800,"station_id":"ce4bhb92rcd13ifvqen0","pricing_plan_id":"free"},{"bike_id":"d3d52730-d972-4fad-bb97-ab9efe3de2eb","system_id":"levelo_inurba_marseille","lat":43.290103,"lon":5.356114,"is_reserved":false,"is_disabled":false,"rental_uris":{"android":"levelo://app?vid=d3d52730-d972-4fad-bb97-ab9efe3de2eb","ios":"levelo://app?vid=d3d52730-d972-4fad-bb97-ab9efe3de2eb"},"vehicle_type_id":"4","last_reported":1693731961,"current_range_meters":800,"station_id":"ce4bhb92rcd13ifvqen0","pricing_plan_id":"free"},{"bike_id":"276df892-9a2a-40a9-929d-29c6fe2dac65","system_id":"levelo_inurba_marseille","lat":43.33042,"lon":5.38914,"is_reserved":false,"is_disabled":false,"rental_uris":{"android":"levelo://app?vid=276df892-9a2a-40a9-929d-29c6fe2dac65","ios":"levelo://app?vid=276df892-9a2a-40a9-929d-29c6fe2dac65"},"vehicle_type_id":"4","last_reported":1693731961,"current_range_meters":18800,"station_id":"ce4bhr92rcd13ifvqhrg","pricing_plan_id":"free"},{"bike_id":"850ec297-4bc9-4835-bee8-c9bf861fc0bc","system_id":"levelo_inurba_marseille","lat":43.290104,"lon":5.356111,"is_reserved":false,"is_disabled":false,"rental_uris":{"android":"levelo://app?vid=850ec297-4bc9-4835-bee8-c9bf861fc0bc","ios":"levelo://app?vid=850ec297-4bc9-4835-bee8-c9bf861fc0bc"},"vehicle_type_id":"4","last_reported":1693731961,"current_range_meters":26400,"station_id":"ce4bhb92rcd13ifvqen0","pricing_plan_id":"free"},{"bike_id":"8077604d-b9d4-4aae-b42f-6a79c8cc4721","system_id":"levelo_inurba_marseille","lat":43.33041,"lon":5.38919,"is_reserved":false,"is_disabled":false,"rental_uris":{"android":"levelo://app?vid=8077604d-b9d4-4aae-b42f-6a79c8cc4721","ios":"levelo://app?vid=8077604d-b9d4-4aae-b42f-6a79c8cc4721"},"vehicle_type_id":"4","last_reported":1693731961,"current_range_meters":20800,"station_id":"ce4bhr92rcd13ifvqhrg","pricing_plan_id":"free"},{"bike_id":"978b0ff4-c9df-43ed-a4e7-ec9b1854c595","system_id":"levelo_inurba_marseille","lat":43.33042,"lon":5.38918,"is_reserved":false,"is_disabled":false,"rental_uris":{"android":"levelo://app?vid=978b0ff4-c9df-43ed-a4e7-ec9b1854c595","ios":"levelo://app?vid=978b0ff4-c9df-43ed-a4e7-ec9b1854c595"},"vehicle_type_id":"4","last_reported":1693731961,"current_range_meters":12800,"station_id":"ce4bhr92rcd13ifvqhrg","pricing_plan_id":"free"},{"bike_id":"d346ead7-ea15-4af0-898b-f25c067a214a","system_id":"levelo_inurba_marseille","lat":43.33045,"lon":5.38915,"is_reserved":false,"is_disabled":false,"rental_uris":{"android":"levelo://app?vid=d346ead7-ea15-4af0-898b-f25c067a214a","ios":"levelo://app?vid=d346ead7-ea15-4af0-898b-f25c067a214a"},"vehicle_type_id":"4","last_reported":1693731961,"current_range_meters":30400,"station_id":"ce4bhr92rcd13ifvqhrg","pricing_plan_id":"free"},{"bike_id":"028b16b4-c861-455c-93e2-214442c48086","system_id":"levelo_inurba_marseille","lat":43.29007,"lon":5.35615,"is_reserved":false,"is_disabled":false,"rental_uris":{"android":"levelo://app?vid=028b16b4-c861-455c-93e2-214442c48086","ios":"levelo://app?vid=028b16b4-c861-455c-93e2-214442c48086"},"vehicle_type_id":"4","last_reported":1693731961,"current_range_meters":27600,"station_id":"ce4bhb92rcd13ifvqen0","pricing_plan_id":"free"},{"bike_id":"3e0449ec-e32f-417c-946f-951095c26cc1","system_id":"levelo_inurba_marseille","lat":43.33043,"lon":5.3892,"is_reserved":false,"is_disabled":false,"rental_uris":{"android":"levelo://app?vid=3e0449ec-e32f-417c-946f-951095c26cc1","ios":"levelo://app?vid=3e0449ec-e32f-417c-946f-951095c26cc1"},"vehicle_type_id":"4","last_reported":1693731961,"current_range_meters":22800,"station_id":"ce4bhr92rcd13ifvqhrg","pricing_plan_id":"free"},{"bike_id":"d7932d52-0b99-415c-88dc-561d5faa16a4","system_id":"levelo_inurba_marseille","lat":43.290104,"lon":5.356111,"is_reserved":false,"is_disabled":false,"rental_uris":{"android":"levelo://app?vid=d7932d52-0b99-415c-88dc-561d5faa16a4","ios":"levelo://app?vid=d7932d52-0b99-415c-88dc-561d5faa16a4"},"vehicle_type_id":"4","last_reported":1693731961,"current_range_meters":31200,"station_id":"ce4bhb92rcd13ifvqen0","pricing_plan_id":"free"},{"bike_id":"1895038e-acdb-4d35-aa35-e1291f23a30a","system_id":"levelo_inurba_marseille","lat":43.29005,"lon":5.35617,"is_reserved":false,"is_disabled":false,"rental_uris":{"android":"levelo://app?vid=1895038e-acdb-4d35-aa35-e1291f23a30a","ios":"levelo://app?vid=1895038e-acdb-4d35-aa35-e1291f23a30a"},"vehicle_type_id":"4","last_reported":1693731961,"current_range_meters":29200,"station_id":"ce4bhb92rcd13ifvqen0","pricing_plan_id":"free"},{"bike_id":"8f19b74f-e0b3-4f0e-a12d-43edfae9643b","system_id":"levelo_inurba_marseille","lat":43.290104,"lon":5.356111,"is_reserved":false,"is_disabled":false,"rental_uris":{"android":"levelo://app?vid=8f19b74f-e0b3-4f0e-a12d-43edfae9643b","ios":"levelo://app?vid=8f19b74f-e0b3-4f0e-a12d-43edfae9643b"},"vehicle_type_id":"4","last_reported":1693731961,"current_range_meters":21200,"station_id":"ce4bhb92rcd13ifvqen0","pricing_plan_id":"free"},{"bike_id":"c62dd62c-9113-4547-b5c1-0a039544e390","system_id":"levelo_inurba_marseille","lat":43.2909,"lon":5.38127,"is_reserved":false,"is_disabled":false,"rental_uris":{"android":"levelo://app?vid=c62dd62c-9113-4547-b5c1-0a039544e390","ios":"levelo://app?vid=c62dd62c-9113-4547-b5c1-0a039544e390"},"vehicle_type_id":"4","last_reported":1693731961,"current_range_meters":0,"station_id":"ce4bh512rcd13ifvqe2g","pricing_plan_id":"free"},{"bike_id":"fd48628c-0deb-4d57-b403-3c2a44f90398","system_id":"levelo_inurba_marseille","lat":43.29007,"lon":5.3813,"is_reserved":false,"is_disabled":false,"rental_uris":{"android":"levelo://app?vid=fd48628c-0deb-4d57-b403-3c2a44f90398","ios":"levelo://app?vid=fd48628c-0deb-4d57-b403-3c2a44f90398"},"vehicle_type_id":"4","last_reported":1693731961,"current_range_meters":24800,"station_id":"ce4bh4p2rcd13ifvqe1g","pricing_plan_id":"free"},{"bike_id":"f6186938-abcb-4a3a-a9ae-faa6d09e1370","system_id":"levelo_inurba_marseille","lat":43.3093,"lon":5.40149,"is_reserved":false,"is_disabled":false,"rental_uris":{"android":"levelo://app?vid=f6186938-abcb-4a3a-a9ae-faa6d09e1370","ios":"levelo://app?vid=f6186938-abcb-4a3a-a9ae-faa6d09e1370"},"vehicle_type_id":"4","last_reported":1693731961,"current_range_meters":800,"station_id":"ce4bgvp2rcd13ifvqct0","pricing_plan_id":"free"},{"bike_id":"5e0b65a3-4830-4efe-8df2-f90e6871cc74","system_id":"levelo_inurba_marseille","lat":43.30642,"lon":5.40083,"is_reserved":false,"is_disabled":false,"rental_uris":{"android":"levelo://app?vid=5e0b65a3-4830-4efe-8df2-f90e6871cc74","ios":"levelo://app?vid=5e0b65a3-4830-4efe-8df2-f90e6871cc74"},"vehicle_type_id":"4","last_reported":1693731961,"current_range_meters":21200,"station_id":"ce4bh112rcd13ifvqda0","pricing_plan_id":"free"},{"bike_id":"439d963b-e875-480a-8e43-e6e0fb084e84","system_id":"levelo_inurba_marseille","lat":43.286591,"lon":5.363346,"is_reserved":false,"is_disabled":false,"rental_uris":{"android":"levelo://app?vid=439d963b-e875-480a-8e43-e6e0fb084e84","ios":"levelo://app?vid=439d963b-e875-480a-8e43-e6e0fb084e84"},"vehicle_type_id":"4","last_reported":1693731961,"current_range_meters":23200,"station_id":"ce4bhah2rcd13ifvqej0","pricing_plan_id":"free"},{"bike_id":"2365150f-73ab-4507-aea4-76016e6109c8","system_id":"levelo_inurba_marseille","lat":43.286593,"lon":5.363346,"is_reserved":false,"is_disabled":false,"rental_uris":{"android":"levelo://app?vid=2365150f-73ab-4507-aea4-76016e6109c8","ios":"levelo://app?vid=2365150f-73ab-4507-aea4-76016e6109c8"},"vehicle_type_id":"4","last_reported":1693731961,"current_range_meters":31200,"station_id":"ce4bhah2rcd13ifvqej0","pricing_plan_id":"free"},{"bike_id":"75199276-b705-4ad7-b6a9-49aeaa84628a","system_id":"levelo_inurba_marseille","lat":43.28661,"lon":5.36357,"is_reserved":false,"is_disabled":false,"rental_uris":{"android":"levelo://app?vid=75199276-b705-4ad7-b6a9-49aeaa84628a","ios":"levelo://app?vid=75199276-b705-4ad7-b6a9-49aeaa84628a"},"vehicle_type_id":"4","last_reported":1693731961,"current_range_meters":26800,"station_id":"ce4bhah2rcd13ifvqej0","pricing_plan_id":"free"},{"bike_id":"a55a4cd5-7683-46a7-bbca-a16b650aed6f","system_id":"levelo_inurba_marseille","lat":43.286961,"lon":5.373785,"is_reserved":false,"is_disabled":false,"rental_uris":{"android":"levelo://app?vid=a55a4cd5-7683-46a7-bbca-a16b650aed6f","ios":"levelo://app?vid=a55a4cd5-7683-46a7-bbca-a16b650aed6f"},"vehicle_type_id":"4","last_reported":1693731961,"current_range_meters":26400,"station_id":"ce4bh3p2rcd13ifvqdq0","pricing_plan_id":"free"},{"bike_id":"1b4fa0a7-2d65-445d-8612-61e354bc2044","system_id":"levelo_inurba_marseille","lat":43.286039,"lon":5.370681,"is_reserved":false,"is_disabled":false,"rental_uris":{"android":"levelo://app?vid=1b4fa0a7-2d65-445d-8612-61e354bc2044","ios":"levelo://app?vid=1b4fa0a7-2d65-445d-8612-61e354bc2044"},"vehicle_type_id":"4","last_reported":1693731961,"current_range_meters":31200,"station_id":"ce4bht12rcd13ifvqi60","pricing_plan_id":"free"},{"bike_id":"15f4ff9e-db3a-49e8-9f1b-1ca4285256a4","system_id":"levelo_inurba_marseille","lat":43.286039,"lon":5.370681,"is_reserved":false,"is_disabled":false,"rental_uris":{"android":"levelo://app?vid=15f4ff9e-db3a-49e8-9f1b-1ca4285256a4","ios":"levelo://app?vid=15f4ff9e-db3a-49e8-9f1b-1ca4285256a4"},"vehicle_type_id":"4","last_reported":1693731961,"current_range_meters":27200,"station_id":"ce4bht12rcd13ifvqi60","pricing_plan_id":"free"},{"bike_id":"a5df7335-d346-4aaa-b24c-098c3c0c190d","system_id":"levelo_inurba_marseille","lat":43.287185,"lon":5.379373,"is_reserved":false,"is_disabled":false,"rental_uris":{"android":"levelo://app?vid=a5df7335-d346-4aaa-b24c-098c3c0c190d","ios":"levelo://app?vid=a5df7335-d346-4aaa-b24c-098c3c0c190d"},"vehicle_type_id":"4","last_reported":1693731961,"current_range_meters":20800,"station_id":"ce4bh9p2rcd13ifvqec0","pricing_plan_id":"free"},{"bike_id":"e0fa8091-1a09-485a-82df-0ae17d858478","system_id":"levelo_inurba_marseille","lat":43.3165,"lon":5.4043,"is_reserved":false,"is_disabled":false,"rental_uris":{"android":"levelo://app?vid=e0fa8091-1a09-485a-82df-0ae17d858478","ios":"levelo://app?vid=e0fa8091-1a09-485a-82df-0ae17d858478"},"vehicle_type_id":"4","last_reported":1693731961,"current_range_meters":25200,"station_id":"ce4bh012rcd13ifvqd00","pricing_plan_id":"free"},{"bike_id":"3dd9436c-d828-4cb1-984c-8b474e38ee20","system_id":"levelo_inurba_marseille","lat":43.31645,"lon":5.40437,"is_reserved":false,"is_disabled":false,"rental_uris":{"android":"levelo://app?vid=3dd9436c-d828-4cb1-984c-8b474e38ee20","ios":"levelo://app?vid=3dd9436c-d828-4cb1-984c-8b474e38ee20"},"vehicle_type_id":"4","last_reported":1693731961,"current_range_meters":14400,"station_id":"ce4bh012rcd13ifvqd00","pricing_plan_id":"free"},{"bike_id":"d8592919-aaee-4142-895d-e374fc24e686","system_id":"levelo_inurba_marseille","lat":43.31641,"lon":5.40441,"is_reserved":false,"is_disabled":false,"rental_uris":{"android":"levelo://app?vid=d8592919-aaee-4142-895d-e374fc24e686","ios":"levelo://app?vid=d8592919-aaee-4142-895d-e374fc24e686"},"vehicle_type_id":"4","last_reported":1693731961,"current_range_meters":28000,"station_id":"ce4bh012rcd13ifvqd00","pricing_plan_id":"free"},{"bike_id":"b0c0cc5d-8f1f-47b6-93f3-29b9aeaa6945","system_id":"levelo_inurba_marseille","lat":43.291994,"lon":5.392907,"is_reserved":false,"is_disabled":false,"rental_uris":{"android":"levelo://app?vid=b0c0cc5d-8f1f-47b6-93f3-29b9aeaa6945","ios":"levelo://app?vid=b0c0cc5d-8f1f-47b6-93f3-29b9aeaa6945"},"vehicle_type_id":"4","last_reported":1693731961,"current_range_meters":21600,"station_id":"ce4bh192rcd13ifvqdd0","pricing_plan_id":"free"},{"bike_id":"11b992a8-03da-4ab1-91da-1782a15640cd","system_id":"levelo_inurba_marseille","lat":43.291994,"lon":5.392907,"is_reserved":false,"is_disabled":false,"rental_uris":{"android":"levelo://app?vid=11b992a8-03da-4ab1-91da-1782a15640cd","ios":"levelo://app?vid=11b992a8-03da-4ab1-91da-1782a15640cd"},"vehicle_type_id":"4","last_reported":1693731961,"current_range_meters":27600,"station_id":"ce4bh192rcd13ifvqdd0","pricing_plan_id":"free"},{"bike_id":"0242084a-00a7-481f-8bb6-519f3aebb944","system_id":"levelo_inurba_marseille","lat":43.284534,"lon":5.358662,"is_reserved":false,"is_disabled":false,"rental_uris":{"android":"levelo://app?vid=0242084a-00a7-481f-8bb6-519f3aebb944","ios":"levelo://app?vid=0242084a-00a7-481f-8bb6-519f3aebb944"},"vehicle_type_id":"4","last_reported":1693731961,"current_range_meters":6800,"station_id":"ce4bhah2rcd13ifvqei0","pricing_plan_id":"free"},{"bike_id":"b8649dc1-2fbb-471b-87d0-1d33953f3e20","system_id":"levelo_inurba_marseille","lat":43.28461,"lon":5.35889,"is_reserved":false,"is_disabled":false,"rental_uris":{"android":"levelo://app?vid=b8649dc1-2fbb-471b-87d0-1d33953f3e20","ios":"levelo://app?vid=b8649dc1-2fbb-471b-87d0-1d33953f3e20"},"vehicle_type_id":"4","last_reported":1693731961,"current_range_meters":22000,"station_id":"ce4bhah2rcd13ifvqei0","pricing_plan_id":"free"},{"bike_id":"a415d13a-8303-4aa6-815f-62d1b62e3bb8","system_id":"levelo_inurba_marseille","lat":43.28461,"lon":5.35888,"is_reserved":false,"is_disabled":false,"rental_uris":{"android":"levelo://app?vid=a415d13a-8303-4aa6-815f-62d1b62e3bb8","ios":"levelo://app?vid=a415d13a-8303-4aa6-815f-62d1b62e3bb8"},"vehicle_type_id":"4","last_reported":1693731961,"current_range_meters":23600,"station_id":"ce4bhah2rcd13ifvqei0","pricing_plan_id":"free"},{"bike_id":"e13f0f67-2f9b-41b3-b175-5b82ef963b87","system_id":"levelo_inurba_marseille","lat":43.28461,"lon":5.35882,"is_reserved":false,"is_disabled":false,"rental_uris":{"android":"levelo://app?vid=e13f0f67-2f9b-41b3-b175-5b82ef963b87","ios":"levelo://app?vid=e13f0f67-2f9b-41b3-b175-5b82ef963b87"},"vehicle_type_id":"4","last_reported":1693731961,"current_range_meters":29200,"station_id":"ce4bhah2rcd13ifvqei0","pricing_plan_id":"free"},{"bike_id":"c613e49b-ff3c-405a-b065-8728b63a9e2c","system_id":"levelo_inurba_marseille","lat":43.28458,"lon":5.35891,"is_reserved":false,"is_disabled":false,"rental_uris":{"android":"levelo://app?vid=c613e49b-ff3c-405a-b065-8728b63a9e2c","ios":"levelo://app?vid=c613e49b-ff3c-405a-b065-8728b63a9e2c"},"vehicle_type_id":"4","last_reported":1693731961,"current_range_meters":26000,"station_id":"ce4bhah2rcd13ifvqei0","pricing_plan_id":"free"},{"bike_id":"859769f6-d0ae-4f02-8108-29f261dbd6af","system_id":"levelo_inurba_marseille","lat":43.28457,"lon":5.35892,"is_reserved":false,"is_disabled":false,"rental_uris":{"android":"levelo://app?vid=859769f6-d0ae-4f02-8108-29f261dbd6af","ios":"levelo://app?vid=859769f6-d0ae-4f02-8108-29f261dbd6af"},"vehicle_type_id":"4","last_reported":1693731961,"current_range_meters":31200,"station_id":"ce4bhah2rcd13ifvqei0","pricing_plan_id":"free"},{"bike_id":"3157b67c-2936-4da4-bc90-4fcd90e53ba8","system_id":"levelo_inurba_marseille","lat":43.284534,"lon":5.358662,"is_reserved":false,"is_disabled":false,"rental_uris":{"android":"levelo://app?vid=3157b67c-2936-4da4-bc90-4fcd90e53ba8","ios":"levelo://app?vid=3157b67c-2936-4da4-bc90-4fcd90e53ba8"},"vehicle_type_id":"4","last_reported":1693731961,"current_range_meters":31200,"station_id":"ce4bhah2rcd13ifvqei0","pricing_plan_id":"free"},{"bike_id":"6ec9c5a4-8ce7-4a6b-ae44-cb393065ca30","system_id":"levelo_inurba_marseille","lat":43.28455,"lon":5.35892,"is_reserved":false,"is_disabled":false,"rental_uris":{"android":"levelo://app?vid=6ec9c5a4-8ce7-4a6b-ae44-cb393065ca30","ios":"levelo://app?vid=6ec9c5a4-8ce7-4a6b-ae44-cb393065ca30"},"vehicle_type_id":"4","last_reported":1693731961,"current_range_meters":3600,"station_id":"ce4bhah2rcd13ifvqei0","pricing_plan_id":"free"},{"bike_id":"00df258b-42f3-483a-8e28-db335d115b7b","system_id":"levelo_inurba_marseille","lat":43.28455,"lon":5.3589,"is_reserved":false,"is_disabled":false,"rental_uris":{"android":"levelo://app?vid=00df258b-42f3-483a-8e28-db335d115b7b","ios":"levelo://app?vid=00df258b-42f3-483a-8e28-db335d115b7b"},"vehicle_type_id":"4","last_reported":1693731961,"current_range_meters":4400,"station_id":"ce4bhah2rcd13ifvqei0","pricing_plan_id":"free"},{"bike_id":"277c22e5-b302-4363-876a-1f2561ab3487","system_id":"levelo_inurba_marseille","lat":43.28621,"lon":5.35101,"is_reserved":false,"is_disabled":false,"rental_uris":{"android":"levelo://app?vid=277c22e5-b302-4363-876a-1f2561ab3487","ios":"levelo://app?vid=277c22e5-b302-4363-876a-1f2561ab3487"},"vehicle_type_id":"4","last_reported":1693731961,"current_range_meters":0,"station_id":"ce4bhch2rcd13ifvqeug","pricing_plan_id":"free"},{"bike_id":"bb790218-41db-490b-90c5-cc582ed75ad8","system_id":"levelo_inurba_marseille","lat":43.285856,"lon":5.350771,"is_reserved":false,"is_disabled":false,"rental_uris":{"android":"levelo://app?vid=bb790218-41db-490b-90c5-cc582ed75ad8","ios":"levelo://app?vid=bb790218-41db-490b-90c5-cc582ed75ad8"},"vehicle_type_id":"4","last_reported":1693731961,"current_range_meters":11200,"station_id":"ce4bhch2rcd13ifvqeug","pricing_plan_id":"free"},{"bike_id":"7abfd01c-44bc-4f03-b418-af4b056c99a7","system_id":"levelo_inurba_marseille","lat":43.285856,"lon":5.350771,"is_reserved":false,"is_disabled":false,"rental_uris":{"android":"levelo://app?vid=7abfd01c-44bc-4f03-b418-af4b056c99a7","ios":"levelo://app?vid=7abfd01c-44bc-4f03-b418-af4b056c99a7"},"vehicle_type_id":"4","last_reported":1693731961,"current_range_meters":7600,"station_id":"ce4bhch2rcd13ifvqeug","pricing_plan_id":"free"},{"bike_id":"d4ead3d3-bbff-408e-b577-771381ab3451","system_id":"levelo_inurba_marseille","lat":43.28617,"lon":5.35099,"is_reserved":false,"is_disabled":false,"rental_uris":{"android":"levelo://app?vid=d4ead3d3-bbff-408e-b577-771381ab3451","ios":"levelo://app?vid=d4ead3d3-bbff-408e-b577-771381ab3451"},"vehicle_type_id":"4","last_reported":1693731961,"current_range_meters":5600,"station_id":"ce4bhch2rcd13ifvqeug","pricing_plan_id":"free"},{"bike_id":"9e30b2be-ba90-4dd3-ade3-e9a9e1bc40a3","system_id":"levelo_inurba_marseille","lat":43.285856,"lon":5.350771,"is_reserved":false,"is_disabled":false,"rental_uris":{"android":"levelo://app?vid=9e30b2be-ba90-4dd3-ade3-e9a9e1bc40a3","ios":"levelo://app?vid=9e30b2be-ba90-4dd3-ade3-e9a9e1bc40a3"},"vehicle_type_id":"4","last_reported":1693731961,"current_range_meters":22400,"station_id":"ce4bhch2rcd13ifvqeug","pricing_plan_id":"free"},{"bike_id":"f613ebce-fc8d-4b11-ba92-23d5a921265b","system_id":"levelo_inurba_marseille","lat":43.28611,"lon":5.35106,"is_reserved":false,"is_disabled":false,"rental_uris":{"android":"levelo://app?vid=f613ebce-fc8d-4b11-ba92-23d5a921265b","ios":"levelo://app?vid=f613ebce-fc8d-4b11-ba92-23d5a921265b"},"vehicle_type_id":"4","last_reported":1693731961,"current_range_meters":18800,"station_id":"ce4bhch2rcd13ifvqeug","pricing_plan_id":"free"},{"bike_id":"9c62162b-61f6-450a-a05a-135bea28c838","system_id":"levelo_inurba_marseille","lat":43.283998,"lon":5.375062,"is_reserved":false,"is_disabled":false,"rental_uris":{"android":"levelo://app?vid=9c62162b-61f6-450a-a05a-135bea28c838","ios":"levelo://app?vid=9c62162b-61f6-450a-a05a-135bea28c838"},"vehicle_type_id":"4","last_reported":1693731961,"current_range_meters":22800,"station_id":"ce4bh412rcd13ifvqds0","pricing_plan_id":"free"},{"bike_id":"c8625b19-4116-49c8-b407-a5b254f57579","system_id":"levelo_inurba_marseille","lat":43.286595,"lon":5.386795,"is_reserved":false,"is_disabled":false,"rental_uris":{"android":"levelo://app?vid=c8625b19-4116-49c8-b407-a5b254f57579","ios":"levelo://app?vid=c8625b19-4116-49c8-b407-a5b254f57579"},"vehicle_type_id":"4","last_reported":1693731961,"current_range_meters":19600,"station_id":"ce4bh492rcd13ifvqdug","pricing_plan_id":"free"},{"bike_id":"5505ce35-aa72-4ca5-bf6c-366fb49399db","system_id":"levelo_inurba_marseille","lat":43.319179,"lon":5.407725,"is_reserved":false,"is_disabled":false,"rental_uris":{"android":"levelo://app?vid=5505ce35-aa72-4ca5-bf6c-366fb49399db","ios":"levelo://app?vid=5505ce35-aa72-4ca5-bf6c-366fb49399db"},"vehicle_type_id":"4","last_reported":1693731961,"current_range_meters":29200,"station_id":"ce4bhq12rcd13ifvqhig","pricing_plan_id":"free"},{"bike_id":"f51d146a-46d2-4eb2-a51c-db2e7a990b15","system_id":"levelo_inurba_marseille","lat":43.31885,"lon":5.40731,"is_reserved":false,"is_disabled":false,"rental_uris":{"android":"levelo://app?vid=f51d146a-46d2-4eb2-a51c-db2e7a990b15","ios":"levelo://app?vid=f51d146a-46d2-4eb2-a51c-db2e7a990b15"},"vehicle_type_id":"4","last_reported":1693731961,"current_range_meters":29600,"station_id":"","pricing_plan_id":"free"},{"bike_id":"766aa2e9-8823-4904-ae4e-650f52544859","system_id":"levelo_inurba_marseille","lat":43.31884,"lon":5.40732,"is_reserved":false,"is_disabled":false,"rental_uris":{"android":"levelo://app?vid=766aa2e9-8823-4904-ae4e-650f52544859","ios":"levelo://app?vid=766aa2e9-8823-4904-ae4e-650f52544859"},"vehicle_type_id":"4","last_reported":1693731961,"current_range_meters":30800,"station_id":"","pricing_plan_id":"free"},{"bike_id":"e9bfaba9-2c64-46f9-9ec7-fe2443733334","system_id":"levelo_inurba_marseille","lat":43.319179,"lon":5.407725,"is_reserved":false,"is_disabled":false,"rental_uris":{"android":"levelo://app?vid=e9bfaba9-2c64-46f9-9ec7-fe2443733334","ios":"levelo://app?vid=e9bfaba9-2c64-46f9-9ec7-fe2443733334"},"vehicle_type_id":"4","last_reported":1693731961,"current_range_meters":26800,"station_id":"ce4bhq12rcd13ifvqhig","pricing_plan_id":"free"},{"bike_id":"647ef77b-80ef-46d9-8cb2-24fe05f1dc80","system_id":"levelo_inurba_marseille","lat":43.31889,"lon":5.40739,"is_reserved":false,"is_disabled":false,"rental_uris":{"android":"levelo://app?vid=647ef77b-80ef-46d9-8cb2-24fe05f1dc80","ios":"levelo://app?vid=647ef77b-80ef-46d9-8cb2-24fe05f1dc80"},"vehicle_type_id":"4","last_reported":1693731961,"current_range_meters":23200,"station_id":"ce4bhq12rcd13ifvqhig","pricing_plan_id":"free"},{"bike_id":"82dc821e-8ff8-4e9f-a8c6-f837817238bb","system_id":"levelo_inurba_marseille","lat":43.33722,"lon":5.39177,"is_reserved":false,"is_disabled":false,"rental_uris":{"android":"levelo://app?vid=82dc821e-8ff8-4e9f-a8c6-f837817238bb","ios":"levelo://app?vid=82dc821e-8ff8-4e9f-a8c6-f837817238bb"},"vehicle_type_id":"4","last_reported":1693731961,"current_range_meters":24800,"station_id":"ce4bhr92rcd13ifvqhsg","pricing_plan_id":"free"},{"bike_id":"ceb095af-87de-455d-aba2-f68cde0210b6","system_id":"levelo_inurba_marseille","lat":43.337223,"lon":5.391821,"is_reserved":false,"is_disabled":false,"rental_uris":{"android":"levelo://app?vid=ceb095af-87de-455d-aba2-f68cde0210b6","ios":"levelo://app?vid=ceb095af-87de-455d-aba2-f68cde0210b6"},"vehicle_type_id":"4","last_reported":1693731961,"current_range_meters":15200,"station_id":"ce4bhr92rcd13ifvqhsg","pricing_plan_id":"free"},{"bike_id":"6817f535-a3e0-46dc-9636-ea376c661496","system_id":"levelo_inurba_marseille","lat":43.323464,"lon":5.406297,"is_reserved":false,"is_disabled":false,"rental_uris":{"android":"levelo://app?vid=6817f535-a3e0-46dc-9636-ea376c661496","ios":"levelo://app?vid=6817f535-a3e0-46dc-9636-ea376c661496"},"vehicle_type_id":"4","last_reported":1693731961,"current_range_meters":15200,"station_id":"ce4bhq92rcd13ifvqhjg","pricing_plan_id":"free"},{"bike_id":"6b325e31-f44a-4963-9975-a15cf8be04a8","system_id":"levelo_inurba_marseille","lat":43.33717,"lon":5.391857,"is_reserved":false,"is_disabled":false,"rental_uris":{"android":"levelo://app?vid=6b325e31-f44a-4963-9975-a15cf8be04a8","ios":"levelo://app?vid=6b325e31-f44a-4963-9975-a15cf8be04a8"},"vehicle_type_id":"4","last_reported":1693731961,"current_range_meters":30400,"station_id":"ce4bhr92rcd13ifvqhsg","pricing_plan_id":"free"},{"bike_id":"5f89ad6c-9fa9-4b00-84a8-8e78acf1500b","system_id":"levelo_inurba_marseille","lat":43.323464,"lon":5.406297,"is_reserved":false,"is_disabled":false,"rental_uris":{"android":"levelo://app?vid=5f89ad6c-9fa9-4b00-84a8-8e78acf1500b","ios":"levelo://app?vid=5f89ad6c-9fa9-4b00-84a8-8e78acf1500b"},"vehicle_type_id":"4","last_reported":1693731961,"current_range_meters":10400,"station_id":"ce4bhq92rcd13ifvqhjg","pricing_plan_id":"free"},{"bike_id":"962967fe-5cee-43b2-b0cd-c482cdde2008","system_id":"levelo_inurba_marseille","lat":43.33728,"lon":5.39187,"is_reserved":false,"is_disabled":false,"rental_uris":{"android":"levelo://app?vid=962967fe-5cee-43b2-b0cd-c482cdde2008","ios":"levelo://app?vid=962967fe-5cee-43b2-b0cd-c482cdde2008"},"vehicle_type_id":"4","last_reported":1693731961,"current_range_meters":21600,"station_id":"ce4bhr92rcd13ifvqhsg","pricing_plan_id":"free"},{"bike_id":"43980480-459c-4615-9aec-f7cbab999a95","system_id":"levelo_inurba_marseille","lat":43.323464,"lon":5.406297,"is_reserved":false,"is_disabled":false,"rental_uris":{"android":"levelo://app?vid=43980480-459c-4615-9aec-f7cbab999a95","ios":"levelo://app?vid=43980480-459c-4615-9aec-f7cbab999a95"},"vehicle_type_id":"4","last_reported":1693731961,"current_range_meters":28800,"station_id":"ce4bhq92rcd13ifvqhjg","pricing_plan_id":"free"},