{"last_updated":1729177663,"ttl":60,"version":"2.2","data":{"bikes":[{"bike_id":"d24510a5-cbcb-4911-8b3f-bcfc556a2da9","system_id":"levelo_inurba_marseille","lat":43.25581,"lon":5.38248,"is_reserved":false,"is_disabled":false,"rental_uris":{"android":"levelo://app?vid=d24510a5-cbcb-4911-8b3f-bcfc556a2da9","ios":"levelo://app?vid=d24510a5-cbcb-4911-8b3f-bcfc556a2da9"},"vehicle_type_id":"4","last_reported":1729177663,"current_range_meters":27200,"station_id":"ce4bhih2rcd13ifvqfs0","pricing_plan_id":"cebpf4jnsgd1na2vs0mg"},{"bike_id":"5483b4ac-b5a7-4f5b-93fe-c3a8ab04747d","system_id":"levelo_inurba_marseille","lat":43.29733,"lon":5.37695,"is_reserved":false,"is_disabled":false,"rental_uris":{"android":"levelo://app?vid=5483b4ac-b5a7-4f5b-93fe-c3a8ab04747d","ios":"levelo://app?vid=5483b4ac-b5a7-4f5b-93fe-c3a8ab04747d"},"vehicle_type_id":"4","last_reported":1729177663,"current_range_meters":38800,"station_id":"ce4bgkh2rcd13ifvqbl0","pricing_plan_id":"cebpf4jnsgd1na2vs0mg"},{"bike_id":"c170e372-7a6e-4a77-b1fa-5d7eee59ea66","system_id":"levelo_inurba_marseille","lat":43.28662,"lon":5.3634,"is_reserved":false,"is_disabled":false,"rental_uris":{"android":"levelo://app?vid=c170e372-7a6e-4a77-b1fa-5d7eee59ea66","ios":"levelo://app?vid=c170e372-7a6e-4a77-b1fa-5d7eee59ea66"},"vehicle_type_id":"4","last_reported":1729177663,"current_range_meters":29600,"station_id":"ce4bhah2rcd13ifvqej0","pricing_plan_id":"cebpf4jnsgd1na2vs0mg"},{"bike_id":"676ec6c4-6b42-43e0-81fe-327782965da5","system_id":"levelo_inurba_marseille","lat":43.337444,"lon":5.374475,"is_reserved":false,"is_disabled":false,"rental_uris":{"android":"levelo://app?vid=676ec6c4-6b42-43e0-81fe-327782965da5","ios":"levelo://app?vid=676ec6c4-6b42-43e0-81fe-327782965da5"},"vehicle_type_id":"4","last_reported":1729177663,"current_range_meters":16400,"station_id":"","pricing_plan_id":"cebpf4jnsgd1na2vs0mg"},{"bike_id":"9d14cfb8-7a20-4ee5-8f0a-15d082c27676","system_id":"levelo_inurba_marseille","lat":43.28612,"lon":5.351,"is_reserved":false,"is_disabled":false,"rental_uris":{"android":"levelo://app?vid=9d14cfb8-7a20-4ee5-8f0a-15d082c27676","ios":"levelo://app?vid=9d14cfb8-7a20-4ee5-8f0a-15d082c27676"},"vehicle_type_id":"4","last_reported":1729177663,"current_range_meters":38000,"station_id":"ce4bhch2rcd13ifvqeug","pricing_plan_id":"cebpf4jnsgd1na2vs0mg"},{"bike_id":"b80209bb-6986-46b4-aabd-dfe6220b8826","system_id":"levelo_inurba_marseille","lat":43.29302,"lon":5.37167,"is_reserved":false,"is_disabled":false,"rental_uris":{"android":"levelo://app?vid=b80209bb-6986-46b4-aabd-dfe6220b8826","ios":"levelo://app?vid=b80209bb-6986-46b4-aabd-dfe6220b8826"},"vehicle_type_id":"4","last_reported":1729177663,"current_range_meters":38400,"station_id":"ce4bgh92rcd13ifvqb40","pricing_plan_id":"cebpf4jnsgd1na2vs0mg"},{"bike_id":"f320ba45-0a96-4404-8bf4-521e8b0f5517","system_id":"levelo_inurba_marseille","lat":43.27816,"lon":5.40706,"is_reserved":false,"is_disabled":false,"rental_uris":{"android":"levelo://app?vid=f320ba45-0a96-4404-8bf4-521e8b0f5517","ios":"levelo://app?vid=f320ba45-0a96-4404-8bf4-521e8b0f5517"},"vehicle_type_id":"4","last_reported":1729177663,"current_range_meters":29600,"station_id":"ce4bhnh2rcd13ifvqgtg","pricing_plan_id":"cebpf4jnsgd1na2vs0mg"},{"bike_id":"9d59b8eb-ce71-481c-86a1-a7723d591326","system_id":"levelo_inurba_marseille","lat":43.26487,"lon":5.39549,"is_reserved":false,"is_disabled":false,"rental_uris":{"android":"levelo://app?vid=9d59b8eb-ce71-481c-86a1-a7723d591326","ios":"levelo://app?vid=9d59b8eb-ce71-481c-86a1-a7723d591326"},"vehicle_type_id":"4","last_reported":1729177663,"current_range_meters":17200,"station_id":"ce4bhi12rcd13ifvqfq0","pricing_plan_id":"cebpf4jnsgd1na2vs0mg"},{"bike_id":"c562ea82-c6fc-4246-a544-7013357471d7","system_id":"levelo_inurba_marseille","lat":43.3013,"lon":5.3877,"is_reserved":false,"is_disabled":false,"rental_uris":{"android":"levelo://app?vid=c562ea82-c6fc-4246-a544-7013357471d7","ios":"levelo://app?vid=c562ea82-c6fc-4246-a544-7013357471d7"},"vehicle_type_id":"4","last_reported":1729177663,"current_range_meters":11200,"station_id":"ce4bghh2rcd13ifvqb60","pricing_plan_id":"cebpf4jnsgd1na2vs0mg"},{"bike_id":"90980213-7ada-4ce3-9e74-ac791cb54c2d","system_id":"levelo_inurba_marseille","lat":43.28462,"lon":5.3589,"is_reserved":false,"is_disabled":false,"rental_uris":{"android":"levelo://app?vid=90980213-7ada-4ce3-9e74-ac791cb54c2d","ios":"levelo://app?vid=90980213-7ada-4ce3-9e74-ac791cb54c2d"},"vehicle_type_id":"4","last_reported":1729177663,"current_range_meters":6000,"station_id":"ce4bhah2rcd13ifvqei0","pricing_plan_id":"cebpf4jnsgd1na2vs0mg"},{"bike_id":"3f66dd1c-9be6-4b94-886c-d04770b03feb","system_id":"levelo_inurba_marseille","lat":43.33024,"lon":5.39039,"is_reserved":false,"is_disabled":false,"rental_uris":{"android":"levelo://app?vid=3f66dd1c-9be6-4b94-886c-d04770b03feb","ios":"levelo://app?vid=3f66dd1c-9be6-4b94-886c-d04770b03feb"},"vehicle_type_id":"4","last_reported":1729177663,"current_range_meters":6800,"station_id":"ce4bhr92rcd13ifvqhrg","pricing_plan_id":"cebpf4jnsgd1na2vs0mg"},{"bike_id":"f007d8fd-5fb4-4dc0-b2f7-a68b1d39079e","system_id":"levelo_inurba_marseille","lat":43.27376,"lon":5.36257,"is_reserved":false,"is_disabled":false,"rental_uris":{"android":"levelo://app?vid=f007d8fd-5fb4-4dc0-b2f7-a68b1d39079e","ios":"levelo://app?vid=f007d8fd-5fb4-4dc0-b2f7-a68b1d39079e"},"vehicle_type_id":"4","last_reported":1729177663,"current_range_meters":38000,"station_id":"ce4bhbh2rcd13ifvqeo0","pricing_plan_id":"cebpf4jnsgd1na2vs0mg"},{"bike_id":"879824fb-64da-4151-99a1-635a9eb43927","system_id":"levelo_inurba_marseille","lat":43.29414,"lon":5.3863,"is_reserved":false,"is_disabled":false,"rental_uris":{"android":"levelo://app?vid=879824fb-64da-4151-99a1-635a9eb43927","ios":"levelo://app?vid=879824fb-64da-4151-99a1-635a9eb43927"},"vehicle_type_id":"4","last_reported":1729177663,"current_range_meters":22000,"station_id":"ce4bh2h2rcd13ifvqdh0","pricing_plan_id":"cebpf4jnsgd1na2vs0mg"},{"bike_id":"76b30613-a3d2-4f2c-aae1-cf086d130785","system_id":"levelo_inurba_marseille","lat":43.3009,"lon":5.39068,"is_reserved":false,"is_disabled":false,"rental_uris":{"android":"levelo://app?vid=76b30613-a3d2-4f2c-aae1-cf086d130785","ios":"levelo://app?vid=76b30613-a3d2-4f2c-aae1-cf086d130785"},"vehicle_type_id":"4","last_reported":1729177663,"current_range_meters":32400,"station_id":"ce4bh192rcd13ifvqdb0","pricing_plan_id":"cebpf4jnsgd1na2vs0mg"},{"bike_id":"a28ea996-ed16-45e9-9290-d11bdc09133a","system_id":"levelo_inurba_marseille","lat":43.29523,"lon":5.39038,"is_reserved":false,"is_disabled":false,"rental_uris":{"android":"levelo://app?vid=a28ea996-ed16-45e9-9290-d11bdc09133a","ios":"levelo://app?vid=a28ea996-ed16-45e9-9290-d11bdc09133a"},"vehicle_type_id":"4","last_reported":1729177663,"current_range_meters":4800,"station_id":"ce4bh3p2rcd13ifvqdp0","pricing_plan_id":"cebpf4jnsgd1na2vs0mg"},{"bike_id":"7e6f0a57-2228-4c5f-a8b5-87eb26aa6917","system_id":"levelo_inurba_marseille","lat":43.29722,"lon":5.36609,"is_reserved":false,"is_disabled":false,"rental_uris":{"android":"levelo://app?vid=7e6f0a57-2228-4c5f-a8b5-87eb26aa6917","ios":"levelo://app?vid=7e6f0a57-2228-4c5f-a8b5-87eb26aa6917"},"vehicle_type_id":"4","last_reported":1729177663,"current_range_meters":30000,"station_id":"ce4bgn12rcd13ifvqbt0","pricing_plan_id":"cebpf4jnsgd1na2vs0mg"},{"bike_id":"f4c2344b-f703-4baf-beae-f4dc15b77813","system_id":"levelo_inurba_marseille","lat":43.27208,"lon":5.39184,"is_reserved":false,"is_disabled":false,"rental_uris":{"android":"levelo://app?vid=f4c2344b-f703-4baf-beae-f4dc15b77813","ios":"levelo://app?vid=f4c2344b-f703-4baf-beae-f4dc15b77813"},"vehicle_type_id":"4","last_reported":1729177663,"current_range_meters":22400,"station_id":"ce4bhhp2rcd13ifvqfm0","pricing_plan_id":"cebpf4jnsgd1na2vs0mg"},{"bike_id":"e02fdf93-1b94-425a-9256-f1923c4dd92b","system_id":"levelo_inurba_marseille","lat":43.25118,"lon":5.40321,"is_reserved":false,"is_disabled":false,"rental_uris":{"android":"levelo://app?vid=e02fdf93-1b94-425a-9256-f1923c4dd92b","ios":"levelo://app?vid=e02fdf93-1b94-425a-9256-f1923c4dd92b"},"vehicle_type_id":"4","last_reported":1729177663,"current_range_meters":24400,"station_id":"ce4bhlh2rcd13ifvqgig","pricing_plan_id":"cebpf4jnsgd1na2vs0mg"},{"bike_id":"4ae2c184-8c50-452d-87fb-8f7bf4f540f3","system_id":"levelo_inurba_marseille","lat":43.24656,"lon":5.38897,"is_reserved":false,"is_disabled":false,"rental_uris":{"android":"levelo://app?vid=4ae2c184-8c50-452d-87fb-8f7bf4f540f3","ios":"levelo://app?vid=4ae2c184-8c50-452d-87fb-8f7bf4f540f3"},"vehicle_type_id":"4","last_reported":1729177663,"current_range_meters":40000,"station_id":"ce4bhg12rcd13ifvqf60","pricing_plan_id":"cebpf4jnsgd1na2vs0mg"},{"bike_id":"1a934f0c-9473-4346-9671-65f0e0bafe0f","system_id":"levelo_inurba_marseille","lat":43.28462,"lon":5.35891,"is_reserved":false,"is_disabled":false,"rental_uris":{"android":"levelo://app?vid=1a934f0c-9473-4346-9671-65f0e0bafe0f","ios":"levelo://app?vid=1a934f0c-9473-4346-9671-65f0e0bafe0f"},"vehicle_type_id":"4","last_reported":1729177663,"current_range_meters":32800,"station_id":"ce4bhah2rcd13ifvqei0","pricing_plan_id":"cebpf4jnsgd1na2vs0mg"},{"bike_id":"5a4320fd-668e-47a8-9a0f-748e783877c2","system_id":"levelo_inurba_marseille","lat":43.31715,"lon":5.43705,"is_reserved":false,"is_disabled":false,"rental_uris":{"android":"levelo://app?vid=5a4320fd-668e-47a8-9a0f-748e783877c2","ios":"levelo://app?vid=5a4320fd-668e-47a8-9a0f-748e783877c2"},"vehicle_type_id":"4","last_reported":1729177663,"current_range_meters":20800,"station_id":"ce4bhp92rcd13ifvqhcg","pricing_plan_id":"cebpf4jnsgd1na2vs0mg"},{"bike_id":"56da5a5d-e301-4452-8c07-d6a5a0f92928","system_id":"levelo_inurba_marseille","lat":43.30547,"lon":5.36695,"is_reserved":false,"is_disabled":false,"rental_uris":{"android":"levelo://app?vid=56da5a5d-e301-4452-8c07-d6a5a0f92928","ios":"levelo://app?vid=56da5a5d-e301-4452-8c07-d6a5a0f92928"},"vehicle_type_id":"4","last_reported":1729177663,"current_range_meters":40000,"station_id":"ce4bgrp2rcd13ifvqc9g","pricing_plan_id":"cebpf4jnsgd1na2vs0mg"},{"bike_id":"ba385696-1c00-4366-b0a7-b17da0e20789","system_id":"levelo_inurba_marseille","lat":43.31762,"lon":5.39016,"is_reserved":false,"is_disabled":false,"rental_uris":{"android":"levelo://app?vid=ba385696-1c00-4366-b0a7-b17da0e20789","ios":"levelo://app?vid=ba385696-1c00-4366-b0a7-b17da0e20789"},"vehicle_type_id":"4","last_reported":1729177663,"current_range_meters":12400,"station_id":"ce4bhqp2rcd13ifvqhng","pricing_plan_id":"cebpf4jnsgd1na2vs0mg"},{"bike_id":"052b3563-392a-4857-8174-027696f961ab","system_id":"levelo_inurba_marseille","lat":43.24661,"lon":5.38894,"is_reserved":false,"is_disabled":false,"rental_uris":{"android":"levelo://app?vid=052b3563-392a-4857-8174-027696f961ab","ios":"levelo://app?vid=052b3563-392a-4857-8174-027696f961ab"},"vehicle_type_id":"4","last_reported":1729177663,"current_range_meters":23200,"station_id":"ce4bhg12rcd13ifvqf60","pricing_plan_id":"cebpf4jnsgd1na2vs0mg"},{"bike_id":"7aba16fe-4b84-4f89-8dcf-a56a1ec5cbf9","system_id":"levelo_inurba_marseille","lat":43.32656,"lon":5.40996,"is_reserved":false,"is_disabled":false,"rental_uris":{"android":"levelo://app?vid=7aba16fe-4b84-4f89-8dcf-a56a1ec5cbf9","ios":"levelo://app?vid=7aba16fe-4b84-4f89-8dcf-a56a1ec5cbf9"},"vehicle_type_id":"4","last_reported":1729177663,"current_range_meters":11200,"station_id":"ce4bhpp2rcd13ifvqhgg","pricing_plan_id":"cebpf4jnsgd1na2vs0mg"},{"bike_id":"937a3f13-9596-43de-8817-cbbac6a7dc35","system_id":"levelo_inurba_marseille","lat":43.3176,"lon":5.39018,"is_reserved":false,"is_disabled":false,"rental_uris":{"android":"levelo://app?vid=937a3f13-9596-43de-8817-cbbac6a7dc35","ios":"levelo://app?vid=937a3f13-9596-43de-8817-cbbac6a7dc35"},"vehicle_type_id":"4","last_reported":1729177663,"current_range_meters":24400,"station_id":"ce4bhqp2rcd13ifvqhng","pricing_plan_id":"cebpf4jnsgd1na2vs0mg"},{"bike_id":"65e14f1a-70cf-4a95-af86-b0ef9e16325b","system_id":"levelo_inurba_marseille","lat":43.2511,"lon":5.40324,"is_reserved":false,"is_disabled":false,"rental_uris":{"android":"levelo://app?vid=65e14f1a-70cf-4a95-af86-b0ef9e16325b","ios":"levelo://app?vid=65e14f1a-70cf-4a95-af86-b0ef9e16325b"},"vehicle_type_id":"4","last_reported":1729177663,"current_range_meters":24000,"station_id":"ce4bhlh2rcd13ifvqgig","pricing_plan_id":"cebpf4jnsgd1na2vs0mg"},{"bike_id":"2bd3e409-8210-4f77-b3a5-77025d10f1e6","system_id":"levelo_inurba_marseille","lat":43.29776,"lon":5.37098,"is_reserved":false,"is_disabled":false,"rental_uris":{"android":"levelo://app?vid=2bd3e409-8210-4f77-b3a5-77025d10f1e6","ios":"levelo://app?vid=2bd3e409-8210-4f77-b3a5-77025d10f1e6"},"vehicle_type_id":"4","last_reported":1729177663,"current_range_meters":38400,"station_id":"ce4bgop2rcd13ifvqc1g","pricing_plan_id":"cebpf4jnsgd1na2vs0mg"},{"bike_id":"94647bec-1e3a-4324-aa3c-e061248e2556","system_id":"levelo_inurba_marseille","lat":43.23808,"lon":5.43057,"is_reserved":false,"is_disabled":false,"rental_uris":{"android":"levelo://app?vid=94647bec-1e3a-4324-aa3c-e061248e2556","ios":"levelo://app?vid=94647bec-1e3a-4324-aa3c-e061248e2556"},"vehicle_type_id":"4","last_reported":1729177663,"current_range_meters":16000,"station_id":"","pricing_plan_id":"cebpf4jnsgd1na2vs0mg"},{"bike_id":"a22e6e67-1107-448e-9252-492ef2e2d35b","system_id":"levelo_inurba_marseille","lat":43.255777,"lon":5.382393,"is_reserved":false,"is_disabled":false,"rental_uris":{"android":"levelo://app?vid=a22e6e67-1107-448e-9252-492ef2e2d35b","ios":"levelo://app?vid=a22e6e67-1107-448e-9252-492ef2e2d35b"},"vehicle_type_id":"4","last_reported":1729177663,"current_range_meters":30800,"station_id":"ce4bha12rcd13ifvqee0","pricing_plan_id":"cebpf4jnsgd1na2vs0mg"},{"bike_id":"4eb5bb7d-d404-4aac-869c-ebfcb8d384c1","system_id":"levelo_inurba_marseille","lat":43.23148,"lon":5.43721,"is_reserved":false,"is_disabled":false,"rental_uris":{"android":"levelo://app?vid=4eb5bb7d-d404-4aac-869c-ebfcb8d384c1","ios":"levelo://app?vid=4eb5bb7d-d404-4aac-869c-ebfcb8d384c1"},"vehicle_type_id":"4","last_reported":1729177663,"current_range_meters":30000,"station_id":"ce4bhmp2rcd13ifvqgog","pricing_plan_id":"cebpf4jnsgd1na2vs0mg"},{"bike_id":"39b461af-911b-4d54-bf80-3c46ed4c916e","system_id":"levelo_inurba_marseille","lat":43.27429,"lon":5.39409,"is_reserved":false,"is_disabled":false,"rental_uris":{"android":"levelo://app?vid=39b461af-911b-4d54-bf80-3c46ed4c916e","ios":"levelo://app?vid=39b461af-911b-4d54-bf80-3c46ed4c916e"},"vehicle_type_id":"4","last_reported":1729177663,"current_range_meters":28000,"station_id":"ce4bhdp2rcd13ifvqf20","pricing_plan_id":"cebpf4jnsgd1na2vs0mg"},{"bike_id":"f0314801-afcb-44ec-a19d-4337fa767a37","system_id":"levelo_inurba_marseille","lat":43.30159,"lon":5.37418,"is_reserved":false,"is_disabled":false,"rental_uris":{"android":"levelo://app?vid=f0314801-afcb-44ec-a19d-4337fa767a37","ios":"levelo://app?vid=f0314801-afcb-44ec-a19d-4337fa767a37"},"vehicle_type_id":"4","last_reported":1729177663,"current_range_meters":4400,"station_id":"ce4bgs92rcd13ifvqcc0","pricing_plan_id":"cebpf4jnsgd1na2vs0mg"},{"bike_id":"32a6c07c-2efc-4c39-83b2-ad20df521685","system_id":"levelo_inurba_marseille","lat":43.28275,"lon":5.35073,"is_reserved":false,"is_disabled":false,"rental_uris":{"android":"levelo://app?vid=32a6c07c-2efc-4c39-83b2-ad20df521685","ios":"levelo://app?vid=32a6c07c-2efc-4c39-83b2-ad20df521685"},"vehicle_type_id":"4","last_reported":1729177663,"current_range_meters":7200,"station_id":"ce4bhbp2rcd13ifvqerg","pricing_plan_id":"cebpf4jnsgd1na2vs0mg"},{"bike_id":"a228b649-43d7-4c79-979a-7b5b40b7defd","system_id":"levelo_inurba_marseille","lat":43.25498,"lon":5.37648,"is_reserved":false,"is_disabled":false,"rental_uris":{"android":"levelo://app?vid=a228b649-43d7-4c79-979a-7b5b40b7defd","ios":"levelo://app?vid=a228b649-43d7-4c79-979a-7b5b40b7defd"},"vehicle_type_id":"4","last_reported":1729177663,"current_range_meters":37600,"station_id":"ce4bhh12rcd13ifvqff0","pricing_plan_id":"cebpf4jnsgd1na2vs0mg"},{"bike_id":"85ae967b-b617-4e44-953b-0c3e2f630138","system_id":"levelo_inurba_marseille","lat":43.24805,"lon":5.374573,"is_reserved":false,"is_disabled":false,"rental_uris":{"android":"levelo://app?vid=85ae967b-b617-4e44-953b-0c3e2f630138","ios":"levelo://app?vid=85ae967b-b617-4e44-953b-0c3e2f630138"},"vehicle_type_id":"4","last_reported":1729177663,"current_range_meters":38000,"station_id":"ce4bhgh2rcd13ifvqfb0","pricing_plan_id":"cebpf4jnsgd1na2vs0mg"},{"bike_id":"fceac5c7-d0e0-48dc-a92e-75a5842427e5","system_id":"levelo_inurba_marseille","lat":43.29528,"lon":5.38543,"is_reserved":false,"is_disabled":false,"rental_uris":{"android":"levelo://app?vid=fceac5c7-d0e0-48dc-a92e-75a5842427e5","ios":"levelo://app?vid=fceac5c7-d0e0-48dc-a92e-75a5842427e5"},"vehicle_type_id":"4","last_reported":1729177663,"current_range_meters":28400,"station_id":"ce4bgih2rcd13ifvqba0","pricing_plan_id":"cebpf4jnsgd1na2vs0mg"},{"bike_id":"094a9ef1-fcd9-4de4-b974-440897a04333","system_id":"levelo_inurba_marseille","lat":43.32107,"lon":5.36774,"is_reserved":false,"is_disabled":false,"rental_uris":{"android":"levelo://app?vid=094a9ef1-fcd9-4de4-b974-440897a04333","ios":"levelo://app?vid=094a9ef1-fcd9-4de4-b974-440897a04333"},"vehicle_type_id":"4","last_reported":1729177663,"current_range_meters":34800,"station_id":"ce4bhrh2rcd13ifvqhug","pricing_plan_id":"cebpf4jnsgd1na2vs0mg"},{"bike_id":"c0aea6bf-9822-4eef-a7c6-ea0b29185a8d","system_id":"levelo_inurba_marseille","lat":43.27944,"lon":5.41038,"is_reserved":false,"is_disabled":false,"rental_uris":{"android":"levelo://app?vid=c0aea6bf-9822-4eef-a7c6-ea0b29185a8d","ios":"levelo://app?vid=c0aea6bf-9822-4eef-a7c6-ea0b29185a8d"},"vehicle_type_id":"4","last_reported":1729177663,"current_range_meters":27600,"station_id":"ce4bhnp2rcd13ifvqh0g","pricing_plan_id":"cebpf4jnsgd1na2vs0mg"},{"bike_id":"2871640c-a4f3-4f61-a342-156b39b491e5","system_id":"levelo_inurba_marseille","lat":43.23156,"lon":5.43722,"is_reserved":false,"is_disabled":false,"rental_uris":{"android":"levelo://app?vid=2871640c-a4f3-4f61-a342-156b39b491e5","ios":"levelo://app?vid=2871640c-a4f3-4f61-a342-156b39b491e5"},"vehicle_type_id":"4","last_reported":1729177663,"current_range_meters":12000,"station_id":"ce4bhmp2rcd13ifvqgog","pricing_plan_id":"cebpf4jnsgd1na2vs0mg"},{"bike_id":"de8151b1-305c-4456-a3ad-9dc24e99d74a","system_id":"levelo_inurba_marseille","lat":43.24653,"lon":5.38899,"is_reserved":false,"is_disabled":false,"rental_uris":{"android":"levelo://app?vid=de8151b1-305c-4456-a3ad-9dc24e99d74a","ios":"levelo://app?vid=de8151b1-305c-4456-a3ad-9dc24e99d74a"},"vehicle_type_id":"4","last_reported":1729177663,"current_range_meters":10800,"station_id":"ce4bhg12rcd13ifvqf60","pricing_plan_id":"cebpf4jnsgd1na2vs0mg"},{"bike_id":"aba9fe7f-94f0-4c85-911e-549f24253e58","system_id":"levelo_inurba_marseille","lat":43.286609,"lon":5.363376,"is_reserved":false,"is_disabled":false,"rental_uris":{"android":"levelo://app?vid=aba9fe7f-94f0-4c85-911e-549f24253e58","ios":"levelo://app?vid=aba9fe7f-94f0-4c85-911e-549f24253e58"},"vehicle_type_id":"4","last_reported":1729177663,"current_range_meters":24800,"station_id":"ce4bhah2rcd13ifvqej0","pricing_plan_id":"cebpf4jnsgd1na2vs0mg"},{"bike_id":"1cd343c8-245e-4510-bed9-dcc94a7ab19d","system_id":"levelo_inurba_marseille","lat":43.25932,"lon":5.40918,"is_reserved":false,"is_disabled":false,"rental_uris":{"android":"levelo://app?vid=1cd343c8-245e-4510-bed9-dcc94a7ab19d","ios":"levelo://app?vid=1cd343c8-245e-4510-bed9-dcc94a7ab19d"},"vehicle_type_id":"4","last_reported":1729177663,"current_range_meters":8000,"station_id":"ce4bhm92rcd13ifvqglg","pricing_plan_id":"cebpf4jnsgd1na2vs0mg"},{"bike_id":"8815d0d6-e07f-423d-931d-8dfb85c49c02","system_id":"levelo_inurba_marseille","lat":43.30143,"lon":5.39883,"is_reserved":false,"is_disabled":false,"rental_uris":{"android":"levelo://app?vid=8815d0d6-e07f-423d-931d-8dfb85c49c02","ios":"levelo://app?vid=8815d0d6-e07f-423d-931d-8dfb85c49c02"},"vehicle_type_id":"4","last_reported":1729177663,"current_range_meters":38800,"station_id":"ce4bh0h2rcd13ifvqd40","pricing_plan_id":"cebpf4jnsgd1na2vs0mg"},{"bike_id":"90b7df2b-2805-4913-a745-07d80216980c","system_id":"levelo_inurba_marseille","lat":43.30812,"lon":5.43527,"is_reserved":false,"is_disabled":false,"rental_uris":{"android":"levelo://app?vid=90b7df2b-2805-4913-a745-07d80216980c","ios":"levelo://app?vid=90b7df2b-2805-4913-a745-07d80216980c"},"vehicle_type_id":"4","last_reported":1729177663,"current_range_meters":17600,"station_id":"ce4bhph2rcd13ifvqheg","pricing_plan_id":"cebpf4jnsgd1na2vs0mg"},{"bike_id":"32ce68a3-3fc7-4257-974f-ab657619c295","system_id":"levelo_inurba_marseille","lat":43.33751,"lon":5.37449,"is_reserved":false,"is_disabled":false,"rental_uris":{"android":"levelo://app?vid=32ce68a3-3fc7-4257-974f-ab657619c295","ios":"levelo://app?vid=32ce68a3-3fc7-4257-974f-ab657619c295"},"vehicle_type_id":"4","last_reported":1729177663,"current_range_meters":36800,"station_id":"","pricing_plan_id":"cebpf4jnsgd1na2vs0mg"},{"bike_id":"06ed564a-09dd-4727-98da-5e1c5907fb6e","system_id":"levelo_inurba_marseille","lat":43.27568,"lon":5.38422,"is_reserved":false,"is_disabled":false,"rental_uris":{"android":"levelo://app?vid=06ed564a-09dd-4727-98da-5e1c5907fb6e","ios":"levelo://app?vid=06ed564a-09dd-4727-98da-5e1c5907fb6e"},"vehicle_type_id":"4","last_reported":1729177663,"current_range_meters":39200,"station_id":"ce4bhh92rcd13ifvqfi0","pricing_plan_id":"cebpf4jnsgd1na2vs0mg"},{"bike_id":"2552979b-8546-4eff-9cd6-06f11015612d","system_id":"levelo_inurba_marseille","lat":43.3137,"lon":5.38498,"is_reserved":false,"is_disabled":false,"rental_uris":{"android":"levelo://app?vid=2552979b-8546-4eff-9cd6-06f11015612d","ios":"levelo://app?vid=2552979b-8546-4eff-9cd6-06f11015612d"},"vehicle_type_id":"4","last_reported":1729177663,"current_range_meters":26000,"station_id":"ce4bgt92rcd13ifvqcf0","pricing_plan_id":"cebpf4jnsgd1na2vs0mg"},{"bike_id":"fa7bbdc9-afbe-404d-8676-647037cc76a9","system_id":"levelo_inurba_marseille","lat":43.23194,"lon":5.35545,"is_reserved":false,"is_disabled":false,"rental_uris":{"android":"levelo://app?vid=fa7bbdc9-afbe-404d-8676-647037cc76a9","ios":"levelo://app?vid=fa7bbdc9-afbe-404d-8676-647037cc76a9"},"vehicle_type_id":"4","last_reported":1729177663,"current_range_meters":33200,"station_id":"ce4bhu92rcd13ifvqi70","pricing_plan_id":"cebpf4jnsgd1na2vs0mg"},{"bike_id":"23c27de6-003b-4986-b21d-49f46503a58a","system_id":"levelo_inurba_marseille","lat":43.29547,"lon":5.39411,"is_reserved":false,"is_disabled":false,"rental_uris":{"android":"levelo://app?vid=23c27de6-003b-4986-b21d-49f46503a58a","ios":"levelo://app?vid=23c27de6-003b-4986-b21d-49f46503a58a"},"vehicle_type_id":"4","last_reported":1729177663,"current_range_meters":12400,"station_id":"ce4bh292rcd13ifvqdf0","pricing_plan_id":"cebpf4jnsgd1na2vs0mg"},{"bike_id":"931ad2f4-35ea-42b5-bc1a-1fdec477398a","system_id":"levelo_inurba_marseille","lat":43.33743,"lon":5.37449,"is_reserved":false,"is_disabled":false,"rental_uris":{"android":"levelo://app?vid=931ad2f4-35ea-42b5-bc1a-1fdec477398a","ios":"levelo://app?vid=931ad2f4-35ea-42b5-bc1a-1fdec477398a"},"vehicle_type_id":"4","last_reported":1729177663,"current_range_meters":28000,"station_id":"","pricing_plan_id":"cebpf4jnsgd1na2vs0mg"},{"bike_id":"752671c2-9054-492c-9263-fc5cb1c19d98","system_id":"levelo_inurba_marseille","lat":43.33023,"lon":5.39039,"is_reserved":false,"is_disabled":false,"rental_uris":{"android":"levelo://app?vid=752671c2-9054-492c-9263-fc5cb1c19d98","ios":"levelo://app?vid=752671c2-9054-492c-9263-fc5cb1c19d98"},"vehicle_type_id":"4","last_reported":1729177663,"current_range_meters":9200,"station_id":"ce4bhr92rcd13ifvqhrg","pricing_plan_id":"cebpf4jnsgd1na2vs0mg"},{"bike_id":"348a3729-e440-4f4a-8dbd-e9bb0acb6647","system_id":"levelo_inurba_marseille","lat":43.31078,"lon":5.38361,"is_reserved":false,"is_disabled":false,"rental_uris":{"android":"levelo://app?vid=348a3729-e440-4f4a-8dbd-e9bb0acb6647","ios":"levelo://app?vid=348a3729-e440-4f4a-8dbd-e9bb0acb6647"},"vehicle_type_id":"4","last_reported":1729177663,"current_range_meters":12400,"station_id":"ce4bgv92rcd13ifvqcr0","pricing_plan_id":"cebpf4jnsgd1na2vs0mg"},{"bike_id":"1b286d88-38de-4654-af64-51914b19b962","system_id":"levelo_inurba_marseille","lat":43.24645,"lon":5.38895,"is_reserved":false,"is_disabled":false,"rental_uris":{"android":"levelo://app?vid=1b286d88-38de-4654-af64-51914b19b962","ios":"levelo://app?vid=1b286d88-38de-4654-af64-51914b19b962"},"vehicle_type_id":"4","last_reported":1729177663,"current_range_meters":3200,"station_id":"ce4bhg12rcd13ifvqf60","pricing_plan_id":"cebpf4jnsgd1na2vs0mg"},{"bike_id":"f8c0e133-0905-47a8-a917-019f268dab9f","system_id":"levelo_inurba_marseille","lat":43.30428,"lon":5.39751,"is_reserved":false,"is_disabled":false,"rental_uris":{"android":"levelo://app?vid=f8c0e133-0905-47a8-a917-019f268dab9f","ios":"levelo://app?vid=f8c0e133-0905-47a8-a917-019f268dab9f"},"vehicle_type_id":"4","last_reported":1729177663,"current_range_meters":17600,"station_id":"ce4bh092rcd13ifvqd20","pricing_plan_id":"cebpf4jnsgd1na2vs0mg"},{"bike_id":"4e82a983-4406-4fc1-9c7d-45090c1e4862","system_id":"levelo_inurba_marseille","lat":43.24545,"lon":5.39522,"is_reserved":false,"is_disabled":false,"rental_uris":{"android":"levelo://app?vid=4e82a983-4406-4fc1-9c7d-45090c1e4862","ios":"levelo://app?vid=4e82a983-4406-4fc1-9c7d-45090c1e4862"},"vehicle_type_id":"4","last_reported":1729177663,"current_range_meters":5600,"station_id":"ce4bhlp2rcd13ifvqgjg","pricing_plan_id":"cebpf4jnsgd1na2vs0mg"},{"bike_id":"8c1ec6cb-2291-4814-837b-be8625c706f3","system_id":"levelo_inurba_marseille","lat":43.23197,"lon":5.35542,"is_reserved":false,"is_disabled":false,"rental_uris":{"android":"levelo://app?vid=8c1ec6cb-2291-4814-837b-be8625c706f3","ios":"levelo://app?vid=8c1ec6cb-2291-4814-837b-be8625c706f3"},"vehicle_type_id":"4","last_reported":1729177663,"current_range_meters":36800,"station_id":"ce4bhu92rcd13ifvqi70","pricing_plan_id":"cebpf4jnsgd1na2vs0mg"},{"bike_id":"7750c53d-6dc7-4fd8-8365-b874827419a3","system_id":"levelo_inurba_marseille","lat":43.24657,"lon":5.38886,"is_reserved":false,"is_disabled":false,"rental_uris":{"android":"levelo://app?vid=7750c53d-6dc7-4fd8-8365-b874827419a3","ios":"levelo://app?vid=7750c53d-6dc7-4fd8-8365-b874827419a3"},"vehicle_type_id":"4","last_reported":1729177663,"current_range_meters":13600,"station_id":"ce4bhg12rcd13ifvqf60","pricing_plan_id":"cebpf4jnsgd1na2vs0mg"},{"bike_id":"dd3bebdd-b2f9-41a0-8645-6fba3bd95b90","system_id":"levelo_inurba_marseille","lat":43.31148,"lon":5.37791,"is_reserved":false,"is_disabled":false,"rental_uris":{"android":"levelo://app?vid=dd3bebdd-b2f9-41a0-8645-6fba3bd95b90","ios":"levelo://app?vid=dd3bebdd-b2f9-41a0-8645-6fba3bd95b90"},"vehicle_type_id":"4","last_reported":1729177663,"current_range_meters":8800,"station_id":"ce4bgt92rcd13ifvqcg0","pricing_plan_id":"cebpf4jnsgd1na2vs0mg"},{"bike_id":"f0e67b4d-7d6a-4a7e-a1bb-2450276e0844","system_id":"levelo_inurba_marseille","lat":43.28616,"lon":5.35102,"is_reserved":false,"is_disabled":false,"rental_uris":{"android":"levelo://app?vid=f0e67b4d-7d6a-4a7e-a1bb-2450276e0844","ios":"levelo://app?vid=f0e67b4d-7d6a-4a7e-a1bb-2450276e0844"},"vehicle_type_id":"4","last_reported":1729177663,"current_range_meters":36800,"station_id":"ce4bhch2rcd13ifvqeug","pricing_plan_id":"cebpf4jnsgd1na2vs0mg"},{"bike_id":"c89c2319-61a9-47ef-9229-e31c9eaab143","system_id":"levelo_inurba_marseille","lat":43.23206,"lon":5.35548,"is_reserved":false,"is_disabled":false,"rental_uris":{"android":"levelo://app?vid=c89c2319-61a9-47ef-9229-e31c9eaab143","ios":"levelo://app?vid=c89c2319-61a9-47ef-9229-e31c9eaab143"},"vehicle_type_id":"4","last_reported":1729177663,"current_range_meters":3600,"station_id":"ce4bhu92rcd13ifvqi70","pricing_plan_id":"cebpf4jnsgd1na2vs0mg"},{"bike_id":"c1b4d58c-7d67-4800-b5de-bf664ea422e8","system_id":"levelo_inurba_marseille","lat":43.24656,"lon":5.38885,"is_reserved":false,"is_disabled":false,"rental_uris":{"android":"levelo://app?vid=c1b4d58c-7d67-4800-b5de-bf664ea422e8","ios":"levelo://app?vid=c1b4d58c-7d67-4800-b5de-bf664ea422e8"},"vehicle_type_id":"4","last_reported":1729177663,"current_range_meters":10800,"station_id":"ce4bhg12rcd13ifvqf60","pricing_plan_id":"cebpf4jnsgd1na2vs0mg"},{"bike_id":"1f83888a-b6f2-480c-87e7-6b07142c1dd0","system_id":"levelo_inurba_marseille","lat":43.29896,"lon":5.43664,"is_reserved":false,"is_disabled":false,"rental_uris":{"android":"levelo://app?vid=1f83888a-b6f2-480c-87e7-6b07142c1dd0","ios":"levelo://app?vid=1f83888a-b6f2-480c-87e7-6b07142c1dd0"},"vehicle_type_id":"4","last_reported":1729177663,"current_range_meters":30000,"station_id":"ce4bhpp2rcd13ifvqhfg","pricing_plan_id":"cebpf4jnsgd1na2vs0mg"},{"bike_id":"794acdc8-c17c-4149-b903-ed4baea396b4","system_id":"levelo_inurba_marseille","lat":43.23181,"lon":5.39991,"is_reserved":false,"is_disabled":false,"rental_uris":{"android":"levelo://app?vid=794acdc8-c17c-4149-b903-ed4baea396b4","ios":"levelo://app?vid=794acdc8-c17c-4149-b903-ed4baea396b4"},"vehicle_type_id":"4","last_reported":1729177663,"current_range_meters":20400,"station_id":"ce4bhn12rcd13ifvqgqg","pricing_plan_id":"cebpf4jnsgd1na2vs0mg"},{"bike_id":"a638a42f-2c86-4a47-9fce-e8d77bee8966","system_id":"levelo_inurba_marseille","lat":43.30808,"lon":5.43525,"is_reserved":false,"is_disabled":false,"rental_uris":{"android":"levelo://app?vid=a638a42f-2c86-4a47-9fce-e8d77bee8966","ios":"levelo://app?vid=a638a42f-2c86-4a47-9fce-e8d77bee8966"},"vehicle_type_id":"4","last_reported":1729177663,"current_range_meters":32400,"station_id":"ce4bhph2rcd13ifvqheg","pricing_plan_id":"cebpf4jnsgd1na2vs0mg"},{"bike_id":"0208ec5f-7148-4d41-9a85-be4e6807ef38","system_id":"levelo_inurba_marseille","lat":43.31081,"lon":5.42432,"is_reserved":false,"is_disabled":false,"rental_uris":{"android":"levelo://app?vid=0208ec5f-7148-4d41-9a85-be4e6807ef38","ios":"levelo://app?vid=0208ec5f-7148-4d41-9a85-be4e6807ef38"},"vehicle_type_id":"4","last_reported":1729177663,"current_range_meters":4000,"station_id":"ce4bhp92rcd13ifvqhag","pricing_plan_id":"cebpf4jnsgd1na2vs0mg"},{"bike_id":"22b535b9-e408-47e8-8864-5fdba51acb33","system_id":"levelo_inurba_marseille","lat":43.30146,"lon":5.37412,"is_reserved":false,"is_disabled":false,"rental_uris":{"android":"levelo://app?vid=22b535b9-e408-47e8-8864-5fdba51acb33","ios":"levelo://app?vid=22b535b9-e408-47e8-8864-5fdba51acb33"},"vehicle_type_id":"4","last_reported":1729177663,"current_range_meters":23200,"station_id":"ce4bgs92rcd13ifvqcc0","pricing_plan_id":"cebpf4jnsgd1na2vs0mg"},{"bike_id":"1bd77773-433d-4996-8352-7e950be83933","system_id":"levelo_inurba_marseille","lat":43.28842,"lon":5.39302,"is_reserved":false,"is_disabled":false,"rental_uris":{"android":"levelo://app?vid=1bd77773-433d-4996-8352-7e950be83933","ios":"levelo://app?vid=1bd77773-433d-4996-8352-7e950be83933"},"vehicle_type_id":"4","last_reported":1729177663,"current_range_meters":22000,"station_id":"ce4bh2p2rcd13ifvqdi0","pricing_plan_id":"cebpf4jnsgd1na2vs0mg"},{"bike_id":"874494de-7452-4f47-9fec-c5ec79478035","system_id":"levelo_inurba_marseille","lat":43.23971,"lon":5.36626,"is_reserved":false,"is_disabled":false,"rental_uris":{"android":"levelo://app?vid=874494de-7452-4f47-9fec-c5ec79478035","ios":"levelo://app?vid=874494de-7452-4f47-9fec-c5ec79478035"},"vehicle_type_id":"4","last_reported":1729177663,"current_range_meters":28000,"station_id":"ce4bhi12rcd13ifvqfp0","pricing_plan_id":"cebpf4jnsgd1na2vs0mg"},{"bike_id":"73d55198-a3c1-4e50-8711-3fff45587e00","system_id":"levelo_inurba_marseille","lat":43.30538,"lon":5.36539,"is_reserved":false,"is_disabled":false,"rental_uris":{"android":"levelo://app?vid=73d55198-a3c1-4e50-8711-3fff45587e00","ios":"levelo://app?vid=73d55198-a3c1-4e50-8711-3fff45587e00"},"vehicle_type_id":"4","last_reported":1729177663,"current_range_meters":25600,"station_id":"ce4bgs12rcd13ifvqcag","pricing_plan_id":"cebpf4jnsgd1na2vs0mg"},{"bike_id":"08ae83cb-f31d-469e-8b8d-1172d9f867d3","system_id":"levelo_inurba_marseille","lat":43.23967,"lon":5.3663,"is_reserved":false,"is_disabled":false,"rental_uris":{"android":"levelo://app?vid=08ae83cb-f31d-469e-8b8d-1172d9f867d3","ios":"levelo://app?vid=08ae83cb-f31d-469e-8b8d-1172d9f867d3"},"vehicle_type_id":"4","last_reported":1729177663,"current_range_meters":16800,"station_id":"ce4bhi12rcd13ifvqfp0","pricing_plan_id":"cebpf4jnsgd1na2vs0mg"},{"bike_id":"0994d7f0-fa2e-480f-b967-2b1e1b476b78","system_id":"levelo_inurba_marseille","lat":43.23196,"lon":5.35559,"is_reserved":false,"is_disabled":false,"rental_uris":{"android":"levelo://app?vid=0994d7f0-fa2e-480f-b967-2b1e1b476b78","ios":"levelo://app?vid=0994d7f0-fa2e-480f-b967-2b1e1b476b78"},"vehicle_type_id":"4","last_reported":1729177663,"current_range_meters":14400,"station_id":"ce4bhu92rcd13ifvqi70","pricing_plan_id":"cebpf4jnsgd1na2vs0mg"},{"bike_id":"cafacf31-3dc4-4662-b543-8a143108fe4d","system_id":"levelo_inurba_marseille","lat":43.23187,"lon":5.39984,"is_reserved":false,"is_disabled":false,"rental_uris":{"android":"levelo://app?vid=cafacf31-3dc4-4662-b543-8a143108fe4d","ios":"levelo://app?vid=cafacf31-3dc4-4662-b543-8a143108fe4d"},"vehicle_type_id":"4","last_reported":1729177663,"current_range_meters":24800,"station_id":"ce4bhn12rcd13ifvqgqg","pricing_plan_id":"cebpf4jnsgd1na2vs0mg"},{"bike_id":"86e22d90-048a-40f4-b500-32d71728c2fc","system_id":"levelo_inurba_marseille","lat":43.32118,"lon":5.36774,"is_reserved":false,"is_disabled":false,"rental_uris":{"android":"levelo://app?vid=86e22d90-048a-40f4-b500-32d71728c2fc","ios":"levelo://app?vid=86e22d90-048a-40f4-b500-32d71728c2fc"},"vehicle_type_id":"4","last_reported":1729177663,"current_range_meters":38800,"station_id":"ce4bhrh2rcd13ifvqhug","pricing_plan_id":"cebpf4jnsgd1na2vs0mg"},{"bike_id":"66ccc46d-618e-4760-b09c-27382152bdab","system_id":"levelo_inurba_marseille","lat":43.23201,"lon":5.35543,"is_reserved":false,"is_disabled":false,"rental_uris":{"android":"levelo://app?vid=66ccc46d-618e-4760-b09c-27382152bdab","ios":"levelo://app?vid=66ccc46d-618e-4760-b09c-27382152bdab"},"vehicle_type_id":"4","last_reported":1729177663,"current_range_meters":32800,"station_id":"ce4bhu92rcd13ifvqi70","pricing_plan_id":"cebpf4jnsgd1na2vs0mg"},{"bike_id":"16b75898-a852-4bcf-8850-e24084ff1f23","system_id":"levelo_inurba_marseille","lat":43.29261,"lon":5.40907,"is_reserved":false,"is_disabled":false,"rental_uris":{"android":"levelo://app?vid=16b75898-a852-4bcf-8850-e24084ff1f23","ios":"levelo://app?vid=16b75898-a852-4bcf-8850-e24084ff1f23"},"vehicle_type_id":"4","last_reported":1729177663,"current_range_meters":39200,"station_id":"ce4bh192rcd13ifvqdc0","pricing_plan_id":"cebpf4jnsgd1na2vs0mg"},{"bike_id":"1380e543-eafd-4516-9717-1e0714bb2fb6","system_id":"levelo_inurba_marseille","lat":43.26492,"lon":5.39557,"is_reserved":false,"is_disabled":false,"rental_uris":{"android":"levelo://app?vid=1380e543-eafd-4516-9717-1e0714bb2fb6","ios":"levelo://app?vid=1380e543-eafd-4516-9717-1e0714bb2fb6"},"vehicle_type_id":"4","last_reported":1729177663,"current_range_meters":37600,"station_id":"ce4bhi12rcd13ifvqfq0","pricing_plan_id":"cebpf4jnsgd1na2vs0mg"},{"bike_id":"6300df2c-b9fe-4275-916d-dd75e59140c9","system_id":"levelo_inurba_marseille","lat":43.23196,"lon":5.35547,"is_reserved":false,"is_disabled":false,"rental_uris":{"android":"levelo://app?vid=6300df2c-b9fe-4275-916d-dd75e59140c9","ios":"levelo://app?vid=6300df2c-b9fe-4275-916d-dd75e59140c9"},"vehicle_type_id":"4","last_reported":1729177663,"current_range_meters":32800,"station_id":"ce4bhu92rcd13ifvqi70","pricing_plan_id":"cebpf4jnsgd1na2vs0mg"},{"bike_id":"9639a337-6ab9-4f66-9e6e-d0bf5dde7ef3","system_id":"levelo_inurba_marseille","lat":43.28615,"lon":5.35108,"is_reserved":false,"is_disabled":false,"rental_uris":{"android":"levelo://app?vid=9639a337-6ab9-4f66-9e6e-d0bf5dde7ef3","ios":"levelo://app?vid=9639a337-6ab9-4f66-9e6e-d0bf5dde7ef3"},"vehicle_type_id":"4","last_reported":1729177663,"current_range_meters":38800,"station_id":"ce4bhch2rcd13ifvqeug","pricing_plan_id":"cebpf4jnsgd1na2vs0mg"},{"bike_id":"59238a0c-de64-46a6-a64a-5a5563ed932a","system_id":"levelo_inurba_marseille","lat":43.22933,"lon":5.35373,"is_reserved":false,"is_disabled":false,"rental_uris":{"android":"levelo://app?vid=59238a0c-de64-46a6-a64a-5a5563ed932a","ios":"levelo://app?vid=59238a0c-de64-46a6-a64a-5a5563ed932a"},"vehicle_type_id":"4","last_reported":1729177663,"current_range_meters":30000,"station_id":"cpo3532slgdg3j2ikp40","pricing_plan_id":"cebpf4jnsgd1na2vs0mg"},{"bike_id":"58b28996-1404-4d49-98cf-763089a221c3","system_id":"levelo_inurba_marseille","lat":43.31071,"lon":5.38356,"is_reserved":false,"is_disabled":false,"rental_uris":{"android":"levelo://app?vid=58b28996-1404-4d49-98cf-763089a221c3","ios":"levelo://app?vid=58b28996-1404-4d49-98cf-763089a221c3"},"vehicle_type_id":"4","last_reported":1729177663,"current_range_meters":28400,"station_id":"ce4bgv92rcd13ifvqcr0","pricing_plan_id":"cebpf4jnsgd1na2vs0mg"},{"bike_id":"dbc67f23-18e3-40c1-ac32-afdf6bab2fd6","system_id":"levelo_inurba_marseille","lat":43.30911,"lon":5.36863,"is_reserved":false,"is_disabled":false,"rental_uris":{"android":"levelo://app?vid=dbc67f23-18e3-40c1-ac32-afdf6bab2fd6","ios":"levelo://app?vid=dbc67f23-18e3-40c1-ac32-afdf6bab2fd6"},"vehicle_type_id":"4","last_reported":1729177663,"current_range_meters":34800,"station_id":"ce4bgn92rcd13ifvqbvg","pricing_plan_id":"cebpf4jnsgd1na2vs0mg"},{"bike_id":"c23ad615-74bf-451f-a10e-90acbbe74911","system_id":"levelo_inurba_marseille","lat":43.27815,"lon":5.40709,"is_reserved":false,"is_disabled":false,"rental_uris":{"android":"levelo://app?vid=c23ad615-74bf-451f-a10e-90acbbe74911","ios":"levelo://app?vid=c23ad615-74bf-451f-a10e-90acbbe74911"},"vehicle_type_id":"4","last_reported":1729177663,"current_range_meters":39200,"station_id":"ce4bhnh2rcd13ifvqgtg","pricing_plan_id":"cebpf4jnsgd1na2vs0mg"},{"bike_id":"b6d87129-fb4d-4c55-bee6-cb05ba3cdb6c","system_id":"levelo_inurba_marseille","lat":43.24651,"lon":5.38891,"is_reserved":false,"is_disabled":false,"rental_uris":{"android":"levelo://app?vid=b6d87129-fb4d-4c55-bee6-cb05ba3cdb6c","ios":"levelo://app?vid=b6d87129-fb4d-4c55-bee6-cb05ba3cdb6c"},"vehicle_type_id":"4","last_reported":1729177663,"current_range_meters":6800,"station_id":"ce4bhg12rcd13ifvqf60","pricing_plan_id":"cebpf4jnsgd1na2vs0mg"},{"bike_id":"94dad7f8-6585-4b37-b691-74420d23ef13","system_id":"levelo_inurba_marseille","lat":43.30802,"lon":5.43517,"is_reserved":false,"is_disabled":false,"rental_uris":{"android":"levelo://app?vid=94dad7f8-6585-4b37-b691-74420d23ef13","ios":"levelo://app?vid=94dad7f8-6585-4b37-b691-74420d23ef13"},"vehicle_type_id":"4","last_reported":1729177663,"current_range_meters":39200,"station_id":"ce4bhph2rcd13ifvqheg","pricing_plan_id":"cebpf4jnsgd1na2vs0mg"},{"bike_id":"a2b2864f-6afb-46e5-a502-9789958951c7","system_id":"levelo_inurba_marseille","lat":43.25934,"lon":5.40907,"is_reserved":false,"is_disabled":false,"rental_uris":{"android":"levelo://app?vid=a2b2864f-6afb-46e5-a502-9789958951c7","ios":"levelo://app?vid=a2b2864f-6afb-46e5-a502-9789958951c7"},"vehicle_type_id":"4","last_reported":1729177663,"current_range_meters":37600,"station_id":"ce4bhm92rcd13ifvqglg","pricing_plan_id":"cebpf4jnsgd1na2vs0mg"},{"bike_id":"4562e9bb-7c1e-4e0e-95e1-858d0f8d86d1","system_id":"levelo_inurba_marseille","lat":43.23196,"lon":5.35553,"is_reserved":false,"is_disabled":false,"rental_uris":{"android":"levelo://app?vid=4562e9bb-7c1e-4e0e-95e1-858d0f8d86d1","ios":"levelo://app?vid=4562e9bb-7c1e-4e0e-95e1-858d0f8d86d1"},"vehicle_type_id":"4","last_reported":1729177663,"current_range_meters":6800,"station_id":"ce4bhu92rcd13ifvqi70","pricing_plan_id":"cebpf4jnsgd1na2vs0mg"},{"bike_id":"2b432ce9-2306-4927-86b9-3fa78c27ffe8","system_id":"levelo_inurba_marseille","lat":43.24547,"lon":5.39531,"is_reserved":false,"is_disabled":false,"rental_uris":{"android":"levelo://app?vid=2b432ce9-2306-4927-86b9-3fa78c27ffe8","ios":"levelo://app?vid=2b432ce9-2306-4927-86b9-3fa78c27ffe8"},"vehicle_type_id":"4","last_reported":1729177663,"current_range_meters":12800,"station_id":"ce4bhlp2rcd13ifvqgjg","pricing_plan_id":"cebpf4jnsgd1na2vs0mg"},{"bike_id":"2140b6a3-5118-4150-823e-9225aeb56201","system_id":"levelo_inurba_marseille","lat":43.23198,"lon":5.35548,"is_reserved":false,"is_disabled":false,"rental_uris":{"android":"levelo://app?vid=2140b6a3-5118-4150-823e-9225aeb56201","ios":"levelo://app?vid=2140b6a3-5118-4150-823e-9225aeb56201"},"vehicle_type_id":"4","last_reported":1729177663,"current_range_meters":36400,"station_id":"ce4bhu92rcd13ifvqi70","pricing_plan_id":"cebpf4jnsgd1na2vs0mg"},{"bike_id":"375aba81-68ac-47d6-a3f1-cc6de7755cb9","system_id":"levelo_inurba_marseille","lat":43.25577,"lon":5.38222,"is_reserved":false,"is_disabled":false,"rental_uris":{"android":"levelo://app?vid=375aba81-68ac-47d6-a3f1-cc6de7755cb9","ios":"levelo://app?vid=375aba81-68ac-47d6-a3f1-cc6de7755cb9"},"vehicle_type_id":"4","last_reported":1729177663,"current_range_meters":32000,"station_id":"ce4bhih2rcd13ifvqfs0","pricing_plan_id":"cebpf4jnsgd1na2vs0mg"},{"bike_id":"34b91ea3-b3cf-4188-8741-02188a0be998","system_id":"levelo_inurba_marseille","lat":43.25582,"lon":5.38241,"is_reserved":false,"is_disabled":false,"rental_uris":{"android":"levelo://app?vid=34b91ea3-b3cf-4188-8741-02188a0be998","ios":"levelo://app?vid=34b91ea3-b3cf-4188-8741-02188a0be998"},"vehicle_type_id":"4","last_reported":1729177663,"current_range_meters":35200,"station_id":"ce4bhih2rcd13ifvqfs0","pricing_plan_id":"cebpf4jnsgd1na2vs0mg"},{"bike_id":"55dcab7d-0676-4644-af26-5612a2ee6dec","system_id":"levelo_inurba_marseille","lat":43.24804,"lon":5.37457,"is_reserved":false,"is_disabled":false,"rental_uris":{"android":"levelo://app?vid=55dcab7d-0676-4644-af26-5612a2ee6dec","ios":"levelo://app?vid=55dcab7d-0676-4644-af26-5612a2ee6dec"},"vehicle_type_id":"4","last_reported":1729177663,"current_range_meters":38800,"station_id":"ce4bhgh2rcd13ifvqfb0","pricing_plan_id":"cebpf4jnsgd1na2vs0mg"},{"bike_id":"91ada931-64c8-4b8e-9340-9388c913ed27","system_id":"levelo_inurba_marseille","lat":43.28415,"lon":5.34989,"is_reserved":false,"is_disabled":false,"rental_uris":{"android":"levelo://app?vid=91ada931-64c8-4b8e-9340-9388c913ed27","ios":"levelo://app?vid=91ada931-64c8-4b8e-9340-9388c913ed27"},"vehicle_type_id":"4","last_reported":1729177663,"current_range_meters":16000,"station_id":"ce4bhbh2rcd13ifvqepg","pricing_plan_id":"cebpf4jnsgd1na2vs0mg"},{"bike_id":"974e9931-6d20-4545-9e5e-b40e518c0577","system_id":"levelo_inurba_marseille","lat":43.27816,"lon":5.40712,"is_reserved":false,"is_disabled":false,"rental_uris":{"android":"levelo://app?vid=974e9931-6d20-4545-9e5e-b40e518c0577","ios":"levelo://app?vid=974e9931-6d20-4545-9e5e-b40e518c0577"},"vehicle_type_id":"4","last_reported":1729177663,"current_range_meters":30800,"station_id":"ce4bhnh2rcd13ifvqgtg","pricing_plan_id":"cebpf4jnsgd1na2vs0mg"},{"bike_id":"42232278-61db-4665-b375-a7d1e3018bce","system_id":"levelo_inurba_marseille","lat":43.31071,"lon":5.3836,"is_reserved":false,"is_disabled":false,"rental_uris":{"android":"levelo://app?vid=42232278-61db-4665-b375-a7d1e3018bce","ios":"levelo://app?vid=42232278-61db-4665-b375-a7d1e3018bce"},"vehicle_type_id":"4","last_reported":1729177663,"current_range_meters":17200,"station_id":"ce4bgv92rcd13ifvqcr0","pricing_plan_id":"cebpf4jnsgd1na2vs0mg"},{"bike_id":"83bcafb6-7740-4133-8b56-4bf302222f17","system_id":"levelo_inurba_marseille","lat":43.239647,"lon":5.366383,"is_reserved":false,"is_disabled":false,"rental_uris":{"android":"levelo://app?vid=83bcafb6-7740-4133-8b56-4bf302222f17","ios":"levelo://app?vid=83bcafb6-7740-4133-8b56-4bf302222f17"},"vehicle_type_id":"4","last_reported":1729177663,"current_range_meters":4000,"station_id":"ce4bhi12rcd13ifvqfp0","pricing_plan_id":"cebpf4jnsgd1na2vs0mg"},{"bike_id":"7772d39f-5e28-445c-af91-069b0cf63793","system_id":"levelo_inurba_marseille","lat":43.33747,"lon":5.37433,"is_reserved":false,"is_disabled":false,"rental_uris":{"android":"levelo://app?vid=7772d39f-5e28-445c-af91-069b0cf63793","ios":"levelo://app?vid=7772d39f-5e28-445c-af91-069b0cf63793"},"vehicle_type_id":"4","last_reported":1729177663,"current_range_meters":16400,"station_id":"","pricing_plan_id":"cebpf4jnsgd1na2vs0mg"},{"bike_id":"c92ac54d-d1e3-468a-8c11-aa5edc6acbad","system_id":"levelo_inurba_marseille","lat":43.32479,"lon":5.36584,"is_reserved":false,"is_disabled":false,"rental_uris":{"android":"levelo://app?vid=c92ac54d-d1e3-468a-8c11-aa5edc6acbad","ios":"levelo://app?vid=c92ac54d-d1e3-468a-8c11-aa5edc6acbad"},"vehicle_type_id":"4","last_reported":1729177663,"current_range_meters":26800,"station_id":"ce4bhs12rcd13ifvqhvg","pricing_plan_id":"cebpf4jnsgd1na2vs0mg"},{"bike_id":"3213665e-989c-4d22-9f5a-31c8522597dd","system_id":"levelo_inurba_marseille","lat":43.296,"lon":5.36142,"is_reserved":false,"is_disabled":false,"rental_uris":{"android":"levelo://app?vid=3213665e-989c-4d22-9f5a-31c8522597dd","ios":"levelo://app?vid=3213665e-989c-4d22-9f5a-31c8522597dd"},"vehicle_type_id":"4","last_reported":1729177663,"current_range_meters":28000,"station_id":"","pricing_plan_id":"cebpf4jnsgd1na2vs0mg"},{"bike_id":"cddb2538-acdb-46a5-bc95-6e0a8d74ef0c","system_id":"levelo_inurba_marseille","lat":43.30806,"lon":5.43519,"is_reserved":false,"is_disabled":false,"rental_uris":{"android":"levelo://app?vid=cddb2538-acdb-46a5-bc95-6e0a8d74ef0c","ios":"levelo://app?vid=cddb2538-acdb-46a5-bc95-6e0a8d74ef0c"},"vehicle_type_id":"4","last_reported":1729177663,"current_range_meters":35600,"station_id":"ce4bhph2rcd13ifvqheg","pricing_plan_id":"cebpf4jnsgd1na2vs0mg"},{"bike_id":"27e458d8-c932-4954-b627-1c9d5c6824dc","system_id":"levelo_inurba_marseille","lat":43.31757,"lon":5.39029,"is_reserved":false,"is_disabled":false,"rental_uris":{"android":"levelo://app?vid=27e458d8-c932-4954-b627-1c9d5c6824dc","ios":"levelo://app?vid=27e458d8-c932-4954-b627-1c9d5c6824dc"},"vehicle_type_id":"4","last_reported":1729177663,"current_range_meters":31200,"station_id":"ce4bhqp2rcd13ifvqhng","pricing_plan_id":"cebpf4jnsgd1na2vs0mg"},{"bike_id":"1641b826-604a-4181-8231-dca386f637a6","system_id":"levelo_inurba_marseille","lat":43.23195,"lon":5.35551,"is_reserved":false,"is_disabled":false,"rental_uris":{"android":"levelo://app?vid=1641b826-604a-4181-8231-dca386f637a6","ios":"levelo://app?vid=1641b826-604a-4181-8231-dca386f637a6"},"vehicle_type_id":"4","last_reported":1729177663,"current_range_meters":34000,"station_id":"ce4bhu92rcd13ifvqi70","pricing_plan_id":"cebpf4jnsgd1na2vs0mg"},{"bike_id":"89211ee2-076f-4df3-92bd-cd8885f2e76d","system_id":"levelo_inurba_marseille","lat":43.23195,"lon":5.35551,"is_reserved":false,"is_disabled":false,"rental_uris":{"android":"levelo://app?vid=89211ee2-076f-4df3-92bd-cd8885f2e76d","ios":"levelo://app?vid=89211ee2-076f-4df3-92bd-cd8885f2e76d"},"vehicle_type_id":"4","last_reported":1729177663,"current_range_meters":33200,"station_id":"ce4bhu92rcd13ifvqi70","pricing_plan_id":"cebpf4jnsgd1na2vs0mg"},{"bike_id":"0dd11e69-8265-4948-a1b2-07a8476c950e","system_id":"levelo_inurba_marseille","lat":43.236511,"lon":5.381883,"is_reserved":false,"is_disabled":false,"rental_uris":{"android":"levelo://app?vid=0dd11e69-8265-4948-a1b2-07a8476c950e","ios":"levelo://app?vid=0dd11e69-8265-4948-a1b2-07a8476c950e"},"vehicle_type_id":"4","last_reported":1729177663,"current_range_meters":16400,"station_id":"","pricing_plan_id":"cebpf4jnsgd1na2vs0mg"},{"bike_id":"239adf5a-cadf-45cd-ac39-1b6537be508b","system_id":"levelo_inurba_marseille","lat":43.27887,"lon":5.38004,"is_reserved":false,"is_disabled":false,"rental_uris":{"android":"levelo://app?vid=239adf5a-cadf-45cd-ac39-1b6537be508b","ios":"levelo://app?vid=239adf5a-cadf-45cd-ac39-1b6537be508b"},"vehicle_type_id":"4","last_reported":1729177663,"current_range_meters":19200,"station_id":"ce4bhf92rcd13ifvqf50","pricing_plan_id":"cebpf4jnsgd1na2vs0mg"},{"bike_id":"64889850-7079-4b67-a508-0a94382bf846","system_id":"levelo_inurba_marseille","lat":43.31354,"lon":5.36734,"is_reserved":false,"is_disabled":false,"rental_uris":{"android":"levelo://app?vid=64889850-7079-4b67-a508-0a94382bf846","ios":"levelo://app?vid=64889850-7079-4b67-a508-0a94382bf846"},"vehicle_type_id":"4","last_reported":1729177663,"current_range_meters":38800,"station_id":"ce4bgr92rcd13ifvqc6g","pricing_plan_id":"cebpf4jnsgd1na2vs0mg"},{"bike_id":"4ff96d6f-9f03-4a05-b487-e9043a5e893c","system_id":"levelo_inurba_marseille","lat":43.29033,"lon":5.37573,"is_reserved":false,"is_disabled":false,"rental_uris":{"android":"levelo://app?vid=4ff96d6f-9f03-4a05-b487-e9043a5e893c","ios":"levelo://app?vid=4ff96d6f-9f03-4a05-b487-e9043a5e893c"},"vehicle_type_id":"4","last_reported":1729177663,"current_range_meters":11200,"station_id":"ce4bh692rcd13ifvqe90","pricing_plan_id":"cebpf4jnsgd1na2vs0mg"},{"bike_id":"5c6f825b-09d8-4b84-a00e-f9a3b6b6faf5","system_id":"levelo_inurba_marseille","lat":43.31077,"lon":5.38356,"is_reserved":false,"is_disabled":false,"rental_uris":{"android":"levelo://app?vid=5c6f825b-09d8-4b84-a00e-f9a3b6b6faf5","ios":"levelo://app?vid=5c6f825b-09d8-4b84-a00e-f9a3b6b6faf5"},"vehicle_type_id":"4","last_reported":1729177663,"current_range_meters":19600,"station_id":"ce4bgv92rcd13ifvqcr0","pricing_plan_id":"cebpf4jnsgd1na2vs0mg"},{"bike_id":"d39a5687-1116-472f-a8fb-62c0d09c90d0","system_id":"levelo_inurba_marseille","lat":43.23152,"lon":5.43711,"is_reserved":false,"is_disabled":false,"rental_uris":{"android":"levelo://app?vid=d39a5687-1116-472f-a8fb-62c0d09c90d0","ios":"levelo://app?vid=d39a5687-1116-472f-a8fb-62c0d09c90d0"},"vehicle_type_id":"4","last_reported":1729177663,"current_range_meters":38800,"station_id":"ce4bhmp2rcd13ifvqgog","pricing_plan_id":"cebpf4jnsgd1na2vs0mg"},{"bike_id":"f88c7e01-bc8c-4735-8a37-e29425c30c87","system_id":"levelo_inurba_marseille","lat":43.23191,"lon":5.39988,"is_reserved":false,"is_disabled":false,"rental_uris":{"android":"levelo://app?vid=f88c7e01-bc8c-4735-8a37-e29425c30c87","ios":"levelo://app?vid=f88c7e01-bc8c-4735-8a37-e29425c30c87"},"vehicle_type_id":"4","last_reported":1729177663,"current_range_meters":12000,"station_id":"ce4bhn12rcd13ifvqgqg","pricing_plan_id":"cebpf4jnsgd1na2vs0mg"},{"bike_id":"ecb34647-7182-4824-bb3f-dc0c6b523c79","system_id":"levelo_inurba_marseille","lat":43.33752,"lon":5.37458,"is_reserved":false,"is_disabled":false,"rental_uris":{"android":"levelo://app?vid=ecb34647-7182-4824-bb3f-dc0c6b523c79","ios":"levelo://app?vid=ecb34647-7182-4824-bb3f-dc0c6b523c79"},"vehicle_type_id":"4","last_reported":1729177663,"current_range_meters":28000,"station_id":"","pricing_plan_id":"cebpf4jnsgd1na2vs0mg"},{"bike_id":"c8687817-23e8-4d53-870b-25e31ac622ca","system_id":"levelo_inurba_marseille","lat":43.28619,"lon":5.35101,"is_reserved":false,"is_disabled":false,"rental_uris":{"android":"levelo://app?vid=c8687817-23e8-4d53-870b-25e31ac622ca","ios":"levelo://app?vid=c8687817-23e8-4d53-870b-25e31ac622ca"},"vehicle_type_id":"4","last_reported":1729177663,"current_range_meters":20000,"station_id":"ce4bhch2rcd13ifvqeug","pricing_plan_id":"cebpf4jnsgd1na2vs0mg"},{"bike_id":"14deb1b1-b495-4b35-97c2-895a5ef7ad23","system_id":"levelo_inurba_marseille","lat":43.32343,"lon":5.40618,"is_reserved":false,"is_disabled":false,"rental_uris":{"android":"levelo://app?vid=14deb1b1-b495-4b35-97c2-895a5ef7ad23","ios":"levelo://app?vid=14deb1b1-b495-4b35-97c2-895a5ef7ad23"},"vehicle_type_id":"4","last_reported":1729177663,"current_range_meters":38000,"station_id":"ce4bhq92rcd13ifvqhjg","pricing_plan_id":"cebpf4jnsgd1na2vs0mg"},{"bike_id":"f751c42e-a252-48c0-9d1a-88f35665b70e","system_id":"levelo_inurba_marseille","lat":43.27811,"lon":5.40712,"is_reserved":false,"is_disabled":false,"rental_uris":{"android":"levelo://app?vid=f751c42e-a252-48c0-9d1a-88f35665b70e","ios":"levelo://app?vid=f751c42e-a252-48c0-9d1a-88f35665b70e"},"vehicle_type_id":"4","last_reported":1729177663,"current_range_meters":34800,"station_id":"ce4bhnh2rcd13ifvqgtg","pricing_plan_id":"cebpf4jnsgd1na2vs0mg"},{"bike_id":"9ee6c5ee-3afd-4870-b619-9141b86179cc","system_id":"levelo_inurba_marseille","lat":43.28042,"lon":5.36944,"is_reserved":false,"is_disabled":false,"rental_uris":{"android":"levelo://app?vid=9ee6c5ee-3afd-4870-b619-9141b86179cc","ios":"levelo://app?vid=9ee6c5ee-3afd-4870-b619-9141b86179cc"},"vehicle_type_id":"4","last_reported":1729177663,"current_range_meters":26000,"station_id":"ce4bha12rcd13ifvqef0","pricing_plan_id":"cebpf4jnsgd1na2vs0mg"},{"bike_id":"87440bd7-4730-412f-b52f-03b263c3d6ba","system_id":"levelo_inurba_marseille","lat":43.2319,"lon":5.35555,"is_reserved":false,"is_disabled":false,"rental_uris":{"android":"levelo://app?vid=87440bd7-4730-412f-b52f-03b263c3d6ba","ios":"levelo://app?vid=87440bd7-4730-412f-b52f-03b263c3d6ba"},"vehicle_type_id":"4","last_reported":1729177663,"current_range_meters":18800,"station_id":"ce4bhu92rcd13ifvqi70","pricing_plan_id":"cebpf4jnsgd1na2vs0mg"},{"bike_id":"a76f2a01-609c-4fa7-bd5c-e42e933bfb84","system_id":"levelo_inurba_marseille","lat":43.32112,"lon":5.36778,"is_reserved":false,"is_disabled":false,"rental_uris":{"android":"levelo://app?vid=a76f2a01-609c-4fa7-bd5c-e42e933bfb84","ios":"levelo://app?vid=a76f2a01-609c-4fa7-bd5c-e42e933bfb84"},"vehicle_type_id":"4","last_reported":1729177663,"current_range_meters":38800,"station_id":"ce4bhrh2rcd13ifvqhug","pricing_plan_id":"cebpf4jnsgd1na2vs0mg"},{"bike_id":"8937c157-fc3b-4704-af92-e339d8163a54","system_id":"levelo_inurba_marseille","lat":43.29587,"lon":5.36735,"is_reserved":false,"is_disabled":false,"rental_uris":{"android":"levelo://app?vid=8937c157-fc3b-4704-af92-e339d8163a54","ios":"levelo://app?vid=8937c157-fc3b-4704-af92-e339d8163a54"},"vehicle_type_id":"4","last_reported":1729177663,"current_range_meters":22800,"station_id":"ce4bgph2rcd13ifvqc2g","pricing_plan_id":"cebpf4jnsgd1na2vs0mg"},{"bike_id":"e0fb599f-49be-4791-9f9a-227b59ea56c1","system_id":"levelo_inurba_marseille","lat":43.29619,"lon":5.37174,"is_reserved":false,"is_disabled":false,"rental_uris":{"android":"levelo://app?vid=e0fb599f-49be-4791-9f9a-227b59ea56c1","ios":"levelo://app?vid=e0fb599f-49be-4791-9f9a-227b59ea56c1"},"vehicle_type_id":"4","last_reported":1729177663,"current_range_meters":38800,"station_id":"ce4bgnh2rcd13ifvqc0g","pricing_plan_id":"cebpf4jnsgd1na2vs0mg"},{"bike_id":"8b52cae9-7e47-4af1-ba65-5f35a0a09f7f","system_id":"levelo_inurba_marseille","lat":43.28465,"lon":5.35888,"is_reserved":false,"is_disabled":false,"rental_uris":{"android":"levelo://app?vid=8b52cae9-7e47-4af1-ba65-5f35a0a09f7f","ios":"levelo://app?vid=8b52cae9-7e47-4af1-ba65-5f35a0a09f7f"},"vehicle_type_id":"4","last_reported":1729177663,"current_range_meters":28000,"station_id":"ce4bhah2rcd13ifvqei0","pricing_plan_id":"cebpf4jnsgd1na2vs0mg"},{"bike_id":"42805c1b-360a-4c14-b002-8c3c0210a70b","system_id":"levelo_inurba_marseille","lat":43.30088,"lon":5.39076,"is_reserved":false,"is_disabled":false,"rental_uris":{"android":"levelo://app?vid=42805c1b-360a-4c14-b002-8c3c0210a70b","ios":"levelo://app?vid=42805c1b-360a-4c14-b002-8c3c0210a70b"},"vehicle_type_id":"4","last_reported":1729177663,"current_range_meters":10800,"station_id":"ce4bh192rcd13ifvqdb0","pricing_plan_id":"cebpf4jnsgd1na2vs0mg"},{"bike_id":"384fc17d-da3f-4ef9-9eef-55479fb56c35","system_id":"levelo_inurba_marseille","lat":43.33025,"lon":5.39041,"is_reserved":false,"is_disabled":false,"rental_uris":{"android":"levelo://app?vid=384fc17d-da3f-4ef9-9eef-55479fb56c35","ios":"levelo://app?vid=384fc17d-da3f-4ef9-9eef-55479fb56c35"},"vehicle_type_id":"4","last_reported":1729177663,"current_range_meters":8000,"station_id":"ce4bhr92rcd13ifvqhrg","pricing_plan_id":"cebpf4jnsgd1na2vs0mg"},{"bike_id":"8922fd5d-e980-4655-b255-0360053d0a27","system_id":"levelo_inurba_marseille","lat":43.24681,"lon":5.3817,"is_reserved":false,"is_disabled":false,"rental_uris":{"android":"levelo://app?vid=8922fd5d-e980-4655-b255-0360053d0a27","ios":"levelo://app?vid=8922fd5d-e980-4655-b255-0360053d0a27"},"vehicle_type_id":"4","last_reported":1729177663,"current_range_meters":3600,"station_id":"ce4bhih2rcd13ifvqfr0","pricing_plan_id":"cebpf4jnsgd1na2vs0mg"},{"bike_id":"b35fdb6c-1266-47a1-8e12-3417e7233c4c","system_id":"levelo_inurba_marseille","lat":43.276001,"lon":5.360968,"is_reserved":false,"is_disabled":false,"rental_uris":{"android":"levelo://app?vid=b35fdb6c-1266-47a1-8e12-3417e7233c4c","ios":"levelo://app?vid=b35fdb6c-1266-47a1-8e12-3417e7233c4c"},"vehicle_type_id":"4","last_reported":1729177663,"current_range_meters":24400,"station_id":"ce4bgj92rcd13ifvqbe0","pricing_plan_id":"cebpf4jnsgd1na2vs0mg"},{"bike_id":"3c0f0b19-6e4c-45b2-b2c5-0f546f0b121c","system_id":"levelo_inurba_marseille","lat":43.23965,"lon":5.3663,"is_reserved":false,"is_disabled":false,"rental_uris":{"android":"levelo://app?vid=3c0f0b19-6e4c-45b2-b2c5-0f546f0b121c","ios":"levelo://app?vid=3c0f0b19-6e4c-45b2-b2c5-0f546f0b121c"},"vehicle_type_id":"4","last_reported":1729177663,"current_range_meters":38800,"station_id":"ce4bhi12rcd13ifvqfp0","pricing_plan_id":"cebpf4jnsgd1na2vs0mg"},{"bike_id":"2e867288-ad22-4fe8-8aad-00a9069c9413","system_id":"levelo_inurba_marseille","lat":43.29555,"lon":5.42297,"is_reserved":false,"is_disabled":false,"rental_uris":{"android":"levelo://app?vid=2e867288-ad22-4fe8-8aad-00a9069c9413","ios":"levelo://app?vid=2e867288-ad22-4fe8-8aad-00a9069c9413"},"vehicle_type_id":"4","last_reported":1729177663,"current_range_meters":28400,"station_id":"ce4bhph2rcd13ifvqhdg","pricing_plan_id":"cebpf4jnsgd1na2vs0mg"},{"bike_id":"c14ef5f2-0e25-4897-bdf5-11a8cb47f4b9","system_id":"levelo_inurba_marseille","lat":43.28424,"lon":5.34993,"is_reserved":false,"is_disabled":false,"rental_uris":{"android":"levelo://app?vid=c14ef5f2-0e25-4897-bdf5-11a8cb47f4b9","ios":"levelo://app?vid=c14ef5f2-0e25-4897-bdf5-11a8cb47f4b9"},"vehicle_type_id":"4","last_reported":1729177663,"current_range_meters":35200,"station_id":"ce4bhbh2rcd13ifvqepg","pricing_plan_id":"cebpf4jnsgd1na2vs0mg"},{"bike_id":"f089d4a1-7823-433a-a1c5-4fe27519edd0","system_id":"levelo_inurba_marseille","lat":43.23964,"lon":5.3663,"is_reserved":false,"is_disabled":false,"rental_uris":{"android":"levelo://app?vid=f089d4a1-7823-433a-a1c5-4fe27519edd0","ios":"levelo://app?vid=f089d4a1-7823-433a-a1c5-4fe27519edd0"},"vehicle_type_id":"4","last_reported":1729177663,"current_range_meters":34000,"station_id":"ce4bhi12rcd13ifvqfp0","pricing_plan_id":"cebpf4jnsgd1na2vs0mg"},{"bike_id":"2901ff37-0119-4f7b-91fb-d7fdf0736260","system_id":"levelo_inurba_marseille","lat":43.2293,"lon":5.35374,"is_reserved":false,"is_disabled":false,"rental_uris":{"android":"levelo://app?vid=2901ff37-0119-4f7b-91fb-d7fdf0736260","ios":"levelo://app?vid=2901ff37-0119-4f7b-91fb-d7fdf0736260"},"vehicle_type_id":"4","last_reported":1729177663,"current_range_meters":31200,"station_id":"cpo3532slgdg3j2ikp40","pricing_plan_id":"cebpf4jnsgd1na2vs0mg"},{"bike_id":"e12d7043-75bc-4dfb-a367-204053bfdd2e","system_id":"levelo_inurba_marseille","lat":43.27073,"lon":5.42281,"is_reserved":false,"is_disabled":false,"rental_uris":{"android":"levelo://app?vid=e12d7043-75bc-4dfb-a367-204053bfdd2e","ios":"levelo://app?vid=e12d7043-75bc-4dfb-a367-204053bfdd2e"},"vehicle_type_id":"4","last_reported":1729177663,"current_range_meters":32800,"station_id":"ce4bhk92rcd13ifvqgb0","pricing_plan_id":"cebpf4jnsgd1na2vs0mg"},{"bike_id":"349b53eb-abab-4e70-a7cb-44bc347603bb","system_id":"levelo_inurba_marseille","lat":43.27432,"lon":5.39428,"is_reserved":false,"is_disabled":false,"rental_uris":{"android":"levelo://app?vid=349b53eb-abab-4e70-a7cb-44bc347603bb","ios":"levelo://app?vid=349b53eb-abab-4e70-a7cb-44bc347603bb"},"vehicle_type_id":"4","last_reported":1729177663,"current_range_meters":10800,"station_id":"ce4bhdp2rcd13ifvqf20","pricing_plan_id":"cebpf4jnsgd1na2vs0mg"},{"bike_id":"d7b43df6-e713-4bba-98bb-6a8cd01631fe","system_id":"levelo_inurba_marseille","lat":43.25497,"lon":5.37648,"is_reserved":false,"is_disabled":false,"rental_uris":{"android":"levelo://app?vid=d7b43df6-e713-4bba-98bb-6a8cd01631fe","ios":"levelo://app?vid=d7b43df6-e713-4bba-98bb-6a8cd01631fe"},"vehicle_type_id":"4","last_reported":1729177663,"current_range_meters":19600,"station_id":"ce4bhh12rcd13ifvqff0","pricing_plan_id":"cebpf4jnsgd1na2vs0mg"},{"bike_id":"25f491e5-d0ff-4e5e-94b3-5535a7d3231b","system_id":"levelo_inurba_marseille","lat":43.24551,"lon":5.39522,"is_reserved":false,"is_disabled":false,"rental_uris":{"android":"levelo://app?vid=25f491e5-d0ff-4e5e-94b3-5535a7d3231b","ios":"levelo://app?vid=25f491e5-d0ff-4e5e-94b3-5535a7d3231b"},"vehicle_type_id":"4","last_reported":1729177663,"current_range_meters":39200,"station_id":"ce4bhlp2rcd13ifvqgjg","pricing_plan_id":"cebpf4jnsgd1na2vs0mg"},{"bike_id":"e902d9ab-417b-48e1-8b1b-cdd015f531bd","system_id":"levelo_inurba_marseille","lat":43.32538,"lon":5.41428,"is_reserved":false,"is_disabled":false,"rental_uris":{"android":"levelo://app?vid=e902d9ab-417b-48e1-8b1b-cdd015f531bd","ios":"levelo://app?vid=e902d9ab-417b-48e1-8b1b-cdd015f531bd"},"vehicle_type_id":"4","last_reported":1729177663,"current_range_meters":28400,"station_id":"ce4bhq12rcd13ifvqhhg","pricing_plan_id":"cebpf4jnsgd1na2vs0mg"},{"bike_id":"5cfb2c17-1b78-4e20-acc2-17d4a93406d9","system_id":"levelo_inurba_marseille","lat":43.25108,"lon":5.40323,"is_reserved":false,"is_disabled":false,"rental_uris":{"android":"levelo://app?vid=5cfb2c17-1b78-4e20-acc2-17d4a93406d9","ios":"levelo://app?vid=5cfb2c17-1b78-4e20-acc2-17d4a93406d9"},"vehicle_type_id":"4","last_reported":1729177663,"current_range_meters":8400,"station_id":"ce4bhlh2rcd13ifvqgig","pricing_plan_id":"cebpf4jnsgd1na2vs0mg"},{"bike_id":"7daa70bf-fe25-41fb-914f-e8eb28f1751f","system_id":"levelo_inurba_marseille","lat":43.26939,"lon":5.40263,"is_reserved":false,"is_disabled":false,"rental_uris":{"android":"levelo://app?vid=7daa70bf-fe25-41fb-914f-e8eb28f1751f","ios":"levelo://app?vid=7daa70bf-fe25-41fb-914f-e8eb28f1751f"},"vehicle_type_id":"4","last_reported":1729177663,"current_range_meters":38800,"station_id":"cjm6bp8fraef2m0cb0m0","pricing_plan_id":"cebpf4jnsgd1na2vs0mg"},{"bike_id":"292b9425-1372-40d4-bf0a-fe57aa779a41","system_id":"levelo_inurba_marseille","lat":43.23065,"lon":5.35492,"is_reserved":false,"is_disabled":false,"rental_uris":{"android":"levelo://app?vid=292b9425-1372-40d4-bf0a-fe57aa779a41","ios":"levelo://app?vid=292b9425-1372-40d4-bf0a-fe57aa779a41"},"vehicle_type_id":"4","last_reported":1729177663,"current_range_meters":24400,"station_id":"cpo3342slgdg3j2ifvpg","pricing_plan_id":"cebpf4jnsgd1na2vs0mg"},{"bike_id":"efeaea61-8512-4b75-bae8-c43941554118","system_id":"levelo_inurba_marseille","lat":43.29587,"lon":5.36739,"is_reserved":false,"is_disabled":false,"rental_uris":{"android":"levelo://app?vid=efeaea61-8512-4b75-bae8-c43941554118","ios":"levelo://app?vid=efeaea61-8512-4b75-bae8-c43941554118"},"vehicle_type_id":"4","last_reported":1729177663,"current_range_meters":27600,"station_id":"ce4bgph2rcd13ifvqc2g","pricing_plan_id":"cebpf4jnsgd1na2vs0mg"},{"bike_id":"1e110387-1354-4d84-8304-0e692788fa0a","system_id":"levelo_inurba_marseille","lat":43.32484,"lon":5.36562,"is_reserved":false,"is_disabled":false,"rental_uris":{"android":"levelo://app?vid=1e110387-1354-4d84-8304-0e692788fa0a","ios":"levelo://app?vid=1e110387-1354-4d84-8304-0e692788fa0a"},"vehicle_type_id":"4","last_reported":1729177663,"current_range_meters":38800,"station_id":"ce4bhs12rcd13ifvqhvg","pricing_plan_id":"cebpf4jnsgd1na2vs0mg"},{"bike_id":"cdbdc306-2882-40a2-a047-8389dcca1e39","system_id":"levelo_inurba_marseille","lat":43.27816,"lon":5.40713,"is_reserved":false,"is_disabled":false,"rental_uris":{"android":"levelo://app?vid=cdbdc306-2882-40a2-a047-8389dcca1e39","ios":"levelo://app?vid=cdbdc306-2882-40a2-a047-8389dcca1e39"},"vehicle_type_id":"4","last_reported":1729177663,"current_range_meters":13600,"station_id":"ce4bhnh2rcd13ifvqgtg","pricing_plan_id":"cebpf4jnsgd1na2vs0mg"},{"bike_id":"9497fbe8-98eb-496b-b549-c1b3cb691053","system_id":"levelo_inurba_marseille","lat":43.32106,"lon":5.36772,"is_reserved":false,"is_disabled":false,"rental_uris":{"android":"levelo://app?vid=9497fbe8-98eb-496b-b549-c1b3cb691053","ios":"levelo://app?vid=9497fbe8-98eb-496b-b549-c1b3cb691053"},"vehicle_type_id":"4","last_reported":1729177663,"current_range_meters":38800,"station_id":"ce4bhrh2rcd13ifvqhug","pricing_plan_id":"cebpf4jnsgd1na2vs0mg"},{"bike_id":"08988468-8fa9-4f52-a127-6f21136bcbfb","system_id":"levelo_inurba_marseille","lat":43.28546,"lon":5.37767,"is_reserved":false,"is_disabled":false,"rental_uris":{"android":"levelo://app?vid=08988468-8fa9-4f52-a127-6f21136bcbfb","ios":"levelo://app?vid=08988468-8fa9-4f52-a127-6f21136bcbfb"},"vehicle_type_id":"4","last_reported":1729177663,"current_range_meters":38000,"station_id":"","pricing_plan_id":"cebpf4jnsgd1na2vs0mg"},{"bike_id":"0a62a6d2-2ae4-477a-b757-af99fdde34a8","system_id":"levelo_inurba_marseille","lat":43.27422,"lon":5.39416,"is_reserved":false,"is_disabled":false,"rental_uris":{"android":"levelo://app?vid=0a62a6d2-2ae4-477a-b757-af99fdde34a8","ios":"levelo://app?vid=0a62a6d2-2ae4-477a-b757-af99fdde34a8"},"vehicle_type_id":"4","last_reported":1729177663,"current_range_meters":34000,"station_id":"ce4bhdp2rcd13ifvqf20","pricing_plan_id":"cebpf4jnsgd1na2vs0mg"},{"bike_id":"689bcdee-f425-4e47-b4e3-d54b3f6e6be5","system_id":"levelo_inurba_marseille","lat":43.30755,"lon":5.39558,"is_reserved":false,"is_disabled":false,"rental_uris":{"android":"levelo://app?vid=689bcdee-f425-4e47-b4e3-d54b3f6e6be5","ios":"levelo://app?vid=689bcdee-f425-4e47-b4e3-d54b3f6e6be5"},"vehicle_type_id":"4","last_reported":1729177663,"current_range_meters":8000,"station_id":"ce4bh012rcd13ifvqcv0","pricing_plan_id":"cebpf4jnsgd1na2vs0mg"},{"bike_id":"af8d8865-e791-462d-aa2b-6c041153b3cb","system_id":"levelo_inurba_marseille","lat":43.24388,"lon":5.37056,"is_reserved":false,"is_disabled":false,"rental_uris":{"android":"levelo://app?vid=af8d8865-e791-462d-aa2b-6c041153b3cb","ios":"levelo://app?vid=af8d8865-e791-462d-aa2b-6c041153b3cb"},"vehicle_type_id":"4","last_reported":1729177663,"current_range_meters":24400,"station_id":"ce4bhhh2rcd13ifvqfk0","pricing_plan_id":"cebpf4jnsgd1na2vs0mg"},{"bike_id":"ff64d6db-334e-4169-8663-4c5003140842","system_id":"levelo_inurba_marseille","lat":43.2842,"lon":5.34986,"is_reserved":false,"is_disabled":false,"rental_uris":{"android":"levelo://app?vid=ff64d6db-334e-4169-8663-4c5003140842","ios":"levelo://app?vid=ff64d6db-334e-4169-8663-4c5003140842"},"vehicle_type_id":"4","last_reported":1729177663,"current_range_meters":6000,"station_id":"ce4bhbh2rcd13ifvqepg","pricing_plan_id":"cebpf4jnsgd1na2vs0mg"},{"bike_id":"08a40ddd-2090-432f-af87-53f8da2dd3a9","system_id":"levelo_inurba_marseille","lat":43.30872,"lon":5.39655,"is_reserved":false,"is_disabled":false,"rental_uris":{"android":"levelo://app?vid=08a40ddd-2090-432f-af87-53f8da2dd3a9","ios":"levelo://app?vid=08a40ddd-2090-432f-af87-53f8da2dd3a9"},"vehicle_type_id":"4","last_reported":1729177663,"current_range_meters":38800,"station_id":"ce4bh012rcd13ifvqcv0","pricing_plan_id":"cebpf4jnsgd1na2vs0mg"},{"bike_id":"d8da4323-1978-489d-accb-b2a2e78b9360","system_id":"levelo_inurba_marseille","lat":43.29554,"lon":5.42288,"is_reserved":false,"is_disabled":false,"rental_uris":{"android":"levelo://app?vid=d8da4323-1978-489d-accb-b2a2e78b9360","ios":"levelo://app?vid=d8da4323-1978-489d-accb-b2a2e78b9360"},"vehicle_type_id":"4","last_reported":1729177663,"current_range_meters":35600,"station_id":"ce4bhph2rcd13ifvqhdg","pricing_plan_id":"cebpf4jnsgd1na2vs0mg"},{"bike_id":"c609b80d-1c8d-4c93-80e5-3b86f3f85ba2","system_id":"levelo_inurba_marseille","lat":43.28569,"lon":5.39504,"is_reserved":false,"is_disabled":false,"rental_uris":{"android":"levelo://app?vid=c609b80d-1c8d-4c93-80e5-3b86f3f85ba2","ios":"levelo://app?vid=c609b80d-1c8d-4c93-80e5-3b86f3f85ba2"},"vehicle_type_id":"4","last_reported":1729177663,"current_range_meters":15200,"station_id":"ce4bh292rcd13ifvqdg0","pricing_plan_id":"cebpf4jnsgd1na2vs0mg"},{"bike_id":"3664398f-378f-46f2-bd12-30042ad8db9d","system_id":"levelo_inurba_marseille","lat":43.23184,"lon":5.3998,"is_reserved":false,"is_disabled":false,"rental_uris":{"android":"levelo://app?vid=3664398f-378f-46f2-bd12-30042ad8db9d","ios":"levelo://app?vid=3664398f-378f-46f2-bd12-30042ad8db9d"},"vehicle_type_id":"4","last_reported":1729177663,"current_range_meters":35200,"station_id":"ce4bhn12rcd13ifvqgqg","pricing_plan_id":"cebpf4jnsgd1na2vs0mg"},{"bike_id":"507f454f-ca5c-4ce1-8d3e-3581fd751fa1","system_id":"levelo_inurba_marseille","lat":43.27815,"lon":5.4071,"is_reserved":false,"is_disabled":false,"rental_uris":{"android":"levelo://app?vid=507f454f-ca5c-4ce1-8d3e-3581fd751fa1","ios":"levelo://app?vid=507f454f-ca5c-4ce1-8d3e-3581fd751fa1"},"vehicle_type_id":"4","last_reported":1729177663,"current_range_meters":29600,"station_id":"ce4bhnh2rcd13ifvqgtg","pricing_plan_id":"cebpf4jnsgd1na2vs0mg"},{"bike_id":"aa7f96ed-cc48-4608-9ca7-688d7b972e79","system_id":"levelo_inurba_marseille","lat":43.29848,"lon":5.36285,"is_reserved":false,"is_disabled":false,"rental_uris":{"android":"levelo://app?vid=aa7f96ed-cc48-4608-9ca7-688d7b972e79","ios":"levelo://app?vid=aa7f96ed-cc48-4608-9ca7-688d7b972e79"},"vehicle_type_id":"4","last_reported":1729177663,"current_range_meters":27600,"station_id":"ce4bgpp2rcd13ifvqc3g","pricing_plan_id":"cebpf4jnsgd1na2vs0mg"},{"bike_id":"a9d80141-cb04-4f88-bcc5-9763572e3517","system_id":"levelo_inurba_marseille","lat":43.23203,"lon":5.35547,"is_reserved":false,"is_disabled":false,"rental_uris":{"android":"levelo://app?vid=a9d80141-cb04-4f88-bcc5-9763572e3517","ios":"levelo://app?vid=a9d80141-cb04-4f88-bcc5-9763572e3517"},"vehicle_type_id":"4","last_reported":1729177663,"current_range_meters":32400,"station_id":"ce4bhu92rcd13ifvqi70","pricing_plan_id":"cebpf4jnsgd1na2vs0mg"},{"bike_id":"35a22db4-7e9d-4709-be91-f373b0a75e57","system_id":"levelo_inurba_marseille","lat":43.33756,"lon":5.37449,"is_reserved":false,"is_disabled":false,"rental_uris":{"android":"levelo://app?vid=35a22db4-7e9d-4709-be91-f373b0a75e57","ios":"levelo://app?vid=35a22db4-7e9d-4709-be91-f373b0a75e57"},"vehicle_type_id":"4","last_reported":1729177663,"current_range_meters":14400,"station_id":"","pricing_plan_id":"cebpf4jnsgd1na2vs0mg"},{"bike_id":"73c81c60-6324-48ed-a11c-a3be0f4dfdd1","system_id":"levelo_inurba_marseille","lat":43.27366,"lon":5.36253,"is_reserved":false,"is_disabled":false,"rental_uris":{"android":"levelo://app?vid=73c81c60-6324-48ed-a11c-a3be0f4dfdd1","ios":"levelo://app?vid=73c81c60-6324-48ed-a11c-a3be0f4dfdd1"},"vehicle_type_id":"4","last_reported":1729177663,"current_range_meters":24000,"station_id":"ce4bhbh2rcd13ifvqeo0","pricing_plan_id":"cebpf4jnsgd1na2vs0mg"},{"bike_id":"aef3ea0c-df5d-4ffe-b82b-bfdcfb6c5877","system_id":"levelo_inurba_marseille","lat":43.30539,"lon":5.36535,"is_reserved":false,"is_disabled":false,"rental_uris":{"android":"levelo://app?vid=aef3ea0c-df5d-4ffe-b82b-bfdcfb6c5877","ios":"levelo://app?vid=aef3ea0c-df5d-4ffe-b82b-bfdcfb6c5877"},"vehicle_type_id":"4","last_reported":1729177663,"current_range_meters":28000,"station_id":"ce4bgs12rcd13ifvqcag","pricing_plan_id":"cebpf4jnsgd1na2vs0mg"},{"bike_id":"239df943-c964-4c9e-abcf-3d657ec6b51b","system_id":"levelo_inurba_marseille","lat":43.30892,"lon":5.37183,"is_reserved":false,"is_disabled":false,"rental_uris":{"android":"levelo://app?vid=239df943-c964-4c9e-abcf-3d657ec6b51b","ios":"levelo://app?vid=239df943-c964-4c9e-abcf-3d657ec6b51b"},"vehicle_type_id":"4","last_reported":1729177663,"current_range_meters":22400,"station_id":"ce4bguh2rcd13ifvqckg","pricing_plan_id":"cebpf4jnsgd1na2vs0mg"},{"bike_id":"4ce6a8a4-f543-406e-9b3b-bf69a485e2ff","system_id":"levelo_inurba_marseille","lat":43.246516,"lon":5.388932,"is_reserved":false,"is_disabled":false,"rental_uris":{"android":"levelo://app?vid=4ce6a8a4-f543-406e-9b3b-bf69a485e2ff","ios":"levelo://app?vid=4ce6a8a4-f543-406e-9b3b-bf69a485e2ff"},"vehicle_type_id":"4","last_reported":1729177663,"current_range_meters":32000,"station_id":"ce4bhg12rcd13ifvqf60","pricing_plan_id":"cebpf4jnsgd1na2vs0mg"},{"bike_id":"1d9ef6b7-35c6-4cb9-b995-00d4765cdbcd","system_id":"levelo_inurba_marseille","lat":43.30885,"lon":5.37187,"is_reserved":false,"is_disabled":false,"rental_uris":{"android":"levelo://app?vid=1d9ef6b7-35c6-4cb9-b995-00d4765cdbcd","ios":"levelo://app?vid=1d9ef6b7-35c6-4cb9-b995-00d4765cdbcd"},"vehicle_type_id":"4","last_reported":1729177663,"current_range_meters":38000,"station_id":"ce4bguh2rcd13ifvqckg","pricing_plan_id":"cebpf4jnsgd1na2vs0mg"},{"bike_id":"8c5fcfef-f4ed-4db0-9a27-7e264e4730f3","system_id":"levelo_inurba_marseille","lat":43.27258,"lon":5.37785,"is_reserved":false,"is_disabled":false,"rental_uris":{"android":"levelo://app?vid=8c5fcfef-f4ed-4db0-9a27-7e264e4730f3","ios":"levelo://app?vid=8c5fcfef-f4ed-4db0-9a27-7e264e4730f3"},"vehicle_type_id":"4","last_reported":1729177663,"current_range_meters":8400,"station_id":"","pricing_plan_id":"cebpf4jnsgd1na2vs0mg"},{"bike_id":"d41309ab-1a1f-4395-acaa-455483c3f8e1","system_id":"levelo_inurba_marseille","lat":43.23194,"lon":5.35559,"is_reserved":false,"is_disabled":false,"rental_uris":{"android":"levelo://app?vid=d41309ab-1a1f-4395-acaa-455483c3f8e1","ios":"levelo://app?vid=d41309ab-1a1f-4395-acaa-455483c3f8e1"},"vehicle_type_id":"4","last_reported":1729177663,"current_range_meters":36800,"station_id":"ce4bhu92rcd13ifvqi70","pricing_plan_id":"cebpf4jnsgd1na2vs0mg"},{"bike_id":"fc9cc624-b42b-48e4-8103-4b39b2ecb0b7","system_id":"levelo_inurba_marseille","lat":43.27811,"lon":5.40704,"is_reserved":false,"is_disabled":false,"rental_uris":{"android":"levelo://app?vid=fc9cc624-b42b-48e4-8103-4b39b2ecb0b7","ios":"levelo://app?vid=fc9cc624-b42b-48e4-8103-4b39b2ecb0b7"},"vehicle_type_id":"4","last_reported":1729177663,"current_range_meters":39200,"station_id":"ce4bhnh2rcd13ifvqgtg","pricing_plan_id":"cebpf4jnsgd1na2vs0mg"},{"bike_id":"d7549997-4341-483a-8fd9-86b42a4b9e0d","system_id":"levelo_inurba_marseille","lat":43.31714,"lon":5.43707,"is_reserved":false,"is_disabled":false,"rental_uris":{"android":"levelo://app?vid=d7549997-4341-483a-8fd9-86b42a4b9e0d","ios":"levelo://app?vid=d7549997-4341-483a-8fd9-86b42a4b9e0d"},"vehicle_type_id":"4","last_reported":1729177663,"current_range_meters":40000,"station_id":"ce4bhp92rcd13ifvqhcg","pricing_plan_id":"cebpf4jnsgd1na2vs0mg"},{"bike_id":"693bc56f-e432-48f1-9c59-a6d5d9a6e662","system_id":"levelo_inurba_marseille","lat":43.24178,"lon":5.39737,"is_reserved":false,"is_disabled":false,"rental_uris":{"android":"levelo://app?vid=693bc56f-e432-48f1-9c59-a6d5d9a6e662","ios":"levelo://app?vid=693bc56f-e432-48f1-9c59-a6d5d9a6e662"},"vehicle_type_id":"4","last_reported":1729177663,"current_range_meters":22400,"station_id":"ce4bhn12rcd13ifvqgpg","pricing_plan_id":"cebpf4jnsgd1na2vs0mg"},{"bike_id":"a8daef43-5a21-4776-8b76-60c76a8caefc","system_id":"levelo_inurba_marseille","lat":43.27812,"lon":5.40702,"is_reserved":false,"is_disabled":false,"rental_uris":{"android":"levelo://app?vid=a8daef43-5a21-4776-8b76-60c76a8caefc","ios":"levelo://app?vid=a8daef43-5a21-4776-8b76-60c76a8caefc"},"vehicle_type_id":"4","last_reported":1729177663,"current_range_meters":6000,"station_id":"ce4bhnh2rcd13ifvqgtg","pricing_plan_id":"cebpf4jnsgd1na2vs0mg"},{"bike_id":"0d0069ad-7704-47b6-b15b-54a87a845bc3","system_id":"levelo_inurba_marseille","lat":43.27319,"lon":5.39071,"is_reserved":false,"is_disabled":false,"rental_uris":{"android":"levelo://app?vid=0d0069ad-7704-47b6-b15b-54a87a845bc3","ios":"levelo://app?vid=0d0069ad-7704-47b6-b15b-54a87a845bc3"},"vehicle_type_id":"4","last_reported":1729177663,"current_range_meters":4800,"station_id":"ce4bhgp2rcd13ifvqfe0","pricing_plan_id":"cebpf4jnsgd1na2vs0mg"},{"bike_id":"033a7f68-f273-426e-84a9-8a3b2c56f6f5","system_id":"levelo_inurba_marseille","lat":43.35134,"lon":5.36817,"is_reserved":false,"is_disabled":false,"rental_uris":{"android":"levelo://app?vid=033a7f68-f273-426e-84a9-8a3b2c56f6f5","ios":"levelo://app?vid=033a7f68-f273-426e-84a9-8a3b2c56f6f5"},"vehicle_type_id":"4","last_reported":1729177663,"current_range_meters":12000,"station_id":"","pricing_plan_id":"cebpf4jnsgd1na2vs0mg"},{"bike_id":"42d77b43-2760-463b-9b95-ab55a28ce10d","system_id":"levelo_inurba_marseille","lat":43.31362,"lon":5.38493,"is_reserved":false,"is_disabled":false,"rental_uris":{"android":"levelo://app?vid=42d77b43-2760-463b-9b95-ab55a28ce10d","ios":"levelo://app?vid=42d77b43-2760-463b-9b95-ab55a28ce10d"},"vehicle_type_id":"4","last_reported":1729177663,"current_range_meters":39200,"station_id":"ce4bgt92rcd13ifvqcf0","pricing_plan_id":"cebpf4jnsgd1na2vs0mg"},{"bike_id":"f02f9497-38fb-4b17-9c9b-da87246afdd0","system_id":"levelo_inurba_marseille","lat":43.32001,"lon":5.38165,"is_reserved":false,"is_disabled":false,"rental_uris":{"android":"levelo://app?vid=f02f9497-38fb-4b17-9c9b-da87246afdd0","ios":"levelo://app?vid=f02f9497-38fb-4b17-9c9b-da87246afdd0"},"vehicle_type_id":"4","last_reported":1729177663,"current_range_meters":26800,"station_id":"ce4bhr12rcd13ifvqhpg","pricing_plan_id":"cebpf4jnsgd1na2vs0mg"},{"bike_id":"895463c7-46e9-40f9-a79e-ba8d0a3a9d8e","system_id":"levelo_inurba_marseille","lat":43.33024,"lon":5.39038,"is_reserved":false,"is_disabled":false,"rental_uris":{"android":"levelo://app?vid=895463c7-46e9-40f9-a79e-ba8d0a3a9d8e","ios":"levelo://app?vid=895463c7-46e9-40f9-a79e-ba8d0a3a9d8e"},"vehicle_type_id":"4","last_reported":1729177663,"current_range_meters":23200,"station_id":"ce4bhr92rcd13ifvqhrg","pricing_plan_id":"cebpf4jnsgd1na2vs0mg"},{"bike_id":"aab86c3b-05bc-4bd1-ab62-cebddc416274","system_id":"levelo_inurba_marseille","lat":43.299847,"lon":5.371749,"is_reserved":false,"is_disabled":false,"rental_uris":{"android":"levelo://app?vid=aab86c3b-05bc-4bd1-ab62-cebddc416274","ios":"levelo://app?vid=aab86c3b-05bc-4bd1-ab62-cebddc416274"},"vehicle_type_id":"4","last_reported":1729177663,"current_range_meters":38800,"station_id":"ce4bgr92rcd13ifvqc7g","pricing_plan_id":"cebpf4jnsgd1na2vs0mg"},{"bike_id":"6c752c55-2526-455b-9ad8-79330a177e42","system_id":"levelo_inurba_marseille","lat":43.3114,"lon":5.42441,"is_reserved":false,"is_disabled":false,"rental_uris":{"android":"levelo://app?vid=6c752c55-2526-455b-9ad8-79330a177e42","ios":"levelo://app?vid=6c752c55-2526-455b-9ad8-79330a177e42"},"vehicle_type_id":"4","last_reported":1729177663,"current_range_meters":4400,"station_id":"","pricing_plan_id":"cebpf4jnsgd1na2vs0mg"},{"bike_id":"7cfbc47a-cb4e-4eb6-b1ae-e6379f86dbaa","system_id":"levelo_inurba_marseille","lat":43.31327,"lon":5.39695,"is_reserved":false,"is_disabled":false,"rental_uris":{"android":"levelo://app?vid=7cfbc47a-cb4e-4eb6-b1ae-e6379f86dbaa","ios":"levelo://app?vid=7cfbc47a-cb4e-4eb6-b1ae-e6379f86dbaa"},"vehicle_type_id":"4","last_reported":1729177663,"current_range_meters":37600,"station_id":"ce4bgvp2rcd13ifvqcu0","pricing_plan_id":"cebpf4jnsgd1na2vs0mg"},{"bike_id":"f93454e1-a669-4c63-a4ca-b572042c7971","system_id":"levelo_inurba_marseille","lat":43.23198,"lon":5.35553,"is_reserved":false,"is_disabled":false,"rental_uris":{"android":"levelo://app?vid=f93454e1-a669-4c63-a4ca-b572042c7971","ios":"levelo://app?vid=f93454e1-a669-4c63-a4ca-b572042c7971"},"vehicle_type_id":"4","last_reported":1729177663,"current_range_meters":14000,"station_id":"ce4bhu92rcd13ifvqi70","pricing_plan_id":"cebpf4jnsgd1na2vs0mg"},{"bike_id":"9feebf6a-cf06-4283-9475-cface9a88761","system_id":"levelo_inurba_marseille","lat":43.30798,"lon":5.43514,"is_reserved":false,"is_disabled":false,"rental_uris":{"android":"levelo://app?vid=9feebf6a-cf06-4283-9475-cface9a88761","ios":"levelo://app?vid=9feebf6a-cf06-4283-9475-cface9a88761"},"vehicle_type_id":"4","last_reported":1729177663,"current_range_meters":38000,"station_id":"ce4bhph2rcd13ifvqheg","pricing_plan_id":"cebpf4jnsgd1na2vs0mg"},{"bike_id":"796ad877-bf62-4c24-8dfd-3269f4743c39","system_id":"levelo_inurba_marseille","lat":43.29496,"lon":5.39395,"is_reserved":false,"is_disabled":false,"rental_uris":{"android":"levelo://app?vid=796ad877-bf62-4c24-8dfd-3269f4743c39","ios":"levelo://app?vid=796ad877-bf62-4c24-8dfd-3269f4743c39"},"vehicle_type_id":"4","last_reported":1729177663,"current_range_meters":36800,"station_id":"ce4bh292rcd13ifvqdf0","pricing_plan_id":"cebpf4jnsgd1na2vs0mg"},{"bike_id":"c0e4a2c2-e2f5-4853-9039-fda7f7153bbc","system_id":"levelo_inurba_marseille","lat":43.29521,"lon":5.389771,"is_reserved":false,"is_disabled":false,"rental_uris":{"android":"levelo://app?vid=c0e4a2c2-e2f5-4853-9039-fda7f7153bbc","ios":"levelo://app?vid=c0e4a2c2-e2f5-4853-9039-fda7f7153bbc"},"vehicle_type_id":"4","last_reported":1729177663,"current_range_meters":6400,"station_id":"","pricing_plan_id":"cebpf4jnsgd1na2vs0mg"},{"bike_id":"3a2f5044-6a4e-44b1-837d-a689e7e6960c","system_id":"levelo_inurba_marseille","lat":43.29081,"lon":5.37164,"is_reserved":false,"is_disabled":false,"rental_uris":{"android":"levelo://app?vid=3a2f5044-6a4e-44b1-837d-a689e7e6960c","ios":"levelo://app?vid=3a2f5044-6a4e-44b1-837d-a689e7e6960c"},"vehicle_type_id":"4","last_reported":1729177663,"current_range_meters":2000,"station_id":"ce4bh5p2rcd13ifvqe4g","pricing_plan_id":"cebpf4jnsgd1na2vs0mg"},{"bike_id":"4c20a178-51c7-422f-8b37-f6ceee512576","system_id":"levelo_inurba_marseille","lat":43.279101,"lon":5.380467,"is_reserved":false,"is_disabled":false,"rental_uris":{"android":"levelo://app?vid=4c20a178-51c7-422f-8b37-f6ceee512576","ios":"levelo://app?vid=4c20a178-51c7-422f-8b37-f6ceee512576"},"vehicle_type_id":"4","last_reported":1729177663,"current_range_meters":36800,"station_id":"ce4bhf92rcd13ifvqf50","pricing_plan_id":"cebpf4jnsgd1na2vs0mg"},{"bike_id":"6a589cec-228f-4fab-a7de-aaeb5823d055","system_id":"levelo_inurba_marseille","lat":43.29195,"lon":5.35809,"is_reserved":false,"is_disabled":false,"rental_uris":{"android":"levelo://app?vid=6a589cec-228f-4fab-a7de-aaeb5823d055","ios":"levelo://app?vid=6a589cec-228f-4fab-a7de-aaeb5823d055"},"vehicle_type_id":"4","last_reported":1729177663,"current_range_meters":23200,"station_id":"","pricing_plan_id":"cebpf4jnsgd1na2vs0mg"},{"bike_id":"c591cf4d-78d0-444f-9b4d-87b883a6d35a","system_id":"levelo_inurba_marseille","lat":43.24671,"lon":5.38163,"is_reserved":false,"is_disabled":false,"rental_uris":{"android":"levelo://app?vid=c591cf4d-78d0-444f-9b4d-87b883a6d35a","ios":"levelo://app?vid=c591cf4d-78d0-444f-9b4d-87b883a6d35a"},"vehicle_type_id":"4","last_reported":1729177663,"current_range_meters":7200,"station_id":"ce4bhih2rcd13ifvqfr0","pricing_plan_id":"cebpf4jnsgd1na2vs0mg"},{"bike_id":"c64877dd-9aab-482c-9582-18c0f2f27a0b","system_id":"levelo_inurba_marseille","lat":43.29876,"lon":5.39746,"is_reserved":false,"is_disabled":false,"rental_uris":{"android":"levelo://app?vid=c64877dd-9aab-482c-9582-18c0f2f27a0b","ios":"levelo://app?vid=c64877dd-9aab-482c-9582-18c0f2f27a0b"},"vehicle_type_id":"4","last_reported":1729177663,"current_range_meters":3200,"station_id":"ce4bh0h2rcd13ifvqd50","pricing_plan_id":"cebpf4jnsgd1na2vs0mg"},{"bike_id":"7b75c883-97e0-48cb-88c7-f83bb2babfa7","system_id":"levelo_inurba_marseille","lat":43.296875,"lon":5.372944,"is_reserved":false,"is_disabled":false,"rental_uris":{"android":"levelo://app?vid=7b75c883-97e0-48cb-88c7-f83bb2babfa7","ios":"levelo://app?vid=7b75c883-97e0-48cb-88c7-f83bb2babfa7"},"vehicle_type_id":"4","last_reported":1729177663,"current_range_meters":32800,"station_id":"","pricing_plan_id":"cebpf4jnsgd1na2vs0mg"},{"bike_id":"4ea5f74d-df6d-49fa-aed6-0ad413cc0385","system_id":"levelo_inurba_marseille","lat":43.30645,"lon":5.40098,"is_reserved":false,"is_disabled":false,"rental_uris":{"android":"levelo://app?vid=4ea5f74d-df6d-49fa-aed6-0ad413cc0385","ios":"levelo://app?vid=4ea5f74d-df6d-49fa-aed6-0ad413cc0385"},"vehicle_type_id":"4","last_reported":1729177663,"current_range_meters":18800,"station_id":"ce4bh112rcd13ifvqda0","pricing_plan_id":"cebpf4jnsgd1na2vs0mg"},{"bike_id":"7c3c6450-daf6-48ca-9975-755b124ba804","system_id":"levelo_inurba_marseille","lat":43.28718,"lon":5.40001,"is_reserved":false,"is_disabled":false,"rental_uris":{"android":"levelo://app?vid=7c3c6450-daf6-48ca-9975-755b124ba804","ios":"levelo://app?vid=7c3c6450-daf6-48ca-9975-755b124ba804"},"vehicle_type_id":"4","last_reported":1729177663,"current_range_meters":8000,"station_id":"ce4bho92rcd13ifvqh3g","pricing_plan_id":"cebpf4jnsgd1na2vs0mg"},{"bike_id":"ffc8ebd1-7e19-4572-bfae-944ca9c54106","system_id":"levelo_inurba_marseille","lat":43.25116,"lon":5.40323,"is_reserved":false,"is_disabled":false,"rental_uris":{"android":"levelo://app?vid=ffc8ebd1-7e19-4572-bfae-944ca9c54106","ios":"levelo://app?vid=ffc8ebd1-7e19-4572-bfae-944ca9c54106"},"vehicle_type_id":"4","last_reported":1729177663,"current_range_meters":13600,"station_id":"ce4bhlh2rcd13ifvqgig","pricing_plan_id":"cebpf4jnsgd1na2vs0mg"},{"bike_id":"d89aa79a-95cf-4dfa-b339-74841e9e1617","system_id":"levelo_inurba_marseille","lat":43.31361,"lon":5.38491,"is_reserved":false,"is_disabled":false,"rental_uris":{"android":"levelo://app?vid=d89aa79a-95cf-4dfa-b339-74841e9e1617","ios":"levelo://app?vid=d89aa79a-95cf-4dfa-b339-74841e9e1617"},"vehicle_type_id":"4","last_reported":1729177663,"current_range_meters":31200,"station_id":"ce4bgt92rcd13ifvqcf0","pricing_plan_id":"cebpf4jnsgd1na2vs0mg"},{"bike_id":"fe3e4ac4-e04d-42ad-9640-d0eef1d50e3d","system_id":"levelo_inurba_marseille","lat":43.29419,"lon":5.3862,"is_reserved":false,"is_disabled":false,"rental_uris":{"android":"levelo://app?vid=fe3e4ac4-e04d-42ad-9640-d0eef1d50e3d","ios":"levelo://app?vid=fe3e4ac4-e04d-42ad-9640-d0eef1d50e3d"},"vehicle_type_id":"4","last_reported":1729177663,"current_range_meters":33600,"station_id":"ce4bh2h2rcd13ifvqdh0","pricing_plan_id":"cebpf4jnsgd1na2vs0mg"},{"bike_id":"c9fd938f-37d4-4c5e-b9ca-b748ca8dded7","system_id":"levelo_inurba_marseille","lat":43.27949,"lon":5.41054,"is_reserved":false,"is_disabled":false,"rental_uris":{"android":"levelo://app?vid=c9fd938f-37d4-4c5e-b9ca-b748ca8dded7","ios":"levelo://app?vid=c9fd938f-37d4-4c5e-b9ca-b748ca8dded7"},"vehicle_type_id":"4","last_reported":1729177663,"current_range_meters":29600,"station_id":"ce4bhnp2rcd13ifvqh0g","pricing_plan_id":"cebpf4jnsgd1na2vs0mg"},{"bike_id":"855e7946-338c-49d6-9575-fd1dbaf876e8","system_id":"levelo_inurba_marseille","lat":43.29261,"lon":5.40904,"is_reserved":false,"is_disabled":false,"rental_uris":{"android":"levelo://app?vid=855e7946-338c-49d6-9575-fd1dbaf876e8","ios":"levelo://app?vid=855e7946-338c-49d6-9575-fd1dbaf876e8"},"vehicle_type_id":"4","last_reported":1729177663,"current_range_meters":8000,"station_id":"ce4bh192rcd13ifvqdc0","pricing_plan_id":"cebpf4jnsgd1na2vs0mg"},{"bike_id":"62e05b8f-35d5-4b1a-bb37-f84e0f2709f2","system_id":"levelo_inurba_marseille","lat":43.27808,"lon":5.40701,"is_reserved":false,"is_disabled":false,"rental_uris":{"android":"levelo://app?vid=62e05b8f-35d5-4b1a-bb37-f84e0f2709f2","ios":"levelo://app?vid=62e05b8f-35d5-4b1a-bb37-f84e0f2709f2"},"vehicle_type_id":"4","last_reported":1729177663,"current_range_meters":34000,"station_id":"ce4bhnh2rcd13ifvqgtg","pricing_plan_id":"cebpf4jnsgd1na2vs0mg"},{"bike_id":"e32e33a1-4fda-4345-8700-d1d6bf3c219b","system_id":"levelo_inurba_marseille","lat":43.31236,"lon":5.36885,"is_reserved":false,"is_disabled":false,"rental_uris":{"android":"levelo://app?vid=e32e33a1-4fda-4345-8700-d1d6bf3c219b","ios":"levelo://app?vid=e32e33a1-4fda-4345-8700-d1d6bf3c219b"},"vehicle_type_id":"4","last_reported":1729177663,"current_range_meters":40000,"station_id":"ce4bgl92rcd13ifvqbq0","pricing_plan_id":"cebpf4jnsgd1na2vs0mg"},{"bike_id":"7d5d089b-383a-49d4-a5d6-24cfe233c27e","system_id":"levelo_inurba_marseille","lat":43.27617,"lon":5.36111,"is_reserved":false,"is_disabled":false,"rental_uris":{"android":"levelo://app?vid=7d5d089b-383a-49d4-a5d6-24cfe233c27e","ios":"levelo://app?vid=7d5d089b-383a-49d4-a5d6-24cfe233c27e"},"vehicle_type_id":"4","last_reported":1729177663,"current_range_meters":28000,"station_id":"ce4bgj92rcd13ifvqbe0","pricing_plan_id":"cebpf4jnsgd1na2vs0mg"},{"bike_id":"918c0cb1-cb01-475f-a7a7-c071007ef367","system_id":"levelo_inurba_marseille","lat":43.24393,"lon":5.37055,"is_reserved":false,"is_disabled":false,"rental_uris":{"android":"levelo://app?vid=918c0cb1-cb01-475f-a7a7-c071007ef367","ios":"levelo://app?vid=918c0cb1-cb01-475f-a7a7-c071007ef367"},"vehicle_type_id":"4","last_reported":1729177663,"current_range_meters":28800,"station_id":"ce4bhhh2rcd13ifvqfk0","pricing_plan_id":"cebpf4jnsgd1na2vs0mg"},{"bike_id":"b54dd8d7-00fa-4538-bff3-136f31f8d945","system_id":"levelo_inurba_marseille","lat":43.31069,"lon":5.4009,"is_reserved":false,"is_disabled":false,"rental_uris":{"android":"levelo://app?vid=b54dd8d7-00fa-4538-bff3-136f31f8d945","ios":"levelo://app?vid=b54dd8d7-00fa-4538-bff3-136f31f8d945"},"vehicle_type_id":"4","last_reported":1729177663,"current_range_meters":8000,"station_id":"","pricing_plan_id":"cebpf4jnsgd1na2vs0mg"},{"bike_id":"f53a7af9-649d-4d41-98c7-d7dbc2c754ef","system_id":"levelo_inurba_marseille","lat":43.29418,"lon":5.38631,"is_reserved":false,"is_disabled":false,"rental_uris":{"android":"levelo://app?vid=f53a7af9-649d-4d41-98c7-d7dbc2c754ef","ios":"levelo://app?vid=f53a7af9-649d-4d41-98c7-d7dbc2c754ef"},"vehicle_type_id":"4","last_reported":1729177663,"current_range_meters":2800,"station_id":"ce4bh2h2rcd13ifvqdh0","pricing_plan_id":"cebpf4jnsgd1na2vs0mg"},{"bike_id":"ad056fbc-b830-4e69-8971-67419454bfcc","system_id":"levelo_inurba_marseille","lat":43.28078,"lon":5.39666,"is_reserved":false,"is_disabled":false,"rental_uris":{"android":"levelo://app?vid=ad056fbc-b830-4e69-8971-67419454bfcc","ios":"levelo://app?vid=ad056fbc-b830-4e69-8971-67419454bfcc"},"vehicle_type_id":"4","last_reported":1729177663,"current_range_meters":25200,"station_id":"ce4bho12rcd13ifvqh2g","pricing_plan_id":"cebpf4jnsgd1na2vs0mg"},{"bike_id":"c042c42a-e5f0-405b-8e01-1cbe76e923b2","system_id":"levelo_inurba_marseille","lat":43.30152,"lon":5.37417,"is_reserved":false,"is_disabled":false,"rental_uris":{"android":"levelo://app?vid=c042c42a-e5f0-405b-8e01-1cbe76e923b2","ios":"levelo://app?vid=c042c42a-e5f0-405b-8e01-1cbe76e923b2"},"vehicle_type_id":"4","last_reported":1729177663,"current_range_meters":17200,"station_id":"ce4bgs92rcd13ifvqcc0","pricing_plan_id":"cebpf4jnsgd1na2vs0mg"},{"bike_id":"f269126c-1b0b-4a1a-a1d6-f8c3716f5336","system_id":"levelo_inurba_marseille","lat":43.23194,"lon":5.35553,"is_reserved":false,"is_disabled":false,"rental_uris":{"android":"levelo://app?vid=f269126c-1b0b-4a1a-a1d6-f8c3716f5336","ios":"levelo://app?vid=f269126c-1b0b-4a1a-a1d6-f8c3716f5336"},"vehicle_type_id":"4","last_reported":1729177663,"current_range_meters":23200,"station_id":"ce4bhu92rcd13ifvqi70","pricing_plan_id":"cebpf4jnsgd1na2vs0mg"},{"bike_id":"3ee62eae-3721-4118-a9df-7b5db61c10f7","system_id":"levelo_inurba_marseille","lat":43.299766,"lon":5.371822,"is_reserved":false,"is_disabled":false,"rental_uris":{"android":"levelo://app?vid=3ee62eae-3721-4118-a9df-7b5db61c10f7","ios":"levelo://app?vid=3ee62eae-3721-4118-a9df-7b5db61c10f7"},"vehicle_type_id":"4","last_reported":1729177663,"current_range_meters":30000,"station_id":"ce4bgr92rcd13ifvqc7g","pricing_plan_id":"cebpf4jnsgd1na2vs0mg"},{"bike_id":"59302a4e-a2ad-46df-942d-b7173e7d57a6","system_id":"levelo_inurba_marseille","lat":43.24394,"lon":5.37059,"is_reserved":false,"is_disabled":false,"rental_uris":{"android":"levelo://app?vid=59302a4e-a2ad-46df-942d-b7173e7d57a6","ios":"levelo://app?vid=59302a4e-a2ad-46df-942d-b7173e7d57a6"},"vehicle_type_id":"4","last_reported":1729177663,"current_range_meters":38000,"station_id":"ce4bhhh2rcd13ifvqfk0","pricing_plan_id":"cebpf4jnsgd1na2vs0mg"},{"bike_id":"92922d9c-b419-4b33-b42f-39e7b51141eb","system_id":"levelo_inurba_marseille","lat":43.30539,"lon":5.36703,"is_reserved":false,"is_disabled":false,"rental_uris":{"android":"levelo://app?vid=92922d9c-b419-4b33-b42f-39e7b51141eb","ios":"levelo://app?vid=92922d9c-b419-4b33-b42f-39e7b51141eb"},"vehicle_type_id":"4","last_reported":1729177663,"current_range_meters":14000,"station_id":"ce4bgrp2rcd13ifvqc9g","pricing_plan_id":"cebpf4jnsgd1na2vs0mg"},{"bike_id":"57487ce4-6bc1-4a4b-8046-0983c6fda537","system_id":"levelo_inurba_marseille","lat":43.33729,"lon":5.39183,"is_reserved":false,"is_disabled":false,"rental_uris":{"android":"levelo://app?vid=57487ce4-6bc1-4a4b-8046-0983c6fda537","ios":"levelo://app?vid=57487ce4-6bc1-4a4b-8046-0983c6fda537"},"vehicle_type_id":"4","last_reported":1729177663,"current_range_meters":21600,"station_id":"ce4bhr92rcd13ifvqhsg","pricing_plan_id":"cebpf4jnsgd1na2vs0mg"},{"bike_id":"94d48054-be54-488d-a425-2deb433f452c","system_id":"levelo_inurba_marseille","lat":43.29841,"lon":5.36449,"is_reserved":false,"is_disabled":false,"rental_uris":{"android":"levelo://app?vid=94d48054-be54-488d-a425-2deb433f452c","ios":"levelo://app?vid=94d48054-be54-488d-a425-2deb433f452c"},"vehicle_type_id":"4","last_reported":1729177663,"current_range_meters":12000,"station_id":"ce4bgnh2rcd13ifvqc0g","pricing_plan_id":"cebpf4jnsgd1na2vs0mg"},{"bike_id":"bd2a56fa-b44f-4699-b526-31856dbd3232","system_id":"levelo_inurba_marseille","lat":43.31232,"lon":5.36866,"is_reserved":false,"is_disabled":false,"rental_uris":{"android":"levelo://app?vid=bd2a56fa-b44f-4699-b526-31856dbd3232","ios":"levelo://app?vid=bd2a56fa-b44f-4699-b526-31856dbd3232"},"vehicle_type_id":"4","last_reported":1729177663,"current_range_meters":28000,"station_id":"ce4bgl92rcd13ifvqbq0","pricing_plan_id":"cebpf4jnsgd1na2vs0mg"},{"bike_id":"f542be2e-7f76-4718-a801-054736c51a99","system_id":"levelo_inurba_marseille","lat":43.24807,"lon":5.3746,"is_reserved":false,"is_disabled":false,"rental_uris":{"android":"levelo://app?vid=f542be2e-7f76-4718-a801-054736c51a99","ios":"levelo://app?vid=f542be2e-7f76-4718-a801-054736c51a99"},"vehicle_type_id":"4","last_reported":1729177663,"current_range_meters":13600,"station_id":"ce4bhgh2rcd13ifvqfb0","pricing_plan_id":"cebpf4jnsgd1na2vs0mg"},{"bike_id":"b01d6961-8e72-479d-a95a-3aaffef95767","system_id":"levelo_inurba_marseille","lat":43.2594,"lon":5.40902,"is_reserved":false,"is_disabled":false,"rental_uris":{"android":"levelo://app?vid=b01d6961-8e72-479d-a95a-3aaffef95767","ios":"levelo://app?vid=b01d6961-8e72-479d-a95a-3aaffef95767"},"vehicle_type_id":"4","last_reported":1729177663,"current_range_meters":14000,"station_id":"ce4bhm92rcd13ifvqglg","pricing_plan_id":"cebpf4jnsgd1na2vs0mg"},{"bike_id":"1f2a092f-7ffa-44a4-af63-16102be373de","system_id":"levelo_inurba_marseille","lat":43.25085,"lon":5.39508,"is_reserved":false,"is_disabled":false,"rental_uris":{"android":"levelo://app?vid=1f2a092f-7ffa-44a4-af63-16102be373de","ios":"levelo://app?vid=1f2a092f-7ffa-44a4-af63-16102be373de"},"vehicle_type_id":"4","last_reported":1729177663,"current_range_meters":27200,"station_id":"ce4bhm12rcd13ifvqgkg","pricing_plan_id":"cebpf4jnsgd1na2vs0mg"},{"bike_id":"c2dab1ff-11ab-4a0c-91e2-2267523fe57a","system_id":"levelo_inurba_marseille","lat":43.26071,"lon":5.39387,"is_reserved":false,"is_disabled":false,"rental_uris":{"android":"levelo://app?vid=c2dab1ff-11ab-4a0c-91e2-2267523fe57a","ios":"levelo://app?vid=c2dab1ff-11ab-4a0c-91e2-2267523fe57a"},"vehicle_type_id":"4","last_reported":1729177663,"current_range_meters":38800,"station_id":"ce4bhh92rcd13ifvqfj0","pricing_plan_id":"cebpf4jnsgd1na2vs0mg"},{"bike_id":"dfa9b986-8eed-4261-b5c9-22cdc9561831","system_id":"levelo_inurba_marseille","lat":43.30598,"lon":5.37214,"is_reserved":false,"is_disabled":false,"rental_uris":{"android":"levelo://app?vid=dfa9b986-8eed-4261-b5c9-22cdc9561831","ios":"levelo://app?vid=dfa9b986-8eed-4261-b5c9-22cdc9561831"},"vehicle_type_id":"4","last_reported":1729177663,"current_range_meters":37600,"station_id":"ce4bgqh2rcd13ifvqc4g","pricing_plan_id":"cebpf4jnsgd1na2vs0mg"},{"bike_id":"d838e217-c45f-4c0a-b0bf-0348cc62bdc2","system_id":"levelo_inurba_marseille","lat":43.25983,"lon":5.39838,"is_reserved":false,"is_disabled":false,"rental_uris":{"android":"levelo://app?vid=d838e217-c45f-4c0a-b0bf-0348cc62bdc2","ios":"levelo://app?vid=d838e217-c45f-4c0a-b0bf-0348cc62bdc2"},"vehicle_type_id":"4","last_reported":1729177663,"current_range_meters":36000,"station_id":"","pricing_plan_id":"cebpf4jnsgd1na2vs0mg"},{"bike_id":"37e3ff7f-73ac-4ef4-a2a9-5337205e9091","system_id":"levelo_inurba_marseille","lat":43.31075,"lon":5.38364,"is_reserved":false,"is_disabled":false,"rental_uris":{"android":"levelo://app?vid=37e3ff7f-73ac-4ef4-a2a9-5337205e9091","ios":"levelo://app?vid=37e3ff7f-73ac-4ef4-a2a9-5337205e9091"},"vehicle_type_id":"4","last_reported":1729177663,"current_range_meters":22000,"station_id":"ce4bgv92rcd13ifvqcr0","pricing_plan_id":"cebpf4jnsgd1na2vs0mg"},{"bike_id":"1918c710-c9cb-4e16-af63-3778f748c7ac","system_id":"levelo_inurba_marseille","lat":43.29024,"lon":5.38137,"is_reserved":false,"is_disabled":false,"rental_uris":{"android":"levelo://app?vid=1918c710-c9cb-4e16-af63-3778f748c7ac","ios":"levelo://app?vid=1918c710-c9cb-4e16-af63-3778f748c7ac"},"vehicle_type_id":"4","last_reported":1729177663,"current_range_meters":17200,"station_id":"ce4bh4p2rcd13ifvqe1g","pricing_plan_id":"cebpf4jnsgd1na2vs0mg"},{"bike_id":"530e74bd-7566-4a8e-afaa-064d78432ca2","system_id":"levelo_inurba_marseille","lat":43.33717,"lon":5.3918,"is_reserved":false,"is_disabled":false,"rental_uris":{"android":"levelo://app?vid=530e74bd-7566-4a8e-afaa-064d78432ca2","ios":"levelo://app?vid=530e74bd-7566-4a8e-afaa-064d78432ca2"},"vehicle_type_id":"4","last_reported":1729177663,"current_range_meters":35200,"station_id":"ce4bhr92rcd13ifvqhsg","pricing_plan_id":"cebpf4jnsgd1na2vs0mg"},{"bike_id":"057c098d-4e72-40fe-9e1d-e1fc509e9e55","system_id":"levelo_inurba_marseille","lat":43.29525,"lon":5.39046,"is_reserved":false,"is_disabled":false,"rental_uris":{"android":"levelo://app?vid=057c098d-4e72-40fe-9e1d-e1fc509e9e55","ios":"levelo://app?vid=057c098d-4e72-40fe-9e1d-e1fc509e9e55"},"vehicle_type_id":"4","last_reported":1729177663,"current_range_meters":37600,"station_id":"ce4bh3p2rcd13ifvqdp0","pricing_plan_id":"cebpf4jnsgd1na2vs0mg"},{"bike_id":"e3b54844-80f8-47c8-8379-c6ca5684f822","system_id":"levelo_inurba_marseille","lat":43.30543,"lon":5.36545,"is_reserved":false,"is_disabled":false,"rental_uris":{"android":"levelo://app?vid=e3b54844-80f8-47c8-8379-c6ca5684f822","ios":"levelo://app?vid=e3b54844-80f8-47c8-8379-c6ca5684f822"},"vehicle_type_id":"4","last_reported":1729177663,"current_range_meters":18000,"station_id":"ce4bgs12rcd13ifvqcag","pricing_plan_id":"cebpf4jnsgd1na2vs0mg"},{"bike_id":"09c2763a-3a86-4f3a-8f89-c8c563a76106","system_id":"levelo_inurba_marseille","lat":43.2782,"lon":5.40722,"is_reserved":false,"is_disabled":false,"rental_uris":{"android":"levelo://app?vid=09c2763a-3a86-4f3a-8f89-c8c563a76106","ios":"levelo://app?vid=09c2763a-3a86-4f3a-8f89-c8c563a76106"},"vehicle_type_id":"4","last_reported":1729177663,"current_range_meters":38800,"station_id":"ce4bhnh2rcd13ifvqgtg","pricing_plan_id":"cebpf4jnsgd1na2vs0mg"},{"bike_id":"b5ab5a62-82b0-4ea2-a993-6c57c3458536","system_id":"levelo_inurba_marseille","lat":43.2903,"lon":5.38132,"is_reserved":false,"is_disabled":false,"rental_uris":{"android":"levelo://app?vid=b5ab5a62-82b0-4ea2-a993-6c57c3458536","ios":"levelo://app?vid=b5ab5a62-82b0-4ea2-a993-6c57c3458536"},"vehicle_type_id":"4","last_reported":1729177663,"current_range_meters":16400,"station_id":"ce4bh4p2rcd13ifvqe1g","pricing_plan_id":"cebpf4jnsgd1na2vs0mg"},{"bike_id":"3fa69983-4321-4fec-ad59-f921316e2cd7","system_id":"levelo_inurba_marseille","lat":43.28001,"lon":5.40016,"is_reserved":false,"is_disabled":false,"rental_uris":{"android":"levelo://app?vid=3fa69983-4321-4fec-ad59-f921316e2cd7","ios":"levelo://app?vid=3fa69983-4321-4fec-ad59-f921316e2cd7"},"vehicle_type_id":"4","last_reported":1729177663,"current_range_meters":30000,"station_id":"ce4bho92rcd13ifvqh4g","pricing_plan_id":"cebpf4jnsgd1na2vs0mg"},