{"last_updated":1761246467,"ttl":60,"version":"2.2","data":{"bikes":[{"bike_id":"5d6cbe97-fe4a-4794-86f7-f84631ec3887","system_id":"levelo_inurba_marseille","lat":43.310584,"lon":5.38178,"is_reserved":false,"is_disabled":false,"rental_uris":{"android":"levelo://app?vid=5d6cbe97-fe4a-4794-86f7-f84631ec3887","ios":"levelo://app?vid=5d6cbe97-fe4a-4794-86f7-f84631ec3887"},"vehicle_type_id":"4","last_reported":1761246467,"current_range_meters":2800,"station_id":"","pricing_plan_id":"cebpf4jnsgd1na2vs0mg"},{"bike_id":"d65d9625-ef13-4d75-883f-41b358c39977","system_id":"levelo_inurba_marseille","lat":43.29558,"lon":5.39952,"is_reserved":false,"is_disabled":false,"rental_uris":{"android":"levelo://app?vid=d65d9625-ef13-4d75-883f-41b358c39977","ios":"levelo://app?vid=d65d9625-ef13-4d75-883f-41b358c39977"},"vehicle_type_id":"4","last_reported":1761246467,"current_range_meters":3200,"station_id":"ce4bh312rcd13ifvqdj0","pricing_plan_id":"cebpf4jnsgd1na2vs0mg"},{"bike_id":"27738fa2-4e0a-4480-b739-8fbc369f6d1b","system_id":"levelo_inurba_marseille","lat":43.28074,"lon":5.39656,"is_reserved":false,"is_disabled":false,"rental_uris":{"android":"levelo://app?vid=27738fa2-4e0a-4480-b739-8fbc369f6d1b","ios":"levelo://app?vid=27738fa2-4e0a-4480-b739-8fbc369f6d1b"},"vehicle_type_id":"4","last_reported":1761246467,"current_range_meters":3600,"station_id":"ce4bho12rcd13ifvqh2g","pricing_plan_id":"cebpf4jnsgd1na2vs0mg"},{"bike_id":"ac1df8dc-41e5-4954-977f-6f21ed12d11a","system_id":"levelo_inurba_marseille","lat":43.21743,"lon":5.34604,"is_reserved":false,"is_disabled":false,"rental_uris":{"android":"levelo://app?vid=ac1df8dc-41e5-4954-977f-6f21ed12d11a","ios":"levelo://app?vid=ac1df8dc-41e5-4954-977f-6f21ed12d11a"},"vehicle_type_id":"4","last_reported":1761246467,"current_range_meters":3600,"station_id":"st_cvj6r9ubvosntc0bgbag","pricing_plan_id":"cebpf4jnsgd1na2vs0mg"},{"bike_id":"48632e2f-2bfa-4d66-9c55-6719650f2630","system_id":"levelo_inurba_marseille","lat":43.29451,"lon":5.39058,"is_reserved":false,"is_disabled":false,"rental_uris":{"android":"levelo://app?vid=48632e2f-2bfa-4d66-9c55-6719650f2630","ios":"levelo://app?vid=48632e2f-2bfa-4d66-9c55-6719650f2630"},"vehicle_type_id":"4","last_reported":1761246467,"current_range_meters":3600,"station_id":"","pricing_plan_id":"cebpf4jnsgd1na2vs0mg"},{"bike_id":"e0c75b4a-37ec-4c2b-b52b-f6afabbf3076","system_id":"levelo_inurba_marseille","lat":43.28618,"lon":5.35102,"is_reserved":false,"is_disabled":false,"rental_uris":{"android":"levelo://app?vid=e0c75b4a-37ec-4c2b-b52b-f6afabbf3076","ios":"levelo://app?vid=e0c75b4a-37ec-4c2b-b52b-f6afabbf3076"},"vehicle_type_id":"4","last_reported":1761246467,"current_range_meters":3600,"station_id":"ce4bhch2rcd13ifvqeug","pricing_plan_id":"cebpf4jnsgd1na2vs0mg"},{"bike_id":"d6235779-82b5-4f62-bb01-5c320c0c48e8","system_id":"levelo_inurba_marseille","lat":43.28459,"lon":5.35887,"is_reserved":false,"is_disabled":false,"rental_uris":{"android":"levelo://app?vid=d6235779-82b5-4f62-bb01-5c320c0c48e8","ios":"levelo://app?vid=d6235779-82b5-4f62-bb01-5c320c0c48e8"},"vehicle_type_id":"4","last_reported":1761246467,"current_range_meters":3600,"station_id":"ce4bhah2rcd13ifvqei0","pricing_plan_id":"cebpf4jnsgd1na2vs0mg"},{"bike_id":"f8ed5907-138c-40de-b2c5-4b1ca0e5626c","system_id":"levelo_inurba_marseille","lat":43.33054,"lon":5.37669,"is_reserved":false,"is_disabled":false,"rental_uris":{"android":"levelo://app?vid=f8ed5907-138c-40de-b2c5-4b1ca0e5626c","ios":"levelo://app?vid=f8ed5907-138c-40de-b2c5-4b1ca0e5626c"},"vehicle_type_id":"4","last_reported":1761246467,"current_range_meters":3600,"station_id":"","pricing_plan_id":"cebpf4jnsgd1na2vs0mg"},{"bike_id":"c8ebb86e-7f2f-40d4-a498-9f05ba15d0f1","system_id":"levelo_inurba_marseille","lat":43.27801,"lon":5.40713,"is_reserved":false,"is_disabled":false,"rental_uris":{"android":"levelo://app?vid=c8ebb86e-7f2f-40d4-a498-9f05ba15d0f1","ios":"levelo://app?vid=c8ebb86e-7f2f-40d4-a498-9f05ba15d0f1"},"vehicle_type_id":"4","last_reported":1761246467,"current_range_meters":4000,"station_id":"ce4bhnh2rcd13ifvqgtg","pricing_plan_id":"cebpf4jnsgd1na2vs0mg"},{"bike_id":"974a76dc-4cf0-4bef-aba9-126e20fc1633","system_id":"levelo_inurba_marseille","lat":43.29766,"lon":5.42775,"is_reserved":false,"is_disabled":false,"rental_uris":{"android":"levelo://app?vid=974a76dc-4cf0-4bef-aba9-126e20fc1633","ios":"levelo://app?vid=974a76dc-4cf0-4bef-aba9-126e20fc1633"},"vehicle_type_id":"4","last_reported":1761246467,"current_range_meters":4400,"station_id":"st_d3md5207bmas73dh9klg","pricing_plan_id":"cebpf4jnsgd1na2vs0mg"},{"bike_id":"a6e70ec7-da28-4f5e-a6fd-20b88cd3fd79","system_id":"levelo_inurba_marseille","lat":43.26196,"lon":5.37447,"is_reserved":false,"is_disabled":false,"rental_uris":{"android":"levelo://app?vid=a6e70ec7-da28-4f5e-a6fd-20b88cd3fd79","ios":"levelo://app?vid=a6e70ec7-da28-4f5e-a6fd-20b88cd3fd79"},"vehicle_type_id":"4","last_reported":1761246467,"current_range_meters":4400,"station_id":"ce4bhgp2rcd13ifvqfc0","pricing_plan_id":"cebpf4jnsgd1na2vs0mg"},{"bike_id":"bc913198-f917-481c-9545-cda64f7ddb2d","system_id":"levelo_inurba_marseille","lat":43.28703,"lon":5.37391,"is_reserved":false,"is_disabled":false,"rental_uris":{"android":"levelo://app?vid=bc913198-f917-481c-9545-cda64f7ddb2d","ios":"levelo://app?vid=bc913198-f917-481c-9545-cda64f7ddb2d"},"vehicle_type_id":"4","last_reported":1761246467,"current_range_meters":4400,"station_id":"ce4bh3p2rcd13ifvqdq0","pricing_plan_id":"cebpf4jnsgd1na2vs0mg"},{"bike_id":"c326e950-c6a3-4385-8fc9-b8ca9fc416bc","system_id":"levelo_inurba_marseille","lat":43.30889,"lon":5.39661,"is_reserved":false,"is_disabled":false,"rental_uris":{"android":"levelo://app?vid=c326e950-c6a3-4385-8fc9-b8ca9fc416bc","ios":"levelo://app?vid=c326e950-c6a3-4385-8fc9-b8ca9fc416bc"},"vehicle_type_id":"4","last_reported":1761246467,"current_range_meters":4400,"station_id":"ce4bh012rcd13ifvqcv0","pricing_plan_id":"cebpf4jnsgd1na2vs0mg"},{"bike_id":"17d60cd2-d3bd-473f-961d-d35c40b1fce8","system_id":"levelo_inurba_marseille","lat":43.26557,"lon":5.37284,"is_reserved":false,"is_disabled":false,"rental_uris":{"android":"levelo://app?vid=17d60cd2-d3bd-473f-961d-d35c40b1fce8","ios":"levelo://app?vid=17d60cd2-d3bd-473f-961d-d35c40b1fce8"},"vehicle_type_id":"4","last_reported":1761246467,"current_range_meters":4800,"station_id":"ce4bhg12rcd13ifvqf70","pricing_plan_id":"cebpf4jnsgd1na2vs0mg"},{"bike_id":"eedec0e5-45d6-48eb-ad12-16c23f445e28","system_id":"levelo_inurba_marseille","lat":43.24393,"lon":5.37071,"is_reserved":false,"is_disabled":false,"rental_uris":{"android":"levelo://app?vid=eedec0e5-45d6-48eb-ad12-16c23f445e28","ios":"levelo://app?vid=eedec0e5-45d6-48eb-ad12-16c23f445e28"},"vehicle_type_id":"4","last_reported":1761246467,"current_range_meters":4800,"station_id":"ce4bhhh2rcd13ifvqfk0","pricing_plan_id":"cebpf4jnsgd1na2vs0mg"},{"bike_id":"df4a3265-ee53-49f2-b552-2b46470c4aac","system_id":"levelo_inurba_marseille","lat":43.28838,"lon":5.39319,"is_reserved":false,"is_disabled":false,"rental_uris":{"android":"levelo://app?vid=df4a3265-ee53-49f2-b552-2b46470c4aac","ios":"levelo://app?vid=df4a3265-ee53-49f2-b552-2b46470c4aac"},"vehicle_type_id":"4","last_reported":1761246467,"current_range_meters":4800,"station_id":"ce4bh2p2rcd13ifvqdi0","pricing_plan_id":"cebpf4jnsgd1na2vs0mg"},{"bike_id":"92f5e2fc-5283-4d49-ab4c-822a23177483","system_id":"levelo_inurba_marseille","lat":43.324708,"lon":5.408435,"is_reserved":false,"is_disabled":false,"rental_uris":{"android":"levelo://app?vid=92f5e2fc-5283-4d49-ab4c-822a23177483","ios":"levelo://app?vid=92f5e2fc-5283-4d49-ab4c-822a23177483"},"vehicle_type_id":"4","last_reported":1761246467,"current_range_meters":4800,"station_id":"","pricing_plan_id":"cebpf4jnsgd1na2vs0mg"},{"bike_id":"d10efa23-155e-4640-80b5-ebf8fb6e69a5","system_id":"levelo_inurba_marseille","lat":43.31069,"lon":5.38355,"is_reserved":false,"is_disabled":false,"rental_uris":{"android":"levelo://app?vid=d10efa23-155e-4640-80b5-ebf8fb6e69a5","ios":"levelo://app?vid=d10efa23-155e-4640-80b5-ebf8fb6e69a5"},"vehicle_type_id":"4","last_reported":1761246467,"current_range_meters":4800,"station_id":"ce4bgv92rcd13ifvqcr0","pricing_plan_id":"cebpf4jnsgd1na2vs0mg"},{"bike_id":"02f7835e-8895-43db-bc46-dc0659a292d5","system_id":"levelo_inurba_marseille","lat":43.29331,"lon":5.3707,"is_reserved":false,"is_disabled":false,"rental_uris":{"android":"levelo://app?vid=02f7835e-8895-43db-bc46-dc0659a292d5","ios":"levelo://app?vid=02f7835e-8895-43db-bc46-dc0659a292d5"},"vehicle_type_id":"4","last_reported":1761246467,"current_range_meters":4800,"station_id":"","pricing_plan_id":"cebpf4jnsgd1na2vs0mg"},{"bike_id":"c43bfcca-b40b-4ed3-af96-7c59a4de84f5","system_id":"levelo_inurba_marseille","lat":43.31226,"lon":5.3684,"is_reserved":false,"is_disabled":false,"rental_uris":{"android":"levelo://app?vid=c43bfcca-b40b-4ed3-af96-7c59a4de84f5","ios":"levelo://app?vid=c43bfcca-b40b-4ed3-af96-7c59a4de84f5"},"vehicle_type_id":"4","last_reported":1761246467,"current_range_meters":4800,"station_id":"ce4bgl92rcd13ifvqbq0","pricing_plan_id":"cebpf4jnsgd1na2vs0mg"},{"bike_id":"a7e36965-f5b0-4a8e-9f90-c209b23bf01e","system_id":"levelo_inurba_marseille","lat":43.27909,"lon":5.37997,"is_reserved":false,"is_disabled":false,"rental_uris":{"android":"levelo://app?vid=a7e36965-f5b0-4a8e-9f90-c209b23bf01e","ios":"levelo://app?vid=a7e36965-f5b0-4a8e-9f90-c209b23bf01e"},"vehicle_type_id":"4","last_reported":1761246467,"current_range_meters":5600,"station_id":"ce4bhf92rcd13ifvqf50","pricing_plan_id":"cebpf4jnsgd1na2vs0mg"},{"bike_id":"69e16dbd-0343-43a0-81cf-a306519ac6e6","system_id":"levelo_inurba_marseille","lat":43.28612,"lon":5.35106,"is_reserved":false,"is_disabled":false,"rental_uris":{"android":"levelo://app?vid=69e16dbd-0343-43a0-81cf-a306519ac6e6","ios":"levelo://app?vid=69e16dbd-0343-43a0-81cf-a306519ac6e6"},"vehicle_type_id":"4","last_reported":1761246467,"current_range_meters":6000,"station_id":"ce4bhch2rcd13ifvqeug","pricing_plan_id":"cebpf4jnsgd1na2vs0mg"},{"bike_id":"9284d93a-9b08-4b67-aa5a-3a9eb3e24f49","system_id":"levelo_inurba_marseille","lat":43.21739,"lon":5.34623,"is_reserved":false,"is_disabled":false,"rental_uris":{"android":"levelo://app?vid=9284d93a-9b08-4b67-aa5a-3a9eb3e24f49","ios":"levelo://app?vid=9284d93a-9b08-4b67-aa5a-3a9eb3e24f49"},"vehicle_type_id":"4","last_reported":1761246467,"current_range_meters":6000,"station_id":"st_cvj6r9ubvosntc0bgbag","pricing_plan_id":"cebpf4jnsgd1na2vs0mg"},{"bike_id":"fb603a6e-d69a-4d51-bfd9-ff2268695f70","system_id":"levelo_inurba_marseille","lat":43.31176,"lon":5.38709,"is_reserved":false,"is_disabled":false,"rental_uris":{"android":"levelo://app?vid=fb603a6e-d69a-4d51-bfd9-ff2268695f70","ios":"levelo://app?vid=fb603a6e-d69a-4d51-bfd9-ff2268695f70"},"vehicle_type_id":"4","last_reported":1761246467,"current_range_meters":6000,"station_id":"ce4bgv12rcd13ifvqcp0","pricing_plan_id":"cebpf4jnsgd1na2vs0mg"},{"bike_id":"90db5d53-5c3c-4bbc-9bd1-4db725394cdf","system_id":"levelo_inurba_marseille","lat":43.30961,"lon":5.39035,"is_reserved":false,"is_disabled":false,"rental_uris":{"android":"levelo://app?vid=90db5d53-5c3c-4bbc-9bd1-4db725394cdf","ios":"levelo://app?vid=90db5d53-5c3c-4bbc-9bd1-4db725394cdf"},"vehicle_type_id":"4","last_reported":1761246467,"current_range_meters":6000,"station_id":"ce4bgup2rcd13ifvqco0","pricing_plan_id":"cebpf4jnsgd1na2vs0mg"},{"bike_id":"e6f4e10e-6d72-487a-8252-3250c4b27f98","system_id":"levelo_inurba_marseille","lat":43.2119,"lon":5.35074,"is_reserved":false,"is_disabled":false,"rental_uris":{"android":"levelo://app?vid=e6f4e10e-6d72-487a-8252-3250c4b27f98","ios":"levelo://app?vid=e6f4e10e-6d72-487a-8252-3250c4b27f98"},"vehicle_type_id":"4","last_reported":1761246467,"current_range_meters":6400,"station_id":"st_cvj6sg6p6f1abm77japg","pricing_plan_id":"cebpf4jnsgd1na2vs0mg"},{"bike_id":"0c0f289f-06bf-47d3-b6b6-8f2989a4888a","system_id":"levelo_inurba_marseille","lat":43.28097,"lon":5.37829,"is_reserved":false,"is_disabled":false,"rental_uris":{"android":"levelo://app?vid=0c0f289f-06bf-47d3-b6b6-8f2989a4888a","ios":"levelo://app?vid=0c0f289f-06bf-47d3-b6b6-8f2989a4888a"},"vehicle_type_id":"4","last_reported":1761246467,"current_range_meters":6400,"station_id":"ce4bha12rcd13ifvqee0","pricing_plan_id":"cebpf4jnsgd1na2vs0mg"},{"bike_id":"80fd3431-2f88-47bb-80c7-3b19d4391ec3","system_id":"levelo_inurba_marseille","lat":43.31116,"lon":5.37768,"is_reserved":false,"is_disabled":false,"rental_uris":{"android":"levelo://app?vid=80fd3431-2f88-47bb-80c7-3b19d4391ec3","ios":"levelo://app?vid=80fd3431-2f88-47bb-80c7-3b19d4391ec3"},"vehicle_type_id":"4","last_reported":1761246467,"current_range_meters":6400,"station_id":"ce4bgt92rcd13ifvqcg0","pricing_plan_id":"cebpf4jnsgd1na2vs0mg"},{"bike_id":"19a81ba3-8936-468a-9e73-f2451a2dbdad","system_id":"levelo_inurba_marseille","lat":43.29381,"lon":5.3762,"is_reserved":false,"is_disabled":false,"rental_uris":{"android":"levelo://app?vid=19a81ba3-8936-468a-9e73-f2451a2dbdad","ios":"levelo://app?vid=19a81ba3-8936-468a-9e73-f2451a2dbdad"},"vehicle_type_id":"4","last_reported":1761246467,"current_range_meters":6400,"station_id":"","pricing_plan_id":"cebpf4jnsgd1na2vs0mg"},{"bike_id":"955acde1-aeb3-4cd7-93a7-b8d05b61f5e0","system_id":"levelo_inurba_marseille","lat":43.260318,"lon":5.375487,"is_reserved":false,"is_disabled":false,"rental_uris":{"android":"levelo://app?vid=955acde1-aeb3-4cd7-93a7-b8d05b61f5e0","ios":"levelo://app?vid=955acde1-aeb3-4cd7-93a7-b8d05b61f5e0"},"vehicle_type_id":"4","last_reported":1761246467,"current_range_meters":6400,"station_id":"ce4bhgh2rcd13ifvqfa0","pricing_plan_id":"cebpf4jnsgd1na2vs0mg"},{"bike_id":"00657b3a-6445-42ff-a84e-a1d5080a9267","system_id":"levelo_inurba_marseille","lat":43.29537,"lon":5.38546,"is_reserved":false,"is_disabled":false,"rental_uris":{"android":"levelo://app?vid=00657b3a-6445-42ff-a84e-a1d5080a9267","ios":"levelo://app?vid=00657b3a-6445-42ff-a84e-a1d5080a9267"},"vehicle_type_id":"4","last_reported":1761246467,"current_range_meters":6800,"station_id":"ce4bgih2rcd13ifvqba0","pricing_plan_id":"cebpf4jnsgd1na2vs0mg"},{"bike_id":"82576c51-8b9b-43eb-aa43-fc4a18c9ea5b","system_id":"levelo_inurba_marseille","lat":43.2175,"lon":5.34612,"is_reserved":false,"is_disabled":false,"rental_uris":{"android":"levelo://app?vid=82576c51-8b9b-43eb-aa43-fc4a18c9ea5b","ios":"levelo://app?vid=82576c51-8b9b-43eb-aa43-fc4a18c9ea5b"},"vehicle_type_id":"4","last_reported":1761246467,"current_range_meters":6800,"station_id":"st_cvj6r9ubvosntc0bgbag","pricing_plan_id":"cebpf4jnsgd1na2vs0mg"},{"bike_id":"e53fe089-9855-49fe-8287-8034c085e7a9","system_id":"levelo_inurba_marseille","lat":43.31168,"lon":5.38725,"is_reserved":false,"is_disabled":false,"rental_uris":{"android":"levelo://app?vid=e53fe089-9855-49fe-8287-8034c085e7a9","ios":"levelo://app?vid=e53fe089-9855-49fe-8287-8034c085e7a9"},"vehicle_type_id":"4","last_reported":1761246467,"current_range_meters":6800,"station_id":"ce4bgv12rcd13ifvqcp0","pricing_plan_id":"cebpf4jnsgd1na2vs0mg"},{"bike_id":"ff3ba630-dc04-489c-b422-8721b9ddc862","system_id":"levelo_inurba_marseille","lat":43.29821,"lon":5.3776,"is_reserved":false,"is_disabled":false,"rental_uris":{"android":"levelo://app?vid=ff3ba630-dc04-489c-b422-8721b9ddc862","ios":"levelo://app?vid=ff3ba630-dc04-489c-b422-8721b9ddc862"},"vehicle_type_id":"4","last_reported":1761246467,"current_range_meters":6800,"station_id":"","pricing_plan_id":"cebpf4jnsgd1na2vs0mg"},{"bike_id":"d2899f68-96c8-4e4a-a923-7ef34825021f","system_id":"levelo_inurba_marseille","lat":43.29037,"lon":5.39965,"is_reserved":false,"is_disabled":false,"rental_uris":{"android":"levelo://app?vid=d2899f68-96c8-4e4a-a923-7ef34825021f","ios":"levelo://app?vid=d2899f68-96c8-4e4a-a923-7ef34825021f"},"vehicle_type_id":"4","last_reported":1761246467,"current_range_meters":6800,"station_id":"ce4bh392rcd13ifvqdm0","pricing_plan_id":"cebpf4jnsgd1na2vs0mg"},{"bike_id":"5f6fcdd4-9292-4104-a5ab-abf46190d7a4","system_id":"levelo_inurba_marseille","lat":43.29449,"lon":5.39752,"is_reserved":false,"is_disabled":false,"rental_uris":{"android":"levelo://app?vid=5f6fcdd4-9292-4104-a5ab-abf46190d7a4","ios":"levelo://app?vid=5f6fcdd4-9292-4104-a5ab-abf46190d7a4"},"vehicle_type_id":"4","last_reported":1761246467,"current_range_meters":7200,"station_id":"ce4bh3h2rcd13ifvqdo0","pricing_plan_id":"cebpf4jnsgd1na2vs0mg"},{"bike_id":"16ea86f8-d34c-4222-9d2d-e608ddd6d62e","system_id":"levelo_inurba_marseille","lat":43.33775,"lon":5.37469,"is_reserved":false,"is_disabled":false,"rental_uris":{"android":"levelo://app?vid=16ea86f8-d34c-4222-9d2d-e608ddd6d62e","ios":"levelo://app?vid=16ea86f8-d34c-4222-9d2d-e608ddd6d62e"},"vehicle_type_id":"4","last_reported":1761246467,"current_range_meters":7200,"station_id":"","pricing_plan_id":"cebpf4jnsgd1na2vs0mg"},{"bike_id":"f3efb067-32db-4fd5-a6c7-ed1c6ebbf69d","system_id":"levelo_inurba_marseille","lat":43.21206,"lon":5.35064,"is_reserved":false,"is_disabled":true,"rental_uris":{"android":"levelo://app?vid=f3efb067-32db-4fd5-a6c7-ed1c6ebbf69d","ios":"levelo://app?vid=f3efb067-32db-4fd5-a6c7-ed1c6ebbf69d"},"vehicle_type_id":"4","last_reported":1761246467,"current_range_meters":7200,"station_id":"st_cvj6sg6p6f1abm77japg","pricing_plan_id":"cebpf4jnsgd1na2vs0mg"},{"bike_id":"2fa0986a-2d6b-4d38-aef2-ef0c0e57df94","system_id":"levelo_inurba_marseille","lat":43.30262,"lon":5.40051,"is_reserved":false,"is_disabled":false,"rental_uris":{"android":"levelo://app?vid=2fa0986a-2d6b-4d38-aef2-ef0c0e57df94","ios":"levelo://app?vid=2fa0986a-2d6b-4d38-aef2-ef0c0e57df94"},"vehicle_type_id":"4","last_reported":1761246467,"current_range_meters":7200,"station_id":"ce4bgvh2rcd13ifvqcs0","pricing_plan_id":"cebpf4jnsgd1na2vs0mg"},{"bike_id":"12a82183-ca74-49b1-bb1e-ba1f3e1df2c8","system_id":"levelo_inurba_marseille","lat":43.31323,"lon":5.39698,"is_reserved":false,"is_disabled":false,"rental_uris":{"android":"levelo://app?vid=12a82183-ca74-49b1-bb1e-ba1f3e1df2c8","ios":"levelo://app?vid=12a82183-ca74-49b1-bb1e-ba1f3e1df2c8"},"vehicle_type_id":"4","last_reported":1761246467,"current_range_meters":7200,"station_id":"ce4bgvp2rcd13ifvqcu0","pricing_plan_id":"cebpf4jnsgd1na2vs0mg"},{"bike_id":"12a8899d-726e-4bec-a828-51722de4d812","system_id":"levelo_inurba_marseille","lat":43.29171,"lon":5.37166,"is_reserved":false,"is_disabled":false,"rental_uris":{"android":"levelo://app?vid=12a8899d-726e-4bec-a828-51722de4d812","ios":"levelo://app?vid=12a8899d-726e-4bec-a828-51722de4d812"},"vehicle_type_id":"4","last_reported":1761246467,"current_range_meters":7200,"station_id":"ce4bha92rcd13ifvqeh0","pricing_plan_id":"cebpf4jnsgd1na2vs0mg"},{"bike_id":"37d01fc8-4b4d-4652-a489-1254eb9d4c80","system_id":"levelo_inurba_marseille","lat":43.34076,"lon":5.40411,"is_reserved":false,"is_disabled":false,"rental_uris":{"android":"levelo://app?vid=37d01fc8-4b4d-4652-a489-1254eb9d4c80","ios":"levelo://app?vid=37d01fc8-4b4d-4652-a489-1254eb9d4c80"},"vehicle_type_id":"4","last_reported":1761246467,"current_range_meters":7200,"station_id":"","pricing_plan_id":"cebpf4jnsgd1na2vs0mg"},{"bike_id":"f4311ba3-7f0f-4f8e-a874-b0248cb41d85","system_id":"levelo_inurba_marseille","lat":43.28105,"lon":5.37834,"is_reserved":false,"is_disabled":false,"rental_uris":{"android":"levelo://app?vid=f4311ba3-7f0f-4f8e-a874-b0248cb41d85","ios":"levelo://app?vid=f4311ba3-7f0f-4f8e-a874-b0248cb41d85"},"vehicle_type_id":"4","last_reported":1761246467,"current_range_meters":7200,"station_id":"ce4bha12rcd13ifvqee0","pricing_plan_id":"cebpf4jnsgd1na2vs0mg"},{"bike_id":"15aea9e7-1435-4d94-8645-cbe285c08c75","system_id":"levelo_inurba_marseille","lat":43.29529,"lon":5.3854,"is_reserved":false,"is_disabled":false,"rental_uris":{"android":"levelo://app?vid=15aea9e7-1435-4d94-8645-cbe285c08c75","ios":"levelo://app?vid=15aea9e7-1435-4d94-8645-cbe285c08c75"},"vehicle_type_id":"4","last_reported":1761246467,"current_range_meters":7200,"station_id":"ce4bgih2rcd13ifvqba0","pricing_plan_id":"cebpf4jnsgd1na2vs0mg"},{"bike_id":"066d7904-f782-44f2-ad3a-1c9e5c07d120","system_id":"levelo_inurba_marseille","lat":43.31994,"lon":5.38157,"is_reserved":false,"is_disabled":false,"rental_uris":{"android":"levelo://app?vid=066d7904-f782-44f2-ad3a-1c9e5c07d120","ios":"levelo://app?vid=066d7904-f782-44f2-ad3a-1c9e5c07d120"},"vehicle_type_id":"4","last_reported":1761246467,"current_range_meters":8000,"station_id":"ce4bhr12rcd13ifvqhpg","pricing_plan_id":"cebpf4jnsgd1na2vs0mg"},{"bike_id":"2087d38d-b561-42de-89f9-544970412313","system_id":"levelo_inurba_marseille","lat":43.26562,"lon":5.40328,"is_reserved":false,"is_disabled":false,"rental_uris":{"android":"levelo://app?vid=2087d38d-b561-42de-89f9-544970412313","ios":"levelo://app?vid=2087d38d-b561-42de-89f9-544970412313"},"vehicle_type_id":"4","last_reported":1761246467,"current_range_meters":8000,"station_id":"ce4bhmp2rcd13ifvqgng","pricing_plan_id":"cebpf4jnsgd1na2vs0mg"},{"bike_id":"a9bae4a7-1ba5-4e7d-9d8c-f012f9407be6","system_id":"levelo_inurba_marseille","lat":43.31116,"lon":5.37779,"is_reserved":false,"is_disabled":false,"rental_uris":{"android":"levelo://app?vid=a9bae4a7-1ba5-4e7d-9d8c-f012f9407be6","ios":"levelo://app?vid=a9bae4a7-1ba5-4e7d-9d8c-f012f9407be6"},"vehicle_type_id":"4","last_reported":1761246467,"current_range_meters":8000,"station_id":"ce4bgt92rcd13ifvqcg0","pricing_plan_id":"cebpf4jnsgd1na2vs0mg"},{"bike_id":"5385651e-5d96-4b05-9e5e-8383228be157","system_id":"levelo_inurba_marseille","lat":43.279074,"lon":5.380063,"is_reserved":false,"is_disabled":true,"rental_uris":{"android":"levelo://app?vid=5385651e-5d96-4b05-9e5e-8383228be157","ios":"levelo://app?vid=5385651e-5d96-4b05-9e5e-8383228be157"},"vehicle_type_id":"4","last_reported":1761246467,"current_range_meters":8000,"station_id":"ce4bhf92rcd13ifvqf50","pricing_plan_id":"cebpf4jnsgd1na2vs0mg"},{"bike_id":"db49df1b-552d-4ef2-ac80-56f596162208","system_id":"levelo_inurba_marseille","lat":43.30239,"lon":5.40046,"is_reserved":false,"is_disabled":false,"rental_uris":{"android":"levelo://app?vid=db49df1b-552d-4ef2-ac80-56f596162208","ios":"levelo://app?vid=db49df1b-552d-4ef2-ac80-56f596162208"},"vehicle_type_id":"4","last_reported":1761246467,"current_range_meters":8000,"station_id":"ce4bgvh2rcd13ifvqcs0","pricing_plan_id":"cebpf4jnsgd1na2vs0mg"},{"bike_id":"d382f099-9ec1-49c5-b743-189219a6b691","system_id":"levelo_inurba_marseille","lat":43.29965,"lon":5.38495,"is_reserved":false,"is_disabled":false,"rental_uris":{"android":"levelo://app?vid=d382f099-9ec1-49c5-b743-189219a6b691","ios":"levelo://app?vid=d382f099-9ec1-49c5-b743-189219a6b691"},"vehicle_type_id":"4","last_reported":1761246467,"current_range_meters":8400,"station_id":"ce4bgj92rcd13ifvqbd0","pricing_plan_id":"cebpf4jnsgd1na2vs0mg"},{"bike_id":"6fc95b1a-78e9-4779-8109-fd662522fe8c","system_id":"levelo_inurba_marseille","lat":43.29884,"lon":5.38896,"is_reserved":false,"is_disabled":false,"rental_uris":{"android":"levelo://app?vid=6fc95b1a-78e9-4779-8109-fd662522fe8c","ios":"levelo://app?vid=6fc95b1a-78e9-4779-8109-fd662522fe8c"},"vehicle_type_id":"4","last_reported":1761246467,"current_range_meters":8400,"station_id":"ce4bh392rcd13ifvqdl0","pricing_plan_id":"cebpf4jnsgd1na2vs0mg"},{"bike_id":"4ec0d2d1-5445-4ec5-84c8-ae5ff8028787","system_id":"levelo_inurba_marseille","lat":43.27914,"lon":5.39574,"is_reserved":false,"is_disabled":false,"rental_uris":{"android":"levelo://app?vid=4ec0d2d1-5445-4ec5-84c8-ae5ff8028787","ios":"levelo://app?vid=4ec0d2d1-5445-4ec5-84c8-ae5ff8028787"},"vehicle_type_id":"4","last_reported":1761246467,"current_range_meters":8400,"station_id":"ce4bhf92rcd13ifvqf40","pricing_plan_id":"cebpf4jnsgd1na2vs0mg"},{"bike_id":"aa5c39ca-5467-4d85-a1f8-b790dbb0979e","system_id":"levelo_inurba_marseille","lat":43.30702,"lon":5.37371,"is_reserved":false,"is_disabled":false,"rental_uris":{"android":"levelo://app?vid=aa5c39ca-5467-4d85-a1f8-b790dbb0979e","ios":"levelo://app?vid=aa5c39ca-5467-4d85-a1f8-b790dbb0979e"},"vehicle_type_id":"4","last_reported":1761246467,"current_range_meters":8400,"station_id":"","pricing_plan_id":"cebpf4jnsgd1na2vs0mg"},{"bike_id":"503b92bf-ef6b-4bf9-8c0d-919af745fb1a","system_id":"levelo_inurba_marseille","lat":43.2927,"lon":5.36837,"is_reserved":false,"is_disabled":false,"rental_uris":{"android":"levelo://app?vid=503b92bf-ef6b-4bf9-8c0d-919af745fb1a","ios":"levelo://app?vid=503b92bf-ef6b-4bf9-8c0d-919af745fb1a"},"vehicle_type_id":"4","last_reported":1761246467,"current_range_meters":8400,"station_id":"ce4bhbp2rcd13ifvqesg","pricing_plan_id":"cebpf4jnsgd1na2vs0mg"},{"bike_id":"bdee4525-5e22-4e34-a02a-ffe4a583031d","system_id":"levelo_inurba_marseille","lat":43.29531,"lon":5.39394,"is_reserved":false,"is_disabled":false,"rental_uris":{"android":"levelo://app?vid=bdee4525-5e22-4e34-a02a-ffe4a583031d","ios":"levelo://app?vid=bdee4525-5e22-4e34-a02a-ffe4a583031d"},"vehicle_type_id":"4","last_reported":1761246467,"current_range_meters":8400,"station_id":"ce4bh292rcd13ifvqdf0","pricing_plan_id":"cebpf4jnsgd1na2vs0mg"},{"bike_id":"3aa8c3e6-230d-4538-ac39-2b944611f536","system_id":"levelo_inurba_marseille","lat":43.313565,"lon":5.367189,"is_reserved":false,"is_disabled":true,"rental_uris":{"android":"levelo://app?vid=3aa8c3e6-230d-4538-ac39-2b944611f536","ios":"levelo://app?vid=3aa8c3e6-230d-4538-ac39-2b944611f536"},"vehicle_type_id":"4","last_reported":1761246467,"current_range_meters":8400,"station_id":"ce4bgr92rcd13ifvqc6g","pricing_plan_id":"cebpf4jnsgd1na2vs0mg"},{"bike_id":"6a662624-d03e-45d5-964b-74ea5f67d032","system_id":"levelo_inurba_marseille","lat":43.31111,"lon":5.37772,"is_reserved":false,"is_disabled":true,"rental_uris":{"android":"levelo://app?vid=6a662624-d03e-45d5-964b-74ea5f67d032","ios":"levelo://app?vid=6a662624-d03e-45d5-964b-74ea5f67d032"},"vehicle_type_id":"4","last_reported":1761246467,"current_range_meters":8800,"station_id":"ce4bgt92rcd13ifvqcg0","pricing_plan_id":"cebpf4jnsgd1na2vs0mg"},{"bike_id":"cd0cadb0-3b2e-465b-9d15-7d593ef08f95","system_id":"levelo_inurba_marseille","lat":43.2648,"lon":5.3955,"is_reserved":false,"is_disabled":false,"rental_uris":{"android":"levelo://app?vid=cd0cadb0-3b2e-465b-9d15-7d593ef08f95","ios":"levelo://app?vid=cd0cadb0-3b2e-465b-9d15-7d593ef08f95"},"vehicle_type_id":"4","last_reported":1761246467,"current_range_meters":8800,"station_id":"ce4bhi12rcd13ifvqfq0","pricing_plan_id":"cebpf4jnsgd1na2vs0mg"},{"bike_id":"cc8a8155-bb7e-44bc-968f-b2726e3983fd","system_id":"levelo_inurba_marseille","lat":43.3096,"lon":5.39044,"is_reserved":false,"is_disabled":false,"rental_uris":{"android":"levelo://app?vid=cc8a8155-bb7e-44bc-968f-b2726e3983fd","ios":"levelo://app?vid=cc8a8155-bb7e-44bc-968f-b2726e3983fd"},"vehicle_type_id":"4","last_reported":1761246467,"current_range_meters":8800,"station_id":"ce4bgup2rcd13ifvqco0","pricing_plan_id":"cebpf4jnsgd1na2vs0mg"},{"bike_id":"4eae2ec4-8862-466e-a3d9-395cca4276d0","system_id":"levelo_inurba_marseille","lat":43.30376,"lon":5.37605,"is_reserved":false,"is_disabled":false,"rental_uris":{"android":"levelo://app?vid=4eae2ec4-8862-466e-a3d9-395cca4276d0","ios":"levelo://app?vid=4eae2ec4-8862-466e-a3d9-395cca4276d0"},"vehicle_type_id":"4","last_reported":1761246467,"current_range_meters":8800,"station_id":"","pricing_plan_id":"cebpf4jnsgd1na2vs0mg"},{"bike_id":"91808c87-bda8-4955-a0a1-9a1682749143","system_id":"levelo_inurba_marseille","lat":43.24072,"lon":5.37764,"is_reserved":false,"is_disabled":false,"rental_uris":{"android":"levelo://app?vid=91808c87-bda8-4955-a0a1-9a1682749143","ios":"levelo://app?vid=91808c87-bda8-4955-a0a1-9a1682749143"},"vehicle_type_id":"4","last_reported":1761246467,"current_range_meters":8800,"station_id":"ce4bhnp2rcd13ifvqgvg","pricing_plan_id":"cebpf4jnsgd1na2vs0mg"},{"bike_id":"95bcaf91-ce7a-472c-9341-ad01f493e68a","system_id":"levelo_inurba_marseille","lat":43.29516,"lon":5.39031,"is_reserved":false,"is_disabled":false,"rental_uris":{"android":"levelo://app?vid=95bcaf91-ce7a-472c-9341-ad01f493e68a","ios":"levelo://app?vid=95bcaf91-ce7a-472c-9341-ad01f493e68a"},"vehicle_type_id":"4","last_reported":1761246467,"current_range_meters":9200,"station_id":"ce4bh3p2rcd13ifvqdp0","pricing_plan_id":"cebpf4jnsgd1na2vs0mg"},{"bike_id":"141d0206-7176-4076-85e1-c7bab33b6489","system_id":"levelo_inurba_marseille","lat":43.31057,"lon":5.38349,"is_reserved":false,"is_disabled":false,"rental_uris":{"android":"levelo://app?vid=141d0206-7176-4076-85e1-c7bab33b6489","ios":"levelo://app?vid=141d0206-7176-4076-85e1-c7bab33b6489"},"vehicle_type_id":"4","last_reported":1761246467,"current_range_meters":9200,"station_id":"ce4bgv92rcd13ifvqcr0","pricing_plan_id":"cebpf4jnsgd1na2vs0mg"},{"bike_id":"a59d1231-e47a-4dfa-9065-4acedf359f8f","system_id":"levelo_inurba_marseille","lat":43.21739,"lon":5.34613,"is_reserved":false,"is_disabled":false,"rental_uris":{"android":"levelo://app?vid=a59d1231-e47a-4dfa-9065-4acedf359f8f","ios":"levelo://app?vid=a59d1231-e47a-4dfa-9065-4acedf359f8f"},"vehicle_type_id":"4","last_reported":1761246467,"current_range_meters":9200,"station_id":"st_cvj6r9ubvosntc0bgbag","pricing_plan_id":"cebpf4jnsgd1na2vs0mg"},{"bike_id":"07e992db-48e1-481b-a50e-3b491cfc1455","system_id":"levelo_inurba_marseille","lat":43.31991,"lon":5.41291,"is_reserved":false,"is_disabled":false,"rental_uris":{"android":"levelo://app?vid=07e992db-48e1-481b-a50e-3b491cfc1455","ios":"levelo://app?vid=07e992db-48e1-481b-a50e-3b491cfc1455"},"vehicle_type_id":"4","last_reported":1761246467,"current_range_meters":9200,"station_id":"","pricing_plan_id":"cebpf4jnsgd1na2vs0mg"},{"bike_id":"3e242645-29eb-4bb8-b34c-922c9b552c32","system_id":"levelo_inurba_marseille","lat":43.29271,"lon":5.36846,"is_reserved":false,"is_disabled":false,"rental_uris":{"android":"levelo://app?vid=3e242645-29eb-4bb8-b34c-922c9b552c32","ios":"levelo://app?vid=3e242645-29eb-4bb8-b34c-922c9b552c32"},"vehicle_type_id":"4","last_reported":1761246467,"current_range_meters":9200,"station_id":"ce4bhbp2rcd13ifvqesg","pricing_plan_id":"cebpf4jnsgd1na2vs0mg"},{"bike_id":"3a71a0f7-8236-4b2b-92bd-76894c7a03d8","system_id":"levelo_inurba_marseille","lat":43.2979,"lon":5.39341,"is_reserved":false,"is_disabled":false,"rental_uris":{"android":"levelo://app?vid=3a71a0f7-8236-4b2b-92bd-76894c7a03d8","ios":"levelo://app?vid=3a71a0f7-8236-4b2b-92bd-76894c7a03d8"},"vehicle_type_id":"4","last_reported":1761246467,"current_range_meters":9200,"station_id":"chh1huq6cuj3fo74tm60","pricing_plan_id":"cebpf4jnsgd1na2vs0mg"},{"bike_id":"456aae78-79b6-4f6e-b790-017e8df9eefc","system_id":"levelo_inurba_marseille","lat":43.28474,"lon":5.38412,"is_reserved":false,"is_disabled":false,"rental_uris":{"android":"levelo://app?vid=456aae78-79b6-4f6e-b790-017e8df9eefc","ios":"levelo://app?vid=456aae78-79b6-4f6e-b790-017e8df9eefc"},"vehicle_type_id":"4","last_reported":1761246467,"current_range_meters":9600,"station_id":"ce4bh512rcd13ifvqe3g","pricing_plan_id":"cebpf4jnsgd1na2vs0mg"},{"bike_id":"7dc3a787-7b14-4505-8e32-0b28349ba8b9","system_id":"levelo_inurba_marseille","lat":43.287063,"lon":5.362525,"is_reserved":false,"is_disabled":false,"rental_uris":{"android":"levelo://app?vid=7dc3a787-7b14-4505-8e32-0b28349ba8b9","ios":"levelo://app?vid=7dc3a787-7b14-4505-8e32-0b28349ba8b9"},"vehicle_type_id":"4","last_reported":1761246467,"current_range_meters":9600,"station_id":"","pricing_plan_id":"cebpf4jnsgd1na2vs0mg"},{"bike_id":"df27198e-341e-413a-b336-7dc9cdde9d6c","system_id":"levelo_inurba_marseille","lat":43.31483,"lon":5.37308,"is_reserved":false,"is_disabled":false,"rental_uris":{"android":"levelo://app?vid=df27198e-341e-413a-b336-7dc9cdde9d6c","ios":"levelo://app?vid=df27198e-341e-413a-b336-7dc9cdde9d6c"},"vehicle_type_id":"4","last_reported":1761246467,"current_range_meters":9600,"station_id":"ce4bgt12rcd13ifvqcd0","pricing_plan_id":"cebpf4jnsgd1na2vs0mg"},{"bike_id":"65d6b72b-68bd-471c-b307-1c9a797ba679","system_id":"levelo_inurba_marseille","lat":43.30246,"lon":5.400649,"is_reserved":false,"is_disabled":false,"rental_uris":{"android":"levelo://app?vid=65d6b72b-68bd-471c-b307-1c9a797ba679","ios":"levelo://app?vid=65d6b72b-68bd-471c-b307-1c9a797ba679"},"vehicle_type_id":"4","last_reported":1761246467,"current_range_meters":9600,"station_id":"ce4bh692rcd13ifvqea0","pricing_plan_id":"cebpf4jnsgd1na2vs0mg"},{"bike_id":"defa6609-d762-487c-ac72-0fa091ad62ef","system_id":"levelo_inurba_marseille","lat":43.29533,"lon":5.38542,"is_reserved":false,"is_disabled":false,"rental_uris":{"android":"levelo://app?vid=defa6609-d762-487c-ac72-0fa091ad62ef","ios":"levelo://app?vid=defa6609-d762-487c-ac72-0fa091ad62ef"},"vehicle_type_id":"4","last_reported":1761246467,"current_range_meters":9600,"station_id":"ce4bgih2rcd13ifvqba0","pricing_plan_id":"cebpf4jnsgd1na2vs0mg"},{"bike_id":"123cc1e5-f4c3-4538-acd0-8b457da3e49f","system_id":"levelo_inurba_marseille","lat":43.28229,"lon":5.39074,"is_reserved":false,"is_disabled":false,"rental_uris":{"android":"levelo://app?vid=123cc1e5-f4c3-4538-acd0-8b457da3e49f","ios":"levelo://app?vid=123cc1e5-f4c3-4538-acd0-8b457da3e49f"},"vehicle_type_id":"4","last_reported":1761246467,"current_range_meters":10000,"station_id":"ce4bhn92rcd13ifvqgsg","pricing_plan_id":"cebpf4jnsgd1na2vs0mg"},{"bike_id":"c8c0fa58-a519-4343-9887-b0c694f93aef","system_id":"levelo_inurba_marseille","lat":43.28853,"lon":5.42515,"is_reserved":false,"is_disabled":false,"rental_uris":{"android":"levelo://app?vid=c8c0fa58-a519-4343-9887-b0c694f93aef","ios":"levelo://app?vid=c8c0fa58-a519-4343-9887-b0c694f93aef"},"vehicle_type_id":"4","last_reported":1761246467,"current_range_meters":10000,"station_id":"st_d3b462108ojc7389ooeg","pricing_plan_id":"cebpf4jnsgd1na2vs0mg"},{"bike_id":"aa2bdc3f-bf6e-4740-8b20-e2dc3d16f0c6","system_id":"levelo_inurba_marseille","lat":43.292603,"lon":5.384273,"is_reserved":false,"is_disabled":false,"rental_uris":{"android":"levelo://app?vid=aa2bdc3f-bf6e-4740-8b20-e2dc3d16f0c6","ios":"levelo://app?vid=aa2bdc3f-bf6e-4740-8b20-e2dc3d16f0c6"},"vehicle_type_id":"4","last_reported":1761246467,"current_range_meters":10000,"station_id":"ce4bh692rcd13ifvqea0","pricing_plan_id":"cebpf4jnsgd1na2vs0mg"},{"bike_id":"5b911553-7dd5-4eae-8768-cc1a11409830","system_id":"levelo_inurba_marseille","lat":43.31499,"lon":5.37308,"is_reserved":false,"is_disabled":false,"rental_uris":{"android":"levelo://app?vid=5b911553-7dd5-4eae-8768-cc1a11409830","ios":"levelo://app?vid=5b911553-7dd5-4eae-8768-cc1a11409830"},"vehicle_type_id":"4","last_reported":1761246467,"current_range_meters":10800,"station_id":"ce4bgt12rcd13ifvqcd0","pricing_plan_id":"cebpf4jnsgd1na2vs0mg"},{"bike_id":"f1ad257a-cc46-4782-bcec-3b13b70bab91","system_id":"levelo_inurba_marseille","lat":43.28578,"lon":5.39495,"is_reserved":false,"is_disabled":false,"rental_uris":{"android":"levelo://app?vid=f1ad257a-cc46-4782-bcec-3b13b70bab91","ios":"levelo://app?vid=f1ad257a-cc46-4782-bcec-3b13b70bab91"},"vehicle_type_id":"4","last_reported":1761246467,"current_range_meters":10800,"station_id":"ce4bh292rcd13ifvqdg0","pricing_plan_id":"cebpf4jnsgd1na2vs0mg"},{"bike_id":"0c64e7dd-35d1-4eae-9b65-5fa168ec1ddb","system_id":"levelo_inurba_marseille","lat":43.27926,"lon":5.39579,"is_reserved":false,"is_disabled":false,"rental_uris":{"android":"levelo://app?vid=0c64e7dd-35d1-4eae-9b65-5fa168ec1ddb","ios":"levelo://app?vid=0c64e7dd-35d1-4eae-9b65-5fa168ec1ddb"},"vehicle_type_id":"4","last_reported":1761246467,"current_range_meters":10800,"station_id":"ce4bhf92rcd13ifvqf40","pricing_plan_id":"cebpf4jnsgd1na2vs0mg"},{"bike_id":"50187627-89e9-492a-b3a9-1aa681dbc2b0","system_id":"levelo_inurba_marseille","lat":43.31717,"lon":5.42401,"is_reserved":false,"is_disabled":false,"rental_uris":{"android":"levelo://app?vid=50187627-89e9-492a-b3a9-1aa681dbc2b0","ios":"levelo://app?vid=50187627-89e9-492a-b3a9-1aa681dbc2b0"},"vehicle_type_id":"4","last_reported":1761246467,"current_range_meters":10800,"station_id":"ce4bhp92rcd13ifvqhbg","pricing_plan_id":"cebpf4jnsgd1na2vs0mg"},{"bike_id":"3a2780e7-ba86-431e-ad56-1fc104a7e4fa","system_id":"levelo_inurba_marseille","lat":43.23788,"lon":5.36635,"is_reserved":false,"is_disabled":false,"rental_uris":{"android":"levelo://app?vid=3a2780e7-ba86-431e-ad56-1fc104a7e4fa","ios":"levelo://app?vid=3a2780e7-ba86-431e-ad56-1fc104a7e4fa"},"vehicle_type_id":"4","last_reported":1761246467,"current_range_meters":10800,"station_id":"st_d3nk18o9ro0c73en2l3g","pricing_plan_id":"cebpf4jnsgd1na2vs0mg"},{"bike_id":"e16bfc83-e32e-414c-9fdd-3abe8c36c04f","system_id":"levelo_inurba_marseille","lat":43.2844,"lon":5.3752,"is_reserved":false,"is_disabled":true,"rental_uris":{"android":"levelo://app?vid=e16bfc83-e32e-414c-9fdd-3abe8c36c04f","ios":"levelo://app?vid=e16bfc83-e32e-414c-9fdd-3abe8c36c04f"},"vehicle_type_id":"4","last_reported":1761246467,"current_range_meters":11200,"station_id":"ce4bh412rcd13ifvqds0","pricing_plan_id":"cebpf4jnsgd1na2vs0mg"},{"bike_id":"7b67c25b-eecd-4dd6-b150-304e653009fa","system_id":"levelo_inurba_marseille","lat":43.288506,"lon":5.393113,"is_reserved":false,"is_disabled":false,"rental_uris":{"android":"levelo://app?vid=7b67c25b-eecd-4dd6-b150-304e653009fa","ios":"levelo://app?vid=7b67c25b-eecd-4dd6-b150-304e653009fa"},"vehicle_type_id":"4","last_reported":1761246467,"current_range_meters":11200,"station_id":"ce4bh2p2rcd13ifvqdi0","pricing_plan_id":"cebpf4jnsgd1na2vs0mg"},{"bike_id":"32e7919e-26d8-4f7d-b229-086147816fa4","system_id":"levelo_inurba_marseille","lat":43.301286,"lon":5.38775,"is_reserved":false,"is_disabled":false,"rental_uris":{"android":"levelo://app?vid=32e7919e-26d8-4f7d-b229-086147816fa4","ios":"levelo://app?vid=32e7919e-26d8-4f7d-b229-086147816fa4"},"vehicle_type_id":"4","last_reported":1761246467,"current_range_meters":11200,"station_id":"","pricing_plan_id":"cebpf4jnsgd1na2vs0mg"},{"bike_id":"1aaa028d-93d8-4a20-8355-7a4b17d8620a","system_id":"levelo_inurba_marseille","lat":43.27634,"lon":5.39216,"is_reserved":false,"is_disabled":false,"rental_uris":{"android":"levelo://app?vid=1aaa028d-93d8-4a20-8355-7a4b17d8620a","ios":"levelo://app?vid=1aaa028d-93d8-4a20-8355-7a4b17d8620a"},"vehicle_type_id":"4","last_reported":1761246467,"current_range_meters":11200,"station_id":"","pricing_plan_id":"cebpf4jnsgd1na2vs0mg"},{"bike_id":"8cc4acb3-c3f3-4525-8679-750c57933120","system_id":"levelo_inurba_marseille","lat":43.33032,"lon":5.39053,"is_reserved":false,"is_disabled":false,"rental_uris":{"android":"levelo://app?vid=8cc4acb3-c3f3-4525-8679-750c57933120","ios":"levelo://app?vid=8cc4acb3-c3f3-4525-8679-750c57933120"},"vehicle_type_id":"4","last_reported":1761246467,"current_range_meters":11600,"station_id":"ce4bhr92rcd13ifvqhrg","pricing_plan_id":"cebpf4jnsgd1na2vs0mg"},{"bike_id":"9a53f7bb-2dc0-4d7c-9016-a7a3a4cb8eaa","system_id":"levelo_inurba_marseille","lat":43.26682,"lon":5.38268,"is_reserved":false,"is_disabled":false,"rental_uris":{"android":"levelo://app?vid=9a53f7bb-2dc0-4d7c-9016-a7a3a4cb8eaa","ios":"levelo://app?vid=9a53f7bb-2dc0-4d7c-9016-a7a3a4cb8eaa"},"vehicle_type_id":"4","last_reported":1761246467,"current_range_meters":12000,"station_id":"ce4bhg92rcd13ifvqf90","pricing_plan_id":"cebpf4jnsgd1na2vs0mg"},{"bike_id":"0198280f-05b0-401c-b9f2-7586dff77353","system_id":"levelo_inurba_marseille","lat":43.28891,"lon":5.378,"is_reserved":false,"is_disabled":false,"rental_uris":{"android":"levelo://app?vid=0198280f-05b0-401c-b9f2-7586dff77353","ios":"levelo://app?vid=0198280f-05b0-401c-b9f2-7586dff77353"},"vehicle_type_id":"4","last_reported":1761246467,"current_range_meters":12000,"station_id":"","pricing_plan_id":"cebpf4jnsgd1na2vs0mg"},{"bike_id":"4ddc4975-b2ed-479c-94bd-ff4fa859ecd5","system_id":"levelo_inurba_marseille","lat":43.3117,"lon":5.38726,"is_reserved":false,"is_disabled":false,"rental_uris":{"android":"levelo://app?vid=4ddc4975-b2ed-479c-94bd-ff4fa859ecd5","ios":"levelo://app?vid=4ddc4975-b2ed-479c-94bd-ff4fa859ecd5"},"vehicle_type_id":"4","last_reported":1761246467,"current_range_meters":12000,"station_id":"ce4bgv12rcd13ifvqcp0","pricing_plan_id":"cebpf4jnsgd1na2vs0mg"},{"bike_id":"ad301688-b14f-4af3-95f1-dcce66296b92","system_id":"levelo_inurba_marseille","lat":43.24091,"lon":5.3773,"is_reserved":false,"is_disabled":false,"rental_uris":{"android":"levelo://app?vid=ad301688-b14f-4af3-95f1-dcce66296b92","ios":"levelo://app?vid=ad301688-b14f-4af3-95f1-dcce66296b92"},"vehicle_type_id":"4","last_reported":1761246467,"current_range_meters":12000,"station_id":"ce4bhnp2rcd13ifvqgvg","pricing_plan_id":"cebpf4jnsgd1na2vs0mg"},{"bike_id":"bda3ed1a-3199-4eb8-8229-577855d09dbb","system_id":"levelo_inurba_marseille","lat":43.3163,"lon":5.37876,"is_reserved":false,"is_disabled":false,"rental_uris":{"android":"levelo://app?vid=bda3ed1a-3199-4eb8-8229-577855d09dbb","ios":"levelo://app?vid=bda3ed1a-3199-4eb8-8229-577855d09dbb"},"vehicle_type_id":"4","last_reported":1761246467,"current_range_meters":12400,"station_id":"","pricing_plan_id":"cebpf4jnsgd1na2vs0mg"},{"bike_id":"f30d474c-592d-470d-816b-bf7526dcf767","system_id":"levelo_inurba_marseille","lat":43.30837,"lon":5.38121,"is_reserved":false,"is_disabled":false,"rental_uris":{"android":"levelo://app?vid=f30d474c-592d-470d-816b-bf7526dcf767","ios":"levelo://app?vid=f30d474c-592d-470d-816b-bf7526dcf767"},"vehicle_type_id":"4","last_reported":1761246467,"current_range_meters":12400,"station_id":"ce4bgt12rcd13ifvqce0","pricing_plan_id":"cebpf4jnsgd1na2vs0mg"},{"bike_id":"afdb016c-fc14-4b5f-9d95-c5e240b66ab4","system_id":"levelo_inurba_marseille","lat":43.29256,"lon":5.38445,"is_reserved":false,"is_disabled":false,"rental_uris":{"android":"levelo://app?vid=afdb016c-fc14-4b5f-9d95-c5e240b66ab4","ios":"levelo://app?vid=afdb016c-fc14-4b5f-9d95-c5e240b66ab4"},"vehicle_type_id":"4","last_reported":1761246467,"current_range_meters":12400,"station_id":"ce4bh692rcd13ifvqea0","pricing_plan_id":"cebpf4jnsgd1na2vs0mg"},{"bike_id":"51b448c5-4b37-4ea2-8980-6da1cf5b3b78","system_id":"levelo_inurba_marseille","lat":43.29256,"lon":5.38433,"is_reserved":false,"is_disabled":false,"rental_uris":{"android":"levelo://app?vid=51b448c5-4b37-4ea2-8980-6da1cf5b3b78","ios":"levelo://app?vid=51b448c5-4b37-4ea2-8980-6da1cf5b3b78"},"vehicle_type_id":"4","last_reported":1761246467,"current_range_meters":12400,"station_id":"ce4bh692rcd13ifvqea0","pricing_plan_id":"cebpf4jnsgd1na2vs0mg"},{"bike_id":"c4f3ce1c-eede-4af4-aa83-8c3f04e546bc","system_id":"levelo_inurba_marseille","lat":43.2926,"lon":5.38437,"is_reserved":false,"is_disabled":false,"rental_uris":{"android":"levelo://app?vid=c4f3ce1c-eede-4af4-aa83-8c3f04e546bc","ios":"levelo://app?vid=c4f3ce1c-eede-4af4-aa83-8c3f04e546bc"},"vehicle_type_id":"4","last_reported":1761246467,"current_range_meters":12400,"station_id":"ce4bh692rcd13ifvqea0","pricing_plan_id":"cebpf4jnsgd1na2vs0mg"},{"bike_id":"0a735343-9830-4018-a7b8-9b9977228a29","system_id":"levelo_inurba_marseille","lat":43.29304,"lon":5.37183,"is_reserved":false,"is_disabled":false,"rental_uris":{"android":"levelo://app?vid=0a735343-9830-4018-a7b8-9b9977228a29","ios":"levelo://app?vid=0a735343-9830-4018-a7b8-9b9977228a29"},"vehicle_type_id":"4","last_reported":1761246467,"current_range_meters":12800,"station_id":"ce4bgh92rcd13ifvqb40","pricing_plan_id":"cebpf4jnsgd1na2vs0mg"},{"bike_id":"8046e7df-128f-4240-a840-9126abd839eb","system_id":"levelo_inurba_marseille","lat":43.28153,"lon":5.42645,"is_reserved":false,"is_disabled":false,"rental_uris":{"android":"levelo://app?vid=8046e7df-128f-4240-a840-9126abd839eb","ios":"levelo://app?vid=8046e7df-128f-4240-a840-9126abd839eb"},"vehicle_type_id":"4","last_reported":1761246467,"current_range_meters":12800,"station_id":"ce4bhnh2rcd13ifvqgug","pricing_plan_id":"cebpf4jnsgd1na2vs0mg"},{"bike_id":"91c55894-f90b-4c6a-9935-1ccd1665a401","system_id":"levelo_inurba_marseille","lat":43.29595,"lon":5.37721,"is_reserved":false,"is_disabled":true,"rental_uris":{"android":"levelo://app?vid=91c55894-f90b-4c6a-9935-1ccd1665a401","ios":"levelo://app?vid=91c55894-f90b-4c6a-9935-1ccd1665a401"},"vehicle_type_id":"4","last_reported":1761246467,"current_range_meters":12800,"station_id":"ce4bgi92rcd13ifvqb90","pricing_plan_id":"cebpf4jnsgd1na2vs0mg"},{"bike_id":"614693d7-2386-45e0-a1d2-8fd657e03d3f","system_id":"levelo_inurba_marseille","lat":43.311184,"lon":5.377745,"is_reserved":false,"is_disabled":false,"rental_uris":{"android":"levelo://app?vid=614693d7-2386-45e0-a1d2-8fd657e03d3f","ios":"levelo://app?vid=614693d7-2386-45e0-a1d2-8fd657e03d3f"},"vehicle_type_id":"4","last_reported":1761246467,"current_range_meters":12800,"station_id":"ce4bgt92rcd13ifvqcg0","pricing_plan_id":"cebpf4jnsgd1na2vs0mg"},{"bike_id":"d1913297-aa70-4d7d-b6e2-0b440eadab60","system_id":"levelo_inurba_marseille","lat":43.316254,"lon":5.405183,"is_reserved":false,"is_disabled":false,"rental_uris":{"android":"levelo://app?vid=d1913297-aa70-4d7d-b6e2-0b440eadab60","ios":"levelo://app?vid=d1913297-aa70-4d7d-b6e2-0b440eadab60"},"vehicle_type_id":"4","last_reported":1761246467,"current_range_meters":12800,"station_id":"ce4bh012rcd13ifvqd00","pricing_plan_id":"cebpf4jnsgd1na2vs0mg"},{"bike_id":"323bf2de-3bb4-4b4c-b330-b19ea807dbf5","system_id":"levelo_inurba_marseille","lat":43.32997,"lon":5.42952,"is_reserved":false,"is_disabled":false,"rental_uris":{"android":"levelo://app?vid=323bf2de-3bb4-4b4c-b330-b19ea807dbf5","ios":"levelo://app?vid=323bf2de-3bb4-4b4c-b330-b19ea807dbf5"},"vehicle_type_id":"4","last_reported":1761246467,"current_range_meters":12800,"station_id":"","pricing_plan_id":"cebpf4jnsgd1na2vs0mg"},{"bike_id":"b284a5b8-145b-4b18-970a-f541b5c0ebef","system_id":"levelo_inurba_marseille","lat":43.28552,"lon":5.39459,"is_reserved":false,"is_disabled":false,"rental_uris":{"android":"levelo://app?vid=b284a5b8-145b-4b18-970a-f541b5c0ebef","ios":"levelo://app?vid=b284a5b8-145b-4b18-970a-f541b5c0ebef"},"vehicle_type_id":"4","last_reported":1761246467,"current_range_meters":12800,"station_id":"ce4bh292rcd13ifvqdg0","pricing_plan_id":"cebpf4jnsgd1na2vs0mg"},{"bike_id":"4c5e9014-36ec-4802-96ab-07ce1aa7af7e","system_id":"levelo_inurba_marseille","lat":43.29164,"lon":5.37164,"is_reserved":false,"is_disabled":false,"rental_uris":{"android":"levelo://app?vid=4c5e9014-36ec-4802-96ab-07ce1aa7af7e","ios":"levelo://app?vid=4c5e9014-36ec-4802-96ab-07ce1aa7af7e"},"vehicle_type_id":"4","last_reported":1761246467,"current_range_meters":12800,"station_id":"ce4bha92rcd13ifvqeh0","pricing_plan_id":"cebpf4jnsgd1na2vs0mg"},{"bike_id":"f73a5199-6146-4ac3-9323-07c6be37def5","system_id":"levelo_inurba_marseille","lat":43.25596,"lon":5.38239,"is_reserved":false,"is_disabled":false,"rental_uris":{"android":"levelo://app?vid=f73a5199-6146-4ac3-9323-07c6be37def5","ios":"levelo://app?vid=f73a5199-6146-4ac3-9323-07c6be37def5"},"vehicle_type_id":"4","last_reported":1761246467,"current_range_meters":12800,"station_id":"ce4bhih2rcd13ifvqfs0","pricing_plan_id":"cebpf4jnsgd1na2vs0mg"},{"bike_id":"c0574daa-cdfc-45e8-a5e1-e4c13f1b066e","system_id":"levelo_inurba_marseille","lat":43.30953,"lon":5.39031,"is_reserved":false,"is_disabled":false,"rental_uris":{"android":"levelo://app?vid=c0574daa-cdfc-45e8-a5e1-e4c13f1b066e","ios":"levelo://app?vid=c0574daa-cdfc-45e8-a5e1-e4c13f1b066e"},"vehicle_type_id":"4","last_reported":1761246467,"current_range_meters":12800,"station_id":"ce4bgup2rcd13ifvqco0","pricing_plan_id":"cebpf4jnsgd1na2vs0mg"},{"bike_id":"853b4d07-ba43-4f1d-9f34-91f5048439e4","system_id":"levelo_inurba_marseille","lat":43.31167,"lon":5.38697,"is_reserved":false,"is_disabled":false,"rental_uris":{"android":"levelo://app?vid=853b4d07-ba43-4f1d-9f34-91f5048439e4","ios":"levelo://app?vid=853b4d07-ba43-4f1d-9f34-91f5048439e4"},"vehicle_type_id":"4","last_reported":1761246467,"current_range_meters":13600,"station_id":"ce4bgv12rcd13ifvqcp0","pricing_plan_id":"cebpf4jnsgd1na2vs0mg"},{"bike_id":"beafc51c-0077-4e43-a43d-98e5a842dece","system_id":"levelo_inurba_marseille","lat":43.305406,"lon":5.367065,"is_reserved":false,"is_disabled":false,"rental_uris":{"android":"levelo://app?vid=beafc51c-0077-4e43-a43d-98e5a842dece","ios":"levelo://app?vid=beafc51c-0077-4e43-a43d-98e5a842dece"},"vehicle_type_id":"4","last_reported":1761246467,"current_range_meters":13600,"station_id":"ce4bh3h2rcd13ifvqdn0","pricing_plan_id":"cebpf4jnsgd1na2vs0mg"},{"bike_id":"24a11c21-7b10-418d-bff0-9d96ea02cfae","system_id":"levelo_inurba_marseille","lat":43.30772,"lon":5.37673,"is_reserved":false,"is_disabled":true,"rental_uris":{"android":"levelo://app?vid=24a11c21-7b10-418d-bff0-9d96ea02cfae","ios":"levelo://app?vid=24a11c21-7b10-418d-bff0-9d96ea02cfae"},"vehicle_type_id":"4","last_reported":1761246467,"current_range_meters":13600,"station_id":"ce4bgv92rcd13ifvqcq0","pricing_plan_id":"cebpf4jnsgd1na2vs0mg"},{"bike_id":"a05c70ed-c6cf-4c33-8408-890497404537","system_id":"levelo_inurba_marseille","lat":43.29035,"lon":5.38649,"is_reserved":false,"is_disabled":false,"rental_uris":{"android":"levelo://app?vid=a05c70ed-c6cf-4c33-8408-890497404537","ios":"levelo://app?vid=a05c70ed-c6cf-4c33-8408-890497404537"},"vehicle_type_id":"4","last_reported":1761246467,"current_range_meters":13600,"station_id":"ce4bh4p2rcd13ifvqe0g","pricing_plan_id":"cebpf4jnsgd1na2vs0mg"},{"bike_id":"39fd1ca3-4644-428d-810f-ba047ddd97b5","system_id":"levelo_inurba_marseille","lat":43.32375,"lon":5.38868,"is_reserved":false,"is_disabled":false,"rental_uris":{"android":"levelo://app?vid=39fd1ca3-4644-428d-810f-ba047ddd97b5","ios":"levelo://app?vid=39fd1ca3-4644-428d-810f-ba047ddd97b5"},"vehicle_type_id":"4","last_reported":1761246467,"current_range_meters":13600,"station_id":"ce4bhqp2rcd13ifvqhog","pricing_plan_id":"cebpf4jnsgd1na2vs0mg"},{"bike_id":"9ea7a7a7-a2f8-45eb-9b8e-ee41ba65e33e","system_id":"levelo_inurba_marseille","lat":43.25736,"lon":5.41102,"is_reserved":false,"is_disabled":false,"rental_uris":{"android":"levelo://app?vid=9ea7a7a7-a2f8-45eb-9b8e-ee41ba65e33e","ios":"levelo://app?vid=9ea7a7a7-a2f8-45eb-9b8e-ee41ba65e33e"},"vehicle_type_id":"4","last_reported":1761246467,"current_range_meters":13600,"station_id":"ce4bhkp2rcd13ifvqgd0","pricing_plan_id":"cebpf4jnsgd1na2vs0mg"},{"bike_id":"f0764640-ec1d-486f-9e1c-59043e66eb76","system_id":"levelo_inurba_marseille","lat":43.21763,"lon":5.34597,"is_reserved":false,"is_disabled":false,"rental_uris":{"android":"levelo://app?vid=f0764640-ec1d-486f-9e1c-59043e66eb76","ios":"levelo://app?vid=f0764640-ec1d-486f-9e1c-59043e66eb76"},"vehicle_type_id":"4","last_reported":1761246467,"current_range_meters":14000,"station_id":"st_cvj6r9ubvosntc0bgbag","pricing_plan_id":"cebpf4jnsgd1na2vs0mg"},{"bike_id":"3c338306-051e-4864-9d5e-73d858887959","system_id":"levelo_inurba_marseille","lat":43.288787,"lon":5.359834,"is_reserved":false,"is_disabled":false,"rental_uris":{"android":"levelo://app?vid=3c338306-051e-4864-9d5e-73d858887959","ios":"levelo://app?vid=3c338306-051e-4864-9d5e-73d858887959"},"vehicle_type_id":"4","last_reported":1761246467,"current_range_meters":14000,"station_id":"","pricing_plan_id":"cebpf4jnsgd1na2vs0mg"},{"bike_id":"fae1f5eb-bdd4-48ed-bd99-82b1eceae36c","system_id":"levelo_inurba_marseille","lat":43.302172,"lon":5.394725,"is_reserved":false,"is_disabled":false,"rental_uris":{"android":"levelo://app?vid=fae1f5eb-bdd4-48ed-bd99-82b1eceae36c","ios":"levelo://app?vid=fae1f5eb-bdd4-48ed-bd99-82b1eceae36c"},"vehicle_type_id":"4","last_reported":1761246467,"current_range_meters":14000,"station_id":"ce4bh0p2rcd13ifvqd70","pricing_plan_id":"cebpf4jnsgd1na2vs0mg"},{"bike_id":"5cff9951-541f-411c-9169-d00d2bf3ec49","system_id":"levelo_inurba_marseille","lat":43.29846,"lon":5.36311,"is_reserved":false,"is_disabled":false,"rental_uris":{"android":"levelo://app?vid=5cff9951-541f-411c-9169-d00d2bf3ec49","ios":"levelo://app?vid=5cff9951-541f-411c-9169-d00d2bf3ec49"},"vehicle_type_id":"4","last_reported":1761246467,"current_range_meters":14000,"station_id":"ce4bgpp2rcd13ifvqc3g","pricing_plan_id":"cebpf4jnsgd1na2vs0mg"},{"bike_id":"bbecd6b7-17a7-419a-87c1-b724f160d038","system_id":"levelo_inurba_marseille","lat":43.297129,"lon":5.376957,"is_reserved":false,"is_disabled":false,"rental_uris":{"android":"levelo://app?vid=bbecd6b7-17a7-419a-87c1-b724f160d038","ios":"levelo://app?vid=bbecd6b7-17a7-419a-87c1-b724f160d038"},"vehicle_type_id":"4","last_reported":1761246467,"current_range_meters":14000,"station_id":"ce4bgkh2rcd13ifvqbl0","pricing_plan_id":"cebpf4jnsgd1na2vs0mg"},{"bike_id":"411c1be0-be6f-49d7-8829-42568747dc4b","system_id":"levelo_inurba_marseille","lat":43.28574,"lon":5.39492,"is_reserved":false,"is_disabled":false,"rental_uris":{"android":"levelo://app?vid=411c1be0-be6f-49d7-8829-42568747dc4b","ios":"levelo://app?vid=411c1be0-be6f-49d7-8829-42568747dc4b"},"vehicle_type_id":"4","last_reported":1761246467,"current_range_meters":14400,"station_id":"ce4bh292rcd13ifvqdg0","pricing_plan_id":"cebpf4jnsgd1na2vs0mg"},{"bike_id":"e769906a-6115-425c-84a0-aab1fda48d3f","system_id":"levelo_inurba_marseille","lat":43.29651,"lon":5.37675,"is_reserved":false,"is_disabled":false,"rental_uris":{"android":"levelo://app?vid=e769906a-6115-425c-84a0-aab1fda48d3f","ios":"levelo://app?vid=e769906a-6115-425c-84a0-aab1fda48d3f"},"vehicle_type_id":"4","last_reported":1761246467,"current_range_meters":14400,"station_id":"ce4bgi92rcd13ifvqb90","pricing_plan_id":"cebpf4jnsgd1na2vs0mg"},{"bike_id":"c5159add-22e5-455d-aef7-a8729d8d510e","system_id":"levelo_inurba_marseille","lat":43.28569,"lon":5.39497,"is_reserved":false,"is_disabled":false,"rental_uris":{"android":"levelo://app?vid=c5159add-22e5-455d-aef7-a8729d8d510e","ios":"levelo://app?vid=c5159add-22e5-455d-aef7-a8729d8d510e"},"vehicle_type_id":"4","last_reported":1761246467,"current_range_meters":14400,"station_id":"ce4bh292rcd13ifvqdg0","pricing_plan_id":"cebpf4jnsgd1na2vs0mg"},{"bike_id":"2f3a068c-1bff-44a7-a352-fd6d916a00a0","system_id":"levelo_inurba_marseille","lat":43.32363,"lon":5.38888,"is_reserved":false,"is_disabled":false,"rental_uris":{"android":"levelo://app?vid=2f3a068c-1bff-44a7-a352-fd6d916a00a0","ios":"levelo://app?vid=2f3a068c-1bff-44a7-a352-fd6d916a00a0"},"vehicle_type_id":"4","last_reported":1761246467,"current_range_meters":14400,"station_id":"ce4bhqp2rcd13ifvqhog","pricing_plan_id":"cebpf4jnsgd1na2vs0mg"},{"bike_id":"8bcacd78-80de-4026-af75-b37ebe3030fe","system_id":"levelo_inurba_marseille","lat":43.334756,"lon":5.404255,"is_reserved":false,"is_disabled":false,"rental_uris":{"android":"levelo://app?vid=8bcacd78-80de-4026-af75-b37ebe3030fe","ios":"levelo://app?vid=8bcacd78-80de-4026-af75-b37ebe3030fe"},"vehicle_type_id":"4","last_reported":1761246467,"current_range_meters":14400,"station_id":"","pricing_plan_id":"cebpf4jnsgd1na2vs0mg"},{"bike_id":"a851a90d-f0f5-4ea2-a30f-624f65b8432c","system_id":"levelo_inurba_marseille","lat":43.29241,"lon":5.38446,"is_reserved":false,"is_disabled":false,"rental_uris":{"android":"levelo://app?vid=a851a90d-f0f5-4ea2-a30f-624f65b8432c","ios":"levelo://app?vid=a851a90d-f0f5-4ea2-a30f-624f65b8432c"},"vehicle_type_id":"4","last_reported":1761246467,"current_range_meters":14400,"station_id":"ce4bh692rcd13ifvqea0","pricing_plan_id":"cebpf4jnsgd1na2vs0mg"},{"bike_id":"247b044e-7e84-419c-a5fb-856b27f30701","system_id":"levelo_inurba_marseille","lat":43.27077,"lon":5.42277,"is_reserved":false,"is_disabled":false,"rental_uris":{"android":"levelo://app?vid=247b044e-7e84-419c-a5fb-856b27f30701","ios":"levelo://app?vid=247b044e-7e84-419c-a5fb-856b27f30701"},"vehicle_type_id":"4","last_reported":1761246467,"current_range_meters":14400,"station_id":"ce4bhk92rcd13ifvqgb0","pricing_plan_id":"cebpf4jnsgd1na2vs0mg"},{"bike_id":"d78eb837-b102-4db4-b967-7e27e7618a15","system_id":"levelo_inurba_marseille","lat":43.22923,"lon":5.35375,"is_reserved":false,"is_disabled":false,"rental_uris":{"android":"levelo://app?vid=d78eb837-b102-4db4-b967-7e27e7618a15","ios":"levelo://app?vid=d78eb837-b102-4db4-b967-7e27e7618a15"},"vehicle_type_id":"4","last_reported":1761246467,"current_range_meters":14400,"station_id":"cpo3532slgdg3j2ikp40","pricing_plan_id":"cebpf4jnsgd1na2vs0mg"},{"bike_id":"ba0d4b97-b595-43b5-b8a9-3159497b5c35","system_id":"levelo_inurba_marseille","lat":43.290313,"lon":5.386539,"is_reserved":false,"is_disabled":false,"rental_uris":{"android":"levelo://app?vid=ba0d4b97-b595-43b5-b8a9-3159497b5c35","ios":"levelo://app?vid=ba0d4b97-b595-43b5-b8a9-3159497b5c35"},"vehicle_type_id":"4","last_reported":1761246467,"current_range_meters":14400,"station_id":"ce4bh4p2rcd13ifvqe0g","pricing_plan_id":"cebpf4jnsgd1na2vs0mg"},{"bike_id":"3877e972-fe51-4197-a5b7-860377239f0f","system_id":"levelo_inurba_marseille","lat":43.24162,"lon":5.36416,"is_reserved":false,"is_disabled":false,"rental_uris":{"android":"levelo://app?vid=3877e972-fe51-4197-a5b7-860377239f0f","ios":"levelo://app?vid=3877e972-fe51-4197-a5b7-860377239f0f"},"vehicle_type_id":"4","last_reported":1761246467,"current_range_meters":14400,"station_id":"cpo36qri1sfpv3e86is0","pricing_plan_id":"cebpf4jnsgd1na2vs0mg"},{"bike_id":"0489f456-3c8a-47ab-a1fc-3c708d8f2f58","system_id":"levelo_inurba_marseille","lat":43.29253,"lon":5.40911,"is_reserved":false,"is_disabled":false,"rental_uris":{"android":"levelo://app?vid=0489f456-3c8a-47ab-a1fc-3c708d8f2f58","ios":"levelo://app?vid=0489f456-3c8a-47ab-a1fc-3c708d8f2f58"},"vehicle_type_id":"4","last_reported":1761246467,"current_range_meters":14800,"station_id":"ce4bh192rcd13ifvqdc0","pricing_plan_id":"cebpf4jnsgd1na2vs0mg"},{"bike_id":"3e4783b6-28d8-4737-a4ef-6a1b0da02476","system_id":"levelo_inurba_marseille","lat":43.29452,"lon":5.40712,"is_reserved":false,"is_disabled":false,"rental_uris":{"android":"levelo://app?vid=3e4783b6-28d8-4737-a4ef-6a1b0da02476","ios":"levelo://app?vid=3e4783b6-28d8-4737-a4ef-6a1b0da02476"},"vehicle_type_id":"4","last_reported":1761246467,"current_range_meters":14800,"station_id":"","pricing_plan_id":"cebpf4jnsgd1na2vs0mg"},{"bike_id":"67f4ecd1-b82f-4449-ba04-087ea430c25b","system_id":"levelo_inurba_marseille","lat":43.29536,"lon":5.38542,"is_reserved":false,"is_disabled":false,"rental_uris":{"android":"levelo://app?vid=67f4ecd1-b82f-4449-ba04-087ea430c25b","ios":"levelo://app?vid=67f4ecd1-b82f-4449-ba04-087ea430c25b"},"vehicle_type_id":"4","last_reported":1761246467,"current_range_meters":14800,"station_id":"ce4bgih2rcd13ifvqba0","pricing_plan_id":"cebpf4jnsgd1na2vs0mg"},{"bike_id":"b9764ed2-f91a-421e-b54e-d7527bd8af22","system_id":"levelo_inurba_marseille","lat":43.29811,"lon":5.36588,"is_reserved":false,"is_disabled":false,"rental_uris":{"android":"levelo://app?vid=b9764ed2-f91a-421e-b54e-d7527bd8af22","ios":"levelo://app?vid=b9764ed2-f91a-421e-b54e-d7527bd8af22"},"vehicle_type_id":"4","last_reported":1761246467,"current_range_meters":14800,"station_id":"","pricing_plan_id":"cebpf4jnsgd1na2vs0mg"},{"bike_id":"e23608a7-79c3-428d-8cba-f9c659a19500","system_id":"levelo_inurba_marseille","lat":43.24574,"lon":5.39525,"is_reserved":false,"is_disabled":false,"rental_uris":{"android":"levelo://app?vid=e23608a7-79c3-428d-8cba-f9c659a19500","ios":"levelo://app?vid=e23608a7-79c3-428d-8cba-f9c659a19500"},"vehicle_type_id":"4","last_reported":1761246467,"current_range_meters":14800,"station_id":"ce4bhlp2rcd13ifvqgjg","pricing_plan_id":"cebpf4jnsgd1na2vs0mg"},{"bike_id":"3a7c302c-cc5f-4d7a-99e7-abf217acdee0","system_id":"levelo_inurba_marseille","lat":43.236695,"lon":5.365936,"is_reserved":false,"is_disabled":false,"rental_uris":{"android":"levelo://app?vid=3a7c302c-cc5f-4d7a-99e7-abf217acdee0","ios":"levelo://app?vid=3a7c302c-cc5f-4d7a-99e7-abf217acdee0"},"vehicle_type_id":"4","last_reported":1761246467,"current_range_meters":14800,"station_id":"ce4bh092rcd13ifvqd20","pricing_plan_id":"cebpf4jnsgd1na2vs0mg"},{"bike_id":"d483580c-da42-43a7-9a82-1a6aa55686bd","system_id":"levelo_inurba_marseille","lat":43.2866,"lon":5.36352,"is_reserved":false,"is_disabled":false,"rental_uris":{"android":"levelo://app?vid=d483580c-da42-43a7-9a82-1a6aa55686bd","ios":"levelo://app?vid=d483580c-da42-43a7-9a82-1a6aa55686bd"},"vehicle_type_id":"4","last_reported":1761246467,"current_range_meters":14800,"station_id":"ce4bhah2rcd13ifvqej0","pricing_plan_id":"cebpf4jnsgd1na2vs0mg"},{"bike_id":"f1899ef0-7fc3-4cb4-81ed-29c54fd92f6d","system_id":"levelo_inurba_marseille","lat":43.29251,"lon":5.3844,"is_reserved":false,"is_disabled":false,"rental_uris":{"android":"levelo://app?vid=f1899ef0-7fc3-4cb4-81ed-29c54fd92f6d","ios":"levelo://app?vid=f1899ef0-7fc3-4cb4-81ed-29c54fd92f6d"},"vehicle_type_id":"4","last_reported":1761246467,"current_range_meters":14800,"station_id":"ce4bh692rcd13ifvqea0","pricing_plan_id":"cebpf4jnsgd1na2vs0mg"},{"bike_id":"316c843e-0abd-49e3-b3e9-3f61b02a5647","system_id":"levelo_inurba_marseille","lat":43.28871,"lon":5.42563,"is_reserved":false,"is_disabled":false,"rental_uris":{"android":"levelo://app?vid=316c843e-0abd-49e3-b3e9-3f61b02a5647","ios":"levelo://app?vid=316c843e-0abd-49e3-b3e9-3f61b02a5647"},"vehicle_type_id":"4","last_reported":1761246467,"current_range_meters":15200,"station_id":"st_d3b462108ojc7389ooeg","pricing_plan_id":"cebpf4jnsgd1na2vs0mg"},{"bike_id":"55aee02d-9c96-45d2-9d31-4545665d3ece","system_id":"levelo_inurba_marseille","lat":43.24663,"lon":5.38896,"is_reserved":false,"is_disabled":false,"rental_uris":{"android":"levelo://app?vid=55aee02d-9c96-45d2-9d31-4545665d3ece","ios":"levelo://app?vid=55aee02d-9c96-45d2-9d31-4545665d3ece"},"vehicle_type_id":"4","last_reported":1761246467,"current_range_meters":15200,"station_id":"ce4bhg12rcd13ifvqf60","pricing_plan_id":"cebpf4jnsgd1na2vs0mg"},{"bike_id":"5403bbb7-b780-4116-8b9d-0a9bd553ad20","system_id":"levelo_inurba_marseille","lat":43.2417,"lon":5.39738,"is_reserved":false,"is_disabled":false,"rental_uris":{"android":"levelo://app?vid=5403bbb7-b780-4116-8b9d-0a9bd553ad20","ios":"levelo://app?vid=5403bbb7-b780-4116-8b9d-0a9bd553ad20"},"vehicle_type_id":"4","last_reported":1761246467,"current_range_meters":15200,"station_id":"ce4bhn12rcd13ifvqgpg","pricing_plan_id":"cebpf4jnsgd1na2vs0mg"},{"bike_id":"2a596ec3-9734-469b-975a-2974275fff6f","system_id":"levelo_inurba_marseille","lat":43.29538,"lon":5.38545,"is_reserved":false,"is_disabled":false,"rental_uris":{"android":"levelo://app?vid=2a596ec3-9734-469b-975a-2974275fff6f","ios":"levelo://app?vid=2a596ec3-9734-469b-975a-2974275fff6f"},"vehicle_type_id":"4","last_reported":1761246467,"current_range_meters":15200,"station_id":"ce4bgih2rcd13ifvqba0","pricing_plan_id":"cebpf4jnsgd1na2vs0mg"},{"bike_id":"eb8ea46c-6a39-455c-aca4-458227b0ee3c","system_id":"levelo_inurba_marseille","lat":43.24951,"lon":5.40487,"is_reserved":false,"is_disabled":false,"rental_uris":{"android":"levelo://app?vid=eb8ea46c-6a39-455c-aca4-458227b0ee3c","ios":"levelo://app?vid=eb8ea46c-6a39-455c-aca4-458227b0ee3c"},"vehicle_type_id":"4","last_reported":1761246467,"current_range_meters":15200,"station_id":"st_d2ngiaodas8pm72gd1h0","pricing_plan_id":"cebpf4jnsgd1na2vs0mg"},{"bike_id":"da3c1b5a-6696-41aa-96b9-60e4a9f35ac8","system_id":"levelo_inurba_marseille","lat":43.30802,"lon":5.38157,"is_reserved":false,"is_disabled":false,"rental_uris":{"android":"levelo://app?vid=da3c1b5a-6696-41aa-96b9-60e4a9f35ac8","ios":"levelo://app?vid=da3c1b5a-6696-41aa-96b9-60e4a9f35ac8"},"vehicle_type_id":"4","last_reported":1761246467,"current_range_meters":16000,"station_id":"ce4bgt12rcd13ifvqce0","pricing_plan_id":"cebpf4jnsgd1na2vs0mg"},{"bike_id":"59a90fc2-6b65-44f9-97da-18a57f6bd3e0","system_id":"levelo_inurba_marseille","lat":43.25861,"lon":5.39895,"is_reserved":false,"is_disabled":false,"rental_uris":{"android":"levelo://app?vid=59a90fc2-6b65-44f9-97da-18a57f6bd3e0","ios":"levelo://app?vid=59a90fc2-6b65-44f9-97da-18a57f6bd3e0"},"vehicle_type_id":"4","last_reported":1761246467,"current_range_meters":16000,"station_id":"ce4bhl92rcd13ifvqghg","pricing_plan_id":"cebpf4jnsgd1na2vs0mg"},{"bike_id":"83d833af-e5f6-4303-8e6a-c2cb5afde617","system_id":"levelo_inurba_marseille","lat":43.29256,"lon":5.3844,"is_reserved":false,"is_disabled":false,"rental_uris":{"android":"levelo://app?vid=83d833af-e5f6-4303-8e6a-c2cb5afde617","ios":"levelo://app?vid=83d833af-e5f6-4303-8e6a-c2cb5afde617"},"vehicle_type_id":"4","last_reported":1761246467,"current_range_meters":16000,"station_id":"ce4bh692rcd13ifvqea0","pricing_plan_id":"cebpf4jnsgd1na2vs0mg"},{"bike_id":"2e51ab34-6fc0-4206-b5a5-25fb630cf9db","system_id":"levelo_inurba_marseille","lat":43.2903,"lon":5.38624,"is_reserved":false,"is_disabled":false,"rental_uris":{"android":"levelo://app?vid=2e51ab34-6fc0-4206-b5a5-25fb630cf9db","ios":"levelo://app?vid=2e51ab34-6fc0-4206-b5a5-25fb630cf9db"},"vehicle_type_id":"4","last_reported":1761246467,"current_range_meters":16000,"station_id":"ce4bh4p2rcd13ifvqe0g","pricing_plan_id":"cebpf4jnsgd1na2vs0mg"},{"bike_id":"e4118114-d541-4fb1-a4d2-f6456724e6fe","system_id":"levelo_inurba_marseille","lat":43.29524,"lon":5.38553,"is_reserved":false,"is_disabled":false,"rental_uris":{"android":"levelo://app?vid=e4118114-d541-4fb1-a4d2-f6456724e6fe","ios":"levelo://app?vid=e4118114-d541-4fb1-a4d2-f6456724e6fe"},"vehicle_type_id":"4","last_reported":1761246467,"current_range_meters":16000,"station_id":"ce4bgih2rcd13ifvqba0","pricing_plan_id":"cebpf4jnsgd1na2vs0mg"},{"bike_id":"73155444-66b0-43ba-9b8f-777412afba8c","system_id":"levelo_inurba_marseille","lat":43.27944,"lon":5.39586,"is_reserved":false,"is_disabled":false,"rental_uris":{"android":"levelo://app?vid=73155444-66b0-43ba-9b8f-777412afba8c","ios":"levelo://app?vid=73155444-66b0-43ba-9b8f-777412afba8c"},"vehicle_type_id":"4","last_reported":1761246467,"current_range_meters":16000,"station_id":"ce4bhf92rcd13ifvqf40","pricing_plan_id":"cebpf4jnsgd1na2vs0mg"},{"bike_id":"e1466b5c-44cf-470e-9211-cd9da2f583ee","system_id":"levelo_inurba_marseille","lat":43.3059,"lon":5.39357,"is_reserved":false,"is_disabled":false,"rental_uris":{"android":"levelo://app?vid=e1466b5c-44cf-470e-9211-cd9da2f583ee","ios":"levelo://app?vid=e1466b5c-44cf-470e-9211-cd9da2f583ee"},"vehicle_type_id":"4","last_reported":1761246467,"current_range_meters":16000,"station_id":"ce4bh0p2rcd13ifvqd80","pricing_plan_id":"cebpf4jnsgd1na2vs0mg"},{"bike_id":"25b2c7ba-fdce-4234-8dd0-f527bbadc63e","system_id":"levelo_inurba_marseille","lat":43.31067,"lon":5.38357,"is_reserved":false,"is_disabled":false,"rental_uris":{"android":"levelo://app?vid=25b2c7ba-fdce-4234-8dd0-f527bbadc63e","ios":"levelo://app?vid=25b2c7ba-fdce-4234-8dd0-f527bbadc63e"},"vehicle_type_id":"4","last_reported":1761246467,"current_range_meters":16400,"station_id":"ce4bgv92rcd13ifvqcr0","pricing_plan_id":"cebpf4jnsgd1na2vs0mg"},{"bike_id":"eeeb861f-5119-4b3b-a7e1-05c825c82c88","system_id":"levelo_inurba_marseille","lat":43.27951,"lon":5.41042,"is_reserved":false,"is_disabled":false,"rental_uris":{"android":"levelo://app?vid=eeeb861f-5119-4b3b-a7e1-05c825c82c88","ios":"levelo://app?vid=eeeb861f-5119-4b3b-a7e1-05c825c82c88"},"vehicle_type_id":"4","last_reported":1761246467,"current_range_meters":16400,"station_id":"ce4bhnp2rcd13ifvqh0g","pricing_plan_id":"cebpf4jnsgd1na2vs0mg"},{"bike_id":"eab23f2c-0836-4a61-91c1-750fc95ef83c","system_id":"levelo_inurba_marseille","lat":43.29257,"lon":5.40918,"is_reserved":false,"is_disabled":false,"rental_uris":{"android":"levelo://app?vid=eab23f2c-0836-4a61-91c1-750fc95ef83c","ios":"levelo://app?vid=eab23f2c-0836-4a61-91c1-750fc95ef83c"},"vehicle_type_id":"4","last_reported":1761246467,"current_range_meters":16400,"station_id":"ce4bh192rcd13ifvqdc0","pricing_plan_id":"cebpf4jnsgd1na2vs0mg"},{"bike_id":"e986eb56-ca00-4dbf-ada0-578bc3d8f529","system_id":"levelo_inurba_marseille","lat":43.27334,"lon":5.41473,"is_reserved":false,"is_disabled":false,"rental_uris":{"android":"levelo://app?vid=e986eb56-ca00-4dbf-ada0-578bc3d8f529","ios":"levelo://app?vid=e986eb56-ca00-4dbf-ada0-578bc3d8f529"},"vehicle_type_id":"4","last_reported":1761246467,"current_range_meters":16400,"station_id":"","pricing_plan_id":"cebpf4jnsgd1na2vs0mg"},{"bike_id":"c12a786b-d447-4373-876a-58fc20f19148","system_id":"levelo_inurba_marseille","lat":43.29917,"lon":5.43646,"is_reserved":false,"is_disabled":false,"rental_uris":{"android":"levelo://app?vid=c12a786b-d447-4373-876a-58fc20f19148","ios":"levelo://app?vid=c12a786b-d447-4373-876a-58fc20f19148"},"vehicle_type_id":"4","last_reported":1761246467,"current_range_meters":16400,"station_id":"ce4bhpp2rcd13ifvqhfg","pricing_plan_id":"cebpf4jnsgd1na2vs0mg"},{"bike_id":"882401c7-6650-4fc0-a6a7-b8536ac70367","system_id":"levelo_inurba_marseille","lat":43.270695,"lon":5.422749,"is_reserved":false,"is_disabled":false,"rental_uris":{"android":"levelo://app?vid=882401c7-6650-4fc0-a6a7-b8536ac70367","ios":"levelo://app?vid=882401c7-6650-4fc0-a6a7-b8536ac70367"},"vehicle_type_id":"4","last_reported":1761246467,"current_range_meters":16400,"station_id":"ce4bhk92rcd13ifvqgb0","pricing_plan_id":"cebpf4jnsgd1na2vs0mg"},{"bike_id":"ef1fd798-a027-4a26-b607-d84b3801b9db","system_id":"levelo_inurba_marseille","lat":43.25578,"lon":5.38243,"is_reserved":false,"is_disabled":false,"rental_uris":{"android":"levelo://app?vid=ef1fd798-a027-4a26-b607-d84b3801b9db","ios":"levelo://app?vid=ef1fd798-a027-4a26-b607-d84b3801b9db"},"vehicle_type_id":"4","last_reported":1761246467,"current_range_meters":16400,"station_id":"ce4bhih2rcd13ifvqfs0","pricing_plan_id":"cebpf4jnsgd1na2vs0mg"},{"bike_id":"d9ecb998-ceaa-4a39-8aba-9f0e44069447","system_id":"levelo_inurba_marseille","lat":43.32147,"lon":5.38731,"is_reserved":false,"is_disabled":false,"rental_uris":{"android":"levelo://app?vid=d9ecb998-ceaa-4a39-8aba-9f0e44069447","ios":"levelo://app?vid=d9ecb998-ceaa-4a39-8aba-9f0e44069447"},"vehicle_type_id":"4","last_reported":1761246467,"current_range_meters":16400,"station_id":"","pricing_plan_id":"cebpf4jnsgd1na2vs0mg"},{"bike_id":"d7ee83eb-ff8f-46b0-9925-8298dbedac1a","system_id":"levelo_inurba_marseille","lat":43.32246,"lon":5.38357,"is_reserved":false,"is_disabled":false,"rental_uris":{"android":"levelo://app?vid=d7ee83eb-ff8f-46b0-9925-8298dbedac1a","ios":"levelo://app?vid=d7ee83eb-ff8f-46b0-9925-8298dbedac1a"},"vehicle_type_id":"4","last_reported":1761246467,"current_range_meters":16800,"station_id":"ce4bhr12rcd13ifvqhqg","pricing_plan_id":"cebpf4jnsgd1na2vs0mg"},{"bike_id":"2e516aa3-da3f-4cd4-8d7a-1dc8bf5d8ddd","system_id":"levelo_inurba_marseille","lat":43.32107,"lon":5.36769,"is_reserved":false,"is_disabled":false,"rental_uris":{"android":"levelo://app?vid=2e516aa3-da3f-4cd4-8d7a-1dc8bf5d8ddd","ios":"levelo://app?vid=2e516aa3-da3f-4cd4-8d7a-1dc8bf5d8ddd"},"vehicle_type_id":"4","last_reported":1761246467,"current_range_meters":16800,"station_id":"ce4bhrh2rcd13ifvqhug","pricing_plan_id":"cebpf4jnsgd1na2vs0mg"},{"bike_id":"859d622b-dbdb-4c2e-a20c-094724e7fce5","system_id":"levelo_inurba_marseille","lat":43.28027,"lon":5.40868,"is_reserved":false,"is_disabled":false,"rental_uris":{"android":"levelo://app?vid=859d622b-dbdb-4c2e-a20c-094724e7fce5","ios":"levelo://app?vid=859d622b-dbdb-4c2e-a20c-094724e7fce5"},"vehicle_type_id":"4","last_reported":1761246467,"current_range_meters":16800,"station_id":"","pricing_plan_id":"cebpf4jnsgd1na2vs0mg"},{"bike_id":"67684d67-b2f6-4d0b-9ff2-65b147dd8394","system_id":"levelo_inurba_marseille","lat":43.281744,"lon":5.378773,"is_reserved":false,"is_disabled":false,"rental_uris":{"android":"levelo://app?vid=67684d67-b2f6-4d0b-9ff2-65b147dd8394","ios":"levelo://app?vid=67684d67-b2f6-4d0b-9ff2-65b147dd8394"},"vehicle_type_id":"4","last_reported":1761246467,"current_range_meters":16800,"station_id":"ce4bha12rcd13ifvqee0","pricing_plan_id":"cebpf4jnsgd1na2vs0mg"},{"bike_id":"34699878-a5a6-4483-97b6-74e0dda2776f","system_id":"levelo_inurba_marseille","lat":43.29794,"lon":5.39345,"is_reserved":false,"is_disabled":false,"rental_uris":{"android":"levelo://app?vid=34699878-a5a6-4483-97b6-74e0dda2776f","ios":"levelo://app?vid=34699878-a5a6-4483-97b6-74e0dda2776f"},"vehicle_type_id":"4","last_reported":1761246467,"current_range_meters":16800,"station_id":"chh1huq6cuj3fo74tm60","pricing_plan_id":"cebpf4jnsgd1na2vs0mg"},{"bike_id":"f82ab332-6298-4887-b50f-7316f9fbe3b4","system_id":"levelo_inurba_marseille","lat":43.25361,"lon":5.42156,"is_reserved":false,"is_disabled":false,"rental_uris":{"android":"levelo://app?vid=f82ab332-6298-4887-b50f-7316f9fbe3b4","ios":"levelo://app?vid=f82ab332-6298-4887-b50f-7316f9fbe3b4"},"vehicle_type_id":"4","last_reported":1761246467,"current_range_meters":16800,"station_id":"st_d2m65c5bi1j21697t3ng","pricing_plan_id":"cebpf4jnsgd1na2vs0mg"},{"bike_id":"e8ceb4e1-93b2-43e9-bf1a-b8b5a7de8342","system_id":"levelo_inurba_marseille","lat":43.30917,"lon":5.39722,"is_reserved":false,"is_disabled":false,"rental_uris":{"android":"levelo://app?vid=e8ceb4e1-93b2-43e9-bf1a-b8b5a7de8342","ios":"levelo://app?vid=e8ceb4e1-93b2-43e9-bf1a-b8b5a7de8342"},"vehicle_type_id":"4","last_reported":1761246467,"current_range_meters":17200,"station_id":"","pricing_plan_id":"cebpf4jnsgd1na2vs0mg"},{"bike_id":"126be4bc-91ae-4641-893b-1b51eeff641d","system_id":"levelo_inurba_marseille","lat":43.30899,"lon":5.39653,"is_reserved":false,"is_disabled":false,"rental_uris":{"android":"levelo://app?vid=126be4bc-91ae-4641-893b-1b51eeff641d","ios":"levelo://app?vid=126be4bc-91ae-4641-893b-1b51eeff641d"},"vehicle_type_id":"4","last_reported":1761246467,"current_range_meters":17200,"station_id":"ce4bh012rcd13ifvqcv0","pricing_plan_id":"cebpf4jnsgd1na2vs0mg"},{"bike_id":"3cb7792b-43db-41f0-96a4-9a586e0436bb","system_id":"levelo_inurba_marseille","lat":43.286021,"lon":5.370631,"is_reserved":false,"is_disabled":false,"rental_uris":{"android":"levelo://app?vid=3cb7792b-43db-41f0-96a4-9a586e0436bb","ios":"levelo://app?vid=3cb7792b-43db-41f0-96a4-9a586e0436bb"},"vehicle_type_id":"4","last_reported":1761246467,"current_range_meters":17200,"station_id":"ce4bht12rcd13ifvqi60","pricing_plan_id":"cebpf4jnsgd1na2vs0mg"},{"bike_id":"82a6ac02-8c08-4f93-844a-981cd0f715d0","system_id":"levelo_inurba_marseille","lat":43.25511,"lon":5.37652,"is_reserved":false,"is_disabled":false,"rental_uris":{"android":"levelo://app?vid=82a6ac02-8c08-4f93-844a-981cd0f715d0","ios":"levelo://app?vid=82a6ac02-8c08-4f93-844a-981cd0f715d0"},"vehicle_type_id":"4","last_reported":1761246467,"current_range_meters":17200,"station_id":"ce4bhh12rcd13ifvqff0","pricing_plan_id":"cebpf4jnsgd1na2vs0mg"},{"bike_id":"bbd53ebd-575d-4e23-a31f-ff7872065588","system_id":"levelo_inurba_marseille","lat":43.28371,"lon":5.38622,"is_reserved":false,"is_disabled":false,"rental_uris":{"android":"levelo://app?vid=bbd53ebd-575d-4e23-a31f-ff7872065588","ios":"levelo://app?vid=bbd53ebd-575d-4e23-a31f-ff7872065588"},"vehicle_type_id":"4","last_reported":1761246467,"current_range_meters":17200,"station_id":"ce4bh492rcd13ifvqdvg","pricing_plan_id":"cebpf4jnsgd1na2vs0mg"},{"bike_id":"24441694-1b85-40bf-b4cb-e2e4cc4c94d3","system_id":"levelo_inurba_marseille","lat":43.31075,"lon":5.3778,"is_reserved":false,"is_disabled":false,"rental_uris":{"android":"levelo://app?vid=24441694-1b85-40bf-b4cb-e2e4cc4c94d3","ios":"levelo://app?vid=24441694-1b85-40bf-b4cb-e2e4cc4c94d3"},"vehicle_type_id":"4","last_reported":1761246467,"current_range_meters":17200,"station_id":"ce4bgt92rcd13ifvqcg0","pricing_plan_id":"cebpf4jnsgd1na2vs0mg"},{"bike_id":"bae56401-d86f-4e63-9026-aa146479db4d","system_id":"levelo_inurba_marseille","lat":43.27927,"lon":5.39592,"is_reserved":false,"is_disabled":false,"rental_uris":{"android":"levelo://app?vid=bae56401-d86f-4e63-9026-aa146479db4d","ios":"levelo://app?vid=bae56401-d86f-4e63-9026-aa146479db4d"},"vehicle_type_id":"4","last_reported":1761246467,"current_range_meters":17200,"station_id":"ce4bhf92rcd13ifvqf40","pricing_plan_id":"cebpf4jnsgd1na2vs0mg"},{"bike_id":"ef096c7f-2d04-45e7-91e4-52578045f579","system_id":"levelo_inurba_marseille","lat":43.23188,"lon":5.39992,"is_reserved":false,"is_disabled":true,"rental_uris":{"android":"levelo://app?vid=ef096c7f-2d04-45e7-91e4-52578045f579","ios":"levelo://app?vid=ef096c7f-2d04-45e7-91e4-52578045f579"},"vehicle_type_id":"4","last_reported":1761246467,"current_range_meters":17600,"station_id":"ce4bhn12rcd13ifvqgqg","pricing_plan_id":"cebpf4jnsgd1na2vs0mg"},{"bike_id":"53267ec5-3017-41cf-9b6d-3e737ab0ed78","system_id":"levelo_inurba_marseille","lat":43.31105,"lon":5.37771,"is_reserved":false,"is_disabled":false,"rental_uris":{"android":"levelo://app?vid=53267ec5-3017-41cf-9b6d-3e737ab0ed78","ios":"levelo://app?vid=53267ec5-3017-41cf-9b6d-3e737ab0ed78"},"vehicle_type_id":"4","last_reported":1761246467,"current_range_meters":17600,"station_id":"ce4bgt92rcd13ifvqcg0","pricing_plan_id":"cebpf4jnsgd1na2vs0mg"},{"bike_id":"75552eb5-38a2-43ca-9291-cacb859b6f73","system_id":"levelo_inurba_marseille","lat":43.284215,"lon":5.349847,"is_reserved":false,"is_disabled":false,"rental_uris":{"android":"levelo://app?vid=75552eb5-38a2-43ca-9291-cacb859b6f73","ios":"levelo://app?vid=75552eb5-38a2-43ca-9291-cacb859b6f73"},"vehicle_type_id":"4","last_reported":1761246467,"current_range_meters":17600,"station_id":"","pricing_plan_id":"cebpf4jnsgd1na2vs0mg"},{"bike_id":"4bb99ab7-f9cd-4fa5-b387-e243bec85e12","system_id":"levelo_inurba_marseille","lat":43.23782,"lon":5.36626,"is_reserved":false,"is_disabled":false,"rental_uris":{"android":"levelo://app?vid=4bb99ab7-f9cd-4fa5-b387-e243bec85e12","ios":"levelo://app?vid=4bb99ab7-f9cd-4fa5-b387-e243bec85e12"},"vehicle_type_id":"4","last_reported":1761246467,"current_range_meters":17600,"station_id":"st_d3nk18o9ro0c73en2l3g","pricing_plan_id":"cebpf4jnsgd1na2vs0mg"},{"bike_id":"0c216ec5-2d75-4ee4-a223-b0d23bee74b5","system_id":"levelo_inurba_marseille","lat":43.24658,"lon":5.38891,"is_reserved":false,"is_disabled":false,"rental_uris":{"android":"levelo://app?vid=0c216ec5-2d75-4ee4-a223-b0d23bee74b5","ios":"levelo://app?vid=0c216ec5-2d75-4ee4-a223-b0d23bee74b5"},"vehicle_type_id":"4","last_reported":1761246467,"current_range_meters":17600,"station_id":"ce4bhg12rcd13ifvqf60","pricing_plan_id":"cebpf4jnsgd1na2vs0mg"},{"bike_id":"f98272e2-777c-44c7-a06c-55a3d2e52bc0","system_id":"levelo_inurba_marseille","lat":43.29532,"lon":5.3855,"is_reserved":false,"is_disabled":false,"rental_uris":{"android":"levelo://app?vid=f98272e2-777c-44c7-a06c-55a3d2e52bc0","ios":"levelo://app?vid=f98272e2-777c-44c7-a06c-55a3d2e52bc0"},"vehicle_type_id":"4","last_reported":1761246467,"current_range_meters":17600,"station_id":"ce4bgih2rcd13ifvqba0","pricing_plan_id":"cebpf4jnsgd1na2vs0mg"},{"bike_id":"2a38ccd6-cd1f-4334-ba24-1d75d0150e1d","system_id":"levelo_inurba_marseille","lat":43.31119,"lon":5.37773,"is_reserved":false,"is_disabled":false,"rental_uris":{"android":"levelo://app?vid=2a38ccd6-cd1f-4334-ba24-1d75d0150e1d","ios":"levelo://app?vid=2a38ccd6-cd1f-4334-ba24-1d75d0150e1d"},"vehicle_type_id":"4","last_reported":1761246467,"current_range_meters":17600,"station_id":"ce4bgt92rcd13ifvqcg0","pricing_plan_id":"cebpf4jnsgd1na2vs0mg"},{"bike_id":"61cf6d21-5395-4fad-a0fc-bcd9f2fca6d4","system_id":"levelo_inurba_marseille","lat":43.288519,"lon":5.378847,"is_reserved":false,"is_disabled":false,"rental_uris":{"android":"levelo://app?vid=61cf6d21-5395-4fad-a0fc-bcd9f2fca6d4","ios":"levelo://app?vid=61cf6d21-5395-4fad-a0fc-bcd9f2fca6d4"},"vehicle_type_id":"4","last_reported":1761246467,"current_range_meters":17600,"station_id":"ce4bh9p2rcd13ifvqec0","pricing_plan_id":"cebpf4jnsgd1na2vs0mg"},{"bike_id":"4e541b27-47a1-42cd-9811-3c305da3e22f","system_id":"levelo_inurba_marseille","lat":43.27494,"lon":5.42449,"is_reserved":false,"is_disabled":false,"rental_uris":{"android":"levelo://app?vid=4e541b27-47a1-42cd-9811-3c305da3e22f","ios":"levelo://app?vid=4e541b27-47a1-42cd-9811-3c305da3e22f"},"vehicle_type_id":"4","last_reported":1761246467,"current_range_meters":17600,"station_id":"ce4bhn92rcd13ifvqgrg","pricing_plan_id":"cebpf4jnsgd1na2vs0mg"},{"bike_id":"84c6511c-08a6-4aa3-9d4a-2ba3f27a8985","system_id":"levelo_inurba_marseille","lat":43.29536,"lon":5.38541,"is_reserved":false,"is_disabled":false,"rental_uris":{"android":"levelo://app?vid=84c6511c-08a6-4aa3-9d4a-2ba3f27a8985","ios":"levelo://app?vid=84c6511c-08a6-4aa3-9d4a-2ba3f27a8985"},"vehicle_type_id":"4","last_reported":1761246467,"current_range_meters":17600,"station_id":"ce4bgih2rcd13ifvqba0","pricing_plan_id":"cebpf4jnsgd1na2vs0mg"},{"bike_id":"502fea4f-6102-44b9-b43f-52dd65266bfd","system_id":"levelo_inurba_marseille","lat":43.30562,"lon":5.39309,"is_reserved":false,"is_disabled":false,"rental_uris":{"android":"levelo://app?vid=502fea4f-6102-44b9-b43f-52dd65266bfd","ios":"levelo://app?vid=502fea4f-6102-44b9-b43f-52dd65266bfd"},"vehicle_type_id":"4","last_reported":1761246467,"current_range_meters":17600,"station_id":"ce4bh0p2rcd13ifvqd80","pricing_plan_id":"cebpf4jnsgd1na2vs0mg"},{"bike_id":"ccc3f002-a0ee-451d-afb0-22b397ac95ef","system_id":"levelo_inurba_marseille","lat":43.29238,"lon":5.38424,"is_reserved":false,"is_disabled":false,"rental_uris":{"android":"levelo://app?vid=ccc3f002-a0ee-451d-afb0-22b397ac95ef","ios":"levelo://app?vid=ccc3f002-a0ee-451d-afb0-22b397ac95ef"},"vehicle_type_id":"4","last_reported":1761246467,"current_range_meters":18000,"station_id":"ce4bh692rcd13ifvqea0","pricing_plan_id":"cebpf4jnsgd1na2vs0mg"},{"bike_id":"87b07aa1-1cef-47f0-b2e2-6940c4d0c375","system_id":"levelo_inurba_marseille","lat":43.29579,"lon":5.37492,"is_reserved":false,"is_disabled":false,"rental_uris":{"android":"levelo://app?vid=87b07aa1-1cef-47f0-b2e2-6940c4d0c375","ios":"levelo://app?vid=87b07aa1-1cef-47f0-b2e2-6940c4d0c375"},"vehicle_type_id":"4","last_reported":1761246467,"current_range_meters":18000,"station_id":"ce4bgh92rcd13ifvqb50","pricing_plan_id":"cebpf4jnsgd1na2vs0mg"},{"bike_id":"bb897963-cb50-41b0-84a8-35a05d3159e7","system_id":"levelo_inurba_marseille","lat":43.31086,"lon":5.37778,"is_reserved":false,"is_disabled":false,"rental_uris":{"android":"levelo://app?vid=bb897963-cb50-41b0-84a8-35a05d3159e7","ios":"levelo://app?vid=bb897963-cb50-41b0-84a8-35a05d3159e7"},"vehicle_type_id":"4","last_reported":1761246467,"current_range_meters":18000,"station_id":"ce4bgt92rcd13ifvqcg0","pricing_plan_id":"cebpf4jnsgd1na2vs0mg"},{"bike_id":"7b8c2ddb-ea2b-493a-8565-3d53af536103","system_id":"levelo_inurba_marseille","lat":43.29508,"lon":5.39042,"is_reserved":false,"is_disabled":false,"rental_uris":{"android":"levelo://app?vid=7b8c2ddb-ea2b-493a-8565-3d53af536103","ios":"levelo://app?vid=7b8c2ddb-ea2b-493a-8565-3d53af536103"},"vehicle_type_id":"4","last_reported":1761246467,"current_range_meters":18000,"station_id":"ce4bh3p2rcd13ifvqdp0","pricing_plan_id":"cebpf4jnsgd1na2vs0mg"},{"bike_id":"f8c755d7-1bb8-4fcd-bb3f-74aeb49951cc","system_id":"levelo_inurba_marseille","lat":43.31375,"lon":5.3789,"is_reserved":false,"is_disabled":false,"rental_uris":{"android":"levelo://app?vid=f8c755d7-1bb8-4fcd-bb3f-74aeb49951cc","ios":"levelo://app?vid=f8c755d7-1bb8-4fcd-bb3f-74aeb49951cc"},"vehicle_type_id":"4","last_reported":1761246467,"current_range_meters":18000,"station_id":"","pricing_plan_id":"cebpf4jnsgd1na2vs0mg"},{"bike_id":"a0a3e2e6-f6d9-4e27-a510-a2aa84830e78","system_id":"levelo_inurba_marseille","lat":43.30918,"lon":5.37875,"is_reserved":false,"is_disabled":false,"rental_uris":{"android":"levelo://app?vid=a0a3e2e6-f6d9-4e27-a510-a2aa84830e78","ios":"levelo://app?vid=a0a3e2e6-f6d9-4e27-a510-a2aa84830e78"},"vehicle_type_id":"4","last_reported":1761246467,"current_range_meters":18000,"station_id":"","pricing_plan_id":"cebpf4jnsgd1na2vs0mg"},{"bike_id":"7194aa39-7b6c-405d-8ce5-8d12bcbcb510","system_id":"levelo_inurba_marseille","lat":43.29093,"lon":5.38127,"is_reserved":false,"is_disabled":false,"rental_uris":{"android":"levelo://app?vid=7194aa39-7b6c-405d-8ce5-8d12bcbcb510","ios":"levelo://app?vid=7194aa39-7b6c-405d-8ce5-8d12bcbcb510"},"vehicle_type_id":"4","last_reported":1761246467,"current_range_meters":18000,"station_id":"ce4bh512rcd13ifvqe2g","pricing_plan_id":"cebpf4jnsgd1na2vs0mg"},{"bike_id":"c65e973d-a956-4c8c-a0e6-f9c435e5ee2a","system_id":"levelo_inurba_marseille","lat":43.23151,"lon":5.43708,"is_reserved":false,"is_disabled":false,"rental_uris":{"android":"levelo://app?vid=c65e973d-a956-4c8c-a0e6-f9c435e5ee2a","ios":"levelo://app?vid=c65e973d-a956-4c8c-a0e6-f9c435e5ee2a"},"vehicle_type_id":"4","last_reported":1761246467,"current_range_meters":18000,"station_id":"ce4bhmp2rcd13ifvqgog","pricing_plan_id":"cebpf4jnsgd1na2vs0mg"},{"bike_id":"75765de9-f740-4f58-8f2f-b0e28986759f","system_id":"levelo_inurba_marseille","lat":43.30951,"lon":5.39237,"is_reserved":false,"is_disabled":false,"rental_uris":{"android":"levelo://app?vid=75765de9-f740-4f58-8f2f-b0e28986759f","ios":"levelo://app?vid=75765de9-f740-4f58-8f2f-b0e28986759f"},"vehicle_type_id":"4","last_reported":1761246467,"current_range_meters":18000,"station_id":"","pricing_plan_id":"cebpf4jnsgd1na2vs0mg"},{"bike_id":"77124793-d73a-43ea-8840-1a1b5476fa23","system_id":"levelo_inurba_marseille","lat":43.3102,"lon":5.38073,"is_reserved":false,"is_disabled":false,"rental_uris":{"android":"levelo://app?vid=77124793-d73a-43ea-8840-1a1b5476fa23","ios":"levelo://app?vid=77124793-d73a-43ea-8840-1a1b5476fa23"},"vehicle_type_id":"4","last_reported":1761246467,"current_range_meters":18000,"station_id":"","pricing_plan_id":"cebpf4jnsgd1na2vs0mg"},{"bike_id":"ec9665a2-32ab-42b2-9bdf-cf94d158a9c2","system_id":"levelo_inurba_marseille","lat":43.3015,"lon":5.3696,"is_reserved":false,"is_disabled":false,"rental_uris":{"android":"levelo://app?vid=ec9665a2-32ab-42b2-9bdf-cf94d158a9c2","ios":"levelo://app?vid=ec9665a2-32ab-42b2-9bdf-cf94d158a9c2"},"vehicle_type_id":"4","last_reported":1761246467,"current_range_meters":18800,"station_id":"","pricing_plan_id":"cebpf4jnsgd1na2vs0mg"},{"bike_id":"f1922f51-06a7-4ffa-a226-2a5a206d6cdf","system_id":"levelo_inurba_marseille","lat":43.3042,"lon":5.38887,"is_reserved":false,"is_disabled":false,"rental_uris":{"android":"levelo://app?vid=f1922f51-06a7-4ffa-a226-2a5a206d6cdf","ios":"levelo://app?vid=f1922f51-06a7-4ffa-a226-2a5a206d6cdf"},"vehicle_type_id":"4","last_reported":1761246467,"current_range_meters":18800,"station_id":"ce4bgk12rcd13ifvqbi0","pricing_plan_id":"cebpf4jnsgd1na2vs0mg"},{"bike_id":"16688364-6b25-48ef-99e4-62ab7498f4a3","system_id":"levelo_inurba_marseille","lat":43.3112,"lon":5.37755,"is_reserved":false,"is_disabled":false,"rental_uris":{"android":"levelo://app?vid=16688364-6b25-48ef-99e4-62ab7498f4a3","ios":"levelo://app?vid=16688364-6b25-48ef-99e4-62ab7498f4a3"},"vehicle_type_id":"4","last_reported":1761246467,"current_range_meters":18800,"station_id":"ce4bgt92rcd13ifvqcg0","pricing_plan_id":"cebpf4jnsgd1na2vs0mg"},{"bike_id":"47f09c0c-92a9-44eb-a23c-69934b3ff134","system_id":"levelo_inurba_marseille","lat":43.30121,"lon":5.43124,"is_reserved":false,"is_disabled":false,"rental_uris":{"android":"levelo://app?vid=47f09c0c-92a9-44eb-a23c-69934b3ff134","ios":"levelo://app?vid=47f09c0c-92a9-44eb-a23c-69934b3ff134"},"vehicle_type_id":"4","last_reported":1761246467,"current_range_meters":18800,"station_id":"st_d3js3co5814s73ftftug","pricing_plan_id":"cebpf4jnsgd1na2vs0mg"},{"bike_id":"f7ad8d92-1eb3-4374-ae58-2d0d64fb53e4","system_id":"levelo_inurba_marseille","lat":43.29038,"lon":5.38656,"is_reserved":false,"is_disabled":false,"rental_uris":{"android":"levelo://app?vid=f7ad8d92-1eb3-4374-ae58-2d0d64fb53e4","ios":"levelo://app?vid=f7ad8d92-1eb3-4374-ae58-2d0d64fb53e4"},"vehicle_type_id":"4","last_reported":1761246467,"current_range_meters":19200,"station_id":"ce4bh4p2rcd13ifvqe0g","pricing_plan_id":"cebpf4jnsgd1na2vs0mg"},{"bike_id":"a10ff155-ded8-4ae3-9397-9f2952532da7","system_id":"levelo_inurba_marseille","lat":43.29154,"lon":5.37168,"is_reserved":false,"is_disabled":false,"rental_uris":{"android":"levelo://app?vid=a10ff155-ded8-4ae3-9397-9f2952532da7","ios":"levelo://app?vid=a10ff155-ded8-4ae3-9397-9f2952532da7"},"vehicle_type_id":"4","last_reported":1761246467,"current_range_meters":19200,"station_id":"ce4bha92rcd13ifvqeh0","pricing_plan_id":"cebpf4jnsgd1na2vs0mg"},{"bike_id":"45e2bc20-c1aa-4135-a212-24bd1aa6499b","system_id":"levelo_inurba_marseille","lat":43.31328,"lon":5.39689,"is_reserved":false,"is_disabled":false,"rental_uris":{"android":"levelo://app?vid=45e2bc20-c1aa-4135-a212-24bd1aa6499b","ios":"levelo://app?vid=45e2bc20-c1aa-4135-a212-24bd1aa6499b"},"vehicle_type_id":"4","last_reported":1761246467,"current_range_meters":19200,"station_id":"ce4bgvp2rcd13ifvqcu0","pricing_plan_id":"cebpf4jnsgd1na2vs0mg"},{"bike_id":"1da0da34-ce37-4c03-b1e6-38e903a26bc0","system_id":"levelo_inurba_marseille","lat":43.265332,"lon":5.373045,"is_reserved":false,"is_disabled":false,"rental_uris":{"android":"levelo://app?vid=1da0da34-ce37-4c03-b1e6-38e903a26bc0","ios":"levelo://app?vid=1da0da34-ce37-4c03-b1e6-38e903a26bc0"},"vehicle_type_id":"4","last_reported":1761246467,"current_range_meters":19200,"station_id":"ce4bhgp2rcd13ifvqfc0","pricing_plan_id":"cebpf4jnsgd1na2vs0mg"},{"bike_id":"1e04bd5e-dba9-4c39-b5e3-df33312b1ae1","system_id":"levelo_inurba_marseille","lat":43.270632,"lon":5.383129,"is_reserved":false,"is_disabled":false,"rental_uris":{"android":"levelo://app?vid=1e04bd5e-dba9-4c39-b5e3-df33312b1ae1","ios":"levelo://app?vid=1e04bd5e-dba9-4c39-b5e3-df33312b1ae1"},"vehicle_type_id":"4","last_reported":1761246467,"current_range_meters":19200,"station_id":"st_d3n2fo6cfp8s73cte1j0","pricing_plan_id":"cebpf4jnsgd1na2vs0mg"},{"bike_id":"e4d9d28d-de5d-4eba-b45f-0315c6967297","system_id":"levelo_inurba_marseille","lat":43.25084,"lon":5.39522,"is_reserved":false,"is_disabled":false,"rental_uris":{"android":"levelo://app?vid=e4d9d28d-de5d-4eba-b45f-0315c6967297","ios":"levelo://app?vid=e4d9d28d-de5d-4eba-b45f-0315c6967297"},"vehicle_type_id":"4","last_reported":1761246467,"current_range_meters":19200,"station_id":"ce4bhm12rcd13ifvqgkg","pricing_plan_id":"cebpf4jnsgd1na2vs0mg"},{"bike_id":"41e21137-1e1a-4741-b195-1b98dc043b19","system_id":"levelo_inurba_marseille","lat":43.23929,"lon":5.36649,"is_reserved":false,"is_disabled":false,"rental_uris":{"android":"levelo://app?vid=41e21137-1e1a-4741-b195-1b98dc043b19","ios":"levelo://app?vid=41e21137-1e1a-4741-b195-1b98dc043b19"},"vehicle_type_id":"4","last_reported":1761246467,"current_range_meters":19600,"station_id":"ce4bhi12rcd13ifvqfp0","pricing_plan_id":"cebpf4jnsgd1na2vs0mg"},{"bike_id":"bc87dea4-79a3-4ed3-aacd-3d26accd672a","system_id":"levelo_inurba_marseille","lat":43.29027,"lon":5.38631,"is_reserved":false,"is_disabled":false,"rental_uris":{"android":"levelo://app?vid=bc87dea4-79a3-4ed3-aacd-3d26accd672a","ios":"levelo://app?vid=bc87dea4-79a3-4ed3-aacd-3d26accd672a"},"vehicle_type_id":"4","last_reported":1761246467,"current_range_meters":19600,"station_id":"ce4bh4p2rcd13ifvqe0g","pricing_plan_id":"cebpf4jnsgd1na2vs0mg"},{"bike_id":"bc18986f-720e-4fb1-8991-ac16da488f75","system_id":"levelo_inurba_marseille","lat":43.27906,"lon":5.39574,"is_reserved":false,"is_disabled":false,"rental_uris":{"android":"levelo://app?vid=bc18986f-720e-4fb1-8991-ac16da488f75","ios":"levelo://app?vid=bc18986f-720e-4fb1-8991-ac16da488f75"},"vehicle_type_id":"4","last_reported":1761246467,"current_range_meters":19600,"station_id":"ce4bhf92rcd13ifvqf40","pricing_plan_id":"cebpf4jnsgd1na2vs0mg"},{"bike_id":"249615da-bae2-4bb3-9506-b338b9fb85b7","system_id":"levelo_inurba_marseille","lat":43.29712,"lon":5.37693,"is_reserved":false,"is_disabled":true,"rental_uris":{"android":"levelo://app?vid=249615da-bae2-4bb3-9506-b338b9fb85b7","ios":"levelo://app?vid=249615da-bae2-4bb3-9506-b338b9fb85b7"},"vehicle_type_id":"4","last_reported":1761246467,"current_range_meters":19600,"station_id":"ce4bgkh2rcd13ifvqbl0","pricing_plan_id":"cebpf4jnsgd1na2vs0mg"},{"bike_id":"e3d85fee-7a8a-42c9-ac54-709a27c32d03","system_id":"levelo_inurba_marseille","lat":43.31104,"lon":5.37765,"is_reserved":false,"is_disabled":false,"rental_uris":{"android":"levelo://app?vid=e3d85fee-7a8a-42c9-ac54-709a27c32d03","ios":"levelo://app?vid=e3d85fee-7a8a-42c9-ac54-709a27c32d03"},"vehicle_type_id":"4","last_reported":1761246467,"current_range_meters":19600,"station_id":"ce4bgt92rcd13ifvqcg0","pricing_plan_id":"cebpf4jnsgd1na2vs0mg"},{"bike_id":"c62ef487-aba1-462e-923b-d3430a13fb2f","system_id":"levelo_inurba_marseille","lat":43.30641,"lon":5.40095,"is_reserved":false,"is_disabled":false,"rental_uris":{"android":"levelo://app?vid=c62ef487-aba1-462e-923b-d3430a13fb2f","ios":"levelo://app?vid=c62ef487-aba1-462e-923b-d3430a13fb2f"},"vehicle_type_id":"4","last_reported":1761246467,"current_range_meters":19600,"station_id":"ce4bh112rcd13ifvqda0","pricing_plan_id":"cebpf4jnsgd1na2vs0mg"},{"bike_id":"dde114a4-8805-4784-b02d-0d744116457b","system_id":"levelo_inurba_marseille","lat":43.22936,"lon":5.35377,"is_reserved":false,"is_disabled":false,"rental_uris":{"android":"levelo://app?vid=dde114a4-8805-4784-b02d-0d744116457b","ios":"levelo://app?vid=dde114a4-8805-4784-b02d-0d744116457b"},"vehicle_type_id":"4","last_reported":1761246467,"current_range_meters":19600,"station_id":"cpo3532slgdg3j2ikp40","pricing_plan_id":"cebpf4jnsgd1na2vs0mg"},{"bike_id":"e6474ac5-15b1-42de-bc83-d44d21c0b0b1","system_id":"levelo_inurba_marseille","lat":43.25119,"lon":5.40317,"is_reserved":false,"is_disabled":false,"rental_uris":{"android":"levelo://app?vid=e6474ac5-15b1-42de-bc83-d44d21c0b0b1","ios":"levelo://app?vid=e6474ac5-15b1-42de-bc83-d44d21c0b0b1"},"vehicle_type_id":"4","last_reported":1761246467,"current_range_meters":20000,"station_id":"ce4bhlh2rcd13ifvqgig","pricing_plan_id":"cebpf4jnsgd1na2vs0mg"},{"bike_id":"4f5c5045-2f2c-4ab7-ad8b-eeba1d52fe66","system_id":"levelo_inurba_marseille","lat":43.32324,"lon":5.36779,"is_reserved":false,"is_disabled":false,"rental_uris":{"android":"levelo://app?vid=4f5c5045-2f2c-4ab7-ad8b-eeba1d52fe66","ios":"levelo://app?vid=4f5c5045-2f2c-4ab7-ad8b-eeba1d52fe66"},"vehicle_type_id":"4","last_reported":1761246467,"current_range_meters":20000,"station_id":"ce4bhsh2rcd13ifvqi2g","pricing_plan_id":"cebpf4jnsgd1na2vs0mg"},{"bike_id":"17585014-36d0-4d96-ab97-1812e8c7fbe7","system_id":"levelo_inurba_marseille","lat":43.31667,"lon":5.38241,"is_reserved":false,"is_disabled":false,"rental_uris":{"android":"levelo://app?vid=17585014-36d0-4d96-ab97-1812e8c7fbe7","ios":"levelo://app?vid=17585014-36d0-4d96-ab97-1812e8c7fbe7"},"vehicle_type_id":"4","last_reported":1761246467,"current_range_meters":20000,"station_id":"","pricing_plan_id":"cebpf4jnsgd1na2vs0mg"},{"bike_id":"443169f7-d846-40c9-a7aa-fda85a0c675f","system_id":"levelo_inurba_marseille","lat":43.26202,"lon":5.37458,"is_reserved":false,"is_disabled":false,"rental_uris":{"android":"levelo://app?vid=443169f7-d846-40c9-a7aa-fda85a0c675f","ios":"levelo://app?vid=443169f7-d846-40c9-a7aa-fda85a0c675f"},"vehicle_type_id":"4","last_reported":1761246467,"current_range_meters":20000,"station_id":"ce4bhgp2rcd13ifvqfc0","pricing_plan_id":"cebpf4jnsgd1na2vs0mg"},{"bike_id":"2087b646-f196-4c5f-b880-88d0df9000fb","system_id":"levelo_inurba_marseille","lat":43.28156,"lon":5.426393,"is_reserved":false,"is_disabled":false,"rental_uris":{"android":"levelo://app?vid=2087b646-f196-4c5f-b880-88d0df9000fb","ios":"levelo://app?vid=2087b646-f196-4c5f-b880-88d0df9000fb"},"vehicle_type_id":"4","last_reported":1761246467,"current_range_meters":20000,"station_id":"ce4bhnh2rcd13ifvqgug","pricing_plan_id":"cebpf4jnsgd1na2vs0mg"},{"bike_id":"d73517f6-d19d-4528-bcf2-10d7aba64146","system_id":"levelo_inurba_marseille","lat":43.2854,"lon":5.44104,"is_reserved":false,"is_disabled":false,"rental_uris":{"android":"levelo://app?vid=d73517f6-d19d-4528-bcf2-10d7aba64146","ios":"levelo://app?vid=d73517f6-d19d-4528-bcf2-10d7aba64146"},"vehicle_type_id":"4","last_reported":1761246467,"current_range_meters":20000,"station_id":"st_d3j3df2ikq2c7380ej80","pricing_plan_id":"cebpf4jnsgd1na2vs0mg"},{"bike_id":"3ca631e8-ee58-4447-9ffa-10b8c34e15a6","system_id":"levelo_inurba_marseille","lat":43.31164,"lon":5.38713,"is_reserved":false,"is_disabled":false,"rental_uris":{"android":"levelo://app?vid=3ca631e8-ee58-4447-9ffa-10b8c34e15a6","ios":"levelo://app?vid=3ca631e8-ee58-4447-9ffa-10b8c34e15a6"},"vehicle_type_id":"4","last_reported":1761246467,"current_range_meters":20000,"station_id":"ce4bgv12rcd13ifvqcp0","pricing_plan_id":"cebpf4jnsgd1na2vs0mg"},{"bike_id":"0094817b-6bc9-4775-945f-e4522108ecc3","system_id":"levelo_inurba_marseille","lat":43.30891,"lon":5.39633,"is_reserved":false,"is_disabled":false,"rental_uris":{"android":"levelo://app?vid=0094817b-6bc9-4775-945f-e4522108ecc3","ios":"levelo://app?vid=0094817b-6bc9-4775-945f-e4522108ecc3"},"vehicle_type_id":"4","last_reported":1761246467,"current_range_meters":20000,"station_id":"ce4bh012rcd13ifvqcv0","pricing_plan_id":"cebpf4jnsgd1na2vs0mg"},{"bike_id":"07b39f87-fc60-42b7-a270-162d9fa46f79","system_id":"levelo_inurba_marseille","lat":43.30882,"lon":5.39647,"is_reserved":false,"is_disabled":false,"rental_uris":{"android":"levelo://app?vid=07b39f87-fc60-42b7-a270-162d9fa46f79","ios":"levelo://app?vid=07b39f87-fc60-42b7-a270-162d9fa46f79"},"vehicle_type_id":"4","last_reported":1761246467,"current_range_meters":20400,"station_id":"ce4bh012rcd13ifvqcv0","pricing_plan_id":"cebpf4jnsgd1na2vs0mg"},{"bike_id":"9b2296fc-ca6d-4d31-a88a-f05fbee1212f","system_id":"levelo_inurba_marseille","lat":43.28713,"lon":5.37374,"is_reserved":false,"is_disabled":false,"rental_uris":{"android":"levelo://app?vid=9b2296fc-ca6d-4d31-a88a-f05fbee1212f","ios":"levelo://app?vid=9b2296fc-ca6d-4d31-a88a-f05fbee1212f"},"vehicle_type_id":"4","last_reported":1761246467,"current_range_meters":20400,"station_id":"ce4bh3p2rcd13ifvqdq0","pricing_plan_id":"cebpf4jnsgd1na2vs0mg"},{"bike_id":"be88eaa4-e674-44f9-9199-3901304dd644","system_id":"levelo_inurba_marseille","lat":43.21759,"lon":5.34608,"is_reserved":false,"is_disabled":false,"rental_uris":{"android":"levelo://app?vid=be88eaa4-e674-44f9-9199-3901304dd644","ios":"levelo://app?vid=be88eaa4-e674-44f9-9199-3901304dd644"},"vehicle_type_id":"4","last_reported":1761246467,"current_range_meters":20400,"station_id":"st_cvj6r9ubvosntc0bgbag","pricing_plan_id":"cebpf4jnsgd1na2vs0mg"},{"bike_id":"51f5c8c2-4020-440f-b660-182f7627d50e","system_id":"levelo_inurba_marseille","lat":43.27071,"lon":5.42262,"is_reserved":false,"is_disabled":true,"rental_uris":{"android":"levelo://app?vid=51f5c8c2-4020-440f-b660-182f7627d50e","ios":"levelo://app?vid=51f5c8c2-4020-440f-b660-182f7627d50e"},"vehicle_type_id":"4","last_reported":1761246467,"current_range_meters":20400,"station_id":"ce4bhk92rcd13ifvqgb0","pricing_plan_id":"cebpf4jnsgd1na2vs0mg"},{"bike_id":"57b679af-c7e3-4aef-aaf7-dad7584c2820","system_id":"levelo_inurba_marseille","lat":43.25547,"lon":5.3764,"is_reserved":false,"is_disabled":false,"rental_uris":{"android":"levelo://app?vid=57b679af-c7e3-4aef-aaf7-dad7584c2820","ios":"levelo://app?vid=57b679af-c7e3-4aef-aaf7-dad7584c2820"},"vehicle_type_id":"4","last_reported":1761246467,"current_range_meters":20400,"station_id":"ce4bhh12rcd13ifvqff0","pricing_plan_id":"cebpf4jnsgd1na2vs0mg"},{"bike_id":"75eebb0f-2447-4bf8-b846-45b5b359059b","system_id":"levelo_inurba_marseille","lat":43.33769,"lon":5.37496,"is_reserved":false,"is_disabled":false,"rental_uris":{"android":"levelo://app?vid=75eebb0f-2447-4bf8-b846-45b5b359059b","ios":"levelo://app?vid=75eebb0f-2447-4bf8-b846-45b5b359059b"},"vehicle_type_id":"4","last_reported":1761246467,"current_range_meters":20400,"station_id":"","pricing_plan_id":"cebpf4jnsgd1na2vs0mg"},{"bike_id":"b8c97daa-9d25-46f3-82b1-f49b563fc2e4","system_id":"levelo_inurba_marseille","lat":43.24009,"lon":5.3781,"is_reserved":false,"is_disabled":false,"rental_uris":{"android":"levelo://app?vid=b8c97daa-9d25-46f3-82b1-f49b563fc2e4","ios":"levelo://app?vid=b8c97daa-9d25-46f3-82b1-f49b563fc2e4"},"vehicle_type_id":"4","last_reported":1761246467,"current_range_meters":20400,"station_id":"ce4bhnp2rcd13ifvqgvg","pricing_plan_id":"cebpf4jnsgd1na2vs0mg"},{"bike_id":"e1f1903f-4c6d-4d78-8478-f10b18b507d2","system_id":"levelo_inurba_marseille","lat":43.31498,"lon":5.37312,"is_reserved":false,"is_disabled":false,"rental_uris":{"android":"levelo://app?vid=e1f1903f-4c6d-4d78-8478-f10b18b507d2","ios":"levelo://app?vid=e1f1903f-4c6d-4d78-8478-f10b18b507d2"},"vehicle_type_id":"4","last_reported":1761246467,"current_range_meters":20400,"station_id":"ce4bgt12rcd13ifvqcd0","pricing_plan_id":"cebpf4jnsgd1na2vs0mg"},