{"last_updated":1735910127,"ttl":60,"version":"2.2","data":{"bikes":[{"bike_id":"982cb495-8435-48e0-af06-f84cff67dd28","system_id":"levelo_inurba_marseille","lat":43.2438,"lon":5.37059,"is_reserved":false,"is_disabled":false,"rental_uris":{"android":"levelo://app?vid=982cb495-8435-48e0-af06-f84cff67dd28","ios":"levelo://app?vid=982cb495-8435-48e0-af06-f84cff67dd28"},"vehicle_type_id":"4","last_reported":1735910128,"current_range_meters":16400,"station_id":"ce4bhhh2rcd13ifvqfk0","pricing_plan_id":"cebpf4jnsgd1na2vs0mg"},{"bike_id":"172ccd61-d49f-41ee-9d70-c90aa70835fe","system_id":"levelo_inurba_marseille","lat":43.27362,"lon":5.39357,"is_reserved":false,"is_disabled":false,"rental_uris":{"android":"levelo://app?vid=172ccd61-d49f-41ee-9d70-c90aa70835fe","ios":"levelo://app?vid=172ccd61-d49f-41ee-9d70-c90aa70835fe"},"vehicle_type_id":"4","last_reported":1735910128,"current_range_meters":30000,"station_id":"","pricing_plan_id":"cebpf4jnsgd1na2vs0mg"},{"bike_id":"48b6195c-9df8-4c50-aa17-d1b0c5b87deb","system_id":"levelo_inurba_marseille","lat":43.30889,"lon":5.37202,"is_reserved":false,"is_disabled":false,"rental_uris":{"android":"levelo://app?vid=48b6195c-9df8-4c50-aa17-d1b0c5b87deb","ios":"levelo://app?vid=48b6195c-9df8-4c50-aa17-d1b0c5b87deb"},"vehicle_type_id":"4","last_reported":1735910128,"current_range_meters":33600,"station_id":"ce4bguh2rcd13ifvqckg","pricing_plan_id":"cebpf4jnsgd1na2vs0mg"},{"bike_id":"3042dbc1-c819-4040-80d9-b25d524d5dea","system_id":"levelo_inurba_marseille","lat":43.284884,"lon":5.384281,"is_reserved":false,"is_disabled":false,"rental_uris":{"android":"levelo://app?vid=3042dbc1-c819-4040-80d9-b25d524d5dea","ios":"levelo://app?vid=3042dbc1-c819-4040-80d9-b25d524d5dea"},"vehicle_type_id":"4","last_reported":1735910128,"current_range_meters":38000,"station_id":"ce4bh512rcd13ifvqe3g","pricing_plan_id":"cebpf4jnsgd1na2vs0mg"},{"bike_id":"33620e62-568e-4de5-ad46-ceb9ed4dd267","system_id":"levelo_inurba_marseille","lat":43.26212,"lon":5.37443,"is_reserved":false,"is_disabled":true,"rental_uris":{"android":"levelo://app?vid=33620e62-568e-4de5-ad46-ceb9ed4dd267","ios":"levelo://app?vid=33620e62-568e-4de5-ad46-ceb9ed4dd267"},"vehicle_type_id":"4","last_reported":1735910128,"current_range_meters":0,"station_id":"ce4bhgp2rcd13ifvqfc0","pricing_plan_id":"cebpf4jnsgd1na2vs0mg"},{"bike_id":"fa1a3aa0-423f-4408-a31f-7f4b01a855b1","system_id":"levelo_inurba_marseille","lat":43.26554,"lon":5.37307,"is_reserved":false,"is_disabled":false,"rental_uris":{"android":"levelo://app?vid=fa1a3aa0-423f-4408-a31f-7f4b01a855b1","ios":"levelo://app?vid=fa1a3aa0-423f-4408-a31f-7f4b01a855b1"},"vehicle_type_id":"4","last_reported":1735910128,"current_range_meters":22400,"station_id":"ce4bhg12rcd13ifvqf70","pricing_plan_id":"cebpf4jnsgd1na2vs0mg"},{"bike_id":"0f453fb7-3f08-4636-922c-a01a14218d99","system_id":"levelo_inurba_marseille","lat":43.2995,"lon":5.4134,"is_reserved":false,"is_disabled":false,"rental_uris":{"android":"levelo://app?vid=0f453fb7-3f08-4636-922c-a01a14218d99","ios":"levelo://app?vid=0f453fb7-3f08-4636-922c-a01a14218d99"},"vehicle_type_id":"4","last_reported":1735910128,"current_range_meters":36800,"station_id":"ce4bhp12rcd13ifvqh9g","pricing_plan_id":"cebpf4jnsgd1na2vs0mg"},{"bike_id":"1113b2b6-0da6-44b4-baac-2646c8bc2994","system_id":"levelo_inurba_marseille","lat":43.30294,"lon":5.3691,"is_reserved":false,"is_disabled":false,"rental_uris":{"android":"levelo://app?vid=1113b2b6-0da6-44b4-baac-2646c8bc2994","ios":"levelo://app?vid=1113b2b6-0da6-44b4-baac-2646c8bc2994"},"vehicle_type_id":"4","last_reported":1735910128,"current_range_meters":28800,"station_id":"ce4bgqh2rcd13ifvqc5g","pricing_plan_id":"cebpf4jnsgd1na2vs0mg"},{"bike_id":"18914e8f-6f43-4f1d-a9cd-f62b39a065e6","system_id":"levelo_inurba_marseille","lat":43.29536,"lon":5.37498,"is_reserved":false,"is_disabled":false,"rental_uris":{"android":"levelo://app?vid=18914e8f-6f43-4f1d-a9cd-f62b39a065e6","ios":"levelo://app?vid=18914e8f-6f43-4f1d-a9cd-f62b39a065e6"},"vehicle_type_id":"4","last_reported":1735910128,"current_range_meters":32000,"station_id":"ce4bgkp2rcd13ifvqbmg","pricing_plan_id":"cebpf4jnsgd1na2vs0mg"},{"bike_id":"36d0910b-d540-4d75-b065-f044cb5b6555","system_id":"levelo_inurba_marseille","lat":43.29548,"lon":5.36748,"is_reserved":false,"is_disabled":false,"rental_uris":{"android":"levelo://app?vid=36d0910b-d540-4d75-b065-f044cb5b6555","ios":"levelo://app?vid=36d0910b-d540-4d75-b065-f044cb5b6555"},"vehicle_type_id":"4","last_reported":1735910128,"current_range_meters":38800,"station_id":"ce4bgph2rcd13ifvqc2g","pricing_plan_id":"cebpf4jnsgd1na2vs0mg"},{"bike_id":"0cc226b6-5f36-4e90-9e5b-497bf45d78e0","system_id":"levelo_inurba_marseille","lat":43.28001,"lon":5.40041,"is_reserved":false,"is_disabled":false,"rental_uris":{"android":"levelo://app?vid=0cc226b6-5f36-4e90-9e5b-497bf45d78e0","ios":"levelo://app?vid=0cc226b6-5f36-4e90-9e5b-497bf45d78e0"},"vehicle_type_id":"4","last_reported":1735910128,"current_range_meters":38800,"station_id":"ce4bho92rcd13ifvqh4g","pricing_plan_id":"cebpf4jnsgd1na2vs0mg"},{"bike_id":"c5e1b750-323e-4bc1-8e13-1e7612457a06","system_id":"levelo_inurba_marseille","lat":43.27222,"lon":5.3919,"is_reserved":false,"is_disabled":false,"rental_uris":{"android":"levelo://app?vid=c5e1b750-323e-4bc1-8e13-1e7612457a06","ios":"levelo://app?vid=c5e1b750-323e-4bc1-8e13-1e7612457a06"},"vehicle_type_id":"4","last_reported":1735910128,"current_range_meters":31200,"station_id":"ce4bhhp2rcd13ifvqfm0","pricing_plan_id":"cebpf4jnsgd1na2vs0mg"},{"bike_id":"5b887eae-be24-4203-a80f-9808d4161e07","system_id":"levelo_inurba_marseille","lat":43.29763,"lon":5.37703,"is_reserved":false,"is_disabled":false,"rental_uris":{"android":"levelo://app?vid=5b887eae-be24-4203-a80f-9808d4161e07","ios":"levelo://app?vid=5b887eae-be24-4203-a80f-9808d4161e07"},"vehicle_type_id":"4","last_reported":1735910128,"current_range_meters":38800,"station_id":"ce4bgkh2rcd13ifvqbl0","pricing_plan_id":"cebpf4jnsgd1na2vs0mg"},{"bike_id":"59670ab4-3e62-4524-af80-7d34d16ab6a2","system_id":"levelo_inurba_marseille","lat":43.30435,"lon":5.39746,"is_reserved":false,"is_disabled":false,"rental_uris":{"android":"levelo://app?vid=59670ab4-3e62-4524-af80-7d34d16ab6a2","ios":"levelo://app?vid=59670ab4-3e62-4524-af80-7d34d16ab6a2"},"vehicle_type_id":"4","last_reported":1735910128,"current_range_meters":25600,"station_id":"ce4bh092rcd13ifvqd20","pricing_plan_id":"cebpf4jnsgd1na2vs0mg"},{"bike_id":"116f92ae-65b4-4f7c-a23b-1117c0a69b33","system_id":"levelo_inurba_marseille","lat":43.28637,"lon":5.35183,"is_reserved":false,"is_disabled":false,"rental_uris":{"android":"levelo://app?vid=116f92ae-65b4-4f7c-a23b-1117c0a69b33","ios":"levelo://app?vid=116f92ae-65b4-4f7c-a23b-1117c0a69b33"},"vehicle_type_id":"4","last_reported":1735910128,"current_range_meters":27200,"station_id":"ce4bhch2rcd13ifvqeug","pricing_plan_id":"cebpf4jnsgd1na2vs0mg"},{"bike_id":"cf9371cf-b4a6-4f3a-92f4-f898ea85e696","system_id":"levelo_inurba_marseille","lat":43.28607,"lon":5.38657,"is_reserved":false,"is_disabled":false,"rental_uris":{"android":"levelo://app?vid=cf9371cf-b4a6-4f3a-92f4-f898ea85e696","ios":"levelo://app?vid=cf9371cf-b4a6-4f3a-92f4-f898ea85e696"},"vehicle_type_id":"4","last_reported":1735910128,"current_range_meters":38000,"station_id":"","pricing_plan_id":"cebpf4jnsgd1na2vs0mg"},{"bike_id":"2b8ea8a9-0690-406c-a433-e73cfed24c7d","system_id":"levelo_inurba_marseille","lat":43.24666,"lon":5.38161,"is_reserved":false,"is_disabled":false,"rental_uris":{"android":"levelo://app?vid=2b8ea8a9-0690-406c-a433-e73cfed24c7d","ios":"levelo://app?vid=2b8ea8a9-0690-406c-a433-e73cfed24c7d"},"vehicle_type_id":"4","last_reported":1735910128,"current_range_meters":34000,"station_id":"ce4bhih2rcd13ifvqfr0","pricing_plan_id":"cebpf4jnsgd1na2vs0mg"},{"bike_id":"fd49a6d8-2bfc-40d4-bfb5-e589c500ebcf","system_id":"levelo_inurba_marseille","lat":43.28874,"lon":5.35365,"is_reserved":false,"is_disabled":false,"rental_uris":{"android":"levelo://app?vid=fd49a6d8-2bfc-40d4-bfb5-e589c500ebcf","ios":"levelo://app?vid=fd49a6d8-2bfc-40d4-bfb5-e589c500ebcf"},"vehicle_type_id":"4","last_reported":1735910128,"current_range_meters":32400,"station_id":"","pricing_plan_id":"cebpf4jnsgd1na2vs0mg"},{"bike_id":"6d115562-da04-4a33-abc4-d2080183bd71","system_id":"levelo_inurba_marseille","lat":43.29611,"lon":5.38104,"is_reserved":false,"is_disabled":false,"rental_uris":{"android":"levelo://app?vid=6d115562-da04-4a33-abc4-d2080183bd71","ios":"levelo://app?vid=6d115562-da04-4a33-abc4-d2080183bd71"},"vehicle_type_id":"4","last_reported":1735910128,"current_range_meters":22000,"station_id":"ce4bgl12rcd13ifvqbo0","pricing_plan_id":"cebpf4jnsgd1na2vs0mg"},{"bike_id":"76d392c8-6dd4-4fbf-b626-27c2990c047b","system_id":"levelo_inurba_marseille","lat":43.28158,"lon":5.42862,"is_reserved":false,"is_disabled":false,"rental_uris":{"android":"levelo://app?vid=76d392c8-6dd4-4fbf-b626-27c2990c047b","ios":"levelo://app?vid=76d392c8-6dd4-4fbf-b626-27c2990c047b"},"vehicle_type_id":"4","last_reported":1735910128,"current_range_meters":18000,"station_id":"","pricing_plan_id":"cebpf4jnsgd1na2vs0mg"},{"bike_id":"ebb56956-e2e2-4f51-8f7a-80ccc26c078c","system_id":"levelo_inurba_marseille","lat":43.28153,"lon":5.42651,"is_reserved":false,"is_disabled":false,"rental_uris":{"android":"levelo://app?vid=ebb56956-e2e2-4f51-8f7a-80ccc26c078c","ios":"levelo://app?vid=ebb56956-e2e2-4f51-8f7a-80ccc26c078c"},"vehicle_type_id":"4","last_reported":1735910128,"current_range_meters":31200,"station_id":"ce4bhnh2rcd13ifvqgug","pricing_plan_id":"cebpf4jnsgd1na2vs0mg"},{"bike_id":"0183c6c3-3fe8-4c86-83c8-6c368312f5af","system_id":"levelo_inurba_marseille","lat":43.31084,"lon":5.38357,"is_reserved":false,"is_disabled":false,"rental_uris":{"android":"levelo://app?vid=0183c6c3-3fe8-4c86-83c8-6c368312f5af","ios":"levelo://app?vid=0183c6c3-3fe8-4c86-83c8-6c368312f5af"},"vehicle_type_id":"4","last_reported":1735910128,"current_range_meters":34800,"station_id":"ce4bgv92rcd13ifvqcr0","pricing_plan_id":"cebpf4jnsgd1na2vs0mg"},{"bike_id":"f94180ba-97a4-4ce7-98f7-63c65beb6272","system_id":"levelo_inurba_marseille","lat":43.26491,"lon":5.39545,"is_reserved":false,"is_disabled":false,"rental_uris":{"android":"levelo://app?vid=f94180ba-97a4-4ce7-98f7-63c65beb6272","ios":"levelo://app?vid=f94180ba-97a4-4ce7-98f7-63c65beb6272"},"vehicle_type_id":"4","last_reported":1735910128,"current_range_meters":38800,"station_id":"ce4bhi12rcd13ifvqfq0","pricing_plan_id":"cebpf4jnsgd1na2vs0mg"},{"bike_id":"24e02238-d92f-424f-8b72-85c062a83bbe","system_id":"levelo_inurba_marseille","lat":43.27677,"lon":5.38918,"is_reserved":false,"is_disabled":false,"rental_uris":{"android":"levelo://app?vid=24e02238-d92f-424f-8b72-85c062a83bbe","ios":"levelo://app?vid=24e02238-d92f-424f-8b72-85c062a83bbe"},"vehicle_type_id":"4","last_reported":1735910128,"current_range_meters":38800,"station_id":"ce4bhi12rcd13ifvqfo0","pricing_plan_id":"cebpf4jnsgd1na2vs0mg"},{"bike_id":"2831e55a-a06f-4082-b3e5-24d1a4f682ef","system_id":"levelo_inurba_marseille","lat":43.29269,"lon":5.38437,"is_reserved":false,"is_disabled":false,"rental_uris":{"android":"levelo://app?vid=2831e55a-a06f-4082-b3e5-24d1a4f682ef","ios":"levelo://app?vid=2831e55a-a06f-4082-b3e5-24d1a4f682ef"},"vehicle_type_id":"4","last_reported":1735910128,"current_range_meters":24000,"station_id":"ce4bh692rcd13ifvqea0","pricing_plan_id":"cebpf4jnsgd1na2vs0mg"},{"bike_id":"97717a3a-5240-48fe-b29e-9e7f0d2b5fba","system_id":"levelo_inurba_marseille","lat":43.31691,"lon":5.43685,"is_reserved":false,"is_disabled":false,"rental_uris":{"android":"levelo://app?vid=97717a3a-5240-48fe-b29e-9e7f0d2b5fba","ios":"levelo://app?vid=97717a3a-5240-48fe-b29e-9e7f0d2b5fba"},"vehicle_type_id":"4","last_reported":1735910128,"current_range_meters":39200,"station_id":"ce4bhp92rcd13ifvqhcg","pricing_plan_id":"cebpf4jnsgd1na2vs0mg"},{"bike_id":"a156dcb9-0391-489d-a546-8256b43b64a7","system_id":"levelo_inurba_marseille","lat":43.28491,"lon":5.38544,"is_reserved":false,"is_disabled":false,"rental_uris":{"android":"levelo://app?vid=a156dcb9-0391-489d-a546-8256b43b64a7","ios":"levelo://app?vid=a156dcb9-0391-489d-a546-8256b43b64a7"},"vehicle_type_id":"4","last_reported":1735910128,"current_range_meters":37600,"station_id":"ce4bh8p2rcd13ifvqeb0","pricing_plan_id":"cebpf4jnsgd1na2vs0mg"},{"bike_id":"944b5a17-7614-4f34-b24f-9cc5cebd0b0b","system_id":"levelo_inurba_marseille","lat":43.29538,"lon":5.37501,"is_reserved":false,"is_disabled":false,"rental_uris":{"android":"levelo://app?vid=944b5a17-7614-4f34-b24f-9cc5cebd0b0b","ios":"levelo://app?vid=944b5a17-7614-4f34-b24f-9cc5cebd0b0b"},"vehicle_type_id":"4","last_reported":1735910128,"current_range_meters":10000,"station_id":"ce4bgkp2rcd13ifvqbmg","pricing_plan_id":"cebpf4jnsgd1na2vs0mg"},{"bike_id":"b4fe4e0c-5b03-4373-9ca0-6f8f6eef3ef1","system_id":"levelo_inurba_marseille","lat":43.24158,"lon":5.36414,"is_reserved":false,"is_disabled":false,"rental_uris":{"android":"levelo://app?vid=b4fe4e0c-5b03-4373-9ca0-6f8f6eef3ef1","ios":"levelo://app?vid=b4fe4e0c-5b03-4373-9ca0-6f8f6eef3ef1"},"vehicle_type_id":"4","last_reported":1735910128,"current_range_meters":10000,"station_id":"cpo36qri1sfpv3e86is0","pricing_plan_id":"cebpf4jnsgd1na2vs0mg"},{"bike_id":"d2bef165-34df-48c0-b9b9-aca864c7e78d","system_id":"levelo_inurba_marseille","lat":43.28621,"lon":5.35109,"is_reserved":false,"is_disabled":false,"rental_uris":{"android":"levelo://app?vid=d2bef165-34df-48c0-b9b9-aca864c7e78d","ios":"levelo://app?vid=d2bef165-34df-48c0-b9b9-aca864c7e78d"},"vehicle_type_id":"4","last_reported":1735910128,"current_range_meters":32800,"station_id":"ce4bhch2rcd13ifvqeug","pricing_plan_id":"cebpf4jnsgd1na2vs0mg"},{"bike_id":"2fa19d07-4a5b-4ba9-8558-9787db17fa6e","system_id":"levelo_inurba_marseille","lat":43.31686,"lon":5.40475,"is_reserved":false,"is_disabled":false,"rental_uris":{"android":"levelo://app?vid=2fa19d07-4a5b-4ba9-8558-9787db17fa6e","ios":"levelo://app?vid=2fa19d07-4a5b-4ba9-8558-9787db17fa6e"},"vehicle_type_id":"4","last_reported":1735910128,"current_range_meters":29600,"station_id":"ce4bh012rcd13ifvqd00","pricing_plan_id":"cebpf4jnsgd1na2vs0mg"},{"bike_id":"4859fc4f-8f81-4ad3-b352-c49cf0693944","system_id":"levelo_inurba_marseille","lat":43.28481,"lon":5.3856,"is_reserved":false,"is_disabled":false,"rental_uris":{"android":"levelo://app?vid=4859fc4f-8f81-4ad3-b352-c49cf0693944","ios":"levelo://app?vid=4859fc4f-8f81-4ad3-b352-c49cf0693944"},"vehicle_type_id":"4","last_reported":1735910128,"current_range_meters":26000,"station_id":"ce4bh8p2rcd13ifvqeb0","pricing_plan_id":"cebpf4jnsgd1na2vs0mg"},{"bike_id":"72bea843-e7a7-4197-9917-5a7a5c4f3ef4","system_id":"levelo_inurba_marseille","lat":43.304653,"lon":5.379091,"is_reserved":false,"is_disabled":false,"rental_uris":{"android":"levelo://app?vid=72bea843-e7a7-4197-9917-5a7a5c4f3ef4","ios":"levelo://app?vid=72bea843-e7a7-4197-9917-5a7a5c4f3ef4"},"vehicle_type_id":"4","last_reported":1735910128,"current_range_meters":27200,"station_id":"ce4bgup2rcd13ifvqcn0","pricing_plan_id":"cebpf4jnsgd1na2vs0mg"},{"bike_id":"ec9b0c8d-d702-4d01-8373-2717624f46ed","system_id":"levelo_inurba_marseille","lat":43.23972,"lon":5.36631,"is_reserved":false,"is_disabled":false,"rental_uris":{"android":"levelo://app?vid=ec9b0c8d-d702-4d01-8373-2717624f46ed","ios":"levelo://app?vid=ec9b0c8d-d702-4d01-8373-2717624f46ed"},"vehicle_type_id":"4","last_reported":1735910128,"current_range_meters":9600,"station_id":"ce4bhi12rcd13ifvqfp0","pricing_plan_id":"cebpf4jnsgd1na2vs0mg"},{"bike_id":"4a1ad4c0-f6d8-4f02-a755-37ff4cc1ad61","system_id":"levelo_inurba_marseille","lat":43.2583,"lon":5.39437,"is_reserved":false,"is_disabled":false,"rental_uris":{"android":"levelo://app?vid=4a1ad4c0-f6d8-4f02-a755-37ff4cc1ad61","ios":"levelo://app?vid=4a1ad4c0-f6d8-4f02-a755-37ff4cc1ad61"},"vehicle_type_id":"4","last_reported":1735910128,"current_range_meters":37600,"station_id":"ce4bhip2rcd13ifvqft0","pricing_plan_id":"cebpf4jnsgd1na2vs0mg"},{"bike_id":"d221eb4b-6b87-4097-99a7-47bd4f329098","system_id":"levelo_inurba_marseille","lat":43.28276,"lon":5.35076,"is_reserved":false,"is_disabled":false,"rental_uris":{"android":"levelo://app?vid=d221eb4b-6b87-4097-99a7-47bd4f329098","ios":"levelo://app?vid=d221eb4b-6b87-4097-99a7-47bd4f329098"},"vehicle_type_id":"4","last_reported":1735910128,"current_range_meters":11600,"station_id":"ce4bhbp2rcd13ifvqerg","pricing_plan_id":"cebpf4jnsgd1na2vs0mg"},{"bike_id":"1edca33b-8d82-4613-945e-057a682428fe","system_id":"levelo_inurba_marseille","lat":43.3311,"lon":5.38211,"is_reserved":false,"is_disabled":false,"rental_uris":{"android":"levelo://app?vid=1edca33b-8d82-4613-945e-057a682428fe","ios":"levelo://app?vid=1edca33b-8d82-4613-945e-057a682428fe"},"vehicle_type_id":"4","last_reported":1735910128,"current_range_meters":34000,"station_id":"","pricing_plan_id":"cebpf4jnsgd1na2vs0mg"},{"bike_id":"7a7561e6-9ac2-4f12-9e73-da595ab03366","system_id":"levelo_inurba_marseille","lat":43.29576,"lon":5.39983,"is_reserved":false,"is_disabled":false,"rental_uris":{"android":"levelo://app?vid=7a7561e6-9ac2-4f12-9e73-da595ab03366","ios":"levelo://app?vid=7a7561e6-9ac2-4f12-9e73-da595ab03366"},"vehicle_type_id":"4","last_reported":1735910128,"current_range_meters":22400,"station_id":"ce4bh312rcd13ifvqdj0","pricing_plan_id":"cebpf4jnsgd1na2vs0mg"},{"bike_id":"4ff02992-46d1-4939-b33e-7e9de4ef7281","system_id":"levelo_inurba_marseille","lat":43.25816,"lon":5.39419,"is_reserved":false,"is_disabled":false,"rental_uris":{"android":"levelo://app?vid=4ff02992-46d1-4939-b33e-7e9de4ef7281","ios":"levelo://app?vid=4ff02992-46d1-4939-b33e-7e9de4ef7281"},"vehicle_type_id":"4","last_reported":1735910128,"current_range_meters":27600,"station_id":"ce4bhip2rcd13ifvqft0","pricing_plan_id":"cebpf4jnsgd1na2vs0mg"},{"bike_id":"a9729bac-b14c-4f28-bb26-3ce80633fcc6","system_id":"levelo_inurba_marseille","lat":43.24753,"lon":5.38224,"is_reserved":false,"is_disabled":false,"rental_uris":{"android":"levelo://app?vid=a9729bac-b14c-4f28-bb26-3ce80633fcc6","ios":"levelo://app?vid=a9729bac-b14c-4f28-bb26-3ce80633fcc6"},"vehicle_type_id":"4","last_reported":1735910128,"current_range_meters":35600,"station_id":"","pricing_plan_id":"cebpf4jnsgd1na2vs0mg"},{"bike_id":"027085de-3c06-4c90-8099-b9537f78e863","system_id":"levelo_inurba_marseille","lat":43.23132,"lon":5.437,"is_reserved":false,"is_disabled":false,"rental_uris":{"android":"levelo://app?vid=027085de-3c06-4c90-8099-b9537f78e863","ios":"levelo://app?vid=027085de-3c06-4c90-8099-b9537f78e863"},"vehicle_type_id":"4","last_reported":1735910128,"current_range_meters":26000,"station_id":"ce4bhmp2rcd13ifvqgog","pricing_plan_id":"cebpf4jnsgd1na2vs0mg"},{"bike_id":"4b6a41bf-6158-4f95-8733-20938233d170","system_id":"levelo_inurba_marseille","lat":43.25724,"lon":5.41098,"is_reserved":false,"is_disabled":false,"rental_uris":{"android":"levelo://app?vid=4b6a41bf-6158-4f95-8733-20938233d170","ios":"levelo://app?vid=4b6a41bf-6158-4f95-8733-20938233d170"},"vehicle_type_id":"4","last_reported":1735910128,"current_range_meters":38800,"station_id":"ce4bhkp2rcd13ifvqgd0","pricing_plan_id":"cebpf4jnsgd1na2vs0mg"},{"bike_id":"d936b726-436d-4e1d-883d-74d49ddbe842","system_id":"levelo_inurba_marseille","lat":43.31535,"lon":5.38025,"is_reserved":false,"is_disabled":false,"rental_uris":{"android":"levelo://app?vid=d936b726-436d-4e1d-883d-74d49ddbe842","ios":"levelo://app?vid=d936b726-436d-4e1d-883d-74d49ddbe842"},"vehicle_type_id":"4","last_reported":1735910128,"current_range_meters":13600,"station_id":"ce4bhsp2rcd13ifvqi50","pricing_plan_id":"cebpf4jnsgd1na2vs0mg"},{"bike_id":"2516ee95-9f5e-4a4d-913e-b5cd032981bb","system_id":"levelo_inurba_marseille","lat":43.27373,"lon":5.36263,"is_reserved":false,"is_disabled":false,"rental_uris":{"android":"levelo://app?vid=2516ee95-9f5e-4a4d-913e-b5cd032981bb","ios":"levelo://app?vid=2516ee95-9f5e-4a4d-913e-b5cd032981bb"},"vehicle_type_id":"4","last_reported":1735910128,"current_range_meters":7200,"station_id":"ce4bhbh2rcd13ifvqeo0","pricing_plan_id":"cebpf4jnsgd1na2vs0mg"},{"bike_id":"7a63d77d-b3e4-4713-9060-b918ad8247d2","system_id":"levelo_inurba_marseille","lat":43.22943,"lon":5.35396,"is_reserved":false,"is_disabled":false,"rental_uris":{"android":"levelo://app?vid=7a63d77d-b3e4-4713-9060-b918ad8247d2","ios":"levelo://app?vid=7a63d77d-b3e4-4713-9060-b918ad8247d2"},"vehicle_type_id":"4","last_reported":1735910128,"current_range_meters":35600,"station_id":"cpo3532slgdg3j2ikp40","pricing_plan_id":"cebpf4jnsgd1na2vs0mg"},{"bike_id":"677461db-a0e4-49d1-8a94-8585ba841d54","system_id":"levelo_inurba_marseille","lat":43.28469,"lon":5.38413,"is_reserved":false,"is_disabled":true,"rental_uris":{"android":"levelo://app?vid=677461db-a0e4-49d1-8a94-8585ba841d54","ios":"levelo://app?vid=677461db-a0e4-49d1-8a94-8585ba841d54"},"vehicle_type_id":"4","last_reported":1735910128,"current_range_meters":800,"station_id":"ce4bh512rcd13ifvqe3g","pricing_plan_id":"cebpf4jnsgd1na2vs0mg"},{"bike_id":"f421f149-12db-4d1c-aa37-4459fecb5d07","system_id":"levelo_inurba_marseille","lat":43.28851,"lon":5.35854,"is_reserved":false,"is_disabled":false,"rental_uris":{"android":"levelo://app?vid=f421f149-12db-4d1c-aa37-4459fecb5d07","ios":"levelo://app?vid=f421f149-12db-4d1c-aa37-4459fecb5d07"},"vehicle_type_id":"4","last_reported":1735910128,"current_range_meters":35600,"station_id":"ce4bhb12rcd13ifvqem0","pricing_plan_id":"cebpf4jnsgd1na2vs0mg"},{"bike_id":"3c7472a4-a45c-4f46-a692-aa44ebf92f21","system_id":"levelo_inurba_marseille","lat":43.27443,"lon":5.39421,"is_reserved":false,"is_disabled":false,"rental_uris":{"android":"levelo://app?vid=3c7472a4-a45c-4f46-a692-aa44ebf92f21","ios":"levelo://app?vid=3c7472a4-a45c-4f46-a692-aa44ebf92f21"},"vehicle_type_id":"4","last_reported":1735910128,"current_range_meters":31200,"station_id":"ce4bhdp2rcd13ifvqf20","pricing_plan_id":"cebpf4jnsgd1na2vs0mg"},{"bike_id":"aa99a87f-5d71-465b-b420-4e7a58043ac5","system_id":"levelo_inurba_marseille","lat":43.30301,"lon":5.36911,"is_reserved":false,"is_disabled":false,"rental_uris":{"android":"levelo://app?vid=aa99a87f-5d71-465b-b420-4e7a58043ac5","ios":"levelo://app?vid=aa99a87f-5d71-465b-b420-4e7a58043ac5"},"vehicle_type_id":"4","last_reported":1735910128,"current_range_meters":38000,"station_id":"ce4bgqh2rcd13ifvqc5g","pricing_plan_id":"cebpf4jnsgd1na2vs0mg"},{"bike_id":"b5b2166a-b0b8-4fc4-9960-24fcf8dddf0c","system_id":"levelo_inurba_marseille","lat":43.30825,"lon":5.38059,"is_reserved":false,"is_disabled":false,"rental_uris":{"android":"levelo://app?vid=b5b2166a-b0b8-4fc4-9960-24fcf8dddf0c","ios":"levelo://app?vid=b5b2166a-b0b8-4fc4-9960-24fcf8dddf0c"},"vehicle_type_id":"4","last_reported":1735910128,"current_range_meters":14800,"station_id":"","pricing_plan_id":"cebpf4jnsgd1na2vs0mg"},{"bike_id":"ba45c32b-6d14-47e1-bb41-23c211513d59","system_id":"levelo_inurba_marseille","lat":43.30136,"lon":5.37432,"is_reserved":false,"is_disabled":false,"rental_uris":{"android":"levelo://app?vid=ba45c32b-6d14-47e1-bb41-23c211513d59","ios":"levelo://app?vid=ba45c32b-6d14-47e1-bb41-23c211513d59"},"vehicle_type_id":"4","last_reported":1735910128,"current_range_meters":24400,"station_id":"ce4bgs92rcd13ifvqcc0","pricing_plan_id":"cebpf4jnsgd1na2vs0mg"},{"bike_id":"0529a904-151a-4f69-8d7f-1dcf0b3f36e5","system_id":"levelo_inurba_marseille","lat":43.28417,"lon":5.37506,"is_reserved":false,"is_disabled":false,"rental_uris":{"android":"levelo://app?vid=0529a904-151a-4f69-8d7f-1dcf0b3f36e5","ios":"levelo://app?vid=0529a904-151a-4f69-8d7f-1dcf0b3f36e5"},"vehicle_type_id":"4","last_reported":1735910128,"current_range_meters":19600,"station_id":"ce4bh412rcd13ifvqds0","pricing_plan_id":"cebpf4jnsgd1na2vs0mg"},{"bike_id":"2d37891b-3e35-407f-964b-7c262ae2b2d0","system_id":"levelo_inurba_marseille","lat":43.29409,"lon":5.38091,"is_reserved":false,"is_disabled":true,"rental_uris":{"android":"levelo://app?vid=2d37891b-3e35-407f-964b-7c262ae2b2d0","ios":"levelo://app?vid=2d37891b-3e35-407f-964b-7c262ae2b2d0"},"vehicle_type_id":"4","last_reported":1735910128,"current_range_meters":0,"station_id":"","pricing_plan_id":"cebpf4jnsgd1na2vs0mg"},{"bike_id":"49bb61fb-4420-4ddf-8622-f71b0161f5fe","system_id":"levelo_inurba_marseille","lat":43.2305,"lon":5.35515,"is_reserved":false,"is_disabled":false,"rental_uris":{"android":"levelo://app?vid=49bb61fb-4420-4ddf-8622-f71b0161f5fe","ios":"levelo://app?vid=49bb61fb-4420-4ddf-8622-f71b0161f5fe"},"vehicle_type_id":"4","last_reported":1735910128,"current_range_meters":25600,"station_id":"cpo3342slgdg3j2ifvpg","pricing_plan_id":"cebpf4jnsgd1na2vs0mg"},{"bike_id":"a704d00f-fa02-4fe3-91e2-2416c16951bb","system_id":"levelo_inurba_marseille","lat":43.24068,"lon":5.37731,"is_reserved":false,"is_disabled":false,"rental_uris":{"android":"levelo://app?vid=a704d00f-fa02-4fe3-91e2-2416c16951bb","ios":"levelo://app?vid=a704d00f-fa02-4fe3-91e2-2416c16951bb"},"vehicle_type_id":"4","last_reported":1735910128,"current_range_meters":38800,"station_id":"ce4bhnp2rcd13ifvqgvg","pricing_plan_id":"cebpf4jnsgd1na2vs0mg"},{"bike_id":"2332862a-3884-4317-af82-ee9793e9b62c","system_id":"levelo_inurba_marseille","lat":43.24077,"lon":5.377469,"is_reserved":false,"is_disabled":false,"rental_uris":{"android":"levelo://app?vid=2332862a-3884-4317-af82-ee9793e9b62c","ios":"levelo://app?vid=2332862a-3884-4317-af82-ee9793e9b62c"},"vehicle_type_id":"4","last_reported":1735910128,"current_range_meters":22000,"station_id":"ce4bhnp2rcd13ifvqgvg","pricing_plan_id":"cebpf4jnsgd1na2vs0mg"},{"bike_id":"78f86a53-0e54-4406-814f-c5d80e97535d","system_id":"levelo_inurba_marseille","lat":43.24079,"lon":5.37764,"is_reserved":false,"is_disabled":false,"rental_uris":{"android":"levelo://app?vid=78f86a53-0e54-4406-814f-c5d80e97535d","ios":"levelo://app?vid=78f86a53-0e54-4406-814f-c5d80e97535d"},"vehicle_type_id":"4","last_reported":1735910128,"current_range_meters":38800,"station_id":"ce4bhnp2rcd13ifvqgvg","pricing_plan_id":"cebpf4jnsgd1na2vs0mg"},{"bike_id":"e6fa8bd9-5f74-401a-b12e-57e85af877cf","system_id":"levelo_inurba_marseille","lat":43.30402,"lon":5.36785,"is_reserved":false,"is_disabled":false,"rental_uris":{"android":"levelo://app?vid=e6fa8bd9-5f74-401a-b12e-57e85af877cf","ios":"levelo://app?vid=e6fa8bd9-5f74-401a-b12e-57e85af877cf"},"vehicle_type_id":"4","last_reported":1735910128,"current_range_meters":25200,"station_id":"","pricing_plan_id":"cebpf4jnsgd1na2vs0mg"},{"bike_id":"4483098c-d27d-4534-ad16-c209ae457c9a","system_id":"levelo_inurba_marseille","lat":43.315278,"lon":5.380298,"is_reserved":false,"is_disabled":false,"rental_uris":{"android":"levelo://app?vid=4483098c-d27d-4534-ad16-c209ae457c9a","ios":"levelo://app?vid=4483098c-d27d-4534-ad16-c209ae457c9a"},"vehicle_type_id":"4","last_reported":1735910128,"current_range_meters":38800,"station_id":"ce4bhsp2rcd13ifvqi50","pricing_plan_id":"cebpf4jnsgd1na2vs0mg"},{"bike_id":"af6f5cf6-fe33-49d4-9b2b-a069d115dde7","system_id":"levelo_inurba_marseille","lat":43.29852,"lon":5.36295,"is_reserved":false,"is_disabled":false,"rental_uris":{"android":"levelo://app?vid=af6f5cf6-fe33-49d4-9b2b-a069d115dde7","ios":"levelo://app?vid=af6f5cf6-fe33-49d4-9b2b-a069d115dde7"},"vehicle_type_id":"4","last_reported":1735910128,"current_range_meters":24000,"station_id":"ce4bgpp2rcd13ifvqc3g","pricing_plan_id":"cebpf4jnsgd1na2vs0mg"},{"bike_id":"bd5f771f-8599-417f-92e1-2bc9c05d304e","system_id":"levelo_inurba_marseille","lat":43.32548,"lon":5.41433,"is_reserved":false,"is_disabled":false,"rental_uris":{"android":"levelo://app?vid=bd5f771f-8599-417f-92e1-2bc9c05d304e","ios":"levelo://app?vid=bd5f771f-8599-417f-92e1-2bc9c05d304e"},"vehicle_type_id":"4","last_reported":1735910128,"current_range_meters":38800,"station_id":"ce4bhq12rcd13ifvqhhg","pricing_plan_id":"cebpf4jnsgd1na2vs0mg"},{"bike_id":"2cad5e9d-f183-4c3f-a642-7c176e4884d1","system_id":"levelo_inurba_marseille","lat":43.25821,"lon":5.39411,"is_reserved":false,"is_disabled":false,"rental_uris":{"android":"levelo://app?vid=2cad5e9d-f183-4c3f-a642-7c176e4884d1","ios":"levelo://app?vid=2cad5e9d-f183-4c3f-a642-7c176e4884d1"},"vehicle_type_id":"4","last_reported":1735910128,"current_range_meters":36000,"station_id":"ce4bhip2rcd13ifvqft0","pricing_plan_id":"cebpf4jnsgd1na2vs0mg"},{"bike_id":"491e76ae-77d0-46f8-a518-cc691ef7e672","system_id":"levelo_inurba_marseille","lat":43.2904,"lon":5.37568,"is_reserved":false,"is_disabled":false,"rental_uris":{"android":"levelo://app?vid=491e76ae-77d0-46f8-a518-cc691ef7e672","ios":"levelo://app?vid=491e76ae-77d0-46f8-a518-cc691ef7e672"},"vehicle_type_id":"4","last_reported":1735910128,"current_range_meters":33200,"station_id":"ce4bh692rcd13ifvqe90","pricing_plan_id":"cebpf4jnsgd1na2vs0mg"},{"bike_id":"35c1d590-2dda-4320-b54a-747cfc3bccec","system_id":"levelo_inurba_marseille","lat":43.30353,"lon":5.41878,"is_reserved":false,"is_disabled":false,"rental_uris":{"android":"levelo://app?vid=35c1d590-2dda-4320-b54a-747cfc3bccec","ios":"levelo://app?vid=35c1d590-2dda-4320-b54a-747cfc3bccec"},"vehicle_type_id":"4","last_reported":1735910128,"current_range_meters":36000,"station_id":"ce4bhop2rcd13ifvqh7g","pricing_plan_id":"cebpf4jnsgd1na2vs0mg"},{"bike_id":"45a9706a-96de-4fd8-b40f-34a0d90a2183","system_id":"levelo_inurba_marseille","lat":43.31315,"lon":5.39713,"is_reserved":false,"is_disabled":true,"rental_uris":{"android":"levelo://app?vid=45a9706a-96de-4fd8-b40f-34a0d90a2183","ios":"levelo://app?vid=45a9706a-96de-4fd8-b40f-34a0d90a2183"},"vehicle_type_id":"4","last_reported":1735910128,"current_range_meters":1200,"station_id":"ce4bgvp2rcd13ifvqcu0","pricing_plan_id":"cebpf4jnsgd1na2vs0mg"},{"bike_id":"8c1a59b4-2c8f-4307-8a5a-eec2cd0e5913","system_id":"levelo_inurba_marseille","lat":43.30294,"lon":5.37692,"is_reserved":false,"is_disabled":false,"rental_uris":{"android":"levelo://app?vid=8c1a59b4-2c8f-4307-8a5a-eec2cd0e5913","ios":"levelo://app?vid=8c1a59b4-2c8f-4307-8a5a-eec2cd0e5913"},"vehicle_type_id":"4","last_reported":1735910128,"current_range_meters":38800,"station_id":"ce4bguh2rcd13ifvqcj0","pricing_plan_id":"cebpf4jnsgd1na2vs0mg"},{"bike_id":"c38119df-a0cc-4d53-851b-aebce98309d3","system_id":"levelo_inurba_marseille","lat":43.25004,"lon":5.38922,"is_reserved":false,"is_disabled":false,"rental_uris":{"android":"levelo://app?vid=c38119df-a0cc-4d53-851b-aebce98309d3","ios":"levelo://app?vid=c38119df-a0cc-4d53-851b-aebce98309d3"},"vehicle_type_id":"4","last_reported":1735910128,"current_range_meters":8400,"station_id":"ce4bhgp2rcd13ifvqfd0","pricing_plan_id":"cebpf4jnsgd1na2vs0mg"},{"bike_id":"738b5c89-8c76-42ea-8fde-470ed4498ba3","system_id":"levelo_inurba_marseille","lat":43.25899,"lon":5.40838,"is_reserved":false,"is_disabled":false,"rental_uris":{"android":"levelo://app?vid=738b5c89-8c76-42ea-8fde-470ed4498ba3","ios":"levelo://app?vid=738b5c89-8c76-42ea-8fde-470ed4498ba3"},"vehicle_type_id":"4","last_reported":1735910128,"current_range_meters":27200,"station_id":"ce4bhm92rcd13ifvqglg","pricing_plan_id":"cebpf4jnsgd1na2vs0mg"},{"bike_id":"9f6d2555-5760-4cf4-9e4c-7cc82724f0e8","system_id":"levelo_inurba_marseille","lat":43.29604,"lon":5.38112,"is_reserved":false,"is_disabled":false,"rental_uris":{"android":"levelo://app?vid=9f6d2555-5760-4cf4-9e4c-7cc82724f0e8","ios":"levelo://app?vid=9f6d2555-5760-4cf4-9e4c-7cc82724f0e8"},"vehicle_type_id":"4","last_reported":1735910128,"current_range_meters":18800,"station_id":"ce4bgl12rcd13ifvqbo0","pricing_plan_id":"cebpf4jnsgd1na2vs0mg"},{"bike_id":"143446d0-6249-4abe-bef0-8e8cbab5d148","system_id":"levelo_inurba_marseille","lat":43.25085,"lon":5.3952,"is_reserved":false,"is_disabled":false,"rental_uris":{"android":"levelo://app?vid=143446d0-6249-4abe-bef0-8e8cbab5d148","ios":"levelo://app?vid=143446d0-6249-4abe-bef0-8e8cbab5d148"},"vehicle_type_id":"4","last_reported":1735910128,"current_range_meters":33600,"station_id":"ce4bhm12rcd13ifvqgkg","pricing_plan_id":"cebpf4jnsgd1na2vs0mg"},{"bike_id":"346da65a-0607-4ab8-afab-cd671c936ca6","system_id":"levelo_inurba_marseille","lat":43.32429,"lon":5.3659,"is_reserved":false,"is_disabled":false,"rental_uris":{"android":"levelo://app?vid=346da65a-0607-4ab8-afab-cd671c936ca6","ios":"levelo://app?vid=346da65a-0607-4ab8-afab-cd671c936ca6"},"vehicle_type_id":"4","last_reported":1735910128,"current_range_meters":17200,"station_id":"","pricing_plan_id":"cebpf4jnsgd1na2vs0mg"},{"bike_id":"96d04cd8-cd5a-4b97-9df1-7f8858e1c9eb","system_id":"levelo_inurba_marseille","lat":43.30588,"lon":5.37234,"is_reserved":false,"is_disabled":false,"rental_uris":{"android":"levelo://app?vid=96d04cd8-cd5a-4b97-9df1-7f8858e1c9eb","ios":"levelo://app?vid=96d04cd8-cd5a-4b97-9df1-7f8858e1c9eb"},"vehicle_type_id":"4","last_reported":1735910128,"current_range_meters":9600,"station_id":"ce4bgqh2rcd13ifvqc4g","pricing_plan_id":"cebpf4jnsgd1na2vs0mg"},{"bike_id":"2f857458-45ae-4306-9ffb-5d94252d59a5","system_id":"levelo_inurba_marseille","lat":43.24652,"lon":5.38872,"is_reserved":false,"is_disabled":false,"rental_uris":{"android":"levelo://app?vid=2f857458-45ae-4306-9ffb-5d94252d59a5","ios":"levelo://app?vid=2f857458-45ae-4306-9ffb-5d94252d59a5"},"vehicle_type_id":"4","last_reported":1735910128,"current_range_meters":39200,"station_id":"ce4bhg12rcd13ifvqf60","pricing_plan_id":"cebpf4jnsgd1na2vs0mg"},{"bike_id":"0c44e8cb-6c44-450a-a3ff-5dfd7e18baf3","system_id":"levelo_inurba_marseille","lat":43.27986,"lon":5.41663,"is_reserved":false,"is_disabled":false,"rental_uris":{"android":"levelo://app?vid=0c44e8cb-6c44-450a-a3ff-5dfd7e18baf3","ios":"levelo://app?vid=0c44e8cb-6c44-450a-a3ff-5dfd7e18baf3"},"vehicle_type_id":"4","last_reported":1735910128,"current_range_meters":38000,"station_id":"ce4bho12rcd13ifvqh1g","pricing_plan_id":"cebpf4jnsgd1na2vs0mg"},{"bike_id":"25990fff-4e8a-4c9a-9f77-d0b15d680caa","system_id":"levelo_inurba_marseille","lat":43.26942,"lon":5.38633,"is_reserved":false,"is_disabled":true,"rental_uris":{"android":"levelo://app?vid=25990fff-4e8a-4c9a-9f77-d0b15d680caa","ios":"levelo://app?vid=25990fff-4e8a-4c9a-9f77-d0b15d680caa"},"vehicle_type_id":"4","last_reported":1735910128,"current_range_meters":17600,"station_id":"","pricing_plan_id":"cebpf4jnsgd1na2vs0mg"},{"bike_id":"771f7610-128b-4abb-a26e-a02270e77b57","system_id":"levelo_inurba_marseille","lat":43.29385,"lon":5.37839,"is_reserved":false,"is_disabled":false,"rental_uris":{"android":"levelo://app?vid=771f7610-128b-4abb-a26e-a02270e77b57","ios":"levelo://app?vid=771f7610-128b-4abb-a26e-a02270e77b57"},"vehicle_type_id":"4","last_reported":1735910128,"current_range_meters":22000,"station_id":"ce4bgjh2rcd13ifvqbf0","pricing_plan_id":"cebpf4jnsgd1na2vs0mg"},{"bike_id":"be8055a9-b654-4a56-abf2-afbe4603f5e3","system_id":"levelo_inurba_marseille","lat":43.28038,"lon":5.36952,"is_reserved":false,"is_disabled":false,"rental_uris":{"android":"levelo://app?vid=be8055a9-b654-4a56-abf2-afbe4603f5e3","ios":"levelo://app?vid=be8055a9-b654-4a56-abf2-afbe4603f5e3"},"vehicle_type_id":"4","last_reported":1735910128,"current_range_meters":26800,"station_id":"ce4bha12rcd13ifvqef0","pricing_plan_id":"cebpf4jnsgd1na2vs0mg"},{"bike_id":"db34218a-bf6f-45ed-b3b1-d950245c60a9","system_id":"levelo_inurba_marseille","lat":43.30287,"lon":5.36899,"is_reserved":false,"is_disabled":false,"rental_uris":{"android":"levelo://app?vid=db34218a-bf6f-45ed-b3b1-d950245c60a9","ios":"levelo://app?vid=db34218a-bf6f-45ed-b3b1-d950245c60a9"},"vehicle_type_id":"4","last_reported":1735910128,"current_range_meters":39200,"station_id":"ce4bgqh2rcd13ifvqc5g","pricing_plan_id":"cebpf4jnsgd1na2vs0mg"},{"bike_id":"51a124f2-b42f-4e40-8238-0704dc4213a9","system_id":"levelo_inurba_marseille","lat":43.29755,"lon":5.37695,"is_reserved":false,"is_disabled":false,"rental_uris":{"android":"levelo://app?vid=51a124f2-b42f-4e40-8238-0704dc4213a9","ios":"levelo://app?vid=51a124f2-b42f-4e40-8238-0704dc4213a9"},"vehicle_type_id":"4","last_reported":1735910128,"current_range_meters":38800,"station_id":"ce4bgkh2rcd13ifvqbl0","pricing_plan_id":"cebpf4jnsgd1na2vs0mg"},{"bike_id":"5455da32-2d63-4c3f-9dad-73627163389b","system_id":"levelo_inurba_marseille","lat":43.33773,"lon":5.37443,"is_reserved":false,"is_disabled":false,"rental_uris":{"android":"levelo://app?vid=5455da32-2d63-4c3f-9dad-73627163389b","ios":"levelo://app?vid=5455da32-2d63-4c3f-9dad-73627163389b"},"vehicle_type_id":"4","last_reported":1735910128,"current_range_meters":26000,"station_id":"","pricing_plan_id":"cebpf4jnsgd1na2vs0mg"},{"bike_id":"cb9ddef6-e3ca-4d83-8257-6a73eb8266c6","system_id":"levelo_inurba_marseille","lat":43.32661,"lon":5.41,"is_reserved":false,"is_disabled":false,"rental_uris":{"android":"levelo://app?vid=cb9ddef6-e3ca-4d83-8257-6a73eb8266c6","ios":"levelo://app?vid=cb9ddef6-e3ca-4d83-8257-6a73eb8266c6"},"vehicle_type_id":"4","last_reported":1735910128,"current_range_meters":38800,"station_id":"ce4bhpp2rcd13ifvqhgg","pricing_plan_id":"cebpf4jnsgd1na2vs0mg"},{"bike_id":"6e56be40-5ec8-410f-8cfc-9d18f73e6007","system_id":"levelo_inurba_marseille","lat":43.29038,"lon":5.37572,"is_reserved":false,"is_disabled":false,"rental_uris":{"android":"levelo://app?vid=6e56be40-5ec8-410f-8cfc-9d18f73e6007","ios":"levelo://app?vid=6e56be40-5ec8-410f-8cfc-9d18f73e6007"},"vehicle_type_id":"4","last_reported":1735910128,"current_range_meters":10800,"station_id":"ce4bh692rcd13ifvqe90","pricing_plan_id":"cebpf4jnsgd1na2vs0mg"},{"bike_id":"a85ff2bf-827a-45a1-a10f-61b33091278d","system_id":"levelo_inurba_marseille","lat":43.29944,"lon":5.41347,"is_reserved":false,"is_disabled":false,"rental_uris":{"android":"levelo://app?vid=a85ff2bf-827a-45a1-a10f-61b33091278d","ios":"levelo://app?vid=a85ff2bf-827a-45a1-a10f-61b33091278d"},"vehicle_type_id":"4","last_reported":1735910128,"current_range_meters":18800,"station_id":"ce4bhp12rcd13ifvqh9g","pricing_plan_id":"cebpf4jnsgd1na2vs0mg"},{"bike_id":"827b0813-db3a-45cd-9f07-276eb24a36dd","system_id":"levelo_inurba_marseille","lat":43.31395,"lon":5.36725,"is_reserved":false,"is_disabled":false,"rental_uris":{"android":"levelo://app?vid=827b0813-db3a-45cd-9f07-276eb24a36dd","ios":"levelo://app?vid=827b0813-db3a-45cd-9f07-276eb24a36dd"},"vehicle_type_id":"4","last_reported":1735910128,"current_range_meters":38800,"station_id":"ce4bgr92rcd13ifvqc6g","pricing_plan_id":"cebpf4jnsgd1na2vs0mg"},{"bike_id":"26a45da8-bc52-4d14-8c52-4b2ba66645b1","system_id":"levelo_inurba_marseille","lat":43.28471,"lon":5.38565,"is_reserved":false,"is_disabled":false,"rental_uris":{"android":"levelo://app?vid=26a45da8-bc52-4d14-8c52-4b2ba66645b1","ios":"levelo://app?vid=26a45da8-bc52-4d14-8c52-4b2ba66645b1"},"vehicle_type_id":"4","last_reported":1735910128,"current_range_meters":39200,"station_id":"ce4bh8p2rcd13ifvqeb0","pricing_plan_id":"cebpf4jnsgd1na2vs0mg"},{"bike_id":"23a3a450-3443-4298-8106-07e1fb9686f1","system_id":"levelo_inurba_marseille","lat":43.31367,"lon":5.36721,"is_reserved":false,"is_disabled":false,"rental_uris":{"android":"levelo://app?vid=23a3a450-3443-4298-8106-07e1fb9686f1","ios":"levelo://app?vid=23a3a450-3443-4298-8106-07e1fb9686f1"},"vehicle_type_id":"4","last_reported":1735910128,"current_range_meters":24000,"station_id":"ce4bgr92rcd13ifvqc6g","pricing_plan_id":"cebpf4jnsgd1na2vs0mg"},{"bike_id":"9085f317-eea3-445b-8bdd-28ff00ca8048","system_id":"levelo_inurba_marseille","lat":43.26684,"lon":5.38281,"is_reserved":false,"is_disabled":false,"rental_uris":{"android":"levelo://app?vid=9085f317-eea3-445b-8bdd-28ff00ca8048","ios":"levelo://app?vid=9085f317-eea3-445b-8bdd-28ff00ca8048"},"vehicle_type_id":"4","last_reported":1735910128,"current_range_meters":36400,"station_id":"ce4bhg92rcd13ifvqf90","pricing_plan_id":"cebpf4jnsgd1na2vs0mg"},{"bike_id":"a6f828f1-5f97-4da7-bf33-7d48a155db3e","system_id":"levelo_inurba_marseille","lat":43.2783,"lon":5.39199,"is_reserved":false,"is_disabled":false,"rental_uris":{"android":"levelo://app?vid=a6f828f1-5f97-4da7-bf33-7d48a155db3e","ios":"levelo://app?vid=a6f828f1-5f97-4da7-bf33-7d48a155db3e"},"vehicle_type_id":"4","last_reported":1735910128,"current_range_meters":30400,"station_id":"ce4bhjp2rcd13ifvqga0","pricing_plan_id":"cebpf4jnsgd1na2vs0mg"},{"bike_id":"1deb5ceb-5067-4e45-87aa-dfafe9548c3b","system_id":"levelo_inurba_marseille","lat":43.31129,"lon":5.37772,"is_reserved":false,"is_disabled":false,"rental_uris":{"android":"levelo://app?vid=1deb5ceb-5067-4e45-87aa-dfafe9548c3b","ios":"levelo://app?vid=1deb5ceb-5067-4e45-87aa-dfafe9548c3b"},"vehicle_type_id":"4","last_reported":1735910128,"current_range_meters":36800,"station_id":"ce4bgt92rcd13ifvqcg0","pricing_plan_id":"cebpf4jnsgd1na2vs0mg"},{"bike_id":"2cb73bff-3a8c-4792-af59-167d685e0a29","system_id":"levelo_inurba_marseille","lat":43.313258,"lon":5.374826,"is_reserved":false,"is_disabled":false,"rental_uris":{"android":"levelo://app?vid=2cb73bff-3a8c-4792-af59-167d685e0a29","ios":"levelo://app?vid=2cb73bff-3a8c-4792-af59-167d685e0a29"},"vehicle_type_id":"4","last_reported":1735910128,"current_range_meters":36000,"station_id":"","pricing_plan_id":"cebpf4jnsgd1na2vs0mg"},{"bike_id":"03f24cb2-160b-4a7d-b55a-a5dd752a0817","system_id":"levelo_inurba_marseille","lat":43.28417,"lon":5.34974,"is_reserved":false,"is_disabled":false,"rental_uris":{"android":"levelo://app?vid=03f24cb2-160b-4a7d-b55a-a5dd752a0817","ios":"levelo://app?vid=03f24cb2-160b-4a7d-b55a-a5dd752a0817"},"vehicle_type_id":"4","last_reported":1735910128,"current_range_meters":28800,"station_id":"ce4bhbh2rcd13ifvqepg","pricing_plan_id":"cebpf4jnsgd1na2vs0mg"},{"bike_id":"40977940-0cd3-4c4e-ab13-342c16c738ab","system_id":"levelo_inurba_marseille","lat":43.24653,"lon":5.38894,"is_reserved":false,"is_disabled":false,"rental_uris":{"android":"levelo://app?vid=40977940-0cd3-4c4e-ab13-342c16c738ab","ios":"levelo://app?vid=40977940-0cd3-4c4e-ab13-342c16c738ab"},"vehicle_type_id":"4","last_reported":1735910128,"current_range_meters":19200,"station_id":"ce4bhg12rcd13ifvqf60","pricing_plan_id":"cebpf4jnsgd1na2vs0mg"},{"bike_id":"0fb09dc4-c559-469b-b944-d0167194cfca","system_id":"levelo_inurba_marseille","lat":43.27955,"lon":5.4105,"is_reserved":false,"is_disabled":true,"rental_uris":{"android":"levelo://app?vid=0fb09dc4-c559-469b-b944-d0167194cfca","ios":"levelo://app?vid=0fb09dc4-c559-469b-b944-d0167194cfca"},"vehicle_type_id":"4","last_reported":1735910128,"current_range_meters":1200,"station_id":"ce4bhnp2rcd13ifvqh0g","pricing_plan_id":"cebpf4jnsgd1na2vs0mg"},{"bike_id":"e763b9cf-65eb-4131-8b74-455e6f49dde4","system_id":"levelo_inurba_marseille","lat":43.32471,"lon":5.36553,"is_reserved":false,"is_disabled":false,"rental_uris":{"android":"levelo://app?vid=e763b9cf-65eb-4131-8b74-455e6f49dde4","ios":"levelo://app?vid=e763b9cf-65eb-4131-8b74-455e6f49dde4"},"vehicle_type_id":"4","last_reported":1735910128,"current_range_meters":11200,"station_id":"ce4bhs12rcd13ifvqhvg","pricing_plan_id":"cebpf4jnsgd1na2vs0mg"},{"bike_id":"5aa8a99e-4165-495b-8e30-7e69c2b58354","system_id":"levelo_inurba_marseille","lat":43.26664,"lon":5.38286,"is_reserved":false,"is_disabled":false,"rental_uris":{"android":"levelo://app?vid=5aa8a99e-4165-495b-8e30-7e69c2b58354","ios":"levelo://app?vid=5aa8a99e-4165-495b-8e30-7e69c2b58354"},"vehicle_type_id":"4","last_reported":1735910128,"current_range_meters":39200,"station_id":"ce4bhg92rcd13ifvqf90","pricing_plan_id":"cebpf4jnsgd1na2vs0mg"},{"bike_id":"f811a98b-9aa7-419d-8e74-1c4088ab1bbc","system_id":"levelo_inurba_marseille","lat":43.27071,"lon":5.42308,"is_reserved":false,"is_disabled":false,"rental_uris":{"android":"levelo://app?vid=f811a98b-9aa7-419d-8e74-1c4088ab1bbc","ios":"levelo://app?vid=f811a98b-9aa7-419d-8e74-1c4088ab1bbc"},"vehicle_type_id":"4","last_reported":1735910128,"current_range_meters":38800,"station_id":"ce4bhk92rcd13ifvqgb0","pricing_plan_id":"cebpf4jnsgd1na2vs0mg"},{"bike_id":"641d8acc-50b2-4173-ab23-c70f2a11d28e","system_id":"levelo_inurba_marseille","lat":43.28153,"lon":5.4263,"is_reserved":false,"is_disabled":true,"rental_uris":{"android":"levelo://app?vid=641d8acc-50b2-4173-ab23-c70f2a11d28e","ios":"levelo://app?vid=641d8acc-50b2-4173-ab23-c70f2a11d28e"},"vehicle_type_id":"4","last_reported":1735910128,"current_range_meters":38800,"station_id":"ce4bhnh2rcd13ifvqgug","pricing_plan_id":"cebpf4jnsgd1na2vs0mg"},{"bike_id":"f91168e5-3a6a-477b-824d-bfc9fbc12320","system_id":"levelo_inurba_marseille","lat":43.30295,"lon":5.36921,"is_reserved":false,"is_disabled":false,"rental_uris":{"android":"levelo://app?vid=f91168e5-3a6a-477b-824d-bfc9fbc12320","ios":"levelo://app?vid=f91168e5-3a6a-477b-824d-bfc9fbc12320"},"vehicle_type_id":"4","last_reported":1735910128,"current_range_meters":39200,"station_id":"ce4bgqh2rcd13ifvqc5g","pricing_plan_id":"cebpf4jnsgd1na2vs0mg"},{"bike_id":"8e936699-fb94-4c05-a18e-6a31521ab968","system_id":"levelo_inurba_marseille","lat":43.28463,"lon":5.3589,"is_reserved":false,"is_disabled":true,"rental_uris":{"android":"levelo://app?vid=8e936699-fb94-4c05-a18e-6a31521ab968","ios":"levelo://app?vid=8e936699-fb94-4c05-a18e-6a31521ab968"},"vehicle_type_id":"4","last_reported":1735910128,"current_range_meters":36000,"station_id":"ce4bhah2rcd13ifvqei0","pricing_plan_id":"cebpf4jnsgd1na2vs0mg"},{"bike_id":"d9039fb6-1526-43a5-ab47-bf6c74051347","system_id":"levelo_inurba_marseille","lat":43.28154,"lon":5.42644,"is_reserved":false,"is_disabled":false,"rental_uris":{"android":"levelo://app?vid=d9039fb6-1526-43a5-ab47-bf6c74051347","ios":"levelo://app?vid=d9039fb6-1526-43a5-ab47-bf6c74051347"},"vehicle_type_id":"4","last_reported":1735910128,"current_range_meters":37600,"station_id":"ce4bhnh2rcd13ifvqgug","pricing_plan_id":"cebpf4jnsgd1na2vs0mg"},{"bike_id":"4c5b21c9-cceb-4647-bd76-de90a80bb2e5","system_id":"levelo_inurba_marseille","lat":43.26679,"lon":5.38265,"is_reserved":false,"is_disabled":false,"rental_uris":{"android":"levelo://app?vid=4c5b21c9-cceb-4647-bd76-de90a80bb2e5","ios":"levelo://app?vid=4c5b21c9-cceb-4647-bd76-de90a80bb2e5"},"vehicle_type_id":"4","last_reported":1735910128,"current_range_meters":39200,"station_id":"ce4bhg92rcd13ifvqf90","pricing_plan_id":"cebpf4jnsgd1na2vs0mg"},{"bike_id":"f479518e-75c0-4ea2-92dd-943cefdc366e","system_id":"levelo_inurba_marseille","lat":43.30907,"lon":5.36851,"is_reserved":false,"is_disabled":false,"rental_uris":{"android":"levelo://app?vid=f479518e-75c0-4ea2-92dd-943cefdc366e","ios":"levelo://app?vid=f479518e-75c0-4ea2-92dd-943cefdc366e"},"vehicle_type_id":"4","last_reported":1735910128,"current_range_meters":32000,"station_id":"ce4bgn92rcd13ifvqbvg","pricing_plan_id":"cebpf4jnsgd1na2vs0mg"},{"bike_id":"e455576a-160a-4968-bd17-a0f8bcc0baae","system_id":"levelo_inurba_marseille","lat":43.284853,"lon":5.384234,"is_reserved":false,"is_disabled":false,"rental_uris":{"android":"levelo://app?vid=e455576a-160a-4968-bd17-a0f8bcc0baae","ios":"levelo://app?vid=e455576a-160a-4968-bd17-a0f8bcc0baae"},"vehicle_type_id":"4","last_reported":1735910128,"current_range_meters":31200,"station_id":"ce4bh512rcd13ifvqe3g","pricing_plan_id":"cebpf4jnsgd1na2vs0mg"},{"bike_id":"b50c1e04-9c20-4daa-ad06-7d854e9beedd","system_id":"levelo_inurba_marseille","lat":43.26194,"lon":5.37454,"is_reserved":false,"is_disabled":false,"rental_uris":{"android":"levelo://app?vid=b50c1e04-9c20-4daa-ad06-7d854e9beedd","ios":"levelo://app?vid=b50c1e04-9c20-4daa-ad06-7d854e9beedd"},"vehicle_type_id":"4","last_reported":1735910128,"current_range_meters":35200,"station_id":"ce4bhgp2rcd13ifvqfc0","pricing_plan_id":"cebpf4jnsgd1na2vs0mg"},{"bike_id":"5f97eee1-4bb9-43f4-8e6e-a0b21a58fdc8","system_id":"levelo_inurba_marseille","lat":43.3188,"lon":5.40736,"is_reserved":false,"is_disabled":false,"rental_uris":{"android":"levelo://app?vid=5f97eee1-4bb9-43f4-8e6e-a0b21a58fdc8","ios":"levelo://app?vid=5f97eee1-4bb9-43f4-8e6e-a0b21a58fdc8"},"vehicle_type_id":"4","last_reported":1735910128,"current_range_meters":38800,"station_id":"ce4bhq12rcd13ifvqhig","pricing_plan_id":"cebpf4jnsgd1na2vs0mg"},{"bike_id":"3ae31120-8eb0-4fad-8daf-2c2f7dd99836","system_id":"levelo_inurba_marseille","lat":43.299573,"lon":5.413209,"is_reserved":false,"is_disabled":false,"rental_uris":{"android":"levelo://app?vid=3ae31120-8eb0-4fad-8daf-2c2f7dd99836","ios":"levelo://app?vid=3ae31120-8eb0-4fad-8daf-2c2f7dd99836"},"vehicle_type_id":"4","last_reported":1735910128,"current_range_meters":26800,"station_id":"ce4bhp12rcd13ifvqh9g","pricing_plan_id":"cebpf4jnsgd1na2vs0mg"},{"bike_id":"3db5aeb0-8398-493e-9ecc-ac320e89f809","system_id":"levelo_inurba_marseille","lat":43.30559,"lon":5.36539,"is_reserved":false,"is_disabled":false,"rental_uris":{"android":"levelo://app?vid=3db5aeb0-8398-493e-9ecc-ac320e89f809","ios":"levelo://app?vid=3db5aeb0-8398-493e-9ecc-ac320e89f809"},"vehicle_type_id":"4","last_reported":1735910128,"current_range_meters":33200,"station_id":"ce4bgs12rcd13ifvqcag","pricing_plan_id":"cebpf4jnsgd1na2vs0mg"},{"bike_id":"fbee9c16-1cc7-4460-b653-41d924f15e3d","system_id":"levelo_inurba_marseille","lat":43.29979,"lon":5.41346,"is_reserved":false,"is_disabled":false,"rental_uris":{"android":"levelo://app?vid=fbee9c16-1cc7-4460-b653-41d924f15e3d","ios":"levelo://app?vid=fbee9c16-1cc7-4460-b653-41d924f15e3d"},"vehicle_type_id":"4","last_reported":1735910128,"current_range_meters":28800,"station_id":"ce4bhp12rcd13ifvqh9g","pricing_plan_id":"cebpf4jnsgd1na2vs0mg"},{"bike_id":"ca1160f7-250e-4c61-b6fe-bd84f2916cc3","system_id":"levelo_inurba_marseille","lat":43.27208,"lon":5.39179,"is_reserved":false,"is_disabled":false,"rental_uris":{"android":"levelo://app?vid=ca1160f7-250e-4c61-b6fe-bd84f2916cc3","ios":"levelo://app?vid=ca1160f7-250e-4c61-b6fe-bd84f2916cc3"},"vehicle_type_id":"4","last_reported":1735910128,"current_range_meters":35200,"station_id":"ce4bhhp2rcd13ifvqfm0","pricing_plan_id":"cebpf4jnsgd1na2vs0mg"},{"bike_id":"2ff0edbb-1120-44a4-b8a8-0b9a430d70c1","system_id":"levelo_inurba_marseille","lat":43.30452,"lon":5.38897,"is_reserved":false,"is_disabled":true,"rental_uris":{"android":"levelo://app?vid=2ff0edbb-1120-44a4-b8a8-0b9a430d70c1","ios":"levelo://app?vid=2ff0edbb-1120-44a4-b8a8-0b9a430d70c1"},"vehicle_type_id":"4","last_reported":1735910128,"current_range_meters":38800,"station_id":"ce4bgk12rcd13ifvqbi0","pricing_plan_id":"cebpf4jnsgd1na2vs0mg"},{"bike_id":"983a939f-0c90-4b41-8e07-1ba37a328643","system_id":"levelo_inurba_marseille","lat":43.24172,"lon":5.36399,"is_reserved":false,"is_disabled":false,"rental_uris":{"android":"levelo://app?vid=983a939f-0c90-4b41-8e07-1ba37a328643","ios":"levelo://app?vid=983a939f-0c90-4b41-8e07-1ba37a328643"},"vehicle_type_id":"4","last_reported":1735910128,"current_range_meters":28400,"station_id":"cpo36qri1sfpv3e86is0","pricing_plan_id":"cebpf4jnsgd1na2vs0mg"},{"bike_id":"0a1b70d7-3602-4dca-bccb-c03cf0ee23b9","system_id":"levelo_inurba_marseille","lat":43.2997,"lon":5.38494,"is_reserved":false,"is_disabled":false,"rental_uris":{"android":"levelo://app?vid=0a1b70d7-3602-4dca-bccb-c03cf0ee23b9","ios":"levelo://app?vid=0a1b70d7-3602-4dca-bccb-c03cf0ee23b9"},"vehicle_type_id":"4","last_reported":1735910128,"current_range_meters":34000,"station_id":"ce4bgj92rcd13ifvqbd0","pricing_plan_id":"cebpf4jnsgd1na2vs0mg"},{"bike_id":"3e0cf576-02e7-494c-b799-ee9c99693b09","system_id":"levelo_inurba_marseille","lat":43.2836,"lon":5.38657,"is_reserved":false,"is_disabled":false,"rental_uris":{"android":"levelo://app?vid=3e0cf576-02e7-494c-b799-ee9c99693b09","ios":"levelo://app?vid=3e0cf576-02e7-494c-b799-ee9c99693b09"},"vehicle_type_id":"4","last_reported":1735910128,"current_range_meters":35600,"station_id":"ce4bh492rcd13ifvqdvg","pricing_plan_id":"cebpf4jnsgd1na2vs0mg"},{"bike_id":"4cbf4d20-cac6-455c-85de-8f0b001e42e9","system_id":"levelo_inurba_marseille","lat":43.2992,"lon":5.43677,"is_reserved":false,"is_disabled":false,"rental_uris":{"android":"levelo://app?vid=4cbf4d20-cac6-455c-85de-8f0b001e42e9","ios":"levelo://app?vid=4cbf4d20-cac6-455c-85de-8f0b001e42e9"},"vehicle_type_id":"4","last_reported":1735910128,"current_range_meters":37600,"station_id":"ce4bhpp2rcd13ifvqhfg","pricing_plan_id":"cebpf4jnsgd1na2vs0mg"},{"bike_id":"39ce2e6b-2931-4b52-8a04-b37c7c18e720","system_id":"levelo_inurba_marseille","lat":43.27206,"lon":5.39181,"is_reserved":false,"is_disabled":false,"rental_uris":{"android":"levelo://app?vid=39ce2e6b-2931-4b52-8a04-b37c7c18e720","ios":"levelo://app?vid=39ce2e6b-2931-4b52-8a04-b37c7c18e720"},"vehicle_type_id":"4","last_reported":1735910128,"current_range_meters":37600,"station_id":"ce4bhhp2rcd13ifvqfm0","pricing_plan_id":"cebpf4jnsgd1na2vs0mg"},{"bike_id":"1df3f686-7a5b-4b27-a323-3ea93b91e5eb","system_id":"levelo_inurba_marseille","lat":43.28482,"lon":5.38461,"is_reserved":false,"is_disabled":true,"rental_uris":{"android":"levelo://app?vid=1df3f686-7a5b-4b27-a323-3ea93b91e5eb","ios":"levelo://app?vid=1df3f686-7a5b-4b27-a323-3ea93b91e5eb"},"vehicle_type_id":"4","last_reported":1735910128,"current_range_meters":32400,"station_id":"ce4bh512rcd13ifvqe3g","pricing_plan_id":"cebpf4jnsgd1na2vs0mg"},{"bike_id":"69451bb6-12be-4835-9bf5-ff7d6ca2b8b7","system_id":"levelo_inurba_marseille","lat":43.29254,"lon":5.36861,"is_reserved":false,"is_disabled":false,"rental_uris":{"android":"levelo://app?vid=69451bb6-12be-4835-9bf5-ff7d6ca2b8b7","ios":"levelo://app?vid=69451bb6-12be-4835-9bf5-ff7d6ca2b8b7"},"vehicle_type_id":"4","last_reported":1735910128,"current_range_meters":36000,"station_id":"ce4bhbp2rcd13ifvqesg","pricing_plan_id":"cebpf4jnsgd1na2vs0mg"},{"bike_id":"349a4ab8-6f13-4948-be71-abaadb9466ee","system_id":"levelo_inurba_marseille","lat":43.24069,"lon":5.37766,"is_reserved":false,"is_disabled":false,"rental_uris":{"android":"levelo://app?vid=349a4ab8-6f13-4948-be71-abaadb9466ee","ios":"levelo://app?vid=349a4ab8-6f13-4948-be71-abaadb9466ee"},"vehicle_type_id":"4","last_reported":1735910128,"current_range_meters":38000,"station_id":"ce4bhnp2rcd13ifvqgvg","pricing_plan_id":"cebpf4jnsgd1na2vs0mg"},{"bike_id":"4a152c63-61bb-4a5a-b77e-d8e1d8642405","system_id":"levelo_inurba_marseille","lat":43.28422,"lon":5.34981,"is_reserved":false,"is_disabled":false,"rental_uris":{"android":"levelo://app?vid=4a152c63-61bb-4a5a-b77e-d8e1d8642405","ios":"levelo://app?vid=4a152c63-61bb-4a5a-b77e-d8e1d8642405"},"vehicle_type_id":"4","last_reported":1735910128,"current_range_meters":20000,"station_id":"ce4bhbh2rcd13ifvqepg","pricing_plan_id":"cebpf4jnsgd1na2vs0mg"},{"bike_id":"97829712-45ed-44f4-98b1-03aec2ad37f0","system_id":"levelo_inurba_marseille","lat":43.2668,"lon":5.38255,"is_reserved":false,"is_disabled":false,"rental_uris":{"android":"levelo://app?vid=97829712-45ed-44f4-98b1-03aec2ad37f0","ios":"levelo://app?vid=97829712-45ed-44f4-98b1-03aec2ad37f0"},"vehicle_type_id":"4","last_reported":1735910128,"current_range_meters":39200,"station_id":"ce4bhg92rcd13ifvqf90","pricing_plan_id":"cebpf4jnsgd1na2vs0mg"},{"bike_id":"d9e795d5-0002-4730-96f6-a834b8b71292","system_id":"levelo_inurba_marseille","lat":43.23156,"lon":5.43712,"is_reserved":false,"is_disabled":false,"rental_uris":{"android":"levelo://app?vid=d9e795d5-0002-4730-96f6-a834b8b71292","ios":"levelo://app?vid=d9e795d5-0002-4730-96f6-a834b8b71292"},"vehicle_type_id":"4","last_reported":1735910128,"current_range_meters":11600,"station_id":"ce4bhmp2rcd13ifvqgog","pricing_plan_id":"cebpf4jnsgd1na2vs0mg"},{"bike_id":"f3998a04-3b93-4948-8eb7-aa16047370fd","system_id":"levelo_inurba_marseille","lat":43.27986,"lon":5.41066,"is_reserved":false,"is_disabled":false,"rental_uris":{"android":"levelo://app?vid=f3998a04-3b93-4948-8eb7-aa16047370fd","ios":"levelo://app?vid=f3998a04-3b93-4948-8eb7-aa16047370fd"},"vehicle_type_id":"4","last_reported":1735910128,"current_range_meters":18000,"station_id":"ce4bhnp2rcd13ifvqh0g","pricing_plan_id":"cebpf4jnsgd1na2vs0mg"},{"bike_id":"d59d325a-1808-4de1-b6c1-8484888e38a3","system_id":"levelo_inurba_marseille","lat":43.30116,"lon":5.39109,"is_reserved":false,"is_disabled":true,"rental_uris":{"android":"levelo://app?vid=d59d325a-1808-4de1-b6c1-8484888e38a3","ios":"levelo://app?vid=d59d325a-1808-4de1-b6c1-8484888e38a3"},"vehicle_type_id":"4","last_reported":1735910128,"current_range_meters":33600,"station_id":"ce4bh192rcd13ifvqdb0","pricing_plan_id":"cebpf4jnsgd1na2vs0mg"},{"bike_id":"b8427470-c237-4b6a-a3e9-699cff2096e8","system_id":"levelo_inurba_marseille","lat":43.23967,"lon":5.36626,"is_reserved":false,"is_disabled":false,"rental_uris":{"android":"levelo://app?vid=b8427470-c237-4b6a-a3e9-699cff2096e8","ios":"levelo://app?vid=b8427470-c237-4b6a-a3e9-699cff2096e8"},"vehicle_type_id":"4","last_reported":1735910128,"current_range_meters":27200,"station_id":"ce4bhi12rcd13ifvqfp0","pricing_plan_id":"cebpf4jnsgd1na2vs0mg"},{"bike_id":"9a633b20-48e1-4d57-88ca-cc77983ef0f1","system_id":"levelo_inurba_marseille","lat":43.28153,"lon":5.42659,"is_reserved":false,"is_disabled":false,"rental_uris":{"android":"levelo://app?vid=9a633b20-48e1-4d57-88ca-cc77983ef0f1","ios":"levelo://app?vid=9a633b20-48e1-4d57-88ca-cc77983ef0f1"},"vehicle_type_id":"4","last_reported":1735910128,"current_range_meters":11600,"station_id":"ce4bhnh2rcd13ifvqgug","pricing_plan_id":"cebpf4jnsgd1na2vs0mg"},{"bike_id":"63bd9e51-f3f7-419c-aee7-3da94177a3d4","system_id":"levelo_inurba_marseille","lat":43.30566,"lon":5.37232,"is_reserved":false,"is_disabled":false,"rental_uris":{"android":"levelo://app?vid=63bd9e51-f3f7-419c-aee7-3da94177a3d4","ios":"levelo://app?vid=63bd9e51-f3f7-419c-aee7-3da94177a3d4"},"vehicle_type_id":"4","last_reported":1735910128,"current_range_meters":36400,"station_id":"ce4bgqh2rcd13ifvqc4g","pricing_plan_id":"cebpf4jnsgd1na2vs0mg"},{"bike_id":"2f659a4b-c13d-4942-a1c3-a6c407552d3e","system_id":"levelo_inurba_marseille","lat":43.29781,"lon":5.39339,"is_reserved":false,"is_disabled":false,"rental_uris":{"android":"levelo://app?vid=2f659a4b-c13d-4942-a1c3-a6c407552d3e","ios":"levelo://app?vid=2f659a4b-c13d-4942-a1c3-a6c407552d3e"},"vehicle_type_id":"4","last_reported":1735910128,"current_range_meters":36400,"station_id":"chh1huq6cuj3fo74tm60","pricing_plan_id":"cebpf4jnsgd1na2vs0mg"},{"bike_id":"eaecfcca-aa89-4e9a-8d17-c5be1539665b","system_id":"levelo_inurba_marseille","lat":43.28275,"lon":5.3507,"is_reserved":false,"is_disabled":true,"rental_uris":{"android":"levelo://app?vid=eaecfcca-aa89-4e9a-8d17-c5be1539665b","ios":"levelo://app?vid=eaecfcca-aa89-4e9a-8d17-c5be1539665b"},"vehicle_type_id":"4","last_reported":1735910128,"current_range_meters":10000,"station_id":"ce4bhbp2rcd13ifvqerg","pricing_plan_id":"cebpf4jnsgd1na2vs0mg"},{"bike_id":"1788c80b-c5a1-466b-bc7b-b3085bc4ea01","system_id":"levelo_inurba_marseille","lat":43.2917,"lon":5.37175,"is_reserved":false,"is_disabled":false,"rental_uris":{"android":"levelo://app?vid=1788c80b-c5a1-466b-bc7b-b3085bc4ea01","ios":"levelo://app?vid=1788c80b-c5a1-466b-bc7b-b3085bc4ea01"},"vehicle_type_id":"4","last_reported":1735910128,"current_range_meters":32000,"station_id":"ce4bha92rcd13ifvqeh0","pricing_plan_id":"cebpf4jnsgd1na2vs0mg"},{"bike_id":"c2dac5a0-dbf8-4381-84e9-a68d0e474b8c","system_id":"levelo_inurba_marseille","lat":43.297113,"lon":5.37698,"is_reserved":false,"is_disabled":false,"rental_uris":{"android":"levelo://app?vid=c2dac5a0-dbf8-4381-84e9-a68d0e474b8c","ios":"levelo://app?vid=c2dac5a0-dbf8-4381-84e9-a68d0e474b8c"},"vehicle_type_id":"4","last_reported":1735910128,"current_range_meters":19600,"station_id":"ce4bgkh2rcd13ifvqbl0","pricing_plan_id":"cebpf4jnsgd1na2vs0mg"},{"bike_id":"54594a57-0a34-4aec-89cd-4fed96835dab","system_id":"levelo_inurba_marseille","lat":43.30647,"lon":5.40096,"is_reserved":false,"is_disabled":false,"rental_uris":{"android":"levelo://app?vid=54594a57-0a34-4aec-89cd-4fed96835dab","ios":"levelo://app?vid=54594a57-0a34-4aec-89cd-4fed96835dab"},"vehicle_type_id":"4","last_reported":1735910128,"current_range_meters":24800,"station_id":"ce4bh112rcd13ifvqda0","pricing_plan_id":"cebpf4jnsgd1na2vs0mg"},{"bike_id":"a106e2d5-d5f8-4132-b59f-a0b0becc7d1d","system_id":"levelo_inurba_marseille","lat":43.28,"lon":5.40021,"is_reserved":false,"is_disabled":false,"rental_uris":{"android":"levelo://app?vid=a106e2d5-d5f8-4132-b59f-a0b0becc7d1d","ios":"levelo://app?vid=a106e2d5-d5f8-4132-b59f-a0b0becc7d1d"},"vehicle_type_id":"4","last_reported":1735910128,"current_range_meters":38800,"station_id":"ce4bho92rcd13ifvqh4g","pricing_plan_id":"cebpf4jnsgd1na2vs0mg"},{"bike_id":"c3c4d8a9-1fc1-4569-814d-18fd204eee26","system_id":"levelo_inurba_marseille","lat":43.28671,"lon":5.36357,"is_reserved":false,"is_disabled":false,"rental_uris":{"android":"levelo://app?vid=c3c4d8a9-1fc1-4569-814d-18fd204eee26","ios":"levelo://app?vid=c3c4d8a9-1fc1-4569-814d-18fd204eee26"},"vehicle_type_id":"4","last_reported":1735910128,"current_range_meters":20000,"station_id":"ce4bhah2rcd13ifvqej0","pricing_plan_id":"cebpf4jnsgd1na2vs0mg"},{"bike_id":"f3c12ef4-82bd-48ff-8ba6-8f2c9a44f8b9","system_id":"levelo_inurba_marseille","lat":43.24812,"lon":5.37455,"is_reserved":false,"is_disabled":false,"rental_uris":{"android":"levelo://app?vid=f3c12ef4-82bd-48ff-8ba6-8f2c9a44f8b9","ios":"levelo://app?vid=f3c12ef4-82bd-48ff-8ba6-8f2c9a44f8b9"},"vehicle_type_id":"4","last_reported":1735910128,"current_range_meters":39200,"station_id":"ce4bhgh2rcd13ifvqfb0","pricing_plan_id":"cebpf4jnsgd1na2vs0mg"},{"bike_id":"def36ed6-f9e1-48ab-bc0b-b9c1311e69be","system_id":"levelo_inurba_marseille","lat":43.25523,"lon":5.37697,"is_reserved":false,"is_disabled":false,"rental_uris":{"android":"levelo://app?vid=def36ed6-f9e1-48ab-bc0b-b9c1311e69be","ios":"levelo://app?vid=def36ed6-f9e1-48ab-bc0b-b9c1311e69be"},"vehicle_type_id":"4","last_reported":1735910128,"current_range_meters":38800,"station_id":"ce4bhh12rcd13ifvqff0","pricing_plan_id":"cebpf4jnsgd1na2vs0mg"},{"bike_id":"660aed1d-cdeb-4a3c-a6d4-d19ef9a2563b","system_id":"levelo_inurba_marseille","lat":43.29887,"lon":5.43666,"is_reserved":false,"is_disabled":false,"rental_uris":{"android":"levelo://app?vid=660aed1d-cdeb-4a3c-a6d4-d19ef9a2563b","ios":"levelo://app?vid=660aed1d-cdeb-4a3c-a6d4-d19ef9a2563b"},"vehicle_type_id":"4","last_reported":1735910128,"current_range_meters":36400,"station_id":"ce4bhpp2rcd13ifvqhfg","pricing_plan_id":"cebpf4jnsgd1na2vs0mg"},{"bike_id":"725999bb-8b32-4e5b-95fc-d63880a1b626","system_id":"levelo_inurba_marseille","lat":43.32667,"lon":5.41005,"is_reserved":false,"is_disabled":false,"rental_uris":{"android":"levelo://app?vid=725999bb-8b32-4e5b-95fc-d63880a1b626","ios":"levelo://app?vid=725999bb-8b32-4e5b-95fc-d63880a1b626"},"vehicle_type_id":"4","last_reported":1735910128,"current_range_meters":38800,"station_id":"ce4bhpp2rcd13ifvqhgg","pricing_plan_id":"cebpf4jnsgd1na2vs0mg"},{"bike_id":"7884a4ce-2ee8-4ff7-9e9f-a95fec00f69b","system_id":"levelo_inurba_marseille","lat":43.2848,"lon":5.38426,"is_reserved":false,"is_disabled":false,"rental_uris":{"android":"levelo://app?vid=7884a4ce-2ee8-4ff7-9e9f-a95fec00f69b","ios":"levelo://app?vid=7884a4ce-2ee8-4ff7-9e9f-a95fec00f69b"},"vehicle_type_id":"4","last_reported":1735910128,"current_range_meters":24000,"station_id":"ce4bh512rcd13ifvqe3g","pricing_plan_id":"cebpf4jnsgd1na2vs0mg"},{"bike_id":"123a3880-66e4-4a19-a99e-7253f12bf50c","system_id":"levelo_inurba_marseille","lat":43.25919,"lon":5.40923,"is_reserved":false,"is_disabled":false,"rental_uris":{"android":"levelo://app?vid=123a3880-66e4-4a19-a99e-7253f12bf50c","ios":"levelo://app?vid=123a3880-66e4-4a19-a99e-7253f12bf50c"},"vehicle_type_id":"4","last_reported":1735910128,"current_range_meters":19200,"station_id":"ce4bhm92rcd13ifvqglg","pricing_plan_id":"cebpf4jnsgd1na2vs0mg"},{"bike_id":"76f5b0cd-2cb1-43de-8bfb-89bc8a211a0f","system_id":"levelo_inurba_marseille","lat":43.32334,"lon":5.4062,"is_reserved":false,"is_disabled":false,"rental_uris":{"android":"levelo://app?vid=76f5b0cd-2cb1-43de-8bfb-89bc8a211a0f","ios":"levelo://app?vid=76f5b0cd-2cb1-43de-8bfb-89bc8a211a0f"},"vehicle_type_id":"4","last_reported":1735910128,"current_range_meters":35600,"station_id":"ce4bhq92rcd13ifvqhjg","pricing_plan_id":"cebpf4jnsgd1na2vs0mg"},{"bike_id":"96cb6bae-f2f5-4454-84e9-1e631669b024","system_id":"levelo_inurba_marseille","lat":43.28502,"lon":5.391,"is_reserved":false,"is_disabled":false,"rental_uris":{"android":"levelo://app?vid=96cb6bae-f2f5-4454-84e9-1e631669b024","ios":"levelo://app?vid=96cb6bae-f2f5-4454-84e9-1e631669b024"},"vehicle_type_id":"4","last_reported":1735910128,"current_range_meters":38800,"station_id":"","pricing_plan_id":"cebpf4jnsgd1na2vs0mg"},{"bike_id":"620951ad-a188-4d79-b4a7-8bd571cb5331","system_id":"levelo_inurba_marseille","lat":43.29031,"lon":5.37571,"is_reserved":false,"is_disabled":false,"rental_uris":{"android":"levelo://app?vid=620951ad-a188-4d79-b4a7-8bd571cb5331","ios":"levelo://app?vid=620951ad-a188-4d79-b4a7-8bd571cb5331"},"vehicle_type_id":"4","last_reported":1735910128,"current_range_meters":34800,"station_id":"ce4bh692rcd13ifvqe90","pricing_plan_id":"cebpf4jnsgd1na2vs0mg"},{"bike_id":"24823ac4-a4c5-447f-be6c-22910c5d2703","system_id":"levelo_inurba_marseille","lat":43.28477,"lon":5.38416,"is_reserved":false,"is_disabled":false,"rental_uris":{"android":"levelo://app?vid=24823ac4-a4c5-447f-be6c-22910c5d2703","ios":"levelo://app?vid=24823ac4-a4c5-447f-be6c-22910c5d2703"},"vehicle_type_id":"4","last_reported":1735910128,"current_range_meters":24400,"station_id":"ce4bh512rcd13ifvqe3g","pricing_plan_id":"cebpf4jnsgd1na2vs0mg"},{"bike_id":"fdb25d5f-5042-41f0-ac5b-ae98153a6879","system_id":"levelo_inurba_marseille","lat":43.2799,"lon":5.40029,"is_reserved":false,"is_disabled":false,"rental_uris":{"android":"levelo://app?vid=fdb25d5f-5042-41f0-ac5b-ae98153a6879","ios":"levelo://app?vid=fdb25d5f-5042-41f0-ac5b-ae98153a6879"},"vehicle_type_id":"4","last_reported":1735910128,"current_range_meters":38800,"station_id":"ce4bho92rcd13ifvqh4g","pricing_plan_id":"cebpf4jnsgd1na2vs0mg"},{"bike_id":"d9e7591d-4e69-4829-a945-5299a0d4f5d3","system_id":"levelo_inurba_marseille","lat":43.31902,"lon":5.40728,"is_reserved":false,"is_disabled":false,"rental_uris":{"android":"levelo://app?vid=d9e7591d-4e69-4829-a945-5299a0d4f5d3","ios":"levelo://app?vid=d9e7591d-4e69-4829-a945-5299a0d4f5d3"},"vehicle_type_id":"4","last_reported":1735910128,"current_range_meters":14800,"station_id":"ce4bhq12rcd13ifvqhig","pricing_plan_id":"cebpf4jnsgd1na2vs0mg"},{"bike_id":"2bd213f6-7c3b-4206-a8d7-1b059cfadb7f","system_id":"levelo_inurba_marseille","lat":43.337158,"lon":5.391815,"is_reserved":false,"is_disabled":false,"rental_uris":{"android":"levelo://app?vid=2bd213f6-7c3b-4206-a8d7-1b059cfadb7f","ios":"levelo://app?vid=2bd213f6-7c3b-4206-a8d7-1b059cfadb7f"},"vehicle_type_id":"4","last_reported":1735910128,"current_range_meters":16000,"station_id":"ce4bhr92rcd13ifvqhsg","pricing_plan_id":"cebpf4jnsgd1na2vs0mg"},{"bike_id":"4e2e926a-cc62-4529-8b24-3abbcf0f0be2","system_id":"levelo_inurba_marseille","lat":43.23196,"lon":5.3556,"is_reserved":false,"is_disabled":false,"rental_uris":{"android":"levelo://app?vid=4e2e926a-cc62-4529-8b24-3abbcf0f0be2","ios":"levelo://app?vid=4e2e926a-cc62-4529-8b24-3abbcf0f0be2"},"vehicle_type_id":"4","last_reported":1735910128,"current_range_meters":32800,"station_id":"ce4bhu92rcd13ifvqi70","pricing_plan_id":"cebpf4jnsgd1na2vs0mg"},{"bike_id":"4a89ebb6-73ff-49a0-aad9-480369e7d9f4","system_id":"levelo_inurba_marseille","lat":43.26218,"lon":5.37934,"is_reserved":false,"is_disabled":false,"rental_uris":{"android":"levelo://app?vid=4a89ebb6-73ff-49a0-aad9-480369e7d9f4","ios":"levelo://app?vid=4a89ebb6-73ff-49a0-aad9-480369e7d9f4"},"vehicle_type_id":"4","last_reported":1735910128,"current_range_meters":39200,"station_id":"ce4bhjp2rcd13ifvqg90","pricing_plan_id":"cebpf4jnsgd1na2vs0mg"},{"bike_id":"bdcab7c1-29b0-47c4-af52-c1192b2cf86c","system_id":"levelo_inurba_marseille","lat":43.26566,"lon":5.37297,"is_reserved":false,"is_disabled":false,"rental_uris":{"android":"levelo://app?vid=bdcab7c1-29b0-47c4-af52-c1192b2cf86c","ios":"levelo://app?vid=bdcab7c1-29b0-47c4-af52-c1192b2cf86c"},"vehicle_type_id":"4","last_reported":1735910128,"current_range_meters":22800,"station_id":"ce4bhg12rcd13ifvqf70","pricing_plan_id":"cebpf4jnsgd1na2vs0mg"},{"bike_id":"fad686cb-7028-4213-92df-743528ea5468","system_id":"levelo_inurba_marseille","lat":43.24161,"lon":5.39717,"is_reserved":false,"is_disabled":false,"rental_uris":{"android":"levelo://app?vid=fad686cb-7028-4213-92df-743528ea5468","ios":"levelo://app?vid=fad686cb-7028-4213-92df-743528ea5468"},"vehicle_type_id":"4","last_reported":1735910128,"current_range_meters":2800,"station_id":"ce4bhn12rcd13ifvqgpg","pricing_plan_id":"cebpf4jnsgd1na2vs0mg"},{"bike_id":"4099e364-d3d5-4e70-b9a6-6d1dbcbab17c","system_id":"levelo_inurba_marseille","lat":43.28083,"lon":5.39667,"is_reserved":false,"is_disabled":true,"rental_uris":{"android":"levelo://app?vid=4099e364-d3d5-4e70-b9a6-6d1dbcbab17c","ios":"levelo://app?vid=4099e364-d3d5-4e70-b9a6-6d1dbcbab17c"},"vehicle_type_id":"4","last_reported":1735910128,"current_range_meters":0,"station_id":"ce4bho12rcd13ifvqh2g","pricing_plan_id":"cebpf4jnsgd1na2vs0mg"},{"bike_id":"f09438e5-9609-461a-96a4-815373583260","system_id":"levelo_inurba_marseille","lat":43.29909,"lon":5.38135,"is_reserved":false,"is_disabled":false,"rental_uris":{"android":"levelo://app?vid=f09438e5-9609-461a-96a4-815373583260","ios":"levelo://app?vid=f09438e5-9609-461a-96a4-815373583260"},"vehicle_type_id":"4","last_reported":1735910128,"current_range_meters":25600,"station_id":"ce4bgj12rcd13ifvqbc0","pricing_plan_id":"cebpf4jnsgd1na2vs0mg"},{"bike_id":"91bd215c-cf5d-49bb-b4b3-f2af815209eb","system_id":"levelo_inurba_marseille","lat":43.27615,"lon":5.36109,"is_reserved":false,"is_disabled":false,"rental_uris":{"android":"levelo://app?vid=91bd215c-cf5d-49bb-b4b3-f2af815209eb","ios":"levelo://app?vid=91bd215c-cf5d-49bb-b4b3-f2af815209eb"},"vehicle_type_id":"4","last_reported":1735910128,"current_range_meters":38800,"station_id":"ce4bgj92rcd13ifvqbe0","pricing_plan_id":"cebpf4jnsgd1na2vs0mg"},{"bike_id":"a1914d2a-bf99-480f-80b6-a4afbd69cdb8","system_id":"levelo_inurba_marseille","lat":43.29098,"lon":5.38142,"is_reserved":false,"is_disabled":false,"rental_uris":{"android":"levelo://app?vid=a1914d2a-bf99-480f-80b6-a4afbd69cdb8","ios":"levelo://app?vid=a1914d2a-bf99-480f-80b6-a4afbd69cdb8"},"vehicle_type_id":"4","last_reported":1735910128,"current_range_meters":33200,"station_id":"ce4bh512rcd13ifvqe2g","pricing_plan_id":"cebpf4jnsgd1na2vs0mg"},{"bike_id":"c345efe7-8167-4493-8411-2427ecfa0edc","system_id":"levelo_inurba_marseille","lat":43.23969,"lon":5.36689,"is_reserved":false,"is_disabled":false,"rental_uris":{"android":"levelo://app?vid=c345efe7-8167-4493-8411-2427ecfa0edc","ios":"levelo://app?vid=c345efe7-8167-4493-8411-2427ecfa0edc"},"vehicle_type_id":"4","last_reported":1735910128,"current_range_meters":14400,"station_id":"ce4bhi12rcd13ifvqfp0","pricing_plan_id":"cebpf4jnsgd1na2vs0mg"},{"bike_id":"20877931-d020-4d46-85f9-75614b926481","system_id":"levelo_inurba_marseille","lat":43.29512,"lon":5.3749,"is_reserved":false,"is_disabled":false,"rental_uris":{"android":"levelo://app?vid=20877931-d020-4d46-85f9-75614b926481","ios":"levelo://app?vid=20877931-d020-4d46-85f9-75614b926481"},"vehicle_type_id":"4","last_reported":1735910128,"current_range_meters":22400,"station_id":"ce4bgkp2rcd13ifvqbmg","pricing_plan_id":"cebpf4jnsgd1na2vs0mg"},{"bike_id":"660b7ace-c178-43e8-8a34-3d3581291e05","system_id":"levelo_inurba_marseille","lat":43.29773,"lon":5.38075,"is_reserved":false,"is_disabled":false,"rental_uris":{"android":"levelo://app?vid=660b7ace-c178-43e8-8a34-3d3581291e05","ios":"levelo://app?vid=660b7ace-c178-43e8-8a34-3d3581291e05"},"vehicle_type_id":"4","last_reported":1735910128,"current_range_meters":38800,"station_id":"ce4bgip2rcd13ifvqbb0","pricing_plan_id":"cebpf4jnsgd1na2vs0mg"},{"bike_id":"a10cb38b-c0a9-46c5-81e3-8b36eafcdd96","system_id":"levelo_inurba_marseille","lat":43.28946,"lon":5.37838,"is_reserved":false,"is_disabled":false,"rental_uris":{"android":"levelo://app?vid=a10cb38b-c0a9-46c5-81e3-8b36eafcdd96","ios":"levelo://app?vid=a10cb38b-c0a9-46c5-81e3-8b36eafcdd96"},"vehicle_type_id":"4","last_reported":1735910128,"current_range_meters":32000,"station_id":"ce4bh9p2rcd13ifvqed0","pricing_plan_id":"cebpf4jnsgd1na2vs0mg"},{"bike_id":"eb9e72f1-4b23-49f0-b4c5-641961bcb568","system_id":"levelo_inurba_marseille","lat":43.28153,"lon":5.42646,"is_reserved":false,"is_disabled":false,"rental_uris":{"android":"levelo://app?vid=eb9e72f1-4b23-49f0-b4c5-641961bcb568","ios":"levelo://app?vid=eb9e72f1-4b23-49f0-b4c5-641961bcb568"},"vehicle_type_id":"4","last_reported":1735910128,"current_range_meters":21600,"station_id":"ce4bhnh2rcd13ifvqgug","pricing_plan_id":"cebpf4jnsgd1na2vs0mg"},{"bike_id":"e86e8a6b-2981-4147-9bb2-a5ab92db9450","system_id":"levelo_inurba_marseille","lat":43.28161,"lon":5.42627,"is_reserved":false,"is_disabled":false,"rental_uris":{"android":"levelo://app?vid=e86e8a6b-2981-4147-9bb2-a5ab92db9450","ios":"levelo://app?vid=e86e8a6b-2981-4147-9bb2-a5ab92db9450"},"vehicle_type_id":"4","last_reported":1735910128,"current_range_meters":37600,"station_id":"ce4bhnh2rcd13ifvqgug","pricing_plan_id":"cebpf4jnsgd1na2vs0mg"},{"bike_id":"36f6af84-b4ea-4fc7-b4cf-bfa109fbf38e","system_id":"levelo_inurba_marseille","lat":43.28147,"lon":5.42641,"is_reserved":false,"is_disabled":false,"rental_uris":{"android":"levelo://app?vid=36f6af84-b4ea-4fc7-b4cf-bfa109fbf38e","ios":"levelo://app?vid=36f6af84-b4ea-4fc7-b4cf-bfa109fbf38e"},"vehicle_type_id":"4","last_reported":1735910128,"current_range_meters":38800,"station_id":"ce4bhnh2rcd13ifvqgug","pricing_plan_id":"cebpf4jnsgd1na2vs0mg"},{"bike_id":"9e355527-7ae0-4d5b-8166-e02ef3c11259","system_id":"levelo_inurba_marseille","lat":43.29542,"lon":5.37506,"is_reserved":false,"is_disabled":false,"rental_uris":{"android":"levelo://app?vid=9e355527-7ae0-4d5b-8166-e02ef3c11259","ios":"levelo://app?vid=9e355527-7ae0-4d5b-8166-e02ef3c11259"},"vehicle_type_id":"4","last_reported":1735910128,"current_range_meters":36800,"station_id":"ce4bgkp2rcd13ifvqbmg","pricing_plan_id":"cebpf4jnsgd1na2vs0mg"},{"bike_id":"5367a292-5564-4681-91cd-97babb89fc00","system_id":"levelo_inurba_marseille","lat":43.22929,"lon":5.35391,"is_reserved":false,"is_disabled":false,"rental_uris":{"android":"levelo://app?vid=5367a292-5564-4681-91cd-97babb89fc00","ios":"levelo://app?vid=5367a292-5564-4681-91cd-97babb89fc00"},"vehicle_type_id":"4","last_reported":1735910128,"current_range_meters":11200,"station_id":"cpo3532slgdg3j2ikp40","pricing_plan_id":"cebpf4jnsgd1na2vs0mg"},{"bike_id":"e40b8873-a7cf-4e56-b106-d515344f64c4","system_id":"levelo_inurba_marseille","lat":43.231877,"lon":5.355744,"is_reserved":false,"is_disabled":false,"rental_uris":{"android":"levelo://app?vid=e40b8873-a7cf-4e56-b106-d515344f64c4","ios":"levelo://app?vid=e40b8873-a7cf-4e56-b106-d515344f64c4"},"vehicle_type_id":"4","last_reported":1735910128,"current_range_meters":39200,"station_id":"ce4bhu92rcd13ifvqi70","pricing_plan_id":"cebpf4jnsgd1na2vs0mg"},{"bike_id":"323b0c30-3f8d-4739-937d-d0cf8a2a71b6","system_id":"levelo_inurba_marseille","lat":43.24548,"lon":5.39526,"is_reserved":false,"is_disabled":false,"rental_uris":{"android":"levelo://app?vid=323b0c30-3f8d-4739-937d-d0cf8a2a71b6","ios":"levelo://app?vid=323b0c30-3f8d-4739-937d-d0cf8a2a71b6"},"vehicle_type_id":"4","last_reported":1735910128,"current_range_meters":38800,"station_id":"ce4bhlp2rcd13ifvqgjg","pricing_plan_id":"cebpf4jnsgd1na2vs0mg"},{"bike_id":"9027064e-6565-4c6d-8145-3a52c0a6a72f","system_id":"levelo_inurba_marseille","lat":43.29842,"lon":5.3631,"is_reserved":false,"is_disabled":false,"rental_uris":{"android":"levelo://app?vid=9027064e-6565-4c6d-8145-3a52c0a6a72f","ios":"levelo://app?vid=9027064e-6565-4c6d-8145-3a52c0a6a72f"},"vehicle_type_id":"4","last_reported":1735910128,"current_range_meters":38800,"station_id":"ce4bgpp2rcd13ifvqc3g","pricing_plan_id":"cebpf4jnsgd1na2vs0mg"},{"bike_id":"10f7e96c-9495-4a90-a087-b3792415cb05","system_id":"levelo_inurba_marseille","lat":43.30915,"lon":5.36899,"is_reserved":false,"is_disabled":false,"rental_uris":{"android":"levelo://app?vid=10f7e96c-9495-4a90-a087-b3792415cb05","ios":"levelo://app?vid=10f7e96c-9495-4a90-a087-b3792415cb05"},"vehicle_type_id":"4","last_reported":1735910128,"current_range_meters":39200,"station_id":"ce4bgn92rcd13ifvqbvg","pricing_plan_id":"cebpf4jnsgd1na2vs0mg"},{"bike_id":"c737744d-bf18-4ed3-84ff-e3fddc4cee70","system_id":"levelo_inurba_marseille","lat":43.27317,"lon":5.39068,"is_reserved":false,"is_disabled":false,"rental_uris":{"android":"levelo://app?vid=c737744d-bf18-4ed3-84ff-e3fddc4cee70","ios":"levelo://app?vid=c737744d-bf18-4ed3-84ff-e3fddc4cee70"},"vehicle_type_id":"4","last_reported":1735910128,"current_range_meters":34000,"station_id":"ce4bhgp2rcd13ifvqfe0","pricing_plan_id":"cebpf4jnsgd1na2vs0mg"},{"bike_id":"6fce06c9-9bfc-48fb-9d2e-249a3534e237","system_id":"levelo_inurba_marseille","lat":43.26559,"lon":5.39006,"is_reserved":false,"is_disabled":false,"rental_uris":{"android":"levelo://app?vid=6fce06c9-9bfc-48fb-9d2e-249a3534e237","ios":"levelo://app?vid=6fce06c9-9bfc-48fb-9d2e-249a3534e237"},"vehicle_type_id":"4","last_reported":1735910128,"current_range_meters":32000,"station_id":"ce4bhe12rcd13ifvqf30","pricing_plan_id":"cebpf4jnsgd1na2vs0mg"},{"bike_id":"c865d36a-3e5d-4898-a6fc-5f2c190dfe3e","system_id":"levelo_inurba_marseille","lat":43.30618,"lon":5.37225,"is_reserved":false,"is_disabled":false,"rental_uris":{"android":"levelo://app?vid=c865d36a-3e5d-4898-a6fc-5f2c190dfe3e","ios":"levelo://app?vid=c865d36a-3e5d-4898-a6fc-5f2c190dfe3e"},"vehicle_type_id":"4","last_reported":1735910128,"current_range_meters":12000,"station_id":"ce4bgqh2rcd13ifvqc4g","pricing_plan_id":"cebpf4jnsgd1na2vs0mg"},{"bike_id":"a15e5a43-9048-4e25-98eb-1a488d49be6c","system_id":"levelo_inurba_marseille","lat":43.31397,"lon":5.36705,"is_reserved":false,"is_disabled":false,"rental_uris":{"android":"levelo://app?vid=a15e5a43-9048-4e25-98eb-1a488d49be6c","ios":"levelo://app?vid=a15e5a43-9048-4e25-98eb-1a488d49be6c"},"vehicle_type_id":"4","last_reported":1735910128,"current_range_meters":38800,"station_id":"ce4bgr92rcd13ifvqc6g","pricing_plan_id":"cebpf4jnsgd1na2vs0mg"},{"bike_id":"da7921fa-ff80-41a8-9722-20d0eacf9a24","system_id":"levelo_inurba_marseille","lat":43.29604,"lon":5.38097,"is_reserved":false,"is_disabled":false,"rental_uris":{"android":"levelo://app?vid=da7921fa-ff80-41a8-9722-20d0eacf9a24","ios":"levelo://app?vid=da7921fa-ff80-41a8-9722-20d0eacf9a24"},"vehicle_type_id":"4","last_reported":1735910128,"current_range_meters":38800,"station_id":"ce4bgl12rcd13ifvqbo0","pricing_plan_id":"cebpf4jnsgd1na2vs0mg"},{"bike_id":"4b18fc74-124a-4026-8735-302c08bbdf7e","system_id":"levelo_inurba_marseille","lat":43.28659,"lon":5.38662,"is_reserved":false,"is_disabled":false,"rental_uris":{"android":"levelo://app?vid=4b18fc74-124a-4026-8735-302c08bbdf7e","ios":"levelo://app?vid=4b18fc74-124a-4026-8735-302c08bbdf7e"},"vehicle_type_id":"4","last_reported":1735910128,"current_range_meters":30400,"station_id":"ce4bh492rcd13ifvqdug","pricing_plan_id":"cebpf4jnsgd1na2vs0mg"},{"bike_id":"fdd6f7ad-d8da-4c94-9598-0a618f59a9de","system_id":"levelo_inurba_marseille","lat":43.25105,"lon":5.40325,"is_reserved":false,"is_disabled":false,"rental_uris":{"android":"levelo://app?vid=fdd6f7ad-d8da-4c94-9598-0a618f59a9de","ios":"levelo://app?vid=fdd6f7ad-d8da-4c94-9598-0a618f59a9de"},"vehicle_type_id":"4","last_reported":1735910128,"current_range_meters":13600,"station_id":"ce4bhlh2rcd13ifvqgig","pricing_plan_id":"cebpf4jnsgd1na2vs0mg"},{"bike_id":"1c02ae40-e43c-4632-b75b-2df9308dc3fe","system_id":"levelo_inurba_marseille","lat":43.33758,"lon":5.37445,"is_reserved":false,"is_disabled":false,"rental_uris":{"android":"levelo://app?vid=1c02ae40-e43c-4632-b75b-2df9308dc3fe","ios":"levelo://app?vid=1c02ae40-e43c-4632-b75b-2df9308dc3fe"},"vehicle_type_id":"4","last_reported":1735910128,"current_range_meters":34800,"station_id":"","pricing_plan_id":"cebpf4jnsgd1na2vs0mg"},{"bike_id":"57fe40b5-32da-47f7-a355-02c8463f8d15","system_id":"levelo_inurba_marseille","lat":43.2762,"lon":5.36106,"is_reserved":false,"is_disabled":false,"rental_uris":{"android":"levelo://app?vid=57fe40b5-32da-47f7-a355-02c8463f8d15","ios":"levelo://app?vid=57fe40b5-32da-47f7-a355-02c8463f8d15"},"vehicle_type_id":"4","last_reported":1735910128,"current_range_meters":15200,"station_id":"ce4bgj92rcd13ifvqbe0","pricing_plan_id":"cebpf4jnsgd1na2vs0mg"},{"bike_id":"24049831-997c-4f9e-95e3-931d66cdb6df","system_id":"levelo_inurba_marseille","lat":43.28626,"lon":5.35113,"is_reserved":false,"is_disabled":false,"rental_uris":{"android":"levelo://app?vid=24049831-997c-4f9e-95e3-931d66cdb6df","ios":"levelo://app?vid=24049831-997c-4f9e-95e3-931d66cdb6df"},"vehicle_type_id":"4","last_reported":1735910128,"current_range_meters":28400,"station_id":"ce4bhch2rcd13ifvqeug","pricing_plan_id":"cebpf4jnsgd1na2vs0mg"},{"bike_id":"bb42e3a6-d2bb-4f8e-95c5-7157b273111e","system_id":"levelo_inurba_marseille","lat":43.29959,"lon":5.41319,"is_reserved":false,"is_disabled":false,"rental_uris":{"android":"levelo://app?vid=bb42e3a6-d2bb-4f8e-95c5-7157b273111e","ios":"levelo://app?vid=bb42e3a6-d2bb-4f8e-95c5-7157b273111e"},"vehicle_type_id":"4","last_reported":1735910128,"current_range_meters":36800,"station_id":"ce4bhp12rcd13ifvqh9g","pricing_plan_id":"cebpf4jnsgd1na2vs0mg"},{"bike_id":"cf243c75-4463-4796-997a-86f949ee77de","system_id":"levelo_inurba_marseille","lat":43.29965,"lon":5.385,"is_reserved":false,"is_disabled":false,"rental_uris":{"android":"levelo://app?vid=cf243c75-4463-4796-997a-86f949ee77de","ios":"levelo://app?vid=cf243c75-4463-4796-997a-86f949ee77de"},"vehicle_type_id":"4","last_reported":1735910128,"current_range_meters":36800,"station_id":"ce4bgj92rcd13ifvqbd0","pricing_plan_id":"cebpf4jnsgd1na2vs0mg"},{"bike_id":"7d806e41-7d1f-4676-b6dd-abe065ec5454","system_id":"levelo_inurba_marseille","lat":43.28444,"lon":5.39191,"is_reserved":false,"is_disabled":false,"rental_uris":{"android":"levelo://app?vid=7d806e41-7d1f-4676-b6dd-abe065ec5454","ios":"levelo://app?vid=7d806e41-7d1f-4676-b6dd-abe065ec5454"},"vehicle_type_id":"4","last_reported":1735910128,"current_range_meters":36400,"station_id":"ce4bhoh2rcd13ifvqh5g","pricing_plan_id":"cebpf4jnsgd1na2vs0mg"},{"bike_id":"5da924b7-1d86-48f2-a906-f2fea708abbd","system_id":"levelo_inurba_marseille","lat":43.27665,"lon":5.38917,"is_reserved":false,"is_disabled":false,"rental_uris":{"android":"levelo://app?vid=5da924b7-1d86-48f2-a906-f2fea708abbd","ios":"levelo://app?vid=5da924b7-1d86-48f2-a906-f2fea708abbd"},"vehicle_type_id":"4","last_reported":1735910128,"current_range_meters":35600,"station_id":"ce4bhi12rcd13ifvqfo0","pricing_plan_id":"cebpf4jnsgd1na2vs0mg"},{"bike_id":"08cdd076-438a-4a02-987d-7dcfaf4de62e","system_id":"levelo_inurba_marseille","lat":43.28479,"lon":5.38423,"is_reserved":false,"is_disabled":false,"rental_uris":{"android":"levelo://app?vid=08cdd076-438a-4a02-987d-7dcfaf4de62e","ios":"levelo://app?vid=08cdd076-438a-4a02-987d-7dcfaf4de62e"},"vehicle_type_id":"4","last_reported":1735910128,"current_range_meters":25600,"station_id":"ce4bh512rcd13ifvqe3g","pricing_plan_id":"cebpf4jnsgd1na2vs0mg"},{"bike_id":"6014b1e2-35bf-4517-95c5-f4b2b2de8022","system_id":"levelo_inurba_marseille","lat":43.31036,"lon":5.39325,"is_reserved":false,"is_disabled":true,"rental_uris":{"android":"levelo://app?vid=6014b1e2-35bf-4517-95c5-f4b2b2de8022","ios":"levelo://app?vid=6014b1e2-35bf-4517-95c5-f4b2b2de8022"},"vehicle_type_id":"4","last_reported":1735910128,"current_range_meters":0,"station_id":"","pricing_plan_id":"cebpf4jnsgd1na2vs0mg"},{"bike_id":"9b85cab2-8fec-416e-b1c5-cc896b4e50c3","system_id":"levelo_inurba_marseille","lat":43.27375,"lon":5.36256,"is_reserved":false,"is_disabled":false,"rental_uris":{"android":"levelo://app?vid=9b85cab2-8fec-416e-b1c5-cc896b4e50c3","ios":"levelo://app?vid=9b85cab2-8fec-416e-b1c5-cc896b4e50c3"},"vehicle_type_id":"4","last_reported":1735910128,"current_range_meters":2800,"station_id":"ce4bhbh2rcd13ifvqeo0","pricing_plan_id":"cebpf4jnsgd1na2vs0mg"},{"bike_id":"b2eb225e-da12-4ba6-a34a-ae0ae128b06f","system_id":"levelo_inurba_marseille","lat":43.30479,"lon":5.379612,"is_reserved":false,"is_disabled":false,"rental_uris":{"android":"levelo://app?vid=b2eb225e-da12-4ba6-a34a-ae0ae128b06f","ios":"levelo://app?vid=b2eb225e-da12-4ba6-a34a-ae0ae128b06f"},"vehicle_type_id":"4","last_reported":1735910128,"current_range_meters":19600,"station_id":"","pricing_plan_id":"cebpf4jnsgd1na2vs0mg"},{"bike_id":"48dab017-3f42-472f-871a-513ce2bb3aac","system_id":"levelo_inurba_marseille","lat":43.23157,"lon":5.43706,"is_reserved":false,"is_disabled":false,"rental_uris":{"android":"levelo://app?vid=48dab017-3f42-472f-871a-513ce2bb3aac","ios":"levelo://app?vid=48dab017-3f42-472f-871a-513ce2bb3aac"},"vehicle_type_id":"4","last_reported":1735910128,"current_range_meters":39200,"station_id":"ce4bhmp2rcd13ifvqgog","pricing_plan_id":"cebpf4jnsgd1na2vs0mg"},{"bike_id":"3bb8ded2-41fa-4a12-9b0b-23eab45e9e71","system_id":"levelo_inurba_marseille","lat":43.28412,"lon":5.34995,"is_reserved":false,"is_disabled":false,"rental_uris":{"android":"levelo://app?vid=3bb8ded2-41fa-4a12-9b0b-23eab45e9e71","ios":"levelo://app?vid=3bb8ded2-41fa-4a12-9b0b-23eab45e9e71"},"vehicle_type_id":"4","last_reported":1735910128,"current_range_meters":6400,"station_id":"ce4bhbh2rcd13ifvqepg","pricing_plan_id":"cebpf4jnsgd1na2vs0mg"},{"bike_id":"38768a4f-6abd-4a93-a34d-58000a2de6a2","system_id":"levelo_inurba_marseille","lat":43.30906,"lon":5.36876,"is_reserved":false,"is_disabled":false,"rental_uris":{"android":"levelo://app?vid=38768a4f-6abd-4a93-a34d-58000a2de6a2","ios":"levelo://app?vid=38768a4f-6abd-4a93-a34d-58000a2de6a2"},"vehicle_type_id":"4","last_reported":1735910128,"current_range_meters":16800,"station_id":"ce4bgn92rcd13ifvqbvg","pricing_plan_id":"cebpf4jnsgd1na2vs0mg"},{"bike_id":"d014f699-d84d-436b-b3bf-8c059d18ea89","system_id":"levelo_inurba_marseille","lat":43.22925,"lon":5.35378,"is_reserved":false,"is_disabled":false,"rental_uris":{"android":"levelo://app?vid=d014f699-d84d-436b-b3bf-8c059d18ea89","ios":"levelo://app?vid=d014f699-d84d-436b-b3bf-8c059d18ea89"},"vehicle_type_id":"4","last_reported":1735910128,"current_range_meters":26000,"station_id":"cpo3532slgdg3j2ikp40","pricing_plan_id":"cebpf4jnsgd1na2vs0mg"},{"bike_id":"234b5537-6ac9-4e84-b503-75c7e8bca3bd","system_id":"levelo_inurba_marseille","lat":43.29377,"lon":5.37841,"is_reserved":false,"is_disabled":false,"rental_uris":{"android":"levelo://app?vid=234b5537-6ac9-4e84-b503-75c7e8bca3bd","ios":"levelo://app?vid=234b5537-6ac9-4e84-b503-75c7e8bca3bd"},"vehicle_type_id":"4","last_reported":1735910128,"current_range_meters":38800,"station_id":"ce4bgjh2rcd13ifvqbf0","pricing_plan_id":"cebpf4jnsgd1na2vs0mg"},{"bike_id":"d1beb9a8-96f0-4670-b386-16f558c8d088","system_id":"levelo_inurba_marseille","lat":43.25912,"lon":5.40897,"is_reserved":false,"is_disabled":false,"rental_uris":{"android":"levelo://app?vid=d1beb9a8-96f0-4670-b386-16f558c8d088","ios":"levelo://app?vid=d1beb9a8-96f0-4670-b386-16f558c8d088"},"vehicle_type_id":"4","last_reported":1735910128,"current_range_meters":8800,"station_id":"ce4bhm92rcd13ifvqglg","pricing_plan_id":"cebpf4jnsgd1na2vs0mg"},{"bike_id":"c14d1989-a72f-4241-a582-39661d0bcfcf","system_id":"levelo_inurba_marseille","lat":43.23205,"lon":5.35562,"is_reserved":false,"is_disabled":false,"rental_uris":{"android":"levelo://app?vid=c14d1989-a72f-4241-a582-39661d0bcfcf","ios":"levelo://app?vid=c14d1989-a72f-4241-a582-39661d0bcfcf"},"vehicle_type_id":"4","last_reported":1735910128,"current_range_meters":38800,"station_id":"ce4bhu92rcd13ifvqi70","pricing_plan_id":"cebpf4jnsgd1na2vs0mg"},{"bike_id":"ef72cdb4-465d-4178-b952-49906f159c48","system_id":"levelo_inurba_marseille","lat":43.28154,"lon":5.42648,"is_reserved":false,"is_disabled":false,"rental_uris":{"android":"levelo://app?vid=ef72cdb4-465d-4178-b952-49906f159c48","ios":"levelo://app?vid=ef72cdb4-465d-4178-b952-49906f159c48"},"vehicle_type_id":"4","last_reported":1735910128,"current_range_meters":22400,"station_id":"ce4bhnh2rcd13ifvqgug","pricing_plan_id":"cebpf4jnsgd1na2vs0mg"},{"bike_id":"b3e08163-a271-4491-94ef-7d9af2767087","system_id":"levelo_inurba_marseille","lat":43.27206,"lon":5.39186,"is_reserved":false,"is_disabled":false,"rental_uris":{"android":"levelo://app?vid=b3e08163-a271-4491-94ef-7d9af2767087","ios":"levelo://app?vid=b3e08163-a271-4491-94ef-7d9af2767087"},"vehicle_type_id":"4","last_reported":1735910128,"current_range_meters":26800,"station_id":"ce4bhhp2rcd13ifvqfm0","pricing_plan_id":"cebpf4jnsgd1na2vs0mg"},{"bike_id":"cd799ed6-4897-449a-b65c-1cec7ac6afaf","system_id":"levelo_inurba_marseille","lat":43.30782,"lon":5.38144,"is_reserved":false,"is_disabled":true,"rental_uris":{"android":"levelo://app?vid=cd799ed6-4897-449a-b65c-1cec7ac6afaf","ios":"levelo://app?vid=cd799ed6-4897-449a-b65c-1cec7ac6afaf"},"vehicle_type_id":"4","last_reported":1735910128,"current_range_meters":26000,"station_id":"ce4bgt12rcd13ifvqce0","pricing_plan_id":"cebpf4jnsgd1na2vs0mg"},{"bike_id":"fff6da74-d48c-4937-a452-dd77602147ed","system_id":"levelo_inurba_marseille","lat":43.31416,"lon":5.38284,"is_reserved":false,"is_disabled":true,"rental_uris":{"android":"levelo://app?vid=fff6da74-d48c-4937-a452-dd77602147ed","ios":"levelo://app?vid=fff6da74-d48c-4937-a452-dd77602147ed"},"vehicle_type_id":"4","last_reported":1735910128,"current_range_meters":0,"station_id":"","pricing_plan_id":"cebpf4jnsgd1na2vs0mg"},{"bike_id":"cc443633-64c1-4b1c-befb-d25084b344bc","system_id":"levelo_inurba_marseille","lat":43.30917,"lon":5.36851,"is_reserved":false,"is_disabled":false,"rental_uris":{"android":"levelo://app?vid=cc443633-64c1-4b1c-befb-d25084b344bc","ios":"levelo://app?vid=cc443633-64c1-4b1c-befb-d25084b344bc"},"vehicle_type_id":"4","last_reported":1735910128,"current_range_meters":39200,"station_id":"ce4bgn92rcd13ifvqbvg","pricing_plan_id":"cebpf4jnsgd1na2vs0mg"},{"bike_id":"7bbed7be-28f4-4cc7-81bb-977c0d79552f","system_id":"levelo_inurba_marseille","lat":43.23065,"lon":5.35488,"is_reserved":false,"is_disabled":false,"rental_uris":{"android":"levelo://app?vid=7bbed7be-28f4-4cc7-81bb-977c0d79552f","ios":"levelo://app?vid=7bbed7be-28f4-4cc7-81bb-977c0d79552f"},"vehicle_type_id":"4","last_reported":1735910128,"current_range_meters":24000,"station_id":"cpo3342slgdg3j2ifvpg","pricing_plan_id":"cebpf4jnsgd1na2vs0mg"},{"bike_id":"44377e14-c431-47f9-879d-d27236127509","system_id":"levelo_inurba_marseille","lat":43.25813,"lon":5.39449,"is_reserved":false,"is_disabled":false,"rental_uris":{"android":"levelo://app?vid=44377e14-c431-47f9-879d-d27236127509","ios":"levelo://app?vid=44377e14-c431-47f9-879d-d27236127509"},"vehicle_type_id":"4","last_reported":1735910128,"current_range_meters":38800,"station_id":"ce4bhip2rcd13ifvqft0","pricing_plan_id":"cebpf4jnsgd1na2vs0mg"},{"bike_id":"a5bb2f34-577c-481a-8c02-d24f93f5b1e1","system_id":"levelo_inurba_marseille","lat":43.29903,"lon":5.37476,"is_reserved":false,"is_disabled":false,"rental_uris":{"android":"levelo://app?vid=a5bb2f34-577c-481a-8c02-d24f93f5b1e1","ios":"levelo://app?vid=a5bb2f34-577c-481a-8c02-d24f93f5b1e1"},"vehicle_type_id":"4","last_reported":1735910128,"current_range_meters":27600,"station_id":"ce4bgjh2rcd13ifvqbg0","pricing_plan_id":"cebpf4jnsgd1na2vs0mg"},{"bike_id":"67e0435e-ee5d-49c3-9b21-9668ebf48c68","system_id":"levelo_inurba_marseille","lat":43.25063,"lon":5.38956,"is_reserved":false,"is_disabled":false,"rental_uris":{"android":"levelo://app?vid=67e0435e-ee5d-49c3-9b21-9668ebf48c68","ios":"levelo://app?vid=67e0435e-ee5d-49c3-9b21-9668ebf48c68"},"vehicle_type_id":"4","last_reported":1735910128,"current_range_meters":32800,"station_id":"","pricing_plan_id":"cebpf4jnsgd1na2vs0mg"},{"bike_id":"5c0e6aff-a052-4a02-848f-c8e083c5996f","system_id":"levelo_inurba_marseille","lat":43.25503,"lon":5.37656,"is_reserved":false,"is_disabled":false,"rental_uris":{"android":"levelo://app?vid=5c0e6aff-a052-4a02-848f-c8e083c5996f","ios":"levelo://app?vid=5c0e6aff-a052-4a02-848f-c8e083c5996f"},"vehicle_type_id":"4","last_reported":1735910128,"current_range_meters":20400,"station_id":"ce4bhh12rcd13ifvqff0","pricing_plan_id":"cebpf4jnsgd1na2vs0mg"},{"bike_id":"78b7a00c-0ad2-40f4-9953-a74f3c8198bb","system_id":"levelo_inurba_marseille","lat":43.30111,"lon":5.37405,"is_reserved":false,"is_disabled":false,"rental_uris":{"android":"levelo://app?vid=78b7a00c-0ad2-40f4-9953-a74f3c8198bb","ios":"levelo://app?vid=78b7a00c-0ad2-40f4-9953-a74f3c8198bb"},"vehicle_type_id":"4","last_reported":1735910128,"current_range_meters":36800,"station_id":"ce4bgs92rcd13ifvqcc0","pricing_plan_id":"cebpf4jnsgd1na2vs0mg"},{"bike_id":"3c3d1434-ec8f-414b-a134-9624a9b6f610","system_id":"levelo_inurba_marseille","lat":43.27908,"lon":5.38008,"is_reserved":false,"is_disabled":false,"rental_uris":{"android":"levelo://app?vid=3c3d1434-ec8f-414b-a134-9624a9b6f610","ios":"levelo://app?vid=3c3d1434-ec8f-414b-a134-9624a9b6f610"},"vehicle_type_id":"4","last_reported":1735910128,"current_range_meters":27600,"station_id":"ce4bhf92rcd13ifvqf50","pricing_plan_id":"cebpf4jnsgd1na2vs0mg"},{"bike_id":"f1d87bf5-3985-43c2-9fde-b818f1e41c2b","system_id":"levelo_inurba_marseille","lat":43.26037,"lon":5.37552,"is_reserved":false,"is_disabled":false,"rental_uris":{"android":"levelo://app?vid=f1d87bf5-3985-43c2-9fde-b818f1e41c2b","ios":"levelo://app?vid=f1d87bf5-3985-43c2-9fde-b818f1e41c2b"},"vehicle_type_id":"4","last_reported":1735910128,"current_range_meters":22000,"station_id":"ce4bhgh2rcd13ifvqfa0","pricing_plan_id":"cebpf4jnsgd1na2vs0mg"},{"bike_id":"e7bb10c5-9260-440d-8fc3-4952251aaf8e","system_id":"levelo_inurba_marseille","lat":43.30558,"lon":5.37207,"is_reserved":false,"is_disabled":false,"rental_uris":{"android":"levelo://app?vid=e7bb10c5-9260-440d-8fc3-4952251aaf8e","ios":"levelo://app?vid=e7bb10c5-9260-440d-8fc3-4952251aaf8e"},"vehicle_type_id":"4","last_reported":1735910128,"current_range_meters":19200,"station_id":"ce4bgqh2rcd13ifvqc4g","pricing_plan_id":"cebpf4jnsgd1na2vs0mg"},{"bike_id":"5ed9af39-0e22-4ad4-a202-644997b3db3f","system_id":"levelo_inurba_marseille","lat":43.2784,"lon":5.39209,"is_reserved":false,"is_disabled":false,"rental_uris":{"android":"levelo://app?vid=5ed9af39-0e22-4ad4-a202-644997b3db3f","ios":"levelo://app?vid=5ed9af39-0e22-4ad4-a202-644997b3db3f"},"vehicle_type_id":"4","last_reported":1735910128,"current_range_meters":20000,"station_id":"ce4bhjp2rcd13ifvqga0","pricing_plan_id":"cebpf4jnsgd1na2vs0mg"},{"bike_id":"6be0a2a5-53ff-4b37-b926-815dcc76b64c","system_id":"levelo_inurba_marseille","lat":43.299,"lon":5.43671,"is_reserved":false,"is_disabled":false,"rental_uris":{"android":"levelo://app?vid=6be0a2a5-53ff-4b37-b926-815dcc76b64c","ios":"levelo://app?vid=6be0a2a5-53ff-4b37-b926-815dcc76b64c"},"vehicle_type_id":"4","last_reported":1735910128,"current_range_meters":26800,"station_id":"ce4bhpp2rcd13ifvqhfg","pricing_plan_id":"cebpf4jnsgd1na2vs0mg"},{"bike_id":"18a0efa6-81cf-4ef1-ba9d-3a3bc0a3c5a0","system_id":"levelo_inurba_marseille","lat":43.29916,"lon":5.38146,"is_reserved":false,"is_disabled":false,"rental_uris":{"android":"levelo://app?vid=18a0efa6-81cf-4ef1-ba9d-3a3bc0a3c5a0","ios":"levelo://app?vid=18a0efa6-81cf-4ef1-ba9d-3a3bc0a3c5a0"},"vehicle_type_id":"4","last_reported":1735910128,"current_range_meters":38800,"station_id":"ce4bgj12rcd13ifvqbc0","pricing_plan_id":"cebpf4jnsgd1na2vs0mg"},{"bike_id":"148ddc84-5e83-451b-a09c-2bda4dbb2fe0","system_id":"levelo_inurba_marseille","lat":43.29909,"lon":5.43679,"is_reserved":false,"is_disabled":false,"rental_uris":{"android":"levelo://app?vid=148ddc84-5e83-451b-a09c-2bda4dbb2fe0","ios":"levelo://app?vid=148ddc84-5e83-451b-a09c-2bda4dbb2fe0"},"vehicle_type_id":"4","last_reported":1735910128,"current_range_meters":39200,"station_id":"ce4bhpp2rcd13ifvqhfg","pricing_plan_id":"cebpf4jnsgd1na2vs0mg"},{"bike_id":"d87a92e4-ebc8-4993-8d44-f0f21c1c6533","system_id":"levelo_inurba_marseille","lat":43.31347,"lon":5.36695,"is_reserved":false,"is_disabled":false,"rental_uris":{"android":"levelo://app?vid=d87a92e4-ebc8-4993-8d44-f0f21c1c6533","ios":"levelo://app?vid=d87a92e4-ebc8-4993-8d44-f0f21c1c6533"},"vehicle_type_id":"4","last_reported":1735910128,"current_range_meters":32400,"station_id":"ce4bgr92rcd13ifvqc6g","pricing_plan_id":"cebpf4jnsgd1na2vs0mg"},{"bike_id":"3152d50b-ed69-4bb3-9bdb-9972c2aeb253","system_id":"levelo_inurba_marseille","lat":43.29049,"lon":5.35905,"is_reserved":false,"is_disabled":false,"rental_uris":{"android":"levelo://app?vid=3152d50b-ed69-4bb3-9bdb-9972c2aeb253","ios":"levelo://app?vid=3152d50b-ed69-4bb3-9bdb-9972c2aeb253"},"vehicle_type_id":"4","last_reported":1735910128,"current_range_meters":32400,"station_id":"ce4bha92rcd13ifvqeg0","pricing_plan_id":"cebpf4jnsgd1na2vs0mg"},{"bike_id":"5f5f7ba9-6657-41ba-a4d9-91df21ba5354","system_id":"levelo_inurba_marseille","lat":43.30469,"lon":5.3791,"is_reserved":false,"is_disabled":false,"rental_uris":{"android":"levelo://app?vid=5f5f7ba9-6657-41ba-a4d9-91df21ba5354","ios":"levelo://app?vid=5f5f7ba9-6657-41ba-a4d9-91df21ba5354"},"vehicle_type_id":"4","last_reported":1735910128,"current_range_meters":38800,"station_id":"ce4bgup2rcd13ifvqcn0","pricing_plan_id":"cebpf4jnsgd1na2vs0mg"},{"bike_id":"a3568aab-1d34-4bdf-8c0c-ec81886f6177","system_id":"levelo_inurba_marseille","lat":43.33752,"lon":5.37413,"is_reserved":false,"is_disabled":true,"rental_uris":{"android":"levelo://app?vid=a3568aab-1d34-4bdf-8c0c-ec81886f6177","ios":"levelo://app?vid=a3568aab-1d34-4bdf-8c0c-ec81886f6177"},"vehicle_type_id":"4","last_reported":1735910128,"current_range_meters":19200,"station_id":"","pricing_plan_id":"cebpf4jnsgd1na2vs0mg"},{"bike_id":"5bb698f4-2b2b-47ef-890c-f4d5636c564e","system_id":"levelo_inurba_marseille","lat":43.31722,"lon":5.42391,"is_reserved":false,"is_disabled":false,"rental_uris":{"android":"levelo://app?vid=5bb698f4-2b2b-47ef-890c-f4d5636c564e","ios":"levelo://app?vid=5bb698f4-2b2b-47ef-890c-f4d5636c564e"},"vehicle_type_id":"4","last_reported":1735910128,"current_range_meters":18800,"station_id":"ce4bhp92rcd13ifvqhbg","pricing_plan_id":"cebpf4jnsgd1na2vs0mg"},{"bike_id":"32e5156a-5826-4ab4-83b1-e6619161b1c8","system_id":"levelo_inurba_marseille","lat":43.337444,"lon":5.374475,"is_reserved":false,"is_disabled":false,"rental_uris":{"android":"levelo://app?vid=32e5156a-5826-4ab4-83b1-e6619161b1c8","ios":"levelo://app?vid=32e5156a-5826-4ab4-83b1-e6619161b1c8"},"vehicle_type_id":"4","last_reported":1735910128,"current_range_meters":28800,"station_id":"","pricing_plan_id":"cebpf4jnsgd1na2vs0mg"},{"bike_id":"367e30f4-28ce-4fae-b673-b2c7e803fd52","system_id":"levelo_inurba_marseille","lat":43.284291,"lon":5.391982,"is_reserved":false,"is_disabled":false,"rental_uris":{"android":"levelo://app?vid=367e30f4-28ce-4fae-b673-b2c7e803fd52","ios":"levelo://app?vid=367e30f4-28ce-4fae-b673-b2c7e803fd52"},"vehicle_type_id":"4","last_reported":1735910128,"current_range_meters":37600,"station_id":"ce4bhoh2rcd13ifvqh5g","pricing_plan_id":"cebpf4jnsgd1na2vs0mg"},{"bike_id":"c8aefe2f-c869-4f46-a70a-0c1704a3d6e9","system_id":"levelo_inurba_marseille","lat":43.29886,"lon":5.38907,"is_reserved":false,"is_disabled":false,"rental_uris":{"android":"levelo://app?vid=c8aefe2f-c869-4f46-a70a-0c1704a3d6e9","ios":"levelo://app?vid=c8aefe2f-c869-4f46-a70a-0c1704a3d6e9"},"vehicle_type_id":"4","last_reported":1735910128,"current_range_meters":24000,"station_id":"ce4bh392rcd13ifvqdl0","pricing_plan_id":"cebpf4jnsgd1na2vs0mg"},{"bike_id":"a84ed9b9-422a-458d-b25b-ac04e41b0572","system_id":"levelo_inurba_marseille","lat":43.30559,"lon":5.3655,"is_reserved":false,"is_disabled":false,"rental_uris":{"android":"levelo://app?vid=a84ed9b9-422a-458d-b25b-ac04e41b0572","ios":"levelo://app?vid=a84ed9b9-422a-458d-b25b-ac04e41b0572"},"vehicle_type_id":"4","last_reported":1735910128,"current_range_meters":37600,"station_id":"ce4bgs12rcd13ifvqcag","pricing_plan_id":"cebpf4jnsgd1na2vs0mg"},{"bike_id":"c8348725-7b60-4d54-b563-b33df58ee407","system_id":"levelo_inurba_marseille","lat":43.28483,"lon":5.38441,"is_reserved":false,"is_disabled":false,"rental_uris":{"android":"levelo://app?vid=c8348725-7b60-4d54-b563-b33df58ee407","ios":"levelo://app?vid=c8348725-7b60-4d54-b563-b33df58ee407"},