{"last_updated":1725732621,"ttl":30,"version":"2.2","data":{"bikes":[{"bike_id":"4a1e4cf0-d4f6-412d-bf5f-689c45b52bce","system_id":"levelo_inurba_marseille","lat":43.31235,"lon":5.36906,"is_reserved":false,"is_disabled":false,"rental_uris":{"android":"levelo://app?vid=4a1e4cf0-d4f6-412d-bf5f-689c45b52bce","ios":"levelo://app?vid=4a1e4cf0-d4f6-412d-bf5f-689c45b52bce"},"vehicle_type_id":"4","last_reported":1725732621,"current_range_meters":0,"station_id":"ce4bgl92rcd13ifvqbq0","pricing_plan_id":"cebpf4jnsgd1na2vs0mg"},{"bike_id":"f1458c76-2e3a-41d3-a5c1-c4d971472655","system_id":"levelo_inurba_marseille","lat":43.309034,"lon":5.371783,"is_reserved":false,"is_disabled":false,"rental_uris":{"android":"levelo://app?vid=f1458c76-2e3a-41d3-a5c1-c4d971472655","ios":"levelo://app?vid=f1458c76-2e3a-41d3-a5c1-c4d971472655"},"vehicle_type_id":"4","last_reported":1725732621,"current_range_meters":18800,"station_id":"ce4bguh2rcd13ifvqckg","pricing_plan_id":"cebpf4jnsgd1na2vs0mg"},{"bike_id":"da4160f6-f0cd-4093-93c2-1bc61f606e3c","system_id":"levelo_inurba_marseille","lat":43.306257,"lon":5.365476,"is_reserved":false,"is_disabled":false,"rental_uris":{"android":"levelo://app?vid=da4160f6-f0cd-4093-93c2-1bc61f606e3c","ios":"levelo://app?vid=da4160f6-f0cd-4093-93c2-1bc61f606e3c"},"vehicle_type_id":"4","last_reported":1725732621,"current_range_meters":0,"station_id":"","pricing_plan_id":"cebpf4jnsgd1na2vs0mg"},{"bike_id":"8541666b-ef45-4d35-ae72-2b71bc09dc24","system_id":"levelo_inurba_marseille","lat":43.305712,"lon":5.365641,"is_reserved":false,"is_disabled":false,"rental_uris":{"android":"levelo://app?vid=8541666b-ef45-4d35-ae72-2b71bc09dc24","ios":"levelo://app?vid=8541666b-ef45-4d35-ae72-2b71bc09dc24"},"vehicle_type_id":"4","last_reported":1725732621,"current_range_meters":0,"station_id":"ce4bgs12rcd13ifvqcag","pricing_plan_id":"cebpf4jnsgd1na2vs0mg"},{"bike_id":"53058908-529e-408e-9249-23d702b14d86","system_id":"levelo_inurba_marseille","lat":43.310027,"lon":5.376387,"is_reserved":false,"is_disabled":false,"rental_uris":{"android":"levelo://app?vid=53058908-529e-408e-9249-23d702b14d86","ios":"levelo://app?vid=53058908-529e-408e-9249-23d702b14d86"},"vehicle_type_id":"4","last_reported":1725732621,"current_range_meters":0,"station_id":"","pricing_plan_id":"cebpf4jnsgd1na2vs0mg"},{"bike_id":"1419059d-fb03-4eaa-9a52-c35fc15a10f8","system_id":"levelo_inurba_marseille","lat":43.307945,"lon":5.376487,"is_reserved":false,"is_disabled":false,"rental_uris":{"android":"levelo://app?vid=1419059d-fb03-4eaa-9a52-c35fc15a10f8","ios":"levelo://app?vid=1419059d-fb03-4eaa-9a52-c35fc15a10f8"},"vehicle_type_id":"4","last_reported":1725732621,"current_range_meters":26800,"station_id":"ce4bgv92rcd13ifvqcq0","pricing_plan_id":"cebpf4jnsgd1na2vs0mg"},{"bike_id":"60ddfc14-dbb0-4c60-b86f-db27335e3e14","system_id":"levelo_inurba_marseille","lat":43.317075,"lon":5.377367,"is_reserved":false,"is_disabled":false,"rental_uris":{"android":"levelo://app?vid=60ddfc14-dbb0-4c60-b86f-db27335e3e14","ios":"levelo://app?vid=60ddfc14-dbb0-4c60-b86f-db27335e3e14"},"vehicle_type_id":"4","last_reported":1725732621,"current_range_meters":25200,"station_id":"ce4bgth2rcd13ifvqch0","pricing_plan_id":"cebpf4jnsgd1na2vs0mg"},{"bike_id":"b13c0a40-81a9-4894-8982-90fdd442d2c7","system_id":"levelo_inurba_marseille","lat":43.317075,"lon":5.377367,"is_reserved":false,"is_disabled":false,"rental_uris":{"android":"levelo://app?vid=b13c0a40-81a9-4894-8982-90fdd442d2c7","ios":"levelo://app?vid=b13c0a40-81a9-4894-8982-90fdd442d2c7"},"vehicle_type_id":"4","last_reported":1725732621,"current_range_meters":8800,"station_id":"ce4bgth2rcd13ifvqch0","pricing_plan_id":"cebpf4jnsgd1na2vs0mg"},{"bike_id":"bdd74d65-4af2-45f9-939c-9666f7582e45","system_id":"levelo_inurba_marseille","lat":43.317075,"lon":5.377367,"is_reserved":false,"is_disabled":false,"rental_uris":{"android":"levelo://app?vid=bdd74d65-4af2-45f9-939c-9666f7582e45","ios":"levelo://app?vid=bdd74d65-4af2-45f9-939c-9666f7582e45"},"vehicle_type_id":"4","last_reported":1725732621,"current_range_meters":12000,"station_id":"ce4bgth2rcd13ifvqch0","pricing_plan_id":"cebpf4jnsgd1na2vs0mg"},{"bike_id":"e6240958-5766-4e43-be3c-5414d3e93fa9","system_id":"levelo_inurba_marseille","lat":43.31354,"lon":5.37918,"is_reserved":false,"is_disabled":false,"rental_uris":{"android":"levelo://app?vid=e6240958-5766-4e43-be3c-5414d3e93fa9","ios":"levelo://app?vid=e6240958-5766-4e43-be3c-5414d3e93fa9"},"vehicle_type_id":"4","last_reported":1725732621,"current_range_meters":22400,"station_id":"","pricing_plan_id":"cebpf4jnsgd1na2vs0mg"},{"bike_id":"69c78e42-7244-400a-b149-798e93cec65e","system_id":"levelo_inurba_marseille","lat":43.311304,"lon":5.379998,"is_reserved":false,"is_disabled":false,"rental_uris":{"android":"levelo://app?vid=69c78e42-7244-400a-b149-798e93cec65e","ios":"levelo://app?vid=69c78e42-7244-400a-b149-798e93cec65e"},"vehicle_type_id":"4","last_reported":1725732621,"current_range_meters":400,"station_id":"","pricing_plan_id":"cebpf4jnsgd1na2vs0mg"},{"bike_id":"b66a0f8c-ec8b-4828-bea6-5a0015054508","system_id":"levelo_inurba_marseille","lat":43.30304,"lon":5.368987,"is_reserved":false,"is_disabled":false,"rental_uris":{"android":"levelo://app?vid=b66a0f8c-ec8b-4828-bea6-5a0015054508","ios":"levelo://app?vid=b66a0f8c-ec8b-4828-bea6-5a0015054508"},"vehicle_type_id":"4","last_reported":1725732621,"current_range_meters":0,"station_id":"ce4bgqh2rcd13ifvqc5g","pricing_plan_id":"cebpf4jnsgd1na2vs0mg"},{"bike_id":"03ad2f69-94f8-415d-b3e8-6297bd9824cc","system_id":"levelo_inurba_marseille","lat":43.315253,"lon":5.380263,"is_reserved":false,"is_disabled":false,"rental_uris":{"android":"levelo://app?vid=03ad2f69-94f8-415d-b3e8-6297bd9824cc","ios":"levelo://app?vid=03ad2f69-94f8-415d-b3e8-6297bd9824cc"},"vehicle_type_id":"4","last_reported":1725732621,"current_range_meters":1200,"station_id":"ce4bhsp2rcd13ifvqi50","pricing_plan_id":"cebpf4jnsgd1na2vs0mg"},{"bike_id":"5c7e602c-f961-461f-96ab-799dea8e8115","system_id":"levelo_inurba_marseille","lat":43.32315,"lon":5.36737,"is_reserved":false,"is_disabled":false,"rental_uris":{"android":"levelo://app?vid=5c7e602c-f961-461f-96ab-799dea8e8115","ios":"levelo://app?vid=5c7e602c-f961-461f-96ab-799dea8e8115"},"vehicle_type_id":"4","last_reported":1725732621,"current_range_meters":13600,"station_id":"","pricing_plan_id":"cebpf4jnsgd1na2vs0mg"},{"bike_id":"2e2a3e8d-26ab-4d58-a57d-4d4ece49c343","system_id":"levelo_inurba_marseille","lat":43.301939,"lon":5.366286,"is_reserved":false,"is_disabled":false,"rental_uris":{"android":"levelo://app?vid=2e2a3e8d-26ab-4d58-a57d-4d4ece49c343","ios":"levelo://app?vid=2e2a3e8d-26ab-4d58-a57d-4d4ece49c343"},"vehicle_type_id":"4","last_reported":1725732621,"current_range_meters":1600,"station_id":"ce4bgrh2rcd13ifvqc8g","pricing_plan_id":"cebpf4jnsgd1na2vs0mg"},{"bike_id":"30758e7c-03e0-4934-aca3-74af8331b487","system_id":"levelo_inurba_marseille","lat":43.301939,"lon":5.366286,"is_reserved":false,"is_disabled":false,"rental_uris":{"android":"levelo://app?vid=30758e7c-03e0-4934-aca3-74af8331b487","ios":"levelo://app?vid=30758e7c-03e0-4934-aca3-74af8331b487"},"vehicle_type_id":"4","last_reported":1725732621,"current_range_meters":3200,"station_id":"ce4bgrh2rcd13ifvqc8g","pricing_plan_id":"cebpf4jnsgd1na2vs0mg"},{"bike_id":"568c5842-bd73-4136-a0f4-091bbe73c080","system_id":"levelo_inurba_marseille","lat":43.304606,"lon":5.379026,"is_reserved":false,"is_disabled":false,"rental_uris":{"android":"levelo://app?vid=568c5842-bd73-4136-a0f4-091bbe73c080","ios":"levelo://app?vid=568c5842-bd73-4136-a0f4-091bbe73c080"},"vehicle_type_id":"4","last_reported":1725732621,"current_range_meters":0,"station_id":"ce4bgup2rcd13ifvqcn0","pricing_plan_id":"cebpf4jnsgd1na2vs0mg"},{"bike_id":"e740638c-1278-4324-9ac3-bbeb04fdbea5","system_id":"levelo_inurba_marseille","lat":43.304606,"lon":5.379026,"is_reserved":false,"is_disabled":false,"rental_uris":{"android":"levelo://app?vid=e740638c-1278-4324-9ac3-bbeb04fdbea5","ios":"levelo://app?vid=e740638c-1278-4324-9ac3-bbeb04fdbea5"},"vehicle_type_id":"4","last_reported":1725732621,"current_range_meters":5200,"station_id":"ce4bgup2rcd13ifvqcn0","pricing_plan_id":"cebpf4jnsgd1na2vs0mg"},{"bike_id":"99e94a30-e938-4a60-af7e-cf8c17307af1","system_id":"levelo_inurba_marseille","lat":43.304606,"lon":5.379026,"is_reserved":false,"is_disabled":false,"rental_uris":{"android":"levelo://app?vid=99e94a30-e938-4a60-af7e-cf8c17307af1","ios":"levelo://app?vid=99e94a30-e938-4a60-af7e-cf8c17307af1"},"vehicle_type_id":"4","last_reported":1725732621,"current_range_meters":19200,"station_id":"ce4bgup2rcd13ifvqcn0","pricing_plan_id":"cebpf4jnsgd1na2vs0mg"},{"bike_id":"65c91795-2ec5-482a-afb8-a5b9b4bc73cc","system_id":"levelo_inurba_marseille","lat":43.32471,"lon":5.36556,"is_reserved":false,"is_disabled":false,"rental_uris":{"android":"levelo://app?vid=65c91795-2ec5-482a-afb8-a5b9b4bc73cc","ios":"levelo://app?vid=65c91795-2ec5-482a-afb8-a5b9b4bc73cc"},"vehicle_type_id":"4","last_reported":1725732621,"current_range_meters":0,"station_id":"ce4bhs12rcd13ifvqhvg","pricing_plan_id":"cebpf4jnsgd1na2vs0mg"},{"bike_id":"943df34e-3f55-4d9e-80e4-2895fa921602","system_id":"levelo_inurba_marseille","lat":43.324771,"lon":5.36557,"is_reserved":false,"is_disabled":false,"rental_uris":{"android":"levelo://app?vid=943df34e-3f55-4d9e-80e4-2895fa921602","ios":"levelo://app?vid=943df34e-3f55-4d9e-80e4-2895fa921602"},"vehicle_type_id":"4","last_reported":1725732621,"current_range_meters":13200,"station_id":"ce4bhs12rcd13ifvqhvg","pricing_plan_id":"cebpf4jnsgd1na2vs0mg"},{"bike_id":"2e1e605e-7cdf-4209-bef8-a81f0c99b2f2","system_id":"levelo_inurba_marseille","lat":43.324771,"lon":5.36557,"is_reserved":false,"is_disabled":false,"rental_uris":{"android":"levelo://app?vid=2e1e605e-7cdf-4209-bef8-a81f0c99b2f2","ios":"levelo://app?vid=2e1e605e-7cdf-4209-bef8-a81f0c99b2f2"},"vehicle_type_id":"4","last_reported":1725732621,"current_range_meters":12000,"station_id":"ce4bhs12rcd13ifvqhvg","pricing_plan_id":"cebpf4jnsgd1na2vs0mg"},{"bike_id":"7e56b2f0-5b05-467e-b16c-93d9fe6a3d5c","system_id":"levelo_inurba_marseille","lat":43.31075,"lon":5.38357,"is_reserved":false,"is_disabled":false,"rental_uris":{"android":"levelo://app?vid=7e56b2f0-5b05-467e-b16c-93d9fe6a3d5c","ios":"levelo://app?vid=7e56b2f0-5b05-467e-b16c-93d9fe6a3d5c"},"vehicle_type_id":"4","last_reported":1725732621,"current_range_meters":0,"station_id":"ce4bgv92rcd13ifvqcr0","pricing_plan_id":"cebpf4jnsgd1na2vs0mg"},{"bike_id":"15183ef1-4fa4-4471-ad5e-8fd5a86824ec","system_id":"levelo_inurba_marseille","lat":43.302784,"lon":5.377158,"is_reserved":false,"is_disabled":false,"rental_uris":{"android":"levelo://app?vid=15183ef1-4fa4-4471-ad5e-8fd5a86824ec","ios":"levelo://app?vid=15183ef1-4fa4-4471-ad5e-8fd5a86824ec"},"vehicle_type_id":"4","last_reported":1725732621,"current_range_meters":1600,"station_id":"ce4bguh2rcd13ifvqcj0","pricing_plan_id":"cebpf4jnsgd1na2vs0mg"},{"bike_id":"99a21b44-d818-4e64-ace8-1595a8de7bdd","system_id":"levelo_inurba_marseille","lat":43.30143,"lon":5.37413,"is_reserved":false,"is_disabled":false,"rental_uris":{"android":"levelo://app?vid=99a21b44-d818-4e64-ace8-1595a8de7bdd","ios":"levelo://app?vid=99a21b44-d818-4e64-ace8-1595a8de7bdd"},"vehicle_type_id":"4","last_reported":1725732621,"current_range_meters":26800,"station_id":"ce4bgs92rcd13ifvqcc0","pricing_plan_id":"cebpf4jnsgd1na2vs0mg"},{"bike_id":"e82d527a-1992-47f2-844c-5d0e40d85475","system_id":"levelo_inurba_marseille","lat":43.301429,"lon":5.37413,"is_reserved":false,"is_disabled":false,"rental_uris":{"android":"levelo://app?vid=e82d527a-1992-47f2-844c-5d0e40d85475","ios":"levelo://app?vid=e82d527a-1992-47f2-844c-5d0e40d85475"},"vehicle_type_id":"4","last_reported":1725732621,"current_range_meters":0,"station_id":"ce4bgs92rcd13ifvqcc0","pricing_plan_id":"cebpf4jnsgd1na2vs0mg"},{"bike_id":"363a6257-5df7-44ca-bd8d-203fe7cb1f39","system_id":"levelo_inurba_marseille","lat":43.319935,"lon":5.381699,"is_reserved":false,"is_disabled":false,"rental_uris":{"android":"levelo://app?vid=363a6257-5df7-44ca-bd8d-203fe7cb1f39","ios":"levelo://app?vid=363a6257-5df7-44ca-bd8d-203fe7cb1f39"},"vehicle_type_id":"4","last_reported":1725732621,"current_range_meters":19200,"station_id":"ce4bhr12rcd13ifvqhpg","pricing_plan_id":"cebpf4jnsgd1na2vs0mg"},{"bike_id":"eee2851c-7747-49c8-b3ad-c11670098ef7","system_id":"levelo_inurba_marseille","lat":43.31999,"lon":5.38149,"is_reserved":false,"is_disabled":false,"rental_uris":{"android":"levelo://app?vid=eee2851c-7747-49c8-b3ad-c11670098ef7","ios":"levelo://app?vid=eee2851c-7747-49c8-b3ad-c11670098ef7"},"vehicle_type_id":"4","last_reported":1725732621,"current_range_meters":3200,"station_id":"ce4bhr12rcd13ifvqhpg","pricing_plan_id":"cebpf4jnsgd1na2vs0mg"},{"bike_id":"da46f99f-142b-4d62-819a-b01b486272fd","system_id":"levelo_inurba_marseille","lat":43.319935,"lon":5.381699,"is_reserved":false,"is_disabled":false,"rental_uris":{"android":"levelo://app?vid=da46f99f-142b-4d62-819a-b01b486272fd","ios":"levelo://app?vid=da46f99f-142b-4d62-819a-b01b486272fd"},"vehicle_type_id":"4","last_reported":1725732621,"current_range_meters":1200,"station_id":"ce4bhr12rcd13ifvqhpg","pricing_plan_id":"cebpf4jnsgd1na2vs0mg"},{"bike_id":"37ac62ed-4893-4712-9218-1ad9c9cd1509","system_id":"levelo_inurba_marseille","lat":43.31995,"lon":5.38167,"is_reserved":false,"is_disabled":false,"rental_uris":{"android":"levelo://app?vid=37ac62ed-4893-4712-9218-1ad9c9cd1509","ios":"levelo://app?vid=37ac62ed-4893-4712-9218-1ad9c9cd1509"},"vehicle_type_id":"4","last_reported":1725732621,"current_range_meters":1600,"station_id":"ce4bhr12rcd13ifvqhpg","pricing_plan_id":"cebpf4jnsgd1na2vs0mg"},{"bike_id":"6bd2b6d8-58b2-485b-a517-bb62f89c252a","system_id":"levelo_inurba_marseille","lat":43.319935,"lon":5.381699,"is_reserved":false,"is_disabled":false,"rental_uris":{"android":"levelo://app?vid=6bd2b6d8-58b2-485b-a517-bb62f89c252a","ios":"levelo://app?vid=6bd2b6d8-58b2-485b-a517-bb62f89c252a"},"vehicle_type_id":"4","last_reported":1725732621,"current_range_meters":4000,"station_id":"ce4bhr12rcd13ifvqhpg","pricing_plan_id":"cebpf4jnsgd1na2vs0mg"},{"bike_id":"bae93943-9df4-479e-b7d0-c1c1c77d4150","system_id":"levelo_inurba_marseille","lat":43.313571,"lon":5.384829,"is_reserved":false,"is_disabled":false,"rental_uris":{"android":"levelo://app?vid=bae93943-9df4-479e-b7d0-c1c1c77d4150","ios":"levelo://app?vid=bae93943-9df4-479e-b7d0-c1c1c77d4150"},"vehicle_type_id":"4","last_reported":1725732621,"current_range_meters":5200,"station_id":"ce4bgt92rcd13ifvqcf0","pricing_plan_id":"cebpf4jnsgd1na2vs0mg"},{"bike_id":"16398946-cb90-45bc-ace1-b28208bebb7a","system_id":"levelo_inurba_marseille","lat":43.313571,"lon":5.384829,"is_reserved":false,"is_disabled":false,"rental_uris":{"android":"levelo://app?vid=16398946-cb90-45bc-ace1-b28208bebb7a","ios":"levelo://app?vid=16398946-cb90-45bc-ace1-b28208bebb7a"},"vehicle_type_id":"4","last_reported":1725732621,"current_range_meters":5600,"station_id":"ce4bgt92rcd13ifvqcf0","pricing_plan_id":"cebpf4jnsgd1na2vs0mg"},{"bike_id":"a22b1d95-c284-4301-b50b-451c4df9f929","system_id":"levelo_inurba_marseille","lat":43.313571,"lon":5.384829,"is_reserved":false,"is_disabled":false,"rental_uris":{"android":"levelo://app?vid=a22b1d95-c284-4301-b50b-451c4df9f929","ios":"levelo://app?vid=a22b1d95-c284-4301-b50b-451c4df9f929"},"vehicle_type_id":"4","last_reported":1725732621,"current_range_meters":6000,"station_id":"ce4bgt92rcd13ifvqcf0","pricing_plan_id":"cebpf4jnsgd1na2vs0mg"},{"bike_id":"98d9feb0-e28f-46f1-b329-8bb9af6d22a9","system_id":"levelo_inurba_marseille","lat":43.299222,"lon":5.365554,"is_reserved":false,"is_disabled":false,"rental_uris":{"android":"levelo://app?vid=98d9feb0-e28f-46f1-b329-8bb9af6d22a9","ios":"levelo://app?vid=98d9feb0-e28f-46f1-b329-8bb9af6d22a9"},"vehicle_type_id":"4","last_reported":1725732621,"current_range_meters":0,"station_id":"ce4bgm92rcd13ifvqbr0","pricing_plan_id":"cebpf4jnsgd1na2vs0mg"},{"bike_id":"1b66a915-8595-4790-934c-4af6e092f960","system_id":"levelo_inurba_marseille","lat":43.29944,"lon":5.36552,"is_reserved":false,"is_disabled":false,"rental_uris":{"android":"levelo://app?vid=1b66a915-8595-4790-934c-4af6e092f960","ios":"levelo://app?vid=1b66a915-8595-4790-934c-4af6e092f960"},"vehicle_type_id":"4","last_reported":1725732621,"current_range_meters":0,"station_id":"ce4bgm92rcd13ifvqbr0","pricing_plan_id":"cebpf4jnsgd1na2vs0mg"},{"bike_id":"f247b3e6-4bb0-424f-b898-9dbcca390177","system_id":"levelo_inurba_marseille","lat":43.29938,"lon":5.3655,"is_reserved":false,"is_disabled":false,"rental_uris":{"android":"levelo://app?vid=f247b3e6-4bb0-424f-b898-9dbcca390177","ios":"levelo://app?vid=f247b3e6-4bb0-424f-b898-9dbcca390177"},"vehicle_type_id":"4","last_reported":1725732621,"current_range_meters":24800,"station_id":"ce4bgm92rcd13ifvqbr0","pricing_plan_id":"cebpf4jnsgd1na2vs0mg"},{"bike_id":"514bf27b-286d-46aa-8aa9-3cac9c1864e4","system_id":"levelo_inurba_marseille","lat":43.299724,"lon":5.371829,"is_reserved":false,"is_disabled":false,"rental_uris":{"android":"levelo://app?vid=514bf27b-286d-46aa-8aa9-3cac9c1864e4","ios":"levelo://app?vid=514bf27b-286d-46aa-8aa9-3cac9c1864e4"},"vehicle_type_id":"4","last_reported":1725732621,"current_range_meters":0,"station_id":"ce4bgr92rcd13ifvqc7g","pricing_plan_id":"cebpf4jnsgd1na2vs0mg"},{"bike_id":"e3ad47de-ac10-473c-adbd-eaf62fe9b645","system_id":"levelo_inurba_marseille","lat":43.299724,"lon":5.371829,"is_reserved":false,"is_disabled":false,"rental_uris":{"android":"levelo://app?vid=e3ad47de-ac10-473c-adbd-eaf62fe9b645","ios":"levelo://app?vid=e3ad47de-ac10-473c-adbd-eaf62fe9b645"},"vehicle_type_id":"4","last_reported":1725732621,"current_range_meters":24000,"station_id":"ce4bgr92rcd13ifvqc7g","pricing_plan_id":"cebpf4jnsgd1na2vs0mg"},{"bike_id":"1541e26c-0a06-4459-aeef-1bb96adbe6d5","system_id":"levelo_inurba_marseille","lat":43.299724,"lon":5.371829,"is_reserved":false,"is_disabled":false,"rental_uris":{"android":"levelo://app?vid=1541e26c-0a06-4459-aeef-1bb96adbe6d5","ios":"levelo://app?vid=1541e26c-0a06-4459-aeef-1bb96adbe6d5"},"vehicle_type_id":"4","last_reported":1725732621,"current_range_meters":11200,"station_id":"ce4bgr92rcd13ifvqc7g","pricing_plan_id":"cebpf4jnsgd1na2vs0mg"},{"bike_id":"2345fe5d-0aed-4e53-95b3-e307f7804caa","system_id":"levelo_inurba_marseille","lat":43.299724,"lon":5.371829,"is_reserved":false,"is_disabled":false,"rental_uris":{"android":"levelo://app?vid=2345fe5d-0aed-4e53-95b3-e307f7804caa","ios":"levelo://app?vid=2345fe5d-0aed-4e53-95b3-e307f7804caa"},"vehicle_type_id":"4","last_reported":1725732621,"current_range_meters":13600,"station_id":"ce4bgr92rcd13ifvqc7g","pricing_plan_id":"cebpf4jnsgd1na2vs0mg"},{"bike_id":"7583e96f-3ce8-43fc-ba60-797e30d4d47f","system_id":"levelo_inurba_marseille","lat":43.299222,"lon":5.365554,"is_reserved":false,"is_disabled":false,"rental_uris":{"android":"levelo://app?vid=7583e96f-3ce8-43fc-ba60-797e30d4d47f","ios":"levelo://app?vid=7583e96f-3ce8-43fc-ba60-797e30d4d47f"},"vehicle_type_id":"4","last_reported":1725732621,"current_range_meters":0,"station_id":"ce4bgm92rcd13ifvqbr0","pricing_plan_id":"cebpf4jnsgd1na2vs0mg"},{"bike_id":"864b019c-7554-47e8-816c-3486a9a6fe16","system_id":"levelo_inurba_marseille","lat":43.29996,"lon":5.37588,"is_reserved":false,"is_disabled":false,"rental_uris":{"android":"levelo://app?vid=864b019c-7554-47e8-816c-3486a9a6fe16","ios":"levelo://app?vid=864b019c-7554-47e8-816c-3486a9a6fe16"},"vehicle_type_id":"4","last_reported":1725732621,"current_range_meters":4400,"station_id":"","pricing_plan_id":"cebpf4jnsgd1na2vs0mg"},{"bike_id":"72aa66bd-26bc-487c-af46-13b8b3783564","system_id":"levelo_inurba_marseille","lat":43.29853,"lon":5.36286,"is_reserved":false,"is_disabled":false,"rental_uris":{"android":"levelo://app?vid=72aa66bd-26bc-487c-af46-13b8b3783564","ios":"levelo://app?vid=72aa66bd-26bc-487c-af46-13b8b3783564"},"vehicle_type_id":"4","last_reported":1725732621,"current_range_meters":0,"station_id":"ce4bgpp2rcd13ifvqc3g","pricing_plan_id":"cebpf4jnsgd1na2vs0mg"},{"bike_id":"3d0d323e-52af-4a3e-880e-d453df79a242","system_id":"levelo_inurba_marseille","lat":43.298433,"lon":5.362774,"is_reserved":false,"is_disabled":false,"rental_uris":{"android":"levelo://app?vid=3d0d323e-52af-4a3e-880e-d453df79a242","ios":"levelo://app?vid=3d0d323e-52af-4a3e-880e-d453df79a242"},"vehicle_type_id":"4","last_reported":1725732621,"current_range_meters":24000,"station_id":"ce4bgpp2rcd13ifvqc3g","pricing_plan_id":"cebpf4jnsgd1na2vs0mg"},{"bike_id":"b607b297-3fc6-4ca4-97ed-1df9df8cab61","system_id":"levelo_inurba_marseille","lat":43.30545,"lon":5.38436,"is_reserved":false,"is_disabled":false,"rental_uris":{"android":"levelo://app?vid=b607b297-3fc6-4ca4-97ed-1df9df8cab61","ios":"levelo://app?vid=b607b297-3fc6-4ca4-97ed-1df9df8cab61"},"vehicle_type_id":"4","last_reported":1725732621,"current_range_meters":10000,"station_id":"ce4bgg92rcd13ifvqb30","pricing_plan_id":"cebpf4jnsgd1na2vs0mg"},{"bike_id":"f3bc432d-2f1a-46df-95f5-c32a5b446eaf","system_id":"levelo_inurba_marseille","lat":43.311722,"lon":5.387247,"is_reserved":false,"is_disabled":false,"rental_uris":{"android":"levelo://app?vid=f3bc432d-2f1a-46df-95f5-c32a5b446eaf","ios":"levelo://app?vid=f3bc432d-2f1a-46df-95f5-c32a5b446eaf"},"vehicle_type_id":"4","last_reported":1725732621,"current_range_meters":7600,"station_id":"ce4bgv12rcd13ifvqcp0","pricing_plan_id":"cebpf4jnsgd1na2vs0mg"},{"bike_id":"747fff65-99c0-45d0-9bc2-fb48b8994538","system_id":"levelo_inurba_marseille","lat":43.311722,"lon":5.387247,"is_reserved":false,"is_disabled":false,"rental_uris":{"android":"levelo://app?vid=747fff65-99c0-45d0-9bc2-fb48b8994538","ios":"levelo://app?vid=747fff65-99c0-45d0-9bc2-fb48b8994538"},"vehicle_type_id":"4","last_reported":1725732621,"current_range_meters":14400,"station_id":"ce4bgv12rcd13ifvqcp0","pricing_plan_id":"cebpf4jnsgd1na2vs0mg"},{"bike_id":"7df5737d-bb1c-4d91-8e65-c525ce415013","system_id":"levelo_inurba_marseille","lat":43.298433,"lon":5.362774,"is_reserved":false,"is_disabled":false,"rental_uris":{"android":"levelo://app?vid=7df5737d-bb1c-4d91-8e65-c525ce415013","ios":"levelo://app?vid=7df5737d-bb1c-4d91-8e65-c525ce415013"},"vehicle_type_id":"4","last_reported":1725732621,"current_range_meters":5200,"station_id":"ce4bgpp2rcd13ifvqc3g","pricing_plan_id":"cebpf4jnsgd1na2vs0mg"},{"bike_id":"2b2c831d-b799-4c4d-b233-9e7c1ba6124e","system_id":"levelo_inurba_marseille","lat":43.311722,"lon":5.387247,"is_reserved":false,"is_disabled":false,"rental_uris":{"android":"levelo://app?vid=2b2c831d-b799-4c4d-b233-9e7c1ba6124e","ios":"levelo://app?vid=2b2c831d-b799-4c4d-b233-9e7c1ba6124e"},"vehicle_type_id":"4","last_reported":1725732621,"current_range_meters":6400,"station_id":"ce4bgv12rcd13ifvqcp0","pricing_plan_id":"cebpf4jnsgd1na2vs0mg"},{"bike_id":"0baedda3-5b0c-4730-b999-9b46d0c76148","system_id":"levelo_inurba_marseille","lat":43.311722,"lon":5.387247,"is_reserved":false,"is_disabled":false,"rental_uris":{"android":"levelo://app?vid=0baedda3-5b0c-4730-b999-9b46d0c76148","ios":"levelo://app?vid=0baedda3-5b0c-4730-b999-9b46d0c76148"},"vehicle_type_id":"4","last_reported":1725732621,"current_range_meters":18000,"station_id":"ce4bgv12rcd13ifvqcp0","pricing_plan_id":"cebpf4jnsgd1na2vs0mg"},{"bike_id":"c4336792-0011-4241-98e1-29725ede8bfb","system_id":"levelo_inurba_marseille","lat":43.311722,"lon":5.387247,"is_reserved":false,"is_disabled":false,"rental_uris":{"android":"levelo://app?vid=c4336792-0011-4241-98e1-29725ede8bfb","ios":"levelo://app?vid=c4336792-0011-4241-98e1-29725ede8bfb"},"vehicle_type_id":"4","last_reported":1725732621,"current_range_meters":2000,"station_id":"ce4bgv12rcd13ifvqcp0","pricing_plan_id":"cebpf4jnsgd1na2vs0mg"},{"bike_id":"8ddf6e3d-afe4-4c24-a2d1-8670045fcbf2","system_id":"levelo_inurba_marseille","lat":43.301522,"lon":5.380667,"is_reserved":false,"is_disabled":false,"rental_uris":{"android":"levelo://app?vid=8ddf6e3d-afe4-4c24-a2d1-8670045fcbf2","ios":"levelo://app?vid=8ddf6e3d-afe4-4c24-a2d1-8670045fcbf2"},"vehicle_type_id":"4","last_reported":1725732621,"current_range_meters":14800,"station_id":"","pricing_plan_id":"cebpf4jnsgd1na2vs0mg"},{"bike_id":"4ae51d6b-aaaf-442a-873d-f8eca9a3e7b5","system_id":"levelo_inurba_marseille","lat":43.320701,"lon":5.384472,"is_reserved":false,"is_disabled":false,"rental_uris":{"android":"levelo://app?vid=4ae51d6b-aaaf-442a-873d-f8eca9a3e7b5","ios":"levelo://app?vid=4ae51d6b-aaaf-442a-873d-f8eca9a3e7b5"},"vehicle_type_id":"4","last_reported":1725732621,"current_range_meters":6000,"station_id":"","pricing_plan_id":"cebpf4jnsgd1na2vs0mg"},{"bike_id":"6cec8ec6-96ff-4bdb-a68f-f29a0570aa7f","system_id":"levelo_inurba_marseille","lat":43.301417,"lon":5.3809,"is_reserved":false,"is_disabled":false,"rental_uris":{"android":"levelo://app?vid=6cec8ec6-96ff-4bdb-a68f-f29a0570aa7f","ios":"levelo://app?vid=6cec8ec6-96ff-4bdb-a68f-f29a0570aa7f"},"vehicle_type_id":"4","last_reported":1725732621,"current_range_meters":0,"station_id":"ce4bgjp2rcd13ifvqbh0","pricing_plan_id":"cebpf4jnsgd1na2vs0mg"},{"bike_id":"16647398-ab8f-4ca9-b32a-6b0aa923f41f","system_id":"levelo_inurba_marseille","lat":43.297794,"lon":5.370888,"is_reserved":false,"is_disabled":false,"rental_uris":{"android":"levelo://app?vid=16647398-ab8f-4ca9-b32a-6b0aa923f41f","ios":"levelo://app?vid=16647398-ab8f-4ca9-b32a-6b0aa923f41f"},"vehicle_type_id":"4","last_reported":1725732621,"current_range_meters":0,"station_id":"ce4bgop2rcd13ifvqc1g","pricing_plan_id":"cebpf4jnsgd1na2vs0mg"},{"bike_id":"08faaff0-ad90-42d8-b675-315b2fe1f262","system_id":"levelo_inurba_marseille","lat":43.301417,"lon":5.3809,"is_reserved":false,"is_disabled":false,"rental_uris":{"android":"levelo://app?vid=08faaff0-ad90-42d8-b675-315b2fe1f262","ios":"levelo://app?vid=08faaff0-ad90-42d8-b675-315b2fe1f262"},"vehicle_type_id":"4","last_reported":1725732621,"current_range_meters":6400,"station_id":"ce4bgjp2rcd13ifvqbh0","pricing_plan_id":"cebpf4jnsgd1na2vs0mg"},{"bike_id":"9d4d4ad3-9fa4-4394-8995-8a5887e80cc8","system_id":"levelo_inurba_marseille","lat":43.322829,"lon":5.382613,"is_reserved":false,"is_disabled":false,"rental_uris":{"android":"levelo://app?vid=9d4d4ad3-9fa4-4394-8995-8a5887e80cc8","ios":"levelo://app?vid=9d4d4ad3-9fa4-4394-8995-8a5887e80cc8"},"vehicle_type_id":"4","last_reported":1725732621,"current_range_meters":12400,"station_id":"ce4bhr12rcd13ifvqhqg","pricing_plan_id":"cebpf4jnsgd1na2vs0mg"},{"bike_id":"1bef5fa3-8c5f-47b2-b437-481c95bc689d","system_id":"levelo_inurba_marseille","lat":43.32291,"lon":5.38268,"is_reserved":false,"is_disabled":false,"rental_uris":{"android":"levelo://app?vid=1bef5fa3-8c5f-47b2-b437-481c95bc689d","ios":"levelo://app?vid=1bef5fa3-8c5f-47b2-b437-481c95bc689d"},"vehicle_type_id":"4","last_reported":1725732621,"current_range_meters":26000,"station_id":"ce4bhr12rcd13ifvqhqg","pricing_plan_id":"cebpf4jnsgd1na2vs0mg"},{"bike_id":"9dd6feee-f7fa-467d-b54c-a6a6d8fbf620","system_id":"levelo_inurba_marseille","lat":43.297774,"lon":5.370875,"is_reserved":false,"is_disabled":false,"rental_uris":{"android":"levelo://app?vid=9dd6feee-f7fa-467d-b54c-a6a6d8fbf620","ios":"levelo://app?vid=9dd6feee-f7fa-467d-b54c-a6a6d8fbf620"},"vehicle_type_id":"4","last_reported":1725732621,"current_range_meters":0,"station_id":"ce4bgop2rcd13ifvqc1g","pricing_plan_id":"cebpf4jnsgd1na2vs0mg"},{"bike_id":"60a9e019-c28f-4607-b47f-1cf891078308","system_id":"levelo_inurba_marseille","lat":43.297794,"lon":5.370888,"is_reserved":false,"is_disabled":false,"rental_uris":{"android":"levelo://app?vid=60a9e019-c28f-4607-b47f-1cf891078308","ios":"levelo://app?vid=60a9e019-c28f-4607-b47f-1cf891078308"},"vehicle_type_id":"4","last_reported":1725732621,"current_range_meters":9600,"station_id":"ce4bgop2rcd13ifvqc1g","pricing_plan_id":"cebpf4jnsgd1na2vs0mg"},{"bike_id":"57b67e77-3ca7-4c77-98cc-304350bcdc10","system_id":"levelo_inurba_marseille","lat":43.297774,"lon":5.370875,"is_reserved":false,"is_disabled":false,"rental_uris":{"android":"levelo://app?vid=57b67e77-3ca7-4c77-98cc-304350bcdc10","ios":"levelo://app?vid=57b67e77-3ca7-4c77-98cc-304350bcdc10"},"vehicle_type_id":"4","last_reported":1725732621,"current_range_meters":15200,"station_id":"ce4bgop2rcd13ifvqc1g","pricing_plan_id":"cebpf4jnsgd1na2vs0mg"},{"bike_id":"331cb293-873f-448d-a73d-5ba68eb17fa3","system_id":"levelo_inurba_marseille","lat":43.304769,"lon":5.385373,"is_reserved":false,"is_disabled":false,"rental_uris":{"android":"levelo://app?vid=331cb293-873f-448d-a73d-5ba68eb17fa3","ios":"levelo://app?vid=331cb293-873f-448d-a73d-5ba68eb17fa3"},"vehicle_type_id":"4","last_reported":1725732621,"current_range_meters":10000,"station_id":"","pricing_plan_id":"cebpf4jnsgd1na2vs0mg"},{"bike_id":"9f1af717-3f28-4947-9102-8f958aeed162","system_id":"levelo_inurba_marseille","lat":43.29883,"lon":5.37848,"is_reserved":false,"is_disabled":false,"rental_uris":{"android":"levelo://app?vid=9f1af717-3f28-4947-9102-8f958aeed162","ios":"levelo://app?vid=9f1af717-3f28-4947-9102-8f958aeed162"},"vehicle_type_id":"4","last_reported":1725732621,"current_range_meters":0,"station_id":"","pricing_plan_id":"cebpf4jnsgd1na2vs0mg"},{"bike_id":"8a8887de-5c7d-4b1c-91b2-78e9c920b48d","system_id":"levelo_inurba_marseille","lat":43.2968,"lon":5.37291,"is_reserved":false,"is_disabled":false,"rental_uris":{"android":"levelo://app?vid=8a8887de-5c7d-4b1c-91b2-78e9c920b48d","ios":"levelo://app?vid=8a8887de-5c7d-4b1c-91b2-78e9c920b48d"},"vehicle_type_id":"4","last_reported":1725732621,"current_range_meters":28800,"station_id":"ce4bgk12rcd13ifvqbj0","pricing_plan_id":"cebpf4jnsgd1na2vs0mg"},{"bike_id":"dcb0918c-702e-473c-8f0b-174b09b294a0","system_id":"levelo_inurba_marseille","lat":43.296131,"lon":5.370791,"is_reserved":false,"is_disabled":false,"rental_uris":{"android":"levelo://app?vid=dcb0918c-702e-473c-8f0b-174b09b294a0","ios":"levelo://app?vid=dcb0918c-702e-473c-8f0b-174b09b294a0"},"vehicle_type_id":"4","last_reported":1725732621,"current_range_meters":24400,"station_id":"ce4bgnh2rcd13ifvqc0g","pricing_plan_id":"cebpf4jnsgd1na2vs0mg"},{"bike_id":"d4b142fb-edcf-41d0-8d54-bb7ec53ff25f","system_id":"levelo_inurba_marseille","lat":43.296131,"lon":5.370791,"is_reserved":false,"is_disabled":false,"rental_uris":{"android":"levelo://app?vid=d4b142fb-edcf-41d0-8d54-bb7ec53ff25f","ios":"levelo://app?vid=d4b142fb-edcf-41d0-8d54-bb7ec53ff25f"},"vehicle_type_id":"4","last_reported":1725732621,"current_range_meters":14400,"station_id":"ce4bgnh2rcd13ifvqc0g","pricing_plan_id":"cebpf4jnsgd1na2vs0mg"},{"bike_id":"d255bd78-7fdc-4562-a603-c34434ea5060","system_id":"levelo_inurba_marseille","lat":43.29573,"lon":5.367355,"is_reserved":false,"is_disabled":false,"rental_uris":{"android":"levelo://app?vid=d255bd78-7fdc-4562-a603-c34434ea5060","ios":"levelo://app?vid=d255bd78-7fdc-4562-a603-c34434ea5060"},"vehicle_type_id":"4","last_reported":1725732621,"current_range_meters":0,"station_id":"ce4bgph2rcd13ifvqc2g","pricing_plan_id":"cebpf4jnsgd1na2vs0mg"},{"bike_id":"b9b9bc6f-f6de-4501-9fd2-7bf77055add6","system_id":"levelo_inurba_marseille","lat":43.29577,"lon":5.36745,"is_reserved":false,"is_disabled":false,"rental_uris":{"android":"levelo://app?vid=b9b9bc6f-f6de-4501-9fd2-7bf77055add6","ios":"levelo://app?vid=b9b9bc6f-f6de-4501-9fd2-7bf77055add6"},"vehicle_type_id":"4","last_reported":1725732621,"current_range_meters":0,"station_id":"ce4bgph2rcd13ifvqc2g","pricing_plan_id":"cebpf4jnsgd1na2vs0mg"},{"bike_id":"7e2a9981-304b-427f-9c45-fdaba7c305e1","system_id":"levelo_inurba_marseille","lat":43.29575,"lon":5.365036,"is_reserved":false,"is_disabled":false,"rental_uris":{"android":"levelo://app?vid=7e2a9981-304b-427f-9c45-fdaba7c305e1","ios":"levelo://app?vid=7e2a9981-304b-427f-9c45-fdaba7c305e1"},"vehicle_type_id":"4","last_reported":1725732621,"current_range_meters":20000,"station_id":"","pricing_plan_id":"cebpf4jnsgd1na2vs0mg"},{"bike_id":"1c77c66b-25cf-47c3-b638-9373157e347f","system_id":"levelo_inurba_marseille","lat":43.309589,"lon":5.390258,"is_reserved":false,"is_disabled":false,"rental_uris":{"android":"levelo://app?vid=1c77c66b-25cf-47c3-b638-9373157e347f","ios":"levelo://app?vid=1c77c66b-25cf-47c3-b638-9373157e347f"},"vehicle_type_id":"4","last_reported":1725732621,"current_range_meters":0,"station_id":"ce4bgup2rcd13ifvqco0","pricing_plan_id":"cebpf4jnsgd1na2vs0mg"},{"bike_id":"d5f72bab-5a21-443c-9b67-70323fe2bdf8","system_id":"levelo_inurba_marseille","lat":43.309589,"lon":5.390258,"is_reserved":false,"is_disabled":false,"rental_uris":{"android":"levelo://app?vid=d5f72bab-5a21-443c-9b67-70323fe2bdf8","ios":"levelo://app?vid=d5f72bab-5a21-443c-9b67-70323fe2bdf8"},"vehicle_type_id":"4","last_reported":1725732621,"current_range_meters":14000,"station_id":"ce4bgup2rcd13ifvqco0","pricing_plan_id":"cebpf4jnsgd1na2vs0mg"},{"bike_id":"4c500a60-4229-4c00-91dc-6959b6241db7","system_id":"levelo_inurba_marseille","lat":43.30955,"lon":5.39034,"is_reserved":false,"is_disabled":false,"rental_uris":{"android":"levelo://app?vid=4c500a60-4229-4c00-91dc-6959b6241db7","ios":"levelo://app?vid=4c500a60-4229-4c00-91dc-6959b6241db7"},"vehicle_type_id":"4","last_reported":1725732621,"current_range_meters":31200,"station_id":"ce4bgup2rcd13ifvqco0","pricing_plan_id":"cebpf4jnsgd1na2vs0mg"},{"bike_id":"21f25048-84c4-485c-b336-f257bea36cf8","system_id":"levelo_inurba_marseille","lat":43.309589,"lon":5.390258,"is_reserved":false,"is_disabled":false,"rental_uris":{"android":"levelo://app?vid=21f25048-84c4-485c-b336-f257bea36cf8","ios":"levelo://app?vid=21f25048-84c4-485c-b336-f257bea36cf8"},"vehicle_type_id":"4","last_reported":1725732621,"current_range_meters":15200,"station_id":"ce4bgup2rcd13ifvqco0","pricing_plan_id":"cebpf4jnsgd1na2vs0mg"},{"bike_id":"f9e73c60-fe21-48c0-90db-017b0c109bc7","system_id":"levelo_inurba_marseille","lat":43.309589,"lon":5.390258,"is_reserved":false,"is_disabled":false,"rental_uris":{"android":"levelo://app?vid=f9e73c60-fe21-48c0-90db-017b0c109bc7","ios":"levelo://app?vid=f9e73c60-fe21-48c0-90db-017b0c109bc7"},"vehicle_type_id":"4","last_reported":1725732621,"current_range_meters":28800,"station_id":"ce4bgup2rcd13ifvqco0","pricing_plan_id":"cebpf4jnsgd1na2vs0mg"},{"bike_id":"10ffe63c-f017-4856-afe9-a14cdad7028f","system_id":"levelo_inurba_marseille","lat":43.309589,"lon":5.390258,"is_reserved":false,"is_disabled":false,"rental_uris":{"android":"levelo://app?vid=10ffe63c-f017-4856-afe9-a14cdad7028f","ios":"levelo://app?vid=10ffe63c-f017-4856-afe9-a14cdad7028f"},"vehicle_type_id":"4","last_reported":1725732621,"current_range_meters":5200,"station_id":"ce4bgup2rcd13ifvqco0","pricing_plan_id":"cebpf4jnsgd1na2vs0mg"},{"bike_id":"0579fb56-6478-4a0d-9d46-428787d68252","system_id":"levelo_inurba_marseille","lat":43.30951,"lon":5.3904,"is_reserved":false,"is_disabled":false,"rental_uris":{"android":"levelo://app?vid=0579fb56-6478-4a0d-9d46-428787d68252","ios":"levelo://app?vid=0579fb56-6478-4a0d-9d46-428787d68252"},"vehicle_type_id":"4","last_reported":1725732621,"current_range_meters":20000,"station_id":"ce4bgup2rcd13ifvqco0","pricing_plan_id":"cebpf4jnsgd1na2vs0mg"},{"bike_id":"50a971b3-d507-4ca6-bdf9-49c64b7e40ca","system_id":"levelo_inurba_marseille","lat":43.309589,"lon":5.390258,"is_reserved":false,"is_disabled":false,"rental_uris":{"android":"levelo://app?vid=50a971b3-d507-4ca6-bdf9-49c64b7e40ca","ios":"levelo://app?vid=50a971b3-d507-4ca6-bdf9-49c64b7e40ca"},"vehicle_type_id":"4","last_reported":1725732621,"current_range_meters":2400,"station_id":"ce4bgup2rcd13ifvqco0","pricing_plan_id":"cebpf4jnsgd1na2vs0mg"},{"bike_id":"0c5ba613-460a-43e4-a073-84af87979dcb","system_id":"levelo_inurba_marseille","lat":43.309589,"lon":5.390258,"is_reserved":false,"is_disabled":false,"rental_uris":{"android":"levelo://app?vid=0c5ba613-460a-43e4-a073-84af87979dcb","ios":"levelo://app?vid=0c5ba613-460a-43e4-a073-84af87979dcb"},"vehicle_type_id":"4","last_reported":1725732621,"current_range_meters":16400,"station_id":"ce4bgup2rcd13ifvqco0","pricing_plan_id":"cebpf4jnsgd1na2vs0mg"},{"bike_id":"be3b48bc-3ba4-4aa0-bdc7-390ba2468ee4","system_id":"levelo_inurba_marseille","lat":43.309589,"lon":5.390258,"is_reserved":false,"is_disabled":false,"rental_uris":{"android":"levelo://app?vid=be3b48bc-3ba4-4aa0-bdc7-390ba2468ee4","ios":"levelo://app?vid=be3b48bc-3ba4-4aa0-bdc7-390ba2468ee4"},"vehicle_type_id":"4","last_reported":1725732621,"current_range_meters":8400,"station_id":"ce4bgup2rcd13ifvqco0","pricing_plan_id":"cebpf4jnsgd1na2vs0mg"},{"bike_id":"10f69fe8-7773-460f-8cbc-84d5043d302b","system_id":"levelo_inurba_marseille","lat":43.32253,"lon":5.387034,"is_reserved":false,"is_disabled":false,"rental_uris":{"android":"levelo://app?vid=10f69fe8-7773-460f-8cbc-84d5043d302b","ios":"levelo://app?vid=10f69fe8-7773-460f-8cbc-84d5043d302b"},"vehicle_type_id":"4","last_reported":1725732621,"current_range_meters":22400,"station_id":"","pricing_plan_id":"cebpf4jnsgd1na2vs0mg"},{"bike_id":"4bc4026f-273d-428f-b07a-2caa585305ef","system_id":"levelo_inurba_marseille","lat":43.317557,"lon":5.390173,"is_reserved":false,"is_disabled":false,"rental_uris":{"android":"levelo://app?vid=4bc4026f-273d-428f-b07a-2caa585305ef","ios":"levelo://app?vid=4bc4026f-273d-428f-b07a-2caa585305ef"},"vehicle_type_id":"4","last_reported":1725732621,"current_range_meters":16000,"station_id":"ce4bhqp2rcd13ifvqhng","pricing_plan_id":"cebpf4jnsgd1na2vs0mg"},{"bike_id":"a44ca80a-c22e-4b6e-99a9-aa9ecdc94370","system_id":"levelo_inurba_marseille","lat":43.298037,"lon":5.381066,"is_reserved":false,"is_disabled":false,"rental_uris":{"android":"levelo://app?vid=a44ca80a-c22e-4b6e-99a9-aa9ecdc94370","ios":"levelo://app?vid=a44ca80a-c22e-4b6e-99a9-aa9ecdc94370"},"vehicle_type_id":"4","last_reported":1725732621,"current_range_meters":0,"station_id":"ce4bgip2rcd13ifvqbb0","pricing_plan_id":"cebpf4jnsgd1na2vs0mg"},{"bike_id":"c6af4c77-08fe-405a-beee-49909e5606d9","system_id":"levelo_inurba_marseille","lat":43.295748,"lon":5.37522,"is_reserved":false,"is_disabled":false,"rental_uris":{"android":"levelo://app?vid=c6af4c77-08fe-405a-beee-49909e5606d9","ios":"levelo://app?vid=c6af4c77-08fe-405a-beee-49909e5606d9"},"vehicle_type_id":"4","last_reported":1725732621,"current_range_meters":800,"station_id":"ce4bgh92rcd13ifvqb50","pricing_plan_id":"cebpf4jnsgd1na2vs0mg"},{"bike_id":"a06e14d5-41d7-499d-9a8d-59e93b3cac8f","system_id":"levelo_inurba_marseille","lat":43.29626,"lon":5.37714,"is_reserved":false,"is_disabled":false,"rental_uris":{"android":"levelo://app?vid=a06e14d5-41d7-499d-9a8d-59e93b3cac8f","ios":"levelo://app?vid=a06e14d5-41d7-499d-9a8d-59e93b3cac8f"},"vehicle_type_id":"4","last_reported":1725732621,"current_range_meters":0,"station_id":"ce4bgi92rcd13ifvqb90","pricing_plan_id":"cebpf4jnsgd1na2vs0mg"},{"bike_id":"3da7fc94-21bf-489f-ac0e-d06fa3d93245","system_id":"levelo_inurba_marseille","lat":43.304274,"lon":5.388873,"is_reserved":false,"is_disabled":false,"rental_uris":{"android":"levelo://app?vid=3da7fc94-21bf-489f-ac0e-d06fa3d93245","ios":"levelo://app?vid=3da7fc94-21bf-489f-ac0e-d06fa3d93245"},"vehicle_type_id":"4","last_reported":1725732621,"current_range_meters":31200,"station_id":"ce4bgk12rcd13ifvqbi0","pricing_plan_id":"cebpf4jnsgd1na2vs0mg"},{"bike_id":"c48e60e9-5ae8-4ba1-861a-66ff16eec8e8","system_id":"levelo_inurba_marseille","lat":43.295748,"lon":5.37522,"is_reserved":false,"is_disabled":false,"rental_uris":{"android":"levelo://app?vid=c48e60e9-5ae8-4ba1-861a-66ff16eec8e8","ios":"levelo://app?vid=c48e60e9-5ae8-4ba1-861a-66ff16eec8e8"},"vehicle_type_id":"4","last_reported":1725732621,"current_range_meters":21600,"station_id":"ce4bgh92rcd13ifvqb50","pricing_plan_id":"cebpf4jnsgd1na2vs0mg"},{"bike_id":"2949592f-a16b-43ad-9bca-88e5de17a736","system_id":"levelo_inurba_marseille","lat":43.296277,"lon":5.377108,"is_reserved":false,"is_disabled":false,"rental_uris":{"android":"levelo://app?vid=2949592f-a16b-43ad-9bca-88e5de17a736","ios":"levelo://app?vid=2949592f-a16b-43ad-9bca-88e5de17a736"},"vehicle_type_id":"4","last_reported":1725732621,"current_range_meters":1200,"station_id":"ce4bgi92rcd13ifvqb90","pricing_plan_id":"cebpf4jnsgd1na2vs0mg"},{"bike_id":"d883bad8-578a-431f-b8e6-2483b445c3ab","system_id":"levelo_inurba_marseille","lat":43.309589,"lon":5.390258,"is_reserved":false,"is_disabled":false,"rental_uris":{"android":"levelo://app?vid=d883bad8-578a-431f-b8e6-2483b445c3ab","ios":"levelo://app?vid=d883bad8-578a-431f-b8e6-2483b445c3ab"},"vehicle_type_id":"4","last_reported":1725732621,"current_range_meters":21600,"station_id":"ce4bgup2rcd13ifvqco0","pricing_plan_id":"cebpf4jnsgd1na2vs0mg"},{"bike_id":"e7c2e6fa-2006-40b1-afae-a58f2f091c05","system_id":"levelo_inurba_marseille","lat":43.30137,"lon":5.38785,"is_reserved":false,"is_disabled":false,"rental_uris":{"android":"levelo://app?vid=e7c2e6fa-2006-40b1-afae-a58f2f091c05","ios":"levelo://app?vid=e7c2e6fa-2006-40b1-afae-a58f2f091c05"},"vehicle_type_id":"4","last_reported":1725732621,"current_range_meters":0,"station_id":"ce4bghh2rcd13ifvqb60","pricing_plan_id":"cebpf4jnsgd1na2vs0mg"},{"bike_id":"7dfad6ee-3a0a-4e82-bc25-e7f709db6a07","system_id":"levelo_inurba_marseille","lat":43.293811,"lon":5.36258,"is_reserved":false,"is_disabled":false,"rental_uris":{"android":"levelo://app?vid=7dfad6ee-3a0a-4e82-bc25-e7f709db6a07","ios":"levelo://app?vid=7dfad6ee-3a0a-4e82-bc25-e7f709db6a07"},"vehicle_type_id":"4","last_reported":1725732621,"current_range_meters":13200,"station_id":"","pricing_plan_id":"cebpf4jnsgd1na2vs0mg"},{"bike_id":"028b5aa3-d9e2-49d3-b742-d2a84b64a134","system_id":"levelo_inurba_marseille","lat":43.296293,"lon":5.380845,"is_reserved":false,"is_disabled":false,"rental_uris":{"android":"levelo://app?vid=028b5aa3-d9e2-49d3-b742-d2a84b64a134","ios":"levelo://app?vid=028b5aa3-d9e2-49d3-b742-d2a84b64a134"},"vehicle_type_id":"4","last_reported":1725732621,"current_range_meters":16000,"station_id":"ce4bgl12rcd13ifvqbo0","pricing_plan_id":"cebpf4jnsgd1na2vs0mg"},{"bike_id":"cbbd6406-e8ea-4e6c-b10a-3bc83a55748c","system_id":"levelo_inurba_marseille","lat":43.29621,"lon":5.38088,"is_reserved":false,"is_disabled":false,"rental_uris":{"android":"levelo://app?vid=cbbd6406-e8ea-4e6c-b10a-3bc83a55748c","ios":"levelo://app?vid=cbbd6406-e8ea-4e6c-b10a-3bc83a55748c"},"vehicle_type_id":"4","last_reported":1725732621,"current_range_meters":24400,"station_id":"ce4bgl12rcd13ifvqbo0","pricing_plan_id":"cebpf4jnsgd1na2vs0mg"},{"bike_id":"0481b1dc-15f1-4274-a4c2-f72f886fd11e","system_id":"levelo_inurba_marseille","lat":43.29602,"lon":5.381084,"is_reserved":false,"is_disabled":false,"rental_uris":{"android":"levelo://app?vid=0481b1dc-15f1-4274-a4c2-f72f886fd11e","ios":"levelo://app?vid=0481b1dc-15f1-4274-a4c2-f72f886fd11e"},"vehicle_type_id":"4","last_reported":1725732621,"current_range_meters":6400,"station_id":"ce4bgl12rcd13ifvqbo0","pricing_plan_id":"cebpf4jnsgd1na2vs0mg"},{"bike_id":"1389f4a0-fe8c-45a8-89e1-761602337135","system_id":"levelo_inurba_marseille","lat":43.32367,"lon":5.38925,"is_reserved":false,"is_disabled":false,"rental_uris":{"android":"levelo://app?vid=1389f4a0-fe8c-45a8-89e1-761602337135","ios":"levelo://app?vid=1389f4a0-fe8c-45a8-89e1-761602337135"},"vehicle_type_id":"4","last_reported":1725732621,"current_range_meters":19200,"station_id":"ce4bhqp2rcd13ifvqhog","pricing_plan_id":"cebpf4jnsgd1na2vs0mg"},{"bike_id":"74c59e3d-56c9-4373-9efe-a345696f9a5c","system_id":"levelo_inurba_marseille","lat":43.3237,"lon":5.38926,"is_reserved":false,"is_disabled":false,"rental_uris":{"android":"levelo://app?vid=74c59e3d-56c9-4373-9efe-a345696f9a5c","ios":"levelo://app?vid=74c59e3d-56c9-4373-9efe-a345696f9a5c"},"vehicle_type_id":"4","last_reported":1725732621,"current_range_meters":24400,"station_id":"","pricing_plan_id":"cebpf4jnsgd1na2vs0mg"},{"bike_id":"41704600-e9e6-4869-aefd-a4a12996605b","system_id":"levelo_inurba_marseille","lat":43.3237,"lon":5.38926,"is_reserved":false,"is_disabled":false,"rental_uris":{"android":"levelo://app?vid=41704600-e9e6-4869-aefd-a4a12996605b","ios":"levelo://app?vid=41704600-e9e6-4869-aefd-a4a12996605b"},"vehicle_type_id":"4","last_reported":1725732621,"current_range_meters":12000,"station_id":"ce4bhqp2rcd13ifvqhog","pricing_plan_id":"cebpf4jnsgd1na2vs0mg"},{"bike_id":"8b687874-3ad5-4ad2-8a4b-e20bc096d278","system_id":"levelo_inurba_marseille","lat":43.29603,"lon":5.38103,"is_reserved":false,"is_disabled":false,"rental_uris":{"android":"levelo://app?vid=8b687874-3ad5-4ad2-8a4b-e20bc096d278","ios":"levelo://app?vid=8b687874-3ad5-4ad2-8a4b-e20bc096d278"},"vehicle_type_id":"4","last_reported":1725732621,"current_range_meters":0,"station_id":"ce4bgl12rcd13ifvqbo0","pricing_plan_id":"cebpf4jnsgd1na2vs0mg"},{"bike_id":"3013ab60-2fd5-4bcf-8aa9-60479017c12b","system_id":"levelo_inurba_marseille","lat":43.293082,"lon":5.37175,"is_reserved":false,"is_disabled":false,"rental_uris":{"android":"levelo://app?vid=3013ab60-2fd5-4bcf-8aa9-60479017c12b","ios":"levelo://app?vid=3013ab60-2fd5-4bcf-8aa9-60479017c12b"},"vehicle_type_id":"4","last_reported":1725732621,"current_range_meters":0,"station_id":"ce4bgh92rcd13ifvqb40","pricing_plan_id":"cebpf4jnsgd1na2vs0mg"},{"bike_id":"56e3c461-a33a-49da-a3f1-00b2131bd024","system_id":"levelo_inurba_marseille","lat":43.292749,"lon":5.368402,"is_reserved":false,"is_disabled":false,"rental_uris":{"android":"levelo://app?vid=56e3c461-a33a-49da-a3f1-00b2131bd024","ios":"levelo://app?vid=56e3c461-a33a-49da-a3f1-00b2131bd024"},"vehicle_type_id":"4","last_reported":1725732621,"current_range_meters":0,"station_id":"ce4bhbp2rcd13ifvqesg","pricing_plan_id":"cebpf4jnsgd1na2vs0mg"},{"bike_id":"619aecd1-360d-41fe-9121-08580cdacf3b","system_id":"levelo_inurba_marseille","lat":43.292749,"lon":5.368402,"is_reserved":false,"is_disabled":false,"rental_uris":{"android":"levelo://app?vid=619aecd1-360d-41fe-9121-08580cdacf3b","ios":"levelo://app?vid=619aecd1-360d-41fe-9121-08580cdacf3b"},"vehicle_type_id":"4","last_reported":1725732621,"current_range_meters":0,"station_id":"ce4bhbp2rcd13ifvqesg","pricing_plan_id":"cebpf4jnsgd1na2vs0mg"},{"bike_id":"51d4ff64-2e30-4b93-90cc-6cf082538284","system_id":"levelo_inurba_marseille","lat":43.280784,"lon":5.396622,"is_reserved":false,"is_disabled":false,"rental_uris":{"android":"levelo://app?vid=51d4ff64-2e30-4b93-90cc-6cf082538284","ios":"levelo://app?vid=51d4ff64-2e30-4b93-90cc-6cf082538284"},"vehicle_type_id":"4","last_reported":1725732621,"current_range_meters":4800,"station_id":"ce4bho12rcd13ifvqh2g","pricing_plan_id":"cebpf4jnsgd1na2vs0mg"},{"bike_id":"809f65ba-09d6-4d55-b604-aaa340bc3fb2","system_id":"levelo_inurba_marseille","lat":43.305994,"lon":5.393687,"is_reserved":false,"is_disabled":false,"rental_uris":{"android":"levelo://app?vid=809f65ba-09d6-4d55-b604-aaa340bc3fb2","ios":"levelo://app?vid=809f65ba-09d6-4d55-b604-aaa340bc3fb2"},"vehicle_type_id":"4","last_reported":1725732621,"current_range_meters":9600,"station_id":"ce4bh0p2rcd13ifvqd80","pricing_plan_id":"cebpf4jnsgd1na2vs0mg"},{"bike_id":"34ce210d-0eb6-4700-81ed-a9d403e414e9","system_id":"levelo_inurba_marseille","lat":43.29229,"lon":5.36471,"is_reserved":false,"is_disabled":false,"rental_uris":{"android":"levelo://app?vid=34ce210d-0eb6-4700-81ed-a9d403e414e9","ios":"levelo://app?vid=34ce210d-0eb6-4700-81ed-a9d403e414e9"},"vehicle_type_id":"4","last_reported":1725732621,"current_range_meters":4000,"station_id":"","pricing_plan_id":"cebpf4jnsgd1na2vs0mg"},{"bike_id":"3008717d-15a5-4e63-b584-626c222de432","system_id":"levelo_inurba_marseille","lat":43.30599,"lon":5.39357,"is_reserved":false,"is_disabled":false,"rental_uris":{"android":"levelo://app?vid=3008717d-15a5-4e63-b584-626c222de432","ios":"levelo://app?vid=3008717d-15a5-4e63-b584-626c222de432"},"vehicle_type_id":"4","last_reported":1725732621,"current_range_meters":17600,"station_id":"ce4bh0p2rcd13ifvqd80","pricing_plan_id":"cebpf4jnsgd1na2vs0mg"},{"bike_id":"70baa6d5-14cf-4de7-a562-3353be7368f3","system_id":"levelo_inurba_marseille","lat":43.305994,"lon":5.393687,"is_reserved":false,"is_disabled":false,"rental_uris":{"android":"levelo://app?vid=70baa6d5-14cf-4de7-a562-3353be7368f3","ios":"levelo://app?vid=70baa6d5-14cf-4de7-a562-3353be7368f3"},"vehicle_type_id":"4","last_reported":1725732621,"current_range_meters":4800,"station_id":"ce4bh0p2rcd13ifvqd80","pricing_plan_id":"cebpf4jnsgd1na2vs0mg"},{"bike_id":"7c819373-d89e-4e25-a500-3c2634db1009","system_id":"levelo_inurba_marseille","lat":43.30309,"lon":5.39205,"is_reserved":false,"is_disabled":false,"rental_uris":{"android":"levelo://app?vid=7c819373-d89e-4e25-a500-3c2634db1009","ios":"levelo://app?vid=7c819373-d89e-4e25-a500-3c2634db1009"},"vehicle_type_id":"4","last_reported":1725732621,"current_range_meters":30400,"station_id":"ce4bgkh2rcd13ifvqbk0","pricing_plan_id":"cebpf4jnsgd1na2vs0mg"},{"bike_id":"825c4d31-6d26-44e2-a1e0-672cc52a1a0f","system_id":"levelo_inurba_marseille","lat":43.303002,"lon":5.392142,"is_reserved":false,"is_disabled":false,"rental_uris":{"android":"levelo://app?vid=825c4d31-6d26-44e2-a1e0-672cc52a1a0f","ios":"levelo://app?vid=825c4d31-6d26-44e2-a1e0-672cc52a1a0f"},"vehicle_type_id":"4","last_reported":1725732621,"current_range_meters":0,"station_id":"ce4bgkh2rcd13ifvqbk0","pricing_plan_id":"cebpf4jnsgd1na2vs0mg"},{"bike_id":"9d715997-75c3-4ce9-8768-5eebd0cb0d57","system_id":"levelo_inurba_marseille","lat":43.303027,"lon":5.392097,"is_reserved":false,"is_disabled":false,"rental_uris":{"android":"levelo://app?vid=9d715997-75c3-4ce9-8768-5eebd0cb0d57","ios":"levelo://app?vid=9d715997-75c3-4ce9-8768-5eebd0cb0d57"},"vehicle_type_id":"4","last_reported":1725732621,"current_range_meters":0,"station_id":"ce4bgkh2rcd13ifvqbk0","pricing_plan_id":"cebpf4jnsgd1na2vs0mg"},{"bike_id":"1cea46c6-b8d6-4f72-b307-3b1c677cf95e","system_id":"levelo_inurba_marseille","lat":43.30304,"lon":5.39214,"is_reserved":false,"is_disabled":false,"rental_uris":{"android":"levelo://app?vid=1cea46c6-b8d6-4f72-b307-3b1c677cf95e","ios":"levelo://app?vid=1cea46c6-b8d6-4f72-b307-3b1c677cf95e"},"vehicle_type_id":"4","last_reported":1725732621,"current_range_meters":22400,"station_id":"","pricing_plan_id":"cebpf4jnsgd1na2vs0mg"},{"bike_id":"169d72d4-69f5-4c88-a9bb-6a02efa3fbed","system_id":"levelo_inurba_marseille","lat":43.302992,"lon":5.392136,"is_reserved":false,"is_disabled":false,"rental_uris":{"android":"levelo://app?vid=169d72d4-69f5-4c88-a9bb-6a02efa3fbed","ios":"levelo://app?vid=169d72d4-69f5-4c88-a9bb-6a02efa3fbed"},"vehicle_type_id":"4","last_reported":1725732621,"current_range_meters":800,"station_id":"ce4bgkh2rcd13ifvqbk0","pricing_plan_id":"cebpf4jnsgd1na2vs0mg"},{"bike_id":"f4d7bc4c-5a52-41d9-8d41-c636ae8ffb79","system_id":"levelo_inurba_marseille","lat":43.29368,"lon":5.37854,"is_reserved":false,"is_disabled":false,"rental_uris":{"android":"levelo://app?vid=f4d7bc4c-5a52-41d9-8d41-c636ae8ffb79","ios":"levelo://app?vid=f4d7bc4c-5a52-41d9-8d41-c636ae8ffb79"},"vehicle_type_id":"4","last_reported":1725732621,"current_range_meters":0,"station_id":"ce4bgjh2rcd13ifvqbf0","pricing_plan_id":"cebpf4jnsgd1na2vs0mg"},{"bike_id":"885efecf-a22f-4925-b664-38beac3a2690","system_id":"levelo_inurba_marseille","lat":43.29232,"lon":5.36084,"is_reserved":false,"is_disabled":false,"rental_uris":{"android":"levelo://app?vid=885efecf-a22f-4925-b664-38beac3a2690","ios":"levelo://app?vid=885efecf-a22f-4925-b664-38beac3a2690"},"vehicle_type_id":"4","last_reported":1725732621,"current_range_meters":26800,"station_id":"ce4bhbh2rcd13ifvqeqg","pricing_plan_id":"cebpf4jnsgd1na2vs0mg"},{"bike_id":"294ffa7d-826f-4cd5-aea6-72c7fc42a7ea","system_id":"levelo_inurba_marseille","lat":43.2923,"lon":5.3606,"is_reserved":false,"is_disabled":false,"rental_uris":{"android":"levelo://app?vid=294ffa7d-826f-4cd5-aea6-72c7fc42a7ea","ios":"levelo://app?vid=294ffa7d-826f-4cd5-aea6-72c7fc42a7ea"},"vehicle_type_id":"4","last_reported":1725732621,"current_range_meters":25600,"station_id":"ce4bhbh2rcd13ifvqeqg","pricing_plan_id":"cebpf4jnsgd1na2vs0mg"},{"bike_id":"019017a4-e207-4f4a-b89f-c9be18626248","system_id":"levelo_inurba_marseille","lat":43.29226,"lon":5.36079,"is_reserved":false,"is_disabled":false,"rental_uris":{"android":"levelo://app?vid=019017a4-e207-4f4a-b89f-c9be18626248","ios":"levelo://app?vid=019017a4-e207-4f4a-b89f-c9be18626248"},"vehicle_type_id":"4","last_reported":1725732621,"current_range_meters":6800,"station_id":"ce4bhbh2rcd13ifvqeqg","pricing_plan_id":"cebpf4jnsgd1na2vs0mg"},{"bike_id":"4f8dda32-78e0-4158-bb7a-0e1deb7e1997","system_id":"levelo_inurba_marseille","lat":43.29227,"lon":5.36062,"is_reserved":false,"is_disabled":false,"rental_uris":{"android":"levelo://app?vid=4f8dda32-78e0-4158-bb7a-0e1deb7e1997","ios":"levelo://app?vid=4f8dda32-78e0-4158-bb7a-0e1deb7e1997"},"vehicle_type_id":"4","last_reported":1725732621,"current_range_meters":24400,"station_id":"ce4bhbh2rcd13ifvqeqg","pricing_plan_id":"cebpf4jnsgd1na2vs0mg"},{"bike_id":"f3f8b252-3dcd-4fcc-9eac-1d15cb5b604b","system_id":"levelo_inurba_marseille","lat":43.300852,"lon":5.390859,"is_reserved":false,"is_disabled":false,"rental_uris":{"android":"levelo://app?vid=f3f8b252-3dcd-4fcc-9eac-1d15cb5b604b","ios":"levelo://app?vid=f3f8b252-3dcd-4fcc-9eac-1d15cb5b604b"},"vehicle_type_id":"4","last_reported":1725732621,"current_range_meters":27200,"station_id":"ce4bh192rcd13ifvqdb0","pricing_plan_id":"cebpf4jnsgd1na2vs0mg"},{"bike_id":"667e4fb0-4a08-4f91-8fea-279f32f00d63","system_id":"levelo_inurba_marseille","lat":43.298764,"lon":5.388973,"is_reserved":false,"is_disabled":false,"rental_uris":{"android":"levelo://app?vid=667e4fb0-4a08-4f91-8fea-279f32f00d63","ios":"levelo://app?vid=667e4fb0-4a08-4f91-8fea-279f32f00d63"},"vehicle_type_id":"4","last_reported":1725732621,"current_range_meters":10000,"station_id":"ce4bh392rcd13ifvqdl0","pricing_plan_id":"cebpf4jnsgd1na2vs0mg"},{"bike_id":"335df1e7-b383-4b7a-aca1-6d4053fa0b3b","system_id":"levelo_inurba_marseille","lat":43.291671,"lon":5.371575,"is_reserved":false,"is_disabled":false,"rental_uris":{"android":"levelo://app?vid=335df1e7-b383-4b7a-aca1-6d4053fa0b3b","ios":"levelo://app?vid=335df1e7-b383-4b7a-aca1-6d4053fa0b3b"},"vehicle_type_id":"4","last_reported":1725732621,"current_range_meters":19200,"station_id":"ce4bha92rcd13ifvqeh0","pricing_plan_id":"cebpf4jnsgd1na2vs0mg"},{"bike_id":"22c8eb6b-6f2c-4382-84f9-12e00882cbf7","system_id":"levelo_inurba_marseille","lat":43.298764,"lon":5.388973,"is_reserved":false,"is_disabled":false,"rental_uris":{"android":"levelo://app?vid=22c8eb6b-6f2c-4382-84f9-12e00882cbf7","ios":"levelo://app?vid=22c8eb6b-6f2c-4382-84f9-12e00882cbf7"},"vehicle_type_id":"4","last_reported":1725732621,"current_range_meters":9200,"station_id":"ce4bh392rcd13ifvqdl0","pricing_plan_id":"cebpf4jnsgd1na2vs0mg"},{"bike_id":"8e7a7818-36ff-4579-a6b7-baa220a105ec","system_id":"levelo_inurba_marseille","lat":43.31026,"lon":5.39601,"is_reserved":false,"is_disabled":false,"rental_uris":{"android":"levelo://app?vid=8e7a7818-36ff-4579-a6b7-baa220a105ec","ios":"levelo://app?vid=8e7a7818-36ff-4579-a6b7-baa220a105ec"},"vehicle_type_id":"4","last_reported":1725732621,"current_range_meters":0,"station_id":"","pricing_plan_id":"cebpf4jnsgd1na2vs0mg"},{"bike_id":"ee83ae0a-d461-4938-9016-a7f2c9d800ad","system_id":"levelo_inurba_marseille","lat":43.293925,"lon":5.381368,"is_reserved":false,"is_disabled":false,"rental_uris":{"android":"levelo://app?vid=ee83ae0a-d461-4938-9016-a7f2c9d800ad","ios":"levelo://app?vid=ee83ae0a-d461-4938-9016-a7f2c9d800ad"},"vehicle_type_id":"4","last_reported":1725732621,"current_range_meters":0,"station_id":"","pricing_plan_id":"cebpf4jnsgd1na2vs0mg"},{"bike_id":"38d4e185-67ab-4f41-bf5f-09e76f78fa8a","system_id":"levelo_inurba_marseille","lat":43.309047,"lon":5.396551,"is_reserved":false,"is_disabled":false,"rental_uris":{"android":"levelo://app?vid=38d4e185-67ab-4f41-bf5f-09e76f78fa8a","ios":"levelo://app?vid=38d4e185-67ab-4f41-bf5f-09e76f78fa8a"},"vehicle_type_id":"4","last_reported":1725732621,"current_range_meters":28800,"station_id":"ce4bh012rcd13ifvqcv0","pricing_plan_id":"cebpf4jnsgd1na2vs0mg"},{"bike_id":"a7bf9940-5d6d-44b2-8293-3f4d649c1007","system_id":"levelo_inurba_marseille","lat":43.292005,"lon":5.357875,"is_reserved":false,"is_disabled":false,"rental_uris":{"android":"levelo://app?vid=a7bf9940-5d6d-44b2-8293-3f4d649c1007","ios":"levelo://app?vid=a7bf9940-5d6d-44b2-8293-3f4d649c1007"},"vehicle_type_id":"4","last_reported":1725732621,"current_range_meters":11200,"station_id":"ce4bhb12rcd13ifvqel0","pricing_plan_id":"cebpf4jnsgd1na2vs0mg"},{"bike_id":"a926f2ff-bf38-49f3-8207-8cb25da3d9d6","system_id":"levelo_inurba_marseille","lat":43.29195,"lon":5.35804,"is_reserved":false,"is_disabled":false,"rental_uris":{"android":"levelo://app?vid=a926f2ff-bf38-49f3-8207-8cb25da3d9d6","ios":"levelo://app?vid=a926f2ff-bf38-49f3-8207-8cb25da3d9d6"},"vehicle_type_id":"4","last_reported":1725732621,"current_range_meters":0,"station_id":"ce4bhb12rcd13ifvqel0","pricing_plan_id":"cebpf4jnsgd1na2vs0mg"},{"bike_id":"8f5593db-e70d-4e76-8104-726155e788a7","system_id":"levelo_inurba_marseille","lat":43.31325,"lon":5.39686,"is_reserved":false,"is_disabled":false,"rental_uris":{"android":"levelo://app?vid=8f5593db-e70d-4e76-8104-726155e788a7","ios":"levelo://app?vid=8f5593db-e70d-4e76-8104-726155e788a7"},"vehicle_type_id":"4","last_reported":1725732621,"current_range_meters":6000,"station_id":"ce4bgvp2rcd13ifvqcu0","pricing_plan_id":"cebpf4jnsgd1na2vs0mg"},{"bike_id":"3450f0d6-e45a-4949-a6d3-ba92fa59d37c","system_id":"levelo_inurba_marseille","lat":43.30883,"lon":5.3964,"is_reserved":false,"is_disabled":false,"rental_uris":{"android":"levelo://app?vid=3450f0d6-e45a-4949-a6d3-ba92fa59d37c","ios":"levelo://app?vid=3450f0d6-e45a-4949-a6d3-ba92fa59d37c"},"vehicle_type_id":"4","last_reported":1725732621,"current_range_meters":0,"station_id":"ce4bh012rcd13ifvqcv0","pricing_plan_id":"cebpf4jnsgd1na2vs0mg"},{"bike_id":"a222d5ec-f780-456e-b2f7-505f59051265","system_id":"levelo_inurba_marseille","lat":43.313291,"lon":5.396838,"is_reserved":false,"is_disabled":false,"rental_uris":{"android":"levelo://app?vid=a222d5ec-f780-456e-b2f7-505f59051265","ios":"levelo://app?vid=a222d5ec-f780-456e-b2f7-505f59051265"},"vehicle_type_id":"4","last_reported":1725732621,"current_range_meters":6800,"station_id":"ce4bgvp2rcd13ifvqcu0","pricing_plan_id":"cebpf4jnsgd1na2vs0mg"},{"bike_id":"ebbb2bc6-47d0-4be5-b353-bdc314faaefa","system_id":"levelo_inurba_marseille","lat":43.309047,"lon":5.396551,"is_reserved":false,"is_disabled":false,"rental_uris":{"android":"levelo://app?vid=ebbb2bc6-47d0-4be5-b353-bdc314faaefa","ios":"levelo://app?vid=ebbb2bc6-47d0-4be5-b353-bdc314faaefa"},"vehicle_type_id":"4","last_reported":1725732621,"current_range_meters":400,"station_id":"ce4bh012rcd13ifvqcv0","pricing_plan_id":"cebpf4jnsgd1na2vs0mg"},{"bike_id":"57468330-5ca6-4211-93c6-4c9686957d3b","system_id":"levelo_inurba_marseille","lat":43.309038,"lon":5.396546,"is_reserved":false,"is_disabled":false,"rental_uris":{"android":"levelo://app?vid=57468330-5ca6-4211-93c6-4c9686957d3b","ios":"levelo://app?vid=57468330-5ca6-4211-93c6-4c9686957d3b"},"vehicle_type_id":"4","last_reported":1725732621,"current_range_meters":25600,"station_id":"ce4bh012rcd13ifvqcv0","pricing_plan_id":"cebpf4jnsgd1na2vs0mg"},{"bike_id":"aa4d2d23-765b-4239-b12e-3d8a4c012941","system_id":"levelo_inurba_marseille","lat":43.30885,"lon":5.39654,"is_reserved":false,"is_disabled":false,"rental_uris":{"android":"levelo://app?vid=aa4d2d23-765b-4239-b12e-3d8a4c012941","ios":"levelo://app?vid=aa4d2d23-765b-4239-b12e-3d8a4c012941"},"vehicle_type_id":"4","last_reported":1725732621,"current_range_meters":0,"station_id":"ce4bh012rcd13ifvqcv0","pricing_plan_id":"cebpf4jnsgd1na2vs0mg"},{"bike_id":"1ff81a4c-bb04-4924-97b2-1942c3d82159","system_id":"levelo_inurba_marseille","lat":43.309047,"lon":5.396551,"is_reserved":false,"is_disabled":false,"rental_uris":{"android":"levelo://app?vid=1ff81a4c-bb04-4924-97b2-1942c3d82159","ios":"levelo://app?vid=1ff81a4c-bb04-4924-97b2-1942c3d82159"},"vehicle_type_id":"4","last_reported":1725732621,"current_range_meters":25200,"station_id":"ce4bh012rcd13ifvqcv0","pricing_plan_id":"cebpf4jnsgd1na2vs0mg"},{"bike_id":"9e266798-13f2-4f60-924f-b15291960c9d","system_id":"levelo_inurba_marseille","lat":43.30893,"lon":5.396627,"is_reserved":false,"is_disabled":false,"rental_uris":{"android":"levelo://app?vid=9e266798-13f2-4f60-924f-b15291960c9d","ios":"levelo://app?vid=9e266798-13f2-4f60-924f-b15291960c9d"},"vehicle_type_id":"4","last_reported":1725732621,"current_range_meters":0,"station_id":"ce4bh012rcd13ifvqcv0","pricing_plan_id":"cebpf4jnsgd1na2vs0mg"},{"bike_id":"e95762e1-c43f-432a-ab95-f848a454d3af","system_id":"levelo_inurba_marseille","lat":43.309038,"lon":5.396546,"is_reserved":false,"is_disabled":false,"rental_uris":{"android":"levelo://app?vid=e95762e1-c43f-432a-ab95-f848a454d3af","ios":"levelo://app?vid=e95762e1-c43f-432a-ab95-f848a454d3af"},"vehicle_type_id":"4","last_reported":1725732621,"current_range_meters":7200,"station_id":"ce4bh012rcd13ifvqcv0","pricing_plan_id":"cebpf4jnsgd1na2vs0mg"},{"bike_id":"388a1b35-5c1c-421d-af82-52ee045c9839","system_id":"levelo_inurba_marseille","lat":43.29529,"lon":5.385581,"is_reserved":false,"is_disabled":false,"rental_uris":{"android":"levelo://app?vid=388a1b35-5c1c-421d-af82-52ee045c9839","ios":"levelo://app?vid=388a1b35-5c1c-421d-af82-52ee045c9839"},"vehicle_type_id":"4","last_reported":1725732621,"current_range_meters":0,"station_id":"ce4bgih2rcd13ifvqba0","pricing_plan_id":"cebpf4jnsgd1na2vs0mg"},{"bike_id":"78a2456b-89b9-4cef-a2c7-55eaec13e8a1","system_id":"levelo_inurba_marseille","lat":43.30883,"lon":5.39667,"is_reserved":false,"is_disabled":false,"rental_uris":{"android":"levelo://app?vid=78a2456b-89b9-4cef-a2c7-55eaec13e8a1","ios":"levelo://app?vid=78a2456b-89b9-4cef-a2c7-55eaec13e8a1"},"vehicle_type_id":"4","last_reported":1725732621,"current_range_meters":17200,"station_id":"ce4bh012rcd13ifvqcv0","pricing_plan_id":"cebpf4jnsgd1na2vs0mg"},{"bike_id":"26e11219-9842-403d-a29d-d420f2e65354","system_id":"levelo_inurba_marseille","lat":43.29529,"lon":5.385581,"is_reserved":false,"is_disabled":false,"rental_uris":{"android":"levelo://app?vid=26e11219-9842-403d-a29d-d420f2e65354","ios":"levelo://app?vid=26e11219-9842-403d-a29d-d420f2e65354"},"vehicle_type_id":"4","last_reported":1725732621,"current_range_meters":1600,"station_id":"ce4bgih2rcd13ifvqba0","pricing_plan_id":"cebpf4jnsgd1na2vs0mg"},{"bike_id":"a24819c4-6710-424f-ba63-ab1b6438b90e","system_id":"levelo_inurba_marseille","lat":43.29529,"lon":5.385581,"is_reserved":false,"is_disabled":false,"rental_uris":{"android":"levelo://app?vid=a24819c4-6710-424f-ba63-ab1b6438b90e","ios":"levelo://app?vid=a24819c4-6710-424f-ba63-ab1b6438b90e"},"vehicle_type_id":"4","last_reported":1725732621,"current_range_meters":25600,"station_id":"ce4bgih2rcd13ifvqba0","pricing_plan_id":"cebpf4jnsgd1na2vs0mg"},{"bike_id":"27563372-e953-4c1e-84ed-60aeb9e86e85","system_id":"levelo_inurba_marseille","lat":43.290779,"lon":5.371482,"is_reserved":false,"is_disabled":false,"rental_uris":{"android":"levelo://app?vid=27563372-e953-4c1e-84ed-60aeb9e86e85","ios":"levelo://app?vid=27563372-e953-4c1e-84ed-60aeb9e86e85"},"vehicle_type_id":"4","last_reported":1725732621,"current_range_meters":27600,"station_id":"ce4bh5p2rcd13ifvqe4g","pricing_plan_id":"cebpf4jnsgd1na2vs0mg"},{"bike_id":"f5a0ec59-5ec5-4b9d-93bb-15113195315a","system_id":"levelo_inurba_marseille","lat":43.290779,"lon":5.371482,"is_reserved":false,"is_disabled":false,"rental_uris":{"android":"levelo://app?vid=f5a0ec59-5ec5-4b9d-93bb-15113195315a","ios":"levelo://app?vid=f5a0ec59-5ec5-4b9d-93bb-15113195315a"},"vehicle_type_id":"4","last_reported":1725732621,"current_range_meters":30400,"station_id":"ce4bh5p2rcd13ifvqe4g","pricing_plan_id":"cebpf4jnsgd1na2vs0mg"},{"bike_id":"fb44c05a-050e-4344-83e1-3bb1829f1990","system_id":"levelo_inurba_marseille","lat":43.302008,"lon":5.394694,"is_reserved":false,"is_disabled":false,"rental_uris":{"android":"levelo://app?vid=fb44c05a-050e-4344-83e1-3bb1829f1990","ios":"levelo://app?vid=fb44c05a-050e-4344-83e1-3bb1829f1990"},"vehicle_type_id":"4","last_reported":1725732621,"current_range_meters":29200,"station_id":"ce4bh0p2rcd13ifvqd70","pricing_plan_id":"cebpf4jnsgd1na2vs0mg"},{"bike_id":"f6037659-b8fa-4c55-967b-b1de7c01748c","system_id":"levelo_inurba_marseille","lat":43.290631,"lon":5.359244,"is_reserved":false,"is_disabled":false,"rental_uris":{"android":"levelo://app?vid=f6037659-b8fa-4c55-967b-b1de7c01748c","ios":"levelo://app?vid=f6037659-b8fa-4c55-967b-b1de7c01748c"},"vehicle_type_id":"4","last_reported":1725732621,"current_range_meters":4800,"station_id":"ce4bha92rcd13ifvqeg0","pricing_plan_id":"cebpf4jnsgd1na2vs0mg"},{"bike_id":"89be04ca-e4b9-4639-b629-2d8fe59e2229","system_id":"levelo_inurba_marseille","lat":43.2904,"lon":5.375627,"is_reserved":false,"is_disabled":false,"rental_uris":{"android":"levelo://app?vid=89be04ca-e4b9-4639-b629-2d8fe59e2229","ios":"levelo://app?vid=89be04ca-e4b9-4639-b629-2d8fe59e2229"},"vehicle_type_id":"4","last_reported":1725732621,"current_range_meters":0,"station_id":"ce4bh692rcd13ifvqe90","pricing_plan_id":"cebpf4jnsgd1na2vs0mg"},{"bike_id":"60c83626-7287-4e78-81aa-bb5ba8ad813c","system_id":"levelo_inurba_marseille","lat":43.289184,"lon":5.366408,"is_reserved":false,"is_disabled":false,"rental_uris":{"android":"levelo://app?vid=60c83626-7287-4e78-81aa-bb5ba8ad813c","ios":"levelo://app?vid=60c83626-7287-4e78-81aa-bb5ba8ad813c"},"vehicle_type_id":"4","last_reported":1725732621,"current_range_meters":22400,"station_id":"ce4bhap2rcd13ifvqek0","pricing_plan_id":"cebpf4jnsgd1na2vs0mg"},{"bike_id":"22ff3451-d76a-476b-80b4-cea6515fd2c3","system_id":"levelo_inurba_marseille","lat":43.28937,"lon":5.36405,"is_reserved":false,"is_disabled":false,"rental_uris":{"android":"levelo://app?vid=22ff3451-d76a-476b-80b4-cea6515fd2c3","ios":"levelo://app?vid=22ff3451-d76a-476b-80b4-cea6515fd2c3"},"vehicle_type_id":"4","last_reported":1725732621,"current_range_meters":0,"station_id":"ce4bhc92rcd13ifvqetg","pricing_plan_id":"cebpf4jnsgd1na2vs0mg"},{"bike_id":"07ee239e-c4eb-4b2f-b2bc-7b43cdaea4d7","system_id":"levelo_inurba_marseille","lat":43.290511,"lon":5.377766,"is_reserved":false,"is_disabled":false,"rental_uris":{"android":"levelo://app?vid=07ee239e-c4eb-4b2f-b2bc-7b43cdaea4d7","ios":"levelo://app?vid=07ee239e-c4eb-4b2f-b2bc-7b43cdaea4d7"},"vehicle_type_id":"4","last_reported":1725732621,"current_range_meters":0,"station_id":"","pricing_plan_id":"cebpf4jnsgd1na2vs0mg"},{"bike_id":"7ed1c925-2ca4-4026-908a-654c9c879604","system_id":"levelo_inurba_marseille","lat":43.292644,"lon":5.384257,"is_reserved":false,"is_disabled":false,"rental_uris":{"android":"levelo://app?vid=7ed1c925-2ca4-4026-908a-654c9c879604","ios":"levelo://app?vid=7ed1c925-2ca4-4026-908a-654c9c879604"},"vehicle_type_id":"4","last_reported":1725732621,"current_range_meters":16800,"station_id":"ce4bh692rcd13ifvqea0","pricing_plan_id":"cebpf4jnsgd1na2vs0mg"},{"bike_id":"9cfbe213-4aad-426a-a6a0-e4f7782745e0","system_id":"levelo_inurba_marseille","lat":43.292642,"lon":5.384254,"is_reserved":false,"is_disabled":false,"rental_uris":{"android":"levelo://app?vid=9cfbe213-4aad-426a-a6a0-e4f7782745e0","ios":"levelo://app?vid=9cfbe213-4aad-426a-a6a0-e4f7782745e0"},"vehicle_type_id":"4","last_reported":1725732621,"current_range_meters":4800,"station_id":"ce4bh692rcd13ifvqea0","pricing_plan_id":"cebpf4jnsgd1na2vs0mg"},{"bike_id":"d37f96c2-dad1-41f5-a29f-b588de395346","system_id":"levelo_inurba_marseille","lat":43.292723,"lon":5.384385,"is_reserved":false,"is_disabled":false,"rental_uris":{"android":"levelo://app?vid=d37f96c2-dad1-41f5-a29f-b588de395346","ios":"levelo://app?vid=d37f96c2-dad1-41f5-a29f-b588de395346"},"vehicle_type_id":"4","last_reported":1725732621,"current_range_meters":9200,"station_id":"ce4bh692rcd13ifvqea0","pricing_plan_id":"cebpf4jnsgd1na2vs0mg"},{"bike_id":"03d585d1-94b6-4528-bbed-d43199c603d7","system_id":"levelo_inurba_marseille","lat":43.292642,"lon":5.384254,"is_reserved":false,"is_disabled":false,"rental_uris":{"android":"levelo://app?vid=03d585d1-94b6-4528-bbed-d43199c603d7","ios":"levelo://app?vid=03d585d1-94b6-4528-bbed-d43199c603d7"},"vehicle_type_id":"4","last_reported":1725732621,"current_range_meters":1600,"station_id":"ce4bh692rcd13ifvqea0","pricing_plan_id":"cebpf4jnsgd1na2vs0mg"},{"bike_id":"ec0c6ebb-ffae-4069-90ab-d0d298bf4c82","system_id":"levelo_inurba_marseille","lat":43.29268,"lon":5.3844,"is_reserved":false,"is_disabled":false,"rental_uris":{"android":"levelo://app?vid=ec0c6ebb-ffae-4069-90ab-d0d298bf4c82","ios":"levelo://app?vid=ec0c6ebb-ffae-4069-90ab-d0d298bf4c82"},"vehicle_type_id":"4","last_reported":1725732621,"current_range_meters":6400,"station_id":"ce4bh692rcd13ifvqea0","pricing_plan_id":"cebpf4jnsgd1na2vs0mg"},{"bike_id":"5305b2e4-d71c-4aca-95a3-7c6a2879ec00","system_id":"levelo_inurba_marseille","lat":43.292644,"lon":5.384257,"is_reserved":false,"is_disabled":false,"rental_uris":{"android":"levelo://app?vid=5305b2e4-d71c-4aca-95a3-7c6a2879ec00","ios":"levelo://app?vid=5305b2e4-d71c-4aca-95a3-7c6a2879ec00"},"vehicle_type_id":"4","last_reported":1725732621,"current_range_meters":800,"station_id":"ce4bh692rcd13ifvqea0","pricing_plan_id":"cebpf4jnsgd1na2vs0mg"},{"bike_id":"d2ce841c-51ce-4b5b-89a7-59f0d0a57041","system_id":"levelo_inurba_marseille","lat":43.29273,"lon":5.38452,"is_reserved":false,"is_disabled":false,"rental_uris":{"android":"levelo://app?vid=d2ce841c-51ce-4b5b-89a7-59f0d0a57041","ios":"levelo://app?vid=d2ce841c-51ce-4b5b-89a7-59f0d0a57041"},"vehicle_type_id":"4","last_reported":1725732621,"current_range_meters":22400,"station_id":"ce4bh692rcd13ifvqea0","pricing_plan_id":"cebpf4jnsgd1na2vs0mg"},{"bike_id":"ca034628-be26-40ad-8d41-820d6eb44131","system_id":"levelo_inurba_marseille","lat":43.304296,"lon":5.397513,"is_reserved":false,"is_disabled":false,"rental_uris":{"android":"levelo://app?vid=ca034628-be26-40ad-8d41-820d6eb44131","ios":"levelo://app?vid=ca034628-be26-40ad-8d41-820d6eb44131"},"vehicle_type_id":"4","last_reported":1725732621,"current_range_meters":4000,"station_id":"ce4bh092rcd13ifvqd20","pricing_plan_id":"cebpf4jnsgd1na2vs0mg"},{"bike_id":"7ef97bdb-0255-4301-b709-eb80c95e1963","system_id":"levelo_inurba_marseille","lat":43.292642,"lon":5.384254,"is_reserved":false,"is_disabled":false,"rental_uris":{"android":"levelo://app?vid=7ef97bdb-0255-4301-b709-eb80c95e1963","ios":"levelo://app?vid=7ef97bdb-0255-4301-b709-eb80c95e1963"},"vehicle_type_id":"4","last_reported":1725732621,"current_range_meters":16800,"station_id":"ce4bh692rcd13ifvqea0","pricing_plan_id":"cebpf4jnsgd1na2vs0mg"},{"bike_id":"c678761d-c7a5-48c8-9344-63c41110c21b","system_id":"levelo_inurba_marseille","lat":43.292642,"lon":5.384254,"is_reserved":false,"is_disabled":false,"rental_uris":{"android":"levelo://app?vid=c678761d-c7a5-48c8-9344-63c41110c21b","ios":"levelo://app?vid=c678761d-c7a5-48c8-9344-63c41110c21b"},"vehicle_type_id":"4","last_reported":1725732621,"current_range_meters":2400,"station_id":"ce4bh692rcd13ifvqea0","pricing_plan_id":"cebpf4jnsgd1na2vs0mg"},{"bike_id":"1649a515-1dc7-44a1-8b8c-10d085d8a411","system_id":"levelo_inurba_marseille","lat":43.292642,"lon":5.384254,"is_reserved":false,"is_disabled":false,"rental_uris":{"android":"levelo://app?vid=1649a515-1dc7-44a1-8b8c-10d085d8a411","ios":"levelo://app?vid=1649a515-1dc7-44a1-8b8c-10d085d8a411"},"vehicle_type_id":"4","last_reported":1725732621,"current_range_meters":0,"station_id":"ce4bh692rcd13ifvqea0","pricing_plan_id":"cebpf4jnsgd1na2vs0mg"},{"bike_id":"985df896-8a93-4898-8dd2-61ed34889971","system_id":"levelo_inurba_marseille","lat":43.29265,"lon":5.38444,"is_reserved":false,"is_disabled":false,"rental_uris":{"android":"levelo://app?vid=985df896-8a93-4898-8dd2-61ed34889971","ios":"levelo://app?vid=985df896-8a93-4898-8dd2-61ed34889971"},"vehicle_type_id":"4","last_reported":1725732621,"current_range_meters":7600,"station_id":"ce4bh692rcd13ifvqea0","pricing_plan_id":"cebpf4jnsgd1na2vs0mg"},{"bike_id":"cac1d84b-6f3d-456d-b79d-76b7af26ef0d","system_id":"levelo_inurba_marseille","lat":43.29263,"lon":5.38445,"is_reserved":false,"is_disabled":false,"rental_uris":{"android":"levelo://app?vid=cac1d84b-6f3d-456d-b79d-76b7af26ef0d","ios":"levelo://app?vid=cac1d84b-6f3d-456d-b79d-76b7af26ef0d"},"vehicle_type_id":"4","last_reported":1725732621,"current_range_meters":0,"station_id":"ce4bh692rcd13ifvqea0","pricing_plan_id":"cebpf4jnsgd1na2vs0mg"},{"bike_id":"097ccb38-910f-4361-899d-361e4e2db932","system_id":"levelo_inurba_marseille","lat":43.29261,"lon":5.38442,"is_reserved":false,"is_disabled":false,"rental_uris":{"android":"levelo://app?vid=097ccb38-910f-4361-899d-361e4e2db932","ios":"levelo://app?vid=097ccb38-910f-4361-899d-361e4e2db932"},"vehicle_type_id":"4","last_reported":1725732621,"current_range_meters":17200,"station_id":"ce4bh692rcd13ifvqea0","pricing_plan_id":"cebpf4jnsgd1na2vs0mg"},{"bike_id":"5858dcd4-4ed2-48aa-b245-3390ea1b093e","system_id":"levelo_inurba_marseille","lat":43.292644,"lon":5.384257,"is_reserved":false,"is_disabled":false,"rental_uris":{"android":"levelo://app?vid=5858dcd4-4ed2-48aa-b245-3390ea1b093e","ios":"levelo://app?vid=5858dcd4-4ed2-48aa-b245-3390ea1b093e"},"vehicle_type_id":"4","last_reported":1725732621,"current_range_meters":4400,"station_id":"ce4bh692rcd13ifvqea0","pricing_plan_id":"cebpf4jnsgd1na2vs0mg"},{"bike_id":"4bce8fa7-38fe-4585-8da9-35498ad4ec99","system_id":"levelo_inurba_marseille","lat":43.29259,"lon":5.3844,"is_reserved":false,"is_disabled":false,"rental_uris":{"android":"levelo://app?vid=4bce8fa7-38fe-4585-8da9-35498ad4ec99","ios":"levelo://app?vid=4bce8fa7-38fe-4585-8da9-35498ad4ec99"},"vehicle_type_id":"4","last_reported":1725732621,"current_range_meters":0,"station_id":"ce4bh692rcd13ifvqea0","pricing_plan_id":"cebpf4jnsgd1na2vs0mg"},{"bike_id":"2824188c-27dd-4aa1-89ea-9e1c788d1f3a","system_id":"levelo_inurba_marseille","lat":43.29008,"lon":5.3562,"is_reserved":false,"is_disabled":false,"rental_uris":{"android":"levelo://app?vid=2824188c-27dd-4aa1-89ea-9e1c788d1f3a","ios":"levelo://app?vid=2824188c-27dd-4aa1-89ea-9e1c788d1f3a"},"vehicle_type_id":"4","last_reported":1725732621,"current_range_meters":0,"station_id":"ce4bhb92rcd13ifvqen0","pricing_plan_id":"cebpf4jnsgd1na2vs0mg"},{"bike_id":"c3d4a7eb-2f12-4f5a-a0d4-0cc56ba41186","system_id":"levelo_inurba_marseille","lat":43.29005,"lon":5.35621,"is_reserved":false,"is_disabled":false,"rental_uris":{"android":"levelo://app?vid=c3d4a7eb-2f12-4f5a-a0d4-0cc56ba41186","ios":"levelo://app?vid=c3d4a7eb-2f12-4f5a-a0d4-0cc56ba41186"},"vehicle_type_id":"4","last_reported":1725732621,"current_range_meters":2400,"station_id":"ce4bhb92rcd13ifvqen0","pricing_plan_id":"cebpf4jnsgd1na2vs0mg"},{"bike_id":"18c5addf-dbba-43df-a696-b0cf904e7c96","system_id":"levelo_inurba_marseille","lat":43.28993,"lon":5.35583,"is_reserved":false,"is_disabled":false,"rental_uris":{"android":"levelo://app?vid=18c5addf-dbba-43df-a696-b0cf904e7c96","ios":"levelo://app?vid=18c5addf-dbba-43df-a696-b0cf904e7c96"},"vehicle_type_id":"4","last_reported":1725732621,"current_range_meters":5200,"station_id":"","pricing_plan_id":"cebpf4jnsgd1na2vs0mg"},{"bike_id":"9c89bdb0-eb8a-413c-a63b-736dc9fab545","system_id":"levelo_inurba_marseille","lat":43.330442,"lon":5.389148,"is_reserved":false,"is_disabled":false,"rental_uris":{"android":"levelo://app?vid=9c89bdb0-eb8a-413c-a63b-736dc9fab545","ios":"levelo://app?vid=9c89bdb0-eb8a-413c-a63b-736dc9fab545"},"vehicle_type_id":"4","last_reported":1725732621,"current_range_meters":400,"station_id":"ce4bhr92rcd13ifvqhrg","pricing_plan_id":"cebpf4jnsgd1na2vs0mg"},{"bike_id":"592badcd-e1ce-47f0-bbd1-9b9b992d7f1d","system_id":"levelo_inurba_marseille","lat":43.297815,"lon":5.393548,"is_reserved":false,"is_disabled":false,"rental_uris":{"android":"levelo://app?vid=592badcd-e1ce-47f0-bbd1-9b9b992d7f1d","ios":"levelo://app?vid=592badcd-e1ce-47f0-bbd1-9b9b992d7f1d"},"vehicle_type_id":"4","last_reported":1725732621,"current_range_meters":20800,"station_id":"chh1huq6cuj3fo74tm60","pricing_plan_id":"cebpf4jnsgd1na2vs0mg"},{"bike_id":"5a8403ba-e58f-4f20-83c7-6e47faa7d8fa","system_id":"levelo_inurba_marseille","lat":43.28867,"lon":5.36109,"is_reserved":false,"is_disabled":false,"rental_uris":{"android":"levelo://app?vid=5a8403ba-e58f-4f20-83c7-6e47faa7d8fa","ios":"levelo://app?vid=5a8403ba-e58f-4f20-83c7-6e47faa7d8fa"},"vehicle_type_id":"4","last_reported":1725732621,"current_range_meters":13600,"station_id":"","pricing_plan_id":"cebpf4jnsgd1na2vs0mg"},{"bike_id":"2fe461a8-7685-4c2d-a1a2-f19d32894f26","system_id":"levelo_inurba_marseille","lat":43.295169,"lon":5.390426,"is_reserved":false,"is_disabled":false,"rental_uris":{"android":"levelo://app?vid=2fe461a8-7685-4c2d-a1a2-f19d32894f26","ios":"levelo://app?vid=2fe461a8-7685-4c2d-a1a2-f19d32894f26"},"vehicle_type_id":"4","last_reported":1725732621,"current_range_meters":9200,"station_id":"ce4bh3p2rcd13ifvqdp0","pricing_plan_id":"cebpf4jnsgd1na2vs0mg"},{"bike_id":"b13dd4eb-4fd2-4af0-82ce-a1e8dd9e3aa1","system_id":"levelo_inurba_marseille","lat":43.330442,"lon":5.389148,"is_reserved":false,"is_disabled":false,"rental_uris":{"android":"levelo://app?vid=b13dd4eb-4fd2-4af0-82ce-a1e8dd9e3aa1","ios":"levelo://app?vid=b13dd4eb-4fd2-4af0-82ce-a1e8dd9e3aa1"},"vehicle_type_id":"4","last_reported":1725732621,"current_range_meters":30400,"station_id":"ce4bhr92rcd13ifvqhrg","pricing_plan_id":"cebpf4jnsgd1na2vs0mg"},{"bike_id":"a088ed51-7095-4de3-85d8-0d8233237337","system_id":"levelo_inurba_marseille","lat":43.295169,"lon":5.390426,"is_reserved":false,"is_disabled":false,"rental_uris":{"android":"levelo://app?vid=a088ed51-7095-4de3-85d8-0d8233237337","ios":"levelo://app?vid=a088ed51-7095-4de3-85d8-0d8233237337"},"vehicle_type_id":"4","last_reported":1725732621,"current_range_meters":11600,"station_id":"ce4bh3p2rcd13ifvqdp0","pricing_plan_id":"cebpf4jnsgd1na2vs0mg"},{"bike_id":"f04bd275-ec11-4ef1-b3b2-15d2abbede83","system_id":"levelo_inurba_marseille","lat":43.310645,"lon":5.400571,"is_reserved":false,"is_disabled":false,"rental_uris":{"android":"levelo://app?vid=f04bd275-ec11-4ef1-b3b2-15d2abbede83","ios":"levelo://app?vid=f04bd275-ec11-4ef1-b3b2-15d2abbede83"},"vehicle_type_id":"4","last_reported":1725732621,"current_range_meters":15200,"station_id":"","pricing_plan_id":"cebpf4jnsgd1na2vs0mg"},{"bike_id":"b1f7f0b7-11bf-4767-b4e5-16daa41aff24","system_id":"levelo_inurba_marseille","lat":43.330442,"lon":5.389148,"is_reserved":false,"is_disabled":false,"rental_uris":{"android":"levelo://app?vid=b1f7f0b7-11bf-4767-b4e5-16daa41aff24","ios":"levelo://app?vid=b1f7f0b7-11bf-4767-b4e5-16daa41aff24"},"vehicle_type_id":"4","last_reported":1725732621,"current_range_meters":31200,"station_id":"ce4bhr92rcd13ifvqhrg","pricing_plan_id":"cebpf4jnsgd1na2vs0mg"},{"bike_id":"49251aaf-dc62-4be1-a747-04a88d97e7fc","system_id":"levelo_inurba_marseille","lat":43.330442,"lon":5.389148,"is_reserved":false,"is_disabled":false,"rental_uris":{"android":"levelo://app?vid=49251aaf-dc62-4be1-a747-04a88d97e7fc","ios":"levelo://app?vid=49251aaf-dc62-4be1-a747-04a88d97e7fc"},"vehicle_type_id":"4","last_reported":1725732621,"current_range_meters":1600,"station_id":"ce4bhr92rcd13ifvqhrg","pricing_plan_id":"cebpf4jnsgd1na2vs0mg"},{"bike_id":"40565d8c-4159-4883-b3f0-28e961f6be9e","system_id":"levelo_inurba_marseille","lat":43.337187,"lon":5.357678,"is_reserved":false,"is_disabled":false,"rental_uris":{"android":"levelo://app?vid=40565d8c-4159-4883-b3f0-28e961f6be9e","ios":"levelo://app?vid=40565d8c-4159-4883-b3f0-28e961f6be9e"},"vehicle_type_id":"4","last_reported":1725732621,"current_range_meters":15600,"station_id":"","pricing_plan_id":"cebpf4jnsgd1na2vs0mg"},{"bike_id":"3f3244df-bee4-4437-b2a1-ab9135c8e39a","system_id":"levelo_inurba_marseille","lat":43.33755,"lon":5.37455,"is_reserved":false,"is_disabled":false,"rental_uris":{"android":"levelo://app?vid=3f3244df-bee4-4437-b2a1-ab9135c8e39a","ios":"levelo://app?vid=3f3244df-bee4-4437-b2a1-ab9135c8e39a"},"vehicle_type_id":"4","last_reported":1725732621,"current_range_meters":19200,"station_id":"","pricing_plan_id":"cebpf4jnsgd1na2vs0mg"},{"bike_id":"45985ff5-fc75-4626-9a62-c7067a0f7ca9","system_id":"levelo_inurba_marseille","lat":43.337553,"lon":5.374573,"is_reserved":false,"is_disabled":false,"rental_uris":{"android":"levelo://app?vid=45985ff5-fc75-4626-9a62-c7067a0f7ca9","ios":"levelo://app?vid=45985ff5-fc75-4626-9a62-c7067a0f7ca9"},"vehicle_type_id":"4","last_reported":1725732621,"current_range_meters":31200,"station_id":"ce4bhr92rcd13ifvqhrg","pricing_plan_id":"cebpf4jnsgd1na2vs0mg"},{"bike_id":"39f5af82-2d9d-49b5-9de0-0477144a0224","system_id":"levelo_inurba_marseille","lat":43.33756,"lon":5.37457,"is_reserved":false,"is_disabled":false,"rental_uris":{"android":"levelo://app?vid=39f5af82-2d9d-49b5-9de0-0477144a0224","ios":"levelo://app?vid=39f5af82-2d9d-49b5-9de0-0477144a0224"},"vehicle_type_id":"4","last_reported":1725732621,"current_range_meters":22400,"station_id":"","pricing_plan_id":"cebpf4jnsgd1na2vs0mg"},{"bike_id":"f976b7c7-2612-4eb0-8a2f-0cd7420197ad","system_id":"levelo_inurba_marseille","lat":43.30642,"lon":5.401031,"is_reserved":false,"is_disabled":false,"rental_uris":{"android":"levelo://app?vid=f976b7c7-2612-4eb0-8a2f-0cd7420197ad","ios":"levelo://app?vid=f976b7c7-2612-4eb0-8a2f-0cd7420197ad"},"vehicle_type_id":"4","last_reported":1725732621,"current_range_meters":4800,"station_id":"ce4bh112rcd13ifvqda0","pricing_plan_id":"cebpf4jnsgd1na2vs0mg"},{"bike_id":"d0800a01-1631-4119-8c44-31b581c34375","system_id":"levelo_inurba_marseille","lat":43.301117,"lon":5.398795,"is_reserved":false,"is_disabled":false,"rental_uris":{"android":"levelo://app?vid=d0800a01-1631-4119-8c44-31b581c34375","ios":"levelo://app?vid=d0800a01-1631-4119-8c44-31b581c34375"},"vehicle_type_id":"4","last_reported":1725732621,"current_range_meters":400,"station_id":"ce4bh0h2rcd13ifvqd40","pricing_plan_id":"cebpf4jnsgd1na2vs0mg"},{"bike_id":"ca503df1-d24c-43e5-99d4-5af6aa64cf5f","system_id":"levelo_inurba_marseille","lat":43.30192,"lon":5.399147,"is_reserved":false,"is_disabled":false,"rental_uris":{"android":"levelo://app?vid=ca503df1-d24c-43e5-99d4-5af6aa64cf5f","ios":"levelo://app?vid=ca503df1-d24c-43e5-99d4-5af6aa64cf5f"},"vehicle_type_id":"4","last_reported":1725732621,"current_range_meters":0,"station_id":"","pricing_plan_id":"cebpf4jnsgd1na2vs0mg"},{"bike_id":"ed823c16-14dc-43b2-b0ad-37a815d54932","system_id":"levelo_inurba_marseille","lat":43.28727,"lon":5.36078,"is_reserved":false,"is_disabled":false,"rental_uris":{"android":"levelo://app?vid=ed823c16-14dc-43b2-b0ad-37a815d54932","ios":"levelo://app?vid=ed823c16-14dc-43b2-b0ad-37a815d54932"},"vehicle_type_id":"4","last_reported":1725732621,"current_range_meters":13200,"station_id":"cki0cbj6b192h4jlfktg","pricing_plan_id":"cebpf4jnsgd1na2vs0mg"},{"bike_id":"68dd369a-9b61-430b-a64a-0bbecb2680ad","system_id":"levelo_inurba_marseille","lat":43.28727,"lon":5.36078,"is_reserved":false,"is_disabled":false,"rental_uris":{"android":"levelo://app?vid=68dd369a-9b61-430b-a64a-0bbecb2680ad","ios":"levelo://app?vid=68dd369a-9b61-430b-a64a-0bbecb2680ad"},"vehicle_type_id":"4","last_reported":1725732621,"current_range_meters":24000,"station_id":"cki0cbj6b192h4jlfktg","pricing_plan_id":"cebpf4jnsgd1na2vs0mg"},{"bike_id":"5d42c232-5de1-4098-bdaf-cbdcae6e9d6f","system_id":"levelo_inurba_marseille","lat":43.290342,"lon":5.386464,"is_reserved":false,"is_disabled":false,"rental_uris":{"android":"levelo://app?vid=5d42c232-5de1-4098-bdaf-cbdcae6e9d6f","ios":"levelo://app?vid=5d42c232-5de1-4098-bdaf-cbdcae6e9d6f"},"vehicle_type_id":"4","last_reported":1725732621,"current_range_meters":0,"station_id":"ce4bh4p2rcd13ifvqe0g","pricing_plan_id":"cebpf4jnsgd1na2vs0mg"},{"bike_id":"81f65d19-73fe-408b-896a-7795e1211866","system_id":"levelo_inurba_marseille","lat":43.289307,"lon":5.38406,"is_reserved":false,"is_disabled":false,"rental_uris":{"android":"levelo://app?vid=81f65d19-73fe-408b-896a-7795e1211866","ios":"levelo://app?vid=81f65d19-73fe-408b-896a-7795e1211866"},"vehicle_type_id":"4","last_reported":1725732621,"current_range_meters":0,"station_id":"ce4bh612rcd13ifvqe6g","pricing_plan_id":"cebpf4jnsgd1na2vs0mg"},{"bike_id":"7e3badf4-114a-467e-aee1-506531514660","system_id":"levelo_inurba_marseille","lat":43.290336,"lon":5.386425,"is_reserved":false,"is_disabled":false,"rental_uris":{"android":"levelo://app?vid=7e3badf4-114a-467e-aee1-506531514660","ios":"levelo://app?vid=7e3badf4-114a-467e-aee1-506531514660"},"vehicle_type_id":"4","last_reported":1725732621,"current_range_meters":0,"station_id":"ce4bh4p2rcd13ifvqe0g","pricing_plan_id":"cebpf4jnsgd1na2vs0mg"},{"bike_id":"d224edb4-c2e4-40f4-a345-15124a8ea6f4","system_id":"levelo_inurba_marseille","lat":43.29028,"lon":5.38654,"is_reserved":false,"is_disabled":false,"rental_uris":{"android":"levelo://app?vid=d224edb4-c2e4-40f4-a345-15124a8ea6f4","ios":"levelo://app?vid=d224edb4-c2e4-40f4-a345-15124a8ea6f4"},"vehicle_type_id":"4","last_reported":1725732621,"current_range_meters":13600,"station_id":"ce4bh4p2rcd13ifvqe0g","pricing_plan_id":"cebpf4jnsgd1na2vs0mg"},{"bike_id":"b7f2e718-5ae1-4ebf-91e3-3c778012567c","system_id":"levelo_inurba_marseille","lat":43.302759,"lon":5.400793,"is_reserved":false,"is_disabled":false,"rental_uris":{"android":"levelo://app?vid=b7f2e718-5ae1-4ebf-91e3-3c778012567c","ios":"levelo://app?vid=b7f2e718-5ae1-4ebf-91e3-3c778012567c"},"vehicle_type_id":"4","last_reported":1725732621,"current_range_meters":19600,"station_id":"ce4bgvh2rcd13ifvqcs0","pricing_plan_id":"cebpf4jnsgd1na2vs0mg"},{"bike_id":"67c374cb-e445-40ae-a691-1e143c42874d","system_id":"levelo_inurba_marseille","lat":43.2861,"lon":5.37073,"is_reserved":false,"is_disabled":false,"rental_uris":{"android":"levelo://app?vid=67c374cb-e445-40ae-a691-1e143c42874d","ios":"levelo://app?vid=67c374cb-e445-40ae-a691-1e143c42874d"},"vehicle_type_id":"4","last_reported":1725732621,"current_range_meters":2800,"station_id":"ce4bht12rcd13ifvqi60","pricing_plan_id":"cebpf4jnsgd1na2vs0mg"},{"bike_id":"b3b5d2e9-6685-48c2-a45a-6d91af89ba1a","system_id":"levelo_inurba_marseille","lat":43.286039,"lon":5.370679,"is_reserved":false,"is_disabled":false,"rental_uris":{"android":"levelo://app?vid=b3b5d2e9-6685-48c2-a45a-6d91af89ba1a","ios":"levelo://app?vid=b3b5d2e9-6685-48c2-a45a-6d91af89ba1a"},"vehicle_type_id":"4","last_reported":1725732621,"current_range_meters":9200,"station_id":"ce4bht12rcd13ifvqi60","pricing_plan_id":"cebpf4jnsgd1na2vs0mg"},{"bike_id":"a251c9de-d677-4c9e-8a9a-4d88fe9e7ac7","system_id":"levelo_inurba_marseille","lat":43.284534,"lon":5.358662,"is_reserved":false,"is_disabled":false,"rental_uris":{"android":"levelo://app?vid=a251c9de-d677-4c9e-8a9a-4d88fe9e7ac7","ios":"levelo://app?vid=a251c9de-d677-4c9e-8a9a-4d88fe9e7ac7"},"vehicle_type_id":"4","last_reported":1725732621,"current_range_meters":11200,"station_id":"ce4bhah2rcd13ifvqei0","pricing_plan_id":"cebpf4jnsgd1na2vs0mg"},{"bike_id":"c040cb34-4bd9-46c5-a153-caad3c29dbf2","system_id":"levelo_inurba_marseille","lat":43.284534,"lon":5.358662,"is_reserved":false,"is_disabled":false,"rental_uris":{"android":"levelo://app?vid=c040cb34-4bd9-46c5-a153-caad3c29dbf2","ios":"levelo://app?vid=c040cb34-4bd9-46c5-a153-caad3c29dbf2"},"vehicle_type_id":"4","last_reported":1725732621,"current_range_meters":0,"station_id":"ce4bhah2rcd13ifvqei0","pricing_plan_id":"cebpf4jnsgd1na2vs0mg"},{"bike_id":"9c1e14e2-95c3-4669-9b82-69063f45aad2","system_id":"levelo_inurba_marseille","lat":43.284538,"lon":5.358657,"is_reserved":false,"is_disabled":false,"rental_uris":{"android":"levelo://app?vid=9c1e14e2-95c3-4669-9b82-69063f45aad2","ios":"levelo://app?vid=9c1e14e2-95c3-4669-9b82-69063f45aad2"},"vehicle_type_id":"4","last_reported":1725732621,"current_range_meters":0,"station_id":"ce4bhah2rcd13ifvqei0","pricing_plan_id":"cebpf4jnsgd1na2vs0mg"},{"bike_id":"c1057b6b-0565-4f20-9e5d-93a488992e9d","system_id":"levelo_inurba_marseille","lat":43.294314,"lon":5.397498,"is_reserved":false,"is_disabled":false,"rental_uris":{"android":"levelo://app?vid=c1057b6b-0565-4f20-9e5d-93a488992e9d","ios":"levelo://app?vid=c1057b6b-0565-4f20-9e5d-93a488992e9d"},"vehicle_type_id":"4","last_reported":1725732621,"current_range_meters":24800,"station_id":"ce4bh3h2rcd13ifvqdo0","pricing_plan_id":"cebpf4jnsgd1na2vs0mg"},{"bike_id":"79422179-e5d5-4dec-adf2-25b1865dca4a","system_id":"levelo_inurba_marseille","lat":43.294314,"lon":5.397498,"is_reserved":false,"is_disabled":false,"rental_uris":{"android":"levelo://app?vid=79422179-e5d5-4dec-adf2-25b1865dca4a","ios":"levelo://app?vid=79422179-e5d5-4dec-adf2-25b1865dca4a"},"vehicle_type_id":"4","last_reported":1725732621,"current_range_meters":26000,"station_id":"ce4bh3h2rcd13ifvqdo0","pricing_plan_id":"cebpf4jnsgd1na2vs0mg"},{"bike_id":"87d210b1-8560-4656-9bcf-323898357391","system_id":"levelo_inurba_marseille","lat":43.303256,"lon":5.404389,"is_reserved":false,"is_disabled":false,"rental_uris":{"android":"levelo://app?vid=87d210b1-8560-4656-9bcf-323898357391","ios":"levelo://app?vid=87d210b1-8560-4656-9bcf-323898357391"},"vehicle_type_id":"4","last_reported":1725732621,"current_range_meters":0,"station_id":"ce4bh012rcd13ifvqd10","pricing_plan_id":"cebpf4jnsgd1na2vs0mg"},{"bike_id":"a1cda6a3-4ee5-4654-8ee3-c882772be120","system_id":"levelo_inurba_marseille","lat":43.303256,"lon":5.404389,"is_reserved":false,"is_disabled":false,"rental_uris":{"android":"levelo://app?vid=a1cda6a3-4ee5-4654-8ee3-c882772be120","ios":"levelo://app?vid=a1cda6a3-4ee5-4654-8ee3-c882772be120"},"vehicle_type_id":"4","last_reported":1725732621,"current_range_meters":0,"station_id":"ce4bh012rcd13ifvqd10","pricing_plan_id":"cebpf4jnsgd1na2vs0mg"},{"bike_id":"1f0bb9d0-bc21-477b-b23d-75997e5cf81d","system_id":"levelo_inurba_marseille","lat":43.30318,"lon":5.40451,"is_reserved":false,"is_disabled":false,"rental_uris":{"android":"levelo://app?vid=1f0bb9d0-bc21-477b-b23d-75997e5cf81d","ios":"levelo://app?vid=1f0bb9d0-bc21-477b-b23d-75997e5cf81d"},"vehicle_type_id":"4","last_reported":1725732621,"current_range_meters":10000,"station_id":"","pricing_plan_id":"cebpf4jnsgd1na2vs0mg"},{"bike_id":"d8fa978e-e99f-4a2f-9e20-dac130594d9b","system_id":"levelo_inurba_marseille","lat":43.28616,"lon":5.35106,"is_reserved":false,"is_disabled":false,"rental_uris":{"android":"levelo://app?vid=d8fa978e-e99f-4a2f-9e20-dac130594d9b","ios":"levelo://app?vid=d8fa978e-e99f-4a2f-9e20-dac130594d9b"},"vehicle_type_id":"4","last_reported":1725732621,"current_range_meters":0,"station_id":"ce4bhch2rcd13ifvqeug","pricing_plan_id":"cebpf4jnsgd1na2vs0mg"},{"bike_id":"4c7e25b4-cdeb-4e91-96ac-a2cfc4e4ea0c","system_id":"levelo_inurba_marseille","lat":43.29583,"lon":5.39961,"is_reserved":false,"is_disabled":false,"rental_uris":{"android":"levelo://app?vid=4c7e25b4-cdeb-4e91-96ac-a2cfc4e4ea0c","ios":"levelo://app?vid=4c7e25b4-cdeb-4e91-96ac-a2cfc4e4ea0c"},"vehicle_type_id":"4","last_reported":1725732621,"current_range_meters":2800,"station_id":"ce4bh312rcd13ifvqdj0","pricing_plan_id":"cebpf4jnsgd1na2vs0mg"},{"bike_id":"8d65425a-7fcf-4724-97dd-e5d5cac7aa1c","system_id":"levelo_inurba_marseille","lat":43.295713,"lon":5.399639,"is_reserved":false,"is_disabled":false,"rental_uris":{"android":"levelo://app?vid=8d65425a-7fcf-4724-97dd-e5d5cac7aa1c","ios":"levelo://app?vid=8d65425a-7fcf-4724-97dd-e5d5cac7aa1c"},"vehicle_type_id":"4","last_reported":1725732621,"current_range_meters":2400,"station_id":"ce4bh312rcd13ifvqdj0","pricing_plan_id":"cebpf4jnsgd1na2vs0mg"},{"bike_id":"c640d57b-88f5-4544-8bee-34315901629f","system_id":"levelo_inurba_marseille","lat":43.295713,"lon":5.399639,"is_reserved":false,"is_disabled":false,"rental_uris":{"android":"levelo://app?vid=c640d57b-88f5-4544-8bee-34315901629f","ios":"levelo://app?vid=c640d57b-88f5-4544-8bee-34315901629f"},"vehicle_type_id":"4","last_reported":1725732621,"current_range_meters":0,"station_id":"ce4bh312rcd13ifvqdj0","pricing_plan_id":"cebpf4jnsgd1na2vs0mg"},{"bike_id":"15c49a71-f178-4bad-ba91-3c6cca02368b","system_id":"levelo_inurba_marseille","lat":43.299658,"lon":5.40312,"is_reserved":false,"is_disabled":false,"rental_uris":{"android":"levelo://app?vid=15c49a71-f178-4bad-ba91-3c6cca02368b","ios":"levelo://app?vid=15c49a71-f178-4bad-ba91-3c6cca02368b"},"vehicle_type_id":"4","last_reported":1725732621,"current_range_meters":13200,"station_id":"","pricing_plan_id":"cebpf4jnsgd1na2vs0mg"},{"bike_id":"262dd79e-113d-4635-aa6f-0fcd60019050","system_id":"levelo_inurba_marseille","lat":43.286595,"lon":5.386795,"is_reserved":false,"is_disabled":false,"rental_uris":{"android":"levelo://app?vid=262dd79e-113d-4635-aa6f-0fcd60019050","ios":"levelo://app?vid=262dd79e-113d-4635-aa6f-0fcd60019050"},"vehicle_type_id":"4","last_reported":1725732621,"current_range_meters":22000,"station_id":"ce4bh492rcd13ifvqdug","pricing_plan_id":"cebpf4jnsgd1na2vs0mg"},{"bike_id":"5fed1784-3952-482e-ac58-405868f201b1","system_id":"levelo_inurba_marseille","lat":43.31892,"lon":5.40734,"is_reserved":false,"is_disabled":false,"rental_uris":{"android":"levelo://app?vid=5fed1784-3952-482e-ac58-405868f201b1","ios":"levelo://app?vid=5fed1784-3952-482e-ac58-405868f201b1"},"vehicle_type_id":"4","last_reported":1725732621,"current_range_meters":0,"station_id":"ce4bhq12rcd13ifvqhig","pricing_plan_id":"cebpf4jnsgd1na2vs0mg"},{"bike_id":"22319264-202e-4806-983c-37df616ab8d5","system_id":"levelo_inurba_marseille","lat":43.33717,"lon":5.391857,"is_reserved":false,"is_disabled":false,"rental_uris":{"android":"levelo://app?vid=22319264-202e-4806-983c-37df616ab8d5","ios":"levelo://app?vid=22319264-202e-4806-983c-37df616ab8d5"},"vehicle_type_id":"4","last_reported":1725732621,"current_range_meters":16000,"station_id":"ce4bhr92rcd13ifvqhsg","pricing_plan_id":"cebpf4jnsgd1na2vs0mg"},{"bike_id":"f7fdfa5c-9566-46b5-b949-6fe9b6b3246e","system_id":"levelo_inurba_marseille","lat":43.33717,"lon":5.391857,"is_reserved":false,"is_disabled":false,"rental_uris":{"android":"levelo://app?vid=f7fdfa5c-9566-46b5-b949-6fe9b6b3246e","ios":"levelo://app?vid=f7fdfa5c-9566-46b5-b949-6fe9b6b3246e"},"vehicle_type_id":"4","last_reported":1725732621,"current_range_meters":27600,"station_id":"ce4bhr92rcd13ifvqhsg","pricing_plan_id":"cebpf4jnsgd1na2vs0mg"},{"bike_id":"de21396b-b0cd-4092-95f9-5f89e228f9f1","system_id":"levelo_inurba_marseille","lat":43.33717,"lon":5.391857,"is_reserved":false,"is_disabled":false,"rental_uris":{"android":"levelo://app?vid=de21396b-b0cd-4092-95f9-5f89e228f9f1","ios":"levelo://app?vid=de21396b-b0cd-4092-95f9-5f89e228f9f1"},"vehicle_type_id":"4","last_reported":1725732621,"current_range_meters":24000,"station_id":"ce4bhr92rcd13ifvqhsg","pricing_plan_id":"cebpf4jnsgd1na2vs0mg"},{"bike_id":"d6d947e6-4b67-4868-b3f0-ad3387467d99","system_id":"levelo_inurba_marseille","lat":43.323464,"lon":5.406297,"is_reserved":false,"is_disabled":false,"rental_uris":{"android":"levelo://app?vid=d6d947e6-4b67-4868-b3f0-ad3387467d99","ios":"levelo://app?vid=d6d947e6-4b67-4868-b3f0-ad3387467d99"},"vehicle_type_id":"4","last_reported":1725732621,"current_range_meters":20800,"station_id":"ce4bhq92rcd13ifvqhjg","pricing_plan_id":"cebpf4jnsgd1na2vs0mg"},{"bike_id":"f404c996-4a18-4ead-b76e-f83a7e6f20f8","system_id":"levelo_inurba_marseille","lat":43.284793,"lon":5.384119,"is_reserved":false,"is_disabled":false,"rental_uris":{"android":"levelo://app?vid=f404c996-4a18-4ead-b76e-f83a7e6f20f8","ios":"levelo://app?vid=f404c996-4a18-4ead-b76e-f83a7e6f20f8"},"vehicle_type_id":"4","last_reported":1725732621,"current_range_meters":29200,"station_id":"ce4bh512rcd13ifvqe3g","pricing_plan_id":"cebpf4jnsgd1na2vs0mg"},{"bike_id":"d60e3047-f15a-4942-af13-d423911313c4","system_id":"levelo_inurba_marseille","lat":43.2847,"lon":5.38418,"is_reserved":false,"is_disabled":false,"rental_uris":{"android":"levelo://app?vid=d60e3047-f15a-4942-af13-d423911313c4","ios":"levelo://app?vid=d60e3047-f15a-4942-af13-d423911313c4"},"vehicle_type_id":"4","last_reported":1725732621,"current_range_meters":0,"station_id":"ce4bh512rcd13ifvqe3g","pricing_plan_id":"cebpf4jnsgd1na2vs0mg"},{"bike_id":"874729c8-806c-4e94-b16b-477fcbf9ad90","system_id":"levelo_inurba_marseille","lat":43.319179,"lon":5.407725,"is_reserved":false,"is_disabled":false,"rental_uris":{"android":"levelo://app?vid=874729c8-806c-4e94-b16b-477fcbf9ad90","ios":"levelo://app?vid=874729c8-806c-4e94-b16b-477fcbf9ad90"},"vehicle_type_id":"4","last_reported":1725732621,"current_range_meters":0,"station_id":"ce4bhq12rcd13ifvqhig","pricing_plan_id":"cebpf4jnsgd1na2vs0mg"},{"bike_id":"01f5e359-16c8-4f52-a909-b858fda33332","system_id":"levelo_inurba_marseille","lat":43.288501,"lon":5.393087,"is_reserved":false,"is_disabled":false,"rental_uris":{"android":"levelo://app?vid=01f5e359-16c8-4f52-a909-b858fda33332","ios":"levelo://app?vid=01f5e359-16c8-4f52-a909-b858fda33332"},"vehicle_type_id":"4","last_reported":1725732621,"current_range_meters":0,"station_id":"ce4bh2p2rcd13ifvqdi0","pricing_plan_id":"cebpf4jnsgd1na2vs0mg"},{"bike_id":"4778509f-fb0f-4dff-92c4-c90645f1c692","system_id":"levelo_inurba_marseille","lat":43.283494,"lon":5.380945,"is_reserved":false,"is_disabled":false,"rental_uris":{"android":"levelo://app?vid=4778509f-fb0f-4dff-92c4-c90645f1c692","ios":"levelo://app?vid=4778509f-fb0f-4dff-92c4-c90645f1c692"},"vehicle_type_id":"4","last_reported":1725732621,"current_range_meters":25200,"station_id":"ce4bh412rcd13ifvqdr0","pricing_plan_id":"cebpf4jnsgd1na2vs0mg"},{"bike_id":"5e6aff4f-55d0-461c-8b5d-b90b18b09498","system_id":"levelo_inurba_marseille","lat":43.284217,"lon":5.349923,"is_reserved":false,"is_disabled":false,"rental_uris":{"android":"levelo://app?vid=5e6aff4f-55d0-461c-8b5d-b90b18b09498","ios":"levelo://app?vid=5e6aff4f-55d0-461c-8b5d-b90b18b09498"},"vehicle_type_id":"4","last_reported":1725732621,"current_range_meters":0,"station_id":"ce4bhbh2rcd13ifvqepg","pricing_plan_id":"cebpf4jnsgd1na2vs0mg"},{"bike_id":"0014069c-64df-420a-be0d-41ca068e62c4","system_id":"levelo_inurba_marseille","lat":43.2842,"lon":5.34996,"is_reserved":false,"is_disabled":false,"rental_uris":{"android":"levelo://app?vid=0014069c-64df-420a-be0d-41ca068e62c4","ios":"levelo://app?vid=0014069c-64df-420a-be0d-41ca068e62c4"},"vehicle_type_id":"4","last_reported":1725732621,"current_range_meters":0,"station_id":"ce4bhbh2rcd13ifvqepg","pricing_plan_id":"cebpf4jnsgd1na2vs0mg"},{"bike_id":"7a4b7c94-fee6-4089-a1c4-994e254102f4","system_id":"levelo_inurba_marseille","lat":43.326605,"lon":5.409903,"is_reserved":false,"is_disabled":false,"rental_uris":{"android":"levelo://app?vid=7a4b7c94-fee6-4089-a1c4-994e254102f4","ios":"levelo://app?vid=7a4b7c94-fee6-4089-a1c4-994e254102f4"},"vehicle_type_id":"4","last_reported":1725732621,"current_range_meters":0,"station_id":"ce4bhpp2rcd13ifvqhgg","pricing_plan_id":"cebpf4jnsgd1na2vs0mg"},{"bike_id":"cbe08569-3413-4106-bcf2-c2793f8d7e97","system_id":"levelo_inurba_marseille","lat":43.289363,"lon":5.396322,"is_reserved":false,"is_disabled":false,"rental_uris":{"android":"levelo://app?vid=cbe08569-3413-4106-bcf2-c2793f8d7e97","ios":"levelo://app?vid=cbe08569-3413-4106-bcf2-c2793f8d7e97"},"vehicle_type_id":"4","last_reported":1725732621,"current_range_meters":0,"station_id":"ce4bh3h2rcd13ifvqdn0","pricing_plan_id":"cebpf4jnsgd1na2vs0mg"},{"bike_id":"ec24b8c8-bec7-48ab-aa12-9aad589b19c0","system_id":"levelo_inurba_marseille","lat":43.292724,"lon":5.401131,"is_reserved":false,"is_disabled":false,"rental_uris":{"android":"levelo://app?vid=ec24b8c8-bec7-48ab-aa12-9aad589b19c0","ios":"levelo://app?vid=ec24b8c8-bec7-48ab-aa12-9aad589b19c0"},"vehicle_type_id":"4","last_reported":1725732621,"current_range_meters":11600,"station_id":"ce4bh312rcd13ifvqdk0","pricing_plan_id":"cebpf4jnsgd1na2vs0mg"},{"bike_id":"13fe06dd-7f9c-4a24-b9f0-8ace53d8b4a7","system_id":"levelo_inurba_marseille","lat":43.292724,"lon":5.401131,"is_reserved":false,"is_disabled":false,"rental_uris":{"android":"levelo://app?vid=13fe06dd-7f9c-4a24-b9f0-8ace53d8b4a7","ios":"levelo://app?vid=13fe06dd-7f9c-4a24-b9f0-8ace53d8b4a7"},"vehicle_type_id":"4","last_reported":1725732621,"current_range_meters":0,"station_id":"ce4bh312rcd13ifvqdk0","pricing_plan_id":"cebpf4jnsgd1na2vs0mg"},