{"last_updated":1729940799,"ttl":60,"version":"2.2","data":{"bikes":[{"bike_id":"c894f70f-2a6f-425b-ba00-c08216f3e7e3","system_id":"levelo_inurba_marseille","lat":43.29627,"lon":5.37164,"is_reserved":false,"is_disabled":false,"rental_uris":{"android":"levelo://app?vid=c894f70f-2a6f-425b-ba00-c08216f3e7e3","ios":"levelo://app?vid=c894f70f-2a6f-425b-ba00-c08216f3e7e3"},"vehicle_type_id":"4","last_reported":1729940799,"current_range_meters":39200,"station_id":"ce4bgnh2rcd13ifvqc0g","pricing_plan_id":"cebpf4jnsgd1na2vs0mg"},{"bike_id":"5b1e2fa4-576f-4e03-93b6-f18b4e49b26f","system_id":"levelo_inurba_marseille","lat":43.30797,"lon":5.43511,"is_reserved":false,"is_disabled":false,"rental_uris":{"android":"levelo://app?vid=5b1e2fa4-576f-4e03-93b6-f18b4e49b26f","ios":"levelo://app?vid=5b1e2fa4-576f-4e03-93b6-f18b4e49b26f"},"vehicle_type_id":"4","last_reported":1729940799,"current_range_meters":16800,"station_id":"ce4bhph2rcd13ifvqheg","pricing_plan_id":"cebpf4jnsgd1na2vs0mg"},{"bike_id":"8ca85da5-a472-4260-aa3c-fe929d2065b4","system_id":"levelo_inurba_marseille","lat":43.29034,"lon":5.39972,"is_reserved":false,"is_disabled":false,"rental_uris":{"android":"levelo://app?vid=8ca85da5-a472-4260-aa3c-fe929d2065b4","ios":"levelo://app?vid=8ca85da5-a472-4260-aa3c-fe929d2065b4"},"vehicle_type_id":"4","last_reported":1729940799,"current_range_meters":35600,"station_id":"ce4bh392rcd13ifvqdm0","pricing_plan_id":"cebpf4jnsgd1na2vs0mg"},{"bike_id":"163eddd4-107c-441d-b897-daa82cca5a31","system_id":"levelo_inurba_marseille","lat":43.28074,"lon":5.39644,"is_reserved":false,"is_disabled":false,"rental_uris":{"android":"levelo://app?vid=163eddd4-107c-441d-b897-daa82cca5a31","ios":"levelo://app?vid=163eddd4-107c-441d-b897-daa82cca5a31"},"vehicle_type_id":"4","last_reported":1729940799,"current_range_meters":40000,"station_id":"ce4bho12rcd13ifvqh2g","pricing_plan_id":"cebpf4jnsgd1na2vs0mg"},{"bike_id":"03fcc2c3-2c10-4113-8122-4bb917818a64","system_id":"levelo_inurba_marseille","lat":43.2885,"lon":5.35849,"is_reserved":false,"is_disabled":false,"rental_uris":{"android":"levelo://app?vid=03fcc2c3-2c10-4113-8122-4bb917818a64","ios":"levelo://app?vid=03fcc2c3-2c10-4113-8122-4bb917818a64"},"vehicle_type_id":"4","last_reported":1729940799,"current_range_meters":39200,"station_id":"ce4bhb12rcd13ifvqem0","pricing_plan_id":"cebpf4jnsgd1na2vs0mg"},{"bike_id":"26d518f2-e761-46eb-bc7c-d62463112389","system_id":"levelo_inurba_marseille","lat":43.29679,"lon":5.37279,"is_reserved":false,"is_disabled":false,"rental_uris":{"android":"levelo://app?vid=26d518f2-e761-46eb-bc7c-d62463112389","ios":"levelo://app?vid=26d518f2-e761-46eb-bc7c-d62463112389"},"vehicle_type_id":"4","last_reported":1729940799,"current_range_meters":38800,"station_id":"ce4bgk12rcd13ifvqbj0","pricing_plan_id":"cebpf4jnsgd1na2vs0mg"},{"bike_id":"48660d12-eacc-4f93-a06c-04c2aa9e37e4","system_id":"levelo_inurba_marseille","lat":43.268,"lon":5.40263,"is_reserved":false,"is_disabled":false,"rental_uris":{"android":"levelo://app?vid=48660d12-eacc-4f93-a06c-04c2aa9e37e4","ios":"levelo://app?vid=48660d12-eacc-4f93-a06c-04c2aa9e37e4"},"vehicle_type_id":"4","last_reported":1729940799,"current_range_meters":24000,"station_id":"ce501612rcd8frsf0b60","pricing_plan_id":"cebpf4jnsgd1na2vs0mg"},{"bike_id":"8a773dd0-2d57-4a00-80e4-11b70d3faa79","system_id":"levelo_inurba_marseille","lat":43.30592,"lon":5.37227,"is_reserved":false,"is_disabled":false,"rental_uris":{"android":"levelo://app?vid=8a773dd0-2d57-4a00-80e4-11b70d3faa79","ios":"levelo://app?vid=8a773dd0-2d57-4a00-80e4-11b70d3faa79"},"vehicle_type_id":"4","last_reported":1729940799,"current_range_meters":24800,"station_id":"ce4bgqh2rcd13ifvqc4g","pricing_plan_id":"cebpf4jnsgd1na2vs0mg"},{"bike_id":"87b0ca95-10d4-46a5-b0a3-ed147c016f2f","system_id":"levelo_inurba_marseille","lat":43.31228,"lon":5.36844,"is_reserved":false,"is_disabled":false,"rental_uris":{"android":"levelo://app?vid=87b0ca95-10d4-46a5-b0a3-ed147c016f2f","ios":"levelo://app?vid=87b0ca95-10d4-46a5-b0a3-ed147c016f2f"},"vehicle_type_id":"4","last_reported":1729940799,"current_range_meters":38000,"station_id":"ce4bgl92rcd13ifvqbq0","pricing_plan_id":"cebpf4jnsgd1na2vs0mg"},{"bike_id":"3dbf5be0-239c-4922-bf1c-39e5fb698048","system_id":"levelo_inurba_marseille","lat":43.29968,"lon":5.38493,"is_reserved":false,"is_disabled":false,"rental_uris":{"android":"levelo://app?vid=3dbf5be0-239c-4922-bf1c-39e5fb698048","ios":"levelo://app?vid=3dbf5be0-239c-4922-bf1c-39e5fb698048"},"vehicle_type_id":"4","last_reported":1729940799,"current_range_meters":20400,"station_id":"ce4bgj92rcd13ifvqbd0","pricing_plan_id":"cebpf4jnsgd1na2vs0mg"},{"bike_id":"d7512b69-77c2-4954-b06d-b5334bb7b675","system_id":"levelo_inurba_marseille","lat":43.31368,"lon":5.38493,"is_reserved":false,"is_disabled":false,"rental_uris":{"android":"levelo://app?vid=d7512b69-77c2-4954-b06d-b5334bb7b675","ios":"levelo://app?vid=d7512b69-77c2-4954-b06d-b5334bb7b675"},"vehicle_type_id":"4","last_reported":1729940799,"current_range_meters":38800,"station_id":"ce4bgt92rcd13ifvqcf0","pricing_plan_id":"cebpf4jnsgd1na2vs0mg"},{"bike_id":"3381cd79-1316-4c50-ad86-ee5056cd0e14","system_id":"levelo_inurba_marseille","lat":43.25124,"lon":5.40313,"is_reserved":false,"is_disabled":false,"rental_uris":{"android":"levelo://app?vid=3381cd79-1316-4c50-ad86-ee5056cd0e14","ios":"levelo://app?vid=3381cd79-1316-4c50-ad86-ee5056cd0e14"},"vehicle_type_id":"4","last_reported":1729940799,"current_range_meters":36400,"station_id":"ce4bhlh2rcd13ifvqgig","pricing_plan_id":"cebpf4jnsgd1na2vs0mg"},{"bike_id":"ef9d1303-b3a7-4f64-b1ea-62f7e508d231","system_id":"levelo_inurba_marseille","lat":43.28082,"lon":5.39657,"is_reserved":false,"is_disabled":false,"rental_uris":{"android":"levelo://app?vid=ef9d1303-b3a7-4f64-b1ea-62f7e508d231","ios":"levelo://app?vid=ef9d1303-b3a7-4f64-b1ea-62f7e508d231"},"vehicle_type_id":"4","last_reported":1729940799,"current_range_meters":28800,"station_id":"ce4bho12rcd13ifvqh2g","pricing_plan_id":"cebpf4jnsgd1na2vs0mg"},{"bike_id":"2da5a8e9-7f81-4d23-beb2-f212189ddf7c","system_id":"levelo_inurba_marseille","lat":43.29276,"lon":5.40116,"is_reserved":false,"is_disabled":false,"rental_uris":{"android":"levelo://app?vid=2da5a8e9-7f81-4d23-beb2-f212189ddf7c","ios":"levelo://app?vid=2da5a8e9-7f81-4d23-beb2-f212189ddf7c"},"vehicle_type_id":"4","last_reported":1729940799,"current_range_meters":38400,"station_id":"ce4bh312rcd13ifvqdk0","pricing_plan_id":"cebpf4jnsgd1na2vs0mg"},{"bike_id":"a047d5c0-2a41-4c65-963e-636f05a0bdff","system_id":"levelo_inurba_marseille","lat":43.30958,"lon":5.39041,"is_reserved":false,"is_disabled":false,"rental_uris":{"android":"levelo://app?vid=a047d5c0-2a41-4c65-963e-636f05a0bdff","ios":"levelo://app?vid=a047d5c0-2a41-4c65-963e-636f05a0bdff"},"vehicle_type_id":"4","last_reported":1729940799,"current_range_meters":38800,"station_id":"ce4bgup2rcd13ifvqco0","pricing_plan_id":"cebpf4jnsgd1na2vs0mg"},{"bike_id":"d33b21ec-4310-4291-b133-a0ac75f58382","system_id":"levelo_inurba_marseille","lat":43.30642,"lon":5.40066,"is_reserved":false,"is_disabled":false,"rental_uris":{"android":"levelo://app?vid=d33b21ec-4310-4291-b133-a0ac75f58382","ios":"levelo://app?vid=d33b21ec-4310-4291-b133-a0ac75f58382"},"vehicle_type_id":"4","last_reported":1729940799,"current_range_meters":40000,"station_id":"ce4bh112rcd13ifvqda0","pricing_plan_id":"cebpf4jnsgd1na2vs0mg"},{"bike_id":"1e6e2bfc-7583-41d7-8b7b-c4a99bfe72bb","system_id":"levelo_inurba_marseille","lat":43.28422,"lon":5.34981,"is_reserved":false,"is_disabled":false,"rental_uris":{"android":"levelo://app?vid=1e6e2bfc-7583-41d7-8b7b-c4a99bfe72bb","ios":"levelo://app?vid=1e6e2bfc-7583-41d7-8b7b-c4a99bfe72bb"},"vehicle_type_id":"4","last_reported":1729940799,"current_range_meters":38400,"station_id":"ce4bhbh2rcd13ifvqepg","pricing_plan_id":"cebpf4jnsgd1na2vs0mg"},{"bike_id":"10708c64-75f8-46d3-821f-a33eb061ae08","system_id":"levelo_inurba_marseille","lat":43.296082,"lon":5.402758,"is_reserved":false,"is_disabled":false,"rental_uris":{"android":"levelo://app?vid=10708c64-75f8-46d3-821f-a33eb061ae08","ios":"levelo://app?vid=10708c64-75f8-46d3-821f-a33eb061ae08"},"vehicle_type_id":"4","last_reported":1729940799,"current_range_meters":36800,"station_id":"ce4bh292rcd13ifvqdf0","pricing_plan_id":"cebpf4jnsgd1na2vs0mg"},{"bike_id":"123f9339-b4ef-46cd-9a9a-cd9661aa78ef","system_id":"levelo_inurba_marseille","lat":43.27418,"lon":5.3941,"is_reserved":false,"is_disabled":false,"rental_uris":{"android":"levelo://app?vid=123f9339-b4ef-46cd-9a9a-cd9661aa78ef","ios":"levelo://app?vid=123f9339-b4ef-46cd-9a9a-cd9661aa78ef"},"vehicle_type_id":"4","last_reported":1729940799,"current_range_meters":16400,"station_id":"ce4bhdp2rcd13ifvqf20","pricing_plan_id":"cebpf4jnsgd1na2vs0mg"},{"bike_id":"c31368c8-c9b7-4439-ba3d-d4b17f147166","system_id":"levelo_inurba_marseille","lat":43.26813,"lon":5.40264,"is_reserved":false,"is_disabled":false,"rental_uris":{"android":"levelo://app?vid=c31368c8-c9b7-4439-ba3d-d4b17f147166","ios":"levelo://app?vid=c31368c8-c9b7-4439-ba3d-d4b17f147166"},"vehicle_type_id":"4","last_reported":1729940799,"current_range_meters":26000,"station_id":"ce501612rcd8frsf0b60","pricing_plan_id":"cebpf4jnsgd1na2vs0mg"},{"bike_id":"5bbee2a0-2a9d-48f6-9720-2e60b05d463b","system_id":"levelo_inurba_marseille","lat":43.29843,"lon":5.36273,"is_reserved":false,"is_disabled":false,"rental_uris":{"android":"levelo://app?vid=5bbee2a0-2a9d-48f6-9720-2e60b05d463b","ios":"levelo://app?vid=5bbee2a0-2a9d-48f6-9720-2e60b05d463b"},"vehicle_type_id":"4","last_reported":1729940799,"current_range_meters":37600,"station_id":"ce4bgpp2rcd13ifvqc3g","pricing_plan_id":"cebpf4jnsgd1na2vs0mg"},{"bike_id":"d4d0b3b4-a449-44f4-95f8-07aafbf70b49","system_id":"levelo_inurba_marseille","lat":43.29984,"lon":5.37175,"is_reserved":false,"is_disabled":false,"rental_uris":{"android":"levelo://app?vid=d4d0b3b4-a449-44f4-95f8-07aafbf70b49","ios":"levelo://app?vid=d4d0b3b4-a449-44f4-95f8-07aafbf70b49"},"vehicle_type_id":"4","last_reported":1729940799,"current_range_meters":38800,"station_id":"ce4bgr92rcd13ifvqc7g","pricing_plan_id":"cebpf4jnsgd1na2vs0mg"},{"bike_id":"f4db4e2d-65c3-48c6-b530-81ccdd24f818","system_id":"levelo_inurba_marseille","lat":43.30956,"lon":5.39035,"is_reserved":false,"is_disabled":false,"rental_uris":{"android":"levelo://app?vid=f4db4e2d-65c3-48c6-b530-81ccdd24f818","ios":"levelo://app?vid=f4db4e2d-65c3-48c6-b530-81ccdd24f818"},"vehicle_type_id":"4","last_reported":1729940799,"current_range_meters":28400,"station_id":"ce4bgup2rcd13ifvqco0","pricing_plan_id":"cebpf4jnsgd1na2vs0mg"},{"bike_id":"3d122211-7d62-41af-9351-006a8fdae77a","system_id":"levelo_inurba_marseille","lat":43.29306,"lon":5.37453,"is_reserved":false,"is_disabled":false,"rental_uris":{"android":"levelo://app?vid=3d122211-7d62-41af-9351-006a8fdae77a","ios":"levelo://app?vid=3d122211-7d62-41af-9351-006a8fdae77a"},"vehicle_type_id":"4","last_reported":1729940799,"current_range_meters":9600,"station_id":"ce4bgi12rcd13ifvqb70","pricing_plan_id":"cebpf4jnsgd1na2vs0mg"},{"bike_id":"79bd2af5-c7a8-42a2-a85c-ece5c82e9b12","system_id":"levelo_inurba_marseille","lat":43.30157,"lon":5.38084,"is_reserved":false,"is_disabled":false,"rental_uris":{"android":"levelo://app?vid=79bd2af5-c7a8-42a2-a85c-ece5c82e9b12","ios":"levelo://app?vid=79bd2af5-c7a8-42a2-a85c-ece5c82e9b12"},"vehicle_type_id":"4","last_reported":1729940799,"current_range_meters":37600,"station_id":"ce4bgjp2rcd13ifvqbh0","pricing_plan_id":"cebpf4jnsgd1na2vs0mg"},{"bike_id":"ec16d84c-a043-4757-bab0-64f7d0a6a9fa","system_id":"levelo_inurba_marseille","lat":43.28271,"lon":5.35051,"is_reserved":false,"is_disabled":false,"rental_uris":{"android":"levelo://app?vid=ec16d84c-a043-4757-bab0-64f7d0a6a9fa","ios":"levelo://app?vid=ec16d84c-a043-4757-bab0-64f7d0a6a9fa"},"vehicle_type_id":"4","last_reported":1729940799,"current_range_meters":38800,"station_id":"ce4bhbp2rcd13ifvqerg","pricing_plan_id":"cebpf4jnsgd1na2vs0mg"},{"bike_id":"7c0ddf56-b30a-4da6-9d1b-472e658126d2","system_id":"levelo_inurba_marseille","lat":43.31226,"lon":5.36852,"is_reserved":false,"is_disabled":false,"rental_uris":{"android":"levelo://app?vid=7c0ddf56-b30a-4da6-9d1b-472e658126d2","ios":"levelo://app?vid=7c0ddf56-b30a-4da6-9d1b-472e658126d2"},"vehicle_type_id":"4","last_reported":1729940799,"current_range_meters":38800,"station_id":"ce4bgl92rcd13ifvqbq0","pricing_plan_id":"cebpf4jnsgd1na2vs0mg"},{"bike_id":"633bdd84-8a27-486c-8d5a-62bd9dd56f9f","system_id":"levelo_inurba_marseille","lat":43.26946,"lon":5.4024,"is_reserved":false,"is_disabled":false,"rental_uris":{"android":"levelo://app?vid=633bdd84-8a27-486c-8d5a-62bd9dd56f9f","ios":"levelo://app?vid=633bdd84-8a27-486c-8d5a-62bd9dd56f9f"},"vehicle_type_id":"4","last_reported":1729940799,"current_range_meters":39200,"station_id":"cjm6bp8fraef2m0cb0m0","pricing_plan_id":"cebpf4jnsgd1na2vs0mg"},{"bike_id":"365042da-fe2f-49c8-bdd1-2a0373063ba3","system_id":"levelo_inurba_marseille","lat":43.29624,"lon":5.37172,"is_reserved":false,"is_disabled":false,"rental_uris":{"android":"levelo://app?vid=365042da-fe2f-49c8-bdd1-2a0373063ba3","ios":"levelo://app?vid=365042da-fe2f-49c8-bdd1-2a0373063ba3"},"vehicle_type_id":"4","last_reported":1729940799,"current_range_meters":32000,"station_id":"ce4bgnh2rcd13ifvqc0g","pricing_plan_id":"cebpf4jnsgd1na2vs0mg"},{"bike_id":"7ad5cee9-1700-4df5-9506-106d58079bca","system_id":"levelo_inurba_marseille","lat":43.2962,"lon":5.3715,"is_reserved":false,"is_disabled":false,"rental_uris":{"android":"levelo://app?vid=7ad5cee9-1700-4df5-9506-106d58079bca","ios":"levelo://app?vid=7ad5cee9-1700-4df5-9506-106d58079bca"},"vehicle_type_id":"4","last_reported":1729940799,"current_range_meters":12400,"station_id":"ce4bgnh2rcd13ifvqc0g","pricing_plan_id":"cebpf4jnsgd1na2vs0mg"},{"bike_id":"addff016-bd9f-401e-a52c-a25c24f5b6da","system_id":"levelo_inurba_marseille","lat":43.30473,"lon":5.37919,"is_reserved":false,"is_disabled":false,"rental_uris":{"android":"levelo://app?vid=addff016-bd9f-401e-a52c-a25c24f5b6da","ios":"levelo://app?vid=addff016-bd9f-401e-a52c-a25c24f5b6da"},"vehicle_type_id":"4","last_reported":1729940799,"current_range_meters":11600,"station_id":"ce4bgup2rcd13ifvqcn0","pricing_plan_id":"cebpf4jnsgd1na2vs0mg"},{"bike_id":"090d6208-0a1b-4739-846f-ee75a9ed97d4","system_id":"levelo_inurba_marseille","lat":43.27826,"lon":5.39203,"is_reserved":false,"is_disabled":false,"rental_uris":{"android":"levelo://app?vid=090d6208-0a1b-4739-846f-ee75a9ed97d4","ios":"levelo://app?vid=090d6208-0a1b-4739-846f-ee75a9ed97d4"},"vehicle_type_id":"4","last_reported":1729940799,"current_range_meters":39200,"station_id":"ce4bhjp2rcd13ifvqga0","pricing_plan_id":"cebpf4jnsgd1na2vs0mg"},{"bike_id":"7838ef83-d9e7-4950-830a-b66cd4714af7","system_id":"levelo_inurba_marseille","lat":43.29495,"lon":5.3747,"is_reserved":false,"is_disabled":false,"rental_uris":{"android":"levelo://app?vid=7838ef83-d9e7-4950-830a-b66cd4714af7","ios":"levelo://app?vid=7838ef83-d9e7-4950-830a-b66cd4714af7"},"vehicle_type_id":"4","last_reported":1729940799,"current_range_meters":37600,"station_id":"ce4bgkp2rcd13ifvqbmg","pricing_plan_id":"cebpf4jnsgd1na2vs0mg"},{"bike_id":"ae1d3e88-caaa-4a41-8217-3f1c57adec90","system_id":"levelo_inurba_marseille","lat":43.2979,"lon":5.37112,"is_reserved":false,"is_disabled":false,"rental_uris":{"android":"levelo://app?vid=ae1d3e88-caaa-4a41-8217-3f1c57adec90","ios":"levelo://app?vid=ae1d3e88-caaa-4a41-8217-3f1c57adec90"},"vehicle_type_id":"4","last_reported":1729940799,"current_range_meters":11600,"station_id":"ce4bgop2rcd13ifvqc1g","pricing_plan_id":"cebpf4jnsgd1na2vs0mg"},{"bike_id":"198841d2-974e-4d78-881a-fa9e56321b5c","system_id":"levelo_inurba_marseille","lat":43.29721,"lon":5.3769,"is_reserved":false,"is_disabled":false,"rental_uris":{"android":"levelo://app?vid=198841d2-974e-4d78-881a-fa9e56321b5c","ios":"levelo://app?vid=198841d2-974e-4d78-881a-fa9e56321b5c"},"vehicle_type_id":"4","last_reported":1729940799,"current_range_meters":34000,"station_id":"ce4bgkh2rcd13ifvqbl0","pricing_plan_id":"cebpf4jnsgd1na2vs0mg"},{"bike_id":"c8f33dbe-8d46-4679-b0bd-686b38e43e1d","system_id":"levelo_inurba_marseille","lat":43.24552,"lon":5.39523,"is_reserved":false,"is_disabled":false,"rental_uris":{"android":"levelo://app?vid=c8f33dbe-8d46-4679-b0bd-686b38e43e1d","ios":"levelo://app?vid=c8f33dbe-8d46-4679-b0bd-686b38e43e1d"},"vehicle_type_id":"4","last_reported":1729940799,"current_range_meters":35600,"station_id":"ce4bhlp2rcd13ifvqgjg","pricing_plan_id":"cebpf4jnsgd1na2vs0mg"},{"bike_id":"5a7c3bf3-7a64-4a9b-a11b-73f8f8bc3fd1","system_id":"levelo_inurba_marseille","lat":43.30191,"lon":5.36601,"is_reserved":false,"is_disabled":false,"rental_uris":{"android":"levelo://app?vid=5a7c3bf3-7a64-4a9b-a11b-73f8f8bc3fd1","ios":"levelo://app?vid=5a7c3bf3-7a64-4a9b-a11b-73f8f8bc3fd1"},"vehicle_type_id":"4","last_reported":1729940799,"current_range_meters":38800,"station_id":"ce4bgrh2rcd13ifvqc8g","pricing_plan_id":"cebpf4jnsgd1na2vs0mg"},{"bike_id":"20d98978-6927-43fc-85d7-a1284bab2e83","system_id":"levelo_inurba_marseille","lat":43.30538,"lon":5.36695,"is_reserved":false,"is_disabled":false,"rental_uris":{"android":"levelo://app?vid=20d98978-6927-43fc-85d7-a1284bab2e83","ios":"levelo://app?vid=20d98978-6927-43fc-85d7-a1284bab2e83"},"vehicle_type_id":"4","last_reported":1729940799,"current_range_meters":28000,"station_id":"ce4bgrp2rcd13ifvqc9g","pricing_plan_id":"cebpf4jnsgd1na2vs0mg"},{"bike_id":"b4c1c861-a75e-46c9-86c7-2e2349bb876d","system_id":"levelo_inurba_marseille","lat":43.25578,"lon":5.38236,"is_reserved":false,"is_disabled":false,"rental_uris":{"android":"levelo://app?vid=b4c1c861-a75e-46c9-86c7-2e2349bb876d","ios":"levelo://app?vid=b4c1c861-a75e-46c9-86c7-2e2349bb876d"},"vehicle_type_id":"4","last_reported":1729940799,"current_range_meters":28800,"station_id":"ce4bhih2rcd13ifvqfs0","pricing_plan_id":"cebpf4jnsgd1na2vs0mg"},{"bike_id":"76429545-d7a7-442d-b843-73497d82306d","system_id":"levelo_inurba_marseille","lat":43.26935,"lon":5.40217,"is_reserved":false,"is_disabled":false,"rental_uris":{"android":"levelo://app?vid=76429545-d7a7-442d-b843-73497d82306d","ios":"levelo://app?vid=76429545-d7a7-442d-b843-73497d82306d"},"vehicle_type_id":"4","last_reported":1729940799,"current_range_meters":37600,"station_id":"cjm6bp8fraef2m0cb0m0","pricing_plan_id":"cebpf4jnsgd1na2vs0mg"},{"bike_id":"195351c3-2982-4b38-a129-eb84836134a1","system_id":"levelo_inurba_marseille","lat":43.28607,"lon":5.3706,"is_reserved":false,"is_disabled":false,"rental_uris":{"android":"levelo://app?vid=195351c3-2982-4b38-a129-eb84836134a1","ios":"levelo://app?vid=195351c3-2982-4b38-a129-eb84836134a1"},"vehicle_type_id":"4","last_reported":1729940799,"current_range_meters":29600,"station_id":"ce4bht12rcd13ifvqi60","pricing_plan_id":"cebpf4jnsgd1na2vs0mg"},{"bike_id":"b68a0d01-ef7e-46b8-922f-b8cb2b2e1819","system_id":"levelo_inurba_marseille","lat":43.30535,"lon":5.36533,"is_reserved":false,"is_disabled":false,"rental_uris":{"android":"levelo://app?vid=b68a0d01-ef7e-46b8-922f-b8cb2b2e1819","ios":"levelo://app?vid=b68a0d01-ef7e-46b8-922f-b8cb2b2e1819"},"vehicle_type_id":"4","last_reported":1729940799,"current_range_meters":17200,"station_id":"ce4bgs12rcd13ifvqcag","pricing_plan_id":"cebpf4jnsgd1na2vs0mg"},{"bike_id":"9b192d3d-f63a-4103-b503-f2e0fe79a5ec","system_id":"levelo_inurba_marseille","lat":43.30191,"lon":5.36625,"is_reserved":false,"is_disabled":false,"rental_uris":{"android":"levelo://app?vid=9b192d3d-f63a-4103-b503-f2e0fe79a5ec","ios":"levelo://app?vid=9b192d3d-f63a-4103-b503-f2e0fe79a5ec"},"vehicle_type_id":"4","last_reported":1729940799,"current_range_meters":24400,"station_id":"ce4bgrh2rcd13ifvqc8g","pricing_plan_id":"cebpf4jnsgd1na2vs0mg"},{"bike_id":"ffb91a87-5864-4809-b166-910146a3e016","system_id":"levelo_inurba_marseille","lat":43.28926,"lon":5.38388,"is_reserved":false,"is_disabled":false,"rental_uris":{"android":"levelo://app?vid=ffb91a87-5864-4809-b166-910146a3e016","ios":"levelo://app?vid=ffb91a87-5864-4809-b166-910146a3e016"},"vehicle_type_id":"4","last_reported":1729940799,"current_range_meters":38800,"station_id":"ce4bh612rcd13ifvqe6g","pricing_plan_id":"cebpf4jnsgd1na2vs0mg"},{"bike_id":"fa83ecf3-a6ef-4106-9cdb-5ab89addbba4","system_id":"levelo_inurba_marseille","lat":43.26939,"lon":5.40257,"is_reserved":false,"is_disabled":false,"rental_uris":{"android":"levelo://app?vid=fa83ecf3-a6ef-4106-9cdb-5ab89addbba4","ios":"levelo://app?vid=fa83ecf3-a6ef-4106-9cdb-5ab89addbba4"},"vehicle_type_id":"4","last_reported":1729940799,"current_range_meters":30400,"station_id":"cjm6bp8fraef2m0cb0m0","pricing_plan_id":"cebpf4jnsgd1na2vs0mg"},{"bike_id":"8d7879bf-6e8a-4118-976d-972762a646c6","system_id":"levelo_inurba_marseille","lat":43.279026,"lon":5.379954,"is_reserved":false,"is_disabled":false,"rental_uris":{"android":"levelo://app?vid=8d7879bf-6e8a-4118-976d-972762a646c6","ios":"levelo://app?vid=8d7879bf-6e8a-4118-976d-972762a646c6"},"vehicle_type_id":"4","last_reported":1729940799,"current_range_meters":32000,"station_id":"ce4bhf92rcd13ifvqf50","pricing_plan_id":"cebpf4jnsgd1na2vs0mg"},{"bike_id":"b24e0fd3-2a5f-4760-8d2c-03b817af8d22","system_id":"levelo_inurba_marseille","lat":43.32333,"lon":5.40611,"is_reserved":false,"is_disabled":false,"rental_uris":{"android":"levelo://app?vid=b24e0fd3-2a5f-4760-8d2c-03b817af8d22","ios":"levelo://app?vid=b24e0fd3-2a5f-4760-8d2c-03b817af8d22"},"vehicle_type_id":"4","last_reported":1729940799,"current_range_meters":24400,"station_id":"ce4bhq92rcd13ifvqhjg","pricing_plan_id":"cebpf4jnsgd1na2vs0mg"},{"bike_id":"c25d9b60-5434-4e6f-b007-7ec2e900a21f","system_id":"levelo_inurba_marseille","lat":43.29309,"lon":5.37165,"is_reserved":false,"is_disabled":false,"rental_uris":{"android":"levelo://app?vid=c25d9b60-5434-4e6f-b007-7ec2e900a21f","ios":"levelo://app?vid=c25d9b60-5434-4e6f-b007-7ec2e900a21f"},"vehicle_type_id":"4","last_reported":1729940799,"current_range_meters":38800,"station_id":"ce4bgh92rcd13ifvqb40","pricing_plan_id":"cebpf4jnsgd1na2vs0mg"},{"bike_id":"dbeaee0c-400a-448b-8f4a-c8bc406c49fe","system_id":"levelo_inurba_marseille","lat":43.28933,"lon":5.36628,"is_reserved":false,"is_disabled":false,"rental_uris":{"android":"levelo://app?vid=dbeaee0c-400a-448b-8f4a-c8bc406c49fe","ios":"levelo://app?vid=dbeaee0c-400a-448b-8f4a-c8bc406c49fe"},"vehicle_type_id":"4","last_reported":1729940799,"current_range_meters":27200,"station_id":"ce4bhap2rcd13ifvqek0","pricing_plan_id":"cebpf4jnsgd1na2vs0mg"},{"bike_id":"a38406e8-974b-4557-b58b-ff4f2157ecb1","system_id":"levelo_inurba_marseille","lat":43.29268,"lon":5.38444,"is_reserved":false,"is_disabled":false,"rental_uris":{"android":"levelo://app?vid=a38406e8-974b-4557-b58b-ff4f2157ecb1","ios":"levelo://app?vid=a38406e8-974b-4557-b58b-ff4f2157ecb1"},"vehicle_type_id":"4","last_reported":1729940799,"current_range_meters":36400,"station_id":"ce4bh692rcd13ifvqea0","pricing_plan_id":"cebpf4jnsgd1na2vs0mg"},{"bike_id":"e7360508-6978-487a-a79b-5e2dad5d0ea3","system_id":"levelo_inurba_marseille","lat":43.22928,"lon":5.3538,"is_reserved":false,"is_disabled":false,"rental_uris":{"android":"levelo://app?vid=e7360508-6978-487a-a79b-5e2dad5d0ea3","ios":"levelo://app?vid=e7360508-6978-487a-a79b-5e2dad5d0ea3"},"vehicle_type_id":"4","last_reported":1729940799,"current_range_meters":30400,"station_id":"cpo3532slgdg3j2ikp40","pricing_plan_id":"cebpf4jnsgd1na2vs0mg"},{"bike_id":"a2625f8e-dc7a-4e45-bf4e-2bf27039eb70","system_id":"levelo_inurba_marseille","lat":43.2861,"lon":5.35098,"is_reserved":false,"is_disabled":false,"rental_uris":{"android":"levelo://app?vid=a2625f8e-dc7a-4e45-bf4e-2bf27039eb70","ios":"levelo://app?vid=a2625f8e-dc7a-4e45-bf4e-2bf27039eb70"},"vehicle_type_id":"4","last_reported":1729940799,"current_range_meters":36400,"station_id":"ce4bhch2rcd13ifvqeug","pricing_plan_id":"cebpf4jnsgd1na2vs0mg"},{"bike_id":"16f99232-9d4d-4a86-89ef-aa3e594b0011","system_id":"levelo_inurba_marseille","lat":43.292786,"lon":5.401179,"is_reserved":false,"is_disabled":false,"rental_uris":{"android":"levelo://app?vid=16f99232-9d4d-4a86-89ef-aa3e594b0011","ios":"levelo://app?vid=16f99232-9d4d-4a86-89ef-aa3e594b0011"},"vehicle_type_id":"4","last_reported":1729940799,"current_range_meters":34800,"station_id":"ce4bh312rcd13ifvqdk0","pricing_plan_id":"cebpf4jnsgd1na2vs0mg"},{"bike_id":"65a0b432-1bb9-4e43-a87c-f8817a6ed636","system_id":"levelo_inurba_marseille","lat":43.24078,"lon":5.37741,"is_reserved":false,"is_disabled":false,"rental_uris":{"android":"levelo://app?vid=65a0b432-1bb9-4e43-a87c-f8817a6ed636","ios":"levelo://app?vid=65a0b432-1bb9-4e43-a87c-f8817a6ed636"},"vehicle_type_id":"4","last_reported":1729940799,"current_range_meters":16000,"station_id":"ce4bhnp2rcd13ifvqgvg","pricing_plan_id":"cebpf4jnsgd1na2vs0mg"},{"bike_id":"cef8a6c5-52e4-4542-955f-8afe13b8a51c","system_id":"levelo_inurba_marseille","lat":43.29958,"lon":5.41321,"is_reserved":false,"is_disabled":false,"rental_uris":{"android":"levelo://app?vid=cef8a6c5-52e4-4542-955f-8afe13b8a51c","ios":"levelo://app?vid=cef8a6c5-52e4-4542-955f-8afe13b8a51c"},"vehicle_type_id":"4","last_reported":1729940799,"current_range_meters":22800,"station_id":"ce4bhp12rcd13ifvqh9g","pricing_plan_id":"cebpf4jnsgd1na2vs0mg"},{"bike_id":"a1a750d6-b53c-4b7d-8c45-ce4aba6d5ec3","system_id":"levelo_inurba_marseille","lat":43.30137,"lon":5.39874,"is_reserved":false,"is_disabled":false,"rental_uris":{"android":"levelo://app?vid=a1a750d6-b53c-4b7d-8c45-ce4aba6d5ec3","ios":"levelo://app?vid=a1a750d6-b53c-4b7d-8c45-ce4aba6d5ec3"},"vehicle_type_id":"4","last_reported":1729940799,"current_range_meters":38800,"station_id":"ce4bh0h2rcd13ifvqd40","pricing_plan_id":"cebpf4jnsgd1na2vs0mg"},{"bike_id":"691e26d2-f23e-4155-bdcf-02a3b67d58be","system_id":"levelo_inurba_marseille","lat":43.28613,"lon":5.35095,"is_reserved":false,"is_disabled":false,"rental_uris":{"android":"levelo://app?vid=691e26d2-f23e-4155-bdcf-02a3b67d58be","ios":"levelo://app?vid=691e26d2-f23e-4155-bdcf-02a3b67d58be"},"vehicle_type_id":"4","last_reported":1729940799,"current_range_meters":18000,"station_id":"ce4bhch2rcd13ifvqeug","pricing_plan_id":"cebpf4jnsgd1na2vs0mg"},{"bike_id":"34c0b19e-e327-425b-bf09-25bec92dd9c4","system_id":"levelo_inurba_marseille","lat":43.29326,"lon":5.45468,"is_reserved":false,"is_disabled":false,"rental_uris":{"android":"levelo://app?vid=34c0b19e-e327-425b-bf09-25bec92dd9c4","ios":"levelo://app?vid=34c0b19e-e327-425b-bf09-25bec92dd9c4"},"vehicle_type_id":"4","last_reported":1729940799,"current_range_meters":17600,"station_id":"","pricing_plan_id":"cebpf4jnsgd1na2vs0mg"},{"bike_id":"1697e9af-5ecd-41e1-a327-ab3bf414c93f","system_id":"levelo_inurba_marseille","lat":43.28938,"lon":5.36636,"is_reserved":false,"is_disabled":false,"rental_uris":{"android":"levelo://app?vid=1697e9af-5ecd-41e1-a327-ab3bf414c93f","ios":"levelo://app?vid=1697e9af-5ecd-41e1-a327-ab3bf414c93f"},"vehicle_type_id":"4","last_reported":1729940799,"current_range_meters":38800,"station_id":"ce4bhap2rcd13ifvqek0","pricing_plan_id":"cebpf4jnsgd1na2vs0mg"},{"bike_id":"1d1d656f-4780-4c04-b7aa-1044f7f3ec42","system_id":"levelo_inurba_marseille","lat":43.31531,"lon":5.380236,"is_reserved":false,"is_disabled":false,"rental_uris":{"android":"levelo://app?vid=1d1d656f-4780-4c04-b7aa-1044f7f3ec42","ios":"levelo://app?vid=1d1d656f-4780-4c04-b7aa-1044f7f3ec42"},"vehicle_type_id":"4","last_reported":1729940799,"current_range_meters":37600,"station_id":"ce4bhsp2rcd13ifvqi50","pricing_plan_id":"cebpf4jnsgd1na2vs0mg"},{"bike_id":"abeeaef7-601b-4ed4-a195-36849b6c72bd","system_id":"levelo_inurba_marseille","lat":43.31175,"lon":5.38704,"is_reserved":false,"is_disabled":false,"rental_uris":{"android":"levelo://app?vid=abeeaef7-601b-4ed4-a195-36849b6c72bd","ios":"levelo://app?vid=abeeaef7-601b-4ed4-a195-36849b6c72bd"},"vehicle_type_id":"4","last_reported":1729940799,"current_range_meters":30800,"station_id":"ce4bgv12rcd13ifvqcp0","pricing_plan_id":"cebpf4jnsgd1na2vs0mg"},{"bike_id":"5063f4af-2df5-4a8d-971c-2e45b710db02","system_id":"levelo_inurba_marseille","lat":43.25582,"lon":5.38218,"is_reserved":false,"is_disabled":false,"rental_uris":{"android":"levelo://app?vid=5063f4af-2df5-4a8d-971c-2e45b710db02","ios":"levelo://app?vid=5063f4af-2df5-4a8d-971c-2e45b710db02"},"vehicle_type_id":"4","last_reported":1729940799,"current_range_meters":37600,"station_id":"ce4bhih2rcd13ifvqfs0","pricing_plan_id":"cebpf4jnsgd1na2vs0mg"},{"bike_id":"e16ba0fb-c8f9-4074-a1c8-ad626ad5602f","system_id":"levelo_inurba_marseille","lat":43.26943,"lon":5.40243,"is_reserved":false,"is_disabled":false,"rental_uris":{"android":"levelo://app?vid=e16ba0fb-c8f9-4074-a1c8-ad626ad5602f","ios":"levelo://app?vid=e16ba0fb-c8f9-4074-a1c8-ad626ad5602f"},"vehicle_type_id":"4","last_reported":1729940799,"current_range_meters":39200,"station_id":"cjm6bp8fraef2m0cb0m0","pricing_plan_id":"cebpf4jnsgd1na2vs0mg"},{"bike_id":"5282a92c-181d-4f7f-940f-0f5009b22aa8","system_id":"levelo_inurba_marseille","lat":43.27209,"lon":5.39184,"is_reserved":false,"is_disabled":false,"rental_uris":{"android":"levelo://app?vid=5282a92c-181d-4f7f-940f-0f5009b22aa8","ios":"levelo://app?vid=5282a92c-181d-4f7f-940f-0f5009b22aa8"},"vehicle_type_id":"4","last_reported":1729940799,"current_range_meters":36000,"station_id":"ce4bhhp2rcd13ifvqfm0","pricing_plan_id":"cebpf4jnsgd1na2vs0mg"},{"bike_id":"6f3e4e8d-904a-4ca8-903f-1024e76f0255","system_id":"levelo_inurba_marseille","lat":43.269523,"lon":5.386321,"is_reserved":false,"is_disabled":false,"rental_uris":{"android":"levelo://app?vid=6f3e4e8d-904a-4ca8-903f-1024e76f0255","ios":"levelo://app?vid=6f3e4e8d-904a-4ca8-903f-1024e76f0255"},"vehicle_type_id":"4","last_reported":1729940799,"current_range_meters":33200,"station_id":"ce4bhh92rcd13ifvqfh0","pricing_plan_id":"cebpf4jnsgd1na2vs0mg"},{"bike_id":"cde1e905-d555-4310-806f-11298f497bad","system_id":"levelo_inurba_marseille","lat":43.29523,"lon":5.37506,"is_reserved":false,"is_disabled":false,"rental_uris":{"android":"levelo://app?vid=cde1e905-d555-4310-806f-11298f497bad","ios":"levelo://app?vid=cde1e905-d555-4310-806f-11298f497bad"},"vehicle_type_id":"4","last_reported":1729940799,"current_range_meters":38000,"station_id":"ce4bgkp2rcd13ifvqbmg","pricing_plan_id":"cebpf4jnsgd1na2vs0mg"},{"bike_id":"270d1fbb-4583-48ba-8c59-eb4250e3c47b","system_id":"levelo_inurba_marseille","lat":43.28704,"lon":5.37384,"is_reserved":false,"is_disabled":false,"rental_uris":{"android":"levelo://app?vid=270d1fbb-4583-48ba-8c59-eb4250e3c47b","ios":"levelo://app?vid=270d1fbb-4583-48ba-8c59-eb4250e3c47b"},"vehicle_type_id":"4","last_reported":1729940799,"current_range_meters":30000,"station_id":"ce4bh3p2rcd13ifvqdq0","pricing_plan_id":"cebpf4jnsgd1na2vs0mg"},{"bike_id":"05f3612a-7bab-4410-9448-4f50dc6ad31b","system_id":"levelo_inurba_marseille","lat":43.25004,"lon":5.38937,"is_reserved":false,"is_disabled":false,"rental_uris":{"android":"levelo://app?vid=05f3612a-7bab-4410-9448-4f50dc6ad31b","ios":"levelo://app?vid=05f3612a-7bab-4410-9448-4f50dc6ad31b"},"vehicle_type_id":"4","last_reported":1729940799,"current_range_meters":36400,"station_id":"ce4bhgp2rcd13ifvqfd0","pricing_plan_id":"cebpf4jnsgd1na2vs0mg"},{"bike_id":"bf63600b-6111-4e2c-9b4d-ac2cd2c5fb6d","system_id":"levelo_inurba_marseille","lat":43.2991,"lon":5.37471,"is_reserved":false,"is_disabled":false,"rental_uris":{"android":"levelo://app?vid=bf63600b-6111-4e2c-9b4d-ac2cd2c5fb6d","ios":"levelo://app?vid=bf63600b-6111-4e2c-9b4d-ac2cd2c5fb6d"},"vehicle_type_id":"4","last_reported":1729940799,"current_range_meters":11200,"station_id":"ce4bgjh2rcd13ifvqbg0","pricing_plan_id":"cebpf4jnsgd1na2vs0mg"},{"bike_id":"81a79566-0322-46ac-900d-8d127f21c4ba","system_id":"levelo_inurba_marseille","lat":43.31758,"lon":5.39014,"is_reserved":false,"is_disabled":false,"rental_uris":{"android":"levelo://app?vid=81a79566-0322-46ac-900d-8d127f21c4ba","ios":"levelo://app?vid=81a79566-0322-46ac-900d-8d127f21c4ba"},"vehicle_type_id":"4","last_reported":1729940799,"current_range_meters":39200,"station_id":"ce4bhqp2rcd13ifvqhng","pricing_plan_id":"cebpf4jnsgd1na2vs0mg"},{"bike_id":"889e4acd-dea2-4e5b-91ea-b561581ead61","system_id":"levelo_inurba_marseille","lat":43.2656,"lon":5.39006,"is_reserved":false,"is_disabled":false,"rental_uris":{"android":"levelo://app?vid=889e4acd-dea2-4e5b-91ea-b561581ead61","ios":"levelo://app?vid=889e4acd-dea2-4e5b-91ea-b561581ead61"},"vehicle_type_id":"4","last_reported":1729940799,"current_range_meters":38800,"station_id":"ce4bhe12rcd13ifvqf30","pricing_plan_id":"cebpf4jnsgd1na2vs0mg"},{"bike_id":"dc690ca7-52fc-47f8-a2bd-076e56f966ed","system_id":"levelo_inurba_marseille","lat":43.27051,"lon":5.4026,"is_reserved":false,"is_disabled":false,"rental_uris":{"android":"levelo://app?vid=dc690ca7-52fc-47f8-a2bd-076e56f966ed","ios":"levelo://app?vid=dc690ca7-52fc-47f8-a2bd-076e56f966ed"},"vehicle_type_id":"4","last_reported":1729940799,"current_range_meters":37600,"station_id":"ce4bhk92rcd13ifvqgc0","pricing_plan_id":"cebpf4jnsgd1na2vs0mg"},{"bike_id":"1c14cc70-dba6-4007-90bb-09c77a87c357","system_id":"levelo_inurba_marseille","lat":43.26671,"lon":5.38262,"is_reserved":false,"is_disabled":false,"rental_uris":{"android":"levelo://app?vid=1c14cc70-dba6-4007-90bb-09c77a87c357","ios":"levelo://app?vid=1c14cc70-dba6-4007-90bb-09c77a87c357"},"vehicle_type_id":"4","last_reported":1729940799,"current_range_meters":38800,"station_id":"ce4bhg92rcd13ifvqf90","pricing_plan_id":"cebpf4jnsgd1na2vs0mg"},{"bike_id":"3a9bfb16-0c1d-4441-a397-be908d793bb9","system_id":"levelo_inurba_marseille","lat":43.2549,"lon":5.37649,"is_reserved":false,"is_disabled":false,"rental_uris":{"android":"levelo://app?vid=3a9bfb16-0c1d-4441-a397-be908d793bb9","ios":"levelo://app?vid=3a9bfb16-0c1d-4441-a397-be908d793bb9"},"vehicle_type_id":"4","last_reported":1729940799,"current_range_meters":32800,"station_id":"ce4bhh12rcd13ifvqff0","pricing_plan_id":"cebpf4jnsgd1na2vs0mg"},{"bike_id":"6c990c37-116e-41cb-a5de-cb44083ded54","system_id":"levelo_inurba_marseille","lat":43.2807,"lon":5.3965,"is_reserved":false,"is_disabled":false,"rental_uris":{"android":"levelo://app?vid=6c990c37-116e-41cb-a5de-cb44083ded54","ios":"levelo://app?vid=6c990c37-116e-41cb-a5de-cb44083ded54"},"vehicle_type_id":"4","last_reported":1729940799,"current_range_meters":40000,"station_id":"ce4bho12rcd13ifvqh2g","pricing_plan_id":"cebpf4jnsgd1na2vs0mg"},{"bike_id":"457011a0-e690-4a79-a04b-f72faa42e946","system_id":"levelo_inurba_marseille","lat":43.29288,"lon":5.37448,"is_reserved":false,"is_disabled":false,"rental_uris":{"android":"levelo://app?vid=457011a0-e690-4a79-a04b-f72faa42e946","ios":"levelo://app?vid=457011a0-e690-4a79-a04b-f72faa42e946"},"vehicle_type_id":"4","last_reported":1729940799,"current_range_meters":38800,"station_id":"ce4bgi12rcd13ifvqb70","pricing_plan_id":"cebpf4jnsgd1na2vs0mg"},{"bike_id":"dd444345-b5ca-4346-b71d-3a11eb9c325b","system_id":"levelo_inurba_marseille","lat":43.27814,"lon":5.40704,"is_reserved":false,"is_disabled":false,"rental_uris":{"android":"levelo://app?vid=dd444345-b5ca-4346-b71d-3a11eb9c325b","ios":"levelo://app?vid=dd444345-b5ca-4346-b71d-3a11eb9c325b"},"vehicle_type_id":"4","last_reported":1729940799,"current_range_meters":12400,"station_id":"ce4bhnh2rcd13ifvqgtg","pricing_plan_id":"cebpf4jnsgd1na2vs0mg"},{"bike_id":"d06a9c1c-9f1b-4654-8371-4f19bc149c10","system_id":"levelo_inurba_marseille","lat":43.32659,"lon":5.40993,"is_reserved":false,"is_disabled":false,"rental_uris":{"android":"levelo://app?vid=d06a9c1c-9f1b-4654-8371-4f19bc149c10","ios":"levelo://app?vid=d06a9c1c-9f1b-4654-8371-4f19bc149c10"},"vehicle_type_id":"4","last_reported":1729940799,"current_range_meters":38800,"station_id":"ce4bhpp2rcd13ifvqhgg","pricing_plan_id":"cebpf4jnsgd1na2vs0mg"},{"bike_id":"aa396cde-d0da-410d-9cdf-1538d4b7e19d","system_id":"levelo_inurba_marseille","lat":43.31768,"lon":5.38896,"is_reserved":false,"is_disabled":false,"rental_uris":{"android":"levelo://app?vid=aa396cde-d0da-410d-9cdf-1538d4b7e19d","ios":"levelo://app?vid=aa396cde-d0da-410d-9cdf-1538d4b7e19d"},"vehicle_type_id":"4","last_reported":1729940799,"current_range_meters":12400,"station_id":"","pricing_plan_id":"cebpf4jnsgd1na2vs0mg"},{"bike_id":"2c07bf12-9698-48a3-b58e-cca1f88b978d","system_id":"levelo_inurba_marseille","lat":43.29276,"lon":5.3685,"is_reserved":false,"is_disabled":false,"rental_uris":{"android":"levelo://app?vid=2c07bf12-9698-48a3-b58e-cca1f88b978d","ios":"levelo://app?vid=2c07bf12-9698-48a3-b58e-cca1f88b978d"},"vehicle_type_id":"4","last_reported":1729940799,"current_range_meters":28800,"station_id":"ce4bhbp2rcd13ifvqesg","pricing_plan_id":"cebpf4jnsgd1na2vs0mg"},{"bike_id":"600943db-8acc-4d0c-a03d-5e75e1a32988","system_id":"levelo_inurba_marseille","lat":43.29895,"lon":5.43669,"is_reserved":false,"is_disabled":false,"rental_uris":{"android":"levelo://app?vid=600943db-8acc-4d0c-a03d-5e75e1a32988","ios":"levelo://app?vid=600943db-8acc-4d0c-a03d-5e75e1a32988"},"vehicle_type_id":"4","last_reported":1729940799,"current_range_meters":24400,"station_id":"ce4bhpp2rcd13ifvqhfg","pricing_plan_id":"cebpf4jnsgd1na2vs0mg"},{"bike_id":"72d4fe02-7ad5-4cd4-aa12-822b9a78e2cb","system_id":"levelo_inurba_marseille","lat":43.30929,"lon":5.40143,"is_reserved":false,"is_disabled":false,"rental_uris":{"android":"levelo://app?vid=72d4fe02-7ad5-4cd4-aa12-822b9a78e2cb","ios":"levelo://app?vid=72d4fe02-7ad5-4cd4-aa12-822b9a78e2cb"},"vehicle_type_id":"4","last_reported":1729940799,"current_range_meters":36800,"station_id":"ce4bgvp2rcd13ifvqct0","pricing_plan_id":"cebpf4jnsgd1na2vs0mg"},{"bike_id":"c620abc8-2626-440f-878c-1efbd192a62e","system_id":"levelo_inurba_marseille","lat":43.25003,"lon":5.38929,"is_reserved":false,"is_disabled":false,"rental_uris":{"android":"levelo://app?vid=c620abc8-2626-440f-878c-1efbd192a62e","ios":"levelo://app?vid=c620abc8-2626-440f-878c-1efbd192a62e"},"vehicle_type_id":"4","last_reported":1729940799,"current_range_meters":40000,"station_id":"ce4bhgp2rcd13ifvqfd0","pricing_plan_id":"cebpf4jnsgd1na2vs0mg"},{"bike_id":"03c3662f-d9b5-485a-8a89-75c166e95f18","system_id":"levelo_inurba_marseille","lat":43.30143,"lon":5.3808,"is_reserved":false,"is_disabled":false,"rental_uris":{"android":"levelo://app?vid=03c3662f-d9b5-485a-8a89-75c166e95f18","ios":"levelo://app?vid=03c3662f-d9b5-485a-8a89-75c166e95f18"},"vehicle_type_id":"4","last_reported":1729940799,"current_range_meters":27600,"station_id":"ce4bgjp2rcd13ifvqbh0","pricing_plan_id":"cebpf4jnsgd1na2vs0mg"},{"bike_id":"48e86b98-5791-48d7-bd22-5c97543ca699","system_id":"levelo_inurba_marseille","lat":43.29583,"lon":5.36735,"is_reserved":false,"is_disabled":false,"rental_uris":{"android":"levelo://app?vid=48e86b98-5791-48d7-bd22-5c97543ca699","ios":"levelo://app?vid=48e86b98-5791-48d7-bd22-5c97543ca699"},"vehicle_type_id":"4","last_reported":1729940799,"current_range_meters":39200,"station_id":"ce4bgph2rcd13ifvqc2g","pricing_plan_id":"cebpf4jnsgd1na2vs0mg"},{"bike_id":"f73eb936-9c2a-478f-b577-3db04ff09a3e","system_id":"levelo_inurba_marseille","lat":43.29251,"lon":5.40909,"is_reserved":false,"is_disabled":false,"rental_uris":{"android":"levelo://app?vid=f73eb936-9c2a-478f-b577-3db04ff09a3e","ios":"levelo://app?vid=f73eb936-9c2a-478f-b577-3db04ff09a3e"},"vehicle_type_id":"4","last_reported":1729940799,"current_range_meters":40000,"station_id":"ce4bh192rcd13ifvqdc0","pricing_plan_id":"cebpf4jnsgd1na2vs0mg"},{"bike_id":"e00cefd2-b35f-4c6b-a657-0ed9ac2806c3","system_id":"levelo_inurba_marseille","lat":43.25121,"lon":5.40315,"is_reserved":false,"is_disabled":false,"rental_uris":{"android":"levelo://app?vid=e00cefd2-b35f-4c6b-a657-0ed9ac2806c3","ios":"levelo://app?vid=e00cefd2-b35f-4c6b-a657-0ed9ac2806c3"},"vehicle_type_id":"4","last_reported":1729940799,"current_range_meters":6400,"station_id":"ce4bhlh2rcd13ifvqgig","pricing_plan_id":"cebpf4jnsgd1na2vs0mg"},{"bike_id":"f4315c3d-1c70-4f5d-9cd1-2ff84d610473","system_id":"levelo_inurba_marseille","lat":43.26953,"lon":5.38621,"is_reserved":false,"is_disabled":false,"rental_uris":{"android":"levelo://app?vid=f4315c3d-1c70-4f5d-9cd1-2ff84d610473","ios":"levelo://app?vid=f4315c3d-1c70-4f5d-9cd1-2ff84d610473"},"vehicle_type_id":"4","last_reported":1729940799,"current_range_meters":39200,"station_id":"ce4bhh92rcd13ifvqfh0","pricing_plan_id":"cebpf4jnsgd1na2vs0mg"},{"bike_id":"0746b5ef-d14c-48d4-b50d-3a9822f0004c","system_id":"levelo_inurba_marseille","lat":43.22937,"lon":5.35378,"is_reserved":false,"is_disabled":false,"rental_uris":{"android":"levelo://app?vid=0746b5ef-d14c-48d4-b50d-3a9822f0004c","ios":"levelo://app?vid=0746b5ef-d14c-48d4-b50d-3a9822f0004c"},"vehicle_type_id":"4","last_reported":1729940799,"current_range_meters":36800,"station_id":"cpo3532slgdg3j2ikp40","pricing_plan_id":"cebpf4jnsgd1na2vs0mg"},{"bike_id":"914d2947-3b26-4608-bb0d-9b1e8fb3aa40","system_id":"levelo_inurba_marseille","lat":43.28155,"lon":5.42647,"is_reserved":false,"is_disabled":false,"rental_uris":{"android":"levelo://app?vid=914d2947-3b26-4608-bb0d-9b1e8fb3aa40","ios":"levelo://app?vid=914d2947-3b26-4608-bb0d-9b1e8fb3aa40"},"vehicle_type_id":"4","last_reported":1729940799,"current_range_meters":25200,"station_id":"ce4bhnh2rcd13ifvqgug","pricing_plan_id":"cebpf4jnsgd1na2vs0mg"},{"bike_id":"fcc3a32b-6373-425b-be0a-b1a445ac3c61","system_id":"levelo_inurba_marseille","lat":43.304854,"lon":5.401639,"is_reserved":false,"is_disabled":false,"rental_uris":{"android":"levelo://app?vid=fcc3a32b-6373-425b-be0a-b1a445ac3c61","ios":"levelo://app?vid=fcc3a32b-6373-425b-be0a-b1a445ac3c61"},"vehicle_type_id":"4","last_reported":1729940799,"current_range_meters":2800,"station_id":"ce4bgh92rcd13ifvqb50","pricing_plan_id":"cebpf4jnsgd1na2vs0mg"},{"bike_id":"3c6c8f01-0c7e-489a-90d0-255ca982db1d","system_id":"levelo_inurba_marseille","lat":43.29264,"lon":5.38437,"is_reserved":false,"is_disabled":false,"rental_uris":{"android":"levelo://app?vid=3c6c8f01-0c7e-489a-90d0-255ca982db1d","ios":"levelo://app?vid=3c6c8f01-0c7e-489a-90d0-255ca982db1d"},"vehicle_type_id":"4","last_reported":1729940799,"current_range_meters":35600,"station_id":"ce4bh692rcd13ifvqea0","pricing_plan_id":"cebpf4jnsgd1na2vs0mg"},{"bike_id":"9301cb24-76ce-463d-a0d4-e9352290ce27","system_id":"levelo_inurba_marseille","lat":43.255,"lon":5.37643,"is_reserved":false,"is_disabled":false,"rental_uris":{"android":"levelo://app?vid=9301cb24-76ce-463d-a0d4-e9352290ce27","ios":"levelo://app?vid=9301cb24-76ce-463d-a0d4-e9352290ce27"},"vehicle_type_id":"4","last_reported":1729940799,"current_range_meters":38400,"station_id":"ce4bhh12rcd13ifvqff0","pricing_plan_id":"cebpf4jnsgd1na2vs0mg"},{"bike_id":"390643ba-64c4-4db5-ac2a-2b26eb43c28f","system_id":"levelo_inurba_marseille","lat":43.28035,"lon":5.36938,"is_reserved":false,"is_disabled":false,"rental_uris":{"android":"levelo://app?vid=390643ba-64c4-4db5-ac2a-2b26eb43c28f","ios":"levelo://app?vid=390643ba-64c4-4db5-ac2a-2b26eb43c28f"},"vehicle_type_id":"4","last_reported":1729940799,"current_range_meters":12800,"station_id":"ce4bha12rcd13ifvqef0","pricing_plan_id":"cebpf4jnsgd1na2vs0mg"},{"bike_id":"2eb3614d-fdae-4f2e-bfce-1419027f17cd","system_id":"levelo_inurba_marseille","lat":43.30646,"lon":5.40069,"is_reserved":false,"is_disabled":false,"rental_uris":{"android":"levelo://app?vid=2eb3614d-fdae-4f2e-bfce-1419027f17cd","ios":"levelo://app?vid=2eb3614d-fdae-4f2e-bfce-1419027f17cd"},"vehicle_type_id":"4","last_reported":1729940799,"current_range_meters":33200,"station_id":"ce4bh112rcd13ifvqda0","pricing_plan_id":"cebpf4jnsgd1na2vs0mg"},{"bike_id":"5b304c83-865f-4544-a606-2995da4d1e73","system_id":"levelo_inurba_marseille","lat":43.28848,"lon":5.35838,"is_reserved":false,"is_disabled":false,"rental_uris":{"android":"levelo://app?vid=5b304c83-865f-4544-a606-2995da4d1e73","ios":"levelo://app?vid=5b304c83-865f-4544-a606-2995da4d1e73"},"vehicle_type_id":"4","last_reported":1729940799,"current_range_meters":38800,"station_id":"ce4bhb12rcd13ifvqem0","pricing_plan_id":"cebpf4jnsgd1na2vs0mg"},{"bike_id":"ef136fa5-257b-4ee5-bd73-f0de7405e6ba","system_id":"levelo_inurba_marseille","lat":43.24539,"lon":5.39519,"is_reserved":false,"is_disabled":false,"rental_uris":{"android":"levelo://app?vid=ef136fa5-257b-4ee5-bd73-f0de7405e6ba","ios":"levelo://app?vid=ef136fa5-257b-4ee5-bd73-f0de7405e6ba"},"vehicle_type_id":"4","last_reported":1729940799,"current_range_meters":30000,"station_id":"ce4bhlp2rcd13ifvqgjg","pricing_plan_id":"cebpf4jnsgd1na2vs0mg"},{"bike_id":"713b3c34-a82c-4f97-859d-5a57c93cc3a4","system_id":"levelo_inurba_marseille","lat":43.30597,"lon":5.37235,"is_reserved":false,"is_disabled":false,"rental_uris":{"android":"levelo://app?vid=713b3c34-a82c-4f97-859d-5a57c93cc3a4","ios":"levelo://app?vid=713b3c34-a82c-4f97-859d-5a57c93cc3a4"},"vehicle_type_id":"4","last_reported":1729940799,"current_range_meters":29600,"station_id":"ce4bgqh2rcd13ifvqc4g","pricing_plan_id":"cebpf4jnsgd1na2vs0mg"},{"bike_id":"5004519a-eca4-4739-9620-0c1d565549c1","system_id":"levelo_inurba_marseille","lat":43.23056,"lon":5.35498,"is_reserved":false,"is_disabled":false,"rental_uris":{"android":"levelo://app?vid=5004519a-eca4-4739-9620-0c1d565549c1","ios":"levelo://app?vid=5004519a-eca4-4739-9620-0c1d565549c1"},"vehicle_type_id":"4","last_reported":1729940799,"current_range_meters":16000,"station_id":"cpo3342slgdg3j2ifvpg","pricing_plan_id":"cebpf4jnsgd1na2vs0mg"},{"bike_id":"9295b118-4bed-4528-a35e-890783db516d","system_id":"levelo_inurba_marseille","lat":43.30189,"lon":5.36615,"is_reserved":false,"is_disabled":false,"rental_uris":{"android":"levelo://app?vid=9295b118-4bed-4528-a35e-890783db516d","ios":"levelo://app?vid=9295b118-4bed-4528-a35e-890783db516d"},"vehicle_type_id":"4","last_reported":1729940799,"current_range_meters":38800,"station_id":"ce4bgrh2rcd13ifvqc8g","pricing_plan_id":"cebpf4jnsgd1na2vs0mg"},{"bike_id":"9488ca84-aa5e-4311-bde9-38d634703444","system_id":"levelo_inurba_marseille","lat":43.32487,"lon":5.36555,"is_reserved":false,"is_disabled":false,"rental_uris":{"android":"levelo://app?vid=9488ca84-aa5e-4311-bde9-38d634703444","ios":"levelo://app?vid=9488ca84-aa5e-4311-bde9-38d634703444"},"vehicle_type_id":"4","last_reported":1729940799,"current_range_meters":37600,"station_id":"ce4bhs12rcd13ifvqhvg","pricing_plan_id":"cebpf4jnsgd1na2vs0mg"},{"bike_id":"1dc9af69-45f5-422d-b3d4-f034eefd4ce0","system_id":"levelo_inurba_marseille","lat":43.29168,"lon":5.37154,"is_reserved":false,"is_disabled":false,"rental_uris":{"android":"levelo://app?vid=1dc9af69-45f5-422d-b3d4-f034eefd4ce0","ios":"levelo://app?vid=1dc9af69-45f5-422d-b3d4-f034eefd4ce0"},"vehicle_type_id":"4","last_reported":1729940799,"current_range_meters":6000,"station_id":"ce4bha92rcd13ifvqeh0","pricing_plan_id":"cebpf4jnsgd1na2vs0mg"},{"bike_id":"ab85b0e9-b651-4798-b82c-1e65aed4e282","system_id":"levelo_inurba_marseille","lat":43.24073,"lon":5.37757,"is_reserved":false,"is_disabled":false,"rental_uris":{"android":"levelo://app?vid=ab85b0e9-b651-4798-b82c-1e65aed4e282","ios":"levelo://app?vid=ab85b0e9-b651-4798-b82c-1e65aed4e282"},"vehicle_type_id":"4","last_reported":1729940799,"current_range_meters":33200,"station_id":"ce4bhnp2rcd13ifvqgvg","pricing_plan_id":"cebpf4jnsgd1na2vs0mg"},{"bike_id":"3089c097-1307-40a4-adce-a9f4fd252f08","system_id":"levelo_inurba_marseille","lat":43.28661,"lon":5.36348,"is_reserved":false,"is_disabled":false,"rental_uris":{"android":"levelo://app?vid=3089c097-1307-40a4-adce-a9f4fd252f08","ios":"levelo://app?vid=3089c097-1307-40a4-adce-a9f4fd252f08"},"vehicle_type_id":"4","last_reported":1729940799,"current_range_meters":25200,"station_id":"ce4bhah2rcd13ifvqej0","pricing_plan_id":"cebpf4jnsgd1na2vs0mg"},{"bike_id":"3c5ddb2f-20a7-4146-ac62-db8b76c8aa3c","system_id":"levelo_inurba_marseille","lat":43.26806,"lon":5.40257,"is_reserved":false,"is_disabled":false,"rental_uris":{"android":"levelo://app?vid=3c5ddb2f-20a7-4146-ac62-db8b76c8aa3c","ios":"levelo://app?vid=3c5ddb2f-20a7-4146-ac62-db8b76c8aa3c"},"vehicle_type_id":"4","last_reported":1729940799,"current_range_meters":28800,"station_id":"ce501612rcd8frsf0b60","pricing_plan_id":"cebpf4jnsgd1na2vs0mg"},{"bike_id":"19842355-7deb-4315-b718-98ced67fcc85","system_id":"levelo_inurba_marseille","lat":43.30417,"lon":5.39752,"is_reserved":false,"is_disabled":false,"rental_uris":{"android":"levelo://app?vid=19842355-7deb-4315-b718-98ced67fcc85","ios":"levelo://app?vid=19842355-7deb-4315-b718-98ced67fcc85"},"vehicle_type_id":"4","last_reported":1729940799,"current_range_meters":38800,"station_id":"ce4bh092rcd13ifvqd20","pricing_plan_id":"cebpf4jnsgd1na2vs0mg"},{"bike_id":"b4930aef-1e61-4824-8bc4-f63f1ec0274f","system_id":"levelo_inurba_marseille","lat":43.30602,"lon":5.37222,"is_reserved":false,"is_disabled":false,"rental_uris":{"android":"levelo://app?vid=b4930aef-1e61-4824-8bc4-f63f1ec0274f","ios":"levelo://app?vid=b4930aef-1e61-4824-8bc4-f63f1ec0274f"},"vehicle_type_id":"4","last_reported":1729940799,"current_range_meters":38800,"station_id":"ce4bgqh2rcd13ifvqc4g","pricing_plan_id":"cebpf4jnsgd1na2vs0mg"},{"bike_id":"a5c10523-9e0d-428e-859e-d6234f3b6b9f","system_id":"levelo_inurba_marseille","lat":43.29794,"lon":5.40409,"is_reserved":false,"is_disabled":false,"rental_uris":{"android":"levelo://app?vid=a5c10523-9e0d-428e-859e-d6234f3b6b9f","ios":"levelo://app?vid=a5c10523-9e0d-428e-859e-d6234f3b6b9f"},"vehicle_type_id":"4","last_reported":1729940799,"current_range_meters":38800,"station_id":"ce4bh112rcd13ifvqd90","pricing_plan_id":"cebpf4jnsgd1na2vs0mg"},{"bike_id":"601916c5-3274-4e01-863c-d96df39ce3b1","system_id":"levelo_inurba_marseille","lat":43.26558,"lon":5.39,"is_reserved":false,"is_disabled":false,"rental_uris":{"android":"levelo://app?vid=601916c5-3274-4e01-863c-d96df39ce3b1","ios":"levelo://app?vid=601916c5-3274-4e01-863c-d96df39ce3b1"},"vehicle_type_id":"4","last_reported":1729940799,"current_range_meters":36800,"station_id":"ce4bhe12rcd13ifvqf30","pricing_plan_id":"cebpf4jnsgd1na2vs0mg"},{"bike_id":"14a76e75-36f8-4740-a470-b424aaf788f7","system_id":"levelo_inurba_marseille","lat":43.30459,"lon":5.37907,"is_reserved":false,"is_disabled":false,"rental_uris":{"android":"levelo://app?vid=14a76e75-36f8-4740-a470-b424aaf788f7","ios":"levelo://app?vid=14a76e75-36f8-4740-a470-b424aaf788f7"},"vehicle_type_id":"4","last_reported":1729940799,"current_range_meters":37600,"station_id":"ce4bgup2rcd13ifvqcn0","pricing_plan_id":"cebpf4jnsgd1na2vs0mg"},{"bike_id":"dc72e49c-b26a-401b-87fe-367cb03380d0","system_id":"levelo_inurba_marseille","lat":43.28079,"lon":5.39649,"is_reserved":false,"is_disabled":false,"rental_uris":{"android":"levelo://app?vid=dc72e49c-b26a-401b-87fe-367cb03380d0","ios":"levelo://app?vid=dc72e49c-b26a-401b-87fe-367cb03380d0"},"vehicle_type_id":"4","last_reported":1729940799,"current_range_meters":18000,"station_id":"ce4bho12rcd13ifvqh2g","pricing_plan_id":"cebpf4jnsgd1na2vs0mg"},{"bike_id":"1fafbe93-2ba4-4077-bfcf-7b3992b30a25","system_id":"levelo_inurba_marseille","lat":43.29551,"lon":5.4228,"is_reserved":false,"is_disabled":false,"rental_uris":{"android":"levelo://app?vid=1fafbe93-2ba4-4077-bfcf-7b3992b30a25","ios":"levelo://app?vid=1fafbe93-2ba4-4077-bfcf-7b3992b30a25"},"vehicle_type_id":"4","last_reported":1729940799,"current_range_meters":38800,"station_id":"ce4bhph2rcd13ifvqhdg","pricing_plan_id":"cebpf4jnsgd1na2vs0mg"},{"bike_id":"7b9bb9f6-2747-4f5c-a936-06f552492e45","system_id":"levelo_inurba_marseille","lat":43.31727,"lon":5.42395,"is_reserved":false,"is_disabled":false,"rental_uris":{"android":"levelo://app?vid=7b9bb9f6-2747-4f5c-a936-06f552492e45","ios":"levelo://app?vid=7b9bb9f6-2747-4f5c-a936-06f552492e45"},"vehicle_type_id":"4","last_reported":1729940799,"current_range_meters":38000,"station_id":"ce4bhp92rcd13ifvqhbg","pricing_plan_id":"cebpf4jnsgd1na2vs0mg"},{"bike_id":"20338cae-d7bb-4e32-8180-8a4dae4a6518","system_id":"levelo_inurba_marseille","lat":43.28367,"lon":5.38625,"is_reserved":false,"is_disabled":false,"rental_uris":{"android":"levelo://app?vid=20338cae-d7bb-4e32-8180-8a4dae4a6518","ios":"levelo://app?vid=20338cae-d7bb-4e32-8180-8a4dae4a6518"},"vehicle_type_id":"4","last_reported":1729940799,"current_range_meters":34000,"station_id":"ce4bh492rcd13ifvqdvg","pricing_plan_id":"cebpf4jnsgd1na2vs0mg"},{"bike_id":"a6a5412d-25cc-4ab7-8978-8b51410244f5","system_id":"levelo_inurba_marseille","lat":43.27918,"lon":5.39581,"is_reserved":false,"is_disabled":false,"rental_uris":{"android":"levelo://app?vid=a6a5412d-25cc-4ab7-8978-8b51410244f5","ios":"levelo://app?vid=a6a5412d-25cc-4ab7-8978-8b51410244f5"},"vehicle_type_id":"4","last_reported":1729940799,"current_range_meters":24800,"station_id":"ce4bhf92rcd13ifvqf40","pricing_plan_id":"cebpf4jnsgd1na2vs0mg"},{"bike_id":"8a55373d-8f54-4890-9729-5db301ba9fa0","system_id":"levelo_inurba_marseille","lat":43.25006,"lon":5.38912,"is_reserved":false,"is_disabled":false,"rental_uris":{"android":"levelo://app?vid=8a55373d-8f54-4890-9729-5db301ba9fa0","ios":"levelo://app?vid=8a55373d-8f54-4890-9729-5db301ba9fa0"},"vehicle_type_id":"4","last_reported":1729940799,"current_range_meters":36800,"station_id":"ce4bhgp2rcd13ifvqfd0","pricing_plan_id":"cebpf4jnsgd1na2vs0mg"},{"bike_id":"bf1c8fb2-54b2-4993-8c1d-e3d89cdae68a","system_id":"levelo_inurba_marseille","lat":43.29978,"lon":5.3717,"is_reserved":false,"is_disabled":false,"rental_uris":{"android":"levelo://app?vid=bf1c8fb2-54b2-4993-8c1d-e3d89cdae68a","ios":"levelo://app?vid=bf1c8fb2-54b2-4993-8c1d-e3d89cdae68a"},"vehicle_type_id":"4","last_reported":1729940799,"current_range_meters":30400,"station_id":"ce4bgr92rcd13ifvqc7g","pricing_plan_id":"cebpf4jnsgd1na2vs0mg"},{"bike_id":"53a224bd-aa2a-48d8-9970-4a46e1e3fd0c","system_id":"levelo_inurba_marseille","lat":43.29971,"lon":5.3849,"is_reserved":false,"is_disabled":false,"rental_uris":{"android":"levelo://app?vid=53a224bd-aa2a-48d8-9970-4a46e1e3fd0c","ios":"levelo://app?vid=53a224bd-aa2a-48d8-9970-4a46e1e3fd0c"},"vehicle_type_id":"4","last_reported":1729940799,"current_range_meters":38800,"station_id":"ce4bgj92rcd13ifvqbd0","pricing_plan_id":"cebpf4jnsgd1na2vs0mg"},{"bike_id":"2dc1054e-31cd-417c-b94f-5232c4755f08","system_id":"levelo_inurba_marseille","lat":43.30477,"lon":5.37903,"is_reserved":false,"is_disabled":false,"rental_uris":{"android":"levelo://app?vid=2dc1054e-31cd-417c-b94f-5232c4755f08","ios":"levelo://app?vid=2dc1054e-31cd-417c-b94f-5232c4755f08"},"vehicle_type_id":"4","last_reported":1729940799,"current_range_meters":15200,"station_id":"ce4bgup2rcd13ifvqcn0","pricing_plan_id":"cebpf4jnsgd1na2vs0mg"},{"bike_id":"d69c50b6-009d-4b86-a209-155be199527e","system_id":"levelo_inurba_marseille","lat":43.31076,"lon":5.42431,"is_reserved":false,"is_disabled":false,"rental_uris":{"android":"levelo://app?vid=d69c50b6-009d-4b86-a209-155be199527e","ios":"levelo://app?vid=d69c50b6-009d-4b86-a209-155be199527e"},"vehicle_type_id":"4","last_reported":1729940799,"current_range_meters":38000,"station_id":"ce4bhp92rcd13ifvqhag","pricing_plan_id":"cebpf4jnsgd1na2vs0mg"},{"bike_id":"e3bbdfd0-41da-4e90-b8c0-1246b6ee1872","system_id":"levelo_inurba_marseille","lat":43.28725,"lon":5.3608,"is_reserved":false,"is_disabled":false,"rental_uris":{"android":"levelo://app?vid=e3bbdfd0-41da-4e90-b8c0-1246b6ee1872","ios":"levelo://app?vid=e3bbdfd0-41da-4e90-b8c0-1246b6ee1872"},"vehicle_type_id":"4","last_reported":1729940799,"current_range_meters":28400,"station_id":"cki0cbj6b192h4jlfktg","pricing_plan_id":"cebpf4jnsgd1na2vs0mg"},{"bike_id":"b6fdfdd0-c6c4-458e-9154-49bc8b72a318","system_id":"levelo_inurba_marseille","lat":43.27323,"lon":5.39111,"is_reserved":false,"is_disabled":false,"rental_uris":{"android":"levelo://app?vid=b6fdfdd0-c6c4-458e-9154-49bc8b72a318","ios":"levelo://app?vid=b6fdfdd0-c6c4-458e-9154-49bc8b72a318"},"vehicle_type_id":"4","last_reported":1729940799,"current_range_meters":27600,"station_id":"ce4bhgp2rcd13ifvqfe0","pricing_plan_id":"cebpf4jnsgd1na2vs0mg"},{"bike_id":"f52dc158-649d-4a31-90c8-1d3f191fd52c","system_id":"levelo_inurba_marseille","lat":43.27059,"lon":5.40262,"is_reserved":false,"is_disabled":false,"rental_uris":{"android":"levelo://app?vid=f52dc158-649d-4a31-90c8-1d3f191fd52c","ios":"levelo://app?vid=f52dc158-649d-4a31-90c8-1d3f191fd52c"},"vehicle_type_id":"4","last_reported":1729940799,"current_range_meters":6400,"station_id":"ce4bhk92rcd13ifvqgc0","pricing_plan_id":"cebpf4jnsgd1na2vs0mg"},{"bike_id":"c5342152-eaa7-4487-b5ac-2c3245f2bd54","system_id":"levelo_inurba_marseille","lat":43.28489,"lon":5.38426,"is_reserved":false,"is_disabled":false,"rental_uris":{"android":"levelo://app?vid=c5342152-eaa7-4487-b5ac-2c3245f2bd54","ios":"levelo://app?vid=c5342152-eaa7-4487-b5ac-2c3245f2bd54"},"vehicle_type_id":"4","last_reported":1729940799,"current_range_meters":19200,"station_id":"ce4bh512rcd13ifvqe3g","pricing_plan_id":"cebpf4jnsgd1na2vs0mg"},{"bike_id":"b16977e5-a179-4486-942f-cb962ca2667c","system_id":"levelo_inurba_marseille","lat":43.30283,"lon":5.37694,"is_reserved":false,"is_disabled":false,"rental_uris":{"android":"levelo://app?vid=b16977e5-a179-4486-942f-cb962ca2667c","ios":"levelo://app?vid=b16977e5-a179-4486-942f-cb962ca2667c"},"vehicle_type_id":"4","last_reported":1729940799,"current_range_meters":34800,"station_id":"ce4bguh2rcd13ifvqcj0","pricing_plan_id":"cebpf4jnsgd1na2vs0mg"},{"bike_id":"a57007c5-4677-4dd1-a320-66b5f5c3835a","system_id":"levelo_inurba_marseille","lat":43.29028,"lon":5.37563,"is_reserved":false,"is_disabled":false,"rental_uris":{"android":"levelo://app?vid=a57007c5-4677-4dd1-a320-66b5f5c3835a","ios":"levelo://app?vid=a57007c5-4677-4dd1-a320-66b5f5c3835a"},"vehicle_type_id":"4","last_reported":1729940799,"current_range_meters":37600,"station_id":"ce4bh692rcd13ifvqe90","pricing_plan_id":"cebpf4jnsgd1na2vs0mg"},{"bike_id":"bf291e7e-22e0-40c3-9fbf-804e4d125b27","system_id":"levelo_inurba_marseille","lat":43.25582,"lon":5.38223,"is_reserved":false,"is_disabled":false,"rental_uris":{"android":"levelo://app?vid=bf291e7e-22e0-40c3-9fbf-804e4d125b27","ios":"levelo://app?vid=bf291e7e-22e0-40c3-9fbf-804e4d125b27"},"vehicle_type_id":"4","last_reported":1729940799,"current_range_meters":19600,"station_id":"ce4bhih2rcd13ifvqfs0","pricing_plan_id":"cebpf4jnsgd1na2vs0mg"},{"bike_id":"704ff70b-3044-4cc0-a1b3-72bc6b15acdb","system_id":"levelo_inurba_marseille","lat":43.284803,"lon":5.385384,"is_reserved":false,"is_disabled":false,"rental_uris":{"android":"levelo://app?vid=704ff70b-3044-4cc0-a1b3-72bc6b15acdb","ios":"levelo://app?vid=704ff70b-3044-4cc0-a1b3-72bc6b15acdb"},"vehicle_type_id":"4","last_reported":1729940799,"current_range_meters":37600,"station_id":"ce4bh8p2rcd13ifvqeb0","pricing_plan_id":"cebpf4jnsgd1na2vs0mg"},{"bike_id":"79c7ebe1-7a54-4b93-b68a-abae41a12b29","system_id":"levelo_inurba_marseille","lat":43.25008,"lon":5.38918,"is_reserved":false,"is_disabled":false,"rental_uris":{"android":"levelo://app?vid=79c7ebe1-7a54-4b93-b68a-abae41a12b29","ios":"levelo://app?vid=79c7ebe1-7a54-4b93-b68a-abae41a12b29"},"vehicle_type_id":"4","last_reported":1729940799,"current_range_meters":36800,"station_id":"ce4bhgp2rcd13ifvqfd0","pricing_plan_id":"cebpf4jnsgd1na2vs0mg"},{"bike_id":"44a7eef2-5334-4949-9d65-ece79625e0e3","system_id":"levelo_inurba_marseille","lat":43.29025,"lon":5.38633,"is_reserved":false,"is_disabled":false,"rental_uris":{"android":"levelo://app?vid=44a7eef2-5334-4949-9d65-ece79625e0e3","ios":"levelo://app?vid=44a7eef2-5334-4949-9d65-ece79625e0e3"},"vehicle_type_id":"4","last_reported":1729940799,"current_range_meters":32000,"station_id":"ce4bh4p2rcd13ifvqe0g","pricing_plan_id":"cebpf4jnsgd1na2vs0mg"},{"bike_id":"f1718aba-bfa4-4847-9806-a4170faa9045","system_id":"levelo_inurba_marseille","lat":43.29632,"lon":5.37167,"is_reserved":false,"is_disabled":false,"rental_uris":{"android":"levelo://app?vid=f1718aba-bfa4-4847-9806-a4170faa9045","ios":"levelo://app?vid=f1718aba-bfa4-4847-9806-a4170faa9045"},"vehicle_type_id":"4","last_reported":1729940799,"current_range_meters":37600,"station_id":"ce4bgnh2rcd13ifvqc0g","pricing_plan_id":"cebpf4jnsgd1na2vs0mg"},{"bike_id":"c3ebbc5b-25fd-4dd3-998f-772b34c825c0","system_id":"levelo_inurba_marseille","lat":43.23155,"lon":5.43705,"is_reserved":false,"is_disabled":false,"rental_uris":{"android":"levelo://app?vid=c3ebbc5b-25fd-4dd3-998f-772b34c825c0","ios":"levelo://app?vid=c3ebbc5b-25fd-4dd3-998f-772b34c825c0"},"vehicle_type_id":"4","last_reported":1729940799,"current_range_meters":23200,"station_id":"ce4bhmp2rcd13ifvqgog","pricing_plan_id":"cebpf4jnsgd1na2vs0mg"},{"bike_id":"5e840611-e92f-421a-a7b9-a27075e76721","system_id":"levelo_inurba_marseille","lat":43.279152,"lon":5.395845,"is_reserved":false,"is_disabled":false,"rental_uris":{"android":"levelo://app?vid=5e840611-e92f-421a-a7b9-a27075e76721","ios":"levelo://app?vid=5e840611-e92f-421a-a7b9-a27075e76721"},"vehicle_type_id":"4","last_reported":1729940799,"current_range_meters":27600,"station_id":"ce4bhf92rcd13ifvqf40","pricing_plan_id":"cebpf4jnsgd1na2vs0mg"},{"bike_id":"763f5dbb-276a-40ae-aed0-f11835e3b041","system_id":"levelo_inurba_marseille","lat":43.22936,"lon":5.35382,"is_reserved":false,"is_disabled":false,"rental_uris":{"android":"levelo://app?vid=763f5dbb-276a-40ae-aed0-f11835e3b041","ios":"levelo://app?vid=763f5dbb-276a-40ae-aed0-f11835e3b041"},"vehicle_type_id":"4","last_reported":1729940799,"current_range_meters":24000,"station_id":"cpo3532slgdg3j2ikp40","pricing_plan_id":"cebpf4jnsgd1na2vs0mg"},{"bike_id":"c5c148f0-dd7a-4ca3-a716-0ab8d698ee31","system_id":"levelo_inurba_marseille","lat":43.30455,"lon":5.37906,"is_reserved":false,"is_disabled":false,"rental_uris":{"android":"levelo://app?vid=c5c148f0-dd7a-4ca3-a716-0ab8d698ee31","ios":"levelo://app?vid=c5c148f0-dd7a-4ca3-a716-0ab8d698ee31"},"vehicle_type_id":"4","last_reported":1729940799,"current_range_meters":37600,"station_id":"ce4bgup2rcd13ifvqcn0","pricing_plan_id":"cebpf4jnsgd1na2vs0mg"},{"bike_id":"a4cdb9e2-dcee-478e-b833-1e72009d3ae3","system_id":"levelo_inurba_marseille","lat":43.30417,"lon":5.4128,"is_reserved":false,"is_disabled":false,"rental_uris":{"android":"levelo://app?vid=a4cdb9e2-dcee-478e-b833-1e72009d3ae3","ios":"levelo://app?vid=a4cdb9e2-dcee-478e-b833-1e72009d3ae3"},"vehicle_type_id":"4","last_reported":1729940799,"current_range_meters":6400,"station_id":"ce4bhop2rcd13ifvqh8g","pricing_plan_id":"cebpf4jnsgd1na2vs0mg"},{"bike_id":"066db38b-bbf2-4017-ba70-939039c7d4a3","system_id":"levelo_inurba_marseille","lat":43.30356,"lon":5.41872,"is_reserved":false,"is_disabled":false,"rental_uris":{"android":"levelo://app?vid=066db38b-bbf2-4017-ba70-939039c7d4a3","ios":"levelo://app?vid=066db38b-bbf2-4017-ba70-939039c7d4a3"},"vehicle_type_id":"4","last_reported":1729940799,"current_range_meters":38800,"station_id":"ce4bhop2rcd13ifvqh7g","pricing_plan_id":"cebpf4jnsgd1na2vs0mg"},{"bike_id":"cdbbb7bf-eee3-47be-9fbd-41adba71a569","system_id":"levelo_inurba_marseille","lat":43.28932,"lon":5.3663,"is_reserved":false,"is_disabled":false,"rental_uris":{"android":"levelo://app?vid=cdbbb7bf-eee3-47be-9fbd-41adba71a569","ios":"levelo://app?vid=cdbbb7bf-eee3-47be-9fbd-41adba71a569"},"vehicle_type_id":"4","last_reported":1729940799,"current_range_meters":38000,"station_id":"ce4bhap2rcd13ifvqek0","pricing_plan_id":"cebpf4jnsgd1na2vs0mg"},{"bike_id":"7993c3c6-8627-409c-8d7e-2d80fc199ec1","system_id":"levelo_inurba_marseille","lat":43.33606,"lon":5.41024,"is_reserved":false,"is_disabled":false,"rental_uris":{"android":"levelo://app?vid=7993c3c6-8627-409c-8d7e-2d80fc199ec1","ios":"levelo://app?vid=7993c3c6-8627-409c-8d7e-2d80fc199ec1"},"vehicle_type_id":"4","last_reported":1729940799,"current_range_meters":26000,"station_id":"ce4bhqh2rcd13ifvqhmg","pricing_plan_id":"cebpf4jnsgd1na2vs0mg"},{"bike_id":"3d73d8fc-7b5f-43d2-95a2-3b5cde846654","system_id":"levelo_inurba_marseille","lat":43.25873,"lon":5.39896,"is_reserved":false,"is_disabled":false,"rental_uris":{"android":"levelo://app?vid=3d73d8fc-7b5f-43d2-95a2-3b5cde846654","ios":"levelo://app?vid=3d73d8fc-7b5f-43d2-95a2-3b5cde846654"},"vehicle_type_id":"4","last_reported":1729940799,"current_range_meters":16000,"station_id":"ce4bhl92rcd13ifvqghg","pricing_plan_id":"cebpf4jnsgd1na2vs0mg"},{"bike_id":"d7ff7165-6d5c-4f76-865c-b2ea1a2a3c7a","system_id":"levelo_inurba_marseille","lat":43.27496,"lon":5.42452,"is_reserved":false,"is_disabled":false,"rental_uris":{"android":"levelo://app?vid=d7ff7165-6d5c-4f76-865c-b2ea1a2a3c7a","ios":"levelo://app?vid=d7ff7165-6d5c-4f76-865c-b2ea1a2a3c7a"},"vehicle_type_id":"4","last_reported":1729940799,"current_range_meters":10800,"station_id":"ce4bhn92rcd13ifvqgrg","pricing_plan_id":"cebpf4jnsgd1na2vs0mg"},{"bike_id":"578fec5a-8a35-4232-ab6c-e7d31c04260b","system_id":"levelo_inurba_marseille","lat":43.29602,"lon":5.38091,"is_reserved":false,"is_disabled":false,"rental_uris":{"android":"levelo://app?vid=578fec5a-8a35-4232-ab6c-e7d31c04260b","ios":"levelo://app?vid=578fec5a-8a35-4232-ab6c-e7d31c04260b"},"vehicle_type_id":"4","last_reported":1729940799,"current_range_meters":33600,"station_id":"ce4bgl12rcd13ifvqbo0","pricing_plan_id":"cebpf4jnsgd1na2vs0mg"},{"bike_id":"3ee52172-9951-4a11-9822-003e51ea5555","system_id":"levelo_inurba_marseille","lat":43.27979,"lon":5.38737,"is_reserved":false,"is_disabled":false,"rental_uris":{"android":"levelo://app?vid=3ee52172-9951-4a11-9822-003e51ea5555","ios":"levelo://app?vid=3ee52172-9951-4a11-9822-003e51ea5555"},"vehicle_type_id":"4","last_reported":1729940799,"current_range_meters":8800,"station_id":"ce4bhg12rcd13ifvqf80","pricing_plan_id":"cebpf4jnsgd1na2vs0mg"},{"bike_id":"6e741f56-2372-478e-abd8-56fec2a720be","system_id":"levelo_inurba_marseille","lat":43.309359,"lon":5.401429,"is_reserved":false,"is_disabled":false,"rental_uris":{"android":"levelo://app?vid=6e741f56-2372-478e-abd8-56fec2a720be","ios":"levelo://app?vid=6e741f56-2372-478e-abd8-56fec2a720be"},"vehicle_type_id":"4","last_reported":1729940799,"current_range_meters":38800,"station_id":"ce4bgvp2rcd13ifvqct0","pricing_plan_id":"cebpf4jnsgd1na2vs0mg"},{"bike_id":"8001b44d-9ab0-46f5-80ea-c34d9f92effc","system_id":"levelo_inurba_marseille","lat":43.2694,"lon":5.40239,"is_reserved":false,"is_disabled":false,"rental_uris":{"android":"levelo://app?vid=8001b44d-9ab0-46f5-80ea-c34d9f92effc","ios":"levelo://app?vid=8001b44d-9ab0-46f5-80ea-c34d9f92effc"},"vehicle_type_id":"4","last_reported":1729940799,"current_range_meters":39200,"station_id":"cjm6bp8fraef2m0cb0m0","pricing_plan_id":"cebpf4jnsgd1na2vs0mg"},{"bike_id":"17243270-b8a4-4820-bfc1-f4893a87f2a4","system_id":"levelo_inurba_marseille","lat":43.24999,"lon":5.38932,"is_reserved":false,"is_disabled":false,"rental_uris":{"android":"levelo://app?vid=17243270-b8a4-4820-bfc1-f4893a87f2a4","ios":"levelo://app?vid=17243270-b8a4-4820-bfc1-f4893a87f2a4"},"vehicle_type_id":"4","last_reported":1729940799,"current_range_meters":36400,"station_id":"ce4bhgp2rcd13ifvqfd0","pricing_plan_id":"cebpf4jnsgd1na2vs0mg"},{"bike_id":"c55e53e9-5c05-40ed-9bd6-9b0749bafc17","system_id":"levelo_inurba_marseille","lat":43.29716,"lon":5.36609,"is_reserved":false,"is_disabled":false,"rental_uris":{"android":"levelo://app?vid=c55e53e9-5c05-40ed-9bd6-9b0749bafc17","ios":"levelo://app?vid=c55e53e9-5c05-40ed-9bd6-9b0749bafc17"},"vehicle_type_id":"4","last_reported":1729940799,"current_range_meters":24000,"station_id":"ce4bgn12rcd13ifvqbt0","pricing_plan_id":"cebpf4jnsgd1na2vs0mg"},{"bike_id":"0c965fa6-f5df-4a10-8318-ecdb5eb64c59","system_id":"levelo_inurba_marseille","lat":43.337444,"lon":5.374475,"is_reserved":false,"is_disabled":false,"rental_uris":{"android":"levelo://app?vid=0c965fa6-f5df-4a10-8318-ecdb5eb64c59","ios":"levelo://app?vid=0c965fa6-f5df-4a10-8318-ecdb5eb64c59"},"vehicle_type_id":"4","last_reported":1729940799,"current_range_meters":33200,"station_id":"","pricing_plan_id":"cebpf4jnsgd1na2vs0mg"},{"bike_id":"a19e53cd-6405-4f1f-a645-4c4b22071002","system_id":"levelo_inurba_marseille","lat":43.28416,"lon":5.3499,"is_reserved":false,"is_disabled":false,"rental_uris":{"android":"levelo://app?vid=a19e53cd-6405-4f1f-a645-4c4b22071002","ios":"levelo://app?vid=a19e53cd-6405-4f1f-a645-4c4b22071002"},"vehicle_type_id":"4","last_reported":1729940799,"current_range_meters":19200,"station_id":"ce4bhbh2rcd13ifvqepg","pricing_plan_id":"cebpf4jnsgd1na2vs0mg"},{"bike_id":"31554b55-47d7-43b1-ad82-9d997bccc8c1","system_id":"levelo_inurba_marseille","lat":43.301,"lon":5.39083,"is_reserved":false,"is_disabled":false,"rental_uris":{"android":"levelo://app?vid=31554b55-47d7-43b1-ad82-9d997bccc8c1","ios":"levelo://app?vid=31554b55-47d7-43b1-ad82-9d997bccc8c1"},"vehicle_type_id":"4","last_reported":1729940799,"current_range_meters":28400,"station_id":"ce4bh192rcd13ifvqdb0","pricing_plan_id":"cebpf4jnsgd1na2vs0mg"},{"bike_id":"d4aec44f-ddca-4104-91b2-0d4ceaa50166","system_id":"levelo_inurba_marseille","lat":43.28078,"lon":5.39652,"is_reserved":false,"is_disabled":false,"rental_uris":{"android":"levelo://app?vid=d4aec44f-ddca-4104-91b2-0d4ceaa50166","ios":"levelo://app?vid=d4aec44f-ddca-4104-91b2-0d4ceaa50166"},"vehicle_type_id":"4","last_reported":1729940799,"current_range_meters":40000,"station_id":"ce4bho12rcd13ifvqh2g","pricing_plan_id":"cebpf4jnsgd1na2vs0mg"},{"bike_id":"3d52c75e-21c8-425b-a6d2-0cf7c2a167ed","system_id":"levelo_inurba_marseille","lat":43.28642,"lon":5.40771,"is_reserved":false,"is_disabled":false,"rental_uris":{"android":"levelo://app?vid=3d52c75e-21c8-425b-a6d2-0cf7c2a167ed","ios":"levelo://app?vid=3d52c75e-21c8-425b-a6d2-0cf7c2a167ed"},"vehicle_type_id":"4","last_reported":1729940799,"current_range_meters":9200,"station_id":"","pricing_plan_id":"cebpf4jnsgd1na2vs0mg"},{"bike_id":"f9dd0103-b045-4d3e-97f0-feaf4a2d3923","system_id":"levelo_inurba_marseille","lat":43.24999,"lon":5.38912,"is_reserved":false,"is_disabled":false,"rental_uris":{"android":"levelo://app?vid=f9dd0103-b045-4d3e-97f0-feaf4a2d3923","ios":"levelo://app?vid=f9dd0103-b045-4d3e-97f0-feaf4a2d3923"},"vehicle_type_id":"4","last_reported":1729940799,"current_range_meters":9600,"station_id":"ce4bhgp2rcd13ifvqfd0","pricing_plan_id":"cebpf4jnsgd1na2vs0mg"},{"bike_id":"225be540-bd75-4636-8a6a-362c5613f52a","system_id":"levelo_inurba_marseille","lat":43.27927,"lon":5.39586,"is_reserved":false,"is_disabled":false,"rental_uris":{"android":"levelo://app?vid=225be540-bd75-4636-8a6a-362c5613f52a","ios":"levelo://app?vid=225be540-bd75-4636-8a6a-362c5613f52a"},"vehicle_type_id":"4","last_reported":1729940799,"current_range_meters":18800,"station_id":"ce4bhf92rcd13ifvqf40","pricing_plan_id":"cebpf4jnsgd1na2vs0mg"},{"bike_id":"45762a51-15f0-4a01-8913-533a2ec0e59b","system_id":"levelo_inurba_marseille","lat":43.31087,"lon":5.42422,"is_reserved":false,"is_disabled":false,"rental_uris":{"android":"levelo://app?vid=45762a51-15f0-4a01-8913-533a2ec0e59b","ios":"levelo://app?vid=45762a51-15f0-4a01-8913-533a2ec0e59b"},"vehicle_type_id":"4","last_reported":1729940799,"current_range_meters":32800,"station_id":"ce4bhp92rcd13ifvqhag","pricing_plan_id":"cebpf4jnsgd1na2vs0mg"},{"bike_id":"c35847dd-3fd4-4b17-8a06-da8fbf47376e","system_id":"levelo_inurba_marseille","lat":43.3054,"lon":5.36533,"is_reserved":false,"is_disabled":false,"rental_uris":{"android":"levelo://app?vid=c35847dd-3fd4-4b17-8a06-da8fbf47376e","ios":"levelo://app?vid=c35847dd-3fd4-4b17-8a06-da8fbf47376e"},"vehicle_type_id":"4","last_reported":1729940799,"current_range_meters":26800,"station_id":"ce4bgs12rcd13ifvqcag","pricing_plan_id":"cebpf4jnsgd1na2vs0mg"},{"bike_id":"634fe65e-1374-4ea6-9bcd-a13c44b56c25","system_id":"levelo_inurba_marseille","lat":43.29628,"lon":5.40593,"is_reserved":false,"is_disabled":false,"rental_uris":{"android":"levelo://app?vid=634fe65e-1374-4ea6-9bcd-a13c44b56c25","ios":"levelo://app?vid=634fe65e-1374-4ea6-9bcd-a13c44b56c25"},"vehicle_type_id":"4","last_reported":1729940799,"current_range_meters":28800,"station_id":"ce4bh0h2rcd13ifvqd60","pricing_plan_id":"cebpf4jnsgd1na2vs0mg"},{"bike_id":"7817fd80-4bd6-4bd9-9d15-f5ea0c629181","system_id":"levelo_inurba_marseille","lat":43.309514,"lon":5.390368,"is_reserved":false,"is_disabled":false,"rental_uris":{"android":"levelo://app?vid=7817fd80-4bd6-4bd9-9d15-f5ea0c629181","ios":"levelo://app?vid=7817fd80-4bd6-4bd9-9d15-f5ea0c629181"},"vehicle_type_id":"4","last_reported":1729940799,"current_range_meters":39200,"station_id":"ce4bgup2rcd13ifvqco0","pricing_plan_id":"cebpf4jnsgd1na2vs0mg"},{"bike_id":"fe0863da-9a70-466a-9350-47fdf2c8cc05","system_id":"levelo_inurba_marseille","lat":43.27056,"lon":5.40259,"is_reserved":false,"is_disabled":false,"rental_uris":{"android":"levelo://app?vid=fe0863da-9a70-466a-9350-47fdf2c8cc05","ios":"levelo://app?vid=fe0863da-9a70-466a-9350-47fdf2c8cc05"},"vehicle_type_id":"4","last_reported":1729940799,"current_range_meters":24000,"station_id":"ce4bhk92rcd13ifvqgc0","pricing_plan_id":"cebpf4jnsgd1na2vs0mg"},{"bike_id":"e586cb8e-3d89-4b69-b15d-f04652b4e5d8","system_id":"levelo_inurba_marseille","lat":43.29288,"lon":5.40101,"is_reserved":false,"is_disabled":false,"rental_uris":{"android":"levelo://app?vid=e586cb8e-3d89-4b69-b15d-f04652b4e5d8","ios":"levelo://app?vid=e586cb8e-3d89-4b69-b15d-f04652b4e5d8"},"vehicle_type_id":"4","last_reported":1729940799,"current_range_meters":20000,"station_id":"ce4bh312rcd13ifvqdk0","pricing_plan_id":"cebpf4jnsgd1na2vs0mg"},{"bike_id":"376af249-9c47-489a-b6b3-a9289c54e08f","system_id":"levelo_inurba_marseille","lat":43.28859,"lon":5.35837,"is_reserved":false,"is_disabled":false,"rental_uris":{"android":"levelo://app?vid=376af249-9c47-489a-b6b3-a9289c54e08f","ios":"levelo://app?vid=376af249-9c47-489a-b6b3-a9289c54e08f"},"vehicle_type_id":"4","last_reported":1729940799,"current_range_meters":36800,"station_id":"ce4bhb12rcd13ifvqem0","pricing_plan_id":"cebpf4jnsgd1na2vs0mg"},{"bike_id":"9710488d-6aae-4f66-a1e4-52e8e4c71cf2","system_id":"levelo_inurba_marseille","lat":43.32368,"lon":5.3887,"is_reserved":false,"is_disabled":false,"rental_uris":{"android":"levelo://app?vid=9710488d-6aae-4f66-a1e4-52e8e4c71cf2","ios":"levelo://app?vid=9710488d-6aae-4f66-a1e4-52e8e4c71cf2"},"vehicle_type_id":"4","last_reported":1729940799,"current_range_meters":9200,"station_id":"ce4bhqp2rcd13ifvqhog","pricing_plan_id":"cebpf4jnsgd1na2vs0mg"},{"bike_id":"e84e856c-cb91-40cb-8475-874a7429eb26","system_id":"levelo_inurba_marseille","lat":43.3171,"lon":5.37748,"is_reserved":false,"is_disabled":false,"rental_uris":{"android":"levelo://app?vid=e84e856c-cb91-40cb-8475-874a7429eb26","ios":"levelo://app?vid=e84e856c-cb91-40cb-8475-874a7429eb26"},"vehicle_type_id":"4","last_reported":1729940799,"current_range_meters":34800,"station_id":"ce4bgth2rcd13ifvqch0","pricing_plan_id":"cebpf4jnsgd1na2vs0mg"},{"bike_id":"f762acd9-b02a-46fd-958c-66071ffaafb4","system_id":"levelo_inurba_marseille","lat":43.29788,"lon":5.37097,"is_reserved":false,"is_disabled":false,"rental_uris":{"android":"levelo://app?vid=f762acd9-b02a-46fd-958c-66071ffaafb4","ios":"levelo://app?vid=f762acd9-b02a-46fd-958c-66071ffaafb4"},"vehicle_type_id":"4","last_reported":1729940799,"current_range_meters":37600,"station_id":"ce4bgop2rcd13ifvqc1g","pricing_plan_id":"cebpf4jnsgd1na2vs0mg"},{"bike_id":"5037e2e2-f258-48c6-a031-6f1a1dd240dc","system_id":"levelo_inurba_marseille","lat":43.30409,"lon":5.41282,"is_reserved":false,"is_disabled":false,"rental_uris":{"android":"levelo://app?vid=5037e2e2-f258-48c6-a031-6f1a1dd240dc","ios":"levelo://app?vid=5037e2e2-f258-48c6-a031-6f1a1dd240dc"},"vehicle_type_id":"4","last_reported":1729940799,"current_range_meters":38800,"station_id":"ce4bhop2rcd13ifvqh8g","pricing_plan_id":"cebpf4jnsgd1na2vs0mg"},{"bike_id":"d42b7d14-0184-4361-9e14-de3eae3b47e4","system_id":"levelo_inurba_marseille","lat":43.27966,"lon":5.38707,"is_reserved":false,"is_disabled":false,"rental_uris":{"android":"levelo://app?vid=d42b7d14-0184-4361-9e14-de3eae3b47e4","ios":"levelo://app?vid=d42b7d14-0184-4361-9e14-de3eae3b47e4"},"vehicle_type_id":"4","last_reported":1729940799,"current_range_meters":38800,"station_id":"ce4bhg12rcd13ifvqf80","pricing_plan_id":"cebpf4jnsgd1na2vs0mg"},{"bike_id":"a3451eaf-92a2-4fa0-ae0c-6aef33aea07b","system_id":"levelo_inurba_marseille","lat":43.30214,"lon":5.39464,"is_reserved":false,"is_disabled":false,"rental_uris":{"android":"levelo://app?vid=a3451eaf-92a2-4fa0-ae0c-6aef33aea07b","ios":"levelo://app?vid=a3451eaf-92a2-4fa0-ae0c-6aef33aea07b"},"vehicle_type_id":"4","last_reported":1729940799,"current_range_meters":38000,"station_id":"ce4bh0p2rcd13ifvqd70","pricing_plan_id":"cebpf4jnsgd1na2vs0mg"},{"bike_id":"7d588577-bc2a-4592-9242-f82e8e35c359","system_id":"levelo_inurba_marseille","lat":43.24805,"lon":5.37448,"is_reserved":false,"is_disabled":false,"rental_uris":{"android":"levelo://app?vid=7d588577-bc2a-4592-9242-f82e8e35c359","ios":"levelo://app?vid=7d588577-bc2a-4592-9242-f82e8e35c359"},"vehicle_type_id":"4","last_reported":1729940799,"current_range_meters":38800,"station_id":"ce4bhgh2rcd13ifvqfb0","pricing_plan_id":"cebpf4jnsgd1na2vs0mg"},{"bike_id":"3440d9b5-3e68-45f4-98be-6b0e41381653","system_id":"levelo_inurba_marseille","lat":43.28444,"lon":5.39188,"is_reserved":false,"is_disabled":false,"rental_uris":{"android":"levelo://app?vid=3440d9b5-3e68-45f4-98be-6b0e41381653","ios":"levelo://app?vid=3440d9b5-3e68-45f4-98be-6b0e41381653"},"vehicle_type_id":"4","last_reported":1729940799,"current_range_meters":27200,"station_id":"ce4bhoh2rcd13ifvqh5g","pricing_plan_id":"cebpf4jnsgd1na2vs0mg"},{"bike_id":"f6a5ef30-cd45-4f33-acc1-40cc262286be","system_id":"levelo_inurba_marseille","lat":43.26942,"lon":5.40239,"is_reserved":false,"is_disabled":false,"rental_uris":{"android":"levelo://app?vid=f6a5ef30-cd45-4f33-acc1-40cc262286be","ios":"levelo://app?vid=f6a5ef30-cd45-4f33-acc1-40cc262286be"},"vehicle_type_id":"4","last_reported":1729940799,"current_range_meters":40000,"station_id":"cjm6bp8fraef2m0cb0m0","pricing_plan_id":"cebpf4jnsgd1na2vs0mg"},{"bike_id":"4746fe8f-a6ef-4e1b-aaef-5a4b9fc83054","system_id":"levelo_inurba_marseille","lat":43.29896,"lon":5.4365,"is_reserved":false,"is_disabled":false,"rental_uris":{"android":"levelo://app?vid=4746fe8f-a6ef-4e1b-aaef-5a4b9fc83054","ios":"levelo://app?vid=4746fe8f-a6ef-4e1b-aaef-5a4b9fc83054"},"vehicle_type_id":"4","last_reported":1729940799,"current_range_meters":38000,"station_id":"ce4bhpp2rcd13ifvqhfg","pricing_plan_id":"cebpf4jnsgd1na2vs0mg"},{"bike_id":"c4f16691-f8e1-494d-b2b9-e447f16bf18a","system_id":"levelo_inurba_marseille","lat":43.25822,"lon":5.39424,"is_reserved":false,"is_disabled":false,"rental_uris":{"android":"levelo://app?vid=c4f16691-f8e1-494d-b2b9-e447f16bf18a","ios":"levelo://app?vid=c4f16691-f8e1-494d-b2b9-e447f16bf18a"},"vehicle_type_id":"4","last_reported":1729940799,"current_range_meters":26000,"station_id":"ce4bhip2rcd13ifvqft0","pricing_plan_id":"cebpf4jnsgd1na2vs0mg"},{"bike_id":"386c6a7e-cd6c-4112-aa78-c50040cf1776","system_id":"levelo_inurba_marseille","lat":43.25082,"lon":5.3952,"is_reserved":false,"is_disabled":false,"rental_uris":{"android":"levelo://app?vid=386c6a7e-cd6c-4112-aa78-c50040cf1776","ios":"levelo://app?vid=386c6a7e-cd6c-4112-aa78-c50040cf1776"},"vehicle_type_id":"4","last_reported":1729940799,"current_range_meters":39200,"station_id":"ce4bhm12rcd13ifvqgkg","pricing_plan_id":"cebpf4jnsgd1na2vs0mg"},{"bike_id":"6c43583c-98b7-41ff-b49a-d03b56987ad5","system_id":"levelo_inurba_marseille","lat":43.28854,"lon":5.39306,"is_reserved":false,"is_disabled":false,"rental_uris":{"android":"levelo://app?vid=6c43583c-98b7-41ff-b49a-d03b56987ad5","ios":"levelo://app?vid=6c43583c-98b7-41ff-b49a-d03b56987ad5"},"vehicle_type_id":"4","last_reported":1729940799,"current_range_meters":38800,"station_id":"ce4bh2p2rcd13ifvqdi0","pricing_plan_id":"cebpf4jnsgd1na2vs0mg"},{"bike_id":"9befed88-9f8c-464c-b07b-093bd97066bb","system_id":"levelo_inurba_marseille","lat":43.29805,"lon":5.37136,"is_reserved":false,"is_disabled":false,"rental_uris":{"android":"levelo://app?vid=9befed88-9f8c-464c-b07b-093bd97066bb","ios":"levelo://app?vid=9befed88-9f8c-464c-b07b-093bd97066bb"},"vehicle_type_id":"4","last_reported":1729940799,"current_range_meters":24800,"station_id":"","pricing_plan_id":"cebpf4jnsgd1na2vs0mg"},{"bike_id":"add0ab97-1b2f-4101-b07e-39b5e43e73df","system_id":"levelo_inurba_marseille","lat":43.26688,"lon":5.38275,"is_reserved":false,"is_disabled":false,"rental_uris":{"android":"levelo://app?vid=add0ab97-1b2f-4101-b07e-39b5e43e73df","ios":"levelo://app?vid=add0ab97-1b2f-4101-b07e-39b5e43e73df"},"vehicle_type_id":"4","last_reported":1729940799,"current_range_meters":32800,"station_id":"ce4bhg92rcd13ifvqf90","pricing_plan_id":"cebpf4jnsgd1na2vs0mg"},{"bike_id":"27219b22-cff7-43c0-a689-7c60dd6346ef","system_id":"levelo_inurba_marseille","lat":43.293659,"lon":5.378375,"is_reserved":false,"is_disabled":false,"rental_uris":{"android":"levelo://app?vid=27219b22-cff7-43c0-a689-7c60dd6346ef","ios":"levelo://app?vid=27219b22-cff7-43c0-a689-7c60dd6346ef"},"vehicle_type_id":"4","last_reported":1729940799,"current_range_meters":30000,"station_id":"ce4bh292rcd13ifvqdg0","pricing_plan_id":"cebpf4jnsgd1na2vs0mg"},{"bike_id":"c9e8b5a2-8ac3-4a82-a772-27cec38c9982","system_id":"levelo_inurba_marseille","lat":43.26793,"lon":5.39408,"is_reserved":false,"is_disabled":false,"rental_uris":{"android":"levelo://app?vid=c9e8b5a2-8ac3-4a82-a772-27cec38c9982","ios":"levelo://app?vid=c9e8b5a2-8ac3-4a82-a772-27cec38c9982"},"vehicle_type_id":"4","last_reported":1729940799,"current_range_meters":36000,"station_id":"ce4bhh12rcd13ifvqfg0","pricing_plan_id":"cebpf4jnsgd1na2vs0mg"},{"bike_id":"3c962cc6-b107-4188-88be-2b8cdb861df0","system_id":"levelo_inurba_marseille","lat":43.29568,"lon":5.37498,"is_reserved":false,"is_disabled":false,"rental_uris":{"android":"levelo://app?vid=3c962cc6-b107-4188-88be-2b8cdb861df0","ios":"levelo://app?vid=3c962cc6-b107-4188-88be-2b8cdb861df0"},"vehicle_type_id":"4","last_reported":1729940799,"current_range_meters":39200,"station_id":"ce4bgh92rcd13ifvqb50","pricing_plan_id":"cebpf4jnsgd1na2vs0mg"},{"bike_id":"b64c53c1-cbe6-40f1-b1a8-0fce59c77951","system_id":"levelo_inurba_marseille","lat":43.29577,"lon":5.37502,"is_reserved":false,"is_disabled":false,"rental_uris":{"android":"levelo://app?vid=b64c53c1-cbe6-40f1-b1a8-0fce59c77951","ios":"levelo://app?vid=b64c53c1-cbe6-40f1-b1a8-0fce59c77951"},"vehicle_type_id":"4","last_reported":1729940799,"current_range_meters":17600,"station_id":"ce4bgh92rcd13ifvqb50","pricing_plan_id":"cebpf4jnsgd1na2vs0mg"},{"bike_id":"1178cda2-5c3a-4d86-b4d3-b676154bd669","system_id":"levelo_inurba_marseille","lat":43.2718,"lon":5.40987,"is_reserved":false,"is_disabled":false,"rental_uris":{"android":"levelo://app?vid=1178cda2-5c3a-4d86-b4d3-b676154bd669","ios":"levelo://app?vid=1178cda2-5c3a-4d86-b4d3-b676154bd669"},"vehicle_type_id":"4","last_reported":1729940799,"current_range_meters":40000,"station_id":"ce4bhl12rcd13ifvqgf0","pricing_plan_id":"cebpf4jnsgd1na2vs0mg"},{"bike_id":"9f741eb8-4308-4511-8be3-1cde4f07cf7e","system_id":"levelo_inurba_marseille","lat":43.25867,"lon":5.39902,"is_reserved":false,"is_disabled":false,"rental_uris":{"android":"levelo://app?vid=9f741eb8-4308-4511-8be3-1cde4f07cf7e","ios":"levelo://app?vid=9f741eb8-4308-4511-8be3-1cde4f07cf7e"},"vehicle_type_id":"4","last_reported":1729940799,"current_range_meters":33600,"station_id":"ce4bhl92rcd13ifvqghg","pricing_plan_id":"cebpf4jnsgd1na2vs0mg"},{"bike_id":"5c8d47df-cace-44d5-9922-d4ea86fc841f","system_id":"levelo_inurba_marseille","lat":43.23972,"lon":5.36614,"is_reserved":false,"is_disabled":false,"rental_uris":{"android":"levelo://app?vid=5c8d47df-cace-44d5-9922-d4ea86fc841f","ios":"levelo://app?vid=5c8d47df-cace-44d5-9922-d4ea86fc841f"},"vehicle_type_id":"4","last_reported":1729940799,"current_range_meters":16800,"station_id":"ce4bhi12rcd13ifvqfp0","pricing_plan_id":"cebpf4jnsgd1na2vs0mg"},{"bike_id":"b8fbf6cb-4344-49f0-aa51-6bf07fd511fe","system_id":"levelo_inurba_marseille","lat":43.2549,"lon":5.37646,"is_reserved":false,"is_disabled":false,"rental_uris":{"android":"levelo://app?vid=b8fbf6cb-4344-49f0-aa51-6bf07fd511fe","ios":"levelo://app?vid=b8fbf6cb-4344-49f0-aa51-6bf07fd511fe"},"vehicle_type_id":"4","last_reported":1729940799,"current_range_meters":28000,"station_id":"ce4bhh12rcd13ifvqff0","pricing_plan_id":"cebpf4jnsgd1na2vs0mg"},{"bike_id":"55841616-52dc-4da7-abf2-e48d73a5e891","system_id":"levelo_inurba_marseille","lat":43.25936,"lon":5.4091,"is_reserved":false,"is_disabled":false,"rental_uris":{"android":"levelo://app?vid=55841616-52dc-4da7-abf2-e48d73a5e891","ios":"levelo://app?vid=55841616-52dc-4da7-abf2-e48d73a5e891"},"vehicle_type_id":"4","last_reported":1729940799,"current_range_meters":35200,"station_id":"ce4bhm92rcd13ifvqglg","pricing_plan_id":"cebpf4jnsgd1na2vs0mg"},{"bike_id":"fa0d9b42-8430-42f7-b028-e598c8f32fe4","system_id":"levelo_inurba_marseille","lat":43.27557,"lon":5.38418,"is_reserved":false,"is_disabled":false,"rental_uris":{"android":"levelo://app?vid=fa0d9b42-8430-42f7-b028-e598c8f32fe4","ios":"levelo://app?vid=fa0d9b42-8430-42f7-b028-e598c8f32fe4"},"vehicle_type_id":"4","last_reported":1729940799,"current_range_meters":14800,"station_id":"ce4bhh92rcd13ifvqfi0","pricing_plan_id":"cebpf4jnsgd1na2vs0mg"},{"bike_id":"78fe5887-32b3-4abc-bf3a-d9e9dae1fbd2","system_id":"levelo_inurba_marseille","lat":43.27057,"lon":5.40252,"is_reserved":false,"is_disabled":false,"rental_uris":{"android":"levelo://app?vid=78fe5887-32b3-4abc-bf3a-d9e9dae1fbd2","ios":"levelo://app?vid=78fe5887-32b3-4abc-bf3a-d9e9dae1fbd2"},"vehicle_type_id":"4","last_reported":1729940799,"current_range_meters":38000,"station_id":"ce4bhk92rcd13ifvqgc0","pricing_plan_id":"cebpf4jnsgd1na2vs0mg"},{"bike_id":"63dffe58-b321-4992-b66b-9f28a3e3e3b4","system_id":"levelo_inurba_marseille","lat":43.29956,"lon":5.41309,"is_reserved":false,"is_disabled":false,"rental_uris":{"android":"levelo://app?vid=63dffe58-b321-4992-b66b-9f28a3e3e3b4","ios":"levelo://app?vid=63dffe58-b321-4992-b66b-9f28a3e3e3b4"},"vehicle_type_id":"4","last_reported":1729940799,"current_range_meters":26800,"station_id":"ce4bhp12rcd13ifvqh9g","pricing_plan_id":"cebpf4jnsgd1na2vs0mg"},{"bike_id":"0f3c8ac4-6ddb-4ab9-bf74-403d7db9e9b9","system_id":"levelo_inurba_marseille","lat":43.24653,"lon":5.38885,"is_reserved":false,"is_disabled":false,"rental_uris":{"android":"levelo://app?vid=0f3c8ac4-6ddb-4ab9-bf74-403d7db9e9b9","ios":"levelo://app?vid=0f3c8ac4-6ddb-4ab9-bf74-403d7db9e9b9"},"vehicle_type_id":"4","last_reported":1729940799,"current_range_meters":39200,"station_id":"ce4bhg12rcd13ifvqf60","pricing_plan_id":"cebpf4jnsgd1na2vs0mg"},{"bike_id":"0dd7b1e0-0573-492f-afff-9a7072cc3069","system_id":"levelo_inurba_marseille","lat":43.29974,"lon":5.38483,"is_reserved":false,"is_disabled":false,"rental_uris":{"android":"levelo://app?vid=0dd7b1e0-0573-492f-afff-9a7072cc3069","ios":"levelo://app?vid=0dd7b1e0-0573-492f-afff-9a7072cc3069"},"vehicle_type_id":"4","last_reported":1729940799,"current_range_meters":28400,"station_id":"ce4bgj92rcd13ifvqbd0","pricing_plan_id":"cebpf4jnsgd1na2vs0mg"},{"bike_id":"5a2889c7-d179-456d-81a3-c1688ce18faf","system_id":"levelo_inurba_marseille","lat":43.28842,"lon":5.35855,"is_reserved":false,"is_disabled":false,"rental_uris":{"android":"levelo://app?vid=5a2889c7-d179-456d-81a3-c1688ce18faf","ios":"levelo://app?vid=5a2889c7-d179-456d-81a3-c1688ce18faf"},"vehicle_type_id":"4","last_reported":1729940799,"current_range_meters":36400,"station_id":"ce4bhb12rcd13ifvqem0","pricing_plan_id":"cebpf4jnsgd1na2vs0mg"},{"bike_id":"66194b2a-f144-4471-9d9e-acbadd78f0a4","system_id":"levelo_inurba_marseille","lat":43.29979,"lon":5.37175,"is_reserved":false,"is_disabled":false,"rental_uris":{"android":"levelo://app?vid=66194b2a-f144-4471-9d9e-acbadd78f0a4","ios":"levelo://app?vid=66194b2a-f144-4471-9d9e-acbadd78f0a4"},"vehicle_type_id":"4","last_reported":1729940799,"current_range_meters":38800,"station_id":"ce4bgr92rcd13ifvqc7g","pricing_plan_id":"cebpf4jnsgd1na2vs0mg"},{"bike_id":"b5f80f50-9b56-41b3-b656-5da59068349a","system_id":"levelo_inurba_marseille","lat":43.30591,"lon":5.3935,"is_reserved":false,"is_disabled":false,"rental_uris":{"android":"levelo://app?vid=b5f80f50-9b56-41b3-b656-5da59068349a","ios":"levelo://app?vid=b5f80f50-9b56-41b3-b656-5da59068349a"},"vehicle_type_id":"4","last_reported":1729940799,"current_range_meters":30800,"station_id":"ce4bh0p2rcd13ifvqd80","pricing_plan_id":"cebpf4jnsgd1na2vs0mg"},{"bike_id":"f092f188-890e-415c-bcfe-54d392c6e1bb","system_id":"levelo_inurba_marseille","lat":43.30417,"lon":5.41278,"is_reserved":false,"is_disabled":false,"rental_uris":{"android":"levelo://app?vid=f092f188-890e-415c-bcfe-54d392c6e1bb","ios":"levelo://app?vid=f092f188-890e-415c-bcfe-54d392c6e1bb"},"vehicle_type_id":"4","last_reported":1729940799,"current_range_meters":37600,"station_id":"ce4bhop2rcd13ifvqh8g","pricing_plan_id":"cebpf4jnsgd1na2vs0mg"},{"bike_id":"b3445027-a8e2-4aea-a331-71ddc6fc9484","system_id":"levelo_inurba_marseille","lat":43.24656,"lon":5.38884,"is_reserved":false,"is_disabled":false,"rental_uris":{"android":"levelo://app?vid=b3445027-a8e2-4aea-a331-71ddc6fc9484","ios":"levelo://app?vid=b3445027-a8e2-4aea-a331-71ddc6fc9484"},"vehicle_type_id":"4","last_reported":1729940799,"current_range_meters":39200,"station_id":"ce4bhg12rcd13ifvqf60","pricing_plan_id":"cebpf4jnsgd1na2vs0mg"},{"bike_id":"8fd639fe-732d-47a4-97d0-991481537880","system_id":"levelo_inurba_marseille","lat":43.29729,"lon":5.37686,"is_reserved":false,"is_disabled":false,"rental_uris":{"android":"levelo://app?vid=8fd639fe-732d-47a4-97d0-991481537880","ios":"levelo://app?vid=8fd639fe-732d-47a4-97d0-991481537880"},"vehicle_type_id":"4","last_reported":1729940799,"current_range_meters":38000,"station_id":"ce4bgkh2rcd13ifvqbl0","pricing_plan_id":"cebpf4jnsgd1na2vs0mg"},{"bike_id":"628d15f3-c28a-40e4-aad8-bb35f99c8668","system_id":"levelo_inurba_marseille","lat":43.2721,"lon":5.39184,"is_reserved":false,"is_disabled":false,"rental_uris":{"android":"levelo://app?vid=628d15f3-c28a-40e4-aad8-bb35f99c8668","ios":"levelo://app?vid=628d15f3-c28a-40e4-aad8-bb35f99c8668"},"vehicle_type_id":"4","last_reported":1729940799,"current_range_meters":38800,"station_id":"ce4bhhp2rcd13ifvqfm0","pricing_plan_id":"cebpf4jnsgd1na2vs0mg"},{"bike_id":"ff0a3573-003d-4966-a881-5959109e57ba","system_id":"levelo_inurba_marseille","lat":43.30954,"lon":5.39043,"is_reserved":false,"is_disabled":false,"rental_uris":{"android":"levelo://app?vid=ff0a3573-003d-4966-a881-5959109e57ba","ios":"levelo://app?vid=ff0a3573-003d-4966-a881-5959109e57ba"},"vehicle_type_id":"4","last_reported":1729940799,"current_range_meters":38800,"station_id":"ce4bgup2rcd13ifvqco0","pricing_plan_id":"cebpf4jnsgd1na2vs0mg"},{"bike_id":"d3cc5ab0-9e3a-41ba-9860-c06c0ddb4613","system_id":"levelo_inurba_marseille","lat":43.22934,"lon":5.35379,"is_reserved":false,"is_disabled":false,"rental_uris":{"android":"levelo://app?vid=d3cc5ab0-9e3a-41ba-9860-c06c0ddb4613","ios":"levelo://app?vid=d3cc5ab0-9e3a-41ba-9860-c06c0ddb4613"},"vehicle_type_id":"4","last_reported":1729940799,"current_range_meters":36400,"station_id":"cpo3532slgdg3j2ikp40","pricing_plan_id":"cebpf4jnsgd1na2vs0mg"},{"bike_id":"b425a53a-2ca1-45d6-9375-1a007f59f76d","system_id":"levelo_inurba_marseille","lat":43.27417,"lon":5.39406,"is_reserved":false,"is_disabled":false,"rental_uris":{"android":"levelo://app?vid=b425a53a-2ca1-45d6-9375-1a007f59f76d","ios":"levelo://app?vid=b425a53a-2ca1-45d6-9375-1a007f59f76d"},"vehicle_type_id":"4","last_reported":1729940799,"current_range_meters":20400,"station_id":"ce4bhdp2rcd13ifvqf20","pricing_plan_id":"cebpf4jnsgd1na2vs0mg"},{"bike_id":"cff8651c-77f0-4779-a7d1-9202230ceabd","system_id":"levelo_inurba_marseille","lat":43.28424,"lon":5.34993,"is_reserved":false,"is_disabled":false,"rental_uris":{"android":"levelo://app?vid=cff8651c-77f0-4779-a7d1-9202230ceabd","ios":"levelo://app?vid=cff8651c-77f0-4779-a7d1-9202230ceabd"},"vehicle_type_id":"4","last_reported":1729940799,"current_range_meters":8800,"station_id":"ce4bhbh2rcd13ifvqepg","pricing_plan_id":"cebpf4jnsgd1na2vs0mg"},{"bike_id":"34d5956e-4ecb-4c56-a68a-84e4c1ad2440","system_id":"levelo_inurba_marseille","lat":43.28446,"lon":5.39174,"is_reserved":false,"is_disabled":false,"rental_uris":{"android":"levelo://app?vid=34d5956e-4ecb-4c56-a68a-84e4c1ad2440","ios":"levelo://app?vid=34d5956e-4ecb-4c56-a68a-84e4c1ad2440"},"vehicle_type_id":"4","last_reported":1729940799,"current_range_meters":2800,"station_id":"ce4bhoh2rcd13ifvqh5g","pricing_plan_id":"cebpf4jnsgd1na2vs0mg"},{"bike_id":"53c5f996-6ad5-48af-b7ab-eb0d176e34d5","system_id":"levelo_inurba_marseille","lat":43.32391,"lon":5.38932,"is_reserved":false,"is_disabled":false,"rental_uris":{"android":"levelo://app?vid=53c5f996-6ad5-48af-b7ab-eb0d176e34d5","ios":"levelo://app?vid=53c5f996-6ad5-48af-b7ab-eb0d176e34d5"},"vehicle_type_id":"4","last_reported":1729940799,"current_range_meters":9200,"station_id":"ce4bhqp2rcd13ifvqhog","pricing_plan_id":"cebpf4jnsgd1na2vs0mg"},{"bike_id":"30c69a91-d82e-450c-9bcd-90cae2f86e5b","system_id":"levelo_inurba_marseille","lat":43.2957,"lon":5.3751,"is_reserved":false,"is_disabled":false,"rental_uris":{"android":"levelo://app?vid=30c69a91-d82e-450c-9bcd-90cae2f86e5b","ios":"levelo://app?vid=30c69a91-d82e-450c-9bcd-90cae2f86e5b"},"vehicle_type_id":"4","last_reported":1729940799,"current_range_meters":37600,"station_id":"ce4bgh92rcd13ifvqb50","pricing_plan_id":"cebpf4jnsgd1na2vs0mg"},{"bike_id":"1c122e80-7b9e-4700-9eaa-1e7c46ed2f63","system_id":"levelo_inurba_marseille","lat":43.28435,"lon":5.39177,"is_reserved":false,"is_disabled":false,"rental_uris":{"android":"levelo://app?vid=1c122e80-7b9e-4700-9eaa-1e7c46ed2f63","ios":"levelo://app?vid=1c122e80-7b9e-4700-9eaa-1e7c46ed2f63"},"vehicle_type_id":"4","last_reported":1729940799,"current_range_meters":38800,"station_id":"ce4bhoh2rcd13ifvqh5g","pricing_plan_id":"cebpf4jnsgd1na2vs0mg"},{"bike_id":"77c18be5-681d-4638-b73f-1ff1430a5d90","system_id":"levelo_inurba_marseille","lat":43.27972,"lon":5.38718,"is_reserved":false,"is_disabled":false,"rental_uris":{"android":"levelo://app?vid=77c18be5-681d-4638-b73f-1ff1430a5d90","ios":"levelo://app?vid=77c18be5-681d-4638-b73f-1ff1430a5d90"},"vehicle_type_id":"4","last_reported":1729940799,"current_range_meters":38000,"station_id":"ce4bhg12rcd13ifvqf80","pricing_plan_id":"cebpf4jnsgd1na2vs0mg"},{"bike_id":"6910ba25-a427-4bde-9b09-025c6510bfe7","system_id":"levelo_inurba_marseille","lat":43.29713,"lon":5.3769,"is_reserved":false,"is_disabled":false,"rental_uris":{"android":"levelo://app?vid=6910ba25-a427-4bde-9b09-025c6510bfe7","ios":"levelo://app?vid=6910ba25-a427-4bde-9b09-025c6510bfe7"},"vehicle_type_id":"4","last_reported":1729940799,"current_range_meters":38400,"station_id":"ce4bgkh2rcd13ifvqbl0","pricing_plan_id":"cebpf4jnsgd1na2vs0mg"},{"bike_id":"cc8985e4-a7b1-405d-a881-7c17031e9870","system_id":"levelo_inurba_marseille","lat":43.28,"lon":5.4166,"is_reserved":false,"is_disabled":false,"rental_uris":{"android":"levelo://app?vid=cc8985e4-a7b1-405d-a881-7c17031e9870","ios":"levelo://app?vid=cc8985e4-a7b1-405d-a881-7c17031e9870"},"vehicle_type_id":"4","last_reported":1729940799,"current_range_meters":27200,"station_id":"ce4bho12rcd13ifvqh1g","pricing_plan_id":"cebpf4jnsgd1na2vs0mg"},{"bike_id":"51232825-bb0f-4b43-97af-dece088bc48a","system_id":"levelo_inurba_marseille","lat":43.29715,"lon":5.37689,"is_reserved":false,"is_disabled":false,"rental_uris":{"android":"levelo://app?vid=51232825-bb0f-4b43-97af-dece088bc48a","ios":"levelo://app?vid=51232825-bb0f-4b43-97af-dece088bc48a"},"vehicle_type_id":"4","last_reported":1729940799,"current_range_meters":34000,"station_id":"ce4bgkh2rcd13ifvqbl0","pricing_plan_id":"cebpf4jnsgd1na2vs0mg"},{"bike_id":"4b74eb33-05ad-43e5-ba93-18819101a30a","system_id":"levelo_inurba_marseille","lat":43.29724,"lon":5.37688,"is_reserved":false,"is_disabled":false,"rental_uris":{"android":"levelo://app?vid=4b74eb33-05ad-43e5-ba93-18819101a30a","ios":"levelo://app?vid=4b74eb33-05ad-43e5-ba93-18819101a30a"},"vehicle_type_id":"4","last_reported":1729940799,"current_range_meters":28000,"station_id":"ce4bgkh2rcd13ifvqbl0","pricing_plan_id":"cebpf4jnsgd1na2vs0mg"},{"bike_id":"a0edbb10-9130-4358-947d-35f7f894f47c","system_id":"levelo_inurba_marseille","lat":43.23972,"lon":5.36622,"is_reserved":false,"is_disabled":false,"rental_uris":{"android":"levelo://app?vid=a0edbb10-9130-4358-947d-35f7f894f47c","ios":"levelo://app?vid=a0edbb10-9130-4358-947d-35f7f894f47c"},"vehicle_type_id":"4","last_reported":1729940799,"current_range_meters":28800,"station_id":"ce4bhi12rcd13ifvqfp0","pricing_plan_id":"cebpf4jnsgd1na2vs0mg"},{"bike_id":"a3a32520-c902-4f28-8853-079d50e068c3","system_id":"levelo_inurba_marseille","lat":43.26197,"lon":5.3792,"is_reserved":false,"is_disabled":false,"rental_uris":{"android":"levelo://app?vid=a3a32520-c902-4f28-8853-079d50e068c3","ios":"levelo://app?vid=a3a32520-c902-4f28-8853-079d50e068c3"},"vehicle_type_id":"4","last_reported":1729940799,"current_range_meters":38400,"station_id":"ce4bhjp2rcd13ifvqg90","pricing_plan_id":"cebpf4jnsgd1na2vs0mg"},{"bike_id":"a6b7d2fa-3f53-4444-86bd-8f561d8d9e92","system_id":"levelo_inurba_marseille","lat":43.29192,"lon":5.35794,"is_reserved":false,"is_disabled":false,"rental_uris":{"android":"levelo://app?vid=a6b7d2fa-3f53-4444-86bd-8f561d8d9e92","ios":"levelo://app?vid=a6b7d2fa-3f53-4444-86bd-8f561d8d9e92"},"vehicle_type_id":"4","last_reported":1729940799,"current_range_meters":39200,"station_id":"ce4bhb12rcd13ifvqel0","pricing_plan_id":"cebpf4jnsgd1na2vs0mg"},{"bike_id":"d36dfeb4-c31e-48df-ab3c-ae4e4ad62517","system_id":"levelo_inurba_marseille","lat":43.31191,"lon":5.38709,"is_reserved":false,"is_disabled":false,"rental_uris":{"android":"levelo://app?vid=d36dfeb4-c31e-48df-ab3c-ae4e4ad62517","ios":"levelo://app?vid=d36dfeb4-c31e-48df-ab3c-ae4e4ad62517"},"vehicle_type_id":"4","last_reported":1729940799,"current_range_meters":30000,"station_id":"ce4bgv12rcd13ifvqcp0","pricing_plan_id":"cebpf4jnsgd1na2vs0mg"},{"bike_id":"3e1205ab-0bc6-479c-9e06-2c971082cf74","system_id":"levelo_inurba_marseille","lat":43.3205,"lon":5.41552,"is_reserved":false,"is_disabled":false,"rental_uris":{"android":"levelo://app?vid=3e1205ab-0bc6-479c-9e06-2c971082cf74","ios":"levelo://app?vid=3e1205ab-0bc6-479c-9e06-2c971082cf74"},"vehicle_type_id":"4","last_reported":1729940799,"current_range_meters":18000,"station_id":"ce4bhq92rcd13ifvqhkg","pricing_plan_id":"cebpf4jnsgd1na2vs0mg"},{"bike_id":"8a7ea3b3-7c19-4f13-a31a-07202c98e2c3","system_id":"levelo_inurba_marseille","lat":43.324893,"lon":5.365547,"is_reserved":false,"is_disabled":false,"rental_uris":{"android":"levelo://app?vid=8a7ea3b3-7c19-4f13-a31a-07202c98e2c3","ios":"levelo://app?vid=8a7ea3b3-7c19-4f13-a31a-07202c98e2c3"},"vehicle_type_id":"4","last_reported":1729940799,"current_range_meters":26000,"station_id":"ce4bhs12rcd13ifvqhvg","pricing_plan_id":"cebpf4jnsgd1na2vs0mg"},{"bike_id":"db97a606-2f59-41c8-8cd6-75aba7fa29a7","system_id":"levelo_inurba_marseille","lat":43.24806,"lon":5.37446,"is_reserved":false,"is_disabled":false,"rental_uris":{"android":"levelo://app?vid=db97a606-2f59-41c8-8cd6-75aba7fa29a7","ios":"levelo://app?vid=db97a606-2f59-41c8-8cd6-75aba7fa29a7"},"vehicle_type_id":"4","last_reported":1729940799,"current_range_meters":38800,"station_id":"ce4bhgh2rcd13ifvqfb0","pricing_plan_id":"cebpf4jnsgd1na2vs0mg"},{"bike_id":"3d537944-7a77-435d-8e52-b9b7b4261932","system_id":"levelo_inurba_marseille","lat":43.29622,"lon":5.37154,"is_reserved":false,"is_disabled":false,"rental_uris":{"android":"levelo://app?vid=3d537944-7a77-435d-8e52-b9b7b4261932","ios":"levelo://app?vid=3d537944-7a77-435d-8e52-b9b7b4261932"},"vehicle_type_id":"4","last_reported":1729940799,"current_range_meters":19600,"station_id":"ce4bgnh2rcd13ifvqc0g","pricing_plan_id":"cebpf4jnsgd1na2vs0mg"},{"bike_id":"60528b55-e747-4a9e-8ca0-272ea3a19644","system_id":"levelo_inurba_marseille","lat":43.27834,"lon":5.39198,"is_reserved":false,"is_disabled":false,"rental_uris":{"android":"levelo://app?vid=60528b55-e747-4a9e-8ca0-272ea3a19644","ios":"levelo://app?vid=60528b55-e747-4a9e-8ca0-272ea3a19644"},