{"last_updated":1687813612,"ttl":30,"version":"2.2","data":{"bikes":[{"bike_id":"95eed18f-11f7-468d-aa06-978f689c7727","system_id":"levelo_inurba_marseille","lat":43.309076,"lon":5.368465,"is_reserved":false,"is_disabled":false,"rental_uris":{"android":"levelo://app?vid=95eed18f-11f7-468d-aa06-978f689c7727","ios":"levelo://app?vid=95eed18f-11f7-468d-aa06-978f689c7727"},"vehicle_type_id":"4","last_reported":1687813613,"current_range_meters":25600,"station_id":"ce4bgn92rcd13ifvqbvg","pricing_plan_id":"free"},{"bike_id":"2aa8a0a1-73f2-484a-af4c-139306b76576","system_id":"levelo_inurba_marseille","lat":43.31486,"lon":5.37306,"is_reserved":false,"is_disabled":false,"rental_uris":{"android":"levelo://app?vid=2aa8a0a1-73f2-484a-af4c-139306b76576","ios":"levelo://app?vid=2aa8a0a1-73f2-484a-af4c-139306b76576"},"vehicle_type_id":"4","last_reported":1687813613,"current_range_meters":11600,"station_id":"ce4bgt12rcd13ifvqcd0","pricing_plan_id":"free"},{"bike_id":"fb053058-762b-49d2-91b1-26a88cb50c6f","system_id":"levelo_inurba_marseille","lat":43.314811,"lon":5.373103,"is_reserved":false,"is_disabled":false,"rental_uris":{"android":"levelo://app?vid=fb053058-762b-49d2-91b1-26a88cb50c6f","ios":"levelo://app?vid=fb053058-762b-49d2-91b1-26a88cb50c6f"},"vehicle_type_id":"4","last_reported":1687813613,"current_range_meters":27200,"station_id":"ce4bgt12rcd13ifvqcd0","pricing_plan_id":"free"},{"bike_id":"81100bb7-0d78-41ec-9edf-fb06e1633c2d","system_id":"levelo_inurba_marseille","lat":43.308606,"lon":5.372099,"is_reserved":false,"is_disabled":false,"rental_uris":{"android":"levelo://app?vid=81100bb7-0d78-41ec-9edf-fb06e1633c2d","ios":"levelo://app?vid=81100bb7-0d78-41ec-9edf-fb06e1633c2d"},"vehicle_type_id":"4","last_reported":1687813613,"current_range_meters":28800,"station_id":"ce4bguh2rcd13ifvqckg","pricing_plan_id":"free"},{"bike_id":"965fb106-42ba-4913-b29f-56c2364147ef","system_id":"levelo_inurba_marseille","lat":43.305368,"lon":5.367343,"is_reserved":false,"is_disabled":false,"rental_uris":{"android":"levelo://app?vid=965fb106-42ba-4913-b29f-56c2364147ef","ios":"levelo://app?vid=965fb106-42ba-4913-b29f-56c2364147ef"},"vehicle_type_id":"4","last_reported":1687813613,"current_range_meters":29600,"station_id":"ce4bgrp2rcd13ifvqc9g","pricing_plan_id":"free"},{"bike_id":"6183559d-63b4-4094-ae5a-4a6adf049c78","system_id":"levelo_inurba_marseille","lat":43.305368,"lon":5.367343,"is_reserved":false,"is_disabled":false,"rental_uris":{"android":"levelo://app?vid=6183559d-63b4-4094-ae5a-4a6adf049c78","ios":"levelo://app?vid=6183559d-63b4-4094-ae5a-4a6adf049c78"},"vehicle_type_id":"4","last_reported":1687813613,"current_range_meters":28400,"station_id":"ce4bgrp2rcd13ifvqc9g","pricing_plan_id":"free"},{"bike_id":"1b9a25fe-1a6c-49e0-824d-970dd8f382b0","system_id":"levelo_inurba_marseille","lat":43.305989,"lon":5.37225,"is_reserved":false,"is_disabled":false,"rental_uris":{"android":"levelo://app?vid=1b9a25fe-1a6c-49e0-824d-970dd8f382b0","ios":"levelo://app?vid=1b9a25fe-1a6c-49e0-824d-970dd8f382b0"},"vehicle_type_id":"4","last_reported":1687813613,"current_range_meters":7200,"station_id":"ce4bgqh2rcd13ifvqc4g","pricing_plan_id":"free"},{"bike_id":"66ce74f3-dc7c-4d35-98cd-809e458c4d7c","system_id":"levelo_inurba_marseille","lat":43.305989,"lon":5.37225,"is_reserved":false,"is_disabled":false,"rental_uris":{"android":"levelo://app?vid=66ce74f3-dc7c-4d35-98cd-809e458c4d7c","ios":"levelo://app?vid=66ce74f3-dc7c-4d35-98cd-809e458c4d7c"},"vehicle_type_id":"4","last_reported":1687813613,"current_range_meters":22400,"station_id":"ce4bgqh2rcd13ifvqc4g","pricing_plan_id":"free"},{"bike_id":"5f56c9b1-33b6-448e-aeaf-48ef519ae979","system_id":"levelo_inurba_marseille","lat":43.305989,"lon":5.37225,"is_reserved":false,"is_disabled":false,"rental_uris":{"android":"levelo://app?vid=5f56c9b1-33b6-448e-aeaf-48ef519ae979","ios":"levelo://app?vid=5f56c9b1-33b6-448e-aeaf-48ef519ae979"},"vehicle_type_id":"4","last_reported":1687813613,"current_range_meters":27200,"station_id":"ce4bgqh2rcd13ifvqc4g","pricing_plan_id":"free"},{"bike_id":"e2a67dc5-54fd-4516-b2c8-46981bfe6ec9","system_id":"levelo_inurba_marseille","lat":43.305989,"lon":5.37225,"is_reserved":false,"is_disabled":false,"rental_uris":{"android":"levelo://app?vid=e2a67dc5-54fd-4516-b2c8-46981bfe6ec9","ios":"levelo://app?vid=e2a67dc5-54fd-4516-b2c8-46981bfe6ec9"},"vehicle_type_id":"4","last_reported":1687813613,"current_range_meters":20800,"station_id":"ce4bgqh2rcd13ifvqc4g","pricing_plan_id":"free"},{"bike_id":"2ff7b2a9-b262-4ed2-8e5f-cd5fb7fbfe98","system_id":"levelo_inurba_marseille","lat":43.305989,"lon":5.37225,"is_reserved":false,"is_disabled":false,"rental_uris":{"android":"levelo://app?vid=2ff7b2a9-b262-4ed2-8e5f-cd5fb7fbfe98","ios":"levelo://app?vid=2ff7b2a9-b262-4ed2-8e5f-cd5fb7fbfe98"},"vehicle_type_id":"4","last_reported":1687813613,"current_range_meters":21600,"station_id":"ce4bgqh2rcd13ifvqc4g","pricing_plan_id":"free"},{"bike_id":"1d165491-ac20-4414-9869-76f5e68776e0","system_id":"levelo_inurba_marseille","lat":43.305989,"lon":5.37225,"is_reserved":false,"is_disabled":false,"rental_uris":{"android":"levelo://app?vid=1d165491-ac20-4414-9869-76f5e68776e0","ios":"levelo://app?vid=1d165491-ac20-4414-9869-76f5e68776e0"},"vehicle_type_id":"4","last_reported":1687813613,"current_range_meters":18800,"station_id":"ce4bgqh2rcd13ifvqc4g","pricing_plan_id":"free"},{"bike_id":"70ad30be-1750-4991-a778-d49a1399eaf6","system_id":"levelo_inurba_marseille","lat":43.311131,"lon":5.377651,"is_reserved":false,"is_disabled":false,"rental_uris":{"android":"levelo://app?vid=70ad30be-1750-4991-a778-d49a1399eaf6","ios":"levelo://app?vid=70ad30be-1750-4991-a778-d49a1399eaf6"},"vehicle_type_id":"4","last_reported":1687813613,"current_range_meters":24000,"station_id":"ce4bgt92rcd13ifvqcg0","pricing_plan_id":"free"},{"bike_id":"756deead-accc-44c6-b59e-79973a51a1c5","system_id":"levelo_inurba_marseille","lat":43.311131,"lon":5.377651,"is_reserved":false,"is_disabled":false,"rental_uris":{"android":"levelo://app?vid=756deead-accc-44c6-b59e-79973a51a1c5","ios":"levelo://app?vid=756deead-accc-44c6-b59e-79973a51a1c5"},"vehicle_type_id":"4","last_reported":1687813613,"current_range_meters":13200,"station_id":"ce4bgt92rcd13ifvqcg0","pricing_plan_id":"free"},{"bike_id":"d1e472ae-a69c-44de-81eb-45c8a3cfcc38","system_id":"levelo_inurba_marseille","lat":43.311131,"lon":5.377651,"is_reserved":false,"is_disabled":false,"rental_uris":{"android":"levelo://app?vid=d1e472ae-a69c-44de-81eb-45c8a3cfcc38","ios":"levelo://app?vid=d1e472ae-a69c-44de-81eb-45c8a3cfcc38"},"vehicle_type_id":"4","last_reported":1687813613,"current_range_meters":4800,"station_id":"ce4bgt92rcd13ifvqcg0","pricing_plan_id":"free"},{"bike_id":"1c71c840-5f2b-4dd0-a635-c80922c46956","system_id":"levelo_inurba_marseille","lat":43.311125,"lon":5.377624,"is_reserved":false,"is_disabled":false,"rental_uris":{"android":"levelo://app?vid=1c71c840-5f2b-4dd0-a635-c80922c46956","ios":"levelo://app?vid=1c71c840-5f2b-4dd0-a635-c80922c46956"},"vehicle_type_id":"4","last_reported":1687813613,"current_range_meters":9600,"station_id":"ce4bgt92rcd13ifvqcg0","pricing_plan_id":"free"},{"bike_id":"97620f7c-d937-4ad2-a0cd-b4c15627539e","system_id":"levelo_inurba_marseille","lat":43.3153,"lon":5.38022,"is_reserved":false,"is_disabled":false,"rental_uris":{"android":"levelo://app?vid=97620f7c-d937-4ad2-a0cd-b4c15627539e","ios":"levelo://app?vid=97620f7c-d937-4ad2-a0cd-b4c15627539e"},"vehicle_type_id":"4","last_reported":1687813613,"current_range_meters":15600,"station_id":"ce4bhsp2rcd13ifvqi50","pricing_plan_id":"free"},{"bike_id":"bebc1c6e-53cb-447e-b363-d0d9b5a3694f","system_id":"levelo_inurba_marseille","lat":43.31529,"lon":5.38038,"is_reserved":false,"is_disabled":false,"rental_uris":{"android":"levelo://app?vid=bebc1c6e-53cb-447e-b363-d0d9b5a3694f","ios":"levelo://app?vid=bebc1c6e-53cb-447e-b363-d0d9b5a3694f"},"vehicle_type_id":"4","last_reported":1687813613,"current_range_meters":1200,"station_id":"ce4bhsp2rcd13ifvqi50","pricing_plan_id":"free"},{"bike_id":"4cf3416d-efac-45c9-8be1-cb50cf1a3745","system_id":"levelo_inurba_marseille","lat":43.301939,"lon":5.366286,"is_reserved":false,"is_disabled":false,"rental_uris":{"android":"levelo://app?vid=4cf3416d-efac-45c9-8be1-cb50cf1a3745","ios":"levelo://app?vid=4cf3416d-efac-45c9-8be1-cb50cf1a3745"},"vehicle_type_id":"4","last_reported":1687813613,"current_range_meters":25200,"station_id":"ce4bgrh2rcd13ifvqc8g","pricing_plan_id":"free"},{"bike_id":"3e227747-6e1c-4ce7-a046-5be7fd90177f","system_id":"levelo_inurba_marseille","lat":43.301939,"lon":5.366286,"is_reserved":false,"is_disabled":false,"rental_uris":{"android":"levelo://app?vid=3e227747-6e1c-4ce7-a046-5be7fd90177f","ios":"levelo://app?vid=3e227747-6e1c-4ce7-a046-5be7fd90177f"},"vehicle_type_id":"4","last_reported":1687813613,"current_range_meters":28800,"station_id":"ce4bgrh2rcd13ifvqc8g","pricing_plan_id":"free"},{"bike_id":"90bc5752-c5d5-4c4e-9a3e-9a7da0a3843a","system_id":"levelo_inurba_marseille","lat":43.30271,"lon":5.37706,"is_reserved":false,"is_disabled":false,"rental_uris":{"android":"levelo://app?vid=90bc5752-c5d5-4c4e-9a3e-9a7da0a3843a","ios":"levelo://app?vid=90bc5752-c5d5-4c4e-9a3e-9a7da0a3843a"},"vehicle_type_id":"4","last_reported":1687813613,"current_range_meters":400,"station_id":"ce4bguh2rcd13ifvqcj0","pricing_plan_id":"free"},{"bike_id":"a9d45a8e-731a-4c2e-85f8-4585d5e878ab","system_id":"levelo_inurba_marseille","lat":43.319935,"lon":5.381699,"is_reserved":false,"is_disabled":false,"rental_uris":{"android":"levelo://app?vid=a9d45a8e-731a-4c2e-85f8-4585d5e878ab","ios":"levelo://app?vid=a9d45a8e-731a-4c2e-85f8-4585d5e878ab"},"vehicle_type_id":"4","last_reported":1687813613,"current_range_meters":7600,"station_id":"ce4bhr12rcd13ifvqhpg","pricing_plan_id":"free"},{"bike_id":"32079ba2-9792-4bca-810e-462ba0a5cedd","system_id":"levelo_inurba_marseille","lat":43.319935,"lon":5.381699,"is_reserved":false,"is_disabled":false,"rental_uris":{"android":"levelo://app?vid=32079ba2-9792-4bca-810e-462ba0a5cedd","ios":"levelo://app?vid=32079ba2-9792-4bca-810e-462ba0a5cedd"},"vehicle_type_id":"4","last_reported":1687813613,"current_range_meters":13600,"station_id":"ce4bhr12rcd13ifvqhpg","pricing_plan_id":"free"},{"bike_id":"9aa36195-049f-43fa-8c9f-3d0c6eb3ffe2","system_id":"levelo_inurba_marseille","lat":43.319935,"lon":5.381699,"is_reserved":false,"is_disabled":false,"rental_uris":{"android":"levelo://app?vid=9aa36195-049f-43fa-8c9f-3d0c6eb3ffe2","ios":"levelo://app?vid=9aa36195-049f-43fa-8c9f-3d0c6eb3ffe2"},"vehicle_type_id":"4","last_reported":1687813613,"current_range_meters":17600,"station_id":"ce4bhr12rcd13ifvqhpg","pricing_plan_id":"free"},{"bike_id":"15362970-bdf5-4f13-af30-feb911751d64","system_id":"levelo_inurba_marseille","lat":43.313571,"lon":5.384829,"is_reserved":false,"is_disabled":false,"rental_uris":{"android":"levelo://app?vid=15362970-bdf5-4f13-af30-feb911751d64","ios":"levelo://app?vid=15362970-bdf5-4f13-af30-feb911751d64"},"vehicle_type_id":"4","last_reported":1687813613,"current_range_meters":10400,"station_id":"ce4bgt92rcd13ifvqcf0","pricing_plan_id":"free"},{"bike_id":"314a1475-1d05-4ad5-b784-73080187fce2","system_id":"levelo_inurba_marseille","lat":43.313571,"lon":5.384829,"is_reserved":false,"is_disabled":false,"rental_uris":{"android":"levelo://app?vid=314a1475-1d05-4ad5-b784-73080187fce2","ios":"levelo://app?vid=314a1475-1d05-4ad5-b784-73080187fce2"},"vehicle_type_id":"4","last_reported":1687813613,"current_range_meters":26800,"station_id":"ce4bgt92rcd13ifvqcf0","pricing_plan_id":"free"},{"bike_id":"c8303303-eff3-4bb4-b219-aa7b6fe56c3f","system_id":"levelo_inurba_marseille","lat":43.313571,"lon":5.384829,"is_reserved":false,"is_disabled":false,"rental_uris":{"android":"levelo://app?vid=c8303303-eff3-4bb4-b219-aa7b6fe56c3f","ios":"levelo://app?vid=c8303303-eff3-4bb4-b219-aa7b6fe56c3f"},"vehicle_type_id":"4","last_reported":1687813613,"current_range_meters":30000,"station_id":"ce4bgt92rcd13ifvqcf0","pricing_plan_id":"free"},{"bike_id":"10fe40cd-0bc2-426f-950a-3f4f9b6d0c39","system_id":"levelo_inurba_marseille","lat":43.313571,"lon":5.384829,"is_reserved":false,"is_disabled":false,"rental_uris":{"android":"levelo://app?vid=10fe40cd-0bc2-426f-950a-3f4f9b6d0c39","ios":"levelo://app?vid=10fe40cd-0bc2-426f-950a-3f4f9b6d0c39"},"vehicle_type_id":"4","last_reported":1687813613,"current_range_meters":30000,"station_id":"ce4bgt92rcd13ifvqcf0","pricing_plan_id":"free"},{"bike_id":"41a6ce6d-3975-4f6b-8ad0-5a26bb2989bb","system_id":"levelo_inurba_marseille","lat":43.313571,"lon":5.384829,"is_reserved":false,"is_disabled":false,"rental_uris":{"android":"levelo://app?vid=41a6ce6d-3975-4f6b-8ad0-5a26bb2989bb","ios":"levelo://app?vid=41a6ce6d-3975-4f6b-8ad0-5a26bb2989bb"},"vehicle_type_id":"4","last_reported":1687813613,"current_range_meters":31200,"station_id":"ce4bgt92rcd13ifvqcf0","pricing_plan_id":"free"},{"bike_id":"b73f9874-724c-4169-93c0-36992a1fadec","system_id":"levelo_inurba_marseille","lat":43.313571,"lon":5.384829,"is_reserved":false,"is_disabled":false,"rental_uris":{"android":"levelo://app?vid=b73f9874-724c-4169-93c0-36992a1fadec","ios":"levelo://app?vid=b73f9874-724c-4169-93c0-36992a1fadec"},"vehicle_type_id":"4","last_reported":1687813613,"current_range_meters":30000,"station_id":"ce4bgt92rcd13ifvqcf0","pricing_plan_id":"free"},{"bike_id":"31670502-705d-41e1-8f8d-3db99d4cb96d","system_id":"levelo_inurba_marseille","lat":43.313571,"lon":5.384829,"is_reserved":false,"is_disabled":false,"rental_uris":{"android":"levelo://app?vid=31670502-705d-41e1-8f8d-3db99d4cb96d","ios":"levelo://app?vid=31670502-705d-41e1-8f8d-3db99d4cb96d"},"vehicle_type_id":"4","last_reported":1687813613,"current_range_meters":31600,"station_id":"ce4bgt92rcd13ifvqcf0","pricing_plan_id":"free"},{"bike_id":"5ecd859f-60bb-4249-8d00-dc9c5baa3769","system_id":"levelo_inurba_marseille","lat":43.313571,"lon":5.384829,"is_reserved":false,"is_disabled":false,"rental_uris":{"android":"levelo://app?vid=5ecd859f-60bb-4249-8d00-dc9c5baa3769","ios":"levelo://app?vid=5ecd859f-60bb-4249-8d00-dc9c5baa3769"},"vehicle_type_id":"4","last_reported":1687813613,"current_range_meters":31200,"station_id":"ce4bgt92rcd13ifvqcf0","pricing_plan_id":"free"},{"bike_id":"10834992-a3a9-4915-96ca-eb51396eae71","system_id":"levelo_inurba_marseille","lat":43.299222,"lon":5.365554,"is_reserved":false,"is_disabled":false,"rental_uris":{"android":"levelo://app?vid=10834992-a3a9-4915-96ca-eb51396eae71","ios":"levelo://app?vid=10834992-a3a9-4915-96ca-eb51396eae71"},"vehicle_type_id":"4","last_reported":1687813613,"current_range_meters":24800,"station_id":"ce4bgm92rcd13ifvqbr0","pricing_plan_id":"free"},{"bike_id":"883dd680-4745-499e-919f-2184b07d0963","system_id":"levelo_inurba_marseille","lat":43.311722,"lon":5.387247,"is_reserved":false,"is_disabled":false,"rental_uris":{"android":"levelo://app?vid=883dd680-4745-499e-919f-2184b07d0963","ios":"levelo://app?vid=883dd680-4745-499e-919f-2184b07d0963"},"vehicle_type_id":"4","last_reported":1687813613,"current_range_meters":6400,"station_id":"ce4bgv12rcd13ifvqcp0","pricing_plan_id":"free"},{"bike_id":"c3413c41-d56b-4b3b-8f12-49c47374b23b","system_id":"levelo_inurba_marseille","lat":43.305364,"lon":5.384119,"is_reserved":false,"is_disabled":false,"rental_uris":{"android":"levelo://app?vid=c3413c41-d56b-4b3b-8f12-49c47374b23b","ios":"levelo://app?vid=c3413c41-d56b-4b3b-8f12-49c47374b23b"},"vehicle_type_id":"4","last_reported":1687813613,"current_range_meters":13600,"station_id":"ce4bgg92rcd13ifvqb30","pricing_plan_id":"free"},{"bike_id":"bfeb9b64-9a65-4da3-96f1-88131de383b7","system_id":"levelo_inurba_marseille","lat":43.311722,"lon":5.387247,"is_reserved":false,"is_disabled":false,"rental_uris":{"android":"levelo://app?vid=bfeb9b64-9a65-4da3-96f1-88131de383b7","ios":"levelo://app?vid=bfeb9b64-9a65-4da3-96f1-88131de383b7"},"vehicle_type_id":"4","last_reported":1687813613,"current_range_meters":13600,"station_id":"ce4bgv12rcd13ifvqcp0","pricing_plan_id":"free"},{"bike_id":"c976fc19-6fd0-47c0-9c99-fb0e738d8372","system_id":"levelo_inurba_marseille","lat":43.305364,"lon":5.384119,"is_reserved":false,"is_disabled":false,"rental_uris":{"android":"levelo://app?vid=c976fc19-6fd0-47c0-9c99-fb0e738d8372","ios":"levelo://app?vid=c976fc19-6fd0-47c0-9c99-fb0e738d8372"},"vehicle_type_id":"4","last_reported":1687813613,"current_range_meters":25600,"station_id":"ce4bgg92rcd13ifvqb30","pricing_plan_id":"free"},{"bike_id":"41c30ee7-ac69-4f35-b21e-d8640f1bf5c6","system_id":"levelo_inurba_marseille","lat":43.305364,"lon":5.384119,"is_reserved":false,"is_disabled":false,"rental_uris":{"android":"levelo://app?vid=41c30ee7-ac69-4f35-b21e-d8640f1bf5c6","ios":"levelo://app?vid=41c30ee7-ac69-4f35-b21e-d8640f1bf5c6"},"vehicle_type_id":"4","last_reported":1687813613,"current_range_meters":10400,"station_id":"ce4bgg92rcd13ifvqb30","pricing_plan_id":"free"},{"bike_id":"7b5eb12f-d9b9-4ed7-b386-8934424aec02","system_id":"levelo_inurba_marseille","lat":43.305364,"lon":5.384119,"is_reserved":false,"is_disabled":false,"rental_uris":{"android":"levelo://app?vid=7b5eb12f-d9b9-4ed7-b386-8934424aec02","ios":"levelo://app?vid=7b5eb12f-d9b9-4ed7-b386-8934424aec02"},"vehicle_type_id":"4","last_reported":1687813613,"current_range_meters":12800,"station_id":"ce4bgg92rcd13ifvqb30","pricing_plan_id":"free"},{"bike_id":"8a0c1bcf-4d35-4cf1-9f58-f962959e75f4","system_id":"levelo_inurba_marseille","lat":43.311722,"lon":5.387247,"is_reserved":false,"is_disabled":false,"rental_uris":{"android":"levelo://app?vid=8a0c1bcf-4d35-4cf1-9f58-f962959e75f4","ios":"levelo://app?vid=8a0c1bcf-4d35-4cf1-9f58-f962959e75f4"},"vehicle_type_id":"4","last_reported":1687813613,"current_range_meters":28800,"station_id":"ce4bgv12rcd13ifvqcp0","pricing_plan_id":"free"},{"bike_id":"fd97bb8e-2f5a-4d26-9e02-4feaef1548fa","system_id":"levelo_inurba_marseille","lat":43.297794,"lon":5.370888,"is_reserved":false,"is_disabled":false,"rental_uris":{"android":"levelo://app?vid=fd97bb8e-2f5a-4d26-9e02-4feaef1548fa","ios":"levelo://app?vid=fd97bb8e-2f5a-4d26-9e02-4feaef1548fa"},"vehicle_type_id":"4","last_reported":1687813613,"current_range_meters":1600,"station_id":"ce4bgop2rcd13ifvqc1g","pricing_plan_id":"free"},{"bike_id":"4254bee0-110c-4a28-8f56-9357910c8a5f","system_id":"levelo_inurba_marseille","lat":43.297774,"lon":5.370875,"is_reserved":false,"is_disabled":false,"rental_uris":{"android":"levelo://app?vid=4254bee0-110c-4a28-8f56-9357910c8a5f","ios":"levelo://app?vid=4254bee0-110c-4a28-8f56-9357910c8a5f"},"vehicle_type_id":"4","last_reported":1687813613,"current_range_meters":17600,"station_id":"ce4bgop2rcd13ifvqc1g","pricing_plan_id":"free"},{"bike_id":"1580a472-182f-4d91-8a6c-4c3a23a9c034","system_id":"levelo_inurba_marseille","lat":43.302,"lon":5.3821,"is_reserved":false,"is_disabled":false,"rental_uris":{"android":"levelo://app?vid=1580a472-182f-4d91-8a6c-4c3a23a9c034","ios":"levelo://app?vid=1580a472-182f-4d91-8a6c-4c3a23a9c034"},"vehicle_type_id":"4","last_reported":1687813613,"current_range_meters":8400,"station_id":"","pricing_plan_id":"free"},{"bike_id":"a7f0de62-cbcb-4f09-8e9e-1b6465dbbc67","system_id":"levelo_inurba_marseille","lat":43.32823,"lon":5.36691,"is_reserved":false,"is_disabled":false,"rental_uris":{"android":"levelo://app?vid=a7f0de62-cbcb-4f09-8e9e-1b6465dbbc67","ios":"levelo://app?vid=a7f0de62-cbcb-4f09-8e9e-1b6465dbbc67"},"vehicle_type_id":"4","last_reported":1687813613,"current_range_meters":24800,"station_id":"ce4bhs92rcd13ifvqi0g","pricing_plan_id":"free"},{"bike_id":"67dae117-9f00-4d7d-aabd-157674c206a8","system_id":"levelo_inurba_marseille","lat":43.32824,"lon":5.3669,"is_reserved":false,"is_disabled":false,"rental_uris":{"android":"levelo://app?vid=67dae117-9f00-4d7d-aabd-157674c206a8","ios":"levelo://app?vid=67dae117-9f00-4d7d-aabd-157674c206a8"},"vehicle_type_id":"4","last_reported":1687813613,"current_range_meters":5600,"station_id":"ce4bhs92rcd13ifvqi0g","pricing_plan_id":"free"},{"bike_id":"19952690-4398-4bce-a952-2259d64ee381","system_id":"levelo_inurba_marseille","lat":43.32824,"lon":5.36685,"is_reserved":false,"is_disabled":false,"rental_uris":{"android":"levelo://app?vid=19952690-4398-4bce-a952-2259d64ee381","ios":"levelo://app?vid=19952690-4398-4bce-a952-2259d64ee381"},"vehicle_type_id":"4","last_reported":1687813613,"current_range_meters":12800,"station_id":"ce4bhs92rcd13ifvqi0g","pricing_plan_id":"free"},{"bike_id":"65f5abd3-b84a-41f7-b88b-1130d5dca958","system_id":"levelo_inurba_marseille","lat":43.32826,"lon":5.36696,"is_reserved":false,"is_disabled":false,"rental_uris":{"android":"levelo://app?vid=65f5abd3-b84a-41f7-b88b-1130d5dca958","ios":"levelo://app?vid=65f5abd3-b84a-41f7-b88b-1130d5dca958"},"vehicle_type_id":"4","last_reported":1687813613,"current_range_meters":3600,"station_id":"ce4bhs92rcd13ifvqi0g","pricing_plan_id":"free"},{"bike_id":"8679cc42-f60f-4d46-8ef1-a90dcd0c6845","system_id":"levelo_inurba_marseille","lat":43.32826,"lon":5.36686,"is_reserved":false,"is_disabled":false,"rental_uris":{"android":"levelo://app?vid=8679cc42-f60f-4d46-8ef1-a90dcd0c6845","ios":"levelo://app?vid=8679cc42-f60f-4d46-8ef1-a90dcd0c6845"},"vehicle_type_id":"4","last_reported":1687813613,"current_range_meters":13200,"station_id":"ce4bhs92rcd13ifvqi0g","pricing_plan_id":"free"},{"bike_id":"1a986163-fd5b-44c7-bf15-50a76c7f7598","system_id":"levelo_inurba_marseille","lat":43.32827,"lon":5.36699,"is_reserved":false,"is_disabled":false,"rental_uris":{"android":"levelo://app?vid=1a986163-fd5b-44c7-bf15-50a76c7f7598","ios":"levelo://app?vid=1a986163-fd5b-44c7-bf15-50a76c7f7598"},"vehicle_type_id":"4","last_reported":1687813613,"current_range_meters":7600,"station_id":"ce4bhs92rcd13ifvqi0g","pricing_plan_id":"free"},{"bike_id":"c0ba4054-03d2-4233-93b4-0461723bc0b5","system_id":"levelo_inurba_marseille","lat":43.328371,"lon":5.366909,"is_reserved":false,"is_disabled":false,"rental_uris":{"android":"levelo://app?vid=c0ba4054-03d2-4233-93b4-0461723bc0b5","ios":"levelo://app?vid=c0ba4054-03d2-4233-93b4-0461723bc0b5"},"vehicle_type_id":"4","last_reported":1687813613,"current_range_meters":27600,"station_id":"ce4bhs92rcd13ifvqi0g","pricing_plan_id":"free"},{"bike_id":"1a470b1a-9939-4abe-b104-58b18427e48b","system_id":"levelo_inurba_marseille","lat":43.32828,"lon":5.36682,"is_reserved":false,"is_disabled":false,"rental_uris":{"android":"levelo://app?vid=1a470b1a-9939-4abe-b104-58b18427e48b","ios":"levelo://app?vid=1a470b1a-9939-4abe-b104-58b18427e48b"},"vehicle_type_id":"4","last_reported":1687813613,"current_range_meters":12800,"station_id":"ce4bhs92rcd13ifvqi0g","pricing_plan_id":"free"},{"bike_id":"5108659d-1431-4d89-a11a-e27336cba391","system_id":"levelo_inurba_marseille","lat":43.328371,"lon":5.366909,"is_reserved":false,"is_disabled":false,"rental_uris":{"android":"levelo://app?vid=5108659d-1431-4d89-a11a-e27336cba391","ios":"levelo://app?vid=5108659d-1431-4d89-a11a-e27336cba391"},"vehicle_type_id":"4","last_reported":1687813613,"current_range_meters":25200,"station_id":"ce4bhs92rcd13ifvqi0g","pricing_plan_id":"free"},{"bike_id":"8d98417a-cbe4-4269-8bc9-598373a7d5de","system_id":"levelo_inurba_marseille","lat":43.32869,"lon":5.36289,"is_reserved":false,"is_disabled":false,"rental_uris":{"android":"levelo://app?vid=8d98417a-cbe4-4269-8bc9-598373a7d5de","ios":"levelo://app?vid=8d98417a-cbe4-4269-8bc9-598373a7d5de"},"vehicle_type_id":"4","last_reported":1687813613,"current_range_meters":11200,"station_id":"","pricing_plan_id":"free"},{"bike_id":"60d69aa9-13bf-486d-a779-4ee2fab9f882","system_id":"levelo_inurba_marseille","lat":43.296815,"lon":5.373011,"is_reserved":false,"is_disabled":false,"rental_uris":{"android":"levelo://app?vid=60d69aa9-13bf-486d-a779-4ee2fab9f882","ios":"levelo://app?vid=60d69aa9-13bf-486d-a779-4ee2fab9f882"},"vehicle_type_id":"4","last_reported":1687813613,"current_range_meters":30800,"station_id":"ce4bgk12rcd13ifvqbj0","pricing_plan_id":"free"},{"bike_id":"d820dfcf-9f30-4a0c-9ccb-49c1ff725277","system_id":"levelo_inurba_marseille","lat":43.29573,"lon":5.367355,"is_reserved":false,"is_disabled":false,"rental_uris":{"android":"levelo://app?vid=d820dfcf-9f30-4a0c-9ccb-49c1ff725277","ios":"levelo://app?vid=d820dfcf-9f30-4a0c-9ccb-49c1ff725277"},"vehicle_type_id":"4","last_reported":1687813613,"current_range_meters":22000,"station_id":"ce4bgph2rcd13ifvqc2g","pricing_plan_id":"free"},{"bike_id":"f751824e-4de3-4c73-a818-35554dc390f6","system_id":"levelo_inurba_marseille","lat":43.309589,"lon":5.390258,"is_reserved":false,"is_disabled":false,"rental_uris":{"android":"levelo://app?vid=f751824e-4de3-4c73-a818-35554dc390f6","ios":"levelo://app?vid=f751824e-4de3-4c73-a818-35554dc390f6"},"vehicle_type_id":"4","last_reported":1687813613,"current_range_meters":25600,"station_id":"ce4bgup2rcd13ifvqco0","pricing_plan_id":"free"},{"bike_id":"67490cfa-9e08-4636-bcd2-676f6825334b","system_id":"levelo_inurba_marseille","lat":43.317557,"lon":5.390173,"is_reserved":false,"is_disabled":false,"rental_uris":{"android":"levelo://app?vid=67490cfa-9e08-4636-bcd2-676f6825334b","ios":"levelo://app?vid=67490cfa-9e08-4636-bcd2-676f6825334b"},"vehicle_type_id":"4","last_reported":1687813613,"current_range_meters":31200,"station_id":"ce4bhqp2rcd13ifvqhng","pricing_plan_id":"free"},{"bike_id":"78d06ac5-fe78-4fdb-b81b-ccc5676fccdc","system_id":"levelo_inurba_marseille","lat":43.317557,"lon":5.390173,"is_reserved":false,"is_disabled":false,"rental_uris":{"android":"levelo://app?vid=78d06ac5-fe78-4fdb-b81b-ccc5676fccdc","ios":"levelo://app?vid=78d06ac5-fe78-4fdb-b81b-ccc5676fccdc"},"vehicle_type_id":"4","last_reported":1687813613,"current_range_meters":18400,"station_id":"ce4bhqp2rcd13ifvqhng","pricing_plan_id":"free"},{"bike_id":"3f609fa9-00e8-4b81-96ee-1ad9dbebb365","system_id":"levelo_inurba_marseille","lat":43.317557,"lon":5.390173,"is_reserved":false,"is_disabled":false,"rental_uris":{"android":"levelo://app?vid=3f609fa9-00e8-4b81-96ee-1ad9dbebb365","ios":"levelo://app?vid=3f609fa9-00e8-4b81-96ee-1ad9dbebb365"},"vehicle_type_id":"4","last_reported":1687813613,"current_range_meters":27200,"station_id":"ce4bhqp2rcd13ifvqhng","pricing_plan_id":"free"},{"bike_id":"31c285d7-a7f3-48b0-8c8f-decf2ef1a3d3","system_id":"levelo_inurba_marseille","lat":43.30184,"lon":5.38609,"is_reserved":false,"is_disabled":false,"rental_uris":{"android":"levelo://app?vid=31c285d7-a7f3-48b0-8c8f-decf2ef1a3d3","ios":"levelo://app?vid=31c285d7-a7f3-48b0-8c8f-decf2ef1a3d3"},"vehicle_type_id":"4","last_reported":1687813613,"current_range_meters":13600,"station_id":"","pricing_plan_id":"free"},{"bike_id":"5245c237-ba2c-4d06-b92d-9385d37a4092","system_id":"levelo_inurba_marseille","lat":43.304274,"lon":5.388873,"is_reserved":false,"is_disabled":false,"rental_uris":{"android":"levelo://app?vid=5245c237-ba2c-4d06-b92d-9385d37a4092","ios":"levelo://app?vid=5245c237-ba2c-4d06-b92d-9385d37a4092"},"vehicle_type_id":"4","last_reported":1687813613,"current_range_meters":21200,"station_id":"ce4bgk12rcd13ifvqbi0","pricing_plan_id":"free"},{"bike_id":"8205acf7-8672-44d5-b737-fbf64241bf1a","system_id":"levelo_inurba_marseille","lat":43.29574,"lon":5.37902,"is_reserved":false,"is_disabled":false,"rental_uris":{"android":"levelo://app?vid=8205acf7-8672-44d5-b737-fbf64241bf1a","ios":"levelo://app?vid=8205acf7-8672-44d5-b737-fbf64241bf1a"},"vehicle_type_id":"4","last_reported":1687813613,"current_range_meters":0,"station_id":"","pricing_plan_id":"free"},{"bike_id":"07a94051-5312-4999-a998-8b0c1e5bccd9","system_id":"levelo_inurba_marseille","lat":43.32366,"lon":5.38879,"is_reserved":false,"is_disabled":false,"rental_uris":{"android":"levelo://app?vid=07a94051-5312-4999-a998-8b0c1e5bccd9","ios":"levelo://app?vid=07a94051-5312-4999-a998-8b0c1e5bccd9"},"vehicle_type_id":"4","last_reported":1687813613,"current_range_meters":5600,"station_id":"ce4bhqp2rcd13ifvqhog","pricing_plan_id":"free"},{"bike_id":"ed5c04bd-47bc-4eea-a375-02d23aa0be9b","system_id":"levelo_inurba_marseille","lat":43.29277,"lon":5.36844,"is_reserved":false,"is_disabled":false,"rental_uris":{"android":"levelo://app?vid=ed5c04bd-47bc-4eea-a375-02d23aa0be9b","ios":"levelo://app?vid=ed5c04bd-47bc-4eea-a375-02d23aa0be9b"},"vehicle_type_id":"4","last_reported":1687813613,"current_range_meters":14800,"station_id":"ce4bhbp2rcd13ifvqesg","pricing_plan_id":"free"},{"bike_id":"2145be7f-01bb-4739-b4d0-6bb5f1bc0b56","system_id":"levelo_inurba_marseille","lat":43.292749,"lon":5.368398,"is_reserved":false,"is_disabled":false,"rental_uris":{"android":"levelo://app?vid=2145be7f-01bb-4739-b4d0-6bb5f1bc0b56","ios":"levelo://app?vid=2145be7f-01bb-4739-b4d0-6bb5f1bc0b56"},"vehicle_type_id":"4","last_reported":1687813613,"current_range_meters":18000,"station_id":"ce4bhbp2rcd13ifvqesg","pricing_plan_id":"free"},{"bike_id":"b146d3cc-0265-45c2-bce5-0d207831b217","system_id":"levelo_inurba_marseille","lat":43.29906,"lon":5.38805,"is_reserved":false,"is_disabled":false,"rental_uris":{"android":"levelo://app?vid=b146d3cc-0265-45c2-bce5-0d207831b217","ios":"levelo://app?vid=b146d3cc-0265-45c2-bce5-0d207831b217"},"vehicle_type_id":"4","last_reported":1687813613,"current_range_meters":16400,"station_id":"","pricing_plan_id":"free"},{"bike_id":"464a1195-554a-42cb-a809-10009e1f58e2","system_id":"levelo_inurba_marseille","lat":43.2936,"lon":5.37835,"is_reserved":false,"is_disabled":false,"rental_uris":{"android":"levelo://app?vid=464a1195-554a-42cb-a809-10009e1f58e2","ios":"levelo://app?vid=464a1195-554a-42cb-a809-10009e1f58e2"},"vehicle_type_id":"4","last_reported":1687813613,"current_range_meters":0,"station_id":"ce4bgjh2rcd13ifvqbf0","pricing_plan_id":"free"},{"bike_id":"0e307e1d-09d2-4877-b2e6-eb4b0c15b186","system_id":"levelo_inurba_marseille","lat":43.2936,"lon":5.37835,"is_reserved":false,"is_disabled":false,"rental_uris":{"android":"levelo://app?vid=0e307e1d-09d2-4877-b2e6-eb4b0c15b186","ios":"levelo://app?vid=0e307e1d-09d2-4877-b2e6-eb4b0c15b186"},"vehicle_type_id":"4","last_reported":1687813613,"current_range_meters":400,"station_id":"ce4bgjh2rcd13ifvqbf0","pricing_plan_id":"free"},{"bike_id":"872b248d-f8fe-4c8b-a924-f6ecc12facc8","system_id":"levelo_inurba_marseille","lat":43.301,"lon":5.39086,"is_reserved":false,"is_disabled":false,"rental_uris":{"android":"levelo://app?vid=872b248d-f8fe-4c8b-a924-f6ecc12facc8","ios":"levelo://app?vid=872b248d-f8fe-4c8b-a924-f6ecc12facc8"},"vehicle_type_id":"4","last_reported":1687813613,"current_range_meters":25600,"station_id":"","pricing_plan_id":"free"},{"bike_id":"a3e26ab3-9b12-40db-b776-2f918eae8d9a","system_id":"levelo_inurba_marseille","lat":43.29222,"lon":5.36049,"is_reserved":false,"is_disabled":false,"rental_uris":{"android":"levelo://app?vid=a3e26ab3-9b12-40db-b776-2f918eae8d9a","ios":"levelo://app?vid=a3e26ab3-9b12-40db-b776-2f918eae8d9a"},"vehicle_type_id":"4","last_reported":1687813613,"current_range_meters":25200,"station_id":"","pricing_plan_id":"free"},{"bike_id":"4bace35e-5f11-4302-b669-fa69c84cd8a8","system_id":"levelo_inurba_marseille","lat":43.29222,"lon":5.36047,"is_reserved":false,"is_disabled":false,"rental_uris":{"android":"levelo://app?vid=4bace35e-5f11-4302-b669-fa69c84cd8a8","ios":"levelo://app?vid=4bace35e-5f11-4302-b669-fa69c84cd8a8"},"vehicle_type_id":"4","last_reported":1687813613,"current_range_meters":31200,"station_id":"","pricing_plan_id":"free"},{"bike_id":"b71601a0-4d89-46b2-839c-fffc068a810b","system_id":"levelo_inurba_marseille","lat":43.298764,"lon":5.388973,"is_reserved":false,"is_disabled":false,"rental_uris":{"android":"levelo://app?vid=b71601a0-4d89-46b2-839c-fffc068a810b","ios":"levelo://app?vid=b71601a0-4d89-46b2-839c-fffc068a810b"},"vehicle_type_id":"4","last_reported":1687813613,"current_range_meters":0,"station_id":"ce4bh392rcd13ifvqdl0","pricing_plan_id":"free"},{"bike_id":"94bd2cd8-5c5a-46d4-bf59-e36efb3c29d5","system_id":"levelo_inurba_marseille","lat":43.298764,"lon":5.388973,"is_reserved":false,"is_disabled":false,"rental_uris":{"android":"levelo://app?vid=94bd2cd8-5c5a-46d4-bf59-e36efb3c29d5","ios":"levelo://app?vid=94bd2cd8-5c5a-46d4-bf59-e36efb3c29d5"},"vehicle_type_id":"4","last_reported":1687813613,"current_range_meters":10800,"station_id":"ce4bh392rcd13ifvqdl0","pricing_plan_id":"free"},{"bike_id":"36744979-7fb3-4f8a-9e1b-a6d1e1a741ea","system_id":"levelo_inurba_marseille","lat":43.292663,"lon":5.376389,"is_reserved":false,"is_disabled":false,"rental_uris":{"android":"levelo://app?vid=36744979-7fb3-4f8a-9e1b-a6d1e1a741ea","ios":"levelo://app?vid=36744979-7fb3-4f8a-9e1b-a6d1e1a741ea"},"vehicle_type_id":"4","last_reported":1687813613,"current_range_meters":6400,"station_id":"ce4bgi12rcd13ifvqb80","pricing_plan_id":"free"},{"bike_id":"ab159341-8c15-4e3d-9226-3a715b88fb70","system_id":"levelo_inurba_marseille","lat":43.298764,"lon":5.388973,"is_reserved":false,"is_disabled":false,"rental_uris":{"android":"levelo://app?vid=ab159341-8c15-4e3d-9226-3a715b88fb70","ios":"levelo://app?vid=ab159341-8c15-4e3d-9226-3a715b88fb70"},"vehicle_type_id":"4","last_reported":1687813613,"current_range_meters":0,"station_id":"ce4bh392rcd13ifvqdl0","pricing_plan_id":"free"},{"bike_id":"9088986b-7cc8-4fde-a92b-f79ce0a5fd99","system_id":"levelo_inurba_marseille","lat":43.291675,"lon":5.371583,"is_reserved":false,"is_disabled":false,"rental_uris":{"android":"levelo://app?vid=9088986b-7cc8-4fde-a92b-f79ce0a5fd99","ios":"levelo://app?vid=9088986b-7cc8-4fde-a92b-f79ce0a5fd99"},"vehicle_type_id":"4","last_reported":1687813613,"current_range_meters":9200,"station_id":"ce4bha92rcd13ifvqeh0","pricing_plan_id":"free"},{"bike_id":"2bb1f400-a25a-4b68-9794-ff3d75643ec9","system_id":"levelo_inurba_marseille","lat":43.309038,"lon":5.396546,"is_reserved":false,"is_disabled":false,"rental_uris":{"android":"levelo://app?vid=2bb1f400-a25a-4b68-9794-ff3d75643ec9","ios":"levelo://app?vid=2bb1f400-a25a-4b68-9794-ff3d75643ec9"},"vehicle_type_id":"4","last_reported":1687813613,"current_range_meters":0,"station_id":"ce4bh012rcd13ifvqcv0","pricing_plan_id":"free"},{"bike_id":"7082c999-d9b0-4d5d-a60d-9906e1f353ca","system_id":"levelo_inurba_marseille","lat":43.309038,"lon":5.396546,"is_reserved":false,"is_disabled":false,"rental_uris":{"android":"levelo://app?vid=7082c999-d9b0-4d5d-a60d-9906e1f353ca","ios":"levelo://app?vid=7082c999-d9b0-4d5d-a60d-9906e1f353ca"},"vehicle_type_id":"4","last_reported":1687813613,"current_range_meters":15600,"station_id":"ce4bh012rcd13ifvqcv0","pricing_plan_id":"free"},{"bike_id":"bbdb8271-5c48-44c2-b9b3-50bdf340ab03","system_id":"levelo_inurba_marseille","lat":43.309038,"lon":5.396546,"is_reserved":false,"is_disabled":false,"rental_uris":{"android":"levelo://app?vid=bbdb8271-5c48-44c2-b9b3-50bdf340ab03","ios":"levelo://app?vid=bbdb8271-5c48-44c2-b9b3-50bdf340ab03"},"vehicle_type_id":"4","last_reported":1687813613,"current_range_meters":24000,"station_id":"ce4bh012rcd13ifvqcv0","pricing_plan_id":"free"},{"bike_id":"d0092d27-e025-4c40-b49d-35ded63b8a05","system_id":"levelo_inurba_marseille","lat":43.31326,"lon":5.3969,"is_reserved":false,"is_disabled":false,"rental_uris":{"android":"levelo://app?vid=d0092d27-e025-4c40-b49d-35ded63b8a05","ios":"levelo://app?vid=d0092d27-e025-4c40-b49d-35ded63b8a05"},"vehicle_type_id":"4","last_reported":1687813613,"current_range_meters":23200,"station_id":"ce4bgvp2rcd13ifvqcu0","pricing_plan_id":"free"},{"bike_id":"c789cd0f-7074-4136-a7ec-5facba507505","system_id":"levelo_inurba_marseille","lat":43.31319,"lon":5.39692,"is_reserved":false,"is_disabled":false,"rental_uris":{"android":"levelo://app?vid=c789cd0f-7074-4136-a7ec-5facba507505","ios":"levelo://app?vid=c789cd0f-7074-4136-a7ec-5facba507505"},"vehicle_type_id":"4","last_reported":1687813613,"current_range_meters":12800,"station_id":"","pricing_plan_id":"free"},{"bike_id":"52416a68-abf1-4d46-9d03-bbcef5a46558","system_id":"levelo_inurba_marseille","lat":43.309038,"lon":5.396546,"is_reserved":false,"is_disabled":false,"rental_uris":{"android":"levelo://app?vid=52416a68-abf1-4d46-9d03-bbcef5a46558","ios":"levelo://app?vid=52416a68-abf1-4d46-9d03-bbcef5a46558"},"vehicle_type_id":"4","last_reported":1687813613,"current_range_meters":13600,"station_id":"ce4bh012rcd13ifvqcv0","pricing_plan_id":"free"},{"bike_id":"593d4232-49d0-45c9-92ed-709beaec1a04","system_id":"levelo_inurba_marseille","lat":43.313291,"lon":5.396838,"is_reserved":false,"is_disabled":false,"rental_uris":{"android":"levelo://app?vid=593d4232-49d0-45c9-92ed-709beaec1a04","ios":"levelo://app?vid=593d4232-49d0-45c9-92ed-709beaec1a04"},"vehicle_type_id":"4","last_reported":1687813613,"current_range_meters":5200,"station_id":"ce4bgvp2rcd13ifvqcu0","pricing_plan_id":"free"},{"bike_id":"6d9e8277-fe31-4d9a-96c4-e781b08bac33","system_id":"levelo_inurba_marseille","lat":43.31323,"lon":5.39697,"is_reserved":false,"is_disabled":false,"rental_uris":{"android":"levelo://app?vid=6d9e8277-fe31-4d9a-96c4-e781b08bac33","ios":"levelo://app?vid=6d9e8277-fe31-4d9a-96c4-e781b08bac33"},"vehicle_type_id":"4","last_reported":1687813613,"current_range_meters":22800,"station_id":"","pricing_plan_id":"free"},{"bike_id":"5efcd2c0-248b-42bf-a252-c4c56b60a906","system_id":"levelo_inurba_marseille","lat":43.309038,"lon":5.396546,"is_reserved":false,"is_disabled":false,"rental_uris":{"android":"levelo://app?vid=5efcd2c0-248b-42bf-a252-c4c56b60a906","ios":"levelo://app?vid=5efcd2c0-248b-42bf-a252-c4c56b60a906"},"vehicle_type_id":"4","last_reported":1687813613,"current_range_meters":18800,"station_id":"ce4bh012rcd13ifvqcv0","pricing_plan_id":"free"},{"bike_id":"fa2e05a2-3a8a-462d-8436-5c11d729d74f","system_id":"levelo_inurba_marseille","lat":43.309038,"lon":5.396546,"is_reserved":false,"is_disabled":false,"rental_uris":{"android":"levelo://app?vid=fa2e05a2-3a8a-462d-8436-5c11d729d74f","ios":"levelo://app?vid=fa2e05a2-3a8a-462d-8436-5c11d729d74f"},"vehicle_type_id":"4","last_reported":1687813613,"current_range_meters":22400,"station_id":"ce4bh012rcd13ifvqcv0","pricing_plan_id":"free"},{"bike_id":"aae56079-154a-42db-b3e7-5d8b7361740e","system_id":"levelo_inurba_marseille","lat":43.29529,"lon":5.385581,"is_reserved":false,"is_disabled":false,"rental_uris":{"android":"levelo://app?vid=aae56079-154a-42db-b3e7-5d8b7361740e","ios":"levelo://app?vid=aae56079-154a-42db-b3e7-5d8b7361740e"},"vehicle_type_id":"4","last_reported":1687813613,"current_range_meters":14000,"station_id":"ce4bgih2rcd13ifvqba0","pricing_plan_id":"free"},{"bike_id":"ec532735-4dc5-4c2a-9403-96759be2eec7","system_id":"levelo_inurba_marseille","lat":43.29529,"lon":5.385581,"is_reserved":false,"is_disabled":false,"rental_uris":{"android":"levelo://app?vid=ec532735-4dc5-4c2a-9403-96759be2eec7","ios":"levelo://app?vid=ec532735-4dc5-4c2a-9403-96759be2eec7"},"vehicle_type_id":"4","last_reported":1687813613,"current_range_meters":21600,"station_id":"ce4bgih2rcd13ifvqba0","pricing_plan_id":"free"},{"bike_id":"ecacf2f8-3daa-498e-bab0-e5784b492362","system_id":"levelo_inurba_marseille","lat":43.29529,"lon":5.385581,"is_reserved":false,"is_disabled":false,"rental_uris":{"android":"levelo://app?vid=ecacf2f8-3daa-498e-bab0-e5784b492362","ios":"levelo://app?vid=ecacf2f8-3daa-498e-bab0-e5784b492362"},"vehicle_type_id":"4","last_reported":1687813613,"current_range_meters":0,"station_id":"ce4bgih2rcd13ifvqba0","pricing_plan_id":"free"},{"bike_id":"c1d7453f-72df-46ee-8ccf-7831cc7ccaec","system_id":"levelo_inurba_marseille","lat":43.29529,"lon":5.385581,"is_reserved":false,"is_disabled":false,"rental_uris":{"android":"levelo://app?vid=c1d7453f-72df-46ee-8ccf-7831cc7ccaec","ios":"levelo://app?vid=c1d7453f-72df-46ee-8ccf-7831cc7ccaec"},"vehicle_type_id":"4","last_reported":1687813613,"current_range_meters":23600,"station_id":"ce4bgih2rcd13ifvqba0","pricing_plan_id":"free"},{"bike_id":"b2f75654-fe8e-4fad-98ad-f9c335bf6af6","system_id":"levelo_inurba_marseille","lat":43.286591,"lon":5.363346,"is_reserved":false,"is_disabled":false,"rental_uris":{"android":"levelo://app?vid=b2f75654-fe8e-4fad-98ad-f9c335bf6af6","ios":"levelo://app?vid=b2f75654-fe8e-4fad-98ad-f9c335bf6af6"},"vehicle_type_id":"4","last_reported":1687813613,"current_range_meters":5200,"station_id":"ce4bhah2rcd13ifvqej0","pricing_plan_id":"free"},{"bike_id":"12ff16f0-69ce-4773-af84-3c890f0c4b38","system_id":"levelo_inurba_marseille","lat":43.297794,"lon":5.370888,"is_reserved":false,"is_disabled":false,"rental_uris":{"android":"levelo://app?vid=12ff16f0-69ce-4773-af84-3c890f0c4b38","ios":"levelo://app?vid=12ff16f0-69ce-4773-af84-3c890f0c4b38"},"vehicle_type_id":"4","last_reported":1687813613,"current_range_meters":10000,"station_id":"ce4bgop2rcd13ifvqc1g","pricing_plan_id":"free"},{"bike_id":"7be2e5b4-fb63-40f0-a85c-15de96f30367","system_id":"levelo_inurba_marseille","lat":43.290995,"lon":5.381361,"is_reserved":false,"is_disabled":false,"rental_uris":{"android":"levelo://app?vid=7be2e5b4-fb63-40f0-a85c-15de96f30367","ios":"levelo://app?vid=7be2e5b4-fb63-40f0-a85c-15de96f30367"},"vehicle_type_id":"4","last_reported":1687813613,"current_range_meters":25600,"station_id":"ce4bh512rcd13ifvqe2g","pricing_plan_id":"free"},{"bike_id":"195c7e21-7515-486c-a774-42e61d995bfc","system_id":"levelo_inurba_marseille","lat":43.294153,"lon":5.386305,"is_reserved":false,"is_disabled":false,"rental_uris":{"android":"levelo://app?vid=195c7e21-7515-486c-a774-42e61d995bfc","ios":"levelo://app?vid=195c7e21-7515-486c-a774-42e61d995bfc"},"vehicle_type_id":"4","last_reported":1687813613,"current_range_meters":8000,"station_id":"ce4bh2h2rcd13ifvqdh0","pricing_plan_id":"free"},{"bike_id":"1df7ec76-469d-440a-822e-b3cd9884f4d2","system_id":"levelo_inurba_marseille","lat":43.294162,"lon":5.386292,"is_reserved":false,"is_disabled":false,"rental_uris":{"android":"levelo://app?vid=1df7ec76-469d-440a-822e-b3cd9884f4d2","ios":"levelo://app?vid=1df7ec76-469d-440a-822e-b3cd9884f4d2"},"vehicle_type_id":"4","last_reported":1687813613,"current_range_meters":7200,"station_id":"ce4bh2h2rcd13ifvqdh0","pricing_plan_id":"free"},{"bike_id":"0f2ae01c-c2ec-4dd4-8af6-373286fcd043","system_id":"levelo_inurba_marseille","lat":43.294153,"lon":5.386305,"is_reserved":false,"is_disabled":false,"rental_uris":{"android":"levelo://app?vid=0f2ae01c-c2ec-4dd4-8af6-373286fcd043","ios":"levelo://app?vid=0f2ae01c-c2ec-4dd4-8af6-373286fcd043"},"vehicle_type_id":"4","last_reported":1687813613,"current_range_meters":2000,"station_id":"ce4bh2h2rcd13ifvqdh0","pricing_plan_id":"free"},{"bike_id":"f333a626-1f76-4ce3-94de-b31d300f6738","system_id":"levelo_inurba_marseille","lat":43.29416,"lon":5.38622,"is_reserved":false,"is_disabled":false,"rental_uris":{"android":"levelo://app?vid=f333a626-1f76-4ce3-94de-b31d300f6738","ios":"levelo://app?vid=f333a626-1f76-4ce3-94de-b31d300f6738"},"vehicle_type_id":"4","last_reported":1687813613,"current_range_meters":30400,"station_id":"ce4bh2h2rcd13ifvqdh0","pricing_plan_id":"free"},{"bike_id":"8442dd2c-c084-4ba6-8654-9f359df1be14","system_id":"levelo_inurba_marseille","lat":43.29418,"lon":5.38626,"is_reserved":false,"is_disabled":false,"rental_uris":{"android":"levelo://app?vid=8442dd2c-c084-4ba6-8654-9f359df1be14","ios":"levelo://app?vid=8442dd2c-c084-4ba6-8654-9f359df1be14"},"vehicle_type_id":"4","last_reported":1687813613,"current_range_meters":0,"station_id":"ce4bh2h2rcd13ifvqdh0","pricing_plan_id":"free"},{"bike_id":"20b2702a-2cf1-439f-b7da-41f192fa1a0a","system_id":"levelo_inurba_marseille","lat":43.29411,"lon":5.38614,"is_reserved":false,"is_disabled":false,"rental_uris":{"android":"levelo://app?vid=20b2702a-2cf1-439f-b7da-41f192fa1a0a","ios":"levelo://app?vid=20b2702a-2cf1-439f-b7da-41f192fa1a0a"},"vehicle_type_id":"4","last_reported":1687813613,"current_range_meters":10400,"station_id":"","pricing_plan_id":"free"},{"bike_id":"18033687-e748-47ee-b1fa-d8ce687a7cc1","system_id":"levelo_inurba_marseille","lat":43.29413,"lon":5.3863,"is_reserved":false,"is_disabled":false,"rental_uris":{"android":"levelo://app?vid=18033687-e748-47ee-b1fa-d8ce687a7cc1","ios":"levelo://app?vid=18033687-e748-47ee-b1fa-d8ce687a7cc1"},"vehicle_type_id":"4","last_reported":1687813613,"current_range_meters":10800,"station_id":"ce4bh2h2rcd13ifvqdh0","pricing_plan_id":"free"},{"bike_id":"ead3ec98-2f3e-44fb-abb6-b8d0cb7158f6","system_id":"levelo_inurba_marseille","lat":43.30253,"lon":5.39602,"is_reserved":false,"is_disabled":false,"rental_uris":{"android":"levelo://app?vid=ead3ec98-2f3e-44fb-abb6-b8d0cb7158f6","ios":"levelo://app?vid=ead3ec98-2f3e-44fb-abb6-b8d0cb7158f6"},"vehicle_type_id":"4","last_reported":1687813613,"current_range_meters":22000,"station_id":"","pricing_plan_id":"free"},{"bike_id":"358cb22f-4763-48a7-a77a-bc33c783688e","system_id":"levelo_inurba_marseille","lat":43.29276,"lon":5.38436,"is_reserved":false,"is_disabled":false,"rental_uris":{"android":"levelo://app?vid=358cb22f-4763-48a7-a77a-bc33c783688e","ios":"levelo://app?vid=358cb22f-4763-48a7-a77a-bc33c783688e"},"vehicle_type_id":"4","last_reported":1687813613,"current_range_meters":4800,"station_id":"ce4bh692rcd13ifvqea0","pricing_plan_id":"free"},{"bike_id":"a9c781fe-fa38-4d81-be79-4d08ec4ce71c","system_id":"levelo_inurba_marseille","lat":43.292644,"lon":5.384257,"is_reserved":false,"is_disabled":false,"rental_uris":{"android":"levelo://app?vid=a9c781fe-fa38-4d81-be79-4d08ec4ce71c","ios":"levelo://app?vid=a9c781fe-fa38-4d81-be79-4d08ec4ce71c"},"vehicle_type_id":"4","last_reported":1687813613,"current_range_meters":14800,"station_id":"ce4bh692rcd13ifvqea0","pricing_plan_id":"free"},{"bike_id":"31126b3c-72e2-412c-bf29-aa0ce2835760","system_id":"levelo_inurba_marseille","lat":43.304274,"lon":5.397513,"is_reserved":false,"is_disabled":false,"rental_uris":{"android":"levelo://app?vid=31126b3c-72e2-412c-bf29-aa0ce2835760","ios":"levelo://app?vid=31126b3c-72e2-412c-bf29-aa0ce2835760"},"vehicle_type_id":"4","last_reported":1687813613,"current_range_meters":6000,"station_id":"ce4bh092rcd13ifvqd20","pricing_plan_id":"free"},{"bike_id":"43608929-45a9-4448-9222-dc12e442402a","system_id":"levelo_inurba_marseille","lat":43.292644,"lon":5.384257,"is_reserved":false,"is_disabled":false,"rental_uris":{"android":"levelo://app?vid=43608929-45a9-4448-9222-dc12e442402a","ios":"levelo://app?vid=43608929-45a9-4448-9222-dc12e442402a"},"vehicle_type_id":"4","last_reported":1687813613,"current_range_meters":17600,"station_id":"ce4bh692rcd13ifvqea0","pricing_plan_id":"free"},{"bike_id":"9db621a9-a26f-484d-ae48-755a45e4e797","system_id":"levelo_inurba_marseille","lat":43.29264,"lon":5.38441,"is_reserved":false,"is_disabled":false,"rental_uris":{"android":"levelo://app?vid=9db621a9-a26f-484d-ae48-755a45e4e797","ios":"levelo://app?vid=9db621a9-a26f-484d-ae48-755a45e4e797"},"vehicle_type_id":"4","last_reported":1687813613,"current_range_meters":14800,"station_id":"ce4bh692rcd13ifvqea0","pricing_plan_id":"free"},{"bike_id":"14e1809f-3905-427c-a9b1-9252a4764104","system_id":"levelo_inurba_marseille","lat":43.29263,"lon":5.38443,"is_reserved":false,"is_disabled":false,"rental_uris":{"android":"levelo://app?vid=14e1809f-3905-427c-a9b1-9252a4764104","ios":"levelo://app?vid=14e1809f-3905-427c-a9b1-9252a4764104"},"vehicle_type_id":"4","last_reported":1687813613,"current_range_meters":27200,"station_id":"ce4bh692rcd13ifvqea0","pricing_plan_id":"free"},{"bike_id":"acb90037-839c-4c00-af58-5316aba79585","system_id":"levelo_inurba_marseille","lat":43.292644,"lon":5.384257,"is_reserved":false,"is_disabled":false,"rental_uris":{"android":"levelo://app?vid=acb90037-839c-4c00-af58-5316aba79585","ios":"levelo://app?vid=acb90037-839c-4c00-af58-5316aba79585"},"vehicle_type_id":"4","last_reported":1687813613,"current_range_meters":31200,"station_id":"ce4bh692rcd13ifvqea0","pricing_plan_id":"free"},{"bike_id":"0c7a7485-a272-4fa4-8e7e-d7187a0d1ca6","system_id":"levelo_inurba_marseille","lat":43.292644,"lon":5.384257,"is_reserved":false,"is_disabled":false,"rental_uris":{"android":"levelo://app?vid=0c7a7485-a272-4fa4-8e7e-d7187a0d1ca6","ios":"levelo://app?vid=0c7a7485-a272-4fa4-8e7e-d7187a0d1ca6"},"vehicle_type_id":"4","last_reported":1687813613,"current_range_meters":3600,"station_id":"ce4bh692rcd13ifvqea0","pricing_plan_id":"free"},{"bike_id":"d5a790f6-8471-409b-a36a-f98c1e0b4204","system_id":"levelo_inurba_marseille","lat":43.30473,"lon":5.39783,"is_reserved":false,"is_disabled":false,"rental_uris":{"android":"levelo://app?vid=d5a790f6-8471-409b-a36a-f98c1e0b4204","ios":"levelo://app?vid=d5a790f6-8471-409b-a36a-f98c1e0b4204"},"vehicle_type_id":"4","last_reported":1687813613,"current_range_meters":17200,"station_id":"","pricing_plan_id":"free"},{"bike_id":"33cf7f02-a58b-47fb-9ce2-d9c47752d497","system_id":"levelo_inurba_marseille","lat":43.30467,"lon":5.39789,"is_reserved":false,"is_disabled":false,"rental_uris":{"android":"levelo://app?vid=33cf7f02-a58b-47fb-9ce2-d9c47752d497","ios":"levelo://app?vid=33cf7f02-a58b-47fb-9ce2-d9c47752d497"},"vehicle_type_id":"4","last_reported":1687813613,"current_range_meters":10800,"station_id":"","pricing_plan_id":"free"},{"bike_id":"b3ef2810-358a-43a0-a312-6225dc5eb570","system_id":"levelo_inurba_marseille","lat":43.33043,"lon":5.38914,"is_reserved":false,"is_disabled":false,"rental_uris":{"android":"levelo://app?vid=b3ef2810-358a-43a0-a312-6225dc5eb570","ios":"levelo://app?vid=b3ef2810-358a-43a0-a312-6225dc5eb570"},"vehicle_type_id":"4","last_reported":1687813613,"current_range_meters":18800,"station_id":"ce4bhr92rcd13ifvqhrg","pricing_plan_id":"free"},{"bike_id":"376b2e1d-c75f-46cc-b2b9-fc2fb985e056","system_id":"levelo_inurba_marseille","lat":43.29105,"lon":5.3814,"is_reserved":false,"is_disabled":false,"rental_uris":{"android":"levelo://app?vid=376b2e1d-c75f-46cc-b2b9-fc2fb985e056","ios":"levelo://app?vid=376b2e1d-c75f-46cc-b2b9-fc2fb985e056"},"vehicle_type_id":"4","last_reported":1687813613,"current_range_meters":28000,"station_id":"ce4bh512rcd13ifvqe2g","pricing_plan_id":"free"},{"bike_id":"e309b93f-d6a1-4607-af3a-e78baed1caf1","system_id":"levelo_inurba_marseille","lat":43.290995,"lon":5.381361,"is_reserved":false,"is_disabled":false,"rental_uris":{"android":"levelo://app?vid=e309b93f-d6a1-4607-af3a-e78baed1caf1","ios":"levelo://app?vid=e309b93f-d6a1-4607-af3a-e78baed1caf1"},"vehicle_type_id":"4","last_reported":1687813613,"current_range_meters":18000,"station_id":"ce4bh512rcd13ifvqe2g","pricing_plan_id":"free"},{"bike_id":"d4f478e7-efcf-4311-8dc1-30b396a495c2","system_id":"levelo_inurba_marseille","lat":43.29099,"lon":5.38135,"is_reserved":false,"is_disabled":false,"rental_uris":{"android":"levelo://app?vid=d4f478e7-efcf-4311-8dc1-30b396a495c2","ios":"levelo://app?vid=d4f478e7-efcf-4311-8dc1-30b396a495c2"},"vehicle_type_id":"4","last_reported":1687813613,"current_range_meters":19600,"station_id":"ce4bh512rcd13ifvqe2g","pricing_plan_id":"free"},{"bike_id":"86743372-416b-467d-bffd-766895430cff","system_id":"levelo_inurba_marseille","lat":43.290995,"lon":5.381361,"is_reserved":false,"is_disabled":false,"rental_uris":{"android":"levelo://app?vid=86743372-416b-467d-bffd-766895430cff","ios":"levelo://app?vid=86743372-416b-467d-bffd-766895430cff"},"vehicle_type_id":"4","last_reported":1687813613,"current_range_meters":29200,"station_id":"ce4bh512rcd13ifvqe2g","pricing_plan_id":"free"},{"bike_id":"ffdd8bc0-6270-4932-a57f-80fa816e82b3","system_id":"levelo_inurba_marseille","lat":43.29097,"lon":5.38137,"is_reserved":false,"is_disabled":false,"rental_uris":{"android":"levelo://app?vid=ffdd8bc0-6270-4932-a57f-80fa816e82b3","ios":"levelo://app?vid=ffdd8bc0-6270-4932-a57f-80fa816e82b3"},"vehicle_type_id":"4","last_reported":1687813613,"current_range_meters":19200,"station_id":"ce4bh512rcd13ifvqe2g","pricing_plan_id":"free"},{"bike_id":"36799850-b845-4ff7-b85b-84bc04adc40a","system_id":"levelo_inurba_marseille","lat":43.290995,"lon":5.381361,"is_reserved":false,"is_disabled":false,"rental_uris":{"android":"levelo://app?vid=36799850-b845-4ff7-b85b-84bc04adc40a","ios":"levelo://app?vid=36799850-b845-4ff7-b85b-84bc04adc40a"},"vehicle_type_id":"4","last_reported":1687813613,"current_range_meters":800,"station_id":"ce4bh512rcd13ifvqe2g","pricing_plan_id":"free"},{"bike_id":"6b8003ad-16cb-493a-b688-4ae74914f98c","system_id":"levelo_inurba_marseille","lat":43.290995,"lon":5.381361,"is_reserved":false,"is_disabled":false,"rental_uris":{"android":"levelo://app?vid=6b8003ad-16cb-493a-b688-4ae74914f98c","ios":"levelo://app?vid=6b8003ad-16cb-493a-b688-4ae74914f98c"},"vehicle_type_id":"4","last_reported":1687813613,"current_range_meters":17600,"station_id":"ce4bh512rcd13ifvqe2g","pricing_plan_id":"free"},{"bike_id":"29ffdb6f-5a01-4466-b5bd-64a96d1cc915","system_id":"levelo_inurba_marseille","lat":43.295169,"lon":5.390426,"is_reserved":false,"is_disabled":false,"rental_uris":{"android":"levelo://app?vid=29ffdb6f-5a01-4466-b5bd-64a96d1cc915","ios":"levelo://app?vid=29ffdb6f-5a01-4466-b5bd-64a96d1cc915"},"vehicle_type_id":"4","last_reported":1687813613,"current_range_meters":6000,"station_id":"ce4bh3p2rcd13ifvqdp0","pricing_plan_id":"free"},{"bike_id":"e4e8b20c-c669-45e7-ad27-aba2995b00ea","system_id":"levelo_inurba_marseille","lat":43.297815,"lon":5.393548,"is_reserved":false,"is_disabled":false,"rental_uris":{"android":"levelo://app?vid=e4e8b20c-c669-45e7-ad27-aba2995b00ea","ios":"levelo://app?vid=e4e8b20c-c669-45e7-ad27-aba2995b00ea"},"vehicle_type_id":"4","last_reported":1687813613,"current_range_meters":1600,"station_id":"chh1huq6cuj3fo74tm60","pricing_plan_id":"free"},{"bike_id":"afd843b4-33c8-47c6-aeee-702cd813046c","system_id":"levelo_inurba_marseille","lat":43.295169,"lon":5.390426,"is_reserved":false,"is_disabled":false,"rental_uris":{"android":"levelo://app?vid=afd843b4-33c8-47c6-aeee-702cd813046c","ios":"levelo://app?vid=afd843b4-33c8-47c6-aeee-702cd813046c"},"vehicle_type_id":"4","last_reported":1687813613,"current_range_meters":6800,"station_id":"ce4bh3p2rcd13ifvqdp0","pricing_plan_id":"free"},{"bike_id":"20cc8fdc-e4b7-4fee-8fb2-abe2506fa5ca","system_id":"levelo_inurba_marseille","lat":43.2953,"lon":5.39035,"is_reserved":false,"is_disabled":false,"rental_uris":{"android":"levelo://app?vid=20cc8fdc-e4b7-4fee-8fb2-abe2506fa5ca","ios":"levelo://app?vid=20cc8fdc-e4b7-4fee-8fb2-abe2506fa5ca"},"vehicle_type_id":"4","last_reported":1687813613,"current_range_meters":10400,"station_id":"ce4bh3p2rcd13ifvqdp0","pricing_plan_id":"free"},{"bike_id":"4cc45ee4-8335-45f0-902b-25b348d0bba4","system_id":"levelo_inurba_marseille","lat":43.295169,"lon":5.390426,"is_reserved":false,"is_disabled":false,"rental_uris":{"android":"levelo://app?vid=4cc45ee4-8335-45f0-902b-25b348d0bba4","ios":"levelo://app?vid=4cc45ee4-8335-45f0-902b-25b348d0bba4"},"vehicle_type_id":"4","last_reported":1687813613,"current_range_meters":12800,"station_id":"ce4bh3p2rcd13ifvqdp0","pricing_plan_id":"free"},{"bike_id":"6ccdfccb-5832-4284-9173-d6b7b04425a6","system_id":"levelo_inurba_marseille","lat":43.295169,"lon":5.390426,"is_reserved":false,"is_disabled":false,"rental_uris":{"android":"levelo://app?vid=6ccdfccb-5832-4284-9173-d6b7b04425a6","ios":"levelo://app?vid=6ccdfccb-5832-4284-9173-d6b7b04425a6"},"vehicle_type_id":"4","last_reported":1687813613,"current_range_meters":25600,"station_id":"ce4bh3p2rcd13ifvqdp0","pricing_plan_id":"free"},{"bike_id":"c8f148a6-fcc2-4c52-9c6b-e9bf2a8e97fb","system_id":"levelo_inurba_marseille","lat":43.295169,"lon":5.390426,"is_reserved":false,"is_disabled":false,"rental_uris":{"android":"levelo://app?vid=c8f148a6-fcc2-4c52-9c6b-e9bf2a8e97fb","ios":"levelo://app?vid=c8f148a6-fcc2-4c52-9c6b-e9bf2a8e97fb"},"vehicle_type_id":"4","last_reported":1687813613,"current_range_meters":16400,"station_id":"ce4bh3p2rcd13ifvqdp0","pricing_plan_id":"free"},{"bike_id":"de75a54f-a324-468a-a8bd-50cbdced997d","system_id":"levelo_inurba_marseille","lat":43.295169,"lon":5.390426,"is_reserved":false,"is_disabled":false,"rental_uris":{"android":"levelo://app?vid=de75a54f-a324-468a-a8bd-50cbdced997d","ios":"levelo://app?vid=de75a54f-a324-468a-a8bd-50cbdced997d"},"vehicle_type_id":"4","last_reported":1687813613,"current_range_meters":25600,"station_id":"ce4bh3p2rcd13ifvqdp0","pricing_plan_id":"free"},{"bike_id":"eb61614e-c91a-4655-9ec9-8f489a8d76af","system_id":"levelo_inurba_marseille","lat":43.289743,"lon":5.378304,"is_reserved":false,"is_disabled":false,"rental_uris":{"android":"levelo://app?vid=eb61614e-c91a-4655-9ec9-8f489a8d76af","ios":"levelo://app?vid=eb61614e-c91a-4655-9ec9-8f489a8d76af"},"vehicle_type_id":"4","last_reported":1687813613,"current_range_meters":0,"station_id":"ce4bh9p2rcd13ifvqed0","pricing_plan_id":"free"},{"bike_id":"0c18e0f1-9839-4ada-bb61-d1ed3b2ca49c","system_id":"levelo_inurba_marseille","lat":43.30962,"lon":5.40055,"is_reserved":false,"is_disabled":false,"rental_uris":{"android":"levelo://app?vid=0c18e0f1-9839-4ada-bb61-d1ed3b2ca49c","ios":"levelo://app?vid=0c18e0f1-9839-4ada-bb61-d1ed3b2ca49c"},"vehicle_type_id":"4","last_reported":1687813613,"current_range_meters":17600,"station_id":"","pricing_plan_id":"free"},{"bike_id":"efd5bf74-40f7-423d-88c2-8091f0576713","system_id":"levelo_inurba_marseille","lat":43.290094,"lon":5.381264,"is_reserved":false,"is_disabled":false,"rental_uris":{"android":"levelo://app?vid=efd5bf74-40f7-423d-88c2-8091f0576713","ios":"levelo://app?vid=efd5bf74-40f7-423d-88c2-8091f0576713"},"vehicle_type_id":"4","last_reported":1687813613,"current_range_meters":11600,"station_id":"ce4bh4p2rcd13ifvqe1g","pricing_plan_id":"free"},{"bike_id":"718509af-f2f4-485e-8a93-37ac283fdbf7","system_id":"levelo_inurba_marseille","lat":43.309371,"lon":5.401449,"is_reserved":false,"is_disabled":false,"rental_uris":{"android":"levelo://app?vid=718509af-f2f4-485e-8a93-37ac283fdbf7","ios":"levelo://app?vid=718509af-f2f4-485e-8a93-37ac283fdbf7"},"vehicle_type_id":"4","last_reported":1687813613,"current_range_meters":1200,"station_id":"ce4bgvp2rcd13ifvqct0","pricing_plan_id":"free"},{"bike_id":"156d2745-af18-4a60-a5e8-d97de2a58c2e","system_id":"levelo_inurba_marseille","lat":43.30646,"lon":5.40062,"is_reserved":false,"is_disabled":false,"rental_uris":{"android":"levelo://app?vid=156d2745-af18-4a60-a5e8-d97de2a58c2e","ios":"levelo://app?vid=156d2745-af18-4a60-a5e8-d97de2a58c2e"},"vehicle_type_id":"4","last_reported":1687813613,"current_range_meters":26400,"station_id":"","pricing_plan_id":"free"},{"bike_id":"f5ae117b-100e-4ec7-b2f7-be8cc0453584","system_id":"levelo_inurba_marseille","lat":43.309371,"lon":5.401449,"is_reserved":false,"is_disabled":false,"rental_uris":{"android":"levelo://app?vid=f5ae117b-100e-4ec7-b2f7-be8cc0453584","ios":"levelo://app?vid=f5ae117b-100e-4ec7-b2f7-be8cc0453584"},"vehicle_type_id":"4","last_reported":1687813613,"current_range_meters":10000,"station_id":"ce4bgvp2rcd13ifvqct0","pricing_plan_id":"free"},{"bike_id":"c180ae38-f769-441f-8a55-5a6e4930e6ad","system_id":"levelo_inurba_marseille","lat":43.3375,"lon":5.37439,"is_reserved":false,"is_disabled":false,"rental_uris":{"android":"levelo://app?vid=c180ae38-f769-441f-8a55-5a6e4930e6ad","ios":"levelo://app?vid=c180ae38-f769-441f-8a55-5a6e4930e6ad"},"vehicle_type_id":"4","last_reported":1687813613,"current_range_meters":15600,"station_id":"","pricing_plan_id":"free"},{"bike_id":"7a75cf59-2a04-4784-854e-c064f88c5ec8","system_id":"levelo_inurba_marseille","lat":43.309371,"lon":5.401449,"is_reserved":false,"is_disabled":false,"rental_uris":{"android":"levelo://app?vid=7a75cf59-2a04-4784-854e-c064f88c5ec8","ios":"levelo://app?vid=7a75cf59-2a04-4784-854e-c064f88c5ec8"},"vehicle_type_id":"4","last_reported":1687813613,"current_range_meters":2400,"station_id":"ce4bgvp2rcd13ifvqct0","pricing_plan_id":"free"},{"bike_id":"3f8a925a-6a54-4259-a38f-9cf091aab246","system_id":"levelo_inurba_marseille","lat":43.29228,"lon":5.38756,"is_reserved":false,"is_disabled":false,"rental_uris":{"android":"levelo://app?vid=3f8a925a-6a54-4259-a38f-9cf091aab246","ios":"levelo://app?vid=3f8a925a-6a54-4259-a38f-9cf091aab246"},"vehicle_type_id":"4","last_reported":1687813613,"current_range_meters":10000,"station_id":"","pricing_plan_id":"free"},{"bike_id":"61450379-fa37-4245-93c6-d41763e3c7da","system_id":"levelo_inurba_marseille","lat":43.30642,"lon":5.401031,"is_reserved":false,"is_disabled":false,"rental_uris":{"android":"levelo://app?vid=61450379-fa37-4245-93c6-d41763e3c7da","ios":"levelo://app?vid=61450379-fa37-4245-93c6-d41763e3c7da"},"vehicle_type_id":"4","last_reported":1687813613,"current_range_meters":1600,"station_id":"ce4bh112rcd13ifvqda0","pricing_plan_id":"free"},{"bike_id":"db46b3d7-9860-4110-b1fd-6b896d99052d","system_id":"levelo_inurba_marseille","lat":43.30632,"lon":5.40068,"is_reserved":false,"is_disabled":false,"rental_uris":{"android":"levelo://app?vid=db46b3d7-9860-4110-b1fd-6b896d99052d","ios":"levelo://app?vid=db46b3d7-9860-4110-b1fd-6b896d99052d"},"vehicle_type_id":"4","last_reported":1687813613,"current_range_meters":0,"station_id":"","pricing_plan_id":"free"},{"bike_id":"a6b108f6-8cca-4806-bce6-4e6b29893a79","system_id":"levelo_inurba_marseille","lat":43.3064,"lon":5.40071,"is_reserved":false,"is_disabled":false,"rental_uris":{"android":"levelo://app?vid=a6b108f6-8cca-4806-bce6-4e6b29893a79","ios":"levelo://app?vid=a6b108f6-8cca-4806-bce6-4e6b29893a79"},"vehicle_type_id":"4","last_reported":1687813613,"current_range_meters":4800,"station_id":"ce4bh112rcd13ifvqda0","pricing_plan_id":"free"},{"bike_id":"8ebdae48-74b4-4e4b-9df2-c4c8efb21ca6","system_id":"levelo_inurba_marseille","lat":43.30642,"lon":5.401031,"is_reserved":false,"is_disabled":false,"rental_uris":{"android":"levelo://app?vid=8ebdae48-74b4-4e4b-9df2-c4c8efb21ca6","ios":"levelo://app?vid=8ebdae48-74b4-4e4b-9df2-c4c8efb21ca6"},"vehicle_type_id":"4","last_reported":1687813613,"current_range_meters":5200,"station_id":"ce4bh112rcd13ifvqda0","pricing_plan_id":"free"},{"bike_id":"10a23232-015b-42da-8869-075d5ee155d9","system_id":"levelo_inurba_marseille","lat":43.30639,"lon":5.40075,"is_reserved":false,"is_disabled":false,"rental_uris":{"android":"levelo://app?vid=10a23232-015b-42da-8869-075d5ee155d9","ios":"levelo://app?vid=10a23232-015b-42da-8869-075d5ee155d9"},"vehicle_type_id":"4","last_reported":1687813613,"current_range_meters":0,"station_id":"ce4bh112rcd13ifvqda0","pricing_plan_id":"free"},{"bike_id":"1eee50ae-68c5-479e-acb0-fe318eea6da4","system_id":"levelo_inurba_marseille","lat":43.30642,"lon":5.401031,"is_reserved":false,"is_disabled":false,"rental_uris":{"android":"levelo://app?vid=1eee50ae-68c5-479e-acb0-fe318eea6da4","ios":"levelo://app?vid=1eee50ae-68c5-479e-acb0-fe318eea6da4"},"vehicle_type_id":"4","last_reported":1687813613,"current_range_meters":21200,"station_id":"ce4bh112rcd13ifvqda0","pricing_plan_id":"free"},{"bike_id":"4748e21a-4d84-4110-b613-e1504901cae5","system_id":"levelo_inurba_marseille","lat":43.3064,"lon":5.40089,"is_reserved":false,"is_disabled":false,"rental_uris":{"android":"levelo://app?vid=4748e21a-4d84-4110-b613-e1504901cae5","ios":"levelo://app?vid=4748e21a-4d84-4110-b613-e1504901cae5"},"vehicle_type_id":"4","last_reported":1687813613,"current_range_meters":11600,"station_id":"ce4bh112rcd13ifvqda0","pricing_plan_id":"free"},{"bike_id":"49bb6cf7-4f69-4529-97ae-3eb9ffe42c8d","system_id":"levelo_inurba_marseille","lat":43.301117,"lon":5.398795,"is_reserved":false,"is_disabled":false,"rental_uris":{"android":"levelo://app?vid=49bb6cf7-4f69-4529-97ae-3eb9ffe42c8d","ios":"levelo://app?vid=49bb6cf7-4f69-4529-97ae-3eb9ffe42c8d"},"vehicle_type_id":"4","last_reported":1687813613,"current_range_meters":28800,"station_id":"ce4bh0h2rcd13ifvqd40","pricing_plan_id":"free"},{"bike_id":"ba8a6add-1d66-4093-bff8-503a877e827c","system_id":"levelo_inurba_marseille","lat":43.30645,"lon":5.40095,"is_reserved":false,"is_disabled":false,"rental_uris":{"android":"levelo://app?vid=ba8a6add-1d66-4093-bff8-503a877e827c","ios":"levelo://app?vid=ba8a6add-1d66-4093-bff8-503a877e827c"},"vehicle_type_id":"4","last_reported":1687813613,"current_range_meters":22000,"station_id":"ce4bh112rcd13ifvqda0","pricing_plan_id":"free"},{"bike_id":"b4ed8ad5-0bf8-4af3-a7bc-4969fddfa43a","system_id":"levelo_inurba_marseille","lat":43.309371,"lon":5.401449,"is_reserved":false,"is_disabled":false,"rental_uris":{"android":"levelo://app?vid=b4ed8ad5-0bf8-4af3-a7bc-4969fddfa43a","ios":"levelo://app?vid=b4ed8ad5-0bf8-4af3-a7bc-4969fddfa43a"},"vehicle_type_id":"4","last_reported":1687813613,"current_range_meters":0,"station_id":"ce4bgvp2rcd13ifvqct0","pricing_plan_id":"free"},{"bike_id":"9b2dba90-500f-4069-9a57-8b2064165dac","system_id":"levelo_inurba_marseille","lat":43.286591,"lon":5.363346,"is_reserved":false,"is_disabled":false,"rental_uris":{"android":"levelo://app?vid=9b2dba90-500f-4069-9a57-8b2064165dac","ios":"levelo://app?vid=9b2dba90-500f-4069-9a57-8b2064165dac"},"vehicle_type_id":"4","last_reported":1687813613,"current_range_meters":7200,"station_id":"ce4bhah2rcd13ifvqej0","pricing_plan_id":"free"},{"bike_id":"09f5408d-5b16-4a2b-8713-d3760b88ea4e","system_id":"levelo_inurba_marseille","lat":43.286961,"lon":5.373785,"is_reserved":false,"is_disabled":false,"rental_uris":{"android":"levelo://app?vid=09f5408d-5b16-4a2b-8713-d3760b88ea4e","ios":"levelo://app?vid=09f5408d-5b16-4a2b-8713-d3760b88ea4e"},"vehicle_type_id":"4","last_reported":1687813613,"current_range_meters":28400,"station_id":"ce4bh3p2rcd13ifvqdq0","pricing_plan_id":"free"},{"bike_id":"9c9b52de-42cc-475e-8ab8-088bb577902e","system_id":"levelo_inurba_marseille","lat":43.29874,"lon":5.39732,"is_reserved":false,"is_disabled":false,"rental_uris":{"android":"levelo://app?vid=9c9b52de-42cc-475e-8ab8-088bb577902e","ios":"levelo://app?vid=9c9b52de-42cc-475e-8ab8-088bb577902e"},"vehicle_type_id":"4","last_reported":1687813613,"current_range_meters":22400,"station_id":"ce4bh0h2rcd13ifvqd50","pricing_plan_id":"free"},{"bike_id":"a1d57ab1-829e-4949-9e7e-221888802fff","system_id":"levelo_inurba_marseille","lat":43.286591,"lon":5.363346,"is_reserved":false,"is_disabled":false,"rental_uris":{"android":"levelo://app?vid=a1d57ab1-829e-4949-9e7e-221888802fff","ios":"levelo://app?vid=a1d57ab1-829e-4949-9e7e-221888802fff"},"vehicle_type_id":"4","last_reported":1687813613,"current_range_meters":11600,"station_id":"ce4bhah2rcd13ifvqej0","pricing_plan_id":"free"},{"bike_id":"7966cefe-a78d-424d-8131-c63be627899c","system_id":"levelo_inurba_marseille","lat":43.286961,"lon":5.373785,"is_reserved":false,"is_disabled":false,"rental_uris":{"android":"levelo://app?vid=7966cefe-a78d-424d-8131-c63be627899c","ios":"levelo://app?vid=7966cefe-a78d-424d-8131-c63be627899c"},"vehicle_type_id":"4","last_reported":1687813613,"current_range_meters":31200,"station_id":"ce4bh3p2rcd13ifvqdq0","pricing_plan_id":"free"},{"bike_id":"4049a526-52c9-44a6-a502-38714dac3b6c","system_id":"levelo_inurba_marseille","lat":43.298681,"lon":5.397225,"is_reserved":false,"is_disabled":false,"rental_uris":{"android":"levelo://app?vid=4049a526-52c9-44a6-a502-38714dac3b6c","ios":"levelo://app?vid=4049a526-52c9-44a6-a502-38714dac3b6c"},"vehicle_type_id":"4","last_reported":1687813613,"current_range_meters":8400,"station_id":"ce4bh0h2rcd13ifvqd50","pricing_plan_id":"free"},{"bike_id":"038ca1d3-d07b-4ecb-930f-fc31fc2799f5","system_id":"levelo_inurba_marseille","lat":43.295196,"lon":5.39397,"is_reserved":false,"is_disabled":false,"rental_uris":{"android":"levelo://app?vid=038ca1d3-d07b-4ecb-930f-fc31fc2799f5","ios":"levelo://app?vid=038ca1d3-d07b-4ecb-930f-fc31fc2799f5"},"vehicle_type_id":"4","last_reported":1687813613,"current_range_meters":24800,"station_id":"ce4bh292rcd13ifvqdf0","pricing_plan_id":"free"},{"bike_id":"010e8fe5-3821-4097-a918-80ee385ba6f6","system_id":"levelo_inurba_marseille","lat":43.286961,"lon":5.373785,"is_reserved":false,"is_disabled":false,"rental_uris":{"android":"levelo://app?vid=010e8fe5-3821-4097-a918-80ee385ba6f6","ios":"levelo://app?vid=010e8fe5-3821-4097-a918-80ee385ba6f6"},"vehicle_type_id":"4","last_reported":1687813613,"current_range_meters":24000,"station_id":"ce4bh3p2rcd13ifvqdq0","pricing_plan_id":"free"},{"bike_id":"2640b4b3-1e2e-4e29-a992-f35f1fca174b","system_id":"levelo_inurba_marseille","lat":43.295196,"lon":5.39397,"is_reserved":false,"is_disabled":false,"rental_uris":{"android":"levelo://app?vid=2640b4b3-1e2e-4e29-a992-f35f1fca174b","ios":"levelo://app?vid=2640b4b3-1e2e-4e29-a992-f35f1fca174b"},"vehicle_type_id":"4","last_reported":1687813613,"current_range_meters":30000,"station_id":"ce4bh292rcd13ifvqdf0","pricing_plan_id":"free"},{"bike_id":"52305795-814e-47f5-af91-462e2d0de9e9","system_id":"levelo_inurba_marseille","lat":43.295196,"lon":5.39397,"is_reserved":false,"is_disabled":false,"rental_uris":{"android":"levelo://app?vid=52305795-814e-47f5-af91-462e2d0de9e9","ios":"levelo://app?vid=52305795-814e-47f5-af91-462e2d0de9e9"},"vehicle_type_id":"4","last_reported":1687813613,"current_range_meters":30000,"station_id":"ce4bh292rcd13ifvqdf0","pricing_plan_id":"free"},{"bike_id":"876d9c45-e0f2-464d-918f-a5a66bfe05ab","system_id":"levelo_inurba_marseille","lat":43.295196,"lon":5.39397,"is_reserved":false,"is_disabled":false,"rental_uris":{"android":"levelo://app?vid=876d9c45-e0f2-464d-918f-a5a66bfe05ab","ios":"levelo://app?vid=876d9c45-e0f2-464d-918f-a5a66bfe05ab"},"vehicle_type_id":"4","last_reported":1687813613,"current_range_meters":4800,"station_id":"ce4bh292rcd13ifvqdf0","pricing_plan_id":"free"},{"bike_id":"aaba5036-3eca-4117-a391-0e3c1edd3bc0","system_id":"levelo_inurba_marseille","lat":43.295196,"lon":5.39397,"is_reserved":false,"is_disabled":false,"rental_uris":{"android":"levelo://app?vid=aaba5036-3eca-4117-a391-0e3c1edd3bc0","ios":"levelo://app?vid=aaba5036-3eca-4117-a391-0e3c1edd3bc0"},"vehicle_type_id":"4","last_reported":1687813613,"current_range_meters":9200,"station_id":"ce4bh292rcd13ifvqdf0","pricing_plan_id":"free"},{"bike_id":"7c54c3dd-9192-47f6-8b3d-e455beac7e5d","system_id":"levelo_inurba_marseille","lat":43.295196,"lon":5.39397,"is_reserved":false,"is_disabled":false,"rental_uris":{"android":"levelo://app?vid=7c54c3dd-9192-47f6-8b3d-e455beac7e5d","ios":"levelo://app?vid=7c54c3dd-9192-47f6-8b3d-e455beac7e5d"},"vehicle_type_id":"4","last_reported":1687813613,"current_range_meters":18000,"station_id":"ce4bh292rcd13ifvqdf0","pricing_plan_id":"free"},{"bike_id":"8b7e5aff-8149-4b5f-98d4-dbd72168ea0b","system_id":"levelo_inurba_marseille","lat":43.295196,"lon":5.39397,"is_reserved":false,"is_disabled":false,"rental_uris":{"android":"levelo://app?vid=8b7e5aff-8149-4b5f-98d4-dbd72168ea0b","ios":"levelo://app?vid=8b7e5aff-8149-4b5f-98d4-dbd72168ea0b"},"vehicle_type_id":"4","last_reported":1687813613,"current_range_meters":1200,"station_id":"ce4bh292rcd13ifvqdf0","pricing_plan_id":"free"},{"bike_id":"62674688-486e-4d46-bbb8-8853d5b4ef03","system_id":"levelo_inurba_marseille","lat":43.295196,"lon":5.39397,"is_reserved":false,"is_disabled":false,"rental_uris":{"android":"levelo://app?vid=62674688-486e-4d46-bbb8-8853d5b4ef03","ios":"levelo://app?vid=62674688-486e-4d46-bbb8-8853d5b4ef03"},"vehicle_type_id":"4","last_reported":1687813613,"current_range_meters":4400,"station_id":"ce4bh292rcd13ifvqdf0","pricing_plan_id":"free"},{"bike_id":"89526005-4ecf-4813-b09d-787bcbcfaca5","system_id":"levelo_inurba_marseille","lat":43.295194,"lon":5.39397,"is_reserved":false,"is_disabled":false,"rental_uris":{"android":"levelo://app?vid=89526005-4ecf-4813-b09d-787bcbcfaca5","ios":"levelo://app?vid=89526005-4ecf-4813-b09d-787bcbcfaca5"},"vehicle_type_id":"4","last_reported":1687813613,"current_range_meters":25200,"station_id":"ce4bh292rcd13ifvqdf0","pricing_plan_id":"free"},{"bike_id":"eed05927-79aa-4b22-b0b6-1a965e63ed5b","system_id":"levelo_inurba_marseille","lat":43.290345,"lon":5.38646,"is_reserved":false,"is_disabled":false,"rental_uris":{"android":"levelo://app?vid=eed05927-79aa-4b22-b0b6-1a965e63ed5b","ios":"levelo://app?vid=eed05927-79aa-4b22-b0b6-1a965e63ed5b"},"vehicle_type_id":"4","last_reported":1687813613,"current_range_meters":11200,"station_id":"ce4bh4p2rcd13ifvqe0g","pricing_plan_id":"free"},{"bike_id":"e85ef1b1-2a92-4111-973e-26de4b2a50f9","system_id":"levelo_inurba_marseille","lat":43.302759,"lon":5.400793,"is_reserved":false,"is_disabled":false,"rental_uris":{"android":"levelo://app?vid=e85ef1b1-2a92-4111-973e-26de4b2a50f9","ios":"levelo://app?vid=e85ef1b1-2a92-4111-973e-26de4b2a50f9"},"vehicle_type_id":"4","last_reported":1687813613,"current_range_meters":9200,"station_id":"ce4bgvh2rcd13ifvqcs0","pricing_plan_id":"free"},{"bike_id":"fcb692bb-37e6-4cd9-8961-40dd92b0baa9","system_id":"levelo_inurba_marseille","lat":43.290336,"lon":5.386425,"is_reserved":false,"is_disabled":false,"rental_uris":{"android":"levelo://app?vid=fcb692bb-37e6-4cd9-8961-40dd92b0baa9","ios":"levelo://app?vid=fcb692bb-37e6-4cd9-8961-40dd92b0baa9"},"vehicle_type_id":"4","last_reported":1687813613,"current_range_meters":30800,"station_id":"ce4bh4p2rcd13ifvqe0g","pricing_plan_id":"free"},{"bike_id":"a7860304-51f5-479c-83f2-0fa70e3db3e9","system_id":"levelo_inurba_marseille","lat":43.290345,"lon":5.38646,"is_reserved":false,"is_disabled":false,"rental_uris":{"android":"levelo://app?vid=a7860304-51f5-479c-83f2-0fa70e3db3e9","ios":"levelo://app?vid=a7860304-51f5-479c-83f2-0fa70e3db3e9"},"vehicle_type_id":"4","last_reported":1687813613,"current_range_meters":21200,"station_id":"ce4bh4p2rcd13ifvqe0g","pricing_plan_id":"free"},{"bike_id":"c5819a9b-f0dd-411b-9d48-25f19bdce9b9","system_id":"levelo_inurba_marseille","lat":43.290345,"lon":5.38646,"is_reserved":false,"is_disabled":false,"rental_uris":{"android":"levelo://app?vid=c5819a9b-f0dd-411b-9d48-25f19bdce9b9","ios":"levelo://app?vid=c5819a9b-f0dd-411b-9d48-25f19bdce9b9"},"vehicle_type_id":"4","last_reported":1687813613,"current_range_meters":11200,"station_id":"ce4bh4p2rcd13ifvqe0g","pricing_plan_id":"free"},{"bike_id":"8aed3aeb-b1bb-4ce6-a6b9-931d298badd2","system_id":"levelo_inurba_marseille","lat":43.290336,"lon":5.386425,"is_reserved":false,"is_disabled":false,"rental_uris":{"android":"levelo://app?vid=8aed3aeb-b1bb-4ce6-a6b9-931d298badd2","ios":"levelo://app?vid=8aed3aeb-b1bb-4ce6-a6b9-931d298badd2"},"vehicle_type_id":"4","last_reported":1687813613,"current_range_meters":30000,"station_id":"ce4bh4p2rcd13ifvqe0g","pricing_plan_id":"free"},{"bike_id":"5f453ee4-51aa-4e28-8872-4a4cdcba240c","system_id":"levelo_inurba_marseille","lat":43.290336,"lon":5.386425,"is_reserved":false,"is_disabled":false,"rental_uris":{"android":"levelo://app?vid=5f453ee4-51aa-4e28-8872-4a4cdcba240c","ios":"levelo://app?vid=5f453ee4-51aa-4e28-8872-4a4cdcba240c"},"vehicle_type_id":"4","last_reported":1687813613,"current_range_meters":29600,"station_id":"ce4bh4p2rcd13ifvqe0g","pricing_plan_id":"free"},{"bike_id":"0708d849-b1c1-42d0-9777-7dae28084c9b","system_id":"levelo_inurba_marseille","lat":43.290345,"lon":5.38646,"is_reserved":false,"is_disabled":false,"rental_uris":{"android":"levelo://app?vid=0708d849-b1c1-42d0-9777-7dae28084c9b","ios":"levelo://app?vid=0708d849-b1c1-42d0-9777-7dae28084c9b"},"vehicle_type_id":"4","last_reported":1687813613,"current_range_meters":9600,"station_id":"ce4bh4p2rcd13ifvqe0g","pricing_plan_id":"free"},{"bike_id":"79206510-b6fd-42e5-938c-582f8c292fb3","system_id":"levelo_inurba_marseille","lat":43.290336,"lon":5.386425,"is_reserved":false,"is_disabled":false,"rental_uris":{"android":"levelo://app?vid=79206510-b6fd-42e5-938c-582f8c292fb3","ios":"levelo://app?vid=79206510-b6fd-42e5-938c-582f8c292fb3"},"vehicle_type_id":"4","last_reported":1687813613,"current_range_meters":5600,"station_id":"ce4bh4p2rcd13ifvqe0g","pricing_plan_id":"free"},{"bike_id":"a64c8601-6b68-40ad-bbfa-f7e0eb0d2722","system_id":"levelo_inurba_marseille","lat":43.290336,"lon":5.386425,"is_reserved":false,"is_disabled":false,"rental_uris":{"android":"levelo://app?vid=a64c8601-6b68-40ad-bbfa-f7e0eb0d2722","ios":"levelo://app?vid=a64c8601-6b68-40ad-bbfa-f7e0eb0d2722"},"vehicle_type_id":"4","last_reported":1687813613,"current_range_meters":14000,"station_id":"ce4bh4p2rcd13ifvqe0g","pricing_plan_id":"free"},{"bike_id":"7664401f-f963-44f3-85c1-48555fba7b5e","system_id":"levelo_inurba_marseille","lat":43.2861,"lon":5.37063,"is_reserved":false,"is_disabled":false,"rental_uris":{"android":"levelo://app?vid=7664401f-f963-44f3-85c1-48555fba7b5e","ios":"levelo://app?vid=7664401f-f963-44f3-85c1-48555fba7b5e"},"vehicle_type_id":"4","last_reported":1687813613,"current_range_meters":21600,"station_id":"ce4bht12rcd13ifvqi60","pricing_plan_id":"free"},{"bike_id":"58bf6b23-2505-4b35-bd86-8324a86a09fe","system_id":"levelo_inurba_marseille","lat":43.286039,"lon":5.370681,"is_reserved":false,"is_disabled":false,"rental_uris":{"android":"levelo://app?vid=58bf6b23-2505-4b35-bd86-8324a86a09fe","ios":"levelo://app?vid=58bf6b23-2505-4b35-bd86-8324a86a09fe"},"vehicle_type_id":"4","last_reported":1687813613,"current_range_meters":4000,"station_id":"ce4bht12rcd13ifvqi60","pricing_plan_id":"free"},{"bike_id":"9a61b4ad-b737-4318-89c6-633a180f9bec","system_id":"levelo_inurba_marseille","lat":43.28606,"lon":5.37059,"is_reserved":false,"is_disabled":false,"rental_uris":{"android":"levelo://app?vid=9a61b4ad-b737-4318-89c6-633a180f9bec","ios":"levelo://app?vid=9a61b4ad-b737-4318-89c6-633a180f9bec"},"vehicle_type_id":"4","last_reported":1687813613,"current_range_meters":31200,"station_id":"ce4bht12rcd13ifvqi60","pricing_plan_id":"free"},{"bike_id":"b22268f1-b7f7-4e02-810f-0a49d21bb595","system_id":"levelo_inurba_marseille","lat":43.287185,"lon":5.379373,"is_reserved":false,"is_disabled":false,"rental_uris":{"android":"levelo://app?vid=b22268f1-b7f7-4e02-810f-0a49d21bb595","ios":"levelo://app?vid=b22268f1-b7f7-4e02-810f-0a49d21bb595"},"vehicle_type_id":"4","last_reported":1687813613,"current_range_meters":5200,"station_id":"ce4bh9p2rcd13ifvqec0","pricing_plan_id":"free"},{"bike_id":"ef556ba6-f38c-45db-8923-8704a2d22fc9","system_id":"levelo_inurba_marseille","lat":43.287185,"lon":5.379373,"is_reserved":false,"is_disabled":false,"rental_uris":{"android":"levelo://app?vid=ef556ba6-f38c-45db-8923-8704a2d22fc9","ios":"levelo://app?vid=ef556ba6-f38c-45db-8923-8704a2d22fc9"},"vehicle_type_id":"4","last_reported":1687813613,"current_range_meters":16400,"station_id":"ce4bh9p2rcd13ifvqec0","pricing_plan_id":"free"},{"bike_id":"d69fed3a-efe9-46fb-b1dc-1240b8978d3e","system_id":"levelo_inurba_marseille","lat":43.316517,"lon":5.404375,"is_reserved":false,"is_disabled":false,"rental_uris":{"android":"levelo://app?vid=d69fed3a-efe9-46fb-b1dc-1240b8978d3e","ios":"levelo://app?vid=d69fed3a-efe9-46fb-b1dc-1240b8978d3e"},"vehicle_type_id":"4","last_reported":1687813613,"current_range_meters":8000,"station_id":"ce4bh012rcd13ifvqd00","pricing_plan_id":"free"},{"bike_id":"8db7b012-dab6-4b9c-9db5-e1acba2a88ee","system_id":"levelo_inurba_marseille","lat":43.291994,"lon":5.392907,"is_reserved":false,"is_disabled":false,"rental_uris":{"android":"levelo://app?vid=8db7b012-dab6-4b9c-9db5-e1acba2a88ee","ios":"levelo://app?vid=8db7b012-dab6-4b9c-9db5-e1acba2a88ee"},"vehicle_type_id":"4","last_reported":1687813613,"current_range_meters":28000,"station_id":"ce4bh192rcd13ifvqdd0","pricing_plan_id":"free"},{"bike_id":"fe456993-ff31-4fa0-af13-04e0b361f51c","system_id":"levelo_inurba_marseille","lat":43.291994,"lon":5.392907,"is_reserved":false,"is_disabled":false,"rental_uris":{"android":"levelo://app?vid=fe456993-ff31-4fa0-af13-04e0b361f51c","ios":"levelo://app?vid=fe456993-ff31-4fa0-af13-04e0b361f51c"},"vehicle_type_id":"4","last_reported":1687813613,"current_range_meters":0,"station_id":"ce4bh192rcd13ifvqdd0","pricing_plan_id":"free"},{"bike_id":"f0724b86-3082-4e09-b078-e9b42f9abe86","system_id":"levelo_inurba_marseille","lat":43.291994,"lon":5.392907,"is_reserved":false,"is_disabled":false,"rental_uris":{"android":"levelo://app?vid=f0724b86-3082-4e09-b078-e9b42f9abe86","ios":"levelo://app?vid=f0724b86-3082-4e09-b078-e9b42f9abe86"},"vehicle_type_id":"4","last_reported":1687813613,"current_range_meters":22000,"station_id":"ce4bh192rcd13ifvqdd0","pricing_plan_id":"free"},{"bike_id":"7cb0c174-3763-47e4-85d9-fe50407b9688","system_id":"levelo_inurba_marseille","lat":43.291994,"lon":5.392907,"is_reserved":false,"is_disabled":false,"rental_uris":{"android":"levelo://app?vid=7cb0c174-3763-47e4-85d9-fe50407b9688","ios":"levelo://app?vid=7cb0c174-3763-47e4-85d9-fe50407b9688"},"vehicle_type_id":"4","last_reported":1687813613,"current_range_meters":6400,"station_id":"ce4bh192rcd13ifvqdd0","pricing_plan_id":"free"},{"bike_id":"a71c95e2-67e9-48d6-8bf1-2d1f20f67366","system_id":"levelo_inurba_marseille","lat":43.291994,"lon":5.392907,"is_reserved":false,"is_disabled":false,"rental_uris":{"android":"levelo://app?vid=a71c95e2-67e9-48d6-8bf1-2d1f20f67366","ios":"levelo://app?vid=a71c95e2-67e9-48d6-8bf1-2d1f20f67366"},"vehicle_type_id":"4","last_reported":1687813613,"current_range_meters":22800,"station_id":"ce4bh192rcd13ifvqdd0","pricing_plan_id":"free"},{"bike_id":"a88f7241-e788-4eb8-914c-b687460599cc","system_id":"levelo_inurba_marseille","lat":43.291994,"lon":5.392907,"is_reserved":false,"is_disabled":false,"rental_uris":{"android":"levelo://app?vid=a88f7241-e788-4eb8-914c-b687460599cc","ios":"levelo://app?vid=a88f7241-e788-4eb8-914c-b687460599cc"},"vehicle_type_id":"4","last_reported":1687813613,"current_range_meters":7200,"station_id":"ce4bh192rcd13ifvqdd0","pricing_plan_id":"free"},{"bike_id":"e07f4b19-1a7d-4407-8592-ba2eb9ec7ab5","system_id":"levelo_inurba_marseille","lat":43.291994,"lon":5.392907,"is_reserved":false,"is_disabled":false,"rental_uris":{"android":"levelo://app?vid=e07f4b19-1a7d-4407-8592-ba2eb9ec7ab5","ios":"levelo://app?vid=e07f4b19-1a7d-4407-8592-ba2eb9ec7ab5"},"vehicle_type_id":"4","last_reported":1687813613,"current_range_meters":24800,"station_id":"ce4bh192rcd13ifvqdd0","pricing_plan_id":"free"},{"bike_id":"3e1654f3-3937-4b06-a05b-e786b192293a","system_id":"levelo_inurba_marseille","lat":43.291994,"lon":5.392907,"is_reserved":false,"is_disabled":false,"rental_uris":{"android":"levelo://app?vid=3e1654f3-3937-4b06-a05b-e786b192293a","ios":"levelo://app?vid=3e1654f3-3937-4b06-a05b-e786b192293a"},"vehicle_type_id":"4","last_reported":1687813613,"current_range_meters":2800,"station_id":"ce4bh192rcd13ifvqdd0","pricing_plan_id":"free"},{"bike_id":"031e545f-4329-436c-84f2-e1f2820f0f5e","system_id":"levelo_inurba_marseille","lat":43.284534,"lon":5.358662,"is_reserved":false,"is_disabled":false,"rental_uris":{"android":"levelo://app?vid=031e545f-4329-436c-84f2-e1f2820f0f5e","ios":"levelo://app?vid=031e545f-4329-436c-84f2-e1f2820f0f5e"},"vehicle_type_id":"4","last_reported":1687813613,"current_range_meters":16400,"station_id":"ce4bhah2rcd13ifvqei0","pricing_plan_id":"free"},{"bike_id":"3df985b3-04e1-4cf3-b0fa-79159585013d","system_id":"levelo_inurba_marseille","lat":43.28464,"lon":5.35886,"is_reserved":false,"is_disabled":false,"rental_uris":{"android":"levelo://app?vid=3df985b3-04e1-4cf3-b0fa-79159585013d","ios":"levelo://app?vid=3df985b3-04e1-4cf3-b0fa-79159585013d"},"vehicle_type_id":"4","last_reported":1687813613,"current_range_meters":12800,"station_id":"ce4bhah2rcd13ifvqei0","pricing_plan_id":"free"},{"bike_id":"30479b60-904b-4ab9-a981-d948308cf520","system_id":"levelo_inurba_marseille","lat":43.28462,"lon":5.35893,"is_reserved":false,"is_disabled":false,"rental_uris":{"android":"levelo://app?vid=30479b60-904b-4ab9-a981-d948308cf520","ios":"levelo://app?vid=30479b60-904b-4ab9-a981-d948308cf520"},"vehicle_type_id":"4","last_reported":1687813613,"current_range_meters":23200,"station_id":"ce4bhah2rcd13ifvqei0","pricing_plan_id":"free"},{"bike_id":"980511b9-38c4-4dae-9ddf-25fe90c7b9de","system_id":"levelo_inurba_marseille","lat":43.28458,"lon":5.35892,"is_reserved":false,"is_disabled":false,"rental_uris":{"android":"levelo://app?vid=980511b9-38c4-4dae-9ddf-25fe90c7b9de","ios":"levelo://app?vid=980511b9-38c4-4dae-9ddf-25fe90c7b9de"},"vehicle_type_id":"4","last_reported":1687813613,"current_range_meters":31200,"station_id":"ce4bhah2rcd13ifvqei0","pricing_plan_id":"free"},{"bike_id":"a2708ae7-124e-446d-8d8b-b6b272081942","system_id":"levelo_inurba_marseille","lat":43.284534,"lon":5.358662,"is_reserved":false,"is_disabled":false,"rental_uris":{"android":"levelo://app?vid=a2708ae7-124e-446d-8d8b-b6b272081942","ios":"levelo://app?vid=a2708ae7-124e-446d-8d8b-b6b272081942"},"vehicle_type_id":"4","last_reported":1687813613,"current_range_meters":14800,"station_id":"ce4bhah2rcd13ifvqei0","pricing_plan_id":"free"},{"bike_id":"1c6c39c3-7998-492c-8b9f-b1e9b043d065","system_id":"levelo_inurba_marseille","lat":43.28456,"lon":5.35895,"is_reserved":false,"is_disabled":false,"rental_uris":{"android":"levelo://app?vid=1c6c39c3-7998-492c-8b9f-b1e9b043d065","ios":"levelo://app?vid=1c6c39c3-7998-492c-8b9f-b1e9b043d065"},"vehicle_type_id":"4","last_reported":1687813613,"current_range_meters":31200,"station_id":"ce4bhah2rcd13ifvqei0","pricing_plan_id":"free"},{"bike_id":"06d5e4d9-bfef-447a-a0df-169dba12f9a2","system_id":"levelo_inurba_marseille","lat":43.28457,"lon":5.35887,"is_reserved":false,"is_disabled":false,"rental_uris":{"android":"levelo://app?vid=06d5e4d9-bfef-447a-a0df-169dba12f9a2","ios":"levelo://app?vid=06d5e4d9-bfef-447a-a0df-169dba12f9a2"},"vehicle_type_id":"4","last_reported":1687813613,"current_range_meters":26400,"station_id":"ce4bhah2rcd13ifvqei0","pricing_plan_id":"free"},{"bike_id":"d4ba645f-5c71-4224-84a9-76e56e5b6b23","system_id":"levelo_inurba_marseille","lat":43.283998,"lon":5.375062,"is_reserved":false,"is_disabled":false,"rental_uris":{"android":"levelo://app?vid=d4ba645f-5c71-4224-84a9-76e56e5b6b23","ios":"levelo://app?vid=d4ba645f-5c71-4224-84a9-76e56e5b6b23"},"vehicle_type_id":"4","last_reported":1687813613,"current_range_meters":28400,"station_id":"ce4bh412rcd13ifvqds0","pricing_plan_id":"free"},{"bike_id":"b8c71f80-7dd8-4903-b291-274ca15fb4f8","system_id":"levelo_inurba_marseille","lat":43.283998,"lon":5.375062,"is_reserved":false,"is_disabled":false,"rental_uris":{"android":"levelo://app?vid=b8c71f80-7dd8-4903-b291-274ca15fb4f8","ios":"levelo://app?vid=b8c71f80-7dd8-4903-b291-274ca15fb4f8"},"vehicle_type_id":"4","last_reported":1687813613,"current_range_meters":11200,"station_id":"ce4bh412rcd13ifvqds0","pricing_plan_id":"free"},{"bike_id":"a24db388-e43f-4fe4-966d-fe9598dab9f2","system_id":"levelo_inurba_marseille","lat":43.28414,"lon":5.37518,"is_reserved":false,"is_disabled":false,"rental_uris":{"android":"levelo://app?vid=a24db388-e43f-4fe4-966d-fe9598dab9f2","ios":"levelo://app?vid=a24db388-e43f-4fe4-966d-fe9598dab9f2"},"vehicle_type_id":"4","last_reported":1687813613,"current_range_meters":0,"station_id":"ce4bh412rcd13ifvqds0","pricing_plan_id":"free"},{"bike_id":"dcef8bf1-136a-4ff1-aef5-cd02a1aca86f","system_id":"levelo_inurba_marseille","lat":43.283998,"lon":5.375062,"is_reserved":false,"is_disabled":false,"rental_uris":{"android":"levelo://app?vid=dcef8bf1-136a-4ff1-aef5-cd02a1aca86f","ios":"levelo://app?vid=dcef8bf1-136a-4ff1-aef5-cd02a1aca86f"},"vehicle_type_id":"4","last_reported":1687813613,"current_range_meters":10800,"station_id":"ce4bh412rcd13ifvqds0","pricing_plan_id":"free"},{"bike_id":"146a8712-bb7e-48f8-a3ef-fd0be7d25c05","system_id":"levelo_inurba_marseille","lat":43.29588,"lon":5.39977,"is_reserved":false,"is_disabled":false,"rental_uris":{"android":"levelo://app?vid=146a8712-bb7e-48f8-a3ef-fd0be7d25c05","ios":"levelo://app?vid=146a8712-bb7e-48f8-a3ef-fd0be7d25c05"},"vehicle_type_id":"4","last_reported":1687813613,"current_range_meters":31600,"station_id":"ce4bh312rcd13ifvqdj0","pricing_plan_id":"free"},{"bike_id":"b591bbdf-2cd8-4238-871b-f0e93c9ae347","system_id":"levelo_inurba_marseille","lat":43.286595,"lon":5.386795,"is_reserved":false,"is_disabled":false,"rental_uris":{"android":"levelo://app?vid=b591bbdf-2cd8-4238-871b-f0e93c9ae347","ios":"levelo://app?vid=b591bbdf-2cd8-4238-871b-f0e93c9ae347"},"vehicle_type_id":"4","last_reported":1687813613,"current_range_meters":6000,"station_id":"ce4bh492rcd13ifvqdug","pricing_plan_id":"free"},{"bike_id":"858aebac-2f30-4580-9621-142462d174c8","system_id":"levelo_inurba_marseille","lat":43.286595,"lon":5.386795,"is_reserved":false,"is_disabled":false,"rental_uris":{"android":"levelo://app?vid=858aebac-2f30-4580-9621-142462d174c8","ios":"levelo://app?vid=858aebac-2f30-4580-9621-142462d174c8"},"vehicle_type_id":"4","last_reported":1687813613,"current_range_meters":25200,"station_id":"ce4bh492rcd13ifvqdug","pricing_plan_id":"free"},{"bike_id":"aceb6360-4929-45f9-8e18-aa4de4b9c037","system_id":"levelo_inurba_marseille","lat":43.286595,"lon":5.386795,"is_reserved":false,"is_disabled":false,"rental_uris":{"android":"levelo://app?vid=aceb6360-4929-45f9-8e18-aa4de4b9c037","ios":"levelo://app?vid=aceb6360-4929-45f9-8e18-aa4de4b9c037"},"vehicle_type_id":"4","last_reported":1687813613,"current_range_meters":0,"station_id":"ce4bh492rcd13ifvqdug","pricing_plan_id":"free"},{"bike_id":"47cf2591-be30-4574-b81b-5471f953e13f","system_id":"levelo_inurba_marseille","lat":43.323464,"lon":5.406297,"is_reserved":false,"is_disabled":false,"rental_uris":{"android":"levelo://app?vid=47cf2591-be30-4574-b81b-5471f953e13f","ios":"levelo://app?vid=47cf2591-be30-4574-b81b-5471f953e13f"},"vehicle_type_id":"4","last_reported":1687813613,"current_range_meters":24800,"station_id":"ce4bhq92rcd13ifvqhjg","pricing_plan_id":"free"},{"bike_id":"e1b94e9e-a342-4bb1-af7f-0ee049755fe7","system_id":"levelo_inurba_marseille","lat":43.284787,"lon":5.384116,"is_reserved":false,"is_disabled":false,"rental_uris":{"android":"levelo://app?vid=e1b94e9e-a342-4bb1-af7f-0ee049755fe7","ios":"levelo://app?vid=e1b94e9e-a342-4bb1-af7f-0ee049755fe7"},"vehicle_type_id":"4","last_reported":1687813613,"current_range_meters":8800,"station_id":"ce4bh512rcd13ifvqe3g","pricing_plan_id":"free"},{"bike_id":"49958f39-54d1-4ec2-8a95-40adb27ac1d9","system_id":"levelo_inurba_marseille","lat":43.284787,"lon":5.384116,"is_reserved":false,"is_disabled":false,"rental_uris":{"android":"levelo://app?vid=49958f39-54d1-4ec2-8a95-40adb27ac1d9","ios":"levelo://app?vid=49958f39-54d1-4ec2-8a95-40adb27ac1d9"},"vehicle_type_id":"4","last_reported":1687813613,"current_range_meters":1600,"station_id":"ce4bh512rcd13ifvqe3g","pricing_plan_id":"free"},{"bike_id":"b033d222-c59d-4eb8-91e8-d8d76325884c","system_id":"levelo_inurba_marseille","lat":43.284787,"lon":5.384116,"is_reserved":false,"is_disabled":false,"rental_uris":{"android":"levelo://app?vid=b033d222-c59d-4eb8-91e8-d8d76325884c","ios":"levelo://app?vid=b033d222-c59d-4eb8-91e8-d8d76325884c"},"vehicle_type_id":"4","last_reported":1687813613,"current_range_meters":6800,"station_id":"ce4bh512rcd13ifvqe3g","pricing_plan_id":"free"},{"bike_id":"f3b13ab0-4eb2-4010-8430-55f01d843329","system_id":"levelo_inurba_marseille","lat":43.284787,"lon":5.384116,"is_reserved":false,"is_disabled":false,"rental_uris":{"android":"levelo://app?vid=f3b13ab0-4eb2-4010-8430-55f01d843329","ios":"levelo://app?vid=f3b13ab0-4eb2-4010-8430-55f01d843329"},"vehicle_type_id":"4","last_reported":1687813613,"current_range_meters":18800,"station_id":"ce4bh512rcd13ifvqe3g","pricing_plan_id":"free"},{"bike_id":"c9584efe-8ee7-4ff6-95fe-7c4ec0b2c9cd","system_id":"levelo_inurba_marseille","lat":43.2847,"lon":5.38409,"is_reserved":false,"is_disabled":false,"rental_uris":{"android":"levelo://app?vid=c9584efe-8ee7-4ff6-95fe-7c4ec0b2c9cd","ios":"levelo://app?vid=c9584efe-8ee7-4ff6-95fe-7c4ec0b2c9cd"},"vehicle_type_id":"4","last_reported":1687813613,"current_range_meters":29200,"station_id":"ce4bh512rcd13ifvqe3g","pricing_plan_id":"free"},{"bike_id":"b4c950db-352f-4a1a-8e3c-c05101a6dad0","system_id":"levelo_inurba_marseille","lat":43.288501,"lon":5.393087,"is_reserved":false,"is_disabled":false,"rental_uris":{"android":"levelo://app?vid=b4c950db-352f-4a1a-8e3c-c05101a6dad0","ios":"levelo://app?vid=b4c950db-352f-4a1a-8e3c-c05101a6dad0"},"vehicle_type_id":"4","last_reported":1687813613,"current_range_meters":31200,"station_id":"ce4bh2p2rcd13ifvqdi0","pricing_plan_id":"free"},{"bike_id":"88a42ca0-2362-4119-a9a8-b49d6d7da604","system_id":"levelo_inurba_marseille","lat":43.288497,"lon":5.393089,"is_reserved":false,"is_disabled":false,"rental_uris":{"android":"levelo://app?vid=88a42ca0-2362-4119-a9a8-b49d6d7da604","ios":"levelo://app?vid=88a42ca0-2362-4119-a9a8-b49d6d7da604"},"vehicle_type_id":"4","last_reported":1687813613,"current_range_meters":23200,"station_id":"ce4bh2p2rcd13ifvqdi0","pricing_plan_id":"free"},{"bike_id":"521f567a-7c3f-4aff-88e9-d725f809a510","system_id":"levelo_inurba_marseille","lat":43.288497,"lon":5.393089,"is_reserved":false,"is_disabled":false,"rental_uris":{"android":"levelo://app?vid=521f567a-7c3f-4aff-88e9-d725f809a510","ios":"levelo://app?vid=521f567a-7c3f-4aff-88e9-d725f809a510"},"vehicle_type_id":"4","last_reported":1687813613,"current_range_meters":19200,"station_id":"ce4bh2p2rcd13ifvqdi0","pricing_plan_id":"free"},{"bike_id":"f5a8163e-2d1d-4f68-9e79-69abc93f654f","system_id":"levelo_inurba_marseille","lat":43.288501,"lon":5.393087,"is_reserved":false,"is_disabled":false,"rental_uris":{"android":"levelo://app?vid=f5a8163e-2d1d-4f68-9e79-69abc93f654f","ios":"levelo://app?vid=f5a8163e-2d1d-4f68-9e79-69abc93f654f"},"vehicle_type_id":"4","last_reported":1687813613,"current_range_meters":20800,"station_id":"ce4bh2p2rcd13ifvqdi0","pricing_plan_id":"free"},{"bike_id":"62dd546d-328b-4b82-9828-a0de5b52a3b7","system_id":"levelo_inurba_marseille","lat":43.288497,"lon":5.393089,"is_reserved":false,"is_disabled":false,"rental_uris":{"android":"levelo://app?vid=62dd546d-328b-4b82-9828-a0de5b52a3b7","ios":"levelo://app?vid=62dd546d-328b-4b82-9828-a0de5b52a3b7"},"vehicle_type_id":"4","last_reported":1687813613,"current_range_meters":0,"station_id":"ce4bh2p2rcd13ifvqdi0","pricing_plan_id":"free"},{"bike_id":"980798e4-20f9-4ea1-8478-8b443c7eb8df","system_id":"levelo_inurba_marseille","lat":43.288497,"lon":5.393089,"is_reserved":false,"is_disabled":false,"rental_uris":{"android":"levelo://app?vid=980798e4-20f9-4ea1-8478-8b443c7eb8df","ios":"levelo://app?vid=980798e4-20f9-4ea1-8478-8b443c7eb8df"},"vehicle_type_id":"4","last_reported":1687813613,"current_range_meters":8400,"station_id":"ce4bh2p2rcd13ifvqdi0","pricing_plan_id":"free"},{"bike_id":"9967274d-f524-41b0-9273-36b387cd1609","system_id":"levelo_inurba_marseille","lat":43.288501,"lon":5.393087,"is_reserved":false,"is_disabled":false,"rental_uris":{"android":"levelo://app?vid=9967274d-f524-41b0-9273-36b387cd1609","ios":"levelo://app?vid=9967274d-f524-41b0-9273-36b387cd1609"},"vehicle_type_id":"4","last_reported":1687813613,"current_range_meters":7200,"station_id":"ce4bh2p2rcd13ifvqdi0","pricing_plan_id":"free"},{"bike_id":"3c2daa40-acf3-4694-b664-1c505b5fd28f","system_id":"levelo_inurba_marseille","lat":43.28347,"lon":5.38094,"is_reserved":false,"is_disabled":false,"rental_uris":{"android":"levelo://app?vid=3c2daa40-acf3-4694-b664-1c505b5fd28f","ios":"levelo://app?vid=3c2daa40-acf3-4694-b664-1c505b5fd28f"},"vehicle_type_id":"4","last_reported":1687813613,"current_range_meters":28000,"station_id":"ce4bh412rcd13ifvqdr0","pricing_plan_id":"free"},{"bike_id":"660c95ef-1e4c-413b-93dd-33899694ee73","system_id":"levelo_inurba_marseille","lat":43.283498,"lon":5.380948,"is_reserved":false,"is_disabled":false,"rental_uris":{"android":"levelo://app?vid=660c95ef-1e4c-413b-93dd-33899694ee73","ios":"levelo://app?vid=660c95ef-1e4c-413b-93dd-33899694ee73"},"vehicle_type_id":"4","last_reported":1687813613,"current_range_meters":17600,"station_id":"ce4bh412rcd13ifvqdr0","pricing_plan_id":"free"},{"bike_id":"130443cd-4904-4730-bf43-24160fff3146","system_id":"levelo_inurba_marseille","lat":43.283498,"lon":5.380948,"is_reserved":false,"is_disabled":false,"rental_uris":{"android":"levelo://app?vid=130443cd-4904-4730-bf43-24160fff3146","ios":"levelo://app?vid=130443cd-4904-4730-bf43-24160fff3146"},"vehicle_type_id":"4","last_reported":1687813613,"current_range_meters":29600,"station_id":"ce4bh412rcd13ifvqdr0","pricing_plan_id":"free"},{"bike_id":"998beae3-16c3-4cfa-a936-1511c6f85ea8","system_id":"levelo_inurba_marseille","lat":43.283498,"lon":5.380948,"is_reserved":false,"is_disabled":false,"rental_uris":{"android":"levelo://app?vid=998beae3-16c3-4cfa-a936-1511c6f85ea8","ios":"levelo://app?vid=998beae3-16c3-4cfa-a936-1511c6f85ea8"},"vehicle_type_id":"4","last_reported":1687813613,"current_range_meters":3600,"station_id":"ce4bh412rcd13ifvqdr0","pricing_plan_id":"free"},{"bike_id":"20cf37dd-9246-449a-ae64-2f2fdda6b5ca","system_id":"levelo_inurba_marseille","lat":43.289363,"lon":5.396322,"is_reserved":false,"is_disabled":false,"rental_uris":{"android":"levelo://app?vid=20cf37dd-9246-449a-ae64-2f2fdda6b5ca","ios":"levelo://app?vid=20cf37dd-9246-449a-ae64-2f2fdda6b5ca"},"vehicle_type_id":"4","last_reported":1687813613,"current_range_meters":5600,"station_id":"ce4bh3h2rcd13ifvqdn0","pricing_plan_id":"free"},{"bike_id":"6938debc-9cbc-415c-8f18-4e3e43a9a089","system_id":"levelo_inurba_marseille","lat":43.292724,"lon":5.401131,"is_reserved":false,"is_disabled":false,"rental_uris":{"android":"levelo://app?vid=6938debc-9cbc-415c-8f18-4e3e43a9a089","ios":"levelo://app?vid=6938debc-9cbc-415c-8f18-4e3e43a9a089"},"vehicle_type_id":"4","last_reported":1687813613,"current_range_meters":18800,"station_id":"ce4bh312rcd13ifvqdk0","pricing_plan_id":"free"},{"bike_id":"f3c74f94-306e-4b25-9d05-420d1848c2ad","system_id":"levelo_inurba_marseille","lat":43.29277,"lon":5.40111,"is_reserved":false,"is_disabled":false,"rental_uris":{"android":"levelo://app?vid=f3c74f94-306e-4b25-9d05-420d1848c2ad","ios":"levelo://app?vid=f3c74f94-306e-4b25-9d05-420d1848c2ad"},"vehicle_type_id":"4","last_reported":1687813613,"current_range_meters":3200,"station_id":"ce4bh312rcd13ifvqdk0","pricing_plan_id":"free"},{"bike_id":"c9a7d653-3ea8-4800-a513-1ba22be224c1","system_id":"levelo_inurba_marseille","lat":43.29273,"lon":5.40108,"is_reserved":false,"is_disabled":false,"rental_uris":{"android":"levelo://app?vid=c9a7d653-3ea8-4800-a513-1ba22be224c1","ios":"levelo://app?vid=c9a7d653-3ea8-4800-a513-1ba22be224c1"},"vehicle_type_id":"4","last_reported":1687813613,"current_range_meters":6800,"station_id":"ce4bh312rcd13ifvqdk0","pricing_plan_id":"free"},{"bike_id":"d613de01-7957-4366-bc49-122838d0c8c7","system_id":"levelo_inurba_marseille","lat":43.292724,"lon":5.401131,"is_reserved":false,"is_disabled":false,"rental_uris":{"android":"levelo://app?vid=d613de01-7957-4366-bc49-122838d0c8c7","ios":"levelo://app?vid=d613de01-7957-4366-bc49-122838d0c8c7"},"vehicle_type_id":"4","last_reported":1687813613,"current_range_meters":23200,"station_id":"ce4bh312rcd13ifvqdk0","pricing_plan_id":"free"},{"bike_id":"8f3ec72b-5d23-435a-a9ca-4bfac156ff95","system_id":"levelo_inurba_marseille","lat":43.29276,"lon":5.40112,"is_reserved":false,"is_disabled":false,"rental_uris":{"android":"levelo://app?vid=8f3ec72b-5d23-435a-a9ca-4bfac156ff95","ios":"levelo://app?vid=8f3ec72b-5d23-435a-a9ca-4bfac156ff95"},"vehicle_type_id":"4","last_reported":1687813613,"current_range_meters":27200,"station_id":"ce4bh312rcd13ifvqdk0","pricing_plan_id":"free"},{"bike_id":"31d8f23c-30fd-4bd5-9e7a-a837f9d23cf3","system_id":"levelo_inurba_marseille","lat":43.32065,"lon":5.40942,"is_reserved":false,"is_disabled":false,"rental_uris":{"android":"levelo://app?vid=31d8f23c-30fd-4bd5-9e7a-a837f9d23cf3","ios":"levelo://app?vid=31d8f23c-30fd-4bd5-9e7a-a837f9d23cf3"},"vehicle_type_id":"4","last_reported":1687813613,"current_range_meters":1600,"station_id":"","pricing_plan_id":"free"},{"bike_id":"cafe7315-5323-49e8-a003-d5af89f6283e","system_id":"levelo_inurba_marseille","lat":43.3094,"lon":5.41071,"is_reserved":false,"is_disabled":false,"rental_uris":{"android":"levelo://app?vid=cafe7315-5323-49e8-a003-d5af89f6283e","ios":"levelo://app?vid=cafe7315-5323-49e8-a003-d5af89f6283e"},"vehicle_type_id":"4","last_reported":1687813613,"current_range_meters":7600,"station_id":"","pricing_plan_id":"free"},{"bike_id":"385d62d1-382c-40d9-8f65-cc4aed701016","system_id":"levelo_inurba_marseille","lat":43.283502,"lon":5.386471,"is_reserved":false,"is_disabled":false,"rental_uris":{"android":"levelo://app?vid=385d62d1-382c-40d9-8f65-cc4aed701016","ios":"levelo://app?vid=385d62d1-382c-40d9-8f65-cc4aed701016"},"vehicle_type_id":"4","last_reported":1687813613,"current_range_meters":30000,"station_id":"ce4bh492rcd13ifvqdvg","pricing_plan_id":"free"},