{"last_updated":1740665386,"ttl":60,"version":"2.2","data":{"bikes":[{"bike_id":"0119c7a1-8f00-422f-aef5-eb7b20630dec","system_id":"levelo_inurba_marseille","lat":43.27203,"lon":5.39194,"is_reserved":false,"is_disabled":false,"rental_uris":{"android":"levelo://app?vid=0119c7a1-8f00-422f-aef5-eb7b20630dec","ios":"levelo://app?vid=0119c7a1-8f00-422f-aef5-eb7b20630dec"},"vehicle_type_id":"4","last_reported":1740665386,"current_range_meters":2000,"station_id":"ce4bhhp2rcd13ifvqfm0","pricing_plan_id":"cebpf4jnsgd1na2vs0mg"},{"bike_id":"3dc490b0-5136-42bc-9c13-32d1c7739776","system_id":"levelo_inurba_marseille","lat":43.29523,"lon":5.37509,"is_reserved":false,"is_disabled":false,"rental_uris":{"android":"levelo://app?vid=3dc490b0-5136-42bc-9c13-32d1c7739776","ios":"levelo://app?vid=3dc490b0-5136-42bc-9c13-32d1c7739776"},"vehicle_type_id":"4","last_reported":1740665386,"current_range_meters":2800,"station_id":"ce4bgkp2rcd13ifvqbmg","pricing_plan_id":"cebpf4jnsgd1na2vs0mg"},{"bike_id":"e0a7ae07-631b-4765-9aa8-ed107823c78c","system_id":"levelo_inurba_marseille","lat":43.32542,"lon":5.41429,"is_reserved":false,"is_disabled":false,"rental_uris":{"android":"levelo://app?vid=e0a7ae07-631b-4765-9aa8-ed107823c78c","ios":"levelo://app?vid=e0a7ae07-631b-4765-9aa8-ed107823c78c"},"vehicle_type_id":"4","last_reported":1740665386,"current_range_meters":2800,"station_id":"ce4bhq12rcd13ifvqhhg","pricing_plan_id":"cebpf4jnsgd1na2vs0mg"},{"bike_id":"7c09a81f-2d72-49af-9c76-ba7cb79a76fc","system_id":"levelo_inurba_marseille","lat":43.3015,"lon":5.37424,"is_reserved":false,"is_disabled":false,"rental_uris":{"android":"levelo://app?vid=7c09a81f-2d72-49af-9c76-ba7cb79a76fc","ios":"levelo://app?vid=7c09a81f-2d72-49af-9c76-ba7cb79a76fc"},"vehicle_type_id":"4","last_reported":1740665386,"current_range_meters":0,"station_id":"ce4bgs92rcd13ifvqcc0","pricing_plan_id":"cebpf4jnsgd1na2vs0mg"},{"bike_id":"4a88e6fa-539a-498c-9e8e-2cea3750f4c7","system_id":"levelo_inurba_marseille","lat":43.246546,"lon":5.388917,"is_reserved":false,"is_disabled":false,"rental_uris":{"android":"levelo://app?vid=4a88e6fa-539a-498c-9e8e-2cea3750f4c7","ios":"levelo://app?vid=4a88e6fa-539a-498c-9e8e-2cea3750f4c7"},"vehicle_type_id":"4","last_reported":1740665386,"current_range_meters":3200,"station_id":"ce4bhg12rcd13ifvqf60","pricing_plan_id":"cebpf4jnsgd1na2vs0mg"},{"bike_id":"30d829b3-1400-4671-b55d-589703d8bebb","system_id":"levelo_inurba_marseille","lat":43.24806,"lon":5.37455,"is_reserved":false,"is_disabled":false,"rental_uris":{"android":"levelo://app?vid=30d829b3-1400-4671-b55d-589703d8bebb","ios":"levelo://app?vid=30d829b3-1400-4671-b55d-589703d8bebb"},"vehicle_type_id":"4","last_reported":1740665386,"current_range_meters":2800,"station_id":"ce4bhgh2rcd13ifvqfb0","pricing_plan_id":"cebpf4jnsgd1na2vs0mg"},{"bike_id":"8a61767a-59f4-4a2a-b0b6-b5cc0e6f6872","system_id":"levelo_inurba_marseille","lat":43.29574,"lon":5.37527,"is_reserved":false,"is_disabled":false,"rental_uris":{"android":"levelo://app?vid=8a61767a-59f4-4a2a-b0b6-b5cc0e6f6872","ios":"levelo://app?vid=8a61767a-59f4-4a2a-b0b6-b5cc0e6f6872"},"vehicle_type_id":"4","last_reported":1740665386,"current_range_meters":3600,"station_id":"ce4bgh92rcd13ifvqb50","pricing_plan_id":"cebpf4jnsgd1na2vs0mg"},{"bike_id":"ae9f7729-c24c-49a9-a871-fb6f6aa61a03","system_id":"levelo_inurba_marseille","lat":43.312733,"lon":5.401725,"is_reserved":false,"is_disabled":false,"rental_uris":{"android":"levelo://app?vid=ae9f7729-c24c-49a9-a871-fb6f6aa61a03","ios":"levelo://app?vid=ae9f7729-c24c-49a9-a871-fb6f6aa61a03"},"vehicle_type_id":"4","last_reported":1740665386,"current_range_meters":3600,"station_id":"ce4bh092rcd13ifvqd30","pricing_plan_id":"cebpf4jnsgd1na2vs0mg"},{"bike_id":"da1dcbed-e860-4b86-870e-9c639229edb8","system_id":"levelo_inurba_marseille","lat":43.27841,"lon":5.3921,"is_reserved":false,"is_disabled":false,"rental_uris":{"android":"levelo://app?vid=da1dcbed-e860-4b86-870e-9c639229edb8","ios":"levelo://app?vid=da1dcbed-e860-4b86-870e-9c639229edb8"},"vehicle_type_id":"4","last_reported":1740665386,"current_range_meters":3200,"station_id":"ce4bhjp2rcd13ifvqga0","pricing_plan_id":"cebpf4jnsgd1na2vs0mg"},{"bike_id":"b5368874-e19e-4e33-8e44-b3ac25e43af6","system_id":"levelo_inurba_marseille","lat":43.31314,"lon":5.37082,"is_reserved":false,"is_disabled":false,"rental_uris":{"android":"levelo://app?vid=b5368874-e19e-4e33-8e44-b3ac25e43af6","ios":"levelo://app?vid=b5368874-e19e-4e33-8e44-b3ac25e43af6"},"vehicle_type_id":"4","last_reported":1740665386,"current_range_meters":3600,"station_id":"","pricing_plan_id":"cebpf4jnsgd1na2vs0mg"},{"bike_id":"d53e2d88-1178-4b84-a74f-f2146b54f000","system_id":"levelo_inurba_marseille","lat":43.30953,"lon":5.39029,"is_reserved":false,"is_disabled":false,"rental_uris":{"android":"levelo://app?vid=d53e2d88-1178-4b84-a74f-f2146b54f000","ios":"levelo://app?vid=d53e2d88-1178-4b84-a74f-f2146b54f000"},"vehicle_type_id":"4","last_reported":1740665386,"current_range_meters":4400,"station_id":"ce4bgup2rcd13ifvqco0","pricing_plan_id":"cebpf4jnsgd1na2vs0mg"},{"bike_id":"90f228b5-35b0-4103-a06d-b5593d4a7c3c","system_id":"levelo_inurba_marseille","lat":43.29615,"lon":5.37723,"is_reserved":false,"is_disabled":false,"rental_uris":{"android":"levelo://app?vid=90f228b5-35b0-4103-a06d-b5593d4a7c3c","ios":"levelo://app?vid=90f228b5-35b0-4103-a06d-b5593d4a7c3c"},"vehicle_type_id":"4","last_reported":1740665386,"current_range_meters":2800,"station_id":"ce4bgi92rcd13ifvqb90","pricing_plan_id":"cebpf4jnsgd1na2vs0mg"},{"bike_id":"9c551860-8edd-442c-83bb-3ae954f80aaf","system_id":"levelo_inurba_marseille","lat":43.28424,"lon":5.34981,"is_reserved":false,"is_disabled":false,"rental_uris":{"android":"levelo://app?vid=9c551860-8edd-442c-83bb-3ae954f80aaf","ios":"levelo://app?vid=9c551860-8edd-442c-83bb-3ae954f80aaf"},"vehicle_type_id":"4","last_reported":1740665386,"current_range_meters":4400,"station_id":"ce4bhbh2rcd13ifvqepg","pricing_plan_id":"cebpf4jnsgd1na2vs0mg"},{"bike_id":"4ff69c00-9b2f-422f-8405-e25c4f464556","system_id":"levelo_inurba_marseille","lat":43.25718,"lon":5.41114,"is_reserved":false,"is_disabled":false,"rental_uris":{"android":"levelo://app?vid=4ff69c00-9b2f-422f-8405-e25c4f464556","ios":"levelo://app?vid=4ff69c00-9b2f-422f-8405-e25c4f464556"},"vehicle_type_id":"4","last_reported":1740665386,"current_range_meters":4800,"station_id":"ce4bhkp2rcd13ifvqgd0","pricing_plan_id":"cebpf4jnsgd1na2vs0mg"},{"bike_id":"2cb83a06-674b-4da8-91f3-5a024c3c9af9","system_id":"levelo_inurba_marseille","lat":43.2815,"lon":5.42624,"is_reserved":false,"is_disabled":false,"rental_uris":{"android":"levelo://app?vid=2cb83a06-674b-4da8-91f3-5a024c3c9af9","ios":"levelo://app?vid=2cb83a06-674b-4da8-91f3-5a024c3c9af9"},"vehicle_type_id":"4","last_reported":1740665386,"current_range_meters":4800,"station_id":"ce4bhnh2rcd13ifvqgug","pricing_plan_id":"cebpf4jnsgd1na2vs0mg"},{"bike_id":"e062645d-6eeb-4966-bdaf-170e87ba9429","system_id":"levelo_inurba_marseille","lat":43.27177,"lon":5.40998,"is_reserved":false,"is_disabled":false,"rental_uris":{"android":"levelo://app?vid=e062645d-6eeb-4966-bdaf-170e87ba9429","ios":"levelo://app?vid=e062645d-6eeb-4966-bdaf-170e87ba9429"},"vehicle_type_id":"4","last_reported":1740665386,"current_range_meters":3600,"station_id":"ce4bhl12rcd13ifvqgf0","pricing_plan_id":"cebpf4jnsgd1na2vs0mg"},{"bike_id":"d335bf23-f181-40fb-aa6b-8cb8b4805346","system_id":"levelo_inurba_marseille","lat":43.24389,"lon":5.37063,"is_reserved":false,"is_disabled":false,"rental_uris":{"android":"levelo://app?vid=d335bf23-f181-40fb-aa6b-8cb8b4805346","ios":"levelo://app?vid=d335bf23-f181-40fb-aa6b-8cb8b4805346"},"vehicle_type_id":"4","last_reported":1740665386,"current_range_meters":3200,"station_id":"ce4bhhh2rcd13ifvqfk0","pricing_plan_id":"cebpf4jnsgd1na2vs0mg"},{"bike_id":"5287aee1-e6e4-4832-bdec-ce3228230c00","system_id":"levelo_inurba_marseille","lat":43.28614,"lon":5.370663,"is_reserved":false,"is_disabled":false,"rental_uris":{"android":"levelo://app?vid=5287aee1-e6e4-4832-bdec-ce3228230c00","ios":"levelo://app?vid=5287aee1-e6e4-4832-bdec-ce3228230c00"},"vehicle_type_id":"4","last_reported":1740665386,"current_range_meters":5600,"station_id":"ce4bgph2rcd13ifvqc2g","pricing_plan_id":"cebpf4jnsgd1na2vs0mg"},{"bike_id":"6b89b4e8-a9b4-411d-bccc-83a0b5a58c35","system_id":"levelo_inurba_marseille","lat":43.29372,"lon":5.37865,"is_reserved":false,"is_disabled":false,"rental_uris":{"android":"levelo://app?vid=6b89b4e8-a9b4-411d-bccc-83a0b5a58c35","ios":"levelo://app?vid=6b89b4e8-a9b4-411d-bccc-83a0b5a58c35"},"vehicle_type_id":"4","last_reported":1740665386,"current_range_meters":6000,"station_id":"ce4bgjh2rcd13ifvqbf0","pricing_plan_id":"cebpf4jnsgd1na2vs0mg"},{"bike_id":"7789331f-5bd4-4b46-bef3-8e46b98fc32f","system_id":"levelo_inurba_marseille","lat":43.30463,"lon":5.3791,"is_reserved":false,"is_disabled":false,"rental_uris":{"android":"levelo://app?vid=7789331f-5bd4-4b46-bef3-8e46b98fc32f","ios":"levelo://app?vid=7789331f-5bd4-4b46-bef3-8e46b98fc32f"},"vehicle_type_id":"4","last_reported":1740665386,"current_range_meters":5600,"station_id":"ce4bgup2rcd13ifvqcn0","pricing_plan_id":"cebpf4jnsgd1na2vs0mg"},{"bike_id":"a2c85ab7-1e06-4246-89e2-5126635f3241","system_id":"levelo_inurba_marseille","lat":43.25578,"lon":5.382276,"is_reserved":false,"is_disabled":false,"rental_uris":{"android":"levelo://app?vid=a2c85ab7-1e06-4246-89e2-5126635f3241","ios":"levelo://app?vid=a2c85ab7-1e06-4246-89e2-5126635f3241"},"vehicle_type_id":"4","last_reported":1740665386,"current_range_meters":5600,"station_id":"ce4bhih2rcd13ifvqfs0","pricing_plan_id":"cebpf4jnsgd1na2vs0mg"},{"bike_id":"a78ad281-a64e-4b0b-8739-8ad9a6fce5d3","system_id":"levelo_inurba_marseille","lat":43.28367,"lon":5.38631,"is_reserved":false,"is_disabled":false,"rental_uris":{"android":"levelo://app?vid=a78ad281-a64e-4b0b-8739-8ad9a6fce5d3","ios":"levelo://app?vid=a78ad281-a64e-4b0b-8739-8ad9a6fce5d3"},"vehicle_type_id":"4","last_reported":1740665386,"current_range_meters":5600,"station_id":"ce4bh492rcd13ifvqdvg","pricing_plan_id":"cebpf4jnsgd1na2vs0mg"},{"bike_id":"e3c15cd4-9fdc-4708-b345-8bff02fd5763","system_id":"levelo_inurba_marseille","lat":43.28434,"lon":5.35003,"is_reserved":false,"is_disabled":false,"rental_uris":{"android":"levelo://app?vid=e3c15cd4-9fdc-4708-b345-8bff02fd5763","ios":"levelo://app?vid=e3c15cd4-9fdc-4708-b345-8bff02fd5763"},"vehicle_type_id":"4","last_reported":1740665386,"current_range_meters":16800,"station_id":"ce4bhbh2rcd13ifvqepg","pricing_plan_id":"cebpf4jnsgd1na2vs0mg"},{"bike_id":"bca35b80-6143-4443-8af9-3a7e639eb32c","system_id":"levelo_inurba_marseille","lat":43.295829,"lon":5.367431,"is_reserved":false,"is_disabled":false,"rental_uris":{"android":"levelo://app?vid=bca35b80-6143-4443-8af9-3a7e639eb32c","ios":"levelo://app?vid=bca35b80-6143-4443-8af9-3a7e639eb32c"},"vehicle_type_id":"4","last_reported":1740665386,"current_range_meters":6400,"station_id":"ce4bgph2rcd13ifvqc2g","pricing_plan_id":"cebpf4jnsgd1na2vs0mg"},{"bike_id":"5e9729c5-811c-48e9-8ddc-c687cdfdb92d","system_id":"levelo_inurba_marseille","lat":43.28268,"lon":5.35067,"is_reserved":false,"is_disabled":false,"rental_uris":{"android":"levelo://app?vid=5e9729c5-811c-48e9-8ddc-c687cdfdb92d","ios":"levelo://app?vid=5e9729c5-811c-48e9-8ddc-c687cdfdb92d"},"vehicle_type_id":"4","last_reported":1740665386,"current_range_meters":6800,"station_id":"ce4bhbp2rcd13ifvqerg","pricing_plan_id":"cebpf4jnsgd1na2vs0mg"},{"bike_id":"57209ef9-7af1-4e24-a8f7-e82b6d81ee5a","system_id":"levelo_inurba_marseille","lat":43.28461,"lon":5.35893,"is_reserved":false,"is_disabled":false,"rental_uris":{"android":"levelo://app?vid=57209ef9-7af1-4e24-a8f7-e82b6d81ee5a","ios":"levelo://app?vid=57209ef9-7af1-4e24-a8f7-e82b6d81ee5a"},"vehicle_type_id":"4","last_reported":1740665386,"current_range_meters":6400,"station_id":"ce4bhah2rcd13ifvqei0","pricing_plan_id":"cebpf4jnsgd1na2vs0mg"},{"bike_id":"9fa81dbc-ac93-435a-a8af-b57bf15f8b88","system_id":"levelo_inurba_marseille","lat":43.23196,"lon":5.35548,"is_reserved":false,"is_disabled":false,"rental_uris":{"android":"levelo://app?vid=9fa81dbc-ac93-435a-a8af-b57bf15f8b88","ios":"levelo://app?vid=9fa81dbc-ac93-435a-a8af-b57bf15f8b88"},"vehicle_type_id":"4","last_reported":1740665386,"current_range_meters":7200,"station_id":"ce4bhu92rcd13ifvqi70","pricing_plan_id":"cebpf4jnsgd1na2vs0mg"},{"bike_id":"da3c4fb5-c137-4b78-a6d7-9e67786b17b0","system_id":"levelo_inurba_marseille","lat":43.31349,"lon":5.36747,"is_reserved":false,"is_disabled":false,"rental_uris":{"android":"levelo://app?vid=da3c4fb5-c137-4b78-a6d7-9e67786b17b0","ios":"levelo://app?vid=da3c4fb5-c137-4b78-a6d7-9e67786b17b0"},"vehicle_type_id":"4","last_reported":1740665386,"current_range_meters":7200,"station_id":"ce4bgr92rcd13ifvqc6g","pricing_plan_id":"cebpf4jnsgd1na2vs0mg"},{"bike_id":"2daaa6ad-ce14-4f65-8a60-5e58d700922f","system_id":"levelo_inurba_marseille","lat":43.2719,"lon":5.40944,"is_reserved":false,"is_disabled":false,"rental_uris":{"android":"levelo://app?vid=2daaa6ad-ce14-4f65-8a60-5e58d700922f","ios":"levelo://app?vid=2daaa6ad-ce14-4f65-8a60-5e58d700922f"},"vehicle_type_id":"4","last_reported":1740665386,"current_range_meters":7200,"station_id":"ce4bhl12rcd13ifvqgf0","pricing_plan_id":"cebpf4jnsgd1na2vs0mg"},{"bike_id":"ad802583-4a4d-479d-bfe4-743f806ae64c","system_id":"levelo_inurba_marseille","lat":43.28619,"lon":5.35099,"is_reserved":false,"is_disabled":false,"rental_uris":{"android":"levelo://app?vid=ad802583-4a4d-479d-bfe4-743f806ae64c","ios":"levelo://app?vid=ad802583-4a4d-479d-bfe4-743f806ae64c"},"vehicle_type_id":"4","last_reported":1740665386,"current_range_meters":7200,"station_id":"ce4bhch2rcd13ifvqeug","pricing_plan_id":"cebpf4jnsgd1na2vs0mg"},{"bike_id":"3dbb687a-bad6-4e50-b7d6-93784f71df22","system_id":"levelo_inurba_marseille","lat":43.2594,"lon":5.40905,"is_reserved":false,"is_disabled":false,"rental_uris":{"android":"levelo://app?vid=3dbb687a-bad6-4e50-b7d6-93784f71df22","ios":"levelo://app?vid=3dbb687a-bad6-4e50-b7d6-93784f71df22"},"vehicle_type_id":"4","last_reported":1740665386,"current_range_meters":8000,"station_id":"ce4bhm92rcd13ifvqglg","pricing_plan_id":"cebpf4jnsgd1na2vs0mg"},{"bike_id":"3fb20c38-f1f8-4dcd-be96-74516d350de5","system_id":"levelo_inurba_marseille","lat":43.29021,"lon":5.35609,"is_reserved":false,"is_disabled":false,"rental_uris":{"android":"levelo://app?vid=3fb20c38-f1f8-4dcd-be96-74516d350de5","ios":"levelo://app?vid=3fb20c38-f1f8-4dcd-be96-74516d350de5"},"vehicle_type_id":"4","last_reported":1740665386,"current_range_meters":8000,"station_id":"ce4bhb92rcd13ifvqen0","pricing_plan_id":"cebpf4jnsgd1na2vs0mg"},{"bike_id":"ff34c52f-56f1-4588-9323-32f37bcf554e","system_id":"levelo_inurba_marseille","lat":43.32373,"lon":5.38877,"is_reserved":false,"is_disabled":false,"rental_uris":{"android":"levelo://app?vid=ff34c52f-56f1-4588-9323-32f37bcf554e","ios":"levelo://app?vid=ff34c52f-56f1-4588-9323-32f37bcf554e"},"vehicle_type_id":"4","last_reported":1740665386,"current_range_meters":8000,"station_id":"ce4bhqp2rcd13ifvqhog","pricing_plan_id":"cebpf4jnsgd1na2vs0mg"},{"bike_id":"f64b50fd-c0d3-4766-aa8c-920c7166ef73","system_id":"levelo_inurba_marseille","lat":43.31339,"lon":5.36736,"is_reserved":false,"is_disabled":false,"rental_uris":{"android":"levelo://app?vid=f64b50fd-c0d3-4766-aa8c-920c7166ef73","ios":"levelo://app?vid=f64b50fd-c0d3-4766-aa8c-920c7166ef73"},"vehicle_type_id":"4","last_reported":1740665386,"current_range_meters":8000,"station_id":"ce4bgr92rcd13ifvqc6g","pricing_plan_id":"cebpf4jnsgd1na2vs0mg"},{"bike_id":"43229c1e-4bf8-4302-8f63-ab7667c2ea5c","system_id":"levelo_inurba_marseille","lat":43.27951,"lon":5.39558,"is_reserved":false,"is_disabled":false,"rental_uris":{"android":"levelo://app?vid=43229c1e-4bf8-4302-8f63-ab7667c2ea5c","ios":"levelo://app?vid=43229c1e-4bf8-4302-8f63-ab7667c2ea5c"},"vehicle_type_id":"4","last_reported":1740665386,"current_range_meters":8400,"station_id":"ce4bhf92rcd13ifvqf40","pricing_plan_id":"cebpf4jnsgd1na2vs0mg"},{"bike_id":"fd5e256f-d77d-49f7-b14a-98c2f7ad0ce1","system_id":"levelo_inurba_marseille","lat":43.2892,"lon":5.384,"is_reserved":false,"is_disabled":false,"rental_uris":{"android":"levelo://app?vid=fd5e256f-d77d-49f7-b14a-98c2f7ad0ce1","ios":"levelo://app?vid=fd5e256f-d77d-49f7-b14a-98c2f7ad0ce1"},"vehicle_type_id":"4","last_reported":1740665386,"current_range_meters":7200,"station_id":"ce4bh612rcd13ifvqe6g","pricing_plan_id":"cebpf4jnsgd1na2vs0mg"},{"bike_id":"112c1a00-6aac-4e2f-86bc-844dc36c4f5c","system_id":"levelo_inurba_marseille","lat":43.31386,"lon":5.36745,"is_reserved":false,"is_disabled":false,"rental_uris":{"android":"levelo://app?vid=112c1a00-6aac-4e2f-86bc-844dc36c4f5c","ios":"levelo://app?vid=112c1a00-6aac-4e2f-86bc-844dc36c4f5c"},"vehicle_type_id":"4","last_reported":1740665386,"current_range_meters":8000,"station_id":"","pricing_plan_id":"cebpf4jnsgd1na2vs0mg"},{"bike_id":"2c9d147f-fa22-4072-ad4e-1ff9995276da","system_id":"levelo_inurba_marseille","lat":43.3266,"lon":5.40993,"is_reserved":false,"is_disabled":false,"rental_uris":{"android":"levelo://app?vid=2c9d147f-fa22-4072-ad4e-1ff9995276da","ios":"levelo://app?vid=2c9d147f-fa22-4072-ad4e-1ff9995276da"},"vehicle_type_id":"4","last_reported":1740665386,"current_range_meters":8000,"station_id":"ce4bhpp2rcd13ifvqhgg","pricing_plan_id":"cebpf4jnsgd1na2vs0mg"},{"bike_id":"154f4ed9-e9ac-4a11-adf3-511abdeffdda","system_id":"levelo_inurba_marseille","lat":43.30951,"lon":5.39034,"is_reserved":false,"is_disabled":false,"rental_uris":{"android":"levelo://app?vid=154f4ed9-e9ac-4a11-adf3-511abdeffdda","ios":"levelo://app?vid=154f4ed9-e9ac-4a11-adf3-511abdeffdda"},"vehicle_type_id":"4","last_reported":1740665386,"current_range_meters":8000,"station_id":"ce4bgup2rcd13ifvqco0","pricing_plan_id":"cebpf4jnsgd1na2vs0mg"},{"bike_id":"ec6520a3-e43d-4931-ad6b-261f5f4bd27b","system_id":"levelo_inurba_marseille","lat":43.287048,"lon":5.37383,"is_reserved":false,"is_disabled":false,"rental_uris":{"android":"levelo://app?vid=ec6520a3-e43d-4931-ad6b-261f5f4bd27b","ios":"levelo://app?vid=ec6520a3-e43d-4931-ad6b-261f5f4bd27b"},"vehicle_type_id":"4","last_reported":1740665386,"current_range_meters":8000,"station_id":"ce4bh3p2rcd13ifvqdq0","pricing_plan_id":"cebpf4jnsgd1na2vs0mg"},{"bike_id":"c8a689b8-65ff-49cf-92bf-fdd5667b19d3","system_id":"levelo_inurba_marseille","lat":43.23198,"lon":5.3556,"is_reserved":false,"is_disabled":false,"rental_uris":{"android":"levelo://app?vid=c8a689b8-65ff-49cf-92bf-fdd5667b19d3","ios":"levelo://app?vid=c8a689b8-65ff-49cf-92bf-fdd5667b19d3"},"vehicle_type_id":"4","last_reported":1740665386,"current_range_meters":22000,"station_id":"ce4bhu92rcd13ifvqi70","pricing_plan_id":"cebpf4jnsgd1na2vs0mg"},{"bike_id":"29bf2d61-d469-4e8d-a983-e2e77308cffe","system_id":"levelo_inurba_marseille","lat":43.29018,"lon":5.38133,"is_reserved":false,"is_disabled":false,"rental_uris":{"android":"levelo://app?vid=29bf2d61-d469-4e8d-a983-e2e77308cffe","ios":"levelo://app?vid=29bf2d61-d469-4e8d-a983-e2e77308cffe"},"vehicle_type_id":"4","last_reported":1740665386,"current_range_meters":3200,"station_id":"ce4bh4p2rcd13ifvqe1g","pricing_plan_id":"cebpf4jnsgd1na2vs0mg"},{"bike_id":"65c9cf35-c208-446c-9265-53c6ae112aa3","system_id":"levelo_inurba_marseille","lat":43.29414,"lon":5.38628,"is_reserved":false,"is_disabled":false,"rental_uris":{"android":"levelo://app?vid=65c9cf35-c208-446c-9265-53c6ae112aa3","ios":"levelo://app?vid=65c9cf35-c208-446c-9265-53c6ae112aa3"},"vehicle_type_id":"4","last_reported":1740665386,"current_range_meters":8000,"station_id":"ce4bh2h2rcd13ifvqdh0","pricing_plan_id":"cebpf4jnsgd1na2vs0mg"},{"bike_id":"4254bdbf-255e-4469-9303-9390a8bf7d03","system_id":"levelo_inurba_marseille","lat":43.31709,"lon":5.43706,"is_reserved":false,"is_disabled":false,"rental_uris":{"android":"levelo://app?vid=4254bdbf-255e-4469-9303-9390a8bf7d03","ios":"levelo://app?vid=4254bdbf-255e-4469-9303-9390a8bf7d03"},"vehicle_type_id":"4","last_reported":1740665386,"current_range_meters":8400,"station_id":"ce4bhp92rcd13ifvqhcg","pricing_plan_id":"cebpf4jnsgd1na2vs0mg"},{"bike_id":"e020edfe-e10f-4b23-ac65-c6c1302a3217","system_id":"levelo_inurba_marseille","lat":43.27491,"lon":5.42457,"is_reserved":false,"is_disabled":false,"rental_uris":{"android":"levelo://app?vid=e020edfe-e10f-4b23-ac65-c6c1302a3217","ios":"levelo://app?vid=e020edfe-e10f-4b23-ac65-c6c1302a3217"},"vehicle_type_id":"4","last_reported":1740665386,"current_range_meters":8000,"station_id":"ce4bhn92rcd13ifvqgrg","pricing_plan_id":"cebpf4jnsgd1na2vs0mg"},{"bike_id":"5740d0f0-e033-43c2-805a-09ab6675288f","system_id":"levelo_inurba_marseille","lat":43.31226,"lon":5.36842,"is_reserved":false,"is_disabled":false,"rental_uris":{"android":"levelo://app?vid=5740d0f0-e033-43c2-805a-09ab6675288f","ios":"levelo://app?vid=5740d0f0-e033-43c2-805a-09ab6675288f"},"vehicle_type_id":"4","last_reported":1740665386,"current_range_meters":8400,"station_id":"ce4bgl92rcd13ifvqbq0","pricing_plan_id":"cebpf4jnsgd1na2vs0mg"},{"bike_id":"9fc706c2-079e-41bb-846c-4846c643b247","system_id":"levelo_inurba_marseille","lat":43.24191,"lon":5.39723,"is_reserved":false,"is_disabled":false,"rental_uris":{"android":"levelo://app?vid=9fc706c2-079e-41bb-846c-4846c643b247","ios":"levelo://app?vid=9fc706c2-079e-41bb-846c-4846c643b247"},"vehicle_type_id":"4","last_reported":1740665386,"current_range_meters":8400,"station_id":"ce4bhn12rcd13ifvqgpg","pricing_plan_id":"cebpf4jnsgd1na2vs0mg"},{"bike_id":"850b8d5f-d5cc-4381-b0d6-3342cbf38286","system_id":"levelo_inurba_marseille","lat":43.29603,"lon":5.38069,"is_reserved":false,"is_disabled":false,"rental_uris":{"android":"levelo://app?vid=850b8d5f-d5cc-4381-b0d6-3342cbf38286","ios":"levelo://app?vid=850b8d5f-d5cc-4381-b0d6-3342cbf38286"},"vehicle_type_id":"4","last_reported":1740665386,"current_range_meters":8400,"station_id":"ce4bgl12rcd13ifvqbo0","pricing_plan_id":"cebpf4jnsgd1na2vs0mg"},{"bike_id":"ffb923a4-3388-4e1d-9e39-7e66ae3fdb92","system_id":"levelo_inurba_marseille","lat":43.29258,"lon":5.3687,"is_reserved":false,"is_disabled":false,"rental_uris":{"android":"levelo://app?vid=ffb923a4-3388-4e1d-9e39-7e66ae3fdb92","ios":"levelo://app?vid=ffb923a4-3388-4e1d-9e39-7e66ae3fdb92"},"vehicle_type_id":"4","last_reported":1740665386,"current_range_meters":8000,"station_id":"ce4bhbp2rcd13ifvqesg","pricing_plan_id":"cebpf4jnsgd1na2vs0mg"},{"bike_id":"832c7aa0-66bb-4e99-9f1f-f5f45bdd6361","system_id":"levelo_inurba_marseille","lat":43.32365,"lon":5.38889,"is_reserved":false,"is_disabled":false,"rental_uris":{"android":"levelo://app?vid=832c7aa0-66bb-4e99-9f1f-f5f45bdd6361","ios":"levelo://app?vid=832c7aa0-66bb-4e99-9f1f-f5f45bdd6361"},"vehicle_type_id":"4","last_reported":1740665386,"current_range_meters":8800,"station_id":"ce4bhqp2rcd13ifvqhog","pricing_plan_id":"cebpf4jnsgd1na2vs0mg"},{"bike_id":"6cd2cf02-8380-49e9-9b70-6b86136e67bf","system_id":"levelo_inurba_marseille","lat":43.22928,"lon":5.3536,"is_reserved":false,"is_disabled":false,"rental_uris":{"android":"levelo://app?vid=6cd2cf02-8380-49e9-9b70-6b86136e67bf","ios":"levelo://app?vid=6cd2cf02-8380-49e9-9b70-6b86136e67bf"},"vehicle_type_id":"4","last_reported":1740665386,"current_range_meters":8800,"station_id":"cpo3532slgdg3j2ikp40","pricing_plan_id":"cebpf4jnsgd1na2vs0mg"},{"bike_id":"dfc0caa1-6215-4787-99c9-04097bd6985f","system_id":"levelo_inurba_marseille","lat":43.29598,"lon":5.38097,"is_reserved":false,"is_disabled":false,"rental_uris":{"android":"levelo://app?vid=dfc0caa1-6215-4787-99c9-04097bd6985f","ios":"levelo://app?vid=dfc0caa1-6215-4787-99c9-04097bd6985f"},"vehicle_type_id":"4","last_reported":1740665386,"current_range_meters":8800,"station_id":"ce4bgl12rcd13ifvqbo0","pricing_plan_id":"cebpf4jnsgd1na2vs0mg"},{"bike_id":"e39d3a24-3853-4658-b7af-f36a74fb3d66","system_id":"levelo_inurba_marseille","lat":43.29043,"lon":5.37566,"is_reserved":false,"is_disabled":false,"rental_uris":{"android":"levelo://app?vid=e39d3a24-3853-4658-b7af-f36a74fb3d66","ios":"levelo://app?vid=e39d3a24-3853-4658-b7af-f36a74fb3d66"},"vehicle_type_id":"4","last_reported":1740665386,"current_range_meters":8000,"station_id":"ce4bh692rcd13ifvqe90","pricing_plan_id":"cebpf4jnsgd1na2vs0mg"},{"bike_id":"89d1523a-440e-43aa-aa7d-8756bdac2fc3","system_id":"levelo_inurba_marseille","lat":43.23148,"lon":5.4371,"is_reserved":false,"is_disabled":false,"rental_uris":{"android":"levelo://app?vid=89d1523a-440e-43aa-aa7d-8756bdac2fc3","ios":"levelo://app?vid=89d1523a-440e-43aa-aa7d-8756bdac2fc3"},"vehicle_type_id":"4","last_reported":1740665386,"current_range_meters":8800,"station_id":"ce4bhmp2rcd13ifvqgog","pricing_plan_id":"cebpf4jnsgd1na2vs0mg"},{"bike_id":"40f8cdc7-e99f-4bc0-b133-53c02dabc7a9","system_id":"levelo_inurba_marseille","lat":43.26557,"lon":5.39049,"is_reserved":false,"is_disabled":false,"rental_uris":{"android":"levelo://app?vid=40f8cdc7-e99f-4bc0-b133-53c02dabc7a9","ios":"levelo://app?vid=40f8cdc7-e99f-4bc0-b133-53c02dabc7a9"},"vehicle_type_id":"4","last_reported":1740665386,"current_range_meters":8800,"station_id":"ce4bhe12rcd13ifvqf30","pricing_plan_id":"cebpf4jnsgd1na2vs0mg"},{"bike_id":"489500a5-631e-4a11-af4b-4f5c2f232840","system_id":"levelo_inurba_marseille","lat":43.28273,"lon":5.35073,"is_reserved":false,"is_disabled":false,"rental_uris":{"android":"levelo://app?vid=489500a5-631e-4a11-af4b-4f5c2f232840","ios":"levelo://app?vid=489500a5-631e-4a11-af4b-4f5c2f232840"},"vehicle_type_id":"4","last_reported":1740665386,"current_range_meters":9200,"station_id":"ce4bhbp2rcd13ifvqerg","pricing_plan_id":"cebpf4jnsgd1na2vs0mg"},{"bike_id":"e29d62dd-5f0a-4cc3-beee-7a2efa18d6d8","system_id":"levelo_inurba_marseille","lat":43.23964,"lon":5.36634,"is_reserved":false,"is_disabled":false,"rental_uris":{"android":"levelo://app?vid=e29d62dd-5f0a-4cc3-beee-7a2efa18d6d8","ios":"levelo://app?vid=e29d62dd-5f0a-4cc3-beee-7a2efa18d6d8"},"vehicle_type_id":"4","last_reported":1740665386,"current_range_meters":8400,"station_id":"ce4bhi12rcd13ifvqfp0","pricing_plan_id":"cebpf4jnsgd1na2vs0mg"},{"bike_id":"757faff1-d83e-4871-b92d-2c5effb282b8","system_id":"levelo_inurba_marseille","lat":43.29713,"lon":5.37713,"is_reserved":false,"is_disabled":false,"rental_uris":{"android":"levelo://app?vid=757faff1-d83e-4871-b92d-2c5effb282b8","ios":"levelo://app?vid=757faff1-d83e-4871-b92d-2c5effb282b8"},"vehicle_type_id":"4","last_reported":1740665386,"current_range_meters":9200,"station_id":"ce4bgkh2rcd13ifvqbl0","pricing_plan_id":"cebpf4jnsgd1na2vs0mg"},{"bike_id":"3d7106d9-cda1-4ea9-80c8-04d6ce5f4b14","system_id":"levelo_inurba_marseille","lat":43.29417,"lon":5.38627,"is_reserved":false,"is_disabled":false,"rental_uris":{"android":"levelo://app?vid=3d7106d9-cda1-4ea9-80c8-04d6ce5f4b14","ios":"levelo://app?vid=3d7106d9-cda1-4ea9-80c8-04d6ce5f4b14"},"vehicle_type_id":"4","last_reported":1740665386,"current_range_meters":13600,"station_id":"ce4bh2h2rcd13ifvqdh0","pricing_plan_id":"cebpf4jnsgd1na2vs0mg"},{"bike_id":"afd98e29-9e65-49b1-96e9-da6c0e62de76","system_id":"levelo_inurba_marseille","lat":43.29259,"lon":5.38197,"is_reserved":false,"is_disabled":false,"rental_uris":{"android":"levelo://app?vid=afd98e29-9e65-49b1-96e9-da6c0e62de76","ios":"levelo://app?vid=afd98e29-9e65-49b1-96e9-da6c0e62de76"},"vehicle_type_id":"4","last_reported":1740665386,"current_range_meters":10000,"station_id":"","pricing_plan_id":"cebpf4jnsgd1na2vs0mg"},{"bike_id":"a8ccb9d1-8384-4a0e-b047-d7782d3c2597","system_id":"levelo_inurba_marseille","lat":43.23151,"lon":5.43718,"is_reserved":false,"is_disabled":false,"rental_uris":{"android":"levelo://app?vid=a8ccb9d1-8384-4a0e-b047-d7782d3c2597","ios":"levelo://app?vid=a8ccb9d1-8384-4a0e-b047-d7782d3c2597"},"vehicle_type_id":"4","last_reported":1740665386,"current_range_meters":9600,"station_id":"ce4bhmp2rcd13ifvqgog","pricing_plan_id":"cebpf4jnsgd1na2vs0mg"},{"bike_id":"03ecd382-3850-4874-86ef-0467a1a8c988","system_id":"levelo_inurba_marseille","lat":43.24166,"lon":5.3972,"is_reserved":false,"is_disabled":true,"rental_uris":{"android":"levelo://app?vid=03ecd382-3850-4874-86ef-0467a1a8c988","ios":"levelo://app?vid=03ecd382-3850-4874-86ef-0467a1a8c988"},"vehicle_type_id":"4","last_reported":1740665386,"current_range_meters":9200,"station_id":"ce4bhn12rcd13ifvqgpg","pricing_plan_id":"cebpf4jnsgd1na2vs0mg"},{"bike_id":"74230e66-14e1-49d6-a2c7-f3c2477a5b72","system_id":"levelo_inurba_marseille","lat":43.291718,"lon":5.383052,"is_reserved":false,"is_disabled":false,"rental_uris":{"android":"levelo://app?vid=74230e66-14e1-49d6-a2c7-f3c2477a5b72","ios":"levelo://app?vid=74230e66-14e1-49d6-a2c7-f3c2477a5b72"},"vehicle_type_id":"4","last_reported":1740665386,"current_range_meters":8800,"station_id":"ce4bhgp2rcd13ifvqfd0","pricing_plan_id":"cebpf4jnsgd1na2vs0mg"},{"bike_id":"ac46a519-e819-409c-a9a3-bac51afdb0eb","system_id":"levelo_inurba_marseille","lat":43.27568,"lon":5.38415,"is_reserved":false,"is_disabled":false,"rental_uris":{"android":"levelo://app?vid=ac46a519-e819-409c-a9a3-bac51afdb0eb","ios":"levelo://app?vid=ac46a519-e819-409c-a9a3-bac51afdb0eb"},"vehicle_type_id":"4","last_reported":1740665386,"current_range_meters":9600,"station_id":"ce4bhh92rcd13ifvqfi0","pricing_plan_id":"cebpf4jnsgd1na2vs0mg"},{"bike_id":"19e4983d-b74d-4524-9c14-80fb6905f947","system_id":"levelo_inurba_marseille","lat":43.32111,"lon":5.36765,"is_reserved":false,"is_disabled":false,"rental_uris":{"android":"levelo://app?vid=19e4983d-b74d-4524-9c14-80fb6905f947","ios":"levelo://app?vid=19e4983d-b74d-4524-9c14-80fb6905f947"},"vehicle_type_id":"4","last_reported":1740665386,"current_range_meters":9600,"station_id":"ce4bhrh2rcd13ifvqhug","pricing_plan_id":"cebpf4jnsgd1na2vs0mg"},{"bike_id":"7d1d7c0b-c13d-469e-9c85-a8277718ece4","system_id":"levelo_inurba_marseille","lat":43.30952,"lon":5.39027,"is_reserved":false,"is_disabled":false,"rental_uris":{"android":"levelo://app?vid=7d1d7c0b-c13d-469e-9c85-a8277718ece4","ios":"levelo://app?vid=7d1d7c0b-c13d-469e-9c85-a8277718ece4"},"vehicle_type_id":"4","last_reported":1740665386,"current_range_meters":10800,"station_id":"ce4bgup2rcd13ifvqco0","pricing_plan_id":"cebpf4jnsgd1na2vs0mg"},{"bike_id":"10c577bf-aad3-4d82-908c-06f52745f7ee","system_id":"levelo_inurba_marseille","lat":43.30545,"lon":5.38418,"is_reserved":false,"is_disabled":false,"rental_uris":{"android":"levelo://app?vid=10c577bf-aad3-4d82-908c-06f52745f7ee","ios":"levelo://app?vid=10c577bf-aad3-4d82-908c-06f52745f7ee"},"vehicle_type_id":"4","last_reported":1740665386,"current_range_meters":9600,"station_id":"ce4bgg92rcd13ifvqb30","pricing_plan_id":"cebpf4jnsgd1na2vs0mg"},{"bike_id":"b9ff1ef2-cb6c-4183-a656-9573e8e7d597","system_id":"levelo_inurba_marseille","lat":43.30272,"lon":5.37726,"is_reserved":false,"is_disabled":false,"rental_uris":{"android":"levelo://app?vid=b9ff1ef2-cb6c-4183-a656-9573e8e7d597","ios":"levelo://app?vid=b9ff1ef2-cb6c-4183-a656-9573e8e7d597"},"vehicle_type_id":"4","last_reported":1740665386,"current_range_meters":10000,"station_id":"ce4bguh2rcd13ifvqcj0","pricing_plan_id":"cebpf4jnsgd1na2vs0mg"},{"bike_id":"770ae70b-22c8-4878-9559-54f37da87f6d","system_id":"levelo_inurba_marseille","lat":43.23198,"lon":5.35548,"is_reserved":false,"is_disabled":false,"rental_uris":{"android":"levelo://app?vid=770ae70b-22c8-4878-9559-54f37da87f6d","ios":"levelo://app?vid=770ae70b-22c8-4878-9559-54f37da87f6d"},"vehicle_type_id":"4","last_reported":1740665386,"current_range_meters":10000,"station_id":"ce4bhu92rcd13ifvqi70","pricing_plan_id":"cebpf4jnsgd1na2vs0mg"},{"bike_id":"82d64e81-8d40-4c80-b5b5-a958f80dbced","system_id":"levelo_inurba_marseille","lat":43.28417,"lon":5.34991,"is_reserved":false,"is_disabled":false,"rental_uris":{"android":"levelo://app?vid=82d64e81-8d40-4c80-b5b5-a958f80dbced","ios":"levelo://app?vid=82d64e81-8d40-4c80-b5b5-a958f80dbced"},"vehicle_type_id":"4","last_reported":1740665386,"current_range_meters":10000,"station_id":"ce4bhbh2rcd13ifvqepg","pricing_plan_id":"cebpf4jnsgd1na2vs0mg"},{"bike_id":"522bf755-23ed-4894-8d44-591899ea74d7","system_id":"levelo_inurba_marseille","lat":43.25932,"lon":5.40898,"is_reserved":false,"is_disabled":false,"rental_uris":{"android":"levelo://app?vid=522bf755-23ed-4894-8d44-591899ea74d7","ios":"levelo://app?vid=522bf755-23ed-4894-8d44-591899ea74d7"},"vehicle_type_id":"4","last_reported":1740665386,"current_range_meters":10000,"station_id":"ce4bhm92rcd13ifvqglg","pricing_plan_id":"cebpf4jnsgd1na2vs0mg"},{"bike_id":"5249bc2c-af1a-4b55-92f5-5ca5eef8feb6","system_id":"levelo_inurba_marseille","lat":43.292691,"lon":5.376138,"is_reserved":false,"is_disabled":false,"rental_uris":{"android":"levelo://app?vid=5249bc2c-af1a-4b55-92f5-5ca5eef8feb6","ios":"levelo://app?vid=5249bc2c-af1a-4b55-92f5-5ca5eef8feb6"},"vehicle_type_id":"4","last_reported":1740665386,"current_range_meters":10000,"station_id":"ce4bgi12rcd13ifvqb80","pricing_plan_id":"cebpf4jnsgd1na2vs0mg"},{"bike_id":"a364160a-4c3d-422d-a1ae-fb03fe4f60b7","system_id":"levelo_inurba_marseille","lat":43.29783,"lon":5.37099,"is_reserved":false,"is_disabled":false,"rental_uris":{"android":"levelo://app?vid=a364160a-4c3d-422d-a1ae-fb03fe4f60b7","ios":"levelo://app?vid=a364160a-4c3d-422d-a1ae-fb03fe4f60b7"},"vehicle_type_id":"4","last_reported":1740665386,"current_range_meters":10000,"station_id":"ce4bgop2rcd13ifvqc1g","pricing_plan_id":"cebpf4jnsgd1na2vs0mg"},{"bike_id":"cca746aa-dc8e-4488-be2e-f08f5457a279","system_id":"levelo_inurba_marseille","lat":43.30537,"lon":5.36524,"is_reserved":false,"is_disabled":false,"rental_uris":{"android":"levelo://app?vid=cca746aa-dc8e-4488-be2e-f08f5457a279","ios":"levelo://app?vid=cca746aa-dc8e-4488-be2e-f08f5457a279"},"vehicle_type_id":"4","last_reported":1740665386,"current_range_meters":10000,"station_id":"ce4bgs12rcd13ifvqcag","pricing_plan_id":"cebpf4jnsgd1na2vs0mg"},{"bike_id":"450a2dac-2d5c-4ec0-b250-ac99775824e8","system_id":"levelo_inurba_marseille","lat":43.29627,"lon":5.40595,"is_reserved":false,"is_disabled":false,"rental_uris":{"android":"levelo://app?vid=450a2dac-2d5c-4ec0-b250-ac99775824e8","ios":"levelo://app?vid=450a2dac-2d5c-4ec0-b250-ac99775824e8"},"vehicle_type_id":"4","last_reported":1740665386,"current_range_meters":9600,"station_id":"ce4bh0h2rcd13ifvqd60","pricing_plan_id":"cebpf4jnsgd1na2vs0mg"},{"bike_id":"dd1ede33-1d44-48c2-829e-f33cd5029c22","system_id":"levelo_inurba_marseille","lat":43.24389,"lon":5.37059,"is_reserved":false,"is_disabled":false,"rental_uris":{"android":"levelo://app?vid=dd1ede33-1d44-48c2-829e-f33cd5029c22","ios":"levelo://app?vid=dd1ede33-1d44-48c2-829e-f33cd5029c22"},"vehicle_type_id":"4","last_reported":1740665386,"current_range_meters":8800,"station_id":"ce4bhhh2rcd13ifvqfk0","pricing_plan_id":"cebpf4jnsgd1na2vs0mg"},{"bike_id":"c0d0e1d4-db4c-45b1-a63a-f00660c82781","system_id":"levelo_inurba_marseille","lat":43.27618,"lon":5.36102,"is_reserved":false,"is_disabled":false,"rental_uris":{"android":"levelo://app?vid=c0d0e1d4-db4c-45b1-a63a-f00660c82781","ios":"levelo://app?vid=c0d0e1d4-db4c-45b1-a63a-f00660c82781"},"vehicle_type_id":"4","last_reported":1740665386,"current_range_meters":10000,"station_id":"ce4bgj92rcd13ifvqbe0","pricing_plan_id":"cebpf4jnsgd1na2vs0mg"},{"bike_id":"02cc2372-404c-4579-ad86-798421fb7c0d","system_id":"levelo_inurba_marseille","lat":43.24089,"lon":5.37736,"is_reserved":false,"is_disabled":false,"rental_uris":{"android":"levelo://app?vid=02cc2372-404c-4579-ad86-798421fb7c0d","ios":"levelo://app?vid=02cc2372-404c-4579-ad86-798421fb7c0d"},"vehicle_type_id":"4","last_reported":1740665386,"current_range_meters":10000,"station_id":"ce4bhnp2rcd13ifvqgvg","pricing_plan_id":"cebpf4jnsgd1na2vs0mg"},{"bike_id":"91f909e9-358e-43ed-a45f-822af931a978","system_id":"levelo_inurba_marseille","lat":43.23212,"lon":5.4037,"is_reserved":false,"is_disabled":false,"rental_uris":{"android":"levelo://app?vid=91f909e9-358e-43ed-a45f-822af931a978","ios":"levelo://app?vid=91f909e9-358e-43ed-a45f-822af931a978"},"vehicle_type_id":"4","last_reported":1740665386,"current_range_meters":10000,"station_id":"","pricing_plan_id":"cebpf4jnsgd1na2vs0mg"},{"bike_id":"023fa50d-c259-4e3a-b405-20aba854d22b","system_id":"levelo_inurba_marseille","lat":43.28853,"lon":5.35859,"is_reserved":false,"is_disabled":false,"rental_uris":{"android":"levelo://app?vid=023fa50d-c259-4e3a-b405-20aba854d22b","ios":"levelo://app?vid=023fa50d-c259-4e3a-b405-20aba854d22b"},"vehicle_type_id":"4","last_reported":1740665386,"current_range_meters":10800,"station_id":"ce4bhb12rcd13ifvqem0","pricing_plan_id":"cebpf4jnsgd1na2vs0mg"},{"bike_id":"920cd895-d6ab-4d06-9867-6fe2f30e6270","system_id":"levelo_inurba_marseille","lat":43.29273,"lon":5.36845,"is_reserved":false,"is_disabled":false,"rental_uris":{"android":"levelo://app?vid=920cd895-d6ab-4d06-9867-6fe2f30e6270","ios":"levelo://app?vid=920cd895-d6ab-4d06-9867-6fe2f30e6270"},"vehicle_type_id":"4","last_reported":1740665386,"current_range_meters":11200,"station_id":"ce4bhbp2rcd13ifvqesg","pricing_plan_id":"cebpf4jnsgd1na2vs0mg"},{"bike_id":"6e634aed-e3d9-41f6-a978-4163fb155370","system_id":"levelo_inurba_marseille","lat":43.31239,"lon":5.36887,"is_reserved":false,"is_disabled":false,"rental_uris":{"android":"levelo://app?vid=6e634aed-e3d9-41f6-a978-4163fb155370","ios":"levelo://app?vid=6e634aed-e3d9-41f6-a978-4163fb155370"},"vehicle_type_id":"4","last_reported":1740665386,"current_range_meters":10000,"station_id":"ce4bgl92rcd13ifvqbq0","pricing_plan_id":"cebpf4jnsgd1na2vs0mg"},{"bike_id":"ceada319-f43c-489f-8514-905ab74c8e1c","system_id":"levelo_inurba_marseille","lat":43.299236,"lon":5.374807,"is_reserved":false,"is_disabled":false,"rental_uris":{"android":"levelo://app?vid=ceada319-f43c-489f-8514-905ab74c8e1c","ios":"levelo://app?vid=ceada319-f43c-489f-8514-905ab74c8e1c"},"vehicle_type_id":"4","last_reported":1740665386,"current_range_meters":11600,"station_id":"ce4bgjh2rcd13ifvqbg0","pricing_plan_id":"cebpf4jnsgd1na2vs0mg"},{"bike_id":"527ef4b3-93d6-4f2e-9fc1-ef36990dcc9b","system_id":"levelo_inurba_marseille","lat":43.24072,"lon":5.37738,"is_reserved":false,"is_disabled":false,"rental_uris":{"android":"levelo://app?vid=527ef4b3-93d6-4f2e-9fc1-ef36990dcc9b","ios":"levelo://app?vid=527ef4b3-93d6-4f2e-9fc1-ef36990dcc9b"},"vehicle_type_id":"4","last_reported":1740665386,"current_range_meters":11200,"station_id":"ce4bhnp2rcd13ifvqgvg","pricing_plan_id":"cebpf4jnsgd1na2vs0mg"},{"bike_id":"6d1a9b26-cb87-430f-bca5-223eb5f30891","system_id":"levelo_inurba_marseille","lat":43.27967,"lon":5.38752,"is_reserved":false,"is_disabled":false,"rental_uris":{"android":"levelo://app?vid=6d1a9b26-cb87-430f-bca5-223eb5f30891","ios":"levelo://app?vid=6d1a9b26-cb87-430f-bca5-223eb5f30891"},"vehicle_type_id":"4","last_reported":1740665386,"current_range_meters":10800,"station_id":"ce4bhg12rcd13ifvqf80","pricing_plan_id":"cebpf4jnsgd1na2vs0mg"},{"bike_id":"7ba56adb-fef1-4fb4-94ed-3de8114f6441","system_id":"levelo_inurba_marseille","lat":43.31377,"lon":5.36715,"is_reserved":false,"is_disabled":false,"rental_uris":{"android":"levelo://app?vid=7ba56adb-fef1-4fb4-94ed-3de8114f6441","ios":"levelo://app?vid=7ba56adb-fef1-4fb4-94ed-3de8114f6441"},"vehicle_type_id":"4","last_reported":1740665386,"current_range_meters":11200,"station_id":"ce4bgr92rcd13ifvqc6g","pricing_plan_id":"cebpf4jnsgd1na2vs0mg"},{"bike_id":"3c87ab42-1dbb-44b0-baa4-15026e4b1aee","system_id":"levelo_inurba_marseille","lat":43.29793,"lon":5.38117,"is_reserved":false,"is_disabled":false,"rental_uris":{"android":"levelo://app?vid=3c87ab42-1dbb-44b0-baa4-15026e4b1aee","ios":"levelo://app?vid=3c87ab42-1dbb-44b0-baa4-15026e4b1aee"},"vehicle_type_id":"4","last_reported":1740665386,"current_range_meters":11600,"station_id":"ce4bgip2rcd13ifvqbb0","pricing_plan_id":"cebpf4jnsgd1na2vs0mg"},{"bike_id":"f7848387-0626-4043-afd1-ad9f4e57dad1","system_id":"levelo_inurba_marseille","lat":43.231556,"lon":5.437177,"is_reserved":false,"is_disabled":false,"rental_uris":{"android":"levelo://app?vid=f7848387-0626-4043-afd1-ad9f4e57dad1","ios":"levelo://app?vid=f7848387-0626-4043-afd1-ad9f4e57dad1"},"vehicle_type_id":"4","last_reported":1740665386,"current_range_meters":12000,"station_id":"ce4bhmp2rcd13ifvqgog","pricing_plan_id":"cebpf4jnsgd1na2vs0mg"},{"bike_id":"4b652788-5170-4217-a26e-78653b048387","system_id":"levelo_inurba_marseille","lat":43.31507,"lon":5.37287,"is_reserved":false,"is_disabled":false,"rental_uris":{"android":"levelo://app?vid=4b652788-5170-4217-a26e-78653b048387","ios":"levelo://app?vid=4b652788-5170-4217-a26e-78653b048387"},"vehicle_type_id":"4","last_reported":1740665386,"current_range_meters":11600,"station_id":"ce4bgt12rcd13ifvqcd0","pricing_plan_id":"cebpf4jnsgd1na2vs0mg"},{"bike_id":"2837d85d-02af-49af-900a-3b751e6ef0d6","system_id":"levelo_inurba_marseille","lat":43.32107,"lon":5.36796,"is_reserved":false,"is_disabled":false,"rental_uris":{"android":"levelo://app?vid=2837d85d-02af-49af-900a-3b751e6ef0d6","ios":"levelo://app?vid=2837d85d-02af-49af-900a-3b751e6ef0d6"},"vehicle_type_id":"4","last_reported":1740665386,"current_range_meters":12000,"station_id":"ce4bhrh2rcd13ifvqhug","pricing_plan_id":"cebpf4jnsgd1na2vs0mg"},{"bike_id":"53c97519-31f9-4538-b031-fd7d8c97dfd2","system_id":"levelo_inurba_marseille","lat":43.3136,"lon":5.38495,"is_reserved":false,"is_disabled":false,"rental_uris":{"android":"levelo://app?vid=53c97519-31f9-4538-b031-fd7d8c97dfd2","ios":"levelo://app?vid=53c97519-31f9-4538-b031-fd7d8c97dfd2"},"vehicle_type_id":"4","last_reported":1740665386,"current_range_meters":12400,"station_id":"ce4bgt92rcd13ifvqcf0","pricing_plan_id":"cebpf4jnsgd1na2vs0mg"},{"bike_id":"9c05c137-ce73-4888-83ec-51c9674942d3","system_id":"levelo_inurba_marseille","lat":43.3137,"lon":5.36716,"is_reserved":false,"is_disabled":false,"rental_uris":{"android":"levelo://app?vid=9c05c137-ce73-4888-83ec-51c9674942d3","ios":"levelo://app?vid=9c05c137-ce73-4888-83ec-51c9674942d3"},"vehicle_type_id":"4","last_reported":1740665386,"current_range_meters":12000,"station_id":"ce4bgr92rcd13ifvqc6g","pricing_plan_id":"cebpf4jnsgd1na2vs0mg"},{"bike_id":"d1c19e30-9464-4956-bfd9-8938b93b3166","system_id":"levelo_inurba_marseille","lat":43.24177,"lon":5.39711,"is_reserved":false,"is_disabled":false,"rental_uris":{"android":"levelo://app?vid=d1c19e30-9464-4956-bfd9-8938b93b3166","ios":"levelo://app?vid=d1c19e30-9464-4956-bfd9-8938b93b3166"},"vehicle_type_id":"4","last_reported":1740665386,"current_range_meters":12000,"station_id":"ce4bhn12rcd13ifvqgpg","pricing_plan_id":"cebpf4jnsgd1na2vs0mg"},{"bike_id":"7843fef8-fa6b-4b02-9a30-0d426bde2243","system_id":"levelo_inurba_marseille","lat":43.25003,"lon":5.38934,"is_reserved":false,"is_disabled":false,"rental_uris":{"android":"levelo://app?vid=7843fef8-fa6b-4b02-9a30-0d426bde2243","ios":"levelo://app?vid=7843fef8-fa6b-4b02-9a30-0d426bde2243"},"vehicle_type_id":"4","last_reported":1740665386,"current_range_meters":12000,"station_id":"ce4bhgp2rcd13ifvqfd0","pricing_plan_id":"cebpf4jnsgd1na2vs0mg"},{"bike_id":"b04d1484-efed-46a5-9729-ec42ebee9a68","system_id":"levelo_inurba_marseille","lat":43.30427,"lon":5.38883,"is_reserved":false,"is_disabled":false,"rental_uris":{"android":"levelo://app?vid=b04d1484-efed-46a5-9729-ec42ebee9a68","ios":"levelo://app?vid=b04d1484-efed-46a5-9729-ec42ebee9a68"},"vehicle_type_id":"4","last_reported":1740665386,"current_range_meters":11200,"station_id":"ce4bgk12rcd13ifvqbi0","pricing_plan_id":"cebpf4jnsgd1na2vs0mg"},{"bike_id":"fe5c56c0-9f80-4786-b470-eb5787a9b2c7","system_id":"levelo_inurba_marseille","lat":43.21488,"lon":5.34827,"is_reserved":false,"is_disabled":false,"rental_uris":{"android":"levelo://app?vid=fe5c56c0-9f80-4786-b470-eb5787a9b2c7","ios":"levelo://app?vid=fe5c56c0-9f80-4786-b470-eb5787a9b2c7"},"vehicle_type_id":"4","last_reported":1740665386,"current_range_meters":12000,"station_id":"cpo3532slgdg3j2ikp40","pricing_plan_id":"cebpf4jnsgd1na2vs0mg"},{"bike_id":"77aa077d-154e-4346-9c82-5290da9c9884","system_id":"levelo_inurba_marseille","lat":43.283556,"lon":5.381083,"is_reserved":false,"is_disabled":false,"rental_uris":{"android":"levelo://app?vid=77aa077d-154e-4346-9c82-5290da9c9884","ios":"levelo://app?vid=77aa077d-154e-4346-9c82-5290da9c9884"},"vehicle_type_id":"4","last_reported":1740665386,"current_range_meters":12000,"station_id":"ce4bh412rcd13ifvqdr0","pricing_plan_id":"cebpf4jnsgd1na2vs0mg"},{"bike_id":"1b3cb628-e9ba-49f9-9bd2-f45361dc8aaf","system_id":"levelo_inurba_marseille","lat":43.24165,"lon":5.39739,"is_reserved":false,"is_disabled":false,"rental_uris":{"android":"levelo://app?vid=1b3cb628-e9ba-49f9-9bd2-f45361dc8aaf","ios":"levelo://app?vid=1b3cb628-e9ba-49f9-9bd2-f45361dc8aaf"},"vehicle_type_id":"4","last_reported":1740665386,"current_range_meters":12400,"station_id":"ce4bhn12rcd13ifvqgpg","pricing_plan_id":"cebpf4jnsgd1na2vs0mg"},{"bike_id":"c9a46336-8808-467e-8593-79b169fe9875","system_id":"levelo_inurba_marseille","lat":43.23158,"lon":5.43685,"is_reserved":false,"is_disabled":false,"rental_uris":{"android":"levelo://app?vid=c9a46336-8808-467e-8593-79b169fe9875","ios":"levelo://app?vid=c9a46336-8808-467e-8593-79b169fe9875"},"vehicle_type_id":"4","last_reported":1740665386,"current_range_meters":13600,"station_id":"ce4bhmp2rcd13ifvqgog","pricing_plan_id":"cebpf4jnsgd1na2vs0mg"},{"bike_id":"206574c1-7834-44f7-85d2-9312f4f73fde","system_id":"levelo_inurba_marseille","lat":43.23156,"lon":5.43717,"is_reserved":false,"is_disabled":false,"rental_uris":{"android":"levelo://app?vid=206574c1-7834-44f7-85d2-9312f4f73fde","ios":"levelo://app?vid=206574c1-7834-44f7-85d2-9312f4f73fde"},"vehicle_type_id":"4","last_reported":1740665386,"current_range_meters":12400,"station_id":"ce4bhmp2rcd13ifvqgog","pricing_plan_id":"cebpf4jnsgd1na2vs0mg"},{"bike_id":"7a83f7ca-016a-4321-9dff-36c6b54c4ce5","system_id":"levelo_inurba_marseille","lat":43.305695,"lon":5.370731,"is_reserved":false,"is_disabled":false,"rental_uris":{"android":"levelo://app?vid=7a83f7ca-016a-4321-9dff-36c6b54c4ce5","ios":"levelo://app?vid=7a83f7ca-016a-4321-9dff-36c6b54c4ce5"},"vehicle_type_id":"4","last_reported":1740665386,"current_range_meters":12800,"station_id":"ce4bgqh2rcd13ifvqc4g","pricing_plan_id":"cebpf4jnsgd1na2vs0mg"},{"bike_id":"bca32adc-53d5-4599-85a3-ead4fe6e6a72","system_id":"levelo_inurba_marseille","lat":43.2847,"lon":5.38538,"is_reserved":false,"is_disabled":false,"rental_uris":{"android":"levelo://app?vid=bca32adc-53d5-4599-85a3-ead4fe6e6a72","ios":"levelo://app?vid=bca32adc-53d5-4599-85a3-ead4fe6e6a72"},"vehicle_type_id":"4","last_reported":1740665386,"current_range_meters":12800,"station_id":"ce4bh8p2rcd13ifvqeb0","pricing_plan_id":"cebpf4jnsgd1na2vs0mg"},{"bike_id":"541d8f67-b013-46c3-978d-f970454a9ccc","system_id":"levelo_inurba_marseille","lat":43.26196,"lon":5.37932,"is_reserved":false,"is_disabled":false,"rental_uris":{"android":"levelo://app?vid=541d8f67-b013-46c3-978d-f970454a9ccc","ios":"levelo://app?vid=541d8f67-b013-46c3-978d-f970454a9ccc"},"vehicle_type_id":"4","last_reported":1740665386,"current_range_meters":12400,"station_id":"ce4bhjp2rcd13ifvqg90","pricing_plan_id":"cebpf4jnsgd1na2vs0mg"},{"bike_id":"3648d549-1aa7-44d1-bde4-30bac4ece65c","system_id":"levelo_inurba_marseille","lat":43.25588,"lon":5.3822,"is_reserved":false,"is_disabled":false,"rental_uris":{"android":"levelo://app?vid=3648d549-1aa7-44d1-bde4-30bac4ece65c","ios":"levelo://app?vid=3648d549-1aa7-44d1-bde4-30bac4ece65c"},"vehicle_type_id":"4","last_reported":1740665386,"current_range_meters":12800,"station_id":"ce4bhih2rcd13ifvqfs0","pricing_plan_id":"cebpf4jnsgd1na2vs0mg"},{"bike_id":"cb164d64-9645-42e3-b096-6ed80526e7df","system_id":"levelo_inurba_marseille","lat":43.28158,"lon":5.42636,"is_reserved":false,"is_disabled":false,"rental_uris":{"android":"levelo://app?vid=cb164d64-9645-42e3-b096-6ed80526e7df","ios":"levelo://app?vid=cb164d64-9645-42e3-b096-6ed80526e7df"},"vehicle_type_id":"4","last_reported":1740665386,"current_range_meters":12800,"station_id":"ce4bhnh2rcd13ifvqgug","pricing_plan_id":"cebpf4jnsgd1na2vs0mg"},{"bike_id":"0f2abc8e-0846-42bf-87d9-061743ab7b4a","system_id":"levelo_inurba_marseille","lat":43.23204,"lon":5.35546,"is_reserved":false,"is_disabled":false,"rental_uris":{"android":"levelo://app?vid=0f2abc8e-0846-42bf-87d9-061743ab7b4a","ios":"levelo://app?vid=0f2abc8e-0846-42bf-87d9-061743ab7b4a"},"vehicle_type_id":"4","last_reported":1740665386,"current_range_meters":12800,"station_id":"ce4bhu92rcd13ifvqi70","pricing_plan_id":"cebpf4jnsgd1na2vs0mg"},{"bike_id":"5d7a34fe-0843-41e2-81ed-74e1827b1aaf","system_id":"levelo_inurba_marseille","lat":43.28412,"lon":5.37534,"is_reserved":false,"is_disabled":false,"rental_uris":{"android":"levelo://app?vid=5d7a34fe-0843-41e2-81ed-74e1827b1aaf","ios":"levelo://app?vid=5d7a34fe-0843-41e2-81ed-74e1827b1aaf"},"vehicle_type_id":"4","last_reported":1740665386,"current_range_meters":12800,"station_id":"ce4bh412rcd13ifvqds0","pricing_plan_id":"cebpf4jnsgd1na2vs0mg"},{"bike_id":"b1abd704-283d-4f44-a6f6-c162360f7b32","system_id":"levelo_inurba_marseille","lat":43.31717,"lon":5.43694,"is_reserved":false,"is_disabled":false,"rental_uris":{"android":"levelo://app?vid=b1abd704-283d-4f44-a6f6-c162360f7b32","ios":"levelo://app?vid=b1abd704-283d-4f44-a6f6-c162360f7b32"},"vehicle_type_id":"4","last_reported":1740665386,"current_range_meters":14000,"station_id":"ce4bhp92rcd13ifvqhcg","pricing_plan_id":"cebpf4jnsgd1na2vs0mg"},{"bike_id":"443370dd-f8b8-457a-b6f8-389b804ff6fc","system_id":"levelo_inurba_marseille","lat":43.3235,"lon":5.38898,"is_reserved":false,"is_disabled":false,"rental_uris":{"android":"levelo://app?vid=443370dd-f8b8-457a-b6f8-389b804ff6fc","ios":"levelo://app?vid=443370dd-f8b8-457a-b6f8-389b804ff6fc"},"vehicle_type_id":"4","last_reported":1740665386,"current_range_meters":13600,"station_id":"ce4bhqp2rcd13ifvqhog","pricing_plan_id":"cebpf4jnsgd1na2vs0mg"},{"bike_id":"d155a60d-e183-4f8b-b4af-d008a652110f","system_id":"levelo_inurba_marseille","lat":43.29845,"lon":5.36276,"is_reserved":false,"is_disabled":false,"rental_uris":{"android":"levelo://app?vid=d155a60d-e183-4f8b-b4af-d008a652110f","ios":"levelo://app?vid=d155a60d-e183-4f8b-b4af-d008a652110f"},"vehicle_type_id":"4","last_reported":1740665386,"current_range_meters":13600,"station_id":"ce4bgpp2rcd13ifvqc3g","pricing_plan_id":"cebpf4jnsgd1na2vs0mg"},{"bike_id":"4a448bc5-3925-4fd2-9f67-bf96da99133b","system_id":"levelo_inurba_marseille","lat":43.28267,"lon":5.35064,"is_reserved":false,"is_disabled":false,"rental_uris":{"android":"levelo://app?vid=4a448bc5-3925-4fd2-9f67-bf96da99133b","ios":"levelo://app?vid=4a448bc5-3925-4fd2-9f67-bf96da99133b"},"vehicle_type_id":"4","last_reported":1740665386,"current_range_meters":14000,"station_id":"ce4bhbp2rcd13ifvqerg","pricing_plan_id":"cebpf4jnsgd1na2vs0mg"},{"bike_id":"3de9aeda-1f9a-4bbc-8b90-e02a49e56ca9","system_id":"levelo_inurba_marseille","lat":43.232,"lon":5.35553,"is_reserved":false,"is_disabled":false,"rental_uris":{"android":"levelo://app?vid=3de9aeda-1f9a-4bbc-8b90-e02a49e56ca9","ios":"levelo://app?vid=3de9aeda-1f9a-4bbc-8b90-e02a49e56ca9"},"vehicle_type_id":"4","last_reported":1740665386,"current_range_meters":14000,"station_id":"ce4bhu92rcd13ifvqi70","pricing_plan_id":"cebpf4jnsgd1na2vs0mg"},{"bike_id":"d87a4773-6328-43f6-871f-76210bb4e613","system_id":"levelo_inurba_marseille","lat":43.31485,"lon":5.37276,"is_reserved":false,"is_disabled":false,"rental_uris":{"android":"levelo://app?vid=d87a4773-6328-43f6-871f-76210bb4e613","ios":"levelo://app?vid=d87a4773-6328-43f6-871f-76210bb4e613"},"vehicle_type_id":"4","last_reported":1740665386,"current_range_meters":14400,"station_id":"ce4bgt12rcd13ifvqcd0","pricing_plan_id":"cebpf4jnsgd1na2vs0mg"},{"bike_id":"9eedc8b4-f93a-4e26-bf09-fd5804bb3c33","system_id":"levelo_inurba_marseille","lat":43.27667,"lon":5.38879,"is_reserved":false,"is_disabled":false,"rental_uris":{"android":"levelo://app?vid=9eedc8b4-f93a-4e26-bf09-fd5804bb3c33","ios":"levelo://app?vid=9eedc8b4-f93a-4e26-bf09-fd5804bb3c33"},"vehicle_type_id":"4","last_reported":1740665386,"current_range_meters":14400,"station_id":"ce4bhi12rcd13ifvqfo0","pricing_plan_id":"cebpf4jnsgd1na2vs0mg"},{"bike_id":"df94eac8-6731-4a29-b5fb-fa40dcdf9de4","system_id":"levelo_inurba_marseille","lat":43.24099,"lon":5.37733,"is_reserved":false,"is_disabled":false,"rental_uris":{"android":"levelo://app?vid=df94eac8-6731-4a29-b5fb-fa40dcdf9de4","ios":"levelo://app?vid=df94eac8-6731-4a29-b5fb-fa40dcdf9de4"},"vehicle_type_id":"4","last_reported":1740665386,"current_range_meters":14400,"station_id":"ce4bhnp2rcd13ifvqgvg","pricing_plan_id":"cebpf4jnsgd1na2vs0mg"},{"bike_id":"ca83e9fa-dda1-4f1a-ba55-10855739dbea","system_id":"levelo_inurba_marseille","lat":43.273508,"lon":5.390973,"is_reserved":false,"is_disabled":false,"rental_uris":{"android":"levelo://app?vid=ca83e9fa-dda1-4f1a-ba55-10855739dbea","ios":"levelo://app?vid=ca83e9fa-dda1-4f1a-ba55-10855739dbea"},"vehicle_type_id":"4","last_reported":1740665386,"current_range_meters":14000,"station_id":"ce4bhgp2rcd13ifvqfe0","pricing_plan_id":"cebpf4jnsgd1na2vs0mg"},{"bike_id":"ad7f994d-dcbb-4b9f-a1d4-48998b8eb7dc","system_id":"levelo_inurba_marseille","lat":43.31072,"lon":5.40086,"is_reserved":false,"is_disabled":false,"rental_uris":{"android":"levelo://app?vid=ad7f994d-dcbb-4b9f-a1d4-48998b8eb7dc","ios":"levelo://app?vid=ad7f994d-dcbb-4b9f-a1d4-48998b8eb7dc"},"vehicle_type_id":"4","last_reported":1740665386,"current_range_meters":14400,"station_id":"","pricing_plan_id":"cebpf4jnsgd1na2vs0mg"},{"bike_id":"5169bf4e-5ac4-4560-9d3b-f48581611c45","system_id":"levelo_inurba_marseille","lat":43.25083,"lon":5.39512,"is_reserved":false,"is_disabled":false,"rental_uris":{"android":"levelo://app?vid=5169bf4e-5ac4-4560-9d3b-f48581611c45","ios":"levelo://app?vid=5169bf4e-5ac4-4560-9d3b-f48581611c45"},"vehicle_type_id":"4","last_reported":1740665386,"current_range_meters":14400,"station_id":"ce4bhm12rcd13ifvqgkg","pricing_plan_id":"cebpf4jnsgd1na2vs0mg"},{"bike_id":"868494ef-43c4-4904-a57e-523cf60d0a36","system_id":"levelo_inurba_marseille","lat":43.28461,"lon":5.35886,"is_reserved":false,"is_disabled":false,"rental_uris":{"android":"levelo://app?vid=868494ef-43c4-4904-a57e-523cf60d0a36","ios":"levelo://app?vid=868494ef-43c4-4904-a57e-523cf60d0a36"},"vehicle_type_id":"4","last_reported":1740665386,"current_range_meters":11600,"station_id":"ce4bhah2rcd13ifvqei0","pricing_plan_id":"cebpf4jnsgd1na2vs0mg"},{"bike_id":"6bf62df5-9f2c-4676-be2e-3425368f3119","system_id":"levelo_inurba_marseille","lat":43.293314,"lon":5.382491,"is_reserved":false,"is_disabled":false,"rental_uris":{"android":"levelo://app?vid=6bf62df5-9f2c-4676-be2e-3425368f3119","ios":"levelo://app?vid=6bf62df5-9f2c-4676-be2e-3425368f3119"},"vehicle_type_id":"4","last_reported":1740665386,"current_range_meters":14400,"station_id":"","pricing_plan_id":"cebpf4jnsgd1na2vs0mg"},{"bike_id":"58f350d8-ccb4-4d78-8b4e-fff65cafbffa","system_id":"levelo_inurba_marseille","lat":43.29773,"lon":5.3711,"is_reserved":false,"is_disabled":false,"rental_uris":{"android":"levelo://app?vid=58f350d8-ccb4-4d78-8b4e-fff65cafbffa","ios":"levelo://app?vid=58f350d8-ccb4-4d78-8b4e-fff65cafbffa"},"vehicle_type_id":"4","last_reported":1740665386,"current_range_meters":13600,"station_id":"ce4bgop2rcd13ifvqc1g","pricing_plan_id":"cebpf4jnsgd1na2vs0mg"},{"bike_id":"b55d37ce-d9ba-48e2-b53d-9819952d55df","system_id":"levelo_inurba_marseille","lat":43.2872,"lon":5.37932,"is_reserved":false,"is_disabled":false,"rental_uris":{"android":"levelo://app?vid=b55d37ce-d9ba-48e2-b53d-9819952d55df","ios":"levelo://app?vid=b55d37ce-d9ba-48e2-b53d-9819952d55df"},"vehicle_type_id":"4","last_reported":1740665386,"current_range_meters":16000,"station_id":"ce4bh9p2rcd13ifvqec0","pricing_plan_id":"cebpf4jnsgd1na2vs0mg"},{"bike_id":"201b43e1-9166-4b93-9ecb-211bb1985890","system_id":"levelo_inurba_marseille","lat":43.32356,"lon":5.36779,"is_reserved":false,"is_disabled":false,"rental_uris":{"android":"levelo://app?vid=201b43e1-9166-4b93-9ecb-211bb1985890","ios":"levelo://app?vid=201b43e1-9166-4b93-9ecb-211bb1985890"},"vehicle_type_id":"4","last_reported":1740665386,"current_range_meters":14800,"station_id":"ce4bhsh2rcd13ifvqi2g","pricing_plan_id":"cebpf4jnsgd1na2vs0mg"},{"bike_id":"f206bce9-bf05-4ae6-9ff6-a54c7510085e","system_id":"levelo_inurba_marseille","lat":43.25005,"lon":5.38923,"is_reserved":false,"is_disabled":false,"rental_uris":{"android":"levelo://app?vid=f206bce9-bf05-4ae6-9ff6-a54c7510085e","ios":"levelo://app?vid=f206bce9-bf05-4ae6-9ff6-a54c7510085e"},"vehicle_type_id":"4","last_reported":1740665386,"current_range_meters":14000,"station_id":"ce4bhgp2rcd13ifvqfd0","pricing_plan_id":"cebpf4jnsgd1na2vs0mg"},{"bike_id":"f10c0f07-760c-4cf8-8c7d-ec820c72c4f8","system_id":"levelo_inurba_marseille","lat":43.28703,"lon":5.37403,"is_reserved":false,"is_disabled":false,"rental_uris":{"android":"levelo://app?vid=f10c0f07-760c-4cf8-8c7d-ec820c72c4f8","ios":"levelo://app?vid=f10c0f07-760c-4cf8-8c7d-ec820c72c4f8"},"vehicle_type_id":"4","last_reported":1740665386,"current_range_meters":13600,"station_id":"ce4bh3p2rcd13ifvqdq0","pricing_plan_id":"cebpf4jnsgd1na2vs0mg"},{"bike_id":"f9503fac-af60-4989-be43-5d24f2f801b1","system_id":"levelo_inurba_marseille","lat":43.24808,"lon":5.37455,"is_reserved":false,"is_disabled":false,"rental_uris":{"android":"levelo://app?vid=f9503fac-af60-4989-be43-5d24f2f801b1","ios":"levelo://app?vid=f9503fac-af60-4989-be43-5d24f2f801b1"},"vehicle_type_id":"4","last_reported":1740665386,"current_range_meters":16400,"station_id":"ce4bhgh2rcd13ifvqfb0","pricing_plan_id":"cebpf4jnsgd1na2vs0mg"},{"bike_id":"fb70dea8-fe5e-4f29-a636-7a21a96df401","system_id":"levelo_inurba_marseille","lat":43.25554,"lon":5.38237,"is_reserved":false,"is_disabled":false,"rental_uris":{"android":"levelo://app?vid=fb70dea8-fe5e-4f29-a636-7a21a96df401","ios":"levelo://app?vid=fb70dea8-fe5e-4f29-a636-7a21a96df401"},"vehicle_type_id":"4","last_reported":1740665386,"current_range_meters":14800,"station_id":"ce4bhih2rcd13ifvqfs0","pricing_plan_id":"cebpf4jnsgd1na2vs0mg"},{"bike_id":"af204ba1-4164-4887-b622-3048e8be38bb","system_id":"levelo_inurba_marseille","lat":43.31177,"lon":5.38713,"is_reserved":false,"is_disabled":false,"rental_uris":{"android":"levelo://app?vid=af204ba1-4164-4887-b622-3048e8be38bb","ios":"levelo://app?vid=af204ba1-4164-4887-b622-3048e8be38bb"},"vehicle_type_id":"4","last_reported":1740665386,"current_range_meters":15200,"station_id":"ce4bgv12rcd13ifvqcp0","pricing_plan_id":"cebpf4jnsgd1na2vs0mg"},{"bike_id":"2bc6b0c1-7127-4e48-b7f5-50a3d89bfd6a","system_id":"levelo_inurba_marseille","lat":43.30934,"lon":5.37302,"is_reserved":false,"is_disabled":false,"rental_uris":{"android":"levelo://app?vid=2bc6b0c1-7127-4e48-b7f5-50a3d89bfd6a","ios":"levelo://app?vid=2bc6b0c1-7127-4e48-b7f5-50a3d89bfd6a"},"vehicle_type_id":"4","last_reported":1740665386,"current_range_meters":14800,"station_id":"","pricing_plan_id":"cebpf4jnsgd1na2vs0mg"},{"bike_id":"b308aef5-f3e0-49c8-8b08-704b47c3344d","system_id":"levelo_inurba_marseille","lat":43.294128,"lon":5.386162,"is_reserved":false,"is_disabled":false,"rental_uris":{"android":"levelo://app?vid=b308aef5-f3e0-49c8-8b08-704b47c3344d","ios":"levelo://app?vid=b308aef5-f3e0-49c8-8b08-704b47c3344d"},"vehicle_type_id":"4","last_reported":1740665386,"current_range_meters":15200,"station_id":"ce4bh2h2rcd13ifvqdh0","pricing_plan_id":"cebpf4jnsgd1na2vs0mg"},{"bike_id":"1710d291-87ed-4dfc-815c-55a1fdcb49d0","system_id":"levelo_inurba_marseille","lat":43.26561,"lon":5.37284,"is_reserved":false,"is_disabled":false,"rental_uris":{"android":"levelo://app?vid=1710d291-87ed-4dfc-815c-55a1fdcb49d0","ios":"levelo://app?vid=1710d291-87ed-4dfc-815c-55a1fdcb49d0"},"vehicle_type_id":"4","last_reported":1740665386,"current_range_meters":15200,"station_id":"ce4bhg12rcd13ifvqf70","pricing_plan_id":"cebpf4jnsgd1na2vs0mg"},{"bike_id":"20d08730-d04f-482a-9ed2-1d3e29b92784","system_id":"levelo_inurba_marseille","lat":43.32358,"lon":5.38888,"is_reserved":false,"is_disabled":false,"rental_uris":{"android":"levelo://app?vid=20d08730-d04f-482a-9ed2-1d3e29b92784","ios":"levelo://app?vid=20d08730-d04f-482a-9ed2-1d3e29b92784"},"vehicle_type_id":"4","last_reported":1740665386,"current_range_meters":15200,"station_id":"ce4bhqp2rcd13ifvqhog","pricing_plan_id":"cebpf4jnsgd1na2vs0mg"},{"bike_id":"f5749779-9f8d-4c84-823a-8dfeff4d7ef1","system_id":"levelo_inurba_marseille","lat":43.28268,"lon":5.3506,"is_reserved":false,"is_disabled":false,"rental_uris":{"android":"levelo://app?vid=f5749779-9f8d-4c84-823a-8dfeff4d7ef1","ios":"levelo://app?vid=f5749779-9f8d-4c84-823a-8dfeff4d7ef1"},"vehicle_type_id":"4","last_reported":1740665386,"current_range_meters":15200,"station_id":"ce4bhbp2rcd13ifvqerg","pricing_plan_id":"cebpf4jnsgd1na2vs0mg"},{"bike_id":"e7323438-5667-4285-8555-e4e5ad11332c","system_id":"levelo_inurba_marseille","lat":43.29277,"lon":5.36844,"is_reserved":false,"is_disabled":false,"rental_uris":{"android":"levelo://app?vid=e7323438-5667-4285-8555-e4e5ad11332c","ios":"levelo://app?vid=e7323438-5667-4285-8555-e4e5ad11332c"},"vehicle_type_id":"4","last_reported":1740665386,"current_range_meters":15200,"station_id":"ce4bhbp2rcd13ifvqesg","pricing_plan_id":"cebpf4jnsgd1na2vs0mg"},{"bike_id":"5b28cd77-a409-482f-8702-f764eef9151e","system_id":"levelo_inurba_marseille","lat":43.25907,"lon":5.40898,"is_reserved":false,"is_disabled":true,"rental_uris":{"android":"levelo://app?vid=5b28cd77-a409-482f-8702-f764eef9151e","ios":"levelo://app?vid=5b28cd77-a409-482f-8702-f764eef9151e"},"vehicle_type_id":"4","last_reported":1740665386,"current_range_meters":15200,"station_id":"ce4bhm92rcd13ifvqglg","pricing_plan_id":"cebpf4jnsgd1na2vs0mg"},{"bike_id":"e50be5e0-88fe-4d38-87a9-c3b49a136b37","system_id":"levelo_inurba_marseille","lat":43.29251,"lon":5.37635,"is_reserved":false,"is_disabled":false,"rental_uris":{"android":"levelo://app?vid=e50be5e0-88fe-4d38-87a9-c3b49a136b37","ios":"levelo://app?vid=e50be5e0-88fe-4d38-87a9-c3b49a136b37"},"vehicle_type_id":"4","last_reported":1740665386,"current_range_meters":16000,"station_id":"ce4bgi12rcd13ifvqb80","pricing_plan_id":"cebpf4jnsgd1na2vs0mg"},{"bike_id":"d4918d6a-5525-4be8-b0c4-7af64b54343d","system_id":"levelo_inurba_marseille","lat":43.24166,"lon":5.36394,"is_reserved":false,"is_disabled":false,"rental_uris":{"android":"levelo://app?vid=d4918d6a-5525-4be8-b0c4-7af64b54343d","ios":"levelo://app?vid=d4918d6a-5525-4be8-b0c4-7af64b54343d"},"vehicle_type_id":"4","last_reported":1740665386,"current_range_meters":16000,"station_id":"cpo36qri1sfpv3e86is0","pricing_plan_id":"cebpf4jnsgd1na2vs0mg"},{"bike_id":"09706c44-a6ea-4772-a00d-22d62ef3baa3","system_id":"levelo_inurba_marseille","lat":43.25736,"lon":5.41085,"is_reserved":false,"is_disabled":false,"rental_uris":{"android":"levelo://app?vid=09706c44-a6ea-4772-a00d-22d62ef3baa3","ios":"levelo://app?vid=09706c44-a6ea-4772-a00d-22d62ef3baa3"},"vehicle_type_id":"4","last_reported":1740665386,"current_range_meters":16000,"station_id":"ce4bhkp2rcd13ifvqgd0","pricing_plan_id":"cebpf4jnsgd1na2vs0mg"},{"bike_id":"7cf7b894-d393-4f1a-903c-6b57f99cdc54","system_id":"levelo_inurba_marseille","lat":43.26422,"lon":5.38442,"is_reserved":false,"is_disabled":false,"rental_uris":{"android":"levelo://app?vid=7cf7b894-d393-4f1a-903c-6b57f99cdc54","ios":"levelo://app?vid=7cf7b894-d393-4f1a-903c-6b57f99cdc54"},"vehicle_type_id":"4","last_reported":1740665386,"current_range_meters":16000,"station_id":"","pricing_plan_id":"cebpf4jnsgd1na2vs0mg"},{"bike_id":"cadf36d4-8397-4f67-9648-8720310c1392","system_id":"levelo_inurba_marseille","lat":43.27523,"lon":5.4242,"is_reserved":false,"is_disabled":false,"rental_uris":{"android":"levelo://app?vid=cadf36d4-8397-4f67-9648-8720310c1392","ios":"levelo://app?vid=cadf36d4-8397-4f67-9648-8720310c1392"},"vehicle_type_id":"4","last_reported":1740665386,"current_range_meters":16000,"station_id":"ce4bhn92rcd13ifvqgrg","pricing_plan_id":"cebpf4jnsgd1na2vs0mg"},{"bike_id":"0f665076-3e0b-47a6-8189-e37583df5925","system_id":"levelo_inurba_marseille","lat":43.29272,"lon":5.37612,"is_reserved":false,"is_disabled":false,"rental_uris":{"android":"levelo://app?vid=0f665076-3e0b-47a6-8189-e37583df5925","ios":"levelo://app?vid=0f665076-3e0b-47a6-8189-e37583df5925"},"vehicle_type_id":"4","last_reported":1740665386,"current_range_meters":16000,"station_id":"ce4bgi12rcd13ifvqb80","pricing_plan_id":"cebpf4jnsgd1na2vs0mg"},{"bike_id":"db969468-b380-4e55-a026-273e3aaa7506","system_id":"levelo_inurba_marseille","lat":43.31359,"lon":5.36728,"is_reserved":false,"is_disabled":false,"rental_uris":{"android":"levelo://app?vid=db969468-b380-4e55-a026-273e3aaa7506","ios":"levelo://app?vid=db969468-b380-4e55-a026-273e3aaa7506"},"vehicle_type_id":"4","last_reported":1740665386,"current_range_meters":16000,"station_id":"ce4bgr92rcd13ifvqc6g","pricing_plan_id":"cebpf4jnsgd1na2vs0mg"},{"bike_id":"0a3a40b9-ef61-4fd7-bbd9-c13123c4cf06","system_id":"levelo_inurba_marseille","lat":43.27633,"lon":5.36097,"is_reserved":false,"is_disabled":false,"rental_uris":{"android":"levelo://app?vid=0a3a40b9-ef61-4fd7-bbd9-c13123c4cf06","ios":"levelo://app?vid=0a3a40b9-ef61-4fd7-bbd9-c13123c4cf06"},"vehicle_type_id":"4","last_reported":1740665386,"current_range_meters":16000,"station_id":"ce4bgj92rcd13ifvqbe0","pricing_plan_id":"cebpf4jnsgd1na2vs0mg"},{"bike_id":"ef77bf7f-5b88-41c9-8d3b-c8c9c0447dd9","system_id":"levelo_inurba_marseille","lat":43.28095,"lon":5.35001,"is_reserved":false,"is_disabled":false,"rental_uris":{"android":"levelo://app?vid=ef77bf7f-5b88-41c9-8d3b-c8c9c0447dd9","ios":"levelo://app?vid=ef77bf7f-5b88-41c9-8d3b-c8c9c0447dd9"},"vehicle_type_id":"4","last_reported":1740665386,"current_range_meters":16400,"station_id":"","pricing_plan_id":"cebpf4jnsgd1na2vs0mg"},{"bike_id":"f04838fb-b28d-484a-b4f1-e616fe995e2f","system_id":"levelo_inurba_marseille","lat":43.29576,"lon":5.37523,"is_reserved":false,"is_disabled":false,"rental_uris":{"android":"levelo://app?vid=f04838fb-b28d-484a-b4f1-e616fe995e2f","ios":"levelo://app?vid=f04838fb-b28d-484a-b4f1-e616fe995e2f"},"vehicle_type_id":"4","last_reported":1740665386,"current_range_meters":16800,"station_id":"ce4bgh92rcd13ifvqb50","pricing_plan_id":"cebpf4jnsgd1na2vs0mg"},{"bike_id":"e71f4599-cb34-4ff6-b6d0-070f7faee2b4","system_id":"levelo_inurba_marseille","lat":43.28357,"lon":5.38109,"is_reserved":false,"is_disabled":false,"rental_uris":{"android":"levelo://app?vid=e71f4599-cb34-4ff6-b6d0-070f7faee2b4","ios":"levelo://app?vid=e71f4599-cb34-4ff6-b6d0-070f7faee2b4"},"vehicle_type_id":"4","last_reported":1740665386,"current_range_meters":16800,"station_id":"ce4bh412rcd13ifvqdr0","pricing_plan_id":"cebpf4jnsgd1na2vs0mg"},{"bike_id":"a2035f8a-71d6-4907-9d48-9df7f337d1f0","system_id":"levelo_inurba_marseille","lat":43.31386,"lon":5.36702,"is_reserved":false,"is_disabled":false,"rental_uris":{"android":"levelo://app?vid=a2035f8a-71d6-4907-9d48-9df7f337d1f0","ios":"levelo://app?vid=a2035f8a-71d6-4907-9d48-9df7f337d1f0"},"vehicle_type_id":"4","last_reported":1740665386,"current_range_meters":16400,"station_id":"","pricing_plan_id":"cebpf4jnsgd1na2vs0mg"},{"bike_id":"a25a2d33-1d8e-4fa7-b677-45c8444c8775","system_id":"levelo_inurba_marseille","lat":43.23195,"lon":5.35546,"is_reserved":false,"is_disabled":false,"rental_uris":{"android":"levelo://app?vid=a25a2d33-1d8e-4fa7-b677-45c8444c8775","ios":"levelo://app?vid=a25a2d33-1d8e-4fa7-b677-45c8444c8775"},"vehicle_type_id":"4","last_reported":1740665386,"current_range_meters":16400,"station_id":"ce4bhu92rcd13ifvqi70","pricing_plan_id":"cebpf4jnsgd1na2vs0mg"},{"bike_id":"3f5e4c77-943b-4a46-b257-614bf13afec4","system_id":"levelo_inurba_marseille","lat":43.24173,"lon":5.36389,"is_reserved":false,"is_disabled":false,"rental_uris":{"android":"levelo://app?vid=3f5e4c77-943b-4a46-b257-614bf13afec4","ios":"levelo://app?vid=3f5e4c77-943b-4a46-b257-614bf13afec4"},"vehicle_type_id":"4","last_reported":1740665386,"current_range_meters":16400,"station_id":"cpo36qri1sfpv3e86is0","pricing_plan_id":"cebpf4jnsgd1na2vs0mg"},{"bike_id":"145ab98a-40b7-47ff-af0f-3920118bb7e0","system_id":"levelo_inurba_marseille","lat":43.31319,"lon":5.397,"is_reserved":false,"is_disabled":false,"rental_uris":{"android":"levelo://app?vid=145ab98a-40b7-47ff-af0f-3920118bb7e0","ios":"levelo://app?vid=145ab98a-40b7-47ff-af0f-3920118bb7e0"},"vehicle_type_id":"4","last_reported":1740665386,"current_range_meters":14400,"station_id":"ce4bgvp2rcd13ifvqcu0","pricing_plan_id":"cebpf4jnsgd1na2vs0mg"},{"bike_id":"26279811-41a7-4813-b2dd-b30bf7e29252","system_id":"levelo_inurba_marseille","lat":43.3254,"lon":5.41429,"is_reserved":false,"is_disabled":false,"rental_uris":{"android":"levelo://app?vid=26279811-41a7-4813-b2dd-b30bf7e29252","ios":"levelo://app?vid=26279811-41a7-4813-b2dd-b30bf7e29252"},"vehicle_type_id":"4","last_reported":1740665386,"current_range_meters":16800,"station_id":"ce4bhq12rcd13ifvqhhg","pricing_plan_id":"cebpf4jnsgd1na2vs0mg"},{"bike_id":"43d6aa6f-20c7-4a1b-bcb8-31b660876567","system_id":"levelo_inurba_marseille","lat":43.26554,"lon":5.37282,"is_reserved":false,"is_disabled":false,"rental_uris":{"android":"levelo://app?vid=43d6aa6f-20c7-4a1b-bcb8-31b660876567","ios":"levelo://app?vid=43d6aa6f-20c7-4a1b-bcb8-31b660876567"},"vehicle_type_id":"4","last_reported":1740665386,"current_range_meters":16800,"station_id":"ce4bhg12rcd13ifvqf70","pricing_plan_id":"cebpf4jnsgd1na2vs0mg"},{"bike_id":"8e100345-e773-4b5f-aa04-a4e55e7b32d1","system_id":"levelo_inurba_marseille","lat":43.31469,"lon":5.37297,"is_reserved":false,"is_disabled":false,"rental_uris":{"android":"levelo://app?vid=8e100345-e773-4b5f-aa04-a4e55e7b32d1","ios":"levelo://app?vid=8e100345-e773-4b5f-aa04-a4e55e7b32d1"},"vehicle_type_id":"4","last_reported":1740665386,"current_range_meters":16800,"station_id":"ce4bgt12rcd13ifvqcd0","pricing_plan_id":"cebpf4jnsgd1na2vs0mg"},{"bike_id":"c4a79d58-3a87-4c5c-994f-d4283f21bda7","system_id":"levelo_inurba_marseille","lat":43.30633,"lon":5.40092,"is_reserved":false,"is_disabled":false,"rental_uris":{"android":"levelo://app?vid=c4a79d58-3a87-4c5c-994f-d4283f21bda7","ios":"levelo://app?vid=c4a79d58-3a87-4c5c-994f-d4283f21bda7"},"vehicle_type_id":"4","last_reported":1740665386,"current_range_meters":16800,"station_id":"ce4bh112rcd13ifvqda0","pricing_plan_id":"cebpf4jnsgd1na2vs0mg"},{"bike_id":"8824bfb7-cf33-45ac-8566-87ba7db2be7f","system_id":"levelo_inurba_marseille","lat":43.23193,"lon":5.35555,"is_reserved":false,"is_disabled":false,"rental_uris":{"android":"levelo://app?vid=8824bfb7-cf33-45ac-8566-87ba7db2be7f","ios":"levelo://app?vid=8824bfb7-cf33-45ac-8566-87ba7db2be7f"},"vehicle_type_id":"4","last_reported":1740665386,"current_range_meters":16800,"station_id":"ce4bhu92rcd13ifvqi70","pricing_plan_id":"cebpf4jnsgd1na2vs0mg"},{"bike_id":"4fae926c-fca6-4950-a913-bde3a8d2b25c","system_id":"levelo_inurba_marseille","lat":43.28943,"lon":5.39632,"is_reserved":false,"is_disabled":false,"rental_uris":{"android":"levelo://app?vid=4fae926c-fca6-4950-a913-bde3a8d2b25c","ios":"levelo://app?vid=4fae926c-fca6-4950-a913-bde3a8d2b25c"},"vehicle_type_id":"4","last_reported":1740665386,"current_range_meters":12400,"station_id":"ce4bh3h2rcd13ifvqdn0","pricing_plan_id":"cebpf4jnsgd1na2vs0mg"},{"bike_id":"87067e25-9252-47eb-9c28-29ad91f680aa","system_id":"levelo_inurba_marseille","lat":43.28599,"lon":5.35093,"is_reserved":false,"is_disabled":false,"rental_uris":{"android":"levelo://app?vid=87067e25-9252-47eb-9c28-29ad91f680aa","ios":"levelo://app?vid=87067e25-9252-47eb-9c28-29ad91f680aa"},"vehicle_type_id":"4","last_reported":1740665386,"current_range_meters":24000,"station_id":"ce4bhbh2rcd13ifvqeo0","pricing_plan_id":"cebpf4jnsgd1na2vs0mg"},{"bike_id":"16bb475b-6478-4e0c-9cc7-53dd448dfe58","system_id":"levelo_inurba_marseille","lat":43.25942,"lon":5.40891,"is_reserved":false,"is_disabled":false,"rental_uris":{"android":"levelo://app?vid=16bb475b-6478-4e0c-9cc7-53dd448dfe58","ios":"levelo://app?vid=16bb475b-6478-4e0c-9cc7-53dd448dfe58"},"vehicle_type_id":"4","last_reported":1740665386,"current_range_meters":17200,"station_id":"ce4bhm92rcd13ifvqglg","pricing_plan_id":"cebpf4jnsgd1na2vs0mg"},{"bike_id":"eb59bedd-e6e3-454b-a45f-83bcd0b2ab51","system_id":"levelo_inurba_marseille","lat":43.31176,"lon":5.38702,"is_reserved":false,"is_disabled":false,"rental_uris":{"android":"levelo://app?vid=eb59bedd-e6e3-454b-a45f-83bcd0b2ab51","ios":"levelo://app?vid=eb59bedd-e6e3-454b-a45f-83bcd0b2ab51"},"vehicle_type_id":"4","last_reported":1740665386,"current_range_meters":17600,"station_id":"ce4bgv12rcd13ifvqcp0","pricing_plan_id":"cebpf4jnsgd1na2vs0mg"},{"bike_id":"352c2446-b039-4302-bc75-3b54c81d9240","system_id":"levelo_inurba_marseille","lat":43.24065,"lon":5.37769,"is_reserved":false,"is_disabled":false,"rental_uris":{"android":"levelo://app?vid=352c2446-b039-4302-bc75-3b54c81d9240","ios":"levelo://app?vid=352c2446-b039-4302-bc75-3b54c81d9240"},"vehicle_type_id":"4","last_reported":1740665386,"current_range_meters":17200,"station_id":"ce4bhnp2rcd13ifvqgvg","pricing_plan_id":"cebpf4jnsgd1na2vs0mg"},{"bike_id":"16657fa1-03c6-49ec-a407-f3061564a488","system_id":"levelo_inurba_marseille","lat":43.26249,"lon":5.40454,"is_reserved":false,"is_disabled":false,"rental_uris":{"android":"levelo://app?vid=16657fa1-03c6-49ec-a407-f3061564a488","ios":"levelo://app?vid=16657fa1-03c6-49ec-a407-f3061564a488"},"vehicle_type_id":"4","last_reported":1740665386,"current_range_meters":17200,"station_id":"ce4bhmh2rcd13ifvqgmg","pricing_plan_id":"cebpf4jnsgd1na2vs0mg"},{"bike_id":"9177e154-a08d-4ec2-bec7-c6a6da6dd469","system_id":"levelo_inurba_marseille","lat":43.24388,"lon":5.37061,"is_reserved":false,"is_disabled":false,"rental_uris":{"android":"levelo://app?vid=9177e154-a08d-4ec2-bec7-c6a6da6dd469","ios":"levelo://app?vid=9177e154-a08d-4ec2-bec7-c6a6da6dd469"},"vehicle_type_id":"4","last_reported":1740665386,"current_range_meters":16800,"station_id":"ce4bhhh2rcd13ifvqfk0","pricing_plan_id":"cebpf4jnsgd1na2vs0mg"},{"bike_id":"1514e15c-d08d-45e3-a348-efa6597d075b","system_id":"levelo_inurba_marseille","lat":43.22929,"lon":5.35372,"is_reserved":false,"is_disabled":false,"rental_uris":{"android":"levelo://app?vid=1514e15c-d08d-45e3-a348-efa6597d075b","ios":"levelo://app?vid=1514e15c-d08d-45e3-a348-efa6597d075b"},"vehicle_type_id":"4","last_reported":1740665386,"current_range_meters":17200,"station_id":"cpo3532slgdg3j2ikp40","pricing_plan_id":"cebpf4jnsgd1na2vs0mg"},{"bike_id":"6c03af07-43d6-40b5-b0cf-7c33497afc57","system_id":"levelo_inurba_marseille","lat":43.2863,"lon":5.35086,"is_reserved":false,"is_disabled":false,"rental_uris":{"android":"levelo://app?vid=6c03af07-43d6-40b5-b0cf-7c33497afc57","ios":"levelo://app?vid=6c03af07-43d6-40b5-b0cf-7c33497afc57"},"vehicle_type_id":"4","last_reported":1740665386,"current_range_meters":17200,"station_id":"ce4bhch2rcd13ifvqeug","pricing_plan_id":"cebpf4jnsgd1na2vs0mg"},{"bike_id":"9c8a8d53-71cc-410c-8975-5cc5bfd67f2e","system_id":"levelo_inurba_marseille","lat":43.30278,"lon":5.37703,"is_reserved":false,"is_disabled":false,"rental_uris":{"android":"levelo://app?vid=9c8a8d53-71cc-410c-8975-5cc5bfd67f2e","ios":"levelo://app?vid=9c8a8d53-71cc-410c-8975-5cc5bfd67f2e"},"vehicle_type_id":"4","last_reported":1740665386,"current_range_meters":17200,"station_id":"ce4bguh2rcd13ifvqcj0","pricing_plan_id":"cebpf4jnsgd1na2vs0mg"},{"bike_id":"96aac338-5dc8-4dba-8295-b56fa5f98263","system_id":"levelo_inurba_marseille","lat":43.25086,"lon":5.39534,"is_reserved":false,"is_disabled":false,"rental_uris":{"android":"levelo://app?vid=96aac338-5dc8-4dba-8295-b56fa5f98263","ios":"levelo://app?vid=96aac338-5dc8-4dba-8295-b56fa5f98263"},"vehicle_type_id":"4","last_reported":1740665386,"current_range_meters":17200,"station_id":"ce4bhm12rcd13ifvqgkg","pricing_plan_id":"cebpf4jnsgd1na2vs0mg"},{"bike_id":"394ad06d-cd07-47bf-9d20-d3a92d1d606b","system_id":"levelo_inurba_marseille","lat":43.22941,"lon":5.35377,"is_reserved":false,"is_disabled":false,"rental_uris":{"android":"levelo://app?vid=394ad06d-cd07-47bf-9d20-d3a92d1d606b","ios":"levelo://app?vid=394ad06d-cd07-47bf-9d20-d3a92d1d606b"},"vehicle_type_id":"4","last_reported":1740665386,"current_range_meters":17600,"station_id":"cpo3532slgdg3j2ikp40","pricing_plan_id":"cebpf4jnsgd1na2vs0mg"},{"bike_id":"a9757b2e-0188-4e2f-9062-079c74f7d4d4","system_id":"levelo_inurba_marseille","lat":43.25579,"lon":5.38234,"is_reserved":false,"is_disabled":false,"rental_uris":{"android":"levelo://app?vid=a9757b2e-0188-4e2f-9062-079c74f7d4d4","ios":"levelo://app?vid=a9757b2e-0188-4e2f-9062-079c74f7d4d4"},"vehicle_type_id":"4","last_reported":1740665386,"current_range_meters":17600,"station_id":"ce4bhih2rcd13ifvqfs0","pricing_plan_id":"cebpf4jnsgd1na2vs0mg"},{"bike_id":"b248fe1a-1294-46b3-8e54-5882dd292552","system_id":"levelo_inurba_marseille","lat":43.29532,"lon":5.37497,"is_reserved":false,"is_disabled":false,"rental_uris":{"android":"levelo://app?vid=b248fe1a-1294-46b3-8e54-5882dd292552","ios":"levelo://app?vid=b248fe1a-1294-46b3-8e54-5882dd292552"},"vehicle_type_id":"4","last_reported":1740665386,"current_range_meters":17600,"station_id":"ce4bgkp2rcd13ifvqbmg","pricing_plan_id":"cebpf4jnsgd1na2vs0mg"},{"bike_id":"24476cb6-9c12-4997-ab8d-8cfe9d8b4bb4","system_id":"levelo_inurba_marseille","lat":43.28642,"lon":5.35076,"is_reserved":false,"is_disabled":false,"rental_uris":{"android":"levelo://app?vid=24476cb6-9c12-4997-ab8d-8cfe9d8b4bb4","ios":"levelo://app?vid=24476cb6-9c12-4997-ab8d-8cfe9d8b4bb4"},"vehicle_type_id":"4","last_reported":1740665386,"current_range_meters":18000,"station_id":"ce4bhch2rcd13ifvqeug","pricing_plan_id":"cebpf4jnsgd1na2vs0mg"},{"bike_id":"24481060-5d76-4c45-8516-3e3eaacd3cc9","system_id":"levelo_inurba_marseille","lat":43.30542,"lon":5.36524,"is_reserved":false,"is_disabled":false,"rental_uris":{"android":"levelo://app?vid=24481060-5d76-4c45-8516-3e3eaacd3cc9","ios":"levelo://app?vid=24481060-5d76-4c45-8516-3e3eaacd3cc9"},"vehicle_type_id":"4","last_reported":1740665386,"current_range_meters":18000,"station_id":"ce4bgs12rcd13ifvqcag","pricing_plan_id":"cebpf4jnsgd1na2vs0mg"},{"bike_id":"885a7c73-2dab-4883-bf91-805ceb2b3e2a","system_id":"levelo_inurba_marseille","lat":43.29629,"lon":5.37162,"is_reserved":false,"is_disabled":false,"rental_uris":{"android":"levelo://app?vid=885a7c73-2dab-4883-bf91-805ceb2b3e2a","ios":"levelo://app?vid=885a7c73-2dab-4883-bf91-805ceb2b3e2a"},"vehicle_type_id":"4","last_reported":1740665386,"current_range_meters":17600,"station_id":"ce4bgnh2rcd13ifvqc0g","pricing_plan_id":"cebpf4jnsgd1na2vs0mg"},{"bike_id":"086d7aa7-e301-4d46-b820-623c8b1bfc75","system_id":"levelo_inurba_marseille","lat":43.29271,"lon":5.37606,"is_reserved":false,"is_disabled":false,"rental_uris":{"android":"levelo://app?vid=086d7aa7-e301-4d46-b820-623c8b1bfc75","ios":"levelo://app?vid=086d7aa7-e301-4d46-b820-623c8b1bfc75"},"vehicle_type_id":"4","last_reported":1740665386,"current_range_meters":18000,"station_id":"ce4bgi12rcd13ifvqb80","pricing_plan_id":"cebpf4jnsgd1na2vs0mg"},{"bike_id":"fe314cff-9cef-4864-bae9-c8425e19c5d5","system_id":"levelo_inurba_marseille","lat":43.26496,"lon":5.39548,"is_reserved":false,"is_disabled":false,"rental_uris":{"android":"levelo://app?vid=fe314cff-9cef-4864-bae9-c8425e19c5d5","ios":"levelo://app?vid=fe314cff-9cef-4864-bae9-c8425e19c5d5"},"vehicle_type_id":"4","last_reported":1740665386,"current_range_meters":18000,"station_id":"ce4bhi12rcd13ifvqfq0","pricing_plan_id":"cebpf4jnsgd1na2vs0mg"},{"bike_id":"42613b90-f96e-41c5-8864-90dd1b35a09d","system_id":"levelo_inurba_marseille","lat":43.32346,"lon":5.3675,"is_reserved":false,"is_disabled":false,"rental_uris":{"android":"levelo://app?vid=42613b90-f96e-41c5-8864-90dd1b35a09d","ios":"levelo://app?vid=42613b90-f96e-41c5-8864-90dd1b35a09d"},"vehicle_type_id":"4","last_reported":1740665386,"current_range_meters":18000,"station_id":"ce4bhsh2rcd13ifvqi2g","pricing_plan_id":"cebpf4jnsgd1na2vs0mg"},{"bike_id":"f55ed67e-6fe1-4092-8aeb-33c77985ad51","system_id":"levelo_inurba_marseille","lat":43.24083,"lon":5.37755,"is_reserved":false,"is_disabled":false,"rental_uris":{"android":"levelo://app?vid=f55ed67e-6fe1-4092-8aeb-33c77985ad51","ios":"levelo://app?vid=f55ed67e-6fe1-4092-8aeb-33c77985ad51"},"vehicle_type_id":"4","last_reported":1740665386,"current_range_meters":18000,"station_id":"ce4bhnp2rcd13ifvqgvg","pricing_plan_id":"cebpf4jnsgd1na2vs0mg"},{"bike_id":"76b8872c-d0cd-403c-b96b-08e30bb4765b","system_id":"levelo_inurba_marseille","lat":43.27577,"lon":5.38405,"is_reserved":false,"is_disabled":false,"rental_uris":{"android":"levelo://app?vid=76b8872c-d0cd-403c-b96b-08e30bb4765b","ios":"levelo://app?vid=76b8872c-d0cd-403c-b96b-08e30bb4765b"},"vehicle_type_id":"4","last_reported":1740665386,"current_range_meters":18000,"station_id":"ce4bhh92rcd13ifvqfi0","pricing_plan_id":"cebpf4jnsgd1na2vs0mg"},{"bike_id":"4d0bdc94-9273-4054-a79e-0f5b7232f40d","system_id":"levelo_inurba_marseille","lat":43.28613,"lon":5.35102,"is_reserved":false,"is_disabled":false,"rental_uris":{"android":"levelo://app?vid=4d0bdc94-9273-4054-a79e-0f5b7232f40d","ios":"levelo://app?vid=4d0bdc94-9273-4054-a79e-0f5b7232f40d"},"vehicle_type_id":"4","last_reported":1740665386,"current_range_meters":18000,"station_id":"ce4bhch2rcd13ifvqeug","pricing_plan_id":"cebpf4jnsgd1na2vs0mg"},{"bike_id":"e22050f9-21bf-45d0-97dd-2fb261dd909b","system_id":"levelo_inurba_marseille","lat":43.32543,"lon":5.41444,"is_reserved":false,"is_disabled":false,"rental_uris":{"android":"levelo://app?vid=e22050f9-21bf-45d0-97dd-2fb261dd909b","ios":"levelo://app?vid=e22050f9-21bf-45d0-97dd-2fb261dd909b"},"vehicle_type_id":"4","last_reported":1740665386,"current_range_meters":18000,"station_id":"ce4bhq12rcd13ifvqhhg","pricing_plan_id":"cebpf4jnsgd1na2vs0mg"},{"bike_id":"f216f540-89ff-4b63-a7c8-4a6ddfb486d0","system_id":"levelo_inurba_marseille","lat":43.31169,"lon":5.38714,"is_reserved":false,"is_disabled":false,"rental_uris":{"android":"levelo://app?vid=f216f540-89ff-4b63-a7c8-4a6ddfb486d0","ios":"levelo://app?vid=f216f540-89ff-4b63-a7c8-4a6ddfb486d0"},"vehicle_type_id":"4","last_reported":1740665386,"current_range_meters":18000,"station_id":"ce4bgv12rcd13ifvqcp0","pricing_plan_id":"cebpf4jnsgd1na2vs0mg"},{"bike_id":"57b2ccf8-672b-471f-97a2-fd6c3ad48e3d","system_id":"levelo_inurba_marseille","lat":43.29794,"lon":5.38088,"is_reserved":false,"is_disabled":false,"rental_uris":{"android":"levelo://app?vid=57b2ccf8-672b-471f-97a2-fd6c3ad48e3d","ios":"levelo://app?vid=57b2ccf8-672b-471f-97a2-fd6c3ad48e3d"},"vehicle_type_id":"4","last_reported":1740665386,"current_range_meters":18000,"station_id":"ce4bgip2rcd13ifvqbb0","pricing_plan_id":"cebpf4jnsgd1na2vs0mg"},{"bike_id":"2b1bd017-ae2f-47dc-88c9-2aac6ec34921","system_id":"levelo_inurba_marseille","lat":43.2408,"lon":5.3776,"is_reserved":false,"is_disabled":false,"rental_uris":{"android":"levelo://app?vid=2b1bd017-ae2f-47dc-88c9-2aac6ec34921","ios":"levelo://app?vid=2b1bd017-ae2f-47dc-88c9-2aac6ec34921"},"vehicle_type_id":"4","last_reported":1740665386,"current_range_meters":18800,"station_id":"ce4bhnp2rcd13ifvqgvg","pricing_plan_id":"cebpf4jnsgd1na2vs0mg"},{"bike_id":"90b2a78a-9dcc-4b62-99df-5af0fbe81785","system_id":"levelo_inurba_marseille","lat":43.248009,"lon":5.374489,"is_reserved":false,"is_disabled":false,"rental_uris":{"android":"levelo://app?vid=90b2a78a-9dcc-4b62-99df-5af0fbe81785","ios":"levelo://app?vid=90b2a78a-9dcc-4b62-99df-5af0fbe81785"},"vehicle_type_id":"4","last_reported":1740665386,"current_range_meters":19200,"station_id":"ce4bhh92rcd13ifvqfj0","pricing_plan_id":"cebpf4jnsgd1na2vs0mg"},{"bike_id":"447049f4-bb81-497b-b4d0-a949be6a95ca","system_id":"levelo_inurba_marseille","lat":43.29634,"lon":5.40598,"is_reserved":false,"is_disabled":false,"rental_uris":{"android":"levelo://app?vid=447049f4-bb81-497b-b4d0-a949be6a95ca","ios":"levelo://app?vid=447049f4-bb81-497b-b4d0-a949be6a95ca"},"vehicle_type_id":"4","last_reported":1740665386,"current_range_meters":18000,"station_id":"ce4bh0h2rcd13ifvqd60","pricing_plan_id":"cebpf4jnsgd1na2vs0mg"},{"bike_id":"f1086d87-c6ea-4fd0-97fb-3e70fcc5c76b","system_id":"levelo_inurba_marseille","lat":43.26686,"lon":5.38268,"is_reserved":false,"is_disabled":false,"rental_uris":{"android":"levelo://app?vid=f1086d87-c6ea-4fd0-97fb-3e70fcc5c76b","ios":"levelo://app?vid=f1086d87-c6ea-4fd0-97fb-3e70fcc5c76b"},"vehicle_type_id":"4","last_reported":1740665386,"current_range_meters":18800,"station_id":"ce4bhg92rcd13ifvqf90","pricing_plan_id":"cebpf4jnsgd1na2vs0mg"},{"bike_id":"bd4f43e8-1246-4399-8469-d70df5676a4b","system_id":"levelo_inurba_marseille","lat":43.25112,"lon":5.4032,"is_reserved":false,"is_disabled":false,"rental_uris":{"android":"levelo://app?vid=bd4f43e8-1246-4399-8469-d70df5676a4b","ios":"levelo://app?vid=bd4f43e8-1246-4399-8469-d70df5676a4b"},"vehicle_type_id":"4","last_reported":1740665386,"current_range_meters":18800,"station_id":"ce4bhlh2rcd13ifvqgig","pricing_plan_id":"cebpf4jnsgd1na2vs0mg"},{"bike_id":"c5ccba82-1f5e-466b-89fe-87ad604957ae","system_id":"levelo_inurba_marseille","lat":43.24119,"lon":5.37724,"is_reserved":false,"is_disabled":false,"rental_uris":{"android":"levelo://app?vid=c5ccba82-1f5e-466b-89fe-87ad604957ae","ios":"levelo://app?vid=c5ccba82-1f5e-466b-89fe-87ad604957ae"},"vehicle_type_id":"4","last_reported":1740665386,"current_range_meters":19200,"station_id":"ce4bhnp2rcd13ifvqgvg","pricing_plan_id":"cebpf4jnsgd1na2vs0mg"},{"bike_id":"e9bdbae0-8a4d-410d-ad63-99801402b176","system_id":"levelo_inurba_marseille","lat":43.23206,"lon":5.35552,"is_reserved":false,"is_disabled":false,"rental_uris":{"android":"levelo://app?vid=e9bdbae0-8a4d-410d-ad63-99801402b176","ios":"levelo://app?vid=e9bdbae0-8a4d-410d-ad63-99801402b176"},"vehicle_type_id":"4","last_reported":1740665386,"current_range_meters":18800,"station_id":"ce4bhu92rcd13ifvqi70","pricing_plan_id":"cebpf4jnsgd1na2vs0mg"},{"bike_id":"364ea645-aefe-4d71-8bcd-ea54ed59c50a","system_id":"levelo_inurba_marseille","lat":43.31705,"lon":5.43706,"is_reserved":false,"is_disabled":false,"rental_uris":{"android":"levelo://app?vid=364ea645-aefe-4d71-8bcd-ea54ed59c50a","ios":"levelo://app?vid=364ea645-aefe-4d71-8bcd-ea54ed59c50a"},"vehicle_type_id":"4","last_reported":1740665386,"current_range_meters":18800,"station_id":"ce4bhp92rcd13ifvqhcg","pricing_plan_id":"cebpf4jnsgd1na2vs0mg"},{"bike_id":"09a08648-2d6f-4bd8-8ba2-f195a36f435c","system_id":"levelo_inurba_marseille","lat":43.30009,"lon":5.374266,"is_reserved":false,"is_disabled":false,"rental_uris":{"android":"levelo://app?vid=09a08648-2d6f-4bd8-8ba2-f195a36f435c","ios":"levelo://app?vid=09a08648-2d6f-4bd8-8ba2-f195a36f435c"},"vehicle_type_id":"4","last_reported":1740665386,"current_range_meters":19200,"station_id":"","pricing_plan_id":"cebpf4jnsgd1na2vs0mg"},{"bike_id":"0e5c5685-f0ad-4f48-841a-28402302a992","system_id":"levelo_inurba_marseille","lat":43.28969,"lon":5.37855,"is_reserved":false,"is_disabled":false,"rental_uris":{"android":"levelo://app?vid=0e5c5685-f0ad-4f48-841a-28402302a992","ios":"levelo://app?vid=0e5c5685-f0ad-4f48-841a-28402302a992"},"vehicle_type_id":"4","last_reported":1740665386,"current_range_meters":17600,"station_id":"ce4bh9p2rcd13ifvqed0","pricing_plan_id":"cebpf4jnsgd1na2vs0mg"},{"bike_id":"ec6b7105-a2d4-4380-b43f-9a4a410476d1","system_id":"levelo_inurba_marseille","lat":43.30096,"lon":5.39088,"is_reserved":false,"is_disabled":false,"rental_uris":{"android":"levelo://app?vid=ec6b7105-a2d4-4380-b43f-9a4a410476d1","ios":"levelo://app?vid=ec6b7105-a2d4-4380-b43f-9a4a410476d1"},"vehicle_type_id":"4","last_reported":1740665386,"current_range_meters":19200,"station_id":"ce4bh192rcd13ifvqdb0","pricing_plan_id":"cebpf4jnsgd1na2vs0mg"},{"bike_id":"f6290769-c7e5-4fbe-8266-cd0c71e918dd","system_id":"levelo_inurba_marseille","lat":43.26229,"lon":5.40452,"is_reserved":false,"is_disabled":false,"rental_uris":{"android":"levelo://app?vid=f6290769-c7e5-4fbe-8266-cd0c71e918dd","ios":"levelo://app?vid=f6290769-c7e5-4fbe-8266-cd0c71e918dd"},"vehicle_type_id":"4","last_reported":1740665386,"current_range_meters":19200,"station_id":"ce4bhmh2rcd13ifvqgmg","pricing_plan_id":"cebpf4jnsgd1na2vs0mg"},{"bike_id":"9d897a88-36f3-414d-a245-fa7e5e676f43","system_id":"levelo_inurba_marseille","lat":43.28408,"lon":5.34997,"is_reserved":false,"is_disabled":false,"rental_uris":{"android":"levelo://app?vid=9d897a88-36f3-414d-a245-fa7e5e676f43","ios":"levelo://app?vid=9d897a88-36f3-414d-a245-fa7e5e676f43"},"vehicle_type_id":"4","last_reported":1740665386,"current_range_meters":19200,"station_id":"ce4bhbh2rcd13ifvqepg","pricing_plan_id":"cebpf4jnsgd1na2vs0mg"},{"bike_id":"364b209e-752e-45ea-b26c-06b2552c1833","system_id":"levelo_inurba_marseille","lat":43.23201,"lon":5.35542,"is_reserved":false,"is_disabled":false,"rental_uris":{"android":"levelo://app?vid=364b209e-752e-45ea-b26c-06b2552c1833","ios":"levelo://app?vid=364b209e-752e-45ea-b26c-06b2552c1833"},"vehicle_type_id":"4","last_reported":1740665386,"current_range_meters":19200,"station_id":"ce4bhu92rcd13ifvqi70","pricing_plan_id":"cebpf4jnsgd1na2vs0mg"},{"bike_id":"4219d3a6-08bc-41b8-8017-9df16be62c6c","system_id":"levelo_inurba_marseille","lat":43.30144,"lon":5.3742,"is_reserved":false,"is_disabled":false,"rental_uris":{"android":"levelo://app?vid=4219d3a6-08bc-41b8-8017-9df16be62c6c","ios":"levelo://app?vid=4219d3a6-08bc-41b8-8017-9df16be62c6c"},"vehicle_type_id":"4","last_reported":1740665386,"current_range_meters":19200,"station_id":"ce4bgs92rcd13ifvqcc0","pricing_plan_id":"cebpf4jnsgd1na2vs0mg"},{"bike_id":"e13a1a47-29bb-41d6-b479-d2746f986693","system_id":"levelo_inurba_marseille","lat":43.30465,"lon":5.38865,"is_reserved":false,"is_disabled":false,"rental_uris":{"android":"levelo://app?vid=e13a1a47-29bb-41d6-b479-d2746f986693","ios":"levelo://app?vid=e13a1a47-29bb-41d6-b479-d2746f986693"},"vehicle_type_id":"4","last_reported":1740665386,"current_range_meters":19200,"station_id":"ce4bgk12rcd13ifvqbi0","pricing_plan_id":"cebpf4jnsgd1na2vs0mg"},{"bike_id":"49e9cdc7-76a5-4b66-ae2d-61c73beb73a8","system_id":"levelo_inurba_marseille","lat":43.24182,"lon":5.36377,"is_reserved":false,"is_disabled":false,"rental_uris":{"android":"levelo://app?vid=49e9cdc7-76a5-4b66-ae2d-61c73beb73a8","ios":"levelo://app?vid=49e9cdc7-76a5-4b66-ae2d-61c73beb73a8"},"vehicle_type_id":"4","last_reported":1740665386,"current_range_meters":19200,"station_id":"cpo36qri1sfpv3e86is0","pricing_plan_id":"cebpf4jnsgd1na2vs0mg"},{"bike_id":"3a70790f-c755-4858-ae51-dcce4024b075","system_id":"levelo_inurba_marseille","lat":43.32358,"lon":5.3676,"is_reserved":false,"is_disabled":false,"rental_uris":{"android":"levelo://app?vid=3a70790f-c755-4858-ae51-dcce4024b075","ios":"levelo://app?vid=3a70790f-c755-4858-ae51-dcce4024b075"},"vehicle_type_id":"4","last_reported":1740665386,"current_range_meters":19200,"station_id":"ce4bhsh2rcd13ifvqi2g","pricing_plan_id":"cebpf4jnsgd1na2vs0mg"},{"bike_id":"cc901a8b-e1f6-4fc0-a7df-7dc4d5db4bc4","system_id":"levelo_inurba_marseille","lat":43.27621,"lon":5.36107,"is_reserved":false,"is_disabled":false,"rental_uris":{"android":"levelo://app?vid=cc901a8b-e1f6-4fc0-a7df-7dc4d5db4bc4","ios":"levelo://app?vid=cc901a8b-e1f6-4fc0-a7df-7dc4d5db4bc4"},"vehicle_type_id":"4","last_reported":1740665386,"current_range_meters":19200,"station_id":"ce4bgj92rcd13ifvqbe0","pricing_plan_id":"cebpf4jnsgd1na2vs0mg"},{"bike_id":"d45b1e76-b01c-443a-8f72-de7657881e6e","system_id":"levelo_inurba_marseille","lat":43.31276,"lon":5.40178,"is_reserved":false,"is_disabled":false,"rental_uris":{"android":"levelo://app?vid=d45b1e76-b01c-443a-8f72-de7657881e6e","ios":"levelo://app?vid=d45b1e76-b01c-443a-8f72-de7657881e6e"},"vehicle_type_id":"4","last_reported":1740665386,"current_range_meters":19200,"station_id":"ce4bh092rcd13ifvqd30","pricing_plan_id":"cebpf4jnsgd1na2vs0mg"},{"bike_id":"480f3a54-f773-4d18-93d1-f8afa7b0f2dc","system_id":"levelo_inurba_marseille","lat":43.232,"lon":5.3555,"is_reserved":false,"is_disabled":false,"rental_uris":{"android":"levelo://app?vid=480f3a54-f773-4d18-93d1-f8afa7b0f2dc","ios":"levelo://app?vid=480f3a54-f773-4d18-93d1-f8afa7b0f2dc"},"vehicle_type_id":"4","last_reported":1740665386,"current_range_meters":19600,"station_id":"ce4bhu92rcd13ifvqi70","pricing_plan_id":"cebpf4jnsgd1na2vs0mg"},{"bike_id":"97b1a7d0-f094-4fd6-a5cb-df9a446efb52","system_id":"levelo_inurba_marseille","lat":43.26213,"lon":5.37431,"is_reserved":false,"is_disabled":false,"rental_uris":{"android":"levelo://app?vid=97b1a7d0-f094-4fd6-a5cb-df9a446efb52","ios":"levelo://app?vid=97b1a7d0-f094-4fd6-a5cb-df9a446efb52"},"vehicle_type_id":"4","last_reported":1740665386,"current_range_meters":19600,"station_id":"ce4bhgp2rcd13ifvqfc0","pricing_plan_id":"cebpf4jnsgd1na2vs0mg"},{"bike_id":"6b701f3c-5eaf-4191-819b-4aa6701fc7c5","system_id":"levelo_inurba_marseille","lat":43.30554,"lon":5.3668,"is_reserved":false,"is_disabled":false,"rental_uris":{"android":"levelo://app?vid=6b701f3c-5eaf-4191-819b-4aa6701fc7c5","ios":"levelo://app?vid=6b701f3c-5eaf-4191-819b-4aa6701fc7c5"},"vehicle_type_id":"4","last_reported":1740665386,"current_range_meters":19600,"station_id":"ce4bgrp2rcd13ifvqc9g","pricing_plan_id":"cebpf4jnsgd1na2vs0mg"},{"bike_id":"d79774a6-7426-41ac-b7c6-85789974d608","system_id":"levelo_inurba_marseille","lat":43.25579,"lon":5.38231,"is_reserved":false,"is_disabled":false,"rental_uris":{"android":"levelo://app?vid=d79774a6-7426-41ac-b7c6-85789974d608","ios":"levelo://app?vid=d79774a6-7426-41ac-b7c6-85789974d608"},"vehicle_type_id":"4","last_reported":1740665386,"current_range_meters":19600,"station_id":"ce4bhih2rcd13ifvqfs0","pricing_plan_id":"cebpf4jnsgd1na2vs0mg"},{"bike_id":"361cce23-a07b-4ccc-af8a-16c41be6227c","system_id":"levelo_inurba_marseille","lat":43.23156,"lon":5.43705,"is_reserved":false,"is_disabled":false,"rental_uris":{"android":"levelo://app?vid=361cce23-a07b-4ccc-af8a-16c41be6227c","ios":"levelo://app?vid=361cce23-a07b-4ccc-af8a-16c41be6227c"},"vehicle_type_id":"4","last_reported":1740665386,"current_range_meters":16800,"station_id":"ce4bhmp2rcd13ifvqgog","pricing_plan_id":"cebpf4jnsgd1na2vs0mg"},{"bike_id":"0d13e7df-c145-4385-890e-8775fd528b0b","system_id":"levelo_inurba_marseille","lat":43.30101,"lon":5.39066,"is_reserved":false,"is_disabled":false,"rental_uris":{"android":"levelo://app?vid=0d13e7df-c145-4385-890e-8775fd528b0b","ios":"levelo://app?vid=0d13e7df-c145-4385-890e-8775fd528b0b"},"vehicle_type_id":"4","last_reported":1740665386,"current_range_meters":19600,"station_id":"ce4bh192rcd13ifvqdb0","pricing_plan_id":"cebpf4jnsgd1na2vs0mg"},{"bike_id":"7d94683b-b89e-43f9-b64c-38f219b6c2cc","system_id":"levelo_inurba_marseille","lat":43.30467,"lon":5.379,"is_reserved":false,"is_disabled":false,"rental_uris":{"android":"levelo://app?vid=7d94683b-b89e-43f9-b64c-38f219b6c2cc","ios":"levelo://app?vid=7d94683b-b89e-43f9-b64c-38f219b6c2cc"},"vehicle_type_id":"4","last_reported":1740665386,"current_range_meters":20000,"station_id":"ce4bgup2rcd13ifvqcn0","pricing_plan_id":"cebpf4jnsgd1na2vs0mg"},{"bike_id":"ca91aba4-7441-4a5f-929a-340f6c3947b6","system_id":"levelo_inurba_marseille","lat":43.29262,"lon":5.37618,"is_reserved":false,"is_disabled":false,"rental_uris":{"android":"levelo://app?vid=ca91aba4-7441-4a5f-929a-340f6c3947b6","ios":"levelo://app?vid=ca91aba4-7441-4a5f-929a-340f6c3947b6"},"vehicle_type_id":"4","last_reported":1740665386,"current_range_meters":20000,"station_id":"ce4bgi12rcd13ifvqb80","pricing_plan_id":"cebpf4jnsgd1na2vs0mg"},{"bike_id":"56d43a83-ed8a-4764-a474-325a90fec59b","system_id":"levelo_inurba_marseille","lat":43.28396,"lon":5.34992,"is_reserved":false,"is_disabled":false,"rental_uris":{"android":"levelo://app?vid=56d43a83-ed8a-4764-a474-325a90fec59b","ios":"levelo://app?vid=56d43a83-ed8a-4764-a474-325a90fec59b"},"vehicle_type_id":"4","last_reported":1740665386,"current_range_meters":20000,"station_id":"ce4bhbh2rcd13ifvqepg","pricing_plan_id":"cebpf4jnsgd1na2vs0mg"},{"bike_id":"b8fa2ca2-6b95-4f88-9ffb-4e677b8234e1","system_id":"levelo_inurba_marseille","lat":43.29784,"lon":5.39354,"is_reserved":false,"is_disabled":false,"rental_uris":{"android":"levelo://app?vid=b8fa2ca2-6b95-4f88-9ffb-4e677b8234e1","ios":"levelo://app?vid=b8fa2ca2-6b95-4f88-9ffb-4e677b8234e1"},"vehicle_type_id":"4","last_reported":1740665386,"current_range_meters":19200,"station_id":"chh1huq6cuj3fo74tm60","pricing_plan_id":"cebpf4jnsgd1na2vs0mg"},{"bike_id":"ea88eeff-ab95-483c-984b-a79d3d691bd1","system_id":"levelo_inurba_marseille","lat":43.28426,"lon":5.34981,"is_reserved":false,"is_disabled":false,"rental_uris":{"android":"levelo://app?vid=ea88eeff-ab95-483c-984b-a79d3d691bd1","ios":"levelo://app?vid=ea88eeff-ab95-483c-984b-a79d3d691bd1"},"vehicle_type_id":"4","last_reported":1740665386,"current_range_meters":20400,"station_id":"ce4bhbh2rcd13ifvqepg","pricing_plan_id":"cebpf4jnsgd1na2vs0mg"},{"bike_id":"6c809b34-8418-4eb7-9e7f-65fdc8fb72bf","system_id":"levelo_inurba_marseille","lat":43.25744,"lon":5.41081,"is_reserved":false,"is_disabled":false,"rental_uris":{"android":"levelo://app?vid=6c809b34-8418-4eb7-9e7f-65fdc8fb72bf","ios":"levelo://app?vid=6c809b34-8418-4eb7-9e7f-65fdc8fb72bf"},"vehicle_type_id":"4","last_reported":1740665386,"current_range_meters":20800,"station_id":"ce4bhkp2rcd13ifvqgd0","pricing_plan_id":"cebpf4jnsgd1na2vs0mg"},{"bike_id":"3ac6d349-7f3b-4afb-90e3-1a9891d5f3df","system_id":"levelo_inurba_marseille","lat":43.30643,"lon":5.40096,"is_reserved":false,"is_disabled":false,"rental_uris":{"android":"levelo://app?vid=3ac6d349-7f3b-4afb-90e3-1a9891d5f3df","ios":"levelo://app?vid=3ac6d349-7f3b-4afb-90e3-1a9891d5f3df"},"vehicle_type_id":"4","last_reported":1740665386,"current_range_meters":20400,"station_id":"ce4bh112rcd13ifvqda0","pricing_plan_id":"cebpf4jnsgd1na2vs0mg"},{"bike_id":"325d8a8e-4fc7-4e96-8746-257f13daed92","system_id":"levelo_inurba_marseille","lat":43.28426,"lon":5.39229,"is_reserved":false,"is_disabled":false,"rental_uris":{"android":"levelo://app?vid=325d8a8e-4fc7-4e96-8746-257f13daed92","ios":"levelo://app?vid=325d8a8e-4fc7-4e96-8746-257f13daed92"},"vehicle_type_id":"4","last_reported":1740665386,"current_range_meters":20800,"station_id":"ce4bhoh2rcd13ifvqh5g","pricing_plan_id":"cebpf4jnsgd1na2vs0mg"},{"bike_id":"1a46ac03-44c7-470e-9406-cf8f673c0b5f","system_id":"levelo_inurba_marseille","lat":43.25586,"lon":5.3823,"is_reserved":false,"is_disabled":false,"rental_uris":{"android":"levelo://app?vid=1a46ac03-44c7-470e-9406-cf8f673c0b5f","ios":"levelo://app?vid=1a46ac03-44c7-470e-9406-cf8f673c0b5f"},"vehicle_type_id":"4","last_reported":1740665386,"current_range_meters":20400,"station_id":"ce4bhih2rcd13ifvqfs0","pricing_plan_id":"cebpf4jnsgd1na2vs0mg"},{"bike_id":"c1d8a564-c97e-4596-8a7b-62ac4e5f3805","system_id":"levelo_inurba_marseille","lat":43.29802,"lon":5.38102,"is_reserved":false,"is_disabled":false,"rental_uris":{"android":"levelo://app?vid=c1d8a564-c97e-4596-8a7b-62ac4e5f3805","ios":"levelo://app?vid=c1d8a564-c97e-4596-8a7b-62ac4e5f3805"},"vehicle_type_id":"4","last_reported":1740665386,"current_range_meters":20400,"station_id":"ce4bgip2rcd13ifvqbb0","pricing_plan_id":"cebpf4jnsgd1na2vs0mg"},{"bike_id":"f25970b3-d9be-4de5-8b73-fd10218c1a88","system_id":"levelo_inurba_marseille","lat":43.28156,"lon":5.42642,"is_reserved":false,"is_disabled":false,"rental_uris":{"android":"levelo://app?vid=f25970b3-d9be-4de5-8b73-fd10218c1a88","ios":"levelo://app?vid=f25970b3-d9be-4de5-8b73-fd10218c1a88"},"vehicle_type_id":"4","last_reported":1740665386,"current_range_meters":20800,"station_id":"ce4bhnh2rcd13ifvqgug","pricing_plan_id":"cebpf4jnsgd1na2vs0mg"},{"bike_id":"cb5c449c-5130-49cb-8bd8-10935c2bcbe6","system_id":"levelo_inurba_marseille","lat":43.27619,"lon":5.36109,"is_reserved":false,"is_disabled":false,"rental_uris":{"android":"levelo://app?vid=cb5c449c-5130-49cb-8bd8-10935c2bcbe6","ios":"levelo://app?vid=cb5c449c-5130-49cb-8bd8-10935c2bcbe6"},"vehicle_type_id":"4","last_reported":1740665386,"current_range_meters":20400,"station_id":"ce4bgj92rcd13ifvqbe0","pricing_plan_id":"cebpf4jnsgd1na2vs0mg"},