{"last_updated":1685254100,"ttl":30,"version":"2.2","data":{"bikes":[{"bike_id":"3a42e916-6d64-42c0-aa63-1e21abc55533","system_id":"levelo_inurba_marseille","lat":43.313391,"lon":5.36706,"is_reserved":false,"is_disabled":false,"rental_uris":{"android":"levelo://app?vid=3a42e916-6d64-42c0-aa63-1e21abc55533","ios":"levelo://app?vid=3a42e916-6d64-42c0-aa63-1e21abc55533"},"vehicle_type_id":"4","last_reported":1685254100,"current_range_meters":23200,"station_id":"ce4bgr92rcd13ifvqc6g","pricing_plan_id":"free"},{"bike_id":"8fd2e0c8-bac6-4eee-b8d6-2d8c07e07c02","system_id":"levelo_inurba_marseille","lat":43.313391,"lon":5.36706,"is_reserved":false,"is_disabled":false,"rental_uris":{"android":"levelo://app?vid=8fd2e0c8-bac6-4eee-b8d6-2d8c07e07c02","ios":"levelo://app?vid=8fd2e0c8-bac6-4eee-b8d6-2d8c07e07c02"},"vehicle_type_id":"4","last_reported":1685254100,"current_range_meters":30400,"station_id":"ce4bgr92rcd13ifvqc6g","pricing_plan_id":"free"},{"bike_id":"cb7acf26-0f78-4607-bf58-c48ed53150c3","system_id":"levelo_inurba_marseille","lat":43.313391,"lon":5.36706,"is_reserved":false,"is_disabled":false,"rental_uris":{"android":"levelo://app?vid=cb7acf26-0f78-4607-bf58-c48ed53150c3","ios":"levelo://app?vid=cb7acf26-0f78-4607-bf58-c48ed53150c3"},"vehicle_type_id":"4","last_reported":1685254100,"current_range_meters":9600,"station_id":"ce4bgr92rcd13ifvqc6g","pricing_plan_id":"free"},{"bike_id":"075b303d-fd8a-40fa-acf3-935ff42905b9","system_id":"levelo_inurba_marseille","lat":43.312239,"lon":5.368562,"is_reserved":false,"is_disabled":false,"rental_uris":{"android":"levelo://app?vid=075b303d-fd8a-40fa-acf3-935ff42905b9","ios":"levelo://app?vid=075b303d-fd8a-40fa-acf3-935ff42905b9"},"vehicle_type_id":"4","last_reported":1685254100,"current_range_meters":24000,"station_id":"ce4bgl92rcd13ifvqbq0","pricing_plan_id":"free"},{"bike_id":"acf08d59-ec52-4e8f-9a37-896a500fdcb4","system_id":"levelo_inurba_marseille","lat":43.312239,"lon":5.368562,"is_reserved":false,"is_disabled":false,"rental_uris":{"android":"levelo://app?vid=acf08d59-ec52-4e8f-9a37-896a500fdcb4","ios":"levelo://app?vid=acf08d59-ec52-4e8f-9a37-896a500fdcb4"},"vehicle_type_id":"4","last_reported":1685254100,"current_range_meters":28000,"station_id":"ce4bgl92rcd13ifvqbq0","pricing_plan_id":"free"},{"bike_id":"03599b92-07a4-4470-ae7d-d44cbdcad97f","system_id":"levelo_inurba_marseille","lat":43.312239,"lon":5.368562,"is_reserved":false,"is_disabled":false,"rental_uris":{"android":"levelo://app?vid=03599b92-07a4-4470-ae7d-d44cbdcad97f","ios":"levelo://app?vid=03599b92-07a4-4470-ae7d-d44cbdcad97f"},"vehicle_type_id":"4","last_reported":1685254100,"current_range_meters":28400,"station_id":"ce4bgl92rcd13ifvqbq0","pricing_plan_id":"free"},{"bike_id":"57469489-9058-4306-86b2-d63d9adfce16","system_id":"levelo_inurba_marseille","lat":43.312239,"lon":5.368562,"is_reserved":false,"is_disabled":false,"rental_uris":{"android":"levelo://app?vid=57469489-9058-4306-86b2-d63d9adfce16","ios":"levelo://app?vid=57469489-9058-4306-86b2-d63d9adfce16"},"vehicle_type_id":"4","last_reported":1685254100,"current_range_meters":26400,"station_id":"ce4bgl92rcd13ifvqbq0","pricing_plan_id":"free"},{"bike_id":"12e8f98e-800e-495b-ab80-51a570493864","system_id":"levelo_inurba_marseille","lat":43.312239,"lon":5.368562,"is_reserved":false,"is_disabled":false,"rental_uris":{"android":"levelo://app?vid=12e8f98e-800e-495b-ab80-51a570493864","ios":"levelo://app?vid=12e8f98e-800e-495b-ab80-51a570493864"},"vehicle_type_id":"4","last_reported":1685254100,"current_range_meters":24400,"station_id":"ce4bgl92rcd13ifvqbq0","pricing_plan_id":"free"},{"bike_id":"79e42267-e5f2-44c4-97a2-1ea50a3ad8ac","system_id":"levelo_inurba_marseille","lat":43.312239,"lon":5.368562,"is_reserved":false,"is_disabled":false,"rental_uris":{"android":"levelo://app?vid=79e42267-e5f2-44c4-97a2-1ea50a3ad8ac","ios":"levelo://app?vid=79e42267-e5f2-44c4-97a2-1ea50a3ad8ac"},"vehicle_type_id":"4","last_reported":1685254100,"current_range_meters":30000,"station_id":"ce4bgl92rcd13ifvqbq0","pricing_plan_id":"free"},{"bike_id":"ee110a6c-389b-482b-88f3-0c275c83727e","system_id":"levelo_inurba_marseille","lat":43.312239,"lon":5.368562,"is_reserved":false,"is_disabled":false,"rental_uris":{"android":"levelo://app?vid=ee110a6c-389b-482b-88f3-0c275c83727e","ios":"levelo://app?vid=ee110a6c-389b-482b-88f3-0c275c83727e"},"vehicle_type_id":"4","last_reported":1685254100,"current_range_meters":30800,"station_id":"ce4bgl92rcd13ifvqbq0","pricing_plan_id":"free"},{"bike_id":"00279c37-e4ed-4a2c-86e4-dad1f9515497","system_id":"levelo_inurba_marseille","lat":43.31231,"lon":5.36865,"is_reserved":false,"is_disabled":false,"rental_uris":{"android":"levelo://app?vid=00279c37-e4ed-4a2c-86e4-dad1f9515497","ios":"levelo://app?vid=00279c37-e4ed-4a2c-86e4-dad1f9515497"},"vehicle_type_id":"4","last_reported":1685254100,"current_range_meters":31200,"station_id":"ce4bgl92rcd13ifvqbq0","pricing_plan_id":"free"},{"bike_id":"54716154-8db0-4266-ab8e-a58a594b5020","system_id":"levelo_inurba_marseille","lat":43.312239,"lon":5.368562,"is_reserved":false,"is_disabled":false,"rental_uris":{"android":"levelo://app?vid=54716154-8db0-4266-ab8e-a58a594b5020","ios":"levelo://app?vid=54716154-8db0-4266-ab8e-a58a594b5020"},"vehicle_type_id":"4","last_reported":1685254100,"current_range_meters":24400,"station_id":"ce4bgl92rcd13ifvqbq0","pricing_plan_id":"free"},{"bike_id":"5b06548f-d68b-492b-8c43-01c6c48b81e2","system_id":"levelo_inurba_marseille","lat":43.31531,"lon":5.36514,"is_reserved":false,"is_disabled":false,"rental_uris":{"android":"levelo://app?vid=5b06548f-d68b-492b-8c43-01c6c48b81e2","ios":"levelo://app?vid=5b06548f-d68b-492b-8c43-01c6c48b81e2"},"vehicle_type_id":"4","last_reported":1685254100,"current_range_meters":31200,"station_id":"","pricing_plan_id":"free"},{"bike_id":"68e3481e-67d1-40b4-99a6-ca4b1b4946d7","system_id":"levelo_inurba_marseille","lat":43.309076,"lon":5.368465,"is_reserved":false,"is_disabled":false,"rental_uris":{"android":"levelo://app?vid=68e3481e-67d1-40b4-99a6-ca4b1b4946d7","ios":"levelo://app?vid=68e3481e-67d1-40b4-99a6-ca4b1b4946d7"},"vehicle_type_id":"4","last_reported":1685254100,"current_range_meters":28000,"station_id":"ce4bgn92rcd13ifvqbvg","pricing_plan_id":"free"},{"bike_id":"9ddb5361-5243-40b4-a8f9-dddba96b4ada","system_id":"levelo_inurba_marseille","lat":43.314811,"lon":5.373103,"is_reserved":false,"is_disabled":false,"rental_uris":{"android":"levelo://app?vid=9ddb5361-5243-40b4-a8f9-dddba96b4ada","ios":"levelo://app?vid=9ddb5361-5243-40b4-a8f9-dddba96b4ada"},"vehicle_type_id":"4","last_reported":1685254100,"current_range_meters":28000,"station_id":"ce4bgt12rcd13ifvqcd0","pricing_plan_id":"free"},{"bike_id":"e37c5480-aeae-4112-bda6-63cf0729ecb6","system_id":"levelo_inurba_marseille","lat":43.314811,"lon":5.373103,"is_reserved":false,"is_disabled":false,"rental_uris":{"android":"levelo://app?vid=e37c5480-aeae-4112-bda6-63cf0729ecb6","ios":"levelo://app?vid=e37c5480-aeae-4112-bda6-63cf0729ecb6"},"vehicle_type_id":"4","last_reported":1685254100,"current_range_meters":29600,"station_id":"ce4bgt12rcd13ifvqcd0","pricing_plan_id":"free"},{"bike_id":"f862f341-4f27-4bbe-a21e-d704734e8203","system_id":"levelo_inurba_marseille","lat":43.314811,"lon":5.373103,"is_reserved":false,"is_disabled":false,"rental_uris":{"android":"levelo://app?vid=f862f341-4f27-4bbe-a21e-d704734e8203","ios":"levelo://app?vid=f862f341-4f27-4bbe-a21e-d704734e8203"},"vehicle_type_id":"4","last_reported":1685254100,"current_range_meters":20000,"station_id":"ce4bgt12rcd13ifvqcd0","pricing_plan_id":"free"},{"bike_id":"271b9f02-3d05-4d0f-bc60-9ef42c2aceba","system_id":"levelo_inurba_marseille","lat":43.314811,"lon":5.373103,"is_reserved":false,"is_disabled":false,"rental_uris":{"android":"levelo://app?vid=271b9f02-3d05-4d0f-bc60-9ef42c2aceba","ios":"levelo://app?vid=271b9f02-3d05-4d0f-bc60-9ef42c2aceba"},"vehicle_type_id":"4","last_reported":1685254100,"current_range_meters":23600,"station_id":"ce4bgt12rcd13ifvqcd0","pricing_plan_id":"free"},{"bike_id":"667033fb-c72a-4bb5-a994-76e4233ed5a0","system_id":"levelo_inurba_marseille","lat":43.314811,"lon":5.373103,"is_reserved":false,"is_disabled":false,"rental_uris":{"android":"levelo://app?vid=667033fb-c72a-4bb5-a994-76e4233ed5a0","ios":"levelo://app?vid=667033fb-c72a-4bb5-a994-76e4233ed5a0"},"vehicle_type_id":"4","last_reported":1685254100,"current_range_meters":31200,"station_id":"ce4bgt12rcd13ifvqcd0","pricing_plan_id":"free"},{"bike_id":"80a2520f-d9a7-4588-ad0c-a0842882ce82","system_id":"levelo_inurba_marseille","lat":43.314811,"lon":5.373103,"is_reserved":false,"is_disabled":false,"rental_uris":{"android":"levelo://app?vid=80a2520f-d9a7-4588-ad0c-a0842882ce82","ios":"levelo://app?vid=80a2520f-d9a7-4588-ad0c-a0842882ce82"},"vehicle_type_id":"4","last_reported":1685254100,"current_range_meters":13600,"station_id":"ce4bgt12rcd13ifvqcd0","pricing_plan_id":"free"},{"bike_id":"0048c1dd-6865-4786-8657-80943829bac2","system_id":"levelo_inurba_marseille","lat":43.314811,"lon":5.373103,"is_reserved":false,"is_disabled":false,"rental_uris":{"android":"levelo://app?vid=0048c1dd-6865-4786-8657-80943829bac2","ios":"levelo://app?vid=0048c1dd-6865-4786-8657-80943829bac2"},"vehicle_type_id":"4","last_reported":1685254100,"current_range_meters":20000,"station_id":"ce4bgt12rcd13ifvqcd0","pricing_plan_id":"free"},{"bike_id":"3e9021a9-d90d-4642-8e3f-6881d791c35d","system_id":"levelo_inurba_marseille","lat":43.3149,"lon":5.37312,"is_reserved":false,"is_disabled":false,"rental_uris":{"android":"levelo://app?vid=3e9021a9-d90d-4642-8e3f-6881d791c35d","ios":"levelo://app?vid=3e9021a9-d90d-4642-8e3f-6881d791c35d"},"vehicle_type_id":"4","last_reported":1685254100,"current_range_meters":31200,"station_id":"ce4bgt12rcd13ifvqcd0","pricing_plan_id":"free"},{"bike_id":"7bb58c5b-d3cd-4500-b7be-09f6127da20e","system_id":"levelo_inurba_marseille","lat":43.308614,"lon":5.372098,"is_reserved":false,"is_disabled":false,"rental_uris":{"android":"levelo://app?vid=7bb58c5b-d3cd-4500-b7be-09f6127da20e","ios":"levelo://app?vid=7bb58c5b-d3cd-4500-b7be-09f6127da20e"},"vehicle_type_id":"4","last_reported":1685254100,"current_range_meters":22000,"station_id":"ce4bguh2rcd13ifvqckg","pricing_plan_id":"free"},{"bike_id":"15a79423-842c-4cc9-92fc-54b57333bb87","system_id":"levelo_inurba_marseille","lat":43.308614,"lon":5.372098,"is_reserved":false,"is_disabled":false,"rental_uris":{"android":"levelo://app?vid=15a79423-842c-4cc9-92fc-54b57333bb87","ios":"levelo://app?vid=15a79423-842c-4cc9-92fc-54b57333bb87"},"vehicle_type_id":"4","last_reported":1685254100,"current_range_meters":18400,"station_id":"ce4bguh2rcd13ifvqckg","pricing_plan_id":"free"},{"bike_id":"c2e602da-a594-43df-9218-c8a136832e35","system_id":"levelo_inurba_marseille","lat":43.305714,"lon":5.365633,"is_reserved":false,"is_disabled":false,"rental_uris":{"android":"levelo://app?vid=c2e602da-a594-43df-9218-c8a136832e35","ios":"levelo://app?vid=c2e602da-a594-43df-9218-c8a136832e35"},"vehicle_type_id":"4","last_reported":1685254100,"current_range_meters":31200,"station_id":"ce4bgs12rcd13ifvqcag","pricing_plan_id":"free"},{"bike_id":"ddf8ce5b-60ac-46de-984f-9ac0d7aad2c4","system_id":"levelo_inurba_marseille","lat":43.30603,"lon":5.37218,"is_reserved":false,"is_disabled":false,"rental_uris":{"android":"levelo://app?vid=ddf8ce5b-60ac-46de-984f-9ac0d7aad2c4","ios":"levelo://app?vid=ddf8ce5b-60ac-46de-984f-9ac0d7aad2c4"},"vehicle_type_id":"4","last_reported":1685254100,"current_range_meters":26400,"station_id":"ce4bgqh2rcd13ifvqc4g","pricing_plan_id":"free"},{"bike_id":"7bdfd563-5159-4bff-8301-885e118c08d4","system_id":"levelo_inurba_marseille","lat":43.305989,"lon":5.37225,"is_reserved":false,"is_disabled":false,"rental_uris":{"android":"levelo://app?vid=7bdfd563-5159-4bff-8301-885e118c08d4","ios":"levelo://app?vid=7bdfd563-5159-4bff-8301-885e118c08d4"},"vehicle_type_id":"4","last_reported":1685254100,"current_range_meters":31200,"station_id":"ce4bgqh2rcd13ifvqc4g","pricing_plan_id":"free"},{"bike_id":"9b205c2a-92c3-4b54-9b60-c48f92380b42","system_id":"levelo_inurba_marseille","lat":43.305989,"lon":5.37225,"is_reserved":false,"is_disabled":false,"rental_uris":{"android":"levelo://app?vid=9b205c2a-92c3-4b54-9b60-c48f92380b42","ios":"levelo://app?vid=9b205c2a-92c3-4b54-9b60-c48f92380b42"},"vehicle_type_id":"4","last_reported":1685254100,"current_range_meters":22400,"station_id":"ce4bgqh2rcd13ifvqc4g","pricing_plan_id":"free"},{"bike_id":"64c78913-55e2-42a4-916f-9024a69e741f","system_id":"levelo_inurba_marseille","lat":43.305989,"lon":5.37225,"is_reserved":false,"is_disabled":false,"rental_uris":{"android":"levelo://app?vid=64c78913-55e2-42a4-916f-9024a69e741f","ios":"levelo://app?vid=64c78913-55e2-42a4-916f-9024a69e741f"},"vehicle_type_id":"4","last_reported":1685254100,"current_range_meters":31200,"station_id":"ce4bgqh2rcd13ifvqc4g","pricing_plan_id":"free"},{"bike_id":"fe5d705b-b341-4fe8-b640-fc094e41fd42","system_id":"levelo_inurba_marseille","lat":43.30597,"lon":5.37236,"is_reserved":false,"is_disabled":false,"rental_uris":{"android":"levelo://app?vid=fe5d705b-b341-4fe8-b640-fc094e41fd42","ios":"levelo://app?vid=fe5d705b-b341-4fe8-b640-fc094e41fd42"},"vehicle_type_id":"4","last_reported":1685254100,"current_range_meters":24000,"station_id":"ce4bgqh2rcd13ifvqc4g","pricing_plan_id":"free"},{"bike_id":"93af254d-e288-4071-9c07-3fa64c43c324","system_id":"levelo_inurba_marseille","lat":43.305989,"lon":5.37225,"is_reserved":false,"is_disabled":false,"rental_uris":{"android":"levelo://app?vid=93af254d-e288-4071-9c07-3fa64c43c324","ios":"levelo://app?vid=93af254d-e288-4071-9c07-3fa64c43c324"},"vehicle_type_id":"4","last_reported":1685254100,"current_range_meters":24400,"station_id":"ce4bgqh2rcd13ifvqc4g","pricing_plan_id":"free"},{"bike_id":"7987626b-f5ae-4735-a51a-6e451c0d92af","system_id":"levelo_inurba_marseille","lat":43.3112,"lon":5.3776,"is_reserved":false,"is_disabled":false,"rental_uris":{"android":"levelo://app?vid=7987626b-f5ae-4735-a51a-6e451c0d92af","ios":"levelo://app?vid=7987626b-f5ae-4735-a51a-6e451c0d92af"},"vehicle_type_id":"4","last_reported":1685254100,"current_range_meters":29600,"station_id":"ce4bgt92rcd13ifvqcg0","pricing_plan_id":"free"},{"bike_id":"6de05ba1-8a37-45ea-a06c-aad0c3f25489","system_id":"levelo_inurba_marseille","lat":43.31117,"lon":5.37767,"is_reserved":false,"is_disabled":false,"rental_uris":{"android":"levelo://app?vid=6de05ba1-8a37-45ea-a06c-aad0c3f25489","ios":"levelo://app?vid=6de05ba1-8a37-45ea-a06c-aad0c3f25489"},"vehicle_type_id":"4","last_reported":1685254100,"current_range_meters":30000,"station_id":"ce4bgt92rcd13ifvqcg0","pricing_plan_id":"free"},{"bike_id":"323efece-d233-48ff-858b-564239321437","system_id":"levelo_inurba_marseille","lat":43.3112,"lon":5.37769,"is_reserved":false,"is_disabled":false,"rental_uris":{"android":"levelo://app?vid=323efece-d233-48ff-858b-564239321437","ios":"levelo://app?vid=323efece-d233-48ff-858b-564239321437"},"vehicle_type_id":"4","last_reported":1685254100,"current_range_meters":29600,"station_id":"ce4bgt92rcd13ifvqcg0","pricing_plan_id":"free"},{"bike_id":"3a38e723-0333-42a9-9f40-deb818ff0b44","system_id":"levelo_inurba_marseille","lat":43.31119,"lon":5.37769,"is_reserved":false,"is_disabled":false,"rental_uris":{"android":"levelo://app?vid=3a38e723-0333-42a9-9f40-deb818ff0b44","ios":"levelo://app?vid=3a38e723-0333-42a9-9f40-deb818ff0b44"},"vehicle_type_id":"4","last_reported":1685254100,"current_range_meters":31200,"station_id":"ce4bgt92rcd13ifvqcg0","pricing_plan_id":"free"},{"bike_id":"e01f9e96-0885-420c-97cc-1b15684c33cf","system_id":"levelo_inurba_marseille","lat":43.3112,"lon":5.3777,"is_reserved":false,"is_disabled":false,"rental_uris":{"android":"levelo://app?vid=e01f9e96-0885-420c-97cc-1b15684c33cf","ios":"levelo://app?vid=e01f9e96-0885-420c-97cc-1b15684c33cf"},"vehicle_type_id":"4","last_reported":1685254100,"current_range_meters":19200,"station_id":"ce4bgt92rcd13ifvqcg0","pricing_plan_id":"free"},{"bike_id":"7a8d8c96-d962-4675-bdcd-eebc406e4e1d","system_id":"levelo_inurba_marseille","lat":43.317075,"lon":5.377367,"is_reserved":false,"is_disabled":false,"rental_uris":{"android":"levelo://app?vid=7a8d8c96-d962-4675-bdcd-eebc406e4e1d","ios":"levelo://app?vid=7a8d8c96-d962-4675-bdcd-eebc406e4e1d"},"vehicle_type_id":"4","last_reported":1685254100,"current_range_meters":31200,"station_id":"ce4bgth2rcd13ifvqch0","pricing_plan_id":"free"},{"bike_id":"6817980d-8d43-4171-b0a2-3e96908e7a30","system_id":"levelo_inurba_marseille","lat":43.317075,"lon":5.377367,"is_reserved":false,"is_disabled":false,"rental_uris":{"android":"levelo://app?vid=6817980d-8d43-4171-b0a2-3e96908e7a30","ios":"levelo://app?vid=6817980d-8d43-4171-b0a2-3e96908e7a30"},"vehicle_type_id":"4","last_reported":1685254100,"current_range_meters":28400,"station_id":"ce4bgth2rcd13ifvqch0","pricing_plan_id":"free"},{"bike_id":"fdf10776-3174-4866-9b02-95c7a06d0e47","system_id":"levelo_inurba_marseille","lat":43.317075,"lon":5.377367,"is_reserved":false,"is_disabled":false,"rental_uris":{"android":"levelo://app?vid=fdf10776-3174-4866-9b02-95c7a06d0e47","ios":"levelo://app?vid=fdf10776-3174-4866-9b02-95c7a06d0e47"},"vehicle_type_id":"4","last_reported":1685254100,"current_range_meters":31200,"station_id":"ce4bgth2rcd13ifvqch0","pricing_plan_id":"free"},{"bike_id":"794f0de2-ca9c-47ee-a77a-3f1b232a3e18","system_id":"levelo_inurba_marseille","lat":43.32068,"lon":5.37328,"is_reserved":false,"is_disabled":false,"rental_uris":{"android":"levelo://app?vid=794f0de2-ca9c-47ee-a77a-3f1b232a3e18","ios":"levelo://app?vid=794f0de2-ca9c-47ee-a77a-3f1b232a3e18"},"vehicle_type_id":"4","last_reported":1685254100,"current_range_meters":15600,"station_id":"","pricing_plan_id":"free"},{"bike_id":"04865bb0-6933-4fae-b00c-d2b470ca7796","system_id":"levelo_inurba_marseille","lat":43.315289,"lon":5.380349,"is_reserved":false,"is_disabled":false,"rental_uris":{"android":"levelo://app?vid=04865bb0-6933-4fae-b00c-d2b470ca7796","ios":"levelo://app?vid=04865bb0-6933-4fae-b00c-d2b470ca7796"},"vehicle_type_id":"4","last_reported":1685254100,"current_range_meters":16000,"station_id":"ce4bhsp2rcd13ifvqi50","pricing_plan_id":"free"},{"bike_id":"6afc8233-5c09-413c-a577-6b70851adbf3","system_id":"levelo_inurba_marseille","lat":43.315289,"lon":5.380349,"is_reserved":false,"is_disabled":false,"rental_uris":{"android":"levelo://app?vid=6afc8233-5c09-413c-a577-6b70851adbf3","ios":"levelo://app?vid=6afc8233-5c09-413c-a577-6b70851adbf3"},"vehicle_type_id":"4","last_reported":1685254100,"current_range_meters":31200,"station_id":"ce4bhsp2rcd13ifvqi50","pricing_plan_id":"free"},{"bike_id":"7b218ffe-a6ca-4419-b25c-dd0e5cb12b04","system_id":"levelo_inurba_marseille","lat":43.308012,"lon":5.381511,"is_reserved":false,"is_disabled":false,"rental_uris":{"android":"levelo://app?vid=7b218ffe-a6ca-4419-b25c-dd0e5cb12b04","ios":"levelo://app?vid=7b218ffe-a6ca-4419-b25c-dd0e5cb12b04"},"vehicle_type_id":"4","last_reported":1685254100,"current_range_meters":26800,"station_id":"ce4bgt12rcd13ifvqce0","pricing_plan_id":"free"},{"bike_id":"6fc01ae2-7390-4bd9-9d14-1bf57bbb51a9","system_id":"levelo_inurba_marseille","lat":43.308012,"lon":5.381511,"is_reserved":false,"is_disabled":false,"rental_uris":{"android":"levelo://app?vid=6fc01ae2-7390-4bd9-9d14-1bf57bbb51a9","ios":"levelo://app?vid=6fc01ae2-7390-4bd9-9d14-1bf57bbb51a9"},"vehicle_type_id":"4","last_reported":1685254100,"current_range_meters":28400,"station_id":"ce4bgt12rcd13ifvqce0","pricing_plan_id":"free"},{"bike_id":"3e04f99a-2d24-43c7-99c0-fcaa8fd8f96c","system_id":"levelo_inurba_marseille","lat":43.308012,"lon":5.381511,"is_reserved":false,"is_disabled":false,"rental_uris":{"android":"levelo://app?vid=3e04f99a-2d24-43c7-99c0-fcaa8fd8f96c","ios":"levelo://app?vid=3e04f99a-2d24-43c7-99c0-fcaa8fd8f96c"},"vehicle_type_id":"4","last_reported":1685254100,"current_range_meters":24800,"station_id":"ce4bgt12rcd13ifvqce0","pricing_plan_id":"free"},{"bike_id":"6c4bccde-dfa2-4cdc-b9bc-3f907b7c4092","system_id":"levelo_inurba_marseille","lat":43.304606,"lon":5.379026,"is_reserved":false,"is_disabled":false,"rental_uris":{"android":"levelo://app?vid=6c4bccde-dfa2-4cdc-b9bc-3f907b7c4092","ios":"levelo://app?vid=6c4bccde-dfa2-4cdc-b9bc-3f907b7c4092"},"vehicle_type_id":"4","last_reported":1685254100,"current_range_meters":31600,"station_id":"ce4bgup2rcd13ifvqcn0","pricing_plan_id":"free"},{"bike_id":"33b3afaa-e6b6-40b4-b6ec-6aafe3bff8b8","system_id":"levelo_inurba_marseille","lat":43.304606,"lon":5.379026,"is_reserved":false,"is_disabled":false,"rental_uris":{"android":"levelo://app?vid=33b3afaa-e6b6-40b4-b6ec-6aafe3bff8b8","ios":"levelo://app?vid=33b3afaa-e6b6-40b4-b6ec-6aafe3bff8b8"},"vehicle_type_id":"4","last_reported":1685254100,"current_range_meters":32000,"station_id":"ce4bgup2rcd13ifvqcn0","pricing_plan_id":"free"},{"bike_id":"76fdaf39-f9cb-40ec-957f-288badb084b1","system_id":"levelo_inurba_marseille","lat":43.304606,"lon":5.379026,"is_reserved":false,"is_disabled":false,"rental_uris":{"android":"levelo://app?vid=76fdaf39-f9cb-40ec-957f-288badb084b1","ios":"levelo://app?vid=76fdaf39-f9cb-40ec-957f-288badb084b1"},"vehicle_type_id":"4","last_reported":1685254100,"current_range_meters":31200,"station_id":"ce4bgup2rcd13ifvqcn0","pricing_plan_id":"free"},{"bike_id":"9ae1cbc1-0195-4ad5-b518-e69320f83758","system_id":"levelo_inurba_marseille","lat":43.304606,"lon":5.379026,"is_reserved":false,"is_disabled":false,"rental_uris":{"android":"levelo://app?vid=9ae1cbc1-0195-4ad5-b518-e69320f83758","ios":"levelo://app?vid=9ae1cbc1-0195-4ad5-b518-e69320f83758"},"vehicle_type_id":"4","last_reported":1685254100,"current_range_meters":22800,"station_id":"ce4bgup2rcd13ifvqcn0","pricing_plan_id":"free"},{"bike_id":"c4c1876f-2578-499f-a9c9-7e18fa4b7595","system_id":"levelo_inurba_marseille","lat":43.304606,"lon":5.379026,"is_reserved":false,"is_disabled":false,"rental_uris":{"android":"levelo://app?vid=c4c1876f-2578-499f-a9c9-7e18fa4b7595","ios":"levelo://app?vid=c4c1876f-2578-499f-a9c9-7e18fa4b7595"},"vehicle_type_id":"4","last_reported":1685254100,"current_range_meters":31200,"station_id":"ce4bgup2rcd13ifvqcn0","pricing_plan_id":"free"},{"bike_id":"a070bdba-0082-4351-87e3-81688c3946a8","system_id":"levelo_inurba_marseille","lat":43.304606,"lon":5.379026,"is_reserved":false,"is_disabled":false,"rental_uris":{"android":"levelo://app?vid=a070bdba-0082-4351-87e3-81688c3946a8","ios":"levelo://app?vid=a070bdba-0082-4351-87e3-81688c3946a8"},"vehicle_type_id":"4","last_reported":1685254100,"current_range_meters":30400,"station_id":"ce4bgup2rcd13ifvqcn0","pricing_plan_id":"free"},{"bike_id":"b26123a3-1013-42bc-bcec-3cff91588f8b","system_id":"levelo_inurba_marseille","lat":43.304606,"lon":5.379026,"is_reserved":false,"is_disabled":false,"rental_uris":{"android":"levelo://app?vid=b26123a3-1013-42bc-bcec-3cff91588f8b","ios":"levelo://app?vid=b26123a3-1013-42bc-bcec-3cff91588f8b"},"vehicle_type_id":"4","last_reported":1685254100,"current_range_meters":30400,"station_id":"ce4bgup2rcd13ifvqcn0","pricing_plan_id":"free"},{"bike_id":"d20eb394-6e62-4234-b37b-434b151ec9d2","system_id":"levelo_inurba_marseille","lat":43.304606,"lon":5.379026,"is_reserved":false,"is_disabled":false,"rental_uris":{"android":"levelo://app?vid=d20eb394-6e62-4234-b37b-434b151ec9d2","ios":"levelo://app?vid=d20eb394-6e62-4234-b37b-434b151ec9d2"},"vehicle_type_id":"4","last_reported":1685254100,"current_range_meters":31600,"station_id":"ce4bgup2rcd13ifvqcn0","pricing_plan_id":"free"},{"bike_id":"2aeef588-e828-4599-9e49-3d8017a5bdac","system_id":"levelo_inurba_marseille","lat":43.30456,"lon":5.37897,"is_reserved":false,"is_disabled":false,"rental_uris":{"android":"levelo://app?vid=2aeef588-e828-4599-9e49-3d8017a5bdac","ios":"levelo://app?vid=2aeef588-e828-4599-9e49-3d8017a5bdac"},"vehicle_type_id":"4","last_reported":1685254100,"current_range_meters":22800,"station_id":"ce4bgup2rcd13ifvqcn0","pricing_plan_id":"free"},{"bike_id":"9c4e59d9-b3ab-40b2-b6b3-1420085d4207","system_id":"levelo_inurba_marseille","lat":43.304606,"lon":5.379026,"is_reserved":false,"is_disabled":false,"rental_uris":{"android":"levelo://app?vid=9c4e59d9-b3ab-40b2-b6b3-1420085d4207","ios":"levelo://app?vid=9c4e59d9-b3ab-40b2-b6b3-1420085d4207"},"vehicle_type_id":"4","last_reported":1685254100,"current_range_meters":29600,"station_id":"ce4bgup2rcd13ifvqcn0","pricing_plan_id":"free"},{"bike_id":"5ea03abd-8b7f-44de-85f0-19fe69a134de","system_id":"levelo_inurba_marseille","lat":43.304606,"lon":5.379026,"is_reserved":false,"is_disabled":false,"rental_uris":{"android":"levelo://app?vid=5ea03abd-8b7f-44de-85f0-19fe69a134de","ios":"levelo://app?vid=5ea03abd-8b7f-44de-85f0-19fe69a134de"},"vehicle_type_id":"4","last_reported":1685254100,"current_range_meters":7600,"station_id":"ce4bgup2rcd13ifvqcn0","pricing_plan_id":"free"},{"bike_id":"dd8440cd-6f05-42ce-b825-bba619aea6e3","system_id":"levelo_inurba_marseille","lat":43.30458,"lon":5.37903,"is_reserved":false,"is_disabled":false,"rental_uris":{"android":"levelo://app?vid=dd8440cd-6f05-42ce-b825-bba619aea6e3","ios":"levelo://app?vid=dd8440cd-6f05-42ce-b825-bba619aea6e3"},"vehicle_type_id":"4","last_reported":1685254100,"current_range_meters":0,"station_id":"ce4bgup2rcd13ifvqcn0","pricing_plan_id":"free"},{"bike_id":"6075a11c-9cf1-4e7e-aa9d-8dcf12ddf054","system_id":"levelo_inurba_marseille","lat":43.304606,"lon":5.379026,"is_reserved":false,"is_disabled":false,"rental_uris":{"android":"levelo://app?vid=6075a11c-9cf1-4e7e-aa9d-8dcf12ddf054","ios":"levelo://app?vid=6075a11c-9cf1-4e7e-aa9d-8dcf12ddf054"},"vehicle_type_id":"4","last_reported":1685254100,"current_range_meters":28400,"station_id":"ce4bgup2rcd13ifvqcn0","pricing_plan_id":"free"},{"bike_id":"53507e77-0a34-4507-929f-d3a83a336fdc","system_id":"levelo_inurba_marseille","lat":43.304606,"lon":5.379026,"is_reserved":false,"is_disabled":false,"rental_uris":{"android":"levelo://app?vid=53507e77-0a34-4507-929f-d3a83a336fdc","ios":"levelo://app?vid=53507e77-0a34-4507-929f-d3a83a336fdc"},"vehicle_type_id":"4","last_reported":1685254100,"current_range_meters":28000,"station_id":"ce4bgup2rcd13ifvqcn0","pricing_plan_id":"free"},{"bike_id":"145366a6-e40e-4a1b-a962-f62422789e9d","system_id":"levelo_inurba_marseille","lat":43.304606,"lon":5.379026,"is_reserved":false,"is_disabled":false,"rental_uris":{"android":"levelo://app?vid=145366a6-e40e-4a1b-a962-f62422789e9d","ios":"levelo://app?vid=145366a6-e40e-4a1b-a962-f62422789e9d"},"vehicle_type_id":"4","last_reported":1685254100,"current_range_meters":28800,"station_id":"ce4bgup2rcd13ifvqcn0","pricing_plan_id":"free"},{"bike_id":"dc6e765e-d417-4051-94b0-cbd81b3aacca","system_id":"levelo_inurba_marseille","lat":43.304606,"lon":5.379026,"is_reserved":false,"is_disabled":false,"rental_uris":{"android":"levelo://app?vid=dc6e765e-d417-4051-94b0-cbd81b3aacca","ios":"levelo://app?vid=dc6e765e-d417-4051-94b0-cbd81b3aacca"},"vehicle_type_id":"4","last_reported":1685254100,"current_range_meters":30000,"station_id":"ce4bgup2rcd13ifvqcn0","pricing_plan_id":"free"},{"bike_id":"cb58d36b-0416-4733-95d4-9f87e588b978","system_id":"levelo_inurba_marseille","lat":43.304606,"lon":5.379026,"is_reserved":false,"is_disabled":false,"rental_uris":{"android":"levelo://app?vid=cb58d36b-0416-4733-95d4-9f87e588b978","ios":"levelo://app?vid=cb58d36b-0416-4733-95d4-9f87e588b978"},"vehicle_type_id":"4","last_reported":1685254100,"current_range_meters":31600,"station_id":"ce4bgup2rcd13ifvqcn0","pricing_plan_id":"free"},{"bike_id":"2fbc5055-c647-4db2-8302-ad9b3e5d6a4b","system_id":"levelo_inurba_marseille","lat":43.304606,"lon":5.379026,"is_reserved":false,"is_disabled":false,"rental_uris":{"android":"levelo://app?vid=2fbc5055-c647-4db2-8302-ad9b3e5d6a4b","ios":"levelo://app?vid=2fbc5055-c647-4db2-8302-ad9b3e5d6a4b"},"vehicle_type_id":"4","last_reported":1685254100,"current_range_meters":25600,"station_id":"ce4bgup2rcd13ifvqcn0","pricing_plan_id":"free"},{"bike_id":"697b90ef-99b5-4d33-81db-c4777d375563","system_id":"levelo_inurba_marseille","lat":43.304606,"lon":5.379026,"is_reserved":false,"is_disabled":false,"rental_uris":{"android":"levelo://app?vid=697b90ef-99b5-4d33-81db-c4777d375563","ios":"levelo://app?vid=697b90ef-99b5-4d33-81db-c4777d375563"},"vehicle_type_id":"4","last_reported":1685254100,"current_range_meters":15200,"station_id":"ce4bgup2rcd13ifvqcn0","pricing_plan_id":"free"},{"bike_id":"2eb25aca-9cb4-4be1-ae38-ac14310ecf8d","system_id":"levelo_inurba_marseille","lat":43.31996,"lon":5.38144,"is_reserved":false,"is_disabled":false,"rental_uris":{"android":"levelo://app?vid=2eb25aca-9cb4-4be1-ae38-ac14310ecf8d","ios":"levelo://app?vid=2eb25aca-9cb4-4be1-ae38-ac14310ecf8d"},"vehicle_type_id":"4","last_reported":1685254100,"current_range_meters":24800,"station_id":"ce4bhr12rcd13ifvqhpg","pricing_plan_id":"free"},{"bike_id":"043b8837-d974-4e8a-824b-87c48710aa6e","system_id":"levelo_inurba_marseille","lat":43.31992,"lon":5.3815,"is_reserved":false,"is_disabled":false,"rental_uris":{"android":"levelo://app?vid=043b8837-d974-4e8a-824b-87c48710aa6e","ios":"levelo://app?vid=043b8837-d974-4e8a-824b-87c48710aa6e"},"vehicle_type_id":"4","last_reported":1685254100,"current_range_meters":8400,"station_id":"ce4bhr12rcd13ifvqhpg","pricing_plan_id":"free"},{"bike_id":"6bee5066-104b-471d-aa34-e3cd488a62e0","system_id":"levelo_inurba_marseille","lat":43.31994,"lon":5.3815,"is_reserved":false,"is_disabled":false,"rental_uris":{"android":"levelo://app?vid=6bee5066-104b-471d-aa34-e3cd488a62e0","ios":"levelo://app?vid=6bee5066-104b-471d-aa34-e3cd488a62e0"},"vehicle_type_id":"4","last_reported":1685254100,"current_range_meters":11600,"station_id":"ce4bhr12rcd13ifvqhpg","pricing_plan_id":"free"},{"bike_id":"b0d21c5b-ded1-4826-a49d-1c325436d9c7","system_id":"levelo_inurba_marseille","lat":43.298433,"lon":5.362774,"is_reserved":false,"is_disabled":false,"rental_uris":{"android":"levelo://app?vid=b0d21c5b-ded1-4826-a49d-1c325436d9c7","ios":"levelo://app?vid=b0d21c5b-ded1-4826-a49d-1c325436d9c7"},"vehicle_type_id":"4","last_reported":1685254100,"current_range_meters":24800,"station_id":"ce4bgpp2rcd13ifvqc3g","pricing_plan_id":"free"},{"bike_id":"09fb3098-3420-46d4-b59a-f00d2a810733","system_id":"levelo_inurba_marseille","lat":43.305364,"lon":5.384119,"is_reserved":false,"is_disabled":false,"rental_uris":{"android":"levelo://app?vid=09fb3098-3420-46d4-b59a-f00d2a810733","ios":"levelo://app?vid=09fb3098-3420-46d4-b59a-f00d2a810733"},"vehicle_type_id":"4","last_reported":1685254100,"current_range_meters":15200,"station_id":"ce4bgg92rcd13ifvqb30","pricing_plan_id":"free"},{"bike_id":"1b9932bd-31be-485b-b07f-3c5f81c4ff34","system_id":"levelo_inurba_marseille","lat":43.299243,"lon":5.37481,"is_reserved":false,"is_disabled":false,"rental_uris":{"android":"levelo://app?vid=1b9932bd-31be-485b-b07f-3c5f81c4ff34","ios":"levelo://app?vid=1b9932bd-31be-485b-b07f-3c5f81c4ff34"},"vehicle_type_id":"4","last_reported":1685254100,"current_range_meters":26800,"station_id":"ce4bgjh2rcd13ifvqbg0","pricing_plan_id":"free"},{"bike_id":"f790db2c-f6de-4fa7-9bf6-aa0714cd41b5","system_id":"levelo_inurba_marseille","lat":43.29789,"lon":5.37108,"is_reserved":false,"is_disabled":false,"rental_uris":{"android":"levelo://app?vid=f790db2c-f6de-4fa7-9bf6-aa0714cd41b5","ios":"levelo://app?vid=f790db2c-f6de-4fa7-9bf6-aa0714cd41b5"},"vehicle_type_id":"4","last_reported":1685254100,"current_range_meters":29200,"station_id":"ce4bgop2rcd13ifvqc1g","pricing_plan_id":"free"},{"bike_id":"2e35995e-9628-4f87-ab45-edf7ed2ebdd5","system_id":"levelo_inurba_marseille","lat":43.297794,"lon":5.370888,"is_reserved":false,"is_disabled":false,"rental_uris":{"android":"levelo://app?vid=2e35995e-9628-4f87-ab45-edf7ed2ebdd5","ios":"levelo://app?vid=2e35995e-9628-4f87-ab45-edf7ed2ebdd5"},"vehicle_type_id":"4","last_reported":1685254100,"current_range_meters":28800,"station_id":"ce4bgop2rcd13ifvqc1g","pricing_plan_id":"free"},{"bike_id":"b509cb09-fad7-474b-8839-3794109ab722","system_id":"levelo_inurba_marseille","lat":43.328371,"lon":5.366909,"is_reserved":false,"is_disabled":false,"rental_uris":{"android":"levelo://app?vid=b509cb09-fad7-474b-8839-3794109ab722","ios":"levelo://app?vid=b509cb09-fad7-474b-8839-3794109ab722"},"vehicle_type_id":"4","last_reported":1685254100,"current_range_meters":4400,"station_id":"ce4bhs92rcd13ifvqi0g","pricing_plan_id":"free"},{"bike_id":"6aadd20f-ee22-42f7-9c69-f3066c5dfcf1","system_id":"levelo_inurba_marseille","lat":43.328371,"lon":5.366912,"is_reserved":false,"is_disabled":false,"rental_uris":{"android":"levelo://app?vid=6aadd20f-ee22-42f7-9c69-f3066c5dfcf1","ios":"levelo://app?vid=6aadd20f-ee22-42f7-9c69-f3066c5dfcf1"},"vehicle_type_id":"4","last_reported":1685254100,"current_range_meters":12400,"station_id":"ce4bhs92rcd13ifvqi0g","pricing_plan_id":"free"},{"bike_id":"43d041a6-cdcf-4897-8665-6ed61b2c409c","system_id":"levelo_inurba_marseille","lat":43.32831,"lon":5.36689,"is_reserved":false,"is_disabled":false,"rental_uris":{"android":"levelo://app?vid=43d041a6-cdcf-4897-8665-6ed61b2c409c","ios":"levelo://app?vid=43d041a6-cdcf-4897-8665-6ed61b2c409c"},"vehicle_type_id":"4","last_reported":1685254100,"current_range_meters":30800,"station_id":"ce4bhs92rcd13ifvqi0g","pricing_plan_id":"free"},{"bike_id":"bb1e0ad9-df4b-41de-bdd5-bce01dd60691","system_id":"levelo_inurba_marseille","lat":43.328371,"lon":5.366909,"is_reserved":false,"is_disabled":false,"rental_uris":{"android":"levelo://app?vid=bb1e0ad9-df4b-41de-bdd5-bce01dd60691","ios":"levelo://app?vid=bb1e0ad9-df4b-41de-bdd5-bce01dd60691"},"vehicle_type_id":"4","last_reported":1685254100,"current_range_meters":30800,"station_id":"ce4bhs92rcd13ifvqi0g","pricing_plan_id":"free"},{"bike_id":"fcbed497-d2a8-482c-92d1-ee59547f63b3","system_id":"levelo_inurba_marseille","lat":43.32833,"lon":5.36693,"is_reserved":false,"is_disabled":false,"rental_uris":{"android":"levelo://app?vid=fcbed497-d2a8-482c-92d1-ee59547f63b3","ios":"levelo://app?vid=fcbed497-d2a8-482c-92d1-ee59547f63b3"},"vehicle_type_id":"4","last_reported":1685254100,"current_range_meters":30800,"station_id":"ce4bhs92rcd13ifvqi0g","pricing_plan_id":"free"},{"bike_id":"eb7cc174-3f4f-47f1-b3de-1d6716ac411c","system_id":"levelo_inurba_marseille","lat":43.29573,"lon":5.367355,"is_reserved":false,"is_disabled":false,"rental_uris":{"android":"levelo://app?vid=eb7cc174-3f4f-47f1-b3de-1d6716ac411c","ios":"levelo://app?vid=eb7cc174-3f4f-47f1-b3de-1d6716ac411c"},"vehicle_type_id":"4","last_reported":1685254100,"current_range_meters":30800,"station_id":"ce4bgph2rcd13ifvqc2g","pricing_plan_id":"free"},{"bike_id":"41dcdbc7-c98b-43e4-9658-2f8162abb05d","system_id":"levelo_inurba_marseille","lat":43.29573,"lon":5.367355,"is_reserved":false,"is_disabled":false,"rental_uris":{"android":"levelo://app?vid=41dcdbc7-c98b-43e4-9658-2f8162abb05d","ios":"levelo://app?vid=41dcdbc7-c98b-43e4-9658-2f8162abb05d"},"vehicle_type_id":"4","last_reported":1685254100,"current_range_meters":31200,"station_id":"ce4bgph2rcd13ifvqc2g","pricing_plan_id":"free"},{"bike_id":"b5eb20db-fa1c-4086-9aa7-3ad0735d3c22","system_id":"levelo_inurba_marseille","lat":43.29573,"lon":5.367355,"is_reserved":false,"is_disabled":false,"rental_uris":{"android":"levelo://app?vid=b5eb20db-fa1c-4086-9aa7-3ad0735d3c22","ios":"levelo://app?vid=b5eb20db-fa1c-4086-9aa7-3ad0735d3c22"},"vehicle_type_id":"4","last_reported":1685254100,"current_range_meters":17600,"station_id":"ce4bgph2rcd13ifvqc2g","pricing_plan_id":"free"},{"bike_id":"5080c9e7-7f07-4585-9e6b-ab2af6a74442","system_id":"levelo_inurba_marseille","lat":43.29573,"lon":5.367355,"is_reserved":false,"is_disabled":false,"rental_uris":{"android":"levelo://app?vid=5080c9e7-7f07-4585-9e6b-ab2af6a74442","ios":"levelo://app?vid=5080c9e7-7f07-4585-9e6b-ab2af6a74442"},"vehicle_type_id":"4","last_reported":1685254100,"current_range_meters":17200,"station_id":"ce4bgph2rcd13ifvqc2g","pricing_plan_id":"free"},{"bike_id":"8187ea0d-dfa8-4e22-b48a-24aead8dfefd","system_id":"levelo_inurba_marseille","lat":43.29573,"lon":5.367355,"is_reserved":false,"is_disabled":false,"rental_uris":{"android":"levelo://app?vid=8187ea0d-dfa8-4e22-b48a-24aead8dfefd","ios":"levelo://app?vid=8187ea0d-dfa8-4e22-b48a-24aead8dfefd"},"vehicle_type_id":"4","last_reported":1685254100,"current_range_meters":31200,"station_id":"ce4bgph2rcd13ifvqc2g","pricing_plan_id":"free"},{"bike_id":"73b4403a-6646-4c52-9c42-d932c6ff8826","system_id":"levelo_inurba_marseille","lat":43.29573,"lon":5.367355,"is_reserved":false,"is_disabled":false,"rental_uris":{"android":"levelo://app?vid=73b4403a-6646-4c52-9c42-d932c6ff8826","ios":"levelo://app?vid=73b4403a-6646-4c52-9c42-d932c6ff8826"},"vehicle_type_id":"4","last_reported":1685254100,"current_range_meters":31200,"station_id":"ce4bgph2rcd13ifvqc2g","pricing_plan_id":"free"},{"bike_id":"3cf3e2c2-6754-4924-a3fe-62498061ad2a","system_id":"levelo_inurba_marseille","lat":43.29573,"lon":5.367355,"is_reserved":false,"is_disabled":false,"rental_uris":{"android":"levelo://app?vid=3cf3e2c2-6754-4924-a3fe-62498061ad2a","ios":"levelo://app?vid=3cf3e2c2-6754-4924-a3fe-62498061ad2a"},"vehicle_type_id":"4","last_reported":1685254100,"current_range_meters":31200,"station_id":"ce4bgph2rcd13ifvqc2g","pricing_plan_id":"free"},{"bike_id":"2ba8f9ee-6d30-44db-bacf-dd0b565872c7","system_id":"levelo_inurba_marseille","lat":43.2991,"lon":5.38134,"is_reserved":false,"is_disabled":false,"rental_uris":{"android":"levelo://app?vid=2ba8f9ee-6d30-44db-bacf-dd0b565872c7","ios":"levelo://app?vid=2ba8f9ee-6d30-44db-bacf-dd0b565872c7"},"vehicle_type_id":"4","last_reported":1685254100,"current_range_meters":9600,"station_id":"ce4bgj12rcd13ifvqbc0","pricing_plan_id":"free"},{"bike_id":"aba5e835-2beb-49d1-89b5-17e79fb0ab4e","system_id":"levelo_inurba_marseille","lat":43.299028,"lon":5.381509,"is_reserved":false,"is_disabled":false,"rental_uris":{"android":"levelo://app?vid=aba5e835-2beb-49d1-89b5-17e79fb0ab4e","ios":"levelo://app?vid=aba5e835-2beb-49d1-89b5-17e79fb0ab4e"},"vehicle_type_id":"4","last_reported":1685254100,"current_range_meters":19600,"station_id":"ce4bgj12rcd13ifvqbc0","pricing_plan_id":"free"},{"bike_id":"1e25ada1-c9ba-4c84-aa6a-df5fd5f1c37b","system_id":"levelo_inurba_marseille","lat":43.299028,"lon":5.381509,"is_reserved":false,"is_disabled":false,"rental_uris":{"android":"levelo://app?vid=1e25ada1-c9ba-4c84-aa6a-df5fd5f1c37b","ios":"levelo://app?vid=1e25ada1-c9ba-4c84-aa6a-df5fd5f1c37b"},"vehicle_type_id":"4","last_reported":1685254100,"current_range_meters":30000,"station_id":"ce4bgj12rcd13ifvqbc0","pricing_plan_id":"free"},{"bike_id":"5255c2ea-9b77-4585-adc0-1674ac4f18b3","system_id":"levelo_inurba_marseille","lat":43.29899,"lon":5.38138,"is_reserved":false,"is_disabled":false,"rental_uris":{"android":"levelo://app?vid=5255c2ea-9b77-4585-adc0-1674ac4f18b3","ios":"levelo://app?vid=5255c2ea-9b77-4585-adc0-1674ac4f18b3"},"vehicle_type_id":"4","last_reported":1685254100,"current_range_meters":26400,"station_id":"ce4bgj12rcd13ifvqbc0","pricing_plan_id":"free"},{"bike_id":"dfe4a28d-41dd-404c-bbcf-849151581f89","system_id":"levelo_inurba_marseille","lat":43.299028,"lon":5.381509,"is_reserved":false,"is_disabled":false,"rental_uris":{"android":"levelo://app?vid=dfe4a28d-41dd-404c-bbcf-849151581f89","ios":"levelo://app?vid=dfe4a28d-41dd-404c-bbcf-849151581f89"},"vehicle_type_id":"4","last_reported":1685254100,"current_range_meters":30000,"station_id":"ce4bgj12rcd13ifvqbc0","pricing_plan_id":"free"},{"bike_id":"ec5893e7-3d44-4ee7-b757-f38a270dd8ae","system_id":"levelo_inurba_marseille","lat":43.298037,"lon":5.381066,"is_reserved":false,"is_disabled":false,"rental_uris":{"android":"levelo://app?vid=ec5893e7-3d44-4ee7-b757-f38a270dd8ae","ios":"levelo://app?vid=ec5893e7-3d44-4ee7-b757-f38a270dd8ae"},"vehicle_type_id":"4","last_reported":1685254100,"current_range_meters":31200,"station_id":"ce4bgip2rcd13ifvqbb0","pricing_plan_id":"free"},{"bike_id":"5f60a39f-d48c-4530-be93-6edadd1b921f","system_id":"levelo_inurba_marseille","lat":43.298037,"lon":5.381066,"is_reserved":false,"is_disabled":false,"rental_uris":{"android":"levelo://app?vid=5f60a39f-d48c-4530-be93-6edadd1b921f","ios":"levelo://app?vid=5f60a39f-d48c-4530-be93-6edadd1b921f"},"vehicle_type_id":"4","last_reported":1685254100,"current_range_meters":27200,"station_id":"ce4bgip2rcd13ifvqbb0","pricing_plan_id":"free"},{"bike_id":"ce7edfa9-b0f8-4b49-a70e-a67215c94fcf","system_id":"levelo_inurba_marseille","lat":43.298037,"lon":5.381066,"is_reserved":false,"is_disabled":false,"rental_uris":{"android":"levelo://app?vid=ce7edfa9-b0f8-4b49-a70e-a67215c94fcf","ios":"levelo://app?vid=ce7edfa9-b0f8-4b49-a70e-a67215c94fcf"},"vehicle_type_id":"4","last_reported":1685254100,"current_range_meters":30000,"station_id":"ce4bgip2rcd13ifvqbb0","pricing_plan_id":"free"},{"bike_id":"d42642f6-d510-42b7-a9ec-e7a033aa264a","system_id":"levelo_inurba_marseille","lat":43.304278,"lon":5.388868,"is_reserved":false,"is_disabled":false,"rental_uris":{"android":"levelo://app?vid=d42642f6-d510-42b7-a9ec-e7a033aa264a","ios":"levelo://app?vid=d42642f6-d510-42b7-a9ec-e7a033aa264a"},"vehicle_type_id":"4","last_reported":1685254100,"current_range_meters":17200,"station_id":"ce4bgk12rcd13ifvqbi0","pricing_plan_id":"free"},{"bike_id":"2e80df3e-6950-462d-b60f-5e282f8dfc48","system_id":"levelo_inurba_marseille","lat":43.295748,"lon":5.37522,"is_reserved":false,"is_disabled":false,"rental_uris":{"android":"levelo://app?vid=2e80df3e-6950-462d-b60f-5e282f8dfc48","ios":"levelo://app?vid=2e80df3e-6950-462d-b60f-5e282f8dfc48"},"vehicle_type_id":"4","last_reported":1685254100,"current_range_meters":25600,"station_id":"ce4bgh92rcd13ifvqb50","pricing_plan_id":"free"},{"bike_id":"0a2611d3-c4d0-42ce-bfa6-ba0d16837635","system_id":"levelo_inurba_marseille","lat":43.295748,"lon":5.37522,"is_reserved":false,"is_disabled":false,"rental_uris":{"android":"levelo://app?vid=0a2611d3-c4d0-42ce-bfa6-ba0d16837635","ios":"levelo://app?vid=0a2611d3-c4d0-42ce-bfa6-ba0d16837635"},"vehicle_type_id":"4","last_reported":1685254100,"current_range_meters":26000,"station_id":"ce4bgh92rcd13ifvqb50","pricing_plan_id":"free"},{"bike_id":"9f2b89f8-2282-4914-9695-d4f063ef2d74","system_id":"levelo_inurba_marseille","lat":43.297846,"lon":5.380947,"is_reserved":false,"is_disabled":false,"rental_uris":{"android":"levelo://app?vid=9f2b89f8-2282-4914-9695-d4f063ef2d74","ios":"levelo://app?vid=9f2b89f8-2282-4914-9695-d4f063ef2d74"},"vehicle_type_id":"4","last_reported":1685254100,"current_range_meters":16000,"station_id":"","pricing_plan_id":"free"},{"bike_id":"cea2cb64-5f39-4d3b-8e91-b036c5d9241a","system_id":"levelo_inurba_marseille","lat":43.296277,"lon":5.377108,"is_reserved":false,"is_disabled":false,"rental_uris":{"android":"levelo://app?vid=cea2cb64-5f39-4d3b-8e91-b036c5d9241a","ios":"levelo://app?vid=cea2cb64-5f39-4d3b-8e91-b036c5d9241a"},"vehicle_type_id":"4","last_reported":1685254100,"current_range_meters":27200,"station_id":"ce4bgi92rcd13ifvqb90","pricing_plan_id":"free"},{"bike_id":"0b8f4c3b-094b-4e03-8ae3-55a8693af513","system_id":"levelo_inurba_marseille","lat":43.29787,"lon":5.38117,"is_reserved":false,"is_disabled":false,"rental_uris":{"android":"levelo://app?vid=0b8f4c3b-094b-4e03-8ae3-55a8693af513","ios":"levelo://app?vid=0b8f4c3b-094b-4e03-8ae3-55a8693af513"},"vehicle_type_id":"4","last_reported":1685254100,"current_range_meters":12000,"station_id":"ce4bgip2rcd13ifvqbb0","pricing_plan_id":"free"},{"bike_id":"d38c9143-bb92-4614-83c0-27c2f781521d","system_id":"levelo_inurba_marseille","lat":43.295748,"lon":5.37522,"is_reserved":false,"is_disabled":false,"rental_uris":{"android":"levelo://app?vid=d38c9143-bb92-4614-83c0-27c2f781521d","ios":"levelo://app?vid=d38c9143-bb92-4614-83c0-27c2f781521d"},"vehicle_type_id":"4","last_reported":1685254100,"current_range_meters":31200,"station_id":"ce4bgh92rcd13ifvqb50","pricing_plan_id":"free"},{"bike_id":"0426988f-773e-436d-b380-967311684599","system_id":"levelo_inurba_marseille","lat":43.296277,"lon":5.377108,"is_reserved":false,"is_disabled":false,"rental_uris":{"android":"levelo://app?vid=0426988f-773e-436d-b380-967311684599","ios":"levelo://app?vid=0426988f-773e-436d-b380-967311684599"},"vehicle_type_id":"4","last_reported":1685254100,"current_range_meters":30000,"station_id":"ce4bgi92rcd13ifvqb90","pricing_plan_id":"free"},{"bike_id":"a8160df1-7f9c-4844-b2a6-4cd0c401c286","system_id":"levelo_inurba_marseille","lat":43.29618,"lon":5.37726,"is_reserved":false,"is_disabled":false,"rental_uris":{"android":"levelo://app?vid=a8160df1-7f9c-4844-b2a6-4cd0c401c286","ios":"levelo://app?vid=a8160df1-7f9c-4844-b2a6-4cd0c401c286"},"vehicle_type_id":"4","last_reported":1685254100,"current_range_meters":28800,"station_id":"ce4bgi92rcd13ifvqb90","pricing_plan_id":"free"},{"bike_id":"aed7d468-13cf-4f24-b6b0-ed419210b5d2","system_id":"levelo_inurba_marseille","lat":43.2961,"lon":5.37708,"is_reserved":false,"is_disabled":false,"rental_uris":{"android":"levelo://app?vid=aed7d468-13cf-4f24-b6b0-ed419210b5d2","ios":"levelo://app?vid=aed7d468-13cf-4f24-b6b0-ed419210b5d2"},"vehicle_type_id":"4","last_reported":1685254100,"current_range_meters":31200,"station_id":"ce4bgi92rcd13ifvqb90","pricing_plan_id":"free"},{"bike_id":"fbded0cf-cd8f-4c7e-af9a-57b8d33465b4","system_id":"levelo_inurba_marseille","lat":43.296277,"lon":5.377108,"is_reserved":false,"is_disabled":false,"rental_uris":{"android":"levelo://app?vid=fbded0cf-cd8f-4c7e-af9a-57b8d33465b4","ios":"levelo://app?vid=fbded0cf-cd8f-4c7e-af9a-57b8d33465b4"},"vehicle_type_id":"4","last_reported":1685254100,"current_range_meters":31200,"station_id":"ce4bgi92rcd13ifvqb90","pricing_plan_id":"free"},{"bike_id":"1b64572d-46ee-4017-928d-cdd3a7e5faf4","system_id":"levelo_inurba_marseille","lat":43.29604,"lon":5.37713,"is_reserved":false,"is_disabled":false,"rental_uris":{"android":"levelo://app?vid=1b64572d-46ee-4017-928d-cdd3a7e5faf4","ios":"levelo://app?vid=1b64572d-46ee-4017-928d-cdd3a7e5faf4"},"vehicle_type_id":"4","last_reported":1685254100,"current_range_meters":25600,"station_id":"ce4bgi92rcd13ifvqb90","pricing_plan_id":"free"},{"bike_id":"c202ba0c-46fc-4b0a-b147-1d6a40ad92cc","system_id":"levelo_inurba_marseille","lat":43.299724,"lon":5.384848,"is_reserved":false,"is_disabled":false,"rental_uris":{"android":"levelo://app?vid=c202ba0c-46fc-4b0a-b147-1d6a40ad92cc","ios":"levelo://app?vid=c202ba0c-46fc-4b0a-b147-1d6a40ad92cc"},"vehicle_type_id":"4","last_reported":1685254100,"current_range_meters":29200,"station_id":"ce4bgj92rcd13ifvqbd0","pricing_plan_id":"free"},{"bike_id":"7f49ef87-7fc7-45b0-8263-747245d48ec0","system_id":"levelo_inurba_marseille","lat":43.32363,"lon":5.38886,"is_reserved":false,"is_disabled":false,"rental_uris":{"android":"levelo://app?vid=7f49ef87-7fc7-45b0-8263-747245d48ec0","ios":"levelo://app?vid=7f49ef87-7fc7-45b0-8263-747245d48ec0"},"vehicle_type_id":"4","last_reported":1685254100,"current_range_meters":5200,"station_id":"ce4bhqp2rcd13ifvqhog","pricing_plan_id":"free"},{"bike_id":"4df2b022-8e61-4926-9ad9-419accff5153","system_id":"levelo_inurba_marseille","lat":43.292749,"lon":5.368398,"is_reserved":false,"is_disabled":false,"rental_uris":{"android":"levelo://app?vid=4df2b022-8e61-4926-9ad9-419accff5153","ios":"levelo://app?vid=4df2b022-8e61-4926-9ad9-419accff5153"},"vehicle_type_id":"4","last_reported":1685254100,"current_range_meters":26800,"station_id":"ce4bhbp2rcd13ifvqesg","pricing_plan_id":"free"},{"bike_id":"61a806b0-55c0-4f8d-8958-fccbe690049e","system_id":"levelo_inurba_marseille","lat":43.292749,"lon":5.368398,"is_reserved":false,"is_disabled":false,"rental_uris":{"android":"levelo://app?vid=61a806b0-55c0-4f8d-8958-fccbe690049e","ios":"levelo://app?vid=61a806b0-55c0-4f8d-8958-fccbe690049e"},"vehicle_type_id":"4","last_reported":1685254100,"current_range_meters":26000,"station_id":"ce4bhbp2rcd13ifvqesg","pricing_plan_id":"free"},{"bike_id":"756ea1f4-e582-41e0-b889-b1cc0cbe4904","system_id":"levelo_inurba_marseille","lat":43.292749,"lon":5.368398,"is_reserved":false,"is_disabled":false,"rental_uris":{"android":"levelo://app?vid=756ea1f4-e582-41e0-b889-b1cc0cbe4904","ios":"levelo://app?vid=756ea1f4-e582-41e0-b889-b1cc0cbe4904"},"vehicle_type_id":"4","last_reported":1685254100,"current_range_meters":28000,"station_id":"ce4bhbp2rcd13ifvqesg","pricing_plan_id":"free"},{"bike_id":"df03c25b-6a68-40b3-8aa6-90000e98e512","system_id":"levelo_inurba_marseille","lat":43.305792,"lon":5.393162,"is_reserved":false,"is_disabled":false,"rental_uris":{"android":"levelo://app?vid=df03c25b-6a68-40b3-8aa6-90000e98e512","ios":"levelo://app?vid=df03c25b-6a68-40b3-8aa6-90000e98e512"},"vehicle_type_id":"4","last_reported":1685254100,"current_range_meters":6400,"station_id":"ce4bhap2rcd13ifvqek0","pricing_plan_id":"free"},{"bike_id":"e50905b1-9d19-43da-8b78-e3f1b30bbd0e","system_id":"levelo_inurba_marseille","lat":43.29372,"lon":5.3785,"is_reserved":false,"is_disabled":false,"rental_uris":{"android":"levelo://app?vid=e50905b1-9d19-43da-8b78-e3f1b30bbd0e","ios":"levelo://app?vid=e50905b1-9d19-43da-8b78-e3f1b30bbd0e"},"vehicle_type_id":"4","last_reported":1685254100,"current_range_meters":31200,"station_id":"ce4bgjh2rcd13ifvqbf0","pricing_plan_id":"free"},{"bike_id":"178dc4d7-ab85-4fd9-861a-956abd395c46","system_id":"levelo_inurba_marseille","lat":43.29372,"lon":5.37852,"is_reserved":false,"is_disabled":false,"rental_uris":{"android":"levelo://app?vid=178dc4d7-ab85-4fd9-861a-956abd395c46","ios":"levelo://app?vid=178dc4d7-ab85-4fd9-861a-956abd395c46"},"vehicle_type_id":"4","last_reported":1685254100,"current_range_meters":30000,"station_id":"ce4bgjh2rcd13ifvqbf0","pricing_plan_id":"free"},{"bike_id":"d34fe5b6-ccf0-4263-8428-35feee484d35","system_id":"levelo_inurba_marseille","lat":43.292311,"lon":5.360731,"is_reserved":false,"is_disabled":false,"rental_uris":{"android":"levelo://app?vid=d34fe5b6-ccf0-4263-8428-35feee484d35","ios":"levelo://app?vid=d34fe5b6-ccf0-4263-8428-35feee484d35"},"vehicle_type_id":"4","last_reported":1685254100,"current_range_meters":21600,"station_id":"ce4bhbh2rcd13ifvqeqg","pricing_plan_id":"free"},{"bike_id":"19df5f08-73f9-45b6-92c3-5c9eae1f26dd","system_id":"levelo_inurba_marseille","lat":43.292311,"lon":5.360731,"is_reserved":false,"is_disabled":false,"rental_uris":{"android":"levelo://app?vid=19df5f08-73f9-45b6-92c3-5c9eae1f26dd","ios":"levelo://app?vid=19df5f08-73f9-45b6-92c3-5c9eae1f26dd"},"vehicle_type_id":"4","last_reported":1685254100,"current_range_meters":28800,"station_id":"ce4bhbh2rcd13ifvqeqg","pricing_plan_id":"free"},{"bike_id":"e97e383f-8e9c-4ed3-928e-225cda8d761a","system_id":"levelo_inurba_marseille","lat":43.2936,"lon":5.37835,"is_reserved":false,"is_disabled":false,"rental_uris":{"android":"levelo://app?vid=e97e383f-8e9c-4ed3-928e-225cda8d761a","ios":"levelo://app?vid=e97e383f-8e9c-4ed3-928e-225cda8d761a"},"vehicle_type_id":"4","last_reported":1685254100,"current_range_meters":29600,"station_id":"ce4bgjh2rcd13ifvqbf0","pricing_plan_id":"free"},{"bike_id":"da0dac92-8c86-4c9c-9806-71977c89bfdf","system_id":"levelo_inurba_marseille","lat":43.292311,"lon":5.360731,"is_reserved":false,"is_disabled":false,"rental_uris":{"android":"levelo://app?vid=da0dac92-8c86-4c9c-9806-71977c89bfdf","ios":"levelo://app?vid=da0dac92-8c86-4c9c-9806-71977c89bfdf"},"vehicle_type_id":"4","last_reported":1685254100,"current_range_meters":0,"station_id":"ce4bhbh2rcd13ifvqeqg","pricing_plan_id":"free"},{"bike_id":"b8fdbbac-6453-4f48-95d7-da294e5ab34d","system_id":"levelo_inurba_marseille","lat":43.29195,"lon":5.3581,"is_reserved":false,"is_disabled":false,"rental_uris":{"android":"levelo://app?vid=b8fdbbac-6453-4f48-95d7-da294e5ab34d","ios":"levelo://app?vid=b8fdbbac-6453-4f48-95d7-da294e5ab34d"},"vehicle_type_id":"4","last_reported":1685254100,"current_range_meters":31200,"station_id":"ce4bhb12rcd13ifvqel0","pricing_plan_id":"free"},{"bike_id":"3f5be88a-8d94-47d3-a74c-5cc139e20dd5","system_id":"levelo_inurba_marseille","lat":43.309038,"lon":5.396546,"is_reserved":false,"is_disabled":false,"rental_uris":{"android":"levelo://app?vid=3f5be88a-8d94-47d3-a74c-5cc139e20dd5","ios":"levelo://app?vid=3f5be88a-8d94-47d3-a74c-5cc139e20dd5"},"vehicle_type_id":"4","last_reported":1685254100,"current_range_meters":24400,"station_id":"ce4bh012rcd13ifvqcv0","pricing_plan_id":"free"},{"bike_id":"ffcf7edc-c1ca-4ad0-855c-ea1e0e6c9d23","system_id":"levelo_inurba_marseille","lat":43.291994,"lon":5.357886,"is_reserved":false,"is_disabled":false,"rental_uris":{"android":"levelo://app?vid=ffcf7edc-c1ca-4ad0-855c-ea1e0e6c9d23","ios":"levelo://app?vid=ffcf7edc-c1ca-4ad0-855c-ea1e0e6c9d23"},"vehicle_type_id":"4","last_reported":1685254100,"current_range_meters":25600,"station_id":"ce4bhb12rcd13ifvqel0","pricing_plan_id":"free"},{"bike_id":"39d8afea-5d0c-4be1-b63f-a70222999e3b","system_id":"levelo_inurba_marseille","lat":43.309038,"lon":5.396546,"is_reserved":false,"is_disabled":false,"rental_uris":{"android":"levelo://app?vid=39d8afea-5d0c-4be1-b63f-a70222999e3b","ios":"levelo://app?vid=39d8afea-5d0c-4be1-b63f-a70222999e3b"},"vehicle_type_id":"4","last_reported":1685254100,"current_range_meters":25600,"station_id":"ce4bh012rcd13ifvqcv0","pricing_plan_id":"free"},{"bike_id":"3691cd1e-0d53-4578-a97d-a834947cea1e","system_id":"levelo_inurba_marseille","lat":43.309038,"lon":5.396546,"is_reserved":false,"is_disabled":false,"rental_uris":{"android":"levelo://app?vid=3691cd1e-0d53-4578-a97d-a834947cea1e","ios":"levelo://app?vid=3691cd1e-0d53-4578-a97d-a834947cea1e"},"vehicle_type_id":"4","last_reported":1685254100,"current_range_meters":31200,"station_id":"ce4bh012rcd13ifvqcv0","pricing_plan_id":"free"},{"bike_id":"4707d1c9-9fd1-4741-bab7-13bd73b1e65d","system_id":"levelo_inurba_marseille","lat":43.309038,"lon":5.396546,"is_reserved":false,"is_disabled":false,"rental_uris":{"android":"levelo://app?vid=4707d1c9-9fd1-4741-bab7-13bd73b1e65d","ios":"levelo://app?vid=4707d1c9-9fd1-4741-bab7-13bd73b1e65d"},"vehicle_type_id":"4","last_reported":1685254100,"current_range_meters":21200,"station_id":"ce4bh012rcd13ifvqcv0","pricing_plan_id":"free"},{"bike_id":"e50de379-ba55-481a-937b-8e057d132f69","system_id":"levelo_inurba_marseille","lat":43.291947,"lon":5.357839,"is_reserved":false,"is_disabled":false,"rental_uris":{"android":"levelo://app?vid=e50de379-ba55-481a-937b-8e057d132f69","ios":"levelo://app?vid=e50de379-ba55-481a-937b-8e057d132f69"},"vehicle_type_id":"4","last_reported":1685254100,"current_range_meters":15200,"station_id":"ce4bh9p2rcd13ifvqec0","pricing_plan_id":"free"},{"bike_id":"3908b695-c8fa-4c39-a724-12acf484b7c2","system_id":"levelo_inurba_marseille","lat":43.309038,"lon":5.396546,"is_reserved":false,"is_disabled":false,"rental_uris":{"android":"levelo://app?vid=3908b695-c8fa-4c39-a724-12acf484b7c2","ios":"levelo://app?vid=3908b695-c8fa-4c39-a724-12acf484b7c2"},"vehicle_type_id":"4","last_reported":1685254100,"current_range_meters":31200,"station_id":"ce4bh012rcd13ifvqcv0","pricing_plan_id":"free"},{"bike_id":"3d4f3e62-609d-4631-9ec7-3f0cc7eca0d0","system_id":"levelo_inurba_marseille","lat":43.313291,"lon":5.396838,"is_reserved":false,"is_disabled":false,"rental_uris":{"android":"levelo://app?vid=3d4f3e62-609d-4631-9ec7-3f0cc7eca0d0","ios":"levelo://app?vid=3d4f3e62-609d-4631-9ec7-3f0cc7eca0d0"},"vehicle_type_id":"4","last_reported":1685254100,"current_range_meters":30000,"station_id":"ce4bgvp2rcd13ifvqcu0","pricing_plan_id":"free"},{"bike_id":"198e4ca6-122c-460d-995f-3d52e1307a9f","system_id":"levelo_inurba_marseille","lat":43.313291,"lon":5.396838,"is_reserved":false,"is_disabled":false,"rental_uris":{"android":"levelo://app?vid=198e4ca6-122c-460d-995f-3d52e1307a9f","ios":"levelo://app?vid=198e4ca6-122c-460d-995f-3d52e1307a9f"},"vehicle_type_id":"4","last_reported":1685254100,"current_range_meters":31200,"station_id":"ce4bgvp2rcd13ifvqcu0","pricing_plan_id":"free"},{"bike_id":"b41b3580-052d-4ad8-98f8-af97b014fd0e","system_id":"levelo_inurba_marseille","lat":43.309038,"lon":5.396546,"is_reserved":false,"is_disabled":false,"rental_uris":{"android":"levelo://app?vid=b41b3580-052d-4ad8-98f8-af97b014fd0e","ios":"levelo://app?vid=b41b3580-052d-4ad8-98f8-af97b014fd0e"},"vehicle_type_id":"4","last_reported":1685254100,"current_range_meters":26400,"station_id":"ce4bh012rcd13ifvqcv0","pricing_plan_id":"free"},{"bike_id":"8f3e85ca-22f2-48e5-8e8e-e53ceaa01b55","system_id":"levelo_inurba_marseille","lat":43.29529,"lon":5.385581,"is_reserved":false,"is_disabled":false,"rental_uris":{"android":"levelo://app?vid=8f3e85ca-22f2-48e5-8e8e-e53ceaa01b55","ios":"levelo://app?vid=8f3e85ca-22f2-48e5-8e8e-e53ceaa01b55"},"vehicle_type_id":"4","last_reported":1685254100,"current_range_meters":30000,"station_id":"ce4bgih2rcd13ifvqba0","pricing_plan_id":"free"},{"bike_id":"e45018e9-45db-465e-baec-7731e4f43c2c","system_id":"levelo_inurba_marseille","lat":43.290779,"lon":5.371482,"is_reserved":false,"is_disabled":false,"rental_uris":{"android":"levelo://app?vid=e45018e9-45db-465e-baec-7731e4f43c2c","ios":"levelo://app?vid=e45018e9-45db-465e-baec-7731e4f43c2c"},"vehicle_type_id":"4","last_reported":1685254100,"current_range_meters":22000,"station_id":"ce4bh5p2rcd13ifvqe4g","pricing_plan_id":"free"},{"bike_id":"48788f95-ca5c-4702-9ef5-16aa58f58e79","system_id":"levelo_inurba_marseille","lat":43.302008,"lon":5.394694,"is_reserved":false,"is_disabled":false,"rental_uris":{"android":"levelo://app?vid=48788f95-ca5c-4702-9ef5-16aa58f58e79","ios":"levelo://app?vid=48788f95-ca5c-4702-9ef5-16aa58f58e79"},"vehicle_type_id":"4","last_reported":1685254100,"current_range_meters":24800,"station_id":"ce4bh0p2rcd13ifvqd70","pricing_plan_id":"free"},{"bike_id":"4bf503ce-8b83-4495-a26e-563905011346","system_id":"levelo_inurba_marseille","lat":43.290631,"lon":5.359244,"is_reserved":false,"is_disabled":false,"rental_uris":{"android":"levelo://app?vid=4bf503ce-8b83-4495-a26e-563905011346","ios":"levelo://app?vid=4bf503ce-8b83-4495-a26e-563905011346"},"vehicle_type_id":"4","last_reported":1685254100,"current_range_meters":30400,"station_id":"ce4bha92rcd13ifvqeg0","pricing_plan_id":"free"},{"bike_id":"1cf320f4-322c-49d9-b0d5-c678cd0892bf","system_id":"levelo_inurba_marseille","lat":43.290631,"lon":5.359244,"is_reserved":false,"is_disabled":false,"rental_uris":{"android":"levelo://app?vid=1cf320f4-322c-49d9-b0d5-c678cd0892bf","ios":"levelo://app?vid=1cf320f4-322c-49d9-b0d5-c678cd0892bf"},"vehicle_type_id":"4","last_reported":1685254100,"current_range_meters":28800,"station_id":"ce4bha92rcd13ifvqeg0","pricing_plan_id":"free"},{"bike_id":"6443c11b-2550-43fb-aacf-5ea54aa3bfa5","system_id":"levelo_inurba_marseille","lat":43.289468,"lon":5.363719,"is_reserved":false,"is_disabled":false,"rental_uris":{"android":"levelo://app?vid=6443c11b-2550-43fb-aacf-5ea54aa3bfa5","ios":"levelo://app?vid=6443c11b-2550-43fb-aacf-5ea54aa3bfa5"},"vehicle_type_id":"4","last_reported":1685254100,"current_range_meters":29600,"station_id":"ce4bhc92rcd13ifvqetg","pricing_plan_id":"free"},{"bike_id":"a57aba8d-a605-4a46-874b-b1e3d0290d21","system_id":"levelo_inurba_marseille","lat":43.289468,"lon":5.363719,"is_reserved":false,"is_disabled":false,"rental_uris":{"android":"levelo://app?vid=a57aba8d-a605-4a46-874b-b1e3d0290d21","ios":"levelo://app?vid=a57aba8d-a605-4a46-874b-b1e3d0290d21"},"vehicle_type_id":"4","last_reported":1685254100,"current_range_meters":25200,"station_id":"ce4bhc92rcd13ifvqetg","pricing_plan_id":"free"},{"bike_id":"c4240052-af4b-4a67-8a79-2999d623b0f2","system_id":"levelo_inurba_marseille","lat":43.289468,"lon":5.363719,"is_reserved":false,"is_disabled":false,"rental_uris":{"android":"levelo://app?vid=c4240052-af4b-4a67-8a79-2999d623b0f2","ios":"levelo://app?vid=c4240052-af4b-4a67-8a79-2999d623b0f2"},"vehicle_type_id":"4","last_reported":1685254100,"current_range_meters":18000,"station_id":"ce4bhc92rcd13ifvqetg","pricing_plan_id":"free"},{"bike_id":"fad5a791-2f27-449b-ab7d-5ac273581a8b","system_id":"levelo_inurba_marseille","lat":43.292644,"lon":5.384257,"is_reserved":false,"is_disabled":false,"rental_uris":{"android":"levelo://app?vid=fad5a791-2f27-449b-ab7d-5ac273581a8b","ios":"levelo://app?vid=fad5a791-2f27-449b-ab7d-5ac273581a8b"},"vehicle_type_id":"4","last_reported":1685254100,"current_range_meters":25200,"station_id":"ce4bh692rcd13ifvqea0","pricing_plan_id":"free"},{"bike_id":"7c3ab663-4dd0-40c3-8e28-f5767c02ba13","system_id":"levelo_inurba_marseille","lat":43.290103,"lon":5.356114,"is_reserved":false,"is_disabled":false,"rental_uris":{"android":"levelo://app?vid=7c3ab663-4dd0-40c3-8e28-f5767c02ba13","ios":"levelo://app?vid=7c3ab663-4dd0-40c3-8e28-f5767c02ba13"},"vehicle_type_id":"4","last_reported":1685254100,"current_range_meters":31200,"station_id":"ce4bhb92rcd13ifvqen0","pricing_plan_id":"free"},{"bike_id":"a5b872a2-848c-48c8-bebb-236626597d7f","system_id":"levelo_inurba_marseille","lat":43.33048,"lon":5.38918,"is_reserved":false,"is_disabled":false,"rental_uris":{"android":"levelo://app?vid=a5b872a2-848c-48c8-bebb-236626597d7f","ios":"levelo://app?vid=a5b872a2-848c-48c8-bebb-236626597d7f"},"vehicle_type_id":"4","last_reported":1685254100,"current_range_meters":0,"station_id":"ce4bhr92rcd13ifvqhrg","pricing_plan_id":"free"},{"bike_id":"ed325013-c58c-4f8b-bd9d-85b02e48b028","system_id":"levelo_inurba_marseille","lat":43.290104,"lon":5.356111,"is_reserved":false,"is_disabled":false,"rental_uris":{"android":"levelo://app?vid=ed325013-c58c-4f8b-bd9d-85b02e48b028","ios":"levelo://app?vid=ed325013-c58c-4f8b-bd9d-85b02e48b028"},"vehicle_type_id":"4","last_reported":1685254100,"current_range_meters":28400,"station_id":"ce4bhb92rcd13ifvqen0","pricing_plan_id":"free"},{"bike_id":"871d596f-fe2b-470e-b24b-c530880b7333","system_id":"levelo_inurba_marseille","lat":43.290103,"lon":5.356114,"is_reserved":false,"is_disabled":false,"rental_uris":{"android":"levelo://app?vid=871d596f-fe2b-470e-b24b-c530880b7333","ios":"levelo://app?vid=871d596f-fe2b-470e-b24b-c530880b7333"},"vehicle_type_id":"4","last_reported":1685254100,"current_range_meters":31200,"station_id":"ce4bhb92rcd13ifvqen0","pricing_plan_id":"free"},{"bike_id":"2d759238-5a21-4e82-8654-0cc832487615","system_id":"levelo_inurba_marseille","lat":43.290104,"lon":5.356111,"is_reserved":false,"is_disabled":false,"rental_uris":{"android":"levelo://app?vid=2d759238-5a21-4e82-8654-0cc832487615","ios":"levelo://app?vid=2d759238-5a21-4e82-8654-0cc832487615"},"vehicle_type_id":"4","last_reported":1685254100,"current_range_meters":30800,"station_id":"ce4bhb92rcd13ifvqen0","pricing_plan_id":"free"},{"bike_id":"c33dc78d-713d-45c8-98c0-10452768e466","system_id":"levelo_inurba_marseille","lat":43.290104,"lon":5.356111,"is_reserved":false,"is_disabled":false,"rental_uris":{"android":"levelo://app?vid=c33dc78d-713d-45c8-98c0-10452768e466","ios":"levelo://app?vid=c33dc78d-713d-45c8-98c0-10452768e466"},"vehicle_type_id":"4","last_reported":1685254100,"current_range_meters":31200,"station_id":"ce4bhb92rcd13ifvqen0","pricing_plan_id":"free"},{"bike_id":"cf1c5316-08cb-4a96-b5f9-4a2e9c273251","system_id":"levelo_inurba_marseille","lat":43.290104,"lon":5.356111,"is_reserved":false,"is_disabled":false,"rental_uris":{"android":"levelo://app?vid=cf1c5316-08cb-4a96-b5f9-4a2e9c273251","ios":"levelo://app?vid=cf1c5316-08cb-4a96-b5f9-4a2e9c273251"},"vehicle_type_id":"4","last_reported":1685254100,"current_range_meters":30800,"station_id":"ce4bhb92rcd13ifvqen0","pricing_plan_id":"free"},{"bike_id":"8b7b1f09-00cb-4db8-8b0f-ab045e8b3d2a","system_id":"levelo_inurba_marseille","lat":43.290103,"lon":5.356114,"is_reserved":false,"is_disabled":false,"rental_uris":{"android":"levelo://app?vid=8b7b1f09-00cb-4db8-8b0f-ab045e8b3d2a","ios":"levelo://app?vid=8b7b1f09-00cb-4db8-8b0f-ab045e8b3d2a"},"vehicle_type_id":"4","last_reported":1685254100,"current_range_meters":19600,"station_id":"ce4bhb92rcd13ifvqen0","pricing_plan_id":"free"},{"bike_id":"db4d7cc8-6d2f-4e11-9b70-ddbe55020cc2","system_id":"levelo_inurba_marseille","lat":43.290104,"lon":5.356111,"is_reserved":false,"is_disabled":false,"rental_uris":{"android":"levelo://app?vid=db4d7cc8-6d2f-4e11-9b70-ddbe55020cc2","ios":"levelo://app?vid=db4d7cc8-6d2f-4e11-9b70-ddbe55020cc2"},"vehicle_type_id":"4","last_reported":1685254100,"current_range_meters":31200,"station_id":"ce4bhb92rcd13ifvqen0","pricing_plan_id":"free"},{"bike_id":"e3360585-d866-4008-94e9-84bcfb5dd519","system_id":"levelo_inurba_marseille","lat":43.290104,"lon":5.356111,"is_reserved":false,"is_disabled":false,"rental_uris":{"android":"levelo://app?vid=e3360585-d866-4008-94e9-84bcfb5dd519","ios":"levelo://app?vid=e3360585-d866-4008-94e9-84bcfb5dd519"},"vehicle_type_id":"4","last_reported":1685254100,"current_range_meters":30000,"station_id":"ce4bhb92rcd13ifvqen0","pricing_plan_id":"free"},{"bike_id":"a4e0828e-f643-4cfa-a448-07f993a175f8","system_id":"levelo_inurba_marseille","lat":43.297814,"lon":5.393513,"is_reserved":false,"is_disabled":false,"rental_uris":{"android":"levelo://app?vid=a4e0828e-f643-4cfa-a448-07f993a175f8","ios":"levelo://app?vid=a4e0828e-f643-4cfa-a448-07f993a175f8"},"vehicle_type_id":"4","last_reported":1685254100,"current_range_meters":21200,"station_id":"chh1huq6cuj3fo74tm60","pricing_plan_id":"free"},{"bike_id":"c3e21d02-2e15-4b9e-8bd9-3bb28fd6eaf8","system_id":"levelo_inurba_marseille","lat":43.297814,"lon":5.393513,"is_reserved":false,"is_disabled":false,"rental_uris":{"android":"levelo://app?vid=c3e21d02-2e15-4b9e-8bd9-3bb28fd6eaf8","ios":"levelo://app?vid=c3e21d02-2e15-4b9e-8bd9-3bb28fd6eaf8"},"vehicle_type_id":"4","last_reported":1685254100,"current_range_meters":400,"station_id":"chh1huq6cuj3fo74tm60","pricing_plan_id":"free"},{"bike_id":"1266e5b4-4dbc-4b57-a322-6dc430a4d3c6","system_id":"levelo_inurba_marseille","lat":43.297814,"lon":5.393513,"is_reserved":false,"is_disabled":false,"rental_uris":{"android":"levelo://app?vid=1266e5b4-4dbc-4b57-a322-6dc430a4d3c6","ios":"levelo://app?vid=1266e5b4-4dbc-4b57-a322-6dc430a4d3c6"},"vehicle_type_id":"4","last_reported":1685254100,"current_range_meters":23600,"station_id":"chh1huq6cuj3fo74tm60","pricing_plan_id":"free"},{"bike_id":"329f1bfc-5ec2-4806-bd47-f75aa031ce2c","system_id":"levelo_inurba_marseille","lat":43.289741,"lon":5.378306,"is_reserved":false,"is_disabled":false,"rental_uris":{"android":"levelo://app?vid=329f1bfc-5ec2-4806-bd47-f75aa031ce2c","ios":"levelo://app?vid=329f1bfc-5ec2-4806-bd47-f75aa031ce2c"},"vehicle_type_id":"4","last_reported":1685254100,"current_range_meters":30000,"station_id":"ce4bh9p2rcd13ifvqed0","pricing_plan_id":"free"},{"bike_id":"6998de38-a55c-4b3a-bd04-b22a4edaead1","system_id":"levelo_inurba_marseille","lat":43.295169,"lon":5.390426,"is_reserved":false,"is_disabled":false,"rental_uris":{"android":"levelo://app?vid=6998de38-a55c-4b3a-bd04-b22a4edaead1","ios":"levelo://app?vid=6998de38-a55c-4b3a-bd04-b22a4edaead1"},"vehicle_type_id":"4","last_reported":1685254100,"current_range_meters":30000,"station_id":"ce4bh3p2rcd13ifvqdp0","pricing_plan_id":"free"},{"bike_id":"4d5f94e9-ec95-4c97-baa6-ec2890691057","system_id":"levelo_inurba_marseille","lat":43.2889,"lon":5.37614,"is_reserved":false,"is_disabled":false,"rental_uris":{"android":"levelo://app?vid=4d5f94e9-ec95-4c97-baa6-ec2890691057","ios":"levelo://app?vid=4d5f94e9-ec95-4c97-baa6-ec2890691057"},"vehicle_type_id":"4","last_reported":1685254100,"current_range_meters":0,"station_id":"","pricing_plan_id":"free"},{"bike_id":"6b8bfe0e-79d8-4ef4-9273-2bd074f816c8","system_id":"levelo_inurba_marseille","lat":43.2901,"lon":5.381269,"is_reserved":false,"is_disabled":false,"rental_uris":{"android":"levelo://app?vid=6b8bfe0e-79d8-4ef4-9273-2bd074f816c8","ios":"levelo://app?vid=6b8bfe0e-79d8-4ef4-9273-2bd074f816c8"},"vehicle_type_id":"4","last_reported":1685254100,"current_range_meters":31600,"station_id":"ce4bh4p2rcd13ifvqe1g","pricing_plan_id":"free"},{"bike_id":"a9265fd8-1f60-4442-9ae8-74abb7168a14","system_id":"levelo_inurba_marseille","lat":43.2901,"lon":5.381269,"is_reserved":false,"is_disabled":false,"rental_uris":{"android":"levelo://app?vid=a9265fd8-1f60-4442-9ae8-74abb7168a14","ios":"levelo://app?vid=a9265fd8-1f60-4442-9ae8-74abb7168a14"},"vehicle_type_id":"4","last_reported":1685254100,"current_range_meters":28800,"station_id":"ce4bh4p2rcd13ifvqe1g","pricing_plan_id":"free"},{"bike_id":"9a845598-8e45-48aa-8fcb-5c5c11fc349f","system_id":"levelo_inurba_marseille","lat":43.2901,"lon":5.381269,"is_reserved":false,"is_disabled":false,"rental_uris":{"android":"levelo://app?vid=9a845598-8e45-48aa-8fcb-5c5c11fc349f","ios":"levelo://app?vid=9a845598-8e45-48aa-8fcb-5c5c11fc349f"},"vehicle_type_id":"4","last_reported":1685254100,"current_range_meters":31200,"station_id":"ce4bh4p2rcd13ifvqe1g","pricing_plan_id":"free"},{"bike_id":"3602f915-fbb9-46cc-97f5-ae9049b0a714","system_id":"levelo_inurba_marseille","lat":43.2901,"lon":5.381269,"is_reserved":false,"is_disabled":false,"rental_uris":{"android":"levelo://app?vid=3602f915-fbb9-46cc-97f5-ae9049b0a714","ios":"levelo://app?vid=3602f915-fbb9-46cc-97f5-ae9049b0a714"},"vehicle_type_id":"4","last_reported":1685254100,"current_range_meters":12400,"station_id":"ce4bh4p2rcd13ifvqe1g","pricing_plan_id":"free"},{"bike_id":"9b29275b-729d-4abd-8e3a-ccdbf7e95a6d","system_id":"levelo_inurba_marseille","lat":43.2901,"lon":5.381269,"is_reserved":false,"is_disabled":false,"rental_uris":{"android":"levelo://app?vid=9b29275b-729d-4abd-8e3a-ccdbf7e95a6d","ios":"levelo://app?vid=9b29275b-729d-4abd-8e3a-ccdbf7e95a6d"},"vehicle_type_id":"4","last_reported":1685254100,"current_range_meters":31200,"station_id":"ce4bh4p2rcd13ifvqe1g","pricing_plan_id":"free"},{"bike_id":"658c5d47-e559-4bad-9424-7b7157eaf7cd","system_id":"levelo_inurba_marseille","lat":43.2901,"lon":5.381269,"is_reserved":false,"is_disabled":false,"rental_uris":{"android":"levelo://app?vid=658c5d47-e559-4bad-9424-7b7157eaf7cd","ios":"levelo://app?vid=658c5d47-e559-4bad-9424-7b7157eaf7cd"},"vehicle_type_id":"4","last_reported":1685254100,"current_range_meters":24400,"station_id":"ce4bh4p2rcd13ifvqe1g","pricing_plan_id":"free"},{"bike_id":"72325bb2-26c4-4c60-9a04-cd4f31bfd9fd","system_id":"levelo_inurba_marseille","lat":43.290094,"lon":5.381264,"is_reserved":false,"is_disabled":false,"rental_uris":{"android":"levelo://app?vid=72325bb2-26c4-4c60-9a04-cd4f31bfd9fd","ios":"levelo://app?vid=72325bb2-26c4-4c60-9a04-cd4f31bfd9fd"},"vehicle_type_id":"4","last_reported":1685254100,"current_range_meters":27200,"station_id":"ce4bh4p2rcd13ifvqe1g","pricing_plan_id":"free"},{"bike_id":"f5d9054c-c165-4cc3-aae0-d46dcf9a22d8","system_id":"levelo_inurba_marseille","lat":43.28856,"lon":5.358371,"is_reserved":false,"is_disabled":false,"rental_uris":{"android":"levelo://app?vid=f5d9054c-c165-4cc3-aae0-d46dcf9a22d8","ios":"levelo://app?vid=f5d9054c-c165-4cc3-aae0-d46dcf9a22d8"},"vehicle_type_id":"4","last_reported":1685254100,"current_range_meters":30000,"station_id":"ce4bhb12rcd13ifvqem0","pricing_plan_id":"free"},{"bike_id":"c7092241-435a-4861-b47a-61bf8223f0ef","system_id":"levelo_inurba_marseille","lat":43.28856,"lon":5.358371,"is_reserved":false,"is_disabled":false,"rental_uris":{"android":"levelo://app?vid=c7092241-435a-4861-b47a-61bf8223f0ef","ios":"levelo://app?vid=c7092241-435a-4861-b47a-61bf8223f0ef"},"vehicle_type_id":"4","last_reported":1685254100,"current_range_meters":26000,"station_id":"ce4bhb12rcd13ifvqem0","pricing_plan_id":"free"},{"bike_id":"5b210c31-2caa-4bda-94f6-2f2cef6a7b3d","system_id":"levelo_inurba_marseille","lat":43.28856,"lon":5.358371,"is_reserved":false,"is_disabled":false,"rental_uris":{"android":"levelo://app?vid=5b210c31-2caa-4bda-94f6-2f2cef6a7b3d","ios":"levelo://app?vid=5b210c31-2caa-4bda-94f6-2f2cef6a7b3d"},"vehicle_type_id":"4","last_reported":1685254100,"current_range_meters":22000,"station_id":"ce4bhb12rcd13ifvqem0","pricing_plan_id":"free"},{"bike_id":"fda2259f-75f4-40fc-b9bd-feea68406595","system_id":"levelo_inurba_marseille","lat":43.28856,"lon":5.358371,"is_reserved":false,"is_disabled":false,"rental_uris":{"android":"levelo://app?vid=fda2259f-75f4-40fc-b9bd-feea68406595","ios":"levelo://app?vid=fda2259f-75f4-40fc-b9bd-feea68406595"},"vehicle_type_id":"4","last_reported":1685254100,"current_range_meters":24000,"station_id":"ce4bhb12rcd13ifvqem0","pricing_plan_id":"free"},{"bike_id":"0cb78c0d-f39d-48a3-a71f-fa97373ef2de","system_id":"levelo_inurba_marseille","lat":43.28856,"lon":5.358371,"is_reserved":false,"is_disabled":false,"rental_uris":{"android":"levelo://app?vid=0cb78c0d-f39d-48a3-a71f-fa97373ef2de","ios":"levelo://app?vid=0cb78c0d-f39d-48a3-a71f-fa97373ef2de"},"vehicle_type_id":"4","last_reported":1685254100,"current_range_meters":30000,"station_id":"ce4bhb12rcd13ifvqem0","pricing_plan_id":"free"},{"bike_id":"d9f4db81-28be-4ad7-9ee5-44c1f2ac60d8","system_id":"levelo_inurba_marseille","lat":43.28856,"lon":5.358371,"is_reserved":false,"is_disabled":false,"rental_uris":{"android":"levelo://app?vid=d9f4db81-28be-4ad7-9ee5-44c1f2ac60d8","ios":"levelo://app?vid=d9f4db81-28be-4ad7-9ee5-44c1f2ac60d8"},"vehicle_type_id":"4","last_reported":1685254100,"current_range_meters":29600,"station_id":"ce4bhb12rcd13ifvqem0","pricing_plan_id":"free"},{"bike_id":"77de8fe1-2212-4455-b83f-d676ac785fff","system_id":"levelo_inurba_marseille","lat":43.28856,"lon":5.358371,"is_reserved":false,"is_disabled":false,"rental_uris":{"android":"levelo://app?vid=77de8fe1-2212-4455-b83f-d676ac785fff","ios":"levelo://app?vid=77de8fe1-2212-4455-b83f-d676ac785fff"},"vehicle_type_id":"4","last_reported":1685254100,"current_range_meters":28000,"station_id":"ce4bhb12rcd13ifvqem0","pricing_plan_id":"free"},{"bike_id":"22215a0a-3557-473a-83a7-eca68f10ed30","system_id":"levelo_inurba_marseille","lat":43.28856,"lon":5.358371,"is_reserved":false,"is_disabled":false,"rental_uris":{"android":"levelo://app?vid=22215a0a-3557-473a-83a7-eca68f10ed30","ios":"levelo://app?vid=22215a0a-3557-473a-83a7-eca68f10ed30"},"vehicle_type_id":"4","last_reported":1685254100,"current_range_meters":31200,"station_id":"ce4bhb12rcd13ifvqem0","pricing_plan_id":"free"},{"bike_id":"b48c1304-f6e1-4593-b030-3c2e26a8e44b","system_id":"levelo_inurba_marseille","lat":43.28856,"lon":5.358371,"is_reserved":false,"is_disabled":false,"rental_uris":{"android":"levelo://app?vid=b48c1304-f6e1-4593-b030-3c2e26a8e44b","ios":"levelo://app?vid=b48c1304-f6e1-4593-b030-3c2e26a8e44b"},"vehicle_type_id":"4","last_reported":1685254100,"current_range_meters":25600,"station_id":"ce4bhb12rcd13ifvqem0","pricing_plan_id":"free"},{"bike_id":"493860ce-e063-4684-ab33-c360eaf64153","system_id":"levelo_inurba_marseille","lat":43.33744,"lon":5.37451,"is_reserved":false,"is_disabled":false,"rental_uris":{"android":"levelo://app?vid=493860ce-e063-4684-ab33-c360eaf64153","ios":"levelo://app?vid=493860ce-e063-4684-ab33-c360eaf64153"},"vehicle_type_id":"4","last_reported":1685254100,"current_range_meters":19200,"station_id":"","pricing_plan_id":"free"},{"bike_id":"c67b547c-3fcb-4384-8614-e15f558fec55","system_id":"levelo_inurba_marseille","lat":43.33744,"lon":5.37451,"is_reserved":false,"is_disabled":false,"rental_uris":{"android":"levelo://app?vid=c67b547c-3fcb-4384-8614-e15f558fec55","ios":"levelo://app?vid=c67b547c-3fcb-4384-8614-e15f558fec55"},"vehicle_type_id":"4","last_reported":1685254100,"current_range_meters":28400,"station_id":"","pricing_plan_id":"free"},{"bike_id":"141c14ea-594b-43ee-894e-8c44af1dcd73","system_id":"levelo_inurba_marseille","lat":43.33751,"lon":5.37444,"is_reserved":false,"is_disabled":false,"rental_uris":{"android":"levelo://app?vid=141c14ea-594b-43ee-894e-8c44af1dcd73","ios":"levelo://app?vid=141c14ea-594b-43ee-894e-8c44af1dcd73"},"vehicle_type_id":"4","last_reported":1685254100,"current_range_meters":8800,"station_id":"","pricing_plan_id":"free"},{"bike_id":"a4deecbd-8c43-41e4-901c-3b6aa98e9100","system_id":"levelo_inurba_marseille","lat":43.30645,"lon":5.40071,"is_reserved":false,"is_disabled":false,"rental_uris":{"android":"levelo://app?vid=a4deecbd-8c43-41e4-901c-3b6aa98e9100","ios":"levelo://app?vid=a4deecbd-8c43-41e4-901c-3b6aa98e9100"},"vehicle_type_id":"4","last_reported":1685254100,"current_range_meters":31200,"station_id":"ce4bh112rcd13ifvqda0","pricing_plan_id":"free"},{"bike_id":"21bebb90-bd37-4351-9ead-f26273aea005","system_id":"levelo_inurba_marseille","lat":43.33754,"lon":5.37433,"is_reserved":false,"is_disabled":false,"rental_uris":{"android":"levelo://app?vid=21bebb90-bd37-4351-9ead-f26273aea005","ios":"levelo://app?vid=21bebb90-bd37-4351-9ead-f26273aea005"},"vehicle_type_id":"4","last_reported":1685254100,"current_range_meters":12800,"station_id":"","pricing_plan_id":"free"},{"bike_id":"b9e3fd8b-5af9-433b-8337-97ca0b886f45","system_id":"levelo_inurba_marseille","lat":43.30642,"lon":5.401031,"is_reserved":false,"is_disabled":false,"rental_uris":{"android":"levelo://app?vid=b9e3fd8b-5af9-433b-8337-97ca0b886f45","ios":"levelo://app?vid=b9e3fd8b-5af9-433b-8337-97ca0b886f45"},"vehicle_type_id":"4","last_reported":1685254100,"current_range_meters":31200,"station_id":"ce4bh112rcd13ifvqda0","pricing_plan_id":"free"},{"bike_id":"3014179c-f4ac-4029-ad8e-41449ecef94b","system_id":"levelo_inurba_marseille","lat":43.30642,"lon":5.401031,"is_reserved":false,"is_disabled":false,"rental_uris":{"android":"levelo://app?vid=3014179c-f4ac-4029-ad8e-41449ecef94b","ios":"levelo://app?vid=3014179c-f4ac-4029-ad8e-41449ecef94b"},"vehicle_type_id":"4","last_reported":1685254100,"current_range_meters":20800,"station_id":"ce4bh112rcd13ifvqda0","pricing_plan_id":"free"},{"bike_id":"cd942fe1-0ae9-4de8-9a9b-c2e1e66e8c3a","system_id":"levelo_inurba_marseille","lat":43.30651,"lon":5.4008,"is_reserved":false,"is_disabled":false,"rental_uris":{"android":"levelo://app?vid=cd942fe1-0ae9-4de8-9a9b-c2e1e66e8c3a","ios":"levelo://app?vid=cd942fe1-0ae9-4de8-9a9b-c2e1e66e8c3a"},"vehicle_type_id":"4","last_reported":1685254100,"current_range_meters":28000,"station_id":"ce4bh112rcd13ifvqda0","pricing_plan_id":"free"},{"bike_id":"2c98c33a-7c0d-4f9d-84bc-5f56597c8b33","system_id":"levelo_inurba_marseille","lat":43.30642,"lon":5.401031,"is_reserved":false,"is_disabled":false,"rental_uris":{"android":"levelo://app?vid=2c98c33a-7c0d-4f9d-84bc-5f56597c8b33","ios":"levelo://app?vid=2c98c33a-7c0d-4f9d-84bc-5f56597c8b33"},"vehicle_type_id":"4","last_reported":1685254100,"current_range_meters":8000,"station_id":"ce4bh112rcd13ifvqda0","pricing_plan_id":"free"},{"bike_id":"41702edf-4954-4782-a5fe-df62d75c2ba7","system_id":"levelo_inurba_marseille","lat":43.30642,"lon":5.401031,"is_reserved":false,"is_disabled":false,"rental_uris":{"android":"levelo://app?vid=41702edf-4954-4782-a5fe-df62d75c2ba7","ios":"levelo://app?vid=41702edf-4954-4782-a5fe-df62d75c2ba7"},"vehicle_type_id":"4","last_reported":1685254100,"current_range_meters":24400,"station_id":"ce4bh112rcd13ifvqda0","pricing_plan_id":"free"},{"bike_id":"b644f69b-acc6-4746-80ec-d3f4847a33fc","system_id":"levelo_inurba_marseille","lat":43.30642,"lon":5.401031,"is_reserved":false,"is_disabled":false,"rental_uris":{"android":"levelo://app?vid=b644f69b-acc6-4746-80ec-d3f4847a33fc","ios":"levelo://app?vid=b644f69b-acc6-4746-80ec-d3f4847a33fc"},"vehicle_type_id":"4","last_reported":1685254100,"current_range_meters":29600,"station_id":"ce4bh112rcd13ifvqda0","pricing_plan_id":"free"},{"bike_id":"5aaf445f-f097-4041-99e9-0b2edc8a39b1","system_id":"levelo_inurba_marseille","lat":43.33758,"lon":5.37442,"is_reserved":false,"is_disabled":false,"rental_uris":{"android":"levelo://app?vid=5aaf445f-f097-4041-99e9-0b2edc8a39b1","ios":"levelo://app?vid=5aaf445f-f097-4041-99e9-0b2edc8a39b1"},"vehicle_type_id":"4","last_reported":1685254100,"current_range_meters":22000,"station_id":"","pricing_plan_id":"free"},{"bike_id":"9f9caa61-1199-47e5-8389-775f97caf260","system_id":"levelo_inurba_marseille","lat":43.30642,"lon":5.401031,"is_reserved":false,"is_disabled":false,"rental_uris":{"android":"levelo://app?vid=9f9caa61-1199-47e5-8389-775f97caf260","ios":"levelo://app?vid=9f9caa61-1199-47e5-8389-775f97caf260"},"vehicle_type_id":"4","last_reported":1685254100,"current_range_meters":16800,"station_id":"ce4bh112rcd13ifvqda0","pricing_plan_id":"free"},{"bike_id":"744e0fcb-70af-4362-8a9b-1a9127116a3c","system_id":"levelo_inurba_marseille","lat":43.3065,"lon":5.40082,"is_reserved":false,"is_disabled":false,"rental_uris":{"android":"levelo://app?vid=744e0fcb-70af-4362-8a9b-1a9127116a3c","ios":"levelo://app?vid=744e0fcb-70af-4362-8a9b-1a9127116a3c"},"vehicle_type_id":"4","last_reported":1685254100,"current_range_meters":19600,"station_id":"ce4bh112rcd13ifvqda0","pricing_plan_id":"free"},{"bike_id":"556c6db1-2600-4c2b-9521-aae8453517c1","system_id":"levelo_inurba_marseille","lat":43.33759,"lon":5.37443,"is_reserved":false,"is_disabled":false,"rental_uris":{"android":"levelo://app?vid=556c6db1-2600-4c2b-9521-aae8453517c1","ios":"levelo://app?vid=556c6db1-2600-4c2b-9521-aae8453517c1"},"vehicle_type_id":"4","last_reported":1685254100,"current_range_meters":15200,"station_id":"","pricing_plan_id":"free"},{"bike_id":"bb3c90e7-cf93-4d15-8128-febdcb13bbd5","system_id":"levelo_inurba_marseille","lat":43.30661,"lon":5.40095,"is_reserved":false,"is_disabled":false,"rental_uris":{"android":"levelo://app?vid=bb3c90e7-cf93-4d15-8128-febdcb13bbd5","ios":"levelo://app?vid=bb3c90e7-cf93-4d15-8128-febdcb13bbd5"},"vehicle_type_id":"4","last_reported":1685254100,"current_range_meters":17200,"station_id":"ce4bh112rcd13ifvqda0","pricing_plan_id":"free"},{"bike_id":"c622c08e-a260-4027-b92a-839107253eb5","system_id":"levelo_inurba_marseille","lat":43.33767,"lon":5.37457,"is_reserved":false,"is_disabled":false,"rental_uris":{"android":"levelo://app?vid=c622c08e-a260-4027-b92a-839107253eb5","ios":"levelo://app?vid=c622c08e-a260-4027-b92a-839107253eb5"},"vehicle_type_id":"4","last_reported":1685254100,"current_range_meters":27200,"station_id":"","pricing_plan_id":"free"},{"bike_id":"8741c984-4330-4fc2-a6fc-63613cd9a09c","system_id":"levelo_inurba_marseille","lat":43.301117,"lon":5.398795,"is_reserved":false,"is_disabled":false,"rental_uris":{"android":"levelo://app?vid=8741c984-4330-4fc2-a6fc-63613cd9a09c","ios":"levelo://app?vid=8741c984-4330-4fc2-a6fc-63613cd9a09c"},"vehicle_type_id":"4","last_reported":1685254100,"current_range_meters":26800,"station_id":"ce4bh0h2rcd13ifvqd40","pricing_plan_id":"free"},{"bike_id":"331d647d-e48c-49a0-8d18-fb4a48782499","system_id":"levelo_inurba_marseille","lat":43.30141,"lon":5.39868,"is_reserved":false,"is_disabled":false,"rental_uris":{"android":"levelo://app?vid=331d647d-e48c-49a0-8d18-fb4a48782499","ios":"levelo://app?vid=331d647d-e48c-49a0-8d18-fb4a48782499"},"vehicle_type_id":"4","last_reported":1685254100,"current_range_meters":29600,"station_id":"","pricing_plan_id":"free"},{"bike_id":"8d6f0d01-e11c-45c9-900a-9350a8df03c1","system_id":"levelo_inurba_marseille","lat":43.298681,"lon":5.397225,"is_reserved":false,"is_disabled":false,"rental_uris":{"android":"levelo://app?vid=8d6f0d01-e11c-45c9-900a-9350a8df03c1","ios":"levelo://app?vid=8d6f0d01-e11c-45c9-900a-9350a8df03c1"},"vehicle_type_id":"4","last_reported":1685254100,"current_range_meters":29600,"station_id":"ce4bh0h2rcd13ifvqd50","pricing_plan_id":"free"},{"bike_id":"832bdd1b-09ff-4311-8ff8-7c6751ecd1ac","system_id":"levelo_inurba_marseille","lat":43.298681,"lon":5.397225,"is_reserved":false,"is_disabled":false,"rental_uris":{"android":"levelo://app?vid=832bdd1b-09ff-4311-8ff8-7c6751ecd1ac","ios":"levelo://app?vid=832bdd1b-09ff-4311-8ff8-7c6751ecd1ac"},"vehicle_type_id":"4","last_reported":1685254100,"current_range_meters":27600,"station_id":"ce4bh0h2rcd13ifvqd50","pricing_plan_id":"free"},{"bike_id":"3e962e7e-ece7-4a3d-b151-778bb0c6a435","system_id":"levelo_inurba_marseille","lat":43.298681,"lon":5.397225,"is_reserved":false,"is_disabled":false,"rental_uris":{"android":"levelo://app?vid=3e962e7e-ece7-4a3d-b151-778bb0c6a435","ios":"levelo://app?vid=3e962e7e-ece7-4a3d-b151-778bb0c6a435"},"vehicle_type_id":"4","last_reported":1685254100,"current_range_meters":31200,"station_id":"ce4bh0h2rcd13ifvqd50","pricing_plan_id":"free"},{"bike_id":"49b0997a-731d-4bc2-9d6b-0525f82c4e50","system_id":"levelo_inurba_marseille","lat":43.286593,"lon":5.363346,"is_reserved":false,"is_disabled":false,"rental_uris":{"android":"levelo://app?vid=49b0997a-731d-4bc2-9d6b-0525f82c4e50","ios":"levelo://app?vid=49b0997a-731d-4bc2-9d6b-0525f82c4e50"},"vehicle_type_id":"4","last_reported":1685254100,"current_range_meters":31200,"station_id":"ce4bhah2rcd13ifvqej0","pricing_plan_id":"free"},{"bike_id":"603bbf7c-d30d-4606-a3a4-9ecd2e22c544","system_id":"levelo_inurba_marseille","lat":43.286593,"lon":5.363346,"is_reserved":false,"is_disabled":false,"rental_uris":{"android":"levelo://app?vid=603bbf7c-d30d-4606-a3a4-9ecd2e22c544","ios":"levelo://app?vid=603bbf7c-d30d-4606-a3a4-9ecd2e22c544"},"vehicle_type_id":"4","last_reported":1685254100,"current_range_meters":31200,"station_id":"ce4bhah2rcd13ifvqej0","pricing_plan_id":"free"},{"bike_id":"5e525c30-9d68-4570-853e-cf5c784aceb8","system_id":"levelo_inurba_marseille","lat":43.286591,"lon":5.363346,"is_reserved":false,"is_disabled":false,"rental_uris":{"android":"levelo://app?vid=5e525c30-9d68-4570-853e-cf5c784aceb8","ios":"levelo://app?vid=5e525c30-9d68-4570-853e-cf5c784aceb8"},"vehicle_type_id":"4","last_reported":1685254100,"current_range_meters":27200,"station_id":"ce4bhah2rcd13ifvqej0","pricing_plan_id":"free"},{"bike_id":"b829aba6-cdc8-4be6-b941-bc59bc9afb17","system_id":"levelo_inurba_marseille","lat":43.286591,"lon":5.363346,"is_reserved":false,"is_disabled":false,"rental_uris":{"android":"levelo://app?vid=b829aba6-cdc8-4be6-b941-bc59bc9afb17","ios":"levelo://app?vid=b829aba6-cdc8-4be6-b941-bc59bc9afb17"},"vehicle_type_id":"4","last_reported":1685254100,"current_range_meters":29600,"station_id":"ce4bhah2rcd13ifvqej0","pricing_plan_id":"free"},{"bike_id":"f0d317dc-f94e-4079-a807-6ba8b795b190","system_id":"levelo_inurba_marseille","lat":43.286593,"lon":5.363346,"is_reserved":false,"is_disabled":false,"rental_uris":{"android":"levelo://app?vid=f0d317dc-f94e-4079-a807-6ba8b795b190","ios":"levelo://app?vid=f0d317dc-f94e-4079-a807-6ba8b795b190"},"vehicle_type_id":"4","last_reported":1685254100,"current_range_meters":26800,"station_id":"ce4bhah2rcd13ifvqej0","pricing_plan_id":"free"},{"bike_id":"11a83a28-ae84-4dae-8f25-2b3bbaf8349c","system_id":"levelo_inurba_marseille","lat":43.302759,"lon":5.400793,"is_reserved":false,"is_disabled":false,"rental_uris":{"android":"levelo://app?vid=11a83a28-ae84-4dae-8f25-2b3bbaf8349c","ios":"levelo://app?vid=11a83a28-ae84-4dae-8f25-2b3bbaf8349c"},"vehicle_type_id":"4","last_reported":1685254100,"current_range_meters":31200,"station_id":"ce4bgvh2rcd13ifvqcs0","pricing_plan_id":"free"},{"bike_id":"59f29e98-a144-404a-b788-cec616dd4f1c","system_id":"levelo_inurba_marseille","lat":43.302759,"lon":5.400793,"is_reserved":false,"is_disabled":false,"rental_uris":{"android":"levelo://app?vid=59f29e98-a144-404a-b788-cec616dd4f1c","ios":"levelo://app?vid=59f29e98-a144-404a-b788-cec616dd4f1c"},"vehicle_type_id":"4","last_reported":1685254100,"current_range_meters":24000,"station_id":"ce4bgvh2rcd13ifvqcs0","pricing_plan_id":"free"},{"bike_id":"601279c3-89ae-4e32-87b7-ac66fbd9f472","system_id":"levelo_inurba_marseille","lat":43.290345,"lon":5.38646,"is_reserved":false,"is_disabled":false,"rental_uris":{"android":"levelo://app?vid=601279c3-89ae-4e32-87b7-ac66fbd9f472","ios":"levelo://app?vid=601279c3-89ae-4e32-87b7-ac66fbd9f472"},"vehicle_type_id":"4","last_reported":1685254100,"current_range_meters":30000,"station_id":"ce4bh4p2rcd13ifvqe0g","pricing_plan_id":"free"},{"bike_id":"3e65b725-0120-49a9-bb8b-9589d3b76754","system_id":"levelo_inurba_marseille","lat":43.29021,"lon":5.38638,"is_reserved":false,"is_disabled":false,"rental_uris":{"android":"levelo://app?vid=3e65b725-0120-49a9-bb8b-9589d3b76754","ios":"levelo://app?vid=3e65b725-0120-49a9-bb8b-9589d3b76754"},"vehicle_type_id":"4","last_reported":1685254100,"current_range_meters":0,"station_id":"ce4bh4p2rcd13ifvqe0g","pricing_plan_id":"free"},{"bike_id":"ee2b3a24-f689-469e-bf9f-d887b269d511","system_id":"levelo_inurba_marseille","lat":43.3024,"lon":5.40063,"is_reserved":false,"is_disabled":false,"rental_uris":{"android":"levelo://app?vid=ee2b3a24-f689-469e-bf9f-d887b269d511","ios":"levelo://app?vid=ee2b3a24-f689-469e-bf9f-d887b269d511"},"vehicle_type_id":"4","last_reported":1685254100,"current_range_meters":20400,"station_id":"","pricing_plan_id":"free"},{"bike_id":"f31aa1c2-d5fc-48fc-9bc2-4c3de9c4ebba","system_id":"levelo_inurba_marseille","lat":43.30246,"lon":5.40068,"is_reserved":false,"is_disabled":false,"rental_uris":{"android":"levelo://app?vid=f31aa1c2-d5fc-48fc-9bc2-4c3de9c4ebba","ios":"levelo://app?vid=f31aa1c2-d5fc-48fc-9bc2-4c3de9c4ebba"},"vehicle_type_id":"4","last_reported":1685254100,"current_range_meters":19600,"station_id":"","pricing_plan_id":"free"},{"bike_id":"15ff7271-d6da-4bf8-af9c-2bf2e34b3a0f","system_id":"levelo_inurba_marseille","lat":43.30246,"lon":5.40072,"is_reserved":false,"is_disabled":false,"rental_uris":{"android":"levelo://app?vid=15ff7271-d6da-4bf8-af9c-2bf2e34b3a0f","ios":"levelo://app?vid=15ff7271-d6da-4bf8-af9c-2bf2e34b3a0f"},"vehicle_type_id":"4","last_reported":1685254100,"current_range_meters":24400,"station_id":"","pricing_plan_id":"free"},{"bike_id":"85a6f759-4add-4690-a534-14c49c8391af","system_id":"levelo_inurba_marseille","lat":43.302759,"lon":5.400793,"is_reserved":false,"is_disabled":false,"rental_uris":{"android":"levelo://app?vid=85a6f759-4add-4690-a534-14c49c8391af","ios":"levelo://app?vid=85a6f759-4add-4690-a534-14c49c8391af"},"vehicle_type_id":"4","last_reported":1685254100,"current_range_meters":23600,"station_id":"ce4bgvh2rcd13ifvqcs0","pricing_plan_id":"free"},{"bike_id":"c7389bd3-6483-4153-8842-af4b21d541af","system_id":"levelo_inurba_marseille","lat":43.30243,"lon":5.40074,"is_reserved":false,"is_disabled":false,"rental_uris":{"android":"levelo://app?vid=c7389bd3-6483-4153-8842-af4b21d541af","ios":"levelo://app?vid=c7389bd3-6483-4153-8842-af4b21d541af"},"vehicle_type_id":"4","last_reported":1685254100,"current_range_meters":14800,"station_id":"","pricing_plan_id":"free"},{"bike_id":"b1afe1a8-bd42-441a-8c20-95f42b05ad59","system_id":"levelo_inurba_marseille","lat":43.302759,"lon":5.400793,"is_reserved":false,"is_disabled":false,"rental_uris":{"android":"levelo://app?vid=b1afe1a8-bd42-441a-8c20-95f42b05ad59","ios":"levelo://app?vid=b1afe1a8-bd42-441a-8c20-95f42b05ad59"},"vehicle_type_id":"4","last_reported":1685254100,"current_range_meters":3600,"station_id":"ce4bgvh2rcd13ifvqcs0","pricing_plan_id":"free"},{"bike_id":"defbafdc-4948-4965-8858-80d68e83e9e2","system_id":"levelo_inurba_marseille","lat":43.302759,"lon":5.400793,"is_reserved":false,"is_disabled":false,"rental_uris":{"android":"levelo://app?vid=defbafdc-4948-4965-8858-80d68e83e9e2","ios":"levelo://app?vid=defbafdc-4948-4965-8858-80d68e83e9e2"},"vehicle_type_id":"4","last_reported":1685254100,"current_range_meters":25600,"station_id":"ce4bgvh2rcd13ifvqcs0","pricing_plan_id":"free"},{"bike_id":"653cf66f-9421-4f79-80bb-e6e190b92d7e","system_id":"levelo_inurba_marseille","lat":43.286039,"lon":5.370681,"is_reserved":false,"is_disabled":false,"rental_uris":{"android":"levelo://app?vid=653cf66f-9421-4f79-80bb-e6e190b92d7e","ios":"levelo://app?vid=653cf66f-9421-4f79-80bb-e6e190b92d7e"},"vehicle_type_id":"4","last_reported":1685254100,"current_range_meters":10800,"station_id":"ce4bht12rcd13ifvqi60","pricing_plan_id":"free"},{"bike_id":"9ad6115a-0ab4-4f9c-bb0b-2f6abc720d01","system_id":"levelo_inurba_marseille","lat":43.286039,"lon":5.370681,"is_reserved":false,"is_disabled":false,"rental_uris":{"android":"levelo://app?vid=9ad6115a-0ab4-4f9c-bb0b-2f6abc720d01","ios":"levelo://app?vid=9ad6115a-0ab4-4f9c-bb0b-2f6abc720d01"},"vehicle_type_id":"4","last_reported":1685254100,"current_range_meters":20400,"station_id":"ce4bht12rcd13ifvqi60","pricing_plan_id":"free"},{"bike_id":"fc2ae944-ecc7-4775-8b08-ebf8a0f1978f","system_id":"levelo_inurba_marseille","lat":43.286039,"lon":5.370681,"is_reserved":false,"is_disabled":false,"rental_uris":{"android":"levelo://app?vid=fc2ae944-ecc7-4775-8b08-ebf8a0f1978f","ios":"levelo://app?vid=fc2ae944-ecc7-4775-8b08-ebf8a0f1978f"},"vehicle_type_id":"4","last_reported":1685254100,"current_range_meters":4800,"station_id":"ce4bht12rcd13ifvqi60","pricing_plan_id":"free"},{"bike_id":"1e19ed3c-62c6-4b7a-8418-ebedbd4a7eda","system_id":"levelo_inurba_marseille","lat":43.286039,"lon":5.370681,"is_reserved":false,"is_disabled":false,"rental_uris":{"android":"levelo://app?vid=1e19ed3c-62c6-4b7a-8418-ebedbd4a7eda","ios":"levelo://app?vid=1e19ed3c-62c6-4b7a-8418-ebedbd4a7eda"},"vehicle_type_id":"4","last_reported":1685254100,"current_range_meters":10400,"station_id":"ce4bht12rcd13ifvqi60","pricing_plan_id":"free"},{"bike_id":"d01bede2-6666-4cb8-a8b5-c39b7bfd6c72","system_id":"levelo_inurba_marseille","lat":43.287184,"lon":5.37937,"is_reserved":false,"is_disabled":false,"rental_uris":{"android":"levelo://app?vid=d01bede2-6666-4cb8-a8b5-c39b7bfd6c72","ios":"levelo://app?vid=d01bede2-6666-4cb8-a8b5-c39b7bfd6c72"},"vehicle_type_id":"4","last_reported":1685254100,"current_range_meters":21200,"station_id":"ce4bh9p2rcd13ifvqec0","pricing_plan_id":"free"},{"bike_id":"712b346a-037c-4830-b299-5e7d40eda724","system_id":"levelo_inurba_marseille","lat":43.287185,"lon":5.379373,"is_reserved":false,"is_disabled":false,"rental_uris":{"android":"levelo://app?vid=712b346a-037c-4830-b299-5e7d40eda724","ios":"levelo://app?vid=712b346a-037c-4830-b299-5e7d40eda724"},"vehicle_type_id":"4","last_reported":1685254100,"current_range_meters":31600,"station_id":"ce4bh9p2rcd13ifvqec0","pricing_plan_id":"free"},{"bike_id":"42d1bff9-37be-43d7-921c-e435c4c8a402","system_id":"levelo_inurba_marseille","lat":43.287185,"lon":5.379373,"is_reserved":false,"is_disabled":false,"rental_uris":{"android":"levelo://app?vid=42d1bff9-37be-43d7-921c-e435c4c8a402","ios":"levelo://app?vid=42d1bff9-37be-43d7-921c-e435c4c8a402"},"vehicle_type_id":"4","last_reported":1685254100,"current_range_meters":26000,"station_id":"ce4bh9p2rcd13ifvqec0","pricing_plan_id":"free"},{"bike_id":"48d6f984-5b03-46b2-9704-17cdfe21e266","system_id":"levelo_inurba_marseille","lat":43.287185,"lon":5.379373,"is_reserved":false,"is_disabled":false,"rental_uris":{"android":"levelo://app?vid=48d6f984-5b03-46b2-9704-17cdfe21e266","ios":"levelo://app?vid=48d6f984-5b03-46b2-9704-17cdfe21e266"},"vehicle_type_id":"4","last_reported":1685254100,"current_range_meters":9200,"station_id":"ce4bh9p2rcd13ifvqec0","pricing_plan_id":"free"},{"bike_id":"9072a211-d3a7-4c50-af8c-4487e0bcfb06","system_id":"levelo_inurba_marseille","lat":43.287185,"lon":5.379373,"is_reserved":false,"is_disabled":false,"rental_uris":{"android":"levelo://app?vid=9072a211-d3a7-4c50-af8c-4487e0bcfb06","ios":"levelo://app?vid=9072a211-d3a7-4c50-af8c-4487e0bcfb06"},"vehicle_type_id":"4","last_reported":1685254100,"current_range_meters":31200,"station_id":"ce4bh9p2rcd13ifvqec0","pricing_plan_id":"free"},{"bike_id":"32a9a2a6-7834-417f-ab53-b1a9dbbbbac1","system_id":"levelo_inurba_marseille","lat":43.287185,"lon":5.379373,"is_reserved":false,"is_disabled":false,"rental_uris":{"android":"levelo://app?vid=32a9a2a6-7834-417f-ab53-b1a9dbbbbac1","ios":"levelo://app?vid=32a9a2a6-7834-417f-ab53-b1a9dbbbbac1"},"vehicle_type_id":"4","last_reported":1685254100,"current_range_meters":31200,"station_id":"ce4bh9p2rcd13ifvqec0","pricing_plan_id":"free"},{"bike_id":"86480da6-1e65-4373-91ce-cf23c3d709e4","system_id":"levelo_inurba_marseille","lat":43.287184,"lon":5.37937,"is_reserved":false,"is_disabled":false,"rental_uris":{"android":"levelo://app?vid=86480da6-1e65-4373-91ce-cf23c3d709e4","ios":"levelo://app?vid=86480da6-1e65-4373-91ce-cf23c3d709e4"},"vehicle_type_id":"4","last_reported":1685254100,"current_range_meters":28000,"station_id":"ce4bh9p2rcd13ifvqec0","pricing_plan_id":"free"},{"bike_id":"87305732-def6-45e3-bc83-262b149dfa46","system_id":"levelo_inurba_marseille","lat":43.287185,"lon":5.379373,"is_reserved":false,"is_disabled":false,"rental_uris":{"android":"levelo://app?vid=87305732-def6-45e3-bc83-262b149dfa46","ios":"levelo://app?vid=87305732-def6-45e3-bc83-262b149dfa46"},"vehicle_type_id":"4","last_reported":1685254100,"current_range_meters":31200,"station_id":"ce4bh9p2rcd13ifvqec0","pricing_plan_id":"free"},{"bike_id":"f778070c-b212-41de-a870-f549446ebeed","system_id":"levelo_inurba_marseille","lat":43.287185,"lon":5.379373,"is_reserved":false,"is_disabled":false,"rental_uris":{"android":"levelo://app?vid=f778070c-b212-41de-a870-f549446ebeed","ios":"levelo://app?vid=f778070c-b212-41de-a870-f549446ebeed"},"vehicle_type_id":"4","last_reported":1685254100,"current_range_meters":11600,"station_id":"ce4bh9p2rcd13ifvqec0","pricing_plan_id":"free"},{"bike_id":"2627734b-a15c-4a04-be16-293ff1124176","system_id":"levelo_inurba_marseille","lat":43.287072,"lon":5.379326,"is_reserved":false,"is_disabled":false,"rental_uris":{"android":"levelo://app?vid=2627734b-a15c-4a04-be16-293ff1124176","ios":"levelo://app?vid=2627734b-a15c-4a04-be16-293ff1124176"},"vehicle_type_id":"4","last_reported":1685254100,"current_range_meters":8000,"station_id":"ce4bh9p2rcd13ifvqec0","pricing_plan_id":"free"},{"bike_id":"f8888cef-5ea6-4b7f-a70d-df038debc7d5","system_id":"levelo_inurba_marseille","lat":43.31643,"lon":5.40433,"is_reserved":false,"is_disabled":false,"rental_uris":{"android":"levelo://app?vid=f8888cef-5ea6-4b7f-a70d-df038debc7d5","ios":"levelo://app?vid=f8888cef-5ea6-4b7f-a70d-df038debc7d5"},"vehicle_type_id":"4","last_reported":1685254100,"current_range_meters":29200,"station_id":"ce4bh012rcd13ifvqd00","pricing_plan_id":"free"},{"bike_id":"7f37265d-caae-477a-bc70-1390cfff10f4","system_id":"levelo_inurba_marseille","lat":43.316517,"lon":5.404375,"is_reserved":false,"is_disabled":false,"rental_uris":{"android":"levelo://app?vid=7f37265d-caae-477a-bc70-1390cfff10f4","ios":"levelo://app?vid=7f37265d-caae-477a-bc70-1390cfff10f4"},"vehicle_type_id":"4","last_reported":1685254100,"current_range_meters":27200,"station_id":"ce4bh012rcd13ifvqd00","pricing_plan_id":"free"},{"bike_id":"a77ff3c6-0e7b-4c50-bd1a-3f3fcd1660a3","system_id":"levelo_inurba_marseille","lat":43.316517,"lon":5.404375,"is_reserved":false,"is_disabled":false,"rental_uris":{"android":"levelo://app?vid=a77ff3c6-0e7b-4c50-bd1a-3f3fcd1660a3","ios":"levelo://app?vid=a77ff3c6-0e7b-4c50-bd1a-3f3fcd1660a3"},"vehicle_type_id":"4","last_reported":1685254100,"current_range_meters":30800,"station_id":"ce4bh012rcd13ifvqd00","pricing_plan_id":"free"},{"bike_id":"5678685e-0842-4c3d-a7da-c497d036454f","system_id":"levelo_inurba_marseille","lat":43.316517,"lon":5.404375,"is_reserved":false,"is_disabled":false,"rental_uris":{"android":"levelo://app?vid=5678685e-0842-4c3d-a7da-c497d036454f","ios":"levelo://app?vid=5678685e-0842-4c3d-a7da-c497d036454f"},"vehicle_type_id":"4","last_reported":1685254100,"current_range_meters":30400,"station_id":"ce4bh012rcd13ifvqd00","pricing_plan_id":"free"},{"bike_id":"c7f25802-3253-4f76-bd28-a6a9ceba766f","system_id":"levelo_inurba_marseille","lat":43.316517,"lon":5.404375,"is_reserved":false,"is_disabled":false,"rental_uris":{"android":"levelo://app?vid=c7f25802-3253-4f76-bd28-a6a9ceba766f","ios":"levelo://app?vid=c7f25802-3253-4f76-bd28-a6a9ceba766f"},"vehicle_type_id":"4","last_reported":1685254100,"current_range_meters":9600,"station_id":"ce4bh012rcd13ifvqd00","pricing_plan_id":"free"},{"bike_id":"80dcbaee-6f8e-42d4-8ae1-50aa18b04853","system_id":"levelo_inurba_marseille","lat":43.316517,"lon":5.404375,"is_reserved":false,"is_disabled":false,"rental_uris":{"android":"levelo://app?vid=80dcbaee-6f8e-42d4-8ae1-50aa18b04853","ios":"levelo://app?vid=80dcbaee-6f8e-42d4-8ae1-50aa18b04853"},"vehicle_type_id":"4","last_reported":1685254100,"current_range_meters":26000,"station_id":"ce4bh012rcd13ifvqd00","pricing_plan_id":"free"},{"bike_id":"caa37214-e65e-4b21-87d1-283a386dabe4","system_id":"levelo_inurba_marseille","lat":43.316517,"lon":5.404375,"is_reserved":false,"is_disabled":false,"rental_uris":{"android":"levelo://app?vid=caa37214-e65e-4b21-87d1-283a386dabe4","ios":"levelo://app?vid=caa37214-e65e-4b21-87d1-283a386dabe4"},