{"last_updated":1731427889,"ttl":60,"version":"2.2","data":{"bikes":[{"bike_id":"f0235392-c652-4570-ba32-10ed045f886b","system_id":"levelo_inurba_marseille","lat":43.24087,"lon":5.37753,"is_reserved":false,"is_disabled":false,"rental_uris":{"android":"levelo://app?vid=f0235392-c652-4570-ba32-10ed045f886b","ios":"levelo://app?vid=f0235392-c652-4570-ba32-10ed045f886b"},"vehicle_type_id":"4","last_reported":1731427890,"current_range_meters":28400,"station_id":"ce4bhnp2rcd13ifvqgvg","pricing_plan_id":"cebpf4jnsgd1na2vs0mg"},{"bike_id":"4ecf88c0-77a6-4268-b158-1994aec5c096","system_id":"levelo_inurba_marseille","lat":43.31072,"lon":5.40092,"is_reserved":false,"is_disabled":false,"rental_uris":{"android":"levelo://app?vid=4ecf88c0-77a6-4268-b158-1994aec5c096","ios":"levelo://app?vid=4ecf88c0-77a6-4268-b158-1994aec5c096"},"vehicle_type_id":"4","last_reported":1731427890,"current_range_meters":4400,"station_id":"","pricing_plan_id":"cebpf4jnsgd1na2vs0mg"},{"bike_id":"70f1501c-e453-4e4f-ba18-21e82a1bd07c","system_id":"levelo_inurba_marseille","lat":43.25577,"lon":5.38234,"is_reserved":false,"is_disabled":false,"rental_uris":{"android":"levelo://app?vid=70f1501c-e453-4e4f-ba18-21e82a1bd07c","ios":"levelo://app?vid=70f1501c-e453-4e4f-ba18-21e82a1bd07c"},"vehicle_type_id":"4","last_reported":1731427890,"current_range_meters":22800,"station_id":"ce4bhih2rcd13ifvqfs0","pricing_plan_id":"cebpf4jnsgd1na2vs0mg"},{"bike_id":"38f833c7-b6a1-42cb-8eed-75dd7802befc","system_id":"levelo_inurba_marseille","lat":43.30137,"lon":5.39864,"is_reserved":false,"is_disabled":false,"rental_uris":{"android":"levelo://app?vid=38f833c7-b6a1-42cb-8eed-75dd7802befc","ios":"levelo://app?vid=38f833c7-b6a1-42cb-8eed-75dd7802befc"},"vehicle_type_id":"4","last_reported":1731427890,"current_range_meters":11600,"station_id":"ce4bh0h2rcd13ifvqd40","pricing_plan_id":"cebpf4jnsgd1na2vs0mg"},{"bike_id":"d336610c-8590-441d-9510-6c1bf5000cdd","system_id":"levelo_inurba_marseille","lat":43.26946,"lon":5.40261,"is_reserved":false,"is_disabled":false,"rental_uris":{"android":"levelo://app?vid=d336610c-8590-441d-9510-6c1bf5000cdd","ios":"levelo://app?vid=d336610c-8590-441d-9510-6c1bf5000cdd"},"vehicle_type_id":"4","last_reported":1731427890,"current_range_meters":37600,"station_id":"cjm6bp8fraef2m0cb0m0","pricing_plan_id":"cebpf4jnsgd1na2vs0mg"},{"bike_id":"4ed35403-5ac4-4371-a30a-a3239d5101e8","system_id":"levelo_inurba_marseille","lat":43.23961,"lon":5.36632,"is_reserved":false,"is_disabled":false,"rental_uris":{"android":"levelo://app?vid=4ed35403-5ac4-4371-a30a-a3239d5101e8","ios":"levelo://app?vid=4ed35403-5ac4-4371-a30a-a3239d5101e8"},"vehicle_type_id":"4","last_reported":1731427890,"current_range_meters":27200,"station_id":"ce4bhi12rcd13ifvqfp0","pricing_plan_id":"cebpf4jnsgd1na2vs0mg"},{"bike_id":"e97dedf6-0d32-4662-ae2f-5feca2c604d2","system_id":"levelo_inurba_marseille","lat":43.288884,"lon":5.400237,"is_reserved":false,"is_disabled":false,"rental_uris":{"android":"levelo://app?vid=e97dedf6-0d32-4662-ae2f-5feca2c604d2","ios":"levelo://app?vid=e97dedf6-0d32-4662-ae2f-5feca2c604d2"},"vehicle_type_id":"4","last_reported":1731427890,"current_range_meters":32000,"station_id":"ce4bh0h2rcd13ifvqd40","pricing_plan_id":"cebpf4jnsgd1na2vs0mg"},{"bike_id":"c11ad709-cea1-4ef9-889d-d80230a8fdfc","system_id":"levelo_inurba_marseille","lat":43.29007,"lon":5.35615,"is_reserved":false,"is_disabled":false,"rental_uris":{"android":"levelo://app?vid=c11ad709-cea1-4ef9-889d-d80230a8fdfc","ios":"levelo://app?vid=c11ad709-cea1-4ef9-889d-d80230a8fdfc"},"vehicle_type_id":"4","last_reported":1731427890,"current_range_meters":36800,"station_id":"ce4bhb92rcd13ifvqen0","pricing_plan_id":"cebpf4jnsgd1na2vs0mg"},{"bike_id":"6d0d3ac2-e05c-4c25-98c2-0d78fa7d56d6","system_id":"levelo_inurba_marseille","lat":43.29026,"lon":5.38127,"is_reserved":false,"is_disabled":false,"rental_uris":{"android":"levelo://app?vid=6d0d3ac2-e05c-4c25-98c2-0d78fa7d56d6","ios":"levelo://app?vid=6d0d3ac2-e05c-4c25-98c2-0d78fa7d56d6"},"vehicle_type_id":"4","last_reported":1731427890,"current_range_meters":38800,"station_id":"ce4bh4p2rcd13ifvqe1g","pricing_plan_id":"cebpf4jnsgd1na2vs0mg"},{"bike_id":"c2172132-6879-47e9-a811-7d8e34b0dd78","system_id":"levelo_inurba_marseille","lat":43.31374,"lon":5.36694,"is_reserved":false,"is_disabled":false,"rental_uris":{"android":"levelo://app?vid=c2172132-6879-47e9-a811-7d8e34b0dd78","ios":"levelo://app?vid=c2172132-6879-47e9-a811-7d8e34b0dd78"},"vehicle_type_id":"4","last_reported":1731427890,"current_range_meters":28400,"station_id":"ce4bgr92rcd13ifvqc6g","pricing_plan_id":"cebpf4jnsgd1na2vs0mg"},{"bike_id":"6b228d07-4301-4a5b-9474-4b744d853bd2","system_id":"levelo_inurba_marseille","lat":43.32475,"lon":5.36573,"is_reserved":false,"is_disabled":false,"rental_uris":{"android":"levelo://app?vid=6b228d07-4301-4a5b-9474-4b744d853bd2","ios":"levelo://app?vid=6b228d07-4301-4a5b-9474-4b744d853bd2"},"vehicle_type_id":"4","last_reported":1731427890,"current_range_meters":24800,"station_id":"ce4bhs12rcd13ifvqhvg","pricing_plan_id":"cebpf4jnsgd1na2vs0mg"},{"bike_id":"4df1ec3f-c1f9-4eaf-9146-fadf0b23d8fa","system_id":"levelo_inurba_marseille","lat":43.28155,"lon":5.42642,"is_reserved":false,"is_disabled":false,"rental_uris":{"android":"levelo://app?vid=4df1ec3f-c1f9-4eaf-9146-fadf0b23d8fa","ios":"levelo://app?vid=4df1ec3f-c1f9-4eaf-9146-fadf0b23d8fa"},"vehicle_type_id":"4","last_reported":1731427890,"current_range_meters":5600,"station_id":"ce4bhnh2rcd13ifvqgug","pricing_plan_id":"cebpf4jnsgd1na2vs0mg"},{"bike_id":"ed6f8f5a-8bf5-475c-9136-b012f7c0fb99","system_id":"levelo_inurba_marseille","lat":43.26789,"lon":5.39414,"is_reserved":false,"is_disabled":false,"rental_uris":{"android":"levelo://app?vid=ed6f8f5a-8bf5-475c-9136-b012f7c0fb99","ios":"levelo://app?vid=ed6f8f5a-8bf5-475c-9136-b012f7c0fb99"},"vehicle_type_id":"4","last_reported":1731427890,"current_range_meters":32000,"station_id":"ce4bhh12rcd13ifvqfg0","pricing_plan_id":"cebpf4jnsgd1na2vs0mg"},{"bike_id":"f188b249-586f-4ee0-bc10-b8390331c306","system_id":"levelo_inurba_marseille","lat":43.28938,"lon":5.36629,"is_reserved":false,"is_disabled":false,"rental_uris":{"android":"levelo://app?vid=f188b249-586f-4ee0-bc10-b8390331c306","ios":"levelo://app?vid=f188b249-586f-4ee0-bc10-b8390331c306"},"vehicle_type_id":"4","last_reported":1731427890,"current_range_meters":25200,"station_id":"ce4bhap2rcd13ifvqek0","pricing_plan_id":"cebpf4jnsgd1na2vs0mg"},{"bike_id":"ec2bd622-564a-4344-81ef-f79e221200a1","system_id":"levelo_inurba_marseille","lat":43.25573,"lon":5.38238,"is_reserved":false,"is_disabled":false,"rental_uris":{"android":"levelo://app?vid=ec2bd622-564a-4344-81ef-f79e221200a1","ios":"levelo://app?vid=ec2bd622-564a-4344-81ef-f79e221200a1"},"vehicle_type_id":"4","last_reported":1731427890,"current_range_meters":28400,"station_id":"ce4bhih2rcd13ifvqfs0","pricing_plan_id":"cebpf4jnsgd1na2vs0mg"},{"bike_id":"5d004fbf-052b-4ba3-9117-254e6429ef51","system_id":"levelo_inurba_marseille","lat":43.26944,"lon":5.40252,"is_reserved":false,"is_disabled":false,"rental_uris":{"android":"levelo://app?vid=5d004fbf-052b-4ba3-9117-254e6429ef51","ios":"levelo://app?vid=5d004fbf-052b-4ba3-9117-254e6429ef51"},"vehicle_type_id":"4","last_reported":1731427890,"current_range_meters":3600,"station_id":"cjm6bp8fraef2m0cb0m0","pricing_plan_id":"cebpf4jnsgd1na2vs0mg"},{"bike_id":"ce2e3f6e-6398-4940-93f2-fd49c28434c4","system_id":"levelo_inurba_marseille","lat":43.24083,"lon":5.37752,"is_reserved":false,"is_disabled":false,"rental_uris":{"android":"levelo://app?vid=ce2e3f6e-6398-4940-93f2-fd49c28434c4","ios":"levelo://app?vid=ce2e3f6e-6398-4940-93f2-fd49c28434c4"},"vehicle_type_id":"4","last_reported":1731427890,"current_range_meters":7200,"station_id":"ce4bhnp2rcd13ifvqgvg","pricing_plan_id":"cebpf4jnsgd1na2vs0mg"},{"bike_id":"f9cacf57-36ba-4889-8f1f-f771a3c6f728","system_id":"levelo_inurba_marseille","lat":43.29907,"lon":5.38149,"is_reserved":false,"is_disabled":false,"rental_uris":{"android":"levelo://app?vid=f9cacf57-36ba-4889-8f1f-f771a3c6f728","ios":"levelo://app?vid=f9cacf57-36ba-4889-8f1f-f771a3c6f728"},"vehicle_type_id":"4","last_reported":1731427890,"current_range_meters":36400,"station_id":"ce4bgj12rcd13ifvqbc0","pricing_plan_id":"cebpf4jnsgd1na2vs0mg"},{"bike_id":"46af5b7f-5607-486d-bc57-2daa7d5b28e7","system_id":"levelo_inurba_marseille","lat":43.27066,"lon":5.42277,"is_reserved":false,"is_disabled":false,"rental_uris":{"android":"levelo://app?vid=46af5b7f-5607-486d-bc57-2daa7d5b28e7","ios":"levelo://app?vid=46af5b7f-5607-486d-bc57-2daa7d5b28e7"},"vehicle_type_id":"4","last_reported":1731427890,"current_range_meters":37600,"station_id":"ce4bhk92rcd13ifvqgb0","pricing_plan_id":"cebpf4jnsgd1na2vs0mg"},{"bike_id":"b98a1d64-7263-4a20-9818-cff1c085df16","system_id":"levelo_inurba_marseille","lat":43.29531,"lon":5.3855,"is_reserved":false,"is_disabled":false,"rental_uris":{"android":"levelo://app?vid=b98a1d64-7263-4a20-9818-cff1c085df16","ios":"levelo://app?vid=b98a1d64-7263-4a20-9818-cff1c085df16"},"vehicle_type_id":"4","last_reported":1731427890,"current_range_meters":12400,"station_id":"ce4bgih2rcd13ifvqba0","pricing_plan_id":"cebpf4jnsgd1na2vs0mg"},{"bike_id":"5770bbd9-2c6e-4691-a76b-306c0fdae32c","system_id":"levelo_inurba_marseille","lat":43.28857,"lon":5.35847,"is_reserved":false,"is_disabled":false,"rental_uris":{"android":"levelo://app?vid=5770bbd9-2c6e-4691-a76b-306c0fdae32c","ios":"levelo://app?vid=5770bbd9-2c6e-4691-a76b-306c0fdae32c"},"vehicle_type_id":"4","last_reported":1731427890,"current_range_meters":34000,"station_id":"ce4bhb12rcd13ifvqem0","pricing_plan_id":"cebpf4jnsgd1na2vs0mg"},{"bike_id":"507284d9-4009-457e-bfa1-5ddbf58c6240","system_id":"levelo_inurba_marseille","lat":43.27171,"lon":5.40987,"is_reserved":false,"is_disabled":false,"rental_uris":{"android":"levelo://app?vid=507284d9-4009-457e-bfa1-5ddbf58c6240","ios":"levelo://app?vid=507284d9-4009-457e-bfa1-5ddbf58c6240"},"vehicle_type_id":"4","last_reported":1731427890,"current_range_meters":39200,"station_id":"ce4bhl12rcd13ifvqgf0","pricing_plan_id":"cebpf4jnsgd1na2vs0mg"},{"bike_id":"4fe3a136-7c06-4146-a3bb-9f62c67bbc18","system_id":"levelo_inurba_marseille","lat":43.30577,"lon":5.37224,"is_reserved":false,"is_disabled":false,"rental_uris":{"android":"levelo://app?vid=4fe3a136-7c06-4146-a3bb-9f62c67bbc18","ios":"levelo://app?vid=4fe3a136-7c06-4146-a3bb-9f62c67bbc18"},"vehicle_type_id":"4","last_reported":1731427890,"current_range_meters":35200,"station_id":"ce4bgqh2rcd13ifvqc4g","pricing_plan_id":"cebpf4jnsgd1na2vs0mg"},{"bike_id":"007ed1e0-5e71-46da-97d5-4d5c67a3b532","system_id":"levelo_inurba_marseille","lat":43.2668,"lon":5.38266,"is_reserved":false,"is_disabled":false,"rental_uris":{"android":"levelo://app?vid=007ed1e0-5e71-46da-97d5-4d5c67a3b532","ios":"levelo://app?vid=007ed1e0-5e71-46da-97d5-4d5c67a3b532"},"vehicle_type_id":"4","last_reported":1731427890,"current_range_meters":36400,"station_id":"ce4bhg92rcd13ifvqf90","pricing_plan_id":"cebpf4jnsgd1na2vs0mg"},{"bike_id":"62f5ce0e-90f2-4cf5-a3ef-fa5904dc77cf","system_id":"levelo_inurba_marseille","lat":43.29009,"lon":5.35616,"is_reserved":false,"is_disabled":false,"rental_uris":{"android":"levelo://app?vid=62f5ce0e-90f2-4cf5-a3ef-fa5904dc77cf","ios":"levelo://app?vid=62f5ce0e-90f2-4cf5-a3ef-fa5904dc77cf"},"vehicle_type_id":"4","last_reported":1731427890,"current_range_meters":33600,"station_id":"ce4bhb92rcd13ifvqen0","pricing_plan_id":"cebpf4jnsgd1na2vs0mg"},{"bike_id":"44a85343-f177-4904-8616-4b62e063a17c","system_id":"levelo_inurba_marseille","lat":43.290022,"lon":5.356133,"is_reserved":false,"is_disabled":false,"rental_uris":{"android":"levelo://app?vid=44a85343-f177-4904-8616-4b62e063a17c","ios":"levelo://app?vid=44a85343-f177-4904-8616-4b62e063a17c"},"vehicle_type_id":"4","last_reported":1731427890,"current_range_meters":40000,"station_id":"ce4bhb92rcd13ifvqen0","pricing_plan_id":"cebpf4jnsgd1na2vs0mg"},{"bike_id":"f4e02794-322e-4818-830c-8d3b2c66c4ee","system_id":"levelo_inurba_marseille","lat":43.33615,"lon":5.41,"is_reserved":false,"is_disabled":false,"rental_uris":{"android":"levelo://app?vid=f4e02794-322e-4818-830c-8d3b2c66c4ee","ios":"levelo://app?vid=f4e02794-322e-4818-830c-8d3b2c66c4ee"},"vehicle_type_id":"4","last_reported":1731427890,"current_range_meters":36800,"station_id":"ce4bhqh2rcd13ifvqhmg","pricing_plan_id":"cebpf4jnsgd1na2vs0mg"},{"bike_id":"9b4e8d81-e871-4e30-9562-90125475bda8","system_id":"levelo_inurba_marseille","lat":43.2799,"lon":5.3876,"is_reserved":false,"is_disabled":false,"rental_uris":{"android":"levelo://app?vid=9b4e8d81-e871-4e30-9562-90125475bda8","ios":"levelo://app?vid=9b4e8d81-e871-4e30-9562-90125475bda8"},"vehicle_type_id":"4","last_reported":1731427890,"current_range_meters":39200,"station_id":"ce4bhg12rcd13ifvqf80","pricing_plan_id":"cebpf4jnsgd1na2vs0mg"},{"bike_id":"59d7e861-e3d3-4088-bc9c-c43fc36cf4fe","system_id":"levelo_inurba_marseille","lat":43.24084,"lon":5.37744,"is_reserved":false,"is_disabled":false,"rental_uris":{"android":"levelo://app?vid=59d7e861-e3d3-4088-bc9c-c43fc36cf4fe","ios":"levelo://app?vid=59d7e861-e3d3-4088-bc9c-c43fc36cf4fe"},"vehicle_type_id":"4","last_reported":1731427890,"current_range_meters":6400,"station_id":"ce4bhnp2rcd13ifvqgvg","pricing_plan_id":"cebpf4jnsgd1na2vs0mg"},{"bike_id":"9e15b188-2341-4d66-8a22-cefbe21774ba","system_id":"levelo_inurba_marseille","lat":43.31227,"lon":5.36856,"is_reserved":false,"is_disabled":false,"rental_uris":{"android":"levelo://app?vid=9e15b188-2341-4d66-8a22-cefbe21774ba","ios":"levelo://app?vid=9e15b188-2341-4d66-8a22-cefbe21774ba"},"vehicle_type_id":"4","last_reported":1731427890,"current_range_meters":27200,"station_id":"ce4bgl92rcd13ifvqbq0","pricing_plan_id":"cebpf4jnsgd1na2vs0mg"},{"bike_id":"ae5855c0-8447-495f-a998-74b81686d82e","system_id":"levelo_inurba_marseille","lat":43.26684,"lon":5.38271,"is_reserved":false,"is_disabled":false,"rental_uris":{"android":"levelo://app?vid=ae5855c0-8447-495f-a998-74b81686d82e","ios":"levelo://app?vid=ae5855c0-8447-495f-a998-74b81686d82e"},"vehicle_type_id":"4","last_reported":1731427890,"current_range_meters":40000,"station_id":"ce4bhg92rcd13ifvqf90","pricing_plan_id":"cebpf4jnsgd1na2vs0mg"},{"bike_id":"d265751d-fa37-4729-b8e3-a5848e7e9d07","system_id":"levelo_inurba_marseille","lat":43.24804,"lon":5.37455,"is_reserved":false,"is_disabled":false,"rental_uris":{"android":"levelo://app?vid=d265751d-fa37-4729-b8e3-a5848e7e9d07","ios":"levelo://app?vid=d265751d-fa37-4729-b8e3-a5848e7e9d07"},"vehicle_type_id":"4","last_reported":1731427890,"current_range_meters":39200,"station_id":"ce4bhgh2rcd13ifvqfb0","pricing_plan_id":"cebpf4jnsgd1na2vs0mg"},{"bike_id":"e4557244-baef-4fb7-ae0e-00398e2706db","system_id":"levelo_inurba_marseille","lat":43.28456,"lon":5.3589,"is_reserved":false,"is_disabled":false,"rental_uris":{"android":"levelo://app?vid=e4557244-baef-4fb7-ae0e-00398e2706db","ios":"levelo://app?vid=e4557244-baef-4fb7-ae0e-00398e2706db"},"vehicle_type_id":"4","last_reported":1731427890,"current_range_meters":28800,"station_id":"ce4bhah2rcd13ifvqei0","pricing_plan_id":"cebpf4jnsgd1na2vs0mg"},{"bike_id":"991bef25-7582-49b4-bbf4-c554ae6b520f","system_id":"levelo_inurba_marseille","lat":43.2985,"lon":5.36276,"is_reserved":false,"is_disabled":false,"rental_uris":{"android":"levelo://app?vid=991bef25-7582-49b4-bbf4-c554ae6b520f","ios":"levelo://app?vid=991bef25-7582-49b4-bbf4-c554ae6b520f"},"vehicle_type_id":"4","last_reported":1731427890,"current_range_meters":39200,"station_id":"ce4bgpp2rcd13ifvqc3g","pricing_plan_id":"cebpf4jnsgd1na2vs0mg"},{"bike_id":"e932da9b-73cd-4d5c-a822-b2b942452378","system_id":"levelo_inurba_marseille","lat":43.298153,"lon":5.380931,"is_reserved":false,"is_disabled":false,"rental_uris":{"android":"levelo://app?vid=e932da9b-73cd-4d5c-a822-b2b942452378","ios":"levelo://app?vid=e932da9b-73cd-4d5c-a822-b2b942452378"},"vehicle_type_id":"4","last_reported":1731427890,"current_range_meters":33200,"station_id":"ce4bgip2rcd13ifvqbb0","pricing_plan_id":"cebpf4jnsgd1na2vs0mg"},{"bike_id":"b13eeb0a-73a4-408e-9ecc-aa41e456eba1","system_id":"levelo_inurba_marseille","lat":43.32659,"lon":5.40999,"is_reserved":false,"is_disabled":false,"rental_uris":{"android":"levelo://app?vid=b13eeb0a-73a4-408e-9ecc-aa41e456eba1","ios":"levelo://app?vid=b13eeb0a-73a4-408e-9ecc-aa41e456eba1"},"vehicle_type_id":"4","last_reported":1731427890,"current_range_meters":38800,"station_id":"ce4bhpp2rcd13ifvqhgg","pricing_plan_id":"cebpf4jnsgd1na2vs0mg"},{"bike_id":"47f68d1a-08bc-4a05-95ab-0c37ad1d556f","system_id":"levelo_inurba_marseille","lat":43.31722,"lon":5.42401,"is_reserved":false,"is_disabled":false,"rental_uris":{"android":"levelo://app?vid=47f68d1a-08bc-4a05-95ab-0c37ad1d556f","ios":"levelo://app?vid=47f68d1a-08bc-4a05-95ab-0c37ad1d556f"},"vehicle_type_id":"4","last_reported":1731427890,"current_range_meters":39200,"station_id":"ce4bhp92rcd13ifvqhbg","pricing_plan_id":"cebpf4jnsgd1na2vs0mg"},{"bike_id":"ff79dbb3-d3d7-4791-b7c9-e1676e2757ff","system_id":"levelo_inurba_marseille","lat":43.29988,"lon":5.37187,"is_reserved":false,"is_disabled":false,"rental_uris":{"android":"levelo://app?vid=ff79dbb3-d3d7-4791-b7c9-e1676e2757ff","ios":"levelo://app?vid=ff79dbb3-d3d7-4791-b7c9-e1676e2757ff"},"vehicle_type_id":"4","last_reported":1731427890,"current_range_meters":38800,"station_id":"ce4bgr92rcd13ifvqc7g","pricing_plan_id":"cebpf4jnsgd1na2vs0mg"},{"bike_id":"dafcd14f-9c44-41c3-ab9c-fa462e1c91ac","system_id":"levelo_inurba_marseille","lat":43.25937,"lon":5.40906,"is_reserved":false,"is_disabled":false,"rental_uris":{"android":"levelo://app?vid=dafcd14f-9c44-41c3-ab9c-fa462e1c91ac","ios":"levelo://app?vid=dafcd14f-9c44-41c3-ab9c-fa462e1c91ac"},"vehicle_type_id":"4","last_reported":1731427890,"current_range_meters":30000,"station_id":"ce4bhm92rcd13ifvqglg","pricing_plan_id":"cebpf4jnsgd1na2vs0mg"},{"bike_id":"bbcd3432-7c91-4287-abb0-e58d1d91530d","system_id":"levelo_inurba_marseille","lat":43.30096,"lon":5.39073,"is_reserved":false,"is_disabled":false,"rental_uris":{"android":"levelo://app?vid=bbcd3432-7c91-4287-abb0-e58d1d91530d","ios":"levelo://app?vid=bbcd3432-7c91-4287-abb0-e58d1d91530d"},"vehicle_type_id":"4","last_reported":1731427890,"current_range_meters":38000,"station_id":"ce4bh192rcd13ifvqdb0","pricing_plan_id":"cebpf4jnsgd1na2vs0mg"},{"bike_id":"b707bec1-0851-4c8c-8148-261ca929a1a9","system_id":"levelo_inurba_marseille","lat":43.29517,"lon":5.39406,"is_reserved":false,"is_disabled":false,"rental_uris":{"android":"levelo://app?vid=b707bec1-0851-4c8c-8148-261ca929a1a9","ios":"levelo://app?vid=b707bec1-0851-4c8c-8148-261ca929a1a9"},"vehicle_type_id":"4","last_reported":1731427890,"current_range_meters":38400,"station_id":"ce4bh292rcd13ifvqdf0","pricing_plan_id":"cebpf4jnsgd1na2vs0mg"},{"bike_id":"2d1792f0-af76-4d9e-9073-6b58abd1668b","system_id":"levelo_inurba_marseille","lat":43.27898,"lon":5.38013,"is_reserved":false,"is_disabled":false,"rental_uris":{"android":"levelo://app?vid=2d1792f0-af76-4d9e-9073-6b58abd1668b","ios":"levelo://app?vid=2d1792f0-af76-4d9e-9073-6b58abd1668b"},"vehicle_type_id":"4","last_reported":1731427890,"current_range_meters":40000,"station_id":"ce4bhf92rcd13ifvqf50","pricing_plan_id":"cebpf4jnsgd1na2vs0mg"},{"bike_id":"2f6a75d1-f004-4849-bdb4-a05b6674c90f","system_id":"levelo_inurba_marseille","lat":43.28484,"lon":5.38416,"is_reserved":false,"is_disabled":false,"rental_uris":{"android":"levelo://app?vid=2f6a75d1-f004-4849-bdb4-a05b6674c90f","ios":"levelo://app?vid=2f6a75d1-f004-4849-bdb4-a05b6674c90f"},"vehicle_type_id":"4","last_reported":1731427890,"current_range_meters":32000,"station_id":"ce4bh512rcd13ifvqe3g","pricing_plan_id":"cebpf4jnsgd1na2vs0mg"},{"bike_id":"029b7d55-b878-44f5-aa77-92022f9d080b","system_id":"levelo_inurba_marseille","lat":43.301603,"lon":5.366253,"is_reserved":false,"is_disabled":false,"rental_uris":{"android":"levelo://app?vid=029b7d55-b878-44f5-aa77-92022f9d080b","ios":"levelo://app?vid=029b7d55-b878-44f5-aa77-92022f9d080b"},"vehicle_type_id":"4","last_reported":1731427890,"current_range_meters":22000,"station_id":"ce4bgrh2rcd13ifvqc8g","pricing_plan_id":"cebpf4jnsgd1na2vs0mg"},{"bike_id":"b705c908-66d9-41e8-b585-31a8e65bd24c","system_id":"levelo_inurba_marseille","lat":43.29594,"lon":5.38103,"is_reserved":false,"is_disabled":false,"rental_uris":{"android":"levelo://app?vid=b705c908-66d9-41e8-b585-31a8e65bd24c","ios":"levelo://app?vid=b705c908-66d9-41e8-b585-31a8e65bd24c"},"vehicle_type_id":"4","last_reported":1731427890,"current_range_meters":39200,"station_id":"ce4bgl12rcd13ifvqbo0","pricing_plan_id":"cebpf4jnsgd1na2vs0mg"},{"bike_id":"556ad8f3-9c23-4ff9-a927-b3672d9a902b","system_id":"levelo_inurba_marseille","lat":43.289948,"lon":5.383751,"is_reserved":false,"is_disabled":false,"rental_uris":{"android":"levelo://app?vid=556ad8f3-9c23-4ff9-a927-b3672d9a902b","ios":"levelo://app?vid=556ad8f3-9c23-4ff9-a927-b3672d9a902b"},"vehicle_type_id":"4","last_reported":1731427890,"current_range_meters":30400,"station_id":"ce4bh612rcd13ifvqe6g","pricing_plan_id":"cebpf4jnsgd1na2vs0mg"},{"bike_id":"310bf956-2d0c-40fb-9411-0b80e8e2b383","system_id":"levelo_inurba_marseille","lat":43.3032,"lon":5.40447,"is_reserved":false,"is_disabled":false,"rental_uris":{"android":"levelo://app?vid=310bf956-2d0c-40fb-9411-0b80e8e2b383","ios":"levelo://app?vid=310bf956-2d0c-40fb-9411-0b80e8e2b383"},"vehicle_type_id":"4","last_reported":1731427890,"current_range_meters":6000,"station_id":"ce4bh012rcd13ifvqd10","pricing_plan_id":"cebpf4jnsgd1na2vs0mg"},{"bike_id":"e8e02d9c-9f18-44fb-893f-40424ddd086b","system_id":"levelo_inurba_marseille","lat":43.28459,"lon":5.359,"is_reserved":false,"is_disabled":false,"rental_uris":{"android":"levelo://app?vid=e8e02d9c-9f18-44fb-893f-40424ddd086b","ios":"levelo://app?vid=e8e02d9c-9f18-44fb-893f-40424ddd086b"},"vehicle_type_id":"4","last_reported":1731427890,"current_range_meters":40000,"station_id":"ce4bhah2rcd13ifvqei0","pricing_plan_id":"cebpf4jnsgd1na2vs0mg"},{"bike_id":"713dcfaf-9041-47d5-b8a5-e21dda882f9d","system_id":"levelo_inurba_marseille","lat":43.302922,"lon":5.368875,"is_reserved":false,"is_disabled":false,"rental_uris":{"android":"levelo://app?vid=713dcfaf-9041-47d5-b8a5-e21dda882f9d","ios":"levelo://app?vid=713dcfaf-9041-47d5-b8a5-e21dda882f9d"},"vehicle_type_id":"4","last_reported":1731427890,"current_range_meters":38400,"station_id":"ce4bgqh2rcd13ifvqc5g","pricing_plan_id":"cebpf4jnsgd1na2vs0mg"},{"bike_id":"1740a8aa-c44f-4c36-a230-385a32395a5f","system_id":"levelo_inurba_marseille","lat":43.28722,"lon":5.36089,"is_reserved":false,"is_disabled":false,"rental_uris":{"android":"levelo://app?vid=1740a8aa-c44f-4c36-a230-385a32395a5f","ios":"levelo://app?vid=1740a8aa-c44f-4c36-a230-385a32395a5f"},"vehicle_type_id":"4","last_reported":1731427890,"current_range_meters":39200,"station_id":"cki0cbj6b192h4jlfktg","pricing_plan_id":"cebpf4jnsgd1na2vs0mg"},{"bike_id":"2dd7535a-c116-4669-8e1d-caa19e32b5ba","system_id":"levelo_inurba_marseille","lat":43.240835,"lon":5.377439,"is_reserved":false,"is_disabled":false,"rental_uris":{"android":"levelo://app?vid=2dd7535a-c116-4669-8e1d-caa19e32b5ba","ios":"levelo://app?vid=2dd7535a-c116-4669-8e1d-caa19e32b5ba"},"vehicle_type_id":"4","last_reported":1731427890,"current_range_meters":14000,"station_id":"ce4bhnp2rcd13ifvqgvg","pricing_plan_id":"cebpf4jnsgd1na2vs0mg"},{"bike_id":"957b7f11-cf42-4303-a3a2-116187daa2b8","system_id":"levelo_inurba_marseille","lat":43.28706,"lon":5.39986,"is_reserved":false,"is_disabled":false,"rental_uris":{"android":"levelo://app?vid=957b7f11-cf42-4303-a3a2-116187daa2b8","ios":"levelo://app?vid=957b7f11-cf42-4303-a3a2-116187daa2b8"},"vehicle_type_id":"4","last_reported":1731427890,"current_range_meters":38000,"station_id":"ce4bho92rcd13ifvqh3g","pricing_plan_id":"cebpf4jnsgd1na2vs0mg"},{"bike_id":"bffb9ad5-11f9-4ac1-bc93-daa95e4d74a2","system_id":"levelo_inurba_marseille","lat":43.23177,"lon":5.39986,"is_reserved":false,"is_disabled":false,"rental_uris":{"android":"levelo://app?vid=bffb9ad5-11f9-4ac1-bc93-daa95e4d74a2","ios":"levelo://app?vid=bffb9ad5-11f9-4ac1-bc93-daa95e4d74a2"},"vehicle_type_id":"4","last_reported":1731427890,"current_range_meters":24400,"station_id":"ce4bhn12rcd13ifvqgqg","pricing_plan_id":"cebpf4jnsgd1na2vs0mg"},{"bike_id":"0d24819c-0f35-4eb6-b8ed-bc26c9af315b","system_id":"levelo_inurba_marseille","lat":43.29372,"lon":5.37852,"is_reserved":false,"is_disabled":false,"rental_uris":{"android":"levelo://app?vid=0d24819c-0f35-4eb6-b8ed-bc26c9af315b","ios":"levelo://app?vid=0d24819c-0f35-4eb6-b8ed-bc26c9af315b"},"vehicle_type_id":"4","last_reported":1731427890,"current_range_meters":9200,"station_id":"ce4bgjh2rcd13ifvqbf0","pricing_plan_id":"cebpf4jnsgd1na2vs0mg"},{"bike_id":"212b6c3f-ace3-45e8-99f0-447547f69bd6","system_id":"levelo_inurba_marseille","lat":43.27992,"lon":5.41665,"is_reserved":false,"is_disabled":false,"rental_uris":{"android":"levelo://app?vid=212b6c3f-ace3-45e8-99f0-447547f69bd6","ios":"levelo://app?vid=212b6c3f-ace3-45e8-99f0-447547f69bd6"},"vehicle_type_id":"4","last_reported":1731427890,"current_range_meters":40000,"station_id":"ce4bho12rcd13ifvqh1g","pricing_plan_id":"cebpf4jnsgd1na2vs0mg"},{"bike_id":"37bd2448-e517-48ca-bea6-f778e033d811","system_id":"levelo_inurba_marseille","lat":43.30541,"lon":5.3656,"is_reserved":false,"is_disabled":false,"rental_uris":{"android":"levelo://app?vid=37bd2448-e517-48ca-bea6-f778e033d811","ios":"levelo://app?vid=37bd2448-e517-48ca-bea6-f778e033d811"},"vehicle_type_id":"4","last_reported":1731427890,"current_range_meters":7200,"station_id":"ce4bgs12rcd13ifvqcag","pricing_plan_id":"cebpf4jnsgd1na2vs0mg"},{"bike_id":"c06af103-ce50-45ab-a766-7ad1d38cccbd","system_id":"levelo_inurba_marseille","lat":43.29911,"lon":5.37463,"is_reserved":false,"is_disabled":false,"rental_uris":{"android":"levelo://app?vid=c06af103-ce50-45ab-a766-7ad1d38cccbd","ios":"levelo://app?vid=c06af103-ce50-45ab-a766-7ad1d38cccbd"},"vehicle_type_id":"4","last_reported":1731427890,"current_range_meters":38000,"station_id":"ce4bgjh2rcd13ifvqbg0","pricing_plan_id":"cebpf4jnsgd1na2vs0mg"},{"bike_id":"8410d1ee-cb65-4f27-8d13-34eec427afc9","system_id":"levelo_inurba_marseille","lat":43.27315,"lon":5.39132,"is_reserved":false,"is_disabled":false,"rental_uris":{"android":"levelo://app?vid=8410d1ee-cb65-4f27-8d13-34eec427afc9","ios":"levelo://app?vid=8410d1ee-cb65-4f27-8d13-34eec427afc9"},"vehicle_type_id":"4","last_reported":1731427890,"current_range_meters":35600,"station_id":"ce4bhgp2rcd13ifvqfe0","pricing_plan_id":"cebpf4jnsgd1na2vs0mg"},{"bike_id":"6b5b780b-1915-41f3-95ca-02dd8c70600f","system_id":"levelo_inurba_marseille","lat":43.25488,"lon":5.37648,"is_reserved":false,"is_disabled":false,"rental_uris":{"android":"levelo://app?vid=6b5b780b-1915-41f3-95ca-02dd8c70600f","ios":"levelo://app?vid=6b5b780b-1915-41f3-95ca-02dd8c70600f"},"vehicle_type_id":"4","last_reported":1731427890,"current_range_meters":35200,"station_id":"ce4bhh12rcd13ifvqff0","pricing_plan_id":"cebpf4jnsgd1na2vs0mg"},{"bike_id":"d7263090-4e41-407d-9271-2db32801f77e","system_id":"levelo_inurba_marseille","lat":43.27832,"lon":5.39211,"is_reserved":false,"is_disabled":false,"rental_uris":{"android":"levelo://app?vid=d7263090-4e41-407d-9271-2db32801f77e","ios":"levelo://app?vid=d7263090-4e41-407d-9271-2db32801f77e"},"vehicle_type_id":"4","last_reported":1731427890,"current_range_meters":16000,"station_id":"ce4bhjp2rcd13ifvqga0","pricing_plan_id":"cebpf4jnsgd1na2vs0mg"},{"bike_id":"a1238551-2c9c-49c1-b739-8436875ad448","system_id":"levelo_inurba_marseille","lat":43.260642,"lon":5.393977,"is_reserved":false,"is_disabled":false,"rental_uris":{"android":"levelo://app?vid=a1238551-2c9c-49c1-b739-8436875ad448","ios":"levelo://app?vid=a1238551-2c9c-49c1-b739-8436875ad448"},"vehicle_type_id":"4","last_reported":1731427890,"current_range_meters":35600,"station_id":"ce4bhh92rcd13ifvqfj0","pricing_plan_id":"cebpf4jnsgd1na2vs0mg"},{"bike_id":"647d87d8-ed03-4344-9ce2-6aeae85a7109","system_id":"levelo_inurba_marseille","lat":43.28567,"lon":5.39514,"is_reserved":false,"is_disabled":false,"rental_uris":{"android":"levelo://app?vid=647d87d8-ed03-4344-9ce2-6aeae85a7109","ios":"levelo://app?vid=647d87d8-ed03-4344-9ce2-6aeae85a7109"},"vehicle_type_id":"4","last_reported":1731427890,"current_range_meters":5600,"station_id":"ce4bh292rcd13ifvqdg0","pricing_plan_id":"cebpf4jnsgd1na2vs0mg"},{"bike_id":"a434e7ae-a6da-4a10-a64a-9d96e40e21f5","system_id":"levelo_inurba_marseille","lat":43.29288,"lon":5.37453,"is_reserved":false,"is_disabled":false,"rental_uris":{"android":"levelo://app?vid=a434e7ae-a6da-4a10-a64a-9d96e40e21f5","ios":"levelo://app?vid=a434e7ae-a6da-4a10-a64a-9d96e40e21f5"},"vehicle_type_id":"4","last_reported":1731427890,"current_range_meters":22000,"station_id":"ce4bgi12rcd13ifvqb70","pricing_plan_id":"cebpf4jnsgd1na2vs0mg"},{"bike_id":"d55f2b6d-e425-4151-ae62-84ee7121981f","system_id":"levelo_inurba_marseille","lat":43.24807,"lon":5.37459,"is_reserved":false,"is_disabled":false,"rental_uris":{"android":"levelo://app?vid=d55f2b6d-e425-4151-ae62-84ee7121981f","ios":"levelo://app?vid=d55f2b6d-e425-4151-ae62-84ee7121981f"},"vehicle_type_id":"4","last_reported":1731427890,"current_range_meters":12000,"station_id":"ce4bhgh2rcd13ifvqfb0","pricing_plan_id":"cebpf4jnsgd1na2vs0mg"},{"bike_id":"ac702bda-51a4-4f87-bb8b-945bd68c9bd2","system_id":"levelo_inurba_marseille","lat":43.27427,"lon":5.39426,"is_reserved":false,"is_disabled":false,"rental_uris":{"android":"levelo://app?vid=ac702bda-51a4-4f87-bb8b-945bd68c9bd2","ios":"levelo://app?vid=ac702bda-51a4-4f87-bb8b-945bd68c9bd2"},"vehicle_type_id":"4","last_reported":1731427890,"current_range_meters":39200,"station_id":"ce4bhdp2rcd13ifvqf20","pricing_plan_id":"cebpf4jnsgd1na2vs0mg"},{"bike_id":"3418ac43-f884-441f-8da3-861a705100f3","system_id":"levelo_inurba_marseille","lat":43.29009,"lon":5.35616,"is_reserved":false,"is_disabled":false,"rental_uris":{"android":"levelo://app?vid=3418ac43-f884-441f-8da3-861a705100f3","ios":"levelo://app?vid=3418ac43-f884-441f-8da3-861a705100f3"},"vehicle_type_id":"4","last_reported":1731427890,"current_range_meters":35200,"station_id":"ce4bhb92rcd13ifvqen0","pricing_plan_id":"cebpf4jnsgd1na2vs0mg"},{"bike_id":"c4472169-5e60-4eb5-93c1-cfea6cf859ae","system_id":"levelo_inurba_marseille","lat":43.26496,"lon":5.39548,"is_reserved":false,"is_disabled":false,"rental_uris":{"android":"levelo://app?vid=c4472169-5e60-4eb5-93c1-cfea6cf859ae","ios":"levelo://app?vid=c4472169-5e60-4eb5-93c1-cfea6cf859ae"},"vehicle_type_id":"4","last_reported":1731427890,"current_range_meters":22000,"station_id":"ce4bhi12rcd13ifvqfq0","pricing_plan_id":"cebpf4jnsgd1na2vs0mg"},{"bike_id":"31c32401-df06-402e-8dde-bc5d6c9fdeb1","system_id":"levelo_inurba_marseille","lat":43.28371,"lon":5.38624,"is_reserved":false,"is_disabled":false,"rental_uris":{"android":"levelo://app?vid=31c32401-df06-402e-8dde-bc5d6c9fdeb1","ios":"levelo://app?vid=31c32401-df06-402e-8dde-bc5d6c9fdeb1"},"vehicle_type_id":"4","last_reported":1731427890,"current_range_meters":39200,"station_id":"ce4bh492rcd13ifvqdvg","pricing_plan_id":"cebpf4jnsgd1na2vs0mg"},{"bike_id":"bdf0beac-151c-434e-af99-7b13a1d3236a","system_id":"levelo_inurba_marseille","lat":43.29271,"lon":5.36848,"is_reserved":false,"is_disabled":false,"rental_uris":{"android":"levelo://app?vid=bdf0beac-151c-434e-af99-7b13a1d3236a","ios":"levelo://app?vid=bdf0beac-151c-434e-af99-7b13a1d3236a"},"vehicle_type_id":"4","last_reported":1731427890,"current_range_meters":36800,"station_id":"ce4bhbp2rcd13ifvqesg","pricing_plan_id":"cebpf4jnsgd1na2vs0mg"},{"bike_id":"d8022146-4a81-4f19-9d29-6e54d8764c2c","system_id":"levelo_inurba_marseille","lat":43.29621,"lon":5.37724,"is_reserved":false,"is_disabled":false,"rental_uris":{"android":"levelo://app?vid=d8022146-4a81-4f19-9d29-6e54d8764c2c","ios":"levelo://app?vid=d8022146-4a81-4f19-9d29-6e54d8764c2c"},"vehicle_type_id":"4","last_reported":1731427890,"current_range_meters":38800,"station_id":"ce4bgi92rcd13ifvqb90","pricing_plan_id":"cebpf4jnsgd1na2vs0mg"},{"bike_id":"e338f0fe-166d-439e-9e73-fc1e9bec76fb","system_id":"levelo_inurba_marseille","lat":43.30877,"lon":5.39649,"is_reserved":false,"is_disabled":false,"rental_uris":{"android":"levelo://app?vid=e338f0fe-166d-439e-9e73-fc1e9bec76fb","ios":"levelo://app?vid=e338f0fe-166d-439e-9e73-fc1e9bec76fb"},"vehicle_type_id":"4","last_reported":1731427890,"current_range_meters":36400,"station_id":"ce4bh012rcd13ifvqcv0","pricing_plan_id":"cebpf4jnsgd1na2vs0mg"},{"bike_id":"e21094bb-0b40-49c6-bf07-0a36f0bc185b","system_id":"levelo_inurba_marseille","lat":43.29295,"lon":5.37464,"is_reserved":false,"is_disabled":false,"rental_uris":{"android":"levelo://app?vid=e21094bb-0b40-49c6-bf07-0a36f0bc185b","ios":"levelo://app?vid=e21094bb-0b40-49c6-bf07-0a36f0bc185b"},"vehicle_type_id":"4","last_reported":1731427890,"current_range_meters":38800,"station_id":"ce4bgi12rcd13ifvqb70","pricing_plan_id":"cebpf4jnsgd1na2vs0mg"},{"bike_id":"02a3f1fa-1b00-4bb2-8845-d89d50875ff5","system_id":"levelo_inurba_marseille","lat":43.32361,"lon":5.38883,"is_reserved":false,"is_disabled":false,"rental_uris":{"android":"levelo://app?vid=02a3f1fa-1b00-4bb2-8845-d89d50875ff5","ios":"levelo://app?vid=02a3f1fa-1b00-4bb2-8845-d89d50875ff5"},"vehicle_type_id":"4","last_reported":1731427890,"current_range_meters":36400,"station_id":"ce4bhqp2rcd13ifvqhog","pricing_plan_id":"cebpf4jnsgd1na2vs0mg"},{"bike_id":"91396e2c-9f64-4b07-9603-7237ff652da5","system_id":"levelo_inurba_marseille","lat":43.28156,"lon":5.42642,"is_reserved":false,"is_disabled":false,"rental_uris":{"android":"levelo://app?vid=91396e2c-9f64-4b07-9603-7237ff652da5","ios":"levelo://app?vid=91396e2c-9f64-4b07-9603-7237ff652da5"},"vehicle_type_id":"4","last_reported":1731427890,"current_range_meters":37600,"station_id":"ce4bhnh2rcd13ifvqgug","pricing_plan_id":"cebpf4jnsgd1na2vs0mg"},{"bike_id":"50eca3bf-955e-43ef-bbe1-5165802c7a35","system_id":"levelo_inurba_marseille","lat":43.296369,"lon":5.405753,"is_reserved":false,"is_disabled":false,"rental_uris":{"android":"levelo://app?vid=50eca3bf-955e-43ef-bbe1-5165802c7a35","ios":"levelo://app?vid=50eca3bf-955e-43ef-bbe1-5165802c7a35"},"vehicle_type_id":"4","last_reported":1731427890,"current_range_meters":24000,"station_id":"ce4bh0h2rcd13ifvqd60","pricing_plan_id":"cebpf4jnsgd1na2vs0mg"},{"bike_id":"23371319-3326-4e94-b694-68f01aa3521f","system_id":"levelo_inurba_marseille","lat":43.337444,"lon":5.374475,"is_reserved":false,"is_disabled":false,"rental_uris":{"android":"levelo://app?vid=23371319-3326-4e94-b694-68f01aa3521f","ios":"levelo://app?vid=23371319-3326-4e94-b694-68f01aa3521f"},"vehicle_type_id":"4","last_reported":1731427890,"current_range_meters":36800,"station_id":"","pricing_plan_id":"cebpf4jnsgd1na2vs0mg"},{"bike_id":"daafac50-d1fb-44ef-8ca3-984e6ad5772a","system_id":"levelo_inurba_marseille","lat":43.25938,"lon":5.40898,"is_reserved":false,"is_disabled":false,"rental_uris":{"android":"levelo://app?vid=daafac50-d1fb-44ef-8ca3-984e6ad5772a","ios":"levelo://app?vid=daafac50-d1fb-44ef-8ca3-984e6ad5772a"},"vehicle_type_id":"4","last_reported":1731427890,"current_range_meters":34000,"station_id":"ce4bhm92rcd13ifvqglg","pricing_plan_id":"cebpf4jnsgd1na2vs0mg"},{"bike_id":"181c7f73-9f83-4905-89f0-f85f48fe72c2","system_id":"levelo_inurba_marseille","lat":43.29871,"lon":5.39734,"is_reserved":false,"is_disabled":false,"rental_uris":{"android":"levelo://app?vid=181c7f73-9f83-4905-89f0-f85f48fe72c2","ios":"levelo://app?vid=181c7f73-9f83-4905-89f0-f85f48fe72c2"},"vehicle_type_id":"4","last_reported":1731427890,"current_range_meters":36400,"station_id":"ce4bh0h2rcd13ifvqd50","pricing_plan_id":"cebpf4jnsgd1na2vs0mg"},{"bike_id":"15484e1f-9365-41e9-9d29-b59d458d508d","system_id":"levelo_inurba_marseille","lat":43.29295,"lon":5.37454,"is_reserved":false,"is_disabled":false,"rental_uris":{"android":"levelo://app?vid=15484e1f-9365-41e9-9d29-b59d458d508d","ios":"levelo://app?vid=15484e1f-9365-41e9-9d29-b59d458d508d"},"vehicle_type_id":"4","last_reported":1731427890,"current_range_meters":34800,"station_id":"ce4bgi12rcd13ifvqb70","pricing_plan_id":"cebpf4jnsgd1na2vs0mg"},{"bike_id":"c6f26955-ac6f-46fe-a49d-23d610a75287","system_id":"levelo_inurba_marseille","lat":43.31701,"lon":5.3774,"is_reserved":false,"is_disabled":false,"rental_uris":{"android":"levelo://app?vid=c6f26955-ac6f-46fe-a49d-23d610a75287","ios":"levelo://app?vid=c6f26955-ac6f-46fe-a49d-23d610a75287"},"vehicle_type_id":"4","last_reported":1731427890,"current_range_meters":28400,"station_id":"ce4bgth2rcd13ifvqch0","pricing_plan_id":"cebpf4jnsgd1na2vs0mg"},{"bike_id":"f6ec8717-1c2c-4c9c-90c5-29827b3ed065","system_id":"levelo_inurba_marseille","lat":43.28858,"lon":5.35846,"is_reserved":false,"is_disabled":false,"rental_uris":{"android":"levelo://app?vid=f6ec8717-1c2c-4c9c-90c5-29827b3ed065","ios":"levelo://app?vid=f6ec8717-1c2c-4c9c-90c5-29827b3ed065"},"vehicle_type_id":"4","last_reported":1731427890,"current_range_meters":38800,"station_id":"ce4bhb12rcd13ifvqem0","pricing_plan_id":"cebpf4jnsgd1na2vs0mg"},{"bike_id":"e4d8f0dd-43a2-4f26-8d98-25f8d913adf2","system_id":"levelo_inurba_marseille","lat":43.26561,"lon":5.39009,"is_reserved":false,"is_disabled":false,"rental_uris":{"android":"levelo://app?vid=e4d8f0dd-43a2-4f26-8d98-25f8d913adf2","ios":"levelo://app?vid=e4d8f0dd-43a2-4f26-8d98-25f8d913adf2"},"vehicle_type_id":"4","last_reported":1731427890,"current_range_meters":35600,"station_id":"ce4bhe12rcd13ifvqf30","pricing_plan_id":"cebpf4jnsgd1na2vs0mg"},{"bike_id":"65bc59b2-eb1a-45ed-920e-4bc48c9c93e9","system_id":"levelo_inurba_marseille","lat":43.29093,"lon":5.38132,"is_reserved":false,"is_disabled":false,"rental_uris":{"android":"levelo://app?vid=65bc59b2-eb1a-45ed-920e-4bc48c9c93e9","ios":"levelo://app?vid=65bc59b2-eb1a-45ed-920e-4bc48c9c93e9"},"vehicle_type_id":"4","last_reported":1731427890,"current_range_meters":39200,"station_id":"ce4bh512rcd13ifvqe2g","pricing_plan_id":"cebpf4jnsgd1na2vs0mg"},{"bike_id":"742db710-4051-4413-9191-d4bf0ffac143","system_id":"levelo_inurba_marseille","lat":43.30353,"lon":5.41883,"is_reserved":false,"is_disabled":false,"rental_uris":{"android":"levelo://app?vid=742db710-4051-4413-9191-d4bf0ffac143","ios":"levelo://app?vid=742db710-4051-4413-9191-d4bf0ffac143"},"vehicle_type_id":"4","last_reported":1731427890,"current_range_meters":28400,"station_id":"ce4bhop2rcd13ifvqh7g","pricing_plan_id":"cebpf4jnsgd1na2vs0mg"},{"bike_id":"fec10551-f379-49ba-9ca2-8a635f99a617","system_id":"levelo_inurba_marseille","lat":43.337444,"lon":5.374475,"is_reserved":false,"is_disabled":false,"rental_uris":{"android":"levelo://app?vid=fec10551-f379-49ba-9ca2-8a635f99a617","ios":"levelo://app?vid=fec10551-f379-49ba-9ca2-8a635f99a617"},"vehicle_type_id":"4","last_reported":1731427890,"current_range_meters":38800,"station_id":"","pricing_plan_id":"cebpf4jnsgd1na2vs0mg"},{"bike_id":"979b0182-b0c0-414a-ac99-0bb48afc867b","system_id":"levelo_inurba_marseille","lat":43.27417,"lon":5.38948,"is_reserved":false,"is_disabled":false,"rental_uris":{"android":"levelo://app?vid=979b0182-b0c0-414a-ac99-0bb48afc867b","ios":"levelo://app?vid=979b0182-b0c0-414a-ac99-0bb48afc867b"},"vehicle_type_id":"4","last_reported":1731427890,"current_range_meters":13600,"station_id":"","pricing_plan_id":"cebpf4jnsgd1na2vs0mg"},{"bike_id":"ca8e5c5f-e3f7-4240-b01c-610c7aa768fb","system_id":"levelo_inurba_marseille","lat":43.26192,"lon":5.37446,"is_reserved":false,"is_disabled":false,"rental_uris":{"android":"levelo://app?vid=ca8e5c5f-e3f7-4240-b01c-610c7aa768fb","ios":"levelo://app?vid=ca8e5c5f-e3f7-4240-b01c-610c7aa768fb"},"vehicle_type_id":"4","last_reported":1731427890,"current_range_meters":36800,"station_id":"ce4bhgp2rcd13ifvqfc0","pricing_plan_id":"cebpf4jnsgd1na2vs0mg"},{"bike_id":"9226043b-87e5-487a-82e8-3478e5410da2","system_id":"levelo_inurba_marseille","lat":43.26557,"lon":5.37285,"is_reserved":false,"is_disabled":false,"rental_uris":{"android":"levelo://app?vid=9226043b-87e5-487a-82e8-3478e5410da2","ios":"levelo://app?vid=9226043b-87e5-487a-82e8-3478e5410da2"},"vehicle_type_id":"4","last_reported":1731427890,"current_range_meters":16800,"station_id":"ce4bhg12rcd13ifvqf70","pricing_plan_id":"cebpf4jnsgd1na2vs0mg"},{"bike_id":"2a5246ff-fffc-4f0e-904d-e62f54b49399","system_id":"levelo_inurba_marseille","lat":43.29027,"lon":5.38646,"is_reserved":false,"is_disabled":false,"rental_uris":{"android":"levelo://app?vid=2a5246ff-fffc-4f0e-904d-e62f54b49399","ios":"levelo://app?vid=2a5246ff-fffc-4f0e-904d-e62f54b49399"},"vehicle_type_id":"4","last_reported":1731427890,"current_range_meters":36400,"station_id":"ce4bh4p2rcd13ifvqe0g","pricing_plan_id":"cebpf4jnsgd1na2vs0mg"},{"bike_id":"997e8ac0-1d46-4817-95d5-b61546cadfd8","system_id":"levelo_inurba_marseille","lat":43.22934,"lon":5.35381,"is_reserved":false,"is_disabled":false,"rental_uris":{"android":"levelo://app?vid=997e8ac0-1d46-4817-95d5-b61546cadfd8","ios":"levelo://app?vid=997e8ac0-1d46-4817-95d5-b61546cadfd8"},"vehicle_type_id":"4","last_reported":1731427890,"current_range_meters":38000,"station_id":"cpo3532slgdg3j2ikp40","pricing_plan_id":"cebpf4jnsgd1na2vs0mg"},{"bike_id":"62664b4b-90ec-46c4-8a1b-e420df011838","system_id":"levelo_inurba_marseille","lat":43.28042,"lon":5.36947,"is_reserved":false,"is_disabled":false,"rental_uris":{"android":"levelo://app?vid=62664b4b-90ec-46c4-8a1b-e420df011838","ios":"levelo://app?vid=62664b4b-90ec-46c4-8a1b-e420df011838"},"vehicle_type_id":"4","last_reported":1731427890,"current_range_meters":6000,"station_id":"ce4bha12rcd13ifvqef0","pricing_plan_id":"cebpf4jnsgd1na2vs0mg"},{"bike_id":"ac3319ff-f4fc-4a4a-9405-971d1f31dafa","system_id":"levelo_inurba_marseille","lat":43.25933,"lon":5.40906,"is_reserved":false,"is_disabled":false,"rental_uris":{"android":"levelo://app?vid=ac3319ff-f4fc-4a4a-9405-971d1f31dafa","ios":"levelo://app?vid=ac3319ff-f4fc-4a4a-9405-971d1f31dafa"},"vehicle_type_id":"4","last_reported":1731427890,"current_range_meters":32400,"station_id":"ce4bhm92rcd13ifvqglg","pricing_plan_id":"cebpf4jnsgd1na2vs0mg"},{"bike_id":"bbfd6fe6-ea32-457d-ad78-731abee42f84","system_id":"levelo_inurba_marseille","lat":43.29441,"lon":5.39752,"is_reserved":false,"is_disabled":false,"rental_uris":{"android":"levelo://app?vid=bbfd6fe6-ea32-457d-ad78-731abee42f84","ios":"levelo://app?vid=bbfd6fe6-ea32-457d-ad78-731abee42f84"},"vehicle_type_id":"4","last_reported":1731427890,"current_range_meters":36000,"station_id":"ce4bh3h2rcd13ifvqdo0","pricing_plan_id":"cebpf4jnsgd1na2vs0mg"},{"bike_id":"26f65c16-8052-467b-bf54-96f7ebcfb747","system_id":"levelo_inurba_marseille","lat":43.30646,"lon":5.40078,"is_reserved":false,"is_disabled":false,"rental_uris":{"android":"levelo://app?vid=26f65c16-8052-467b-bf54-96f7ebcfb747","ios":"levelo://app?vid=26f65c16-8052-467b-bf54-96f7ebcfb747"},"vehicle_type_id":"4","last_reported":1731427890,"current_range_meters":38800,"station_id":"ce4bh112rcd13ifvqda0","pricing_plan_id":"cebpf4jnsgd1na2vs0mg"},{"bike_id":"37870785-8ab8-4301-ae7a-7ee5f0ed57bb","system_id":"levelo_inurba_marseille","lat":43.31478,"lon":5.3731,"is_reserved":false,"is_disabled":false,"rental_uris":{"android":"levelo://app?vid=37870785-8ab8-4301-ae7a-7ee5f0ed57bb","ios":"levelo://app?vid=37870785-8ab8-4301-ae7a-7ee5f0ed57bb"},"vehicle_type_id":"4","last_reported":1731427890,"current_range_meters":24800,"station_id":"ce4bgt12rcd13ifvqcd0","pricing_plan_id":"cebpf4jnsgd1na2vs0mg"},{"bike_id":"a47de0d2-fa11-4e58-936c-b9a545aa01ef","system_id":"levelo_inurba_marseille","lat":43.24073,"lon":5.37758,"is_reserved":false,"is_disabled":false,"rental_uris":{"android":"levelo://app?vid=a47de0d2-fa11-4e58-936c-b9a545aa01ef","ios":"levelo://app?vid=a47de0d2-fa11-4e58-936c-b9a545aa01ef"},"vehicle_type_id":"4","last_reported":1731427890,"current_range_meters":33600,"station_id":"ce4bhnp2rcd13ifvqgvg","pricing_plan_id":"cebpf4jnsgd1na2vs0mg"},{"bike_id":"0ae5cb43-ba39-4e30-9afd-9525bcb1c87f","system_id":"levelo_inurba_marseille","lat":43.30532,"lon":5.38436,"is_reserved":false,"is_disabled":false,"rental_uris":{"android":"levelo://app?vid=0ae5cb43-ba39-4e30-9afd-9525bcb1c87f","ios":"levelo://app?vid=0ae5cb43-ba39-4e30-9afd-9525bcb1c87f"},"vehicle_type_id":"4","last_reported":1731427890,"current_range_meters":38000,"station_id":"ce4bgg92rcd13ifvqb30","pricing_plan_id":"cebpf4jnsgd1na2vs0mg"},{"bike_id":"2ef04947-c25c-4fe2-a891-7678bc8d660e","system_id":"levelo_inurba_marseille","lat":43.29687,"lon":5.373,"is_reserved":false,"is_disabled":false,"rental_uris":{"android":"levelo://app?vid=2ef04947-c25c-4fe2-a891-7678bc8d660e","ios":"levelo://app?vid=2ef04947-c25c-4fe2-a891-7678bc8d660e"},"vehicle_type_id":"4","last_reported":1731427890,"current_range_meters":38800,"station_id":"ce4bgk12rcd13ifvqbj0","pricing_plan_id":"cebpf4jnsgd1na2vs0mg"},{"bike_id":"ff662199-ff74-4c0b-bff3-b1c4365f348b","system_id":"levelo_inurba_marseille","lat":43.24088,"lon":5.37753,"is_reserved":false,"is_disabled":false,"rental_uris":{"android":"levelo://app?vid=ff662199-ff74-4c0b-bff3-b1c4365f348b","ios":"levelo://app?vid=ff662199-ff74-4c0b-bff3-b1c4365f348b"},"vehicle_type_id":"4","last_reported":1731427890,"current_range_meters":34800,"station_id":"ce4bhnp2rcd13ifvqgvg","pricing_plan_id":"cebpf4jnsgd1na2vs0mg"},{"bike_id":"71a649ef-ed3c-4201-bbe7-3f4c92d1bb6e","system_id":"levelo_inurba_marseille","lat":43.29543,"lon":5.39027,"is_reserved":false,"is_disabled":false,"rental_uris":{"android":"levelo://app?vid=71a649ef-ed3c-4201-bbe7-3f4c92d1bb6e","ios":"levelo://app?vid=71a649ef-ed3c-4201-bbe7-3f4c92d1bb6e"},"vehicle_type_id":"4","last_reported":1731427890,"current_range_meters":32800,"station_id":"ce4bh3p2rcd13ifvqdp0","pricing_plan_id":"cebpf4jnsgd1na2vs0mg"},{"bike_id":"4bed3182-7985-4b31-a530-5417371ef5dc","system_id":"levelo_inurba_marseille","lat":43.2901,"lon":5.38123,"is_reserved":false,"is_disabled":false,"rental_uris":{"android":"levelo://app?vid=4bed3182-7985-4b31-a530-5417371ef5dc","ios":"levelo://app?vid=4bed3182-7985-4b31-a530-5417371ef5dc"},"vehicle_type_id":"4","last_reported":1731427890,"current_range_meters":21600,"station_id":"ce4bh4p2rcd13ifvqe1g","pricing_plan_id":"cebpf4jnsgd1na2vs0mg"},{"bike_id":"a8b10452-9f1a-43a7-93f0-d4a153b64fbf","system_id":"levelo_inurba_marseille","lat":43.23152,"lon":5.43728,"is_reserved":false,"is_disabled":false,"rental_uris":{"android":"levelo://app?vid=a8b10452-9f1a-43a7-93f0-d4a153b64fbf","ios":"levelo://app?vid=a8b10452-9f1a-43a7-93f0-d4a153b64fbf"},"vehicle_type_id":"4","last_reported":1731427890,"current_range_meters":38800,"station_id":"ce4bhmp2rcd13ifvqgog","pricing_plan_id":"cebpf4jnsgd1na2vs0mg"},{"bike_id":"50ec9a72-2d48-4182-b452-21b17e2354cd","system_id":"levelo_inurba_marseille","lat":43.30793,"lon":5.43531,"is_reserved":false,"is_disabled":false,"rental_uris":{"android":"levelo://app?vid=50ec9a72-2d48-4182-b452-21b17e2354cd","ios":"levelo://app?vid=50ec9a72-2d48-4182-b452-21b17e2354cd"},"vehicle_type_id":"4","last_reported":1731427890,"current_range_meters":17600,"station_id":"ce4bhph2rcd13ifvqheg","pricing_plan_id":"cebpf4jnsgd1na2vs0mg"},{"bike_id":"8801a9ab-2cdf-4db6-a265-83c3b290056e","system_id":"levelo_inurba_marseille","lat":43.30088,"lon":5.39086,"is_reserved":false,"is_disabled":false,"rental_uris":{"android":"levelo://app?vid=8801a9ab-2cdf-4db6-a265-83c3b290056e","ios":"levelo://app?vid=8801a9ab-2cdf-4db6-a265-83c3b290056e"},"vehicle_type_id":"4","last_reported":1731427890,"current_range_meters":7200,"station_id":"ce4bh192rcd13ifvqdb0","pricing_plan_id":"cebpf4jnsgd1na2vs0mg"},{"bike_id":"dc8796a0-3a87-4d5f-a951-0fd329665496","system_id":"levelo_inurba_marseille","lat":43.26217,"lon":5.37443,"is_reserved":false,"is_disabled":false,"rental_uris":{"android":"levelo://app?vid=dc8796a0-3a87-4d5f-a951-0fd329665496","ios":"levelo://app?vid=dc8796a0-3a87-4d5f-a951-0fd329665496"},"vehicle_type_id":"4","last_reported":1731427890,"current_range_meters":2800,"station_id":"ce4bhbh2rcd13ifvqeo0","pricing_plan_id":"cebpf4jnsgd1na2vs0mg"},{"bike_id":"e20e371e-0ac8-4f8a-8e0a-12e9bf345f5e","system_id":"levelo_inurba_marseille","lat":43.27069,"lon":5.42281,"is_reserved":false,"is_disabled":false,"rental_uris":{"android":"levelo://app?vid=e20e371e-0ac8-4f8a-8e0a-12e9bf345f5e","ios":"levelo://app?vid=e20e371e-0ac8-4f8a-8e0a-12e9bf345f5e"},"vehicle_type_id":"4","last_reported":1731427890,"current_range_meters":30400,"station_id":"ce4bhk92rcd13ifvqgb0","pricing_plan_id":"cebpf4jnsgd1na2vs0mg"},{"bike_id":"9233cbfc-3039-4b18-ae97-3be7b3743f94","system_id":"levelo_inurba_marseille","lat":43.29928,"lon":5.36541,"is_reserved":false,"is_disabled":false,"rental_uris":{"android":"levelo://app?vid=9233cbfc-3039-4b18-ae97-3be7b3743f94","ios":"levelo://app?vid=9233cbfc-3039-4b18-ae97-3be7b3743f94"},"vehicle_type_id":"4","last_reported":1731427890,"current_range_meters":16800,"station_id":"ce4bgm92rcd13ifvqbr0","pricing_plan_id":"cebpf4jnsgd1na2vs0mg"},{"bike_id":"a7fa391a-5e9a-4306-ab89-3411e5df4996","system_id":"levelo_inurba_marseille","lat":43.33019,"lon":5.39027,"is_reserved":false,"is_disabled":false,"rental_uris":{"android":"levelo://app?vid=a7fa391a-5e9a-4306-ab89-3411e5df4996","ios":"levelo://app?vid=a7fa391a-5e9a-4306-ab89-3411e5df4996"},"vehicle_type_id":"4","last_reported":1731427890,"current_range_meters":37600,"station_id":"ce4bhr92rcd13ifvqhrg","pricing_plan_id":"cebpf4jnsgd1na2vs0mg"},{"bike_id":"5817e958-deb7-4799-af1a-ed194ead4717","system_id":"levelo_inurba_marseille","lat":43.291966,"lon":5.393245,"is_reserved":false,"is_disabled":false,"rental_uris":{"android":"levelo://app?vid=5817e958-deb7-4799-af1a-ed194ead4717","ios":"levelo://app?vid=5817e958-deb7-4799-af1a-ed194ead4717"},"vehicle_type_id":"4","last_reported":1731427890,"current_range_meters":40000,"station_id":"ce4bh192rcd13ifvqdd0","pricing_plan_id":"cebpf4jnsgd1na2vs0mg"},{"bike_id":"f1fd0da8-e082-42bf-bd96-be3bc2f1173d","system_id":"levelo_inurba_marseille","lat":43.27786,"lon":5.38327,"is_reserved":false,"is_disabled":false,"rental_uris":{"android":"levelo://app?vid=f1fd0da8-e082-42bf-bd96-be3bc2f1173d","ios":"levelo://app?vid=f1fd0da8-e082-42bf-bd96-be3bc2f1173d"},"vehicle_type_id":"4","last_reported":1731427890,"current_range_meters":36400,"station_id":"ce4bh412rcd13ifvqdr0","pricing_plan_id":"cebpf4jnsgd1na2vs0mg"},{"bike_id":"42d52a67-a111-45ff-b216-f95ab26ba86a","system_id":"levelo_inurba_marseille","lat":43.30539,"lon":5.36548,"is_reserved":false,"is_disabled":false,"rental_uris":{"android":"levelo://app?vid=42d52a67-a111-45ff-b216-f95ab26ba86a","ios":"levelo://app?vid=42d52a67-a111-45ff-b216-f95ab26ba86a"},"vehicle_type_id":"4","last_reported":1731427890,"current_range_meters":32000,"station_id":"ce4bgs12rcd13ifvqcag","pricing_plan_id":"cebpf4jnsgd1na2vs0mg"},{"bike_id":"85818844-8eb0-4925-bc5d-82279bf48263","system_id":"levelo_inurba_marseille","lat":43.24791,"lon":5.37478,"is_reserved":false,"is_disabled":false,"rental_uris":{"android":"levelo://app?vid=85818844-8eb0-4925-bc5d-82279bf48263","ios":"levelo://app?vid=85818844-8eb0-4925-bc5d-82279bf48263"},"vehicle_type_id":"4","last_reported":1731427890,"current_range_meters":33200,"station_id":"ce4bhgh2rcd13ifvqfb0","pricing_plan_id":"cebpf4jnsgd1na2vs0mg"},{"bike_id":"51de079a-4713-4220-aef5-8906afb2ba42","system_id":"levelo_inurba_marseille","lat":43.28104,"lon":5.3785,"is_reserved":false,"is_disabled":false,"rental_uris":{"android":"levelo://app?vid=51de079a-4713-4220-aef5-8906afb2ba42","ios":"levelo://app?vid=51de079a-4713-4220-aef5-8906afb2ba42"},"vehicle_type_id":"4","last_reported":1731427890,"current_range_meters":36400,"station_id":"ce4bha12rcd13ifvqee0","pricing_plan_id":"cebpf4jnsgd1na2vs0mg"},{"bike_id":"9bccf8f7-f51f-4c68-bdf5-738fde987b81","system_id":"levelo_inurba_marseille","lat":43.31259,"lon":5.40178,"is_reserved":false,"is_disabled":false,"rental_uris":{"android":"levelo://app?vid=9bccf8f7-f51f-4c68-bdf5-738fde987b81","ios":"levelo://app?vid=9bccf8f7-f51f-4c68-bdf5-738fde987b81"},"vehicle_type_id":"4","last_reported":1731427890,"current_range_meters":39200,"station_id":"ce4bh092rcd13ifvqd30","pricing_plan_id":"cebpf4jnsgd1na2vs0mg"},{"bike_id":"d3d88389-bd60-4947-8db6-b3fd375e6183","system_id":"levelo_inurba_marseille","lat":43.23951,"lon":5.36638,"is_reserved":false,"is_disabled":false,"rental_uris":{"android":"levelo://app?vid=d3d88389-bd60-4947-8db6-b3fd375e6183","ios":"levelo://app?vid=d3d88389-bd60-4947-8db6-b3fd375e6183"},"vehicle_type_id":"4","last_reported":1731427890,"current_range_meters":36800,"station_id":"ce4bhi12rcd13ifvqfp0","pricing_plan_id":"cebpf4jnsgd1na2vs0mg"},{"bike_id":"f2608db0-3b55-47e2-a956-f59a97cf61ef","system_id":"levelo_inurba_marseille","lat":43.27325,"lon":5.39073,"is_reserved":false,"is_disabled":false,"rental_uris":{"android":"levelo://app?vid=f2608db0-3b55-47e2-a956-f59a97cf61ef","ios":"levelo://app?vid=f2608db0-3b55-47e2-a956-f59a97cf61ef"},"vehicle_type_id":"4","last_reported":1731427890,"current_range_meters":38400,"station_id":"ce4bhgp2rcd13ifvqfe0","pricing_plan_id":"cebpf4jnsgd1na2vs0mg"},{"bike_id":"967d4ae9-48c4-4d92-bb63-b10b0be502fc","system_id":"levelo_inurba_marseille","lat":43.28856,"lon":5.39316,"is_reserved":false,"is_disabled":false,"rental_uris":{"android":"levelo://app?vid=967d4ae9-48c4-4d92-bb63-b10b0be502fc","ios":"levelo://app?vid=967d4ae9-48c4-4d92-bb63-b10b0be502fc"},"vehicle_type_id":"4","last_reported":1731427890,"current_range_meters":38800,"station_id":"ce4bh2p2rcd13ifvqdi0","pricing_plan_id":"cebpf4jnsgd1na2vs0mg"},{"bike_id":"c4462b4f-07ed-4b5e-bf6e-9a1af451a07e","system_id":"levelo_inurba_marseille","lat":43.29621,"lon":5.37164,"is_reserved":false,"is_disabled":false,"rental_uris":{"android":"levelo://app?vid=c4462b4f-07ed-4b5e-bf6e-9a1af451a07e","ios":"levelo://app?vid=c4462b4f-07ed-4b5e-bf6e-9a1af451a07e"},"vehicle_type_id":"4","last_reported":1731427890,"current_range_meters":27600,"station_id":"ce4bgnh2rcd13ifvqc0g","pricing_plan_id":"cebpf4jnsgd1na2vs0mg"},{"bike_id":"e403f88f-668d-45d1-9955-21fad772752a","system_id":"levelo_inurba_marseille","lat":43.30303,"lon":5.36902,"is_reserved":false,"is_disabled":false,"rental_uris":{"android":"levelo://app?vid=e403f88f-668d-45d1-9955-21fad772752a","ios":"levelo://app?vid=e403f88f-668d-45d1-9955-21fad772752a"},"vehicle_type_id":"4","last_reported":1731427890,"current_range_meters":38800,"station_id":"ce4bgqh2rcd13ifvqc5g","pricing_plan_id":"cebpf4jnsgd1na2vs0mg"},{"bike_id":"91526d85-6d2f-4b0d-b668-d1a556d90682","system_id":"levelo_inurba_marseille","lat":43.319903,"lon":5.381434,"is_reserved":false,"is_disabled":false,"rental_uris":{"android":"levelo://app?vid=91526d85-6d2f-4b0d-b668-d1a556d90682","ios":"levelo://app?vid=91526d85-6d2f-4b0d-b668-d1a556d90682"},"vehicle_type_id":"4","last_reported":1731427890,"current_range_meters":40000,"station_id":"ce4bhr12rcd13ifvqhpg","pricing_plan_id":"cebpf4jnsgd1na2vs0mg"},{"bike_id":"6f655731-0f7c-4f96-875e-fec0ed1714eb","system_id":"levelo_inurba_marseille","lat":43.27174,"lon":5.40996,"is_reserved":false,"is_disabled":false,"rental_uris":{"android":"levelo://app?vid=6f655731-0f7c-4f96-875e-fec0ed1714eb","ios":"levelo://app?vid=6f655731-0f7c-4f96-875e-fec0ed1714eb"},"vehicle_type_id":"4","last_reported":1731427890,"current_range_meters":35600,"station_id":"ce4bhl12rcd13ifvqgf0","pricing_plan_id":"cebpf4jnsgd1na2vs0mg"},{"bike_id":"e1f2424d-96e3-41c7-9f8d-6dd18a27c6ce","system_id":"levelo_inurba_marseille","lat":43.27427,"lon":5.39416,"is_reserved":false,"is_disabled":false,"rental_uris":{"android":"levelo://app?vid=e1f2424d-96e3-41c7-9f8d-6dd18a27c6ce","ios":"levelo://app?vid=e1f2424d-96e3-41c7-9f8d-6dd18a27c6ce"},"vehicle_type_id":"4","last_reported":1731427890,"current_range_meters":40000,"station_id":"ce4bhdp2rcd13ifvqf20","pricing_plan_id":"cebpf4jnsgd1na2vs0mg"},{"bike_id":"3c615fd3-7a79-4aa0-9dd1-c8ec5b54b4b8","system_id":"levelo_inurba_marseille","lat":43.29741,"lon":5.390571,"is_reserved":false,"is_disabled":false,"rental_uris":{"android":"levelo://app?vid=3c615fd3-7a79-4aa0-9dd1-c8ec5b54b4b8","ios":"levelo://app?vid=3c615fd3-7a79-4aa0-9dd1-c8ec5b54b4b8"},"vehicle_type_id":"4","last_reported":1731427890,"current_range_meters":36000,"station_id":"","pricing_plan_id":"cebpf4jnsgd1na2vs0mg"},{"bike_id":"0db11cc2-43df-43d4-ba1f-54e31097abf2","system_id":"levelo_inurba_marseille","lat":43.26944,"lon":5.40251,"is_reserved":false,"is_disabled":false,"rental_uris":{"android":"levelo://app?vid=0db11cc2-43df-43d4-ba1f-54e31097abf2","ios":"levelo://app?vid=0db11cc2-43df-43d4-ba1f-54e31097abf2"},"vehicle_type_id":"4","last_reported":1731427890,"current_range_meters":36800,"station_id":"cjm6bp8fraef2m0cb0m0","pricing_plan_id":"cebpf4jnsgd1na2vs0mg"},{"bike_id":"f0a40cc6-a1da-4af9-a14b-5e586331dd8e","system_id":"levelo_inurba_marseille","lat":43.299138,"lon":5.374776,"is_reserved":false,"is_disabled":false,"rental_uris":{"android":"levelo://app?vid=f0a40cc6-a1da-4af9-a14b-5e586331dd8e","ios":"levelo://app?vid=f0a40cc6-a1da-4af9-a14b-5e586331dd8e"},"vehicle_type_id":"4","last_reported":1731427890,"current_range_meters":8000,"station_id":"ce4bgjh2rcd13ifvqbg0","pricing_plan_id":"cebpf4jnsgd1na2vs0mg"},{"bike_id":"c1b8d31c-a84c-452b-a37c-c4439ca46883","system_id":"levelo_inurba_marseille","lat":43.28657,"lon":5.36355,"is_reserved":false,"is_disabled":false,"rental_uris":{"android":"levelo://app?vid=c1b8d31c-a84c-452b-a37c-c4439ca46883","ios":"levelo://app?vid=c1b8d31c-a84c-452b-a37c-c4439ca46883"},"vehicle_type_id":"4","last_reported":1731427890,"current_range_meters":30400,"station_id":"ce4bhah2rcd13ifvqej0","pricing_plan_id":"cebpf4jnsgd1na2vs0mg"},{"bike_id":"690959e1-32d7-492f-a674-cbcd4a6a2909","system_id":"levelo_inurba_marseille","lat":43.27915,"lon":5.39589,"is_reserved":false,"is_disabled":false,"rental_uris":{"android":"levelo://app?vid=690959e1-32d7-492f-a674-cbcd4a6a2909","ios":"levelo://app?vid=690959e1-32d7-492f-a674-cbcd4a6a2909"},"vehicle_type_id":"4","last_reported":1731427890,"current_range_meters":36000,"station_id":"ce4bhf92rcd13ifvqf40","pricing_plan_id":"cebpf4jnsgd1na2vs0mg"},{"bike_id":"c15da647-768e-4f3e-bea9-f5dc15d6ad91","system_id":"levelo_inurba_marseille","lat":43.295177,"lon":5.390329,"is_reserved":false,"is_disabled":false,"rental_uris":{"android":"levelo://app?vid=c15da647-768e-4f3e-bea9-f5dc15d6ad91","ios":"levelo://app?vid=c15da647-768e-4f3e-bea9-f5dc15d6ad91"},"vehicle_type_id":"4","last_reported":1731427890,"current_range_meters":35600,"station_id":"ce4bh3p2rcd13ifvqdp0","pricing_plan_id":"cebpf4jnsgd1na2vs0mg"},{"bike_id":"58f18ecf-ad63-4b43-bcdf-8c1e9fb66eea","system_id":"levelo_inurba_marseille","lat":43.27065,"lon":5.42279,"is_reserved":false,"is_disabled":false,"rental_uris":{"android":"levelo://app?vid=58f18ecf-ad63-4b43-bcdf-8c1e9fb66eea","ios":"levelo://app?vid=58f18ecf-ad63-4b43-bcdf-8c1e9fb66eea"},"vehicle_type_id":"4","last_reported":1731427890,"current_range_meters":22000,"station_id":"ce4bhk92rcd13ifvqgb0","pricing_plan_id":"cebpf4jnsgd1na2vs0mg"},{"bike_id":"63a15a7f-3b4c-4b70-a6b7-1e78a69e9120","system_id":"levelo_inurba_marseille","lat":43.26498,"lon":5.39538,"is_reserved":false,"is_disabled":false,"rental_uris":{"android":"levelo://app?vid=63a15a7f-3b4c-4b70-a6b7-1e78a69e9120","ios":"levelo://app?vid=63a15a7f-3b4c-4b70-a6b7-1e78a69e9120"},"vehicle_type_id":"4","last_reported":1731427890,"current_range_meters":37600,"station_id":"ce4bhi12rcd13ifvqfq0","pricing_plan_id":"cebpf4jnsgd1na2vs0mg"},{"bike_id":"e62bb96a-ded7-4199-85d5-f7da5543f92d","system_id":"levelo_inurba_marseille","lat":43.3024,"lon":5.40066,"is_reserved":false,"is_disabled":false,"rental_uris":{"android":"levelo://app?vid=e62bb96a-ded7-4199-85d5-f7da5543f92d","ios":"levelo://app?vid=e62bb96a-ded7-4199-85d5-f7da5543f92d"},"vehicle_type_id":"4","last_reported":1731427890,"current_range_meters":6800,"station_id":"ce4bgvh2rcd13ifvqcs0","pricing_plan_id":"cebpf4jnsgd1na2vs0mg"},{"bike_id":"122db86c-23d1-49d5-a47e-6033265dedd5","system_id":"levelo_inurba_marseille","lat":43.2593,"lon":5.40914,"is_reserved":false,"is_disabled":false,"rental_uris":{"android":"levelo://app?vid=122db86c-23d1-49d5-a47e-6033265dedd5","ios":"levelo://app?vid=122db86c-23d1-49d5-a47e-6033265dedd5"},"vehicle_type_id":"4","last_reported":1731427890,"current_range_meters":36800,"station_id":"ce4bhm92rcd13ifvqglg","pricing_plan_id":"cebpf4jnsgd1na2vs0mg"},{"bike_id":"806da363-88fb-4ff9-904a-1b78adc7db0b","system_id":"levelo_inurba_marseille","lat":43.27998,"lon":5.41661,"is_reserved":false,"is_disabled":false,"rental_uris":{"android":"levelo://app?vid=806da363-88fb-4ff9-904a-1b78adc7db0b","ios":"levelo://app?vid=806da363-88fb-4ff9-904a-1b78adc7db0b"},"vehicle_type_id":"4","last_reported":1731427890,"current_range_meters":16800,"station_id":"ce4bho12rcd13ifvqh1g","pricing_plan_id":"cebpf4jnsgd1na2vs0mg"},{"bike_id":"3f7f3df8-50d9-475f-8a41-f4a7ada046d4","system_id":"levelo_inurba_marseille","lat":43.31836,"lon":5.37359,"is_reserved":false,"is_disabled":false,"rental_uris":{"android":"levelo://app?vid=3f7f3df8-50d9-475f-8a41-f4a7ada046d4","ios":"levelo://app?vid=3f7f3df8-50d9-475f-8a41-f4a7ada046d4"},"vehicle_type_id":"4","last_reported":1731427890,"current_range_meters":28000,"station_id":"","pricing_plan_id":"cebpf4jnsgd1na2vs0mg"},{"bike_id":"65e475f6-ebaa-4d40-8204-894c0a075224","system_id":"levelo_inurba_marseille","lat":43.29907,"lon":5.38128,"is_reserved":false,"is_disabled":false,"rental_uris":{"android":"levelo://app?vid=65e475f6-ebaa-4d40-8204-894c0a075224","ios":"levelo://app?vid=65e475f6-ebaa-4d40-8204-894c0a075224"},"vehicle_type_id":"4","last_reported":1731427890,"current_range_meters":32800,"station_id":"ce4bgj12rcd13ifvqbc0","pricing_plan_id":"cebpf4jnsgd1na2vs0mg"},{"bike_id":"d5426224-b207-4ac9-92ce-42ade048fe02","system_id":"levelo_inurba_marseille","lat":43.30542,"lon":5.36535,"is_reserved":false,"is_disabled":false,"rental_uris":{"android":"levelo://app?vid=d5426224-b207-4ac9-92ce-42ade048fe02","ios":"levelo://app?vid=d5426224-b207-4ac9-92ce-42ade048fe02"},"vehicle_type_id":"4","last_reported":1731427890,"current_range_meters":28400,"station_id":"ce4bgs12rcd13ifvqcag","pricing_plan_id":"cebpf4jnsgd1na2vs0mg"},{"bike_id":"bd179322-09c9-4287-b881-13beea03cab1","system_id":"levelo_inurba_marseille","lat":43.29413,"lon":5.38632,"is_reserved":false,"is_disabled":false,"rental_uris":{"android":"levelo://app?vid=bd179322-09c9-4287-b881-13beea03cab1","ios":"levelo://app?vid=bd179322-09c9-4287-b881-13beea03cab1"},"vehicle_type_id":"4","last_reported":1731427890,"current_range_meters":32800,"station_id":"ce4bh2h2rcd13ifvqdh0","pricing_plan_id":"cebpf4jnsgd1na2vs0mg"},{"bike_id":"0bea9578-5f2e-4ebc-af56-58f5fc90fea8","system_id":"levelo_inurba_marseille","lat":43.27838,"lon":5.39208,"is_reserved":false,"is_disabled":false,"rental_uris":{"android":"levelo://app?vid=0bea9578-5f2e-4ebc-af56-58f5fc90fea8","ios":"levelo://app?vid=0bea9578-5f2e-4ebc-af56-58f5fc90fea8"},"vehicle_type_id":"4","last_reported":1731427890,"current_range_meters":26800,"station_id":"ce4bhjp2rcd13ifvqga0","pricing_plan_id":"cebpf4jnsgd1na2vs0mg"},{"bike_id":"04aa5036-538c-4bf7-96da-b01289a40d67","system_id":"levelo_inurba_marseille","lat":43.27995,"lon":5.40011,"is_reserved":false,"is_disabled":false,"rental_uris":{"android":"levelo://app?vid=04aa5036-538c-4bf7-96da-b01289a40d67","ios":"levelo://app?vid=04aa5036-538c-4bf7-96da-b01289a40d67"},"vehicle_type_id":"4","last_reported":1731427890,"current_range_meters":37600,"station_id":"ce4bho92rcd13ifvqh4g","pricing_plan_id":"cebpf4jnsgd1na2vs0mg"},{"bike_id":"c414dd48-37cf-4263-b111-2e42fd7340d9","system_id":"levelo_inurba_marseille","lat":43.31756,"lon":5.39017,"is_reserved":false,"is_disabled":false,"rental_uris":{"android":"levelo://app?vid=c414dd48-37cf-4263-b111-2e42fd7340d9","ios":"levelo://app?vid=c414dd48-37cf-4263-b111-2e42fd7340d9"},"vehicle_type_id":"4","last_reported":1731427890,"current_range_meters":8800,"station_id":"ce4bhqp2rcd13ifvqhng","pricing_plan_id":"cebpf4jnsgd1na2vs0mg"},{"bike_id":"0fa4e1b1-2fba-415a-9413-923835308bde","system_id":"levelo_inurba_marseille","lat":43.25571,"lon":5.38241,"is_reserved":false,"is_disabled":false,"rental_uris":{"android":"levelo://app?vid=0fa4e1b1-2fba-415a-9413-923835308bde","ios":"levelo://app?vid=0fa4e1b1-2fba-415a-9413-923835308bde"},"vehicle_type_id":"4","last_reported":1731427890,"current_range_meters":14400,"station_id":"ce4bhih2rcd13ifvqfs0","pricing_plan_id":"cebpf4jnsgd1na2vs0mg"},{"bike_id":"00a2e831-4887-486b-a0bf-6fef8f6270cc","system_id":"levelo_inurba_marseille","lat":43.2987,"lon":5.39737,"is_reserved":false,"is_disabled":false,"rental_uris":{"android":"levelo://app?vid=00a2e831-4887-486b-a0bf-6fef8f6270cc","ios":"levelo://app?vid=00a2e831-4887-486b-a0bf-6fef8f6270cc"},"vehicle_type_id":"4","last_reported":1731427890,"current_range_meters":33600,"station_id":"ce4bh0h2rcd13ifvqd50","pricing_plan_id":"cebpf4jnsgd1na2vs0mg"},{"bike_id":"e92c5947-6d80-41ba-aecc-06ded8281947","system_id":"levelo_inurba_marseille","lat":43.32483,"lon":5.36575,"is_reserved":false,"is_disabled":false,"rental_uris":{"android":"levelo://app?vid=e92c5947-6d80-41ba-aecc-06ded8281947","ios":"levelo://app?vid=e92c5947-6d80-41ba-aecc-06ded8281947"},"vehicle_type_id":"4","last_reported":1731427890,"current_range_meters":36400,"station_id":"ce4bhs12rcd13ifvqhvg","pricing_plan_id":"cebpf4jnsgd1na2vs0mg"},{"bike_id":"0625f123-144e-4825-a568-156272e7a978","system_id":"levelo_inurba_marseille","lat":43.30539,"lon":5.36545,"is_reserved":false,"is_disabled":false,"rental_uris":{"android":"levelo://app?vid=0625f123-144e-4825-a568-156272e7a978","ios":"levelo://app?vid=0625f123-144e-4825-a568-156272e7a978"},"vehicle_type_id":"4","last_reported":1731427890,"current_range_meters":40000,"station_id":"ce4bgs12rcd13ifvqcag","pricing_plan_id":"cebpf4jnsgd1na2vs0mg"},{"bike_id":"90c9b2d0-e77a-4aaf-9cde-cf2f8bd5661f","system_id":"levelo_inurba_marseille","lat":43.30779,"lon":5.37659,"is_reserved":false,"is_disabled":false,"rental_uris":{"android":"levelo://app?vid=90c9b2d0-e77a-4aaf-9cde-cf2f8bd5661f","ios":"levelo://app?vid=90c9b2d0-e77a-4aaf-9cde-cf2f8bd5661f"},"vehicle_type_id":"4","last_reported":1731427890,"current_range_meters":37600,"station_id":"ce4bgv92rcd13ifvqcq0","pricing_plan_id":"cebpf4jnsgd1na2vs0mg"},{"bike_id":"b9ecfbcf-3cfc-4dc2-a21d-c9650bd6e460","system_id":"levelo_inurba_marseille","lat":43.30541,"lon":5.36537,"is_reserved":false,"is_disabled":false,"rental_uris":{"android":"levelo://app?vid=b9ecfbcf-3cfc-4dc2-a21d-c9650bd6e460","ios":"levelo://app?vid=b9ecfbcf-3cfc-4dc2-a21d-c9650bd6e460"},"vehicle_type_id":"4","last_reported":1731427890,"current_range_meters":40000,"station_id":"ce4bgs12rcd13ifvqcag","pricing_plan_id":"cebpf4jnsgd1na2vs0mg"},{"bike_id":"1eedf348-4057-45b2-8a25-daad77658601","system_id":"levelo_inurba_marseille","lat":43.31362,"lon":5.38488,"is_reserved":false,"is_disabled":false,"rental_uris":{"android":"levelo://app?vid=1eedf348-4057-45b2-8a25-daad77658601","ios":"levelo://app?vid=1eedf348-4057-45b2-8a25-daad77658601"},"vehicle_type_id":"4","last_reported":1731427890,"current_range_meters":26000,"station_id":"ce4bgt92rcd13ifvqcf0","pricing_plan_id":"cebpf4jnsgd1na2vs0mg"},{"bike_id":"eab53716-cd37-4621-9e60-aa6a186327b0","system_id":"levelo_inurba_marseille","lat":43.26806,"lon":5.40261,"is_reserved":false,"is_disabled":false,"rental_uris":{"android":"levelo://app?vid=eab53716-cd37-4621-9e60-aa6a186327b0","ios":"levelo://app?vid=eab53716-cd37-4621-9e60-aa6a186327b0"},"vehicle_type_id":"4","last_reported":1731427890,"current_range_meters":38000,"station_id":"ce501612rcd8frsf0b60","pricing_plan_id":"cebpf4jnsgd1na2vs0mg"},{"bike_id":"8890bf3e-475e-448d-9d3a-bf795b169739","system_id":"levelo_inurba_marseille","lat":43.29593,"lon":5.38101,"is_reserved":false,"is_disabled":false,"rental_uris":{"android":"levelo://app?vid=8890bf3e-475e-448d-9d3a-bf795b169739","ios":"levelo://app?vid=8890bf3e-475e-448d-9d3a-bf795b169739"},"vehicle_type_id":"4","last_reported":1731427890,"current_range_meters":27200,"station_id":"ce4bgl12rcd13ifvqbo0","pricing_plan_id":"cebpf4jnsgd1na2vs0mg"},{"bike_id":"e6e8b17e-b78a-47f8-87b6-edf9fe27d935","system_id":"levelo_inurba_marseille","lat":43.26942,"lon":5.40249,"is_reserved":false,"is_disabled":false,"rental_uris":{"android":"levelo://app?vid=e6e8b17e-b78a-47f8-87b6-edf9fe27d935","ios":"levelo://app?vid=e6e8b17e-b78a-47f8-87b6-edf9fe27d935"},"vehicle_type_id":"4","last_reported":1731427890,"current_range_meters":38000,"station_id":"cjm6bp8fraef2m0cb0m0","pricing_plan_id":"cebpf4jnsgd1na2vs0mg"},{"bike_id":"284a631b-d35f-4abf-8c0c-89b46dfbd0d7","system_id":"levelo_inurba_marseille","lat":43.30911,"lon":5.36852,"is_reserved":false,"is_disabled":false,"rental_uris":{"android":"levelo://app?vid=284a631b-d35f-4abf-8c0c-89b46dfbd0d7","ios":"levelo://app?vid=284a631b-d35f-4abf-8c0c-89b46dfbd0d7"},"vehicle_type_id":"4","last_reported":1731427890,"current_range_meters":36400,"station_id":"ce4bgn92rcd13ifvqbvg","pricing_plan_id":"cebpf4jnsgd1na2vs0mg"},{"bike_id":"f8710e48-a4ff-4569-b380-ad0bab59e582","system_id":"levelo_inurba_marseille","lat":43.2792,"lon":5.38009,"is_reserved":false,"is_disabled":false,"rental_uris":{"android":"levelo://app?vid=f8710e48-a4ff-4569-b380-ad0bab59e582","ios":"levelo://app?vid=f8710e48-a4ff-4569-b380-ad0bab59e582"},"vehicle_type_id":"4","last_reported":1731427890,"current_range_meters":38800,"station_id":"ce4bhf92rcd13ifvqf50","pricing_plan_id":"cebpf4jnsgd1na2vs0mg"},{"bike_id":"4b880ffe-2e1a-48c9-9410-6c882de09ace","system_id":"levelo_inurba_marseille","lat":43.30135,"lon":5.3986,"is_reserved":false,"is_disabled":false,"rental_uris":{"android":"levelo://app?vid=4b880ffe-2e1a-48c9-9410-6c882de09ace","ios":"levelo://app?vid=4b880ffe-2e1a-48c9-9410-6c882de09ace"},"vehicle_type_id":"4","last_reported":1731427890,"current_range_meters":36800,"station_id":"ce4bh0h2rcd13ifvqd40","pricing_plan_id":"cebpf4jnsgd1na2vs0mg"},{"bike_id":"80020749-2fb6-4c0d-8ea0-067b132e24a8","system_id":"levelo_inurba_marseille","lat":43.29599,"lon":5.38105,"is_reserved":false,"is_disabled":false,"rental_uris":{"android":"levelo://app?vid=80020749-2fb6-4c0d-8ea0-067b132e24a8","ios":"levelo://app?vid=80020749-2fb6-4c0d-8ea0-067b132e24a8"},"vehicle_type_id":"4","last_reported":1731427890,"current_range_meters":7200,"station_id":"ce4bgl12rcd13ifvqbo0","pricing_plan_id":"cebpf4jnsgd1na2vs0mg"},{"bike_id":"0d6568e0-cb3c-4c89-a312-cd8f5d6834ce","system_id":"levelo_inurba_marseille","lat":43.29032,"lon":5.38653,"is_reserved":false,"is_disabled":false,"rental_uris":{"android":"levelo://app?vid=0d6568e0-cb3c-4c89-a312-cd8f5d6834ce","ios":"levelo://app?vid=0d6568e0-cb3c-4c89-a312-cd8f5d6834ce"},"vehicle_type_id":"4","last_reported":1731427890,"current_range_meters":23200,"station_id":"ce4bh4p2rcd13ifvqe0g","pricing_plan_id":"cebpf4jnsgd1na2vs0mg"},{"bike_id":"98a41b55-783d-4a53-9a0a-09f9b47b2669","system_id":"levelo_inurba_marseille","lat":43.23197,"lon":5.35556,"is_reserved":false,"is_disabled":false,"rental_uris":{"android":"levelo://app?vid=98a41b55-783d-4a53-9a0a-09f9b47b2669","ios":"levelo://app?vid=98a41b55-783d-4a53-9a0a-09f9b47b2669"},"vehicle_type_id":"4","last_reported":1731427890,"current_range_meters":24000,"station_id":"ce4bhu92rcd13ifvqi70","pricing_plan_id":"cebpf4jnsgd1na2vs0mg"},{"bike_id":"9b899324-9bf0-4e7e-944b-128cdc9d3596","system_id":"levelo_inurba_marseille","lat":43.25579,"lon":5.382327,"is_reserved":false,"is_disabled":false,"rental_uris":{"android":"levelo://app?vid=9b899324-9bf0-4e7e-944b-128cdc9d3596","ios":"levelo://app?vid=9b899324-9bf0-4e7e-944b-128cdc9d3596"},"vehicle_type_id":"4","last_reported":1731427890,"current_range_meters":32800,"station_id":"ce4bhih2rcd13ifvqfs0","pricing_plan_id":"cebpf4jnsgd1na2vs0mg"},{"bike_id":"024df2db-6d9b-45f8-8b41-87c99d2ddf3b","system_id":"levelo_inurba_marseille","lat":43.30418,"lon":5.412826,"is_reserved":false,"is_disabled":false,"rental_uris":{"android":"levelo://app?vid=024df2db-6d9b-45f8-8b41-87c99d2ddf3b","ios":"levelo://app?vid=024df2db-6d9b-45f8-8b41-87c99d2ddf3b"},"vehicle_type_id":"4","last_reported":1731427890,"current_range_meters":38800,"station_id":"ce4bhop2rcd13ifvqh8g","pricing_plan_id":"cebpf4jnsgd1na2vs0mg"},{"bike_id":"33982fe9-a903-40cd-a32c-32a0ffad344a","system_id":"levelo_inurba_marseille","lat":43.2846,"lon":5.35901,"is_reserved":false,"is_disabled":false,"rental_uris":{"android":"levelo://app?vid=33982fe9-a903-40cd-a32c-32a0ffad344a","ios":"levelo://app?vid=33982fe9-a903-40cd-a32c-32a0ffad344a"},"vehicle_type_id":"4","last_reported":1731427890,"current_range_meters":34000,"station_id":"ce4bhah2rcd13ifvqei0","pricing_plan_id":"cebpf4jnsgd1na2vs0mg"},{"bike_id":"52a803cd-037c-4542-9657-84b331aca8ec","system_id":"levelo_inurba_marseille","lat":43.27424,"lon":5.39425,"is_reserved":false,"is_disabled":false,"rental_uris":{"android":"levelo://app?vid=52a803cd-037c-4542-9657-84b331aca8ec","ios":"levelo://app?vid=52a803cd-037c-4542-9657-84b331aca8ec"},"vehicle_type_id":"4","last_reported":1731427890,"current_range_meters":39200,"station_id":"ce4bhdp2rcd13ifvqf20","pricing_plan_id":"cebpf4jnsgd1na2vs0mg"},{"bike_id":"da557083-0989-40fc-ab8e-f8aae02ccd20","system_id":"levelo_inurba_marseille","lat":43.32029,"lon":5.41568,"is_reserved":false,"is_disabled":false,"rental_uris":{"android":"levelo://app?vid=da557083-0989-40fc-ab8e-f8aae02ccd20","ios":"levelo://app?vid=da557083-0989-40fc-ab8e-f8aae02ccd20"},"vehicle_type_id":"4","last_reported":1731427890,"current_range_meters":32000,"station_id":"ce4bhq92rcd13ifvqhkg","pricing_plan_id":"cebpf4jnsgd1na2vs0mg"},{"bike_id":"f1c02299-0f11-4aec-bda3-cb296ef209db","system_id":"levelo_inurba_marseille","lat":43.26951,"lon":5.38633,"is_reserved":false,"is_disabled":false,"rental_uris":{"android":"levelo://app?vid=f1c02299-0f11-4aec-bda3-cb296ef209db","ios":"levelo://app?vid=f1c02299-0f11-4aec-bda3-cb296ef209db"},"vehicle_type_id":"4","last_reported":1731427890,"current_range_meters":38800,"station_id":"ce4bhh92rcd13ifvqfh0","pricing_plan_id":"cebpf4jnsgd1na2vs0mg"},{"bike_id":"e8954a64-58d2-482b-96b4-fe3607075f13","system_id":"levelo_inurba_marseille","lat":43.26938,"lon":5.38933,"is_reserved":false,"is_disabled":false,"rental_uris":{"android":"levelo://app?vid=e8954a64-58d2-482b-96b4-fe3607075f13","ios":"levelo://app?vid=e8954a64-58d2-482b-96b4-fe3607075f13"},"vehicle_type_id":"4","last_reported":1731427890,"current_range_meters":35600,"station_id":"ce4bhhh2rcd13ifvqfl0","pricing_plan_id":"cebpf4jnsgd1na2vs0mg"},{"bike_id":"717f8475-1ae4-4ef4-a993-09150080d098","system_id":"levelo_inurba_marseille","lat":43.27827,"lon":5.39215,"is_reserved":false,"is_disabled":false,"rental_uris":{"android":"levelo://app?vid=717f8475-1ae4-4ef4-a993-09150080d098","ios":"levelo://app?vid=717f8475-1ae4-4ef4-a993-09150080d098"},"vehicle_type_id":"4","last_reported":1731427890,"current_range_meters":39200,"station_id":"ce4bhjp2rcd13ifvqga0","pricing_plan_id":"cebpf4jnsgd1na2vs0mg"},{"bike_id":"5a1e29ec-2829-42fe-91d5-033c37b110e5","system_id":"levelo_inurba_marseille","lat":43.3135,"lon":5.36716,"is_reserved":false,"is_disabled":false,"rental_uris":{"android":"levelo://app?vid=5a1e29ec-2829-42fe-91d5-033c37b110e5","ios":"levelo://app?vid=5a1e29ec-2829-42fe-91d5-033c37b110e5"},"vehicle_type_id":"4","last_reported":1731427890,"current_range_meters":34000,"station_id":"ce4bgr92rcd13ifvqc6g","pricing_plan_id":"cebpf4jnsgd1na2vs0mg"},{"bike_id":"7fe67098-0545-4b07-a75b-39b49a6a880c","system_id":"levelo_inurba_marseille","lat":43.29907,"lon":5.37465,"is_reserved":false,"is_disabled":false,"rental_uris":{"android":"levelo://app?vid=7fe67098-0545-4b07-a75b-39b49a6a880c","ios":"levelo://app?vid=7fe67098-0545-4b07-a75b-39b49a6a880c"},"vehicle_type_id":"4","last_reported":1731427890,"current_range_meters":36800,"station_id":"ce4bgjh2rcd13ifvqbg0","pricing_plan_id":"cebpf4jnsgd1na2vs0mg"},{"bike_id":"afa715b5-1241-4d6f-8f78-73e0daefc925","system_id":"levelo_inurba_marseille","lat":43.29007,"lon":5.3561,"is_reserved":false,"is_disabled":false,"rental_uris":{"android":"levelo://app?vid=afa715b5-1241-4d6f-8f78-73e0daefc925","ios":"levelo://app?vid=afa715b5-1241-4d6f-8f78-73e0daefc925"},"vehicle_type_id":"4","last_reported":1731427890,"current_range_meters":34800,"station_id":"ce4bhb92rcd13ifvqen0","pricing_plan_id":"cebpf4jnsgd1na2vs0mg"},{"bike_id":"1a1b75e8-7bcb-4adb-8dd6-6afbaba86775","system_id":"levelo_inurba_marseille","lat":43.29257,"lon":5.40906,"is_reserved":false,"is_disabled":false,"rental_uris":{"android":"levelo://app?vid=1a1b75e8-7bcb-4adb-8dd6-6afbaba86775","ios":"levelo://app?vid=1a1b75e8-7bcb-4adb-8dd6-6afbaba86775"},"vehicle_type_id":"4","last_reported":1731427890,"current_range_meters":16400,"station_id":"ce4bh192rcd13ifvqdc0","pricing_plan_id":"cebpf4jnsgd1na2vs0mg"},{"bike_id":"3ee4df3f-aec6-4ea4-91a9-55e9372637f0","system_id":"levelo_inurba_marseille","lat":43.26558,"lon":5.37285,"is_reserved":false,"is_disabled":false,"rental_uris":{"android":"levelo://app?vid=3ee4df3f-aec6-4ea4-91a9-55e9372637f0","ios":"levelo://app?vid=3ee4df3f-aec6-4ea4-91a9-55e9372637f0"},"vehicle_type_id":"4","last_reported":1731427890,"current_range_meters":26800,"station_id":"ce4bhg12rcd13ifvqf70","pricing_plan_id":"cebpf4jnsgd1na2vs0mg"},{"bike_id":"e48628dd-005d-43d3-86df-220070de1ac8","system_id":"levelo_inurba_marseille","lat":43.28148,"lon":5.42641,"is_reserved":false,"is_disabled":false,"rental_uris":{"android":"levelo://app?vid=e48628dd-005d-43d3-86df-220070de1ac8","ios":"levelo://app?vid=e48628dd-005d-43d3-86df-220070de1ac8"},"vehicle_type_id":"4","last_reported":1731427890,"current_range_meters":38800,"station_id":"ce4bhnh2rcd13ifvqgug","pricing_plan_id":"cebpf4jnsgd1na2vs0mg"},{"bike_id":"0fb7af37-ed7e-4639-a28c-e6d4b52ce80c","system_id":"levelo_inurba_marseille","lat":43.30934,"lon":5.40156,"is_reserved":false,"is_disabled":false,"rental_uris":{"android":"levelo://app?vid=0fb7af37-ed7e-4639-a28c-e6d4b52ce80c","ios":"levelo://app?vid=0fb7af37-ed7e-4639-a28c-e6d4b52ce80c"},"vehicle_type_id":"4","last_reported":1731427890,"current_range_meters":38000,"station_id":"ce4bgvp2rcd13ifvqct0","pricing_plan_id":"cebpf4jnsgd1na2vs0mg"},{"bike_id":"fbff86da-704d-49b7-a6c0-ddaf1599ca15","system_id":"levelo_inurba_marseille","lat":43.298,"lon":5.38101,"is_reserved":false,"is_disabled":false,"rental_uris":{"android":"levelo://app?vid=fbff86da-704d-49b7-a6c0-ddaf1599ca15","ios":"levelo://app?vid=fbff86da-704d-49b7-a6c0-ddaf1599ca15"},"vehicle_type_id":"4","last_reported":1731427890,"current_range_meters":39200,"station_id":"ce4bgip2rcd13ifvqbb0","pricing_plan_id":"cebpf4jnsgd1na2vs0mg"},{"bike_id":"c854b97e-9617-447f-b99c-ee2e070c2efa","system_id":"levelo_inurba_marseille","lat":43.30313,"lon":5.404434,"is_reserved":false,"is_disabled":false,"rental_uris":{"android":"levelo://app?vid=c854b97e-9617-447f-b99c-ee2e070c2efa","ios":"levelo://app?vid=c854b97e-9617-447f-b99c-ee2e070c2efa"},"vehicle_type_id":"4","last_reported":1731427890,"current_range_meters":36800,"station_id":"ce4bh012rcd13ifvqd10","pricing_plan_id":"cebpf4jnsgd1na2vs0mg"},{"bike_id":"be8284b8-6ff1-4005-ada3-13cc318df1b1","system_id":"levelo_inurba_marseille","lat":43.24079,"lon":5.37746,"is_reserved":false,"is_disabled":false,"rental_uris":{"android":"levelo://app?vid=be8284b8-6ff1-4005-ada3-13cc318df1b1","ios":"levelo://app?vid=be8284b8-6ff1-4005-ada3-13cc318df1b1"},"vehicle_type_id":"4","last_reported":1731427890,"current_range_meters":33200,"station_id":"ce4bhnp2rcd13ifvqgvg","pricing_plan_id":"cebpf4jnsgd1na2vs0mg"},{"bike_id":"776716de-549c-4e68-a8a2-7cc61ad42995","system_id":"levelo_inurba_marseille","lat":43.27058,"lon":5.40265,"is_reserved":false,"is_disabled":false,"rental_uris":{"android":"levelo://app?vid=776716de-549c-4e68-a8a2-7cc61ad42995","ios":"levelo://app?vid=776716de-549c-4e68-a8a2-7cc61ad42995"},"vehicle_type_id":"4","last_reported":1731427890,"current_range_meters":36800,"station_id":"ce4bhk92rcd13ifvqgc0","pricing_plan_id":"cebpf4jnsgd1na2vs0mg"},{"bike_id":"aa81cd4d-52e5-4916-b3b1-6e135085c8ef","system_id":"levelo_inurba_marseille","lat":43.24801,"lon":5.37461,"is_reserved":false,"is_disabled":false,"rental_uris":{"android":"levelo://app?vid=aa81cd4d-52e5-4916-b3b1-6e135085c8ef","ios":"levelo://app?vid=aa81cd4d-52e5-4916-b3b1-6e135085c8ef"},"vehicle_type_id":"4","last_reported":1731427890,"current_range_meters":38800,"station_id":"ce4bhgh2rcd13ifvqfb0","pricing_plan_id":"cebpf4jnsgd1na2vs0mg"},{"bike_id":"e2805a31-1c28-4759-b885-22145a2e83d1","system_id":"levelo_inurba_marseille","lat":43.29616,"lon":5.37722,"is_reserved":false,"is_disabled":false,"rental_uris":{"android":"levelo://app?vid=e2805a31-1c28-4759-b885-22145a2e83d1","ios":"levelo://app?vid=e2805a31-1c28-4759-b885-22145a2e83d1"},"vehicle_type_id":"4","last_reported":1731427890,"current_range_meters":38800,"station_id":"ce4bgi92rcd13ifvqb90","pricing_plan_id":"cebpf4jnsgd1na2vs0mg"},{"bike_id":"33f8342d-5249-41de-9717-fbcef1a02289","system_id":"levelo_inurba_marseille","lat":43.295257,"lon":5.375053,"is_reserved":false,"is_disabled":false,"rental_uris":{"android":"levelo://app?vid=33f8342d-5249-41de-9717-fbcef1a02289","ios":"levelo://app?vid=33f8342d-5249-41de-9717-fbcef1a02289"},"vehicle_type_id":"4","last_reported":1731427890,"current_range_meters":6000,"station_id":"ce4bgkp2rcd13ifvqbmg","pricing_plan_id":"cebpf4jnsgd1na2vs0mg"},{"bike_id":"ed2020d9-53c9-4082-9a6b-029c3dfcbe63","system_id":"levelo_inurba_marseille","lat":43.29301,"lon":5.39335,"is_reserved":false,"is_disabled":false,"rental_uris":{"android":"levelo://app?vid=ed2020d9-53c9-4082-9a6b-029c3dfcbe63","ios":"levelo://app?vid=ed2020d9-53c9-4082-9a6b-029c3dfcbe63"},"vehicle_type_id":"4","last_reported":1731427890,"current_range_meters":5600,"station_id":"","pricing_plan_id":"cebpf4jnsgd1na2vs0mg"},{"bike_id":"a42f18d5-2995-48b7-a650-7266df3cd42d","system_id":"levelo_inurba_marseille","lat":43.30249,"lon":5.40081,"is_reserved":false,"is_disabled":false,"rental_uris":{"android":"levelo://app?vid=a42f18d5-2995-48b7-a650-7266df3cd42d","ios":"levelo://app?vid=a42f18d5-2995-48b7-a650-7266df3cd42d"},"vehicle_type_id":"4","last_reported":1731427890,"current_range_meters":21600,"station_id":"ce4bgvh2rcd13ifvqcs0","pricing_plan_id":"cebpf4jnsgd1na2vs0mg"},{"bike_id":"7ca33f6b-e349-49e0-8226-5b445a766323","system_id":"levelo_inurba_marseille","lat":43.32102,"lon":5.36777,"is_reserved":false,"is_disabled":false,"rental_uris":{"android":"levelo://app?vid=7ca33f6b-e349-49e0-8226-5b445a766323","ios":"levelo://app?vid=7ca33f6b-e349-49e0-8226-5b445a766323"},"vehicle_type_id":"4","last_reported":1731427890,"current_range_meters":24000,"station_id":"ce4bhrh2rcd13ifvqhug","pricing_plan_id":"cebpf4jnsgd1na2vs0mg"},{"bike_id":"7eefa272-3116-4b84-a466-6a64c9d9db4c","system_id":"levelo_inurba_marseille","lat":43.2886,"lon":5.35846,"is_reserved":false,"is_disabled":false,"rental_uris":{"android":"levelo://app?vid=7eefa272-3116-4b84-a466-6a64c9d9db4c","ios":"levelo://app?vid=7eefa272-3116-4b84-a466-6a64c9d9db4c"},"vehicle_type_id":"4","last_reported":1731427890,"current_range_meters":38800,"station_id":"ce4bhb12rcd13ifvqem0","pricing_plan_id":"cebpf4jnsgd1na2vs0mg"},{"bike_id":"9b6f4511-578c-42ab-81ac-bef492210160","system_id":"levelo_inurba_marseille","lat":43.31331,"lon":5.39695,"is_reserved":false,"is_disabled":false,"rental_uris":{"android":"levelo://app?vid=9b6f4511-578c-42ab-81ac-bef492210160","ios":"levelo://app?vid=9b6f4511-578c-42ab-81ac-bef492210160"},"vehicle_type_id":"4","last_reported":1731427890,"current_range_meters":33200,"station_id":"ce4bgvp2rcd13ifvqcu0","pricing_plan_id":"cebpf4jnsgd1na2vs0mg"},{"bike_id":"189a74ab-9979-48e7-8606-93e9d2bc5df4","system_id":"levelo_inurba_marseille","lat":43.2315,"lon":5.43733,"is_reserved":false,"is_disabled":false,"rental_uris":{"android":"levelo://app?vid=189a74ab-9979-48e7-8606-93e9d2bc5df4","ios":"levelo://app?vid=189a74ab-9979-48e7-8606-93e9d2bc5df4"},"vehicle_type_id":"4","last_reported":1731427890,"current_range_meters":38800,"station_id":"ce4bhmp2rcd13ifvqgog","pricing_plan_id":"cebpf4jnsgd1na2vs0mg"},{"bike_id":"51ffaffc-e017-4a5d-9d2b-490d3f3773e7","system_id":"levelo_inurba_marseille","lat":43.29193,"lon":5.35817,"is_reserved":false,"is_disabled":false,"rental_uris":{"android":"levelo://app?vid=51ffaffc-e017-4a5d-9d2b-490d3f3773e7","ios":"levelo://app?vid=51ffaffc-e017-4a5d-9d2b-490d3f3773e7"},"vehicle_type_id":"4","last_reported":1731427890,"current_range_meters":28400,"station_id":"ce4bhb12rcd13ifvqel0","pricing_plan_id":"cebpf4jnsgd1na2vs0mg"},{"bike_id":"69fbcf16-3969-467c-a552-8a6da67f6ac9","system_id":"levelo_inurba_marseille","lat":43.30085,"lon":5.39093,"is_reserved":false,"is_disabled":false,"rental_uris":{"android":"levelo://app?vid=69fbcf16-3969-467c-a552-8a6da67f6ac9","ios":"levelo://app?vid=69fbcf16-3969-467c-a552-8a6da67f6ac9"},"vehicle_type_id":"4","last_reported":1731427890,"current_range_meters":19600,"station_id":"ce4bh192rcd13ifvqdb0","pricing_plan_id":"cebpf4jnsgd1na2vs0mg"},{"bike_id":"2d1db9fd-4cc2-4108-9789-2a6f31c92ef2","system_id":"levelo_inurba_marseille","lat":43.30537,"lon":5.36541,"is_reserved":false,"is_disabled":false,"rental_uris":{"android":"levelo://app?vid=2d1db9fd-4cc2-4108-9789-2a6f31c92ef2","ios":"levelo://app?vid=2d1db9fd-4cc2-4108-9789-2a6f31c92ef2"},"vehicle_type_id":"4","last_reported":1731427890,"current_range_meters":40000,"station_id":"ce4bgs12rcd13ifvqcag","pricing_plan_id":"cebpf4jnsgd1na2vs0mg"},{"bike_id":"6c9208f0-7a00-49eb-9d5d-12b0710b4cab","system_id":"levelo_inurba_marseille","lat":43.2872,"lon":5.39994,"is_reserved":false,"is_disabled":false,"rental_uris":{"android":"levelo://app?vid=6c9208f0-7a00-49eb-9d5d-12b0710b4cab","ios":"levelo://app?vid=6c9208f0-7a00-49eb-9d5d-12b0710b4cab"},"vehicle_type_id":"4","last_reported":1731427890,"current_range_meters":38400,"station_id":"ce4bho92rcd13ifvqh3g","pricing_plan_id":"cebpf4jnsgd1na2vs0mg"},{"bike_id":"efb0a886-a864-4628-af7f-3b014ea4c4f7","system_id":"levelo_inurba_marseille","lat":43.28412,"lon":5.34993,"is_reserved":false,"is_disabled":false,"rental_uris":{"android":"levelo://app?vid=efb0a886-a864-4628-af7f-3b014ea4c4f7","ios":"levelo://app?vid=efb0a886-a864-4628-af7f-3b014ea4c4f7"},"vehicle_type_id":"4","last_reported":1731427890,"current_range_meters":39200,"station_id":"","pricing_plan_id":"cebpf4jnsgd1na2vs0mg"},{"bike_id":"6cc49a5a-10d7-4481-bb6e-0b4566b7e49e","system_id":"levelo_inurba_marseille","lat":43.30634,"lon":5.40086,"is_reserved":false,"is_disabled":false,"rental_uris":{"android":"levelo://app?vid=6cc49a5a-10d7-4481-bb6e-0b4566b7e49e","ios":"levelo://app?vid=6cc49a5a-10d7-4481-bb6e-0b4566b7e49e"},"vehicle_type_id":"4","last_reported":1731427890,"current_range_meters":36800,"station_id":"ce4bh112rcd13ifvqda0","pricing_plan_id":"cebpf4jnsgd1na2vs0mg"},{"bike_id":"290d9ccc-ec87-4d41-bca2-75fa1cd5e08e","system_id":"levelo_inurba_marseille","lat":43.28861,"lon":5.35842,"is_reserved":false,"is_disabled":false,"rental_uris":{"android":"levelo://app?vid=290d9ccc-ec87-4d41-bca2-75fa1cd5e08e","ios":"levelo://app?vid=290d9ccc-ec87-4d41-bca2-75fa1cd5e08e"},"vehicle_type_id":"4","last_reported":1731427890,"current_range_meters":38800,"station_id":"ce4bhb12rcd13ifvqem0","pricing_plan_id":"cebpf4jnsgd1na2vs0mg"},{"bike_id":"b0018920-e77e-4e07-936e-d420e8de27ae","system_id":"levelo_inurba_marseille","lat":43.312236,"lon":5.368599,"is_reserved":false,"is_disabled":false,"rental_uris":{"android":"levelo://app?vid=b0018920-e77e-4e07-936e-d420e8de27ae","ios":"levelo://app?vid=b0018920-e77e-4e07-936e-d420e8de27ae"},"vehicle_type_id":"4","last_reported":1731427890,"current_range_meters":23200,"station_id":"ce4bgl92rcd13ifvqbq0","pricing_plan_id":"cebpf4jnsgd1na2vs0mg"},{"bike_id":"494d59b9-33f9-49fc-a634-1ba7e8d78a82","system_id":"levelo_inurba_marseille","lat":43.30782,"lon":5.37653,"is_reserved":false,"is_disabled":false,"rental_uris":{"android":"levelo://app?vid=494d59b9-33f9-49fc-a634-1ba7e8d78a82","ios":"levelo://app?vid=494d59b9-33f9-49fc-a634-1ba7e8d78a82"},"vehicle_type_id":"4","last_reported":1731427890,"current_range_meters":22000,"station_id":"ce4bgv92rcd13ifvqcq0","pricing_plan_id":"cebpf4jnsgd1na2vs0mg"},{"bike_id":"a707541b-1272-4529-8c24-bec650c25e07","system_id":"levelo_inurba_marseille","lat":43.296661,"lon":5.386956,"is_reserved":false,"is_disabled":false,"rental_uris":{"android":"levelo://app?vid=a707541b-1272-4529-8c24-bec650c25e07","ios":"levelo://app?vid=a707541b-1272-4529-8c24-bec650c25e07"},"vehicle_type_id":"4","last_reported":1731427890,"current_range_meters":19600,"station_id":"ce4bgkh2rcd13ifvqbk0","pricing_plan_id":"cebpf4jnsgd1na2vs0mg"},{"bike_id":"6c846b65-0547-4cef-9445-ae334013f21c","system_id":"levelo_inurba_marseille","lat":43.24081,"lon":5.37751,"is_reserved":false,"is_disabled":false,"rental_uris":{"android":"levelo://app?vid=6c846b65-0547-4cef-9445-ae334013f21c","ios":"levelo://app?vid=6c846b65-0547-4cef-9445-ae334013f21c"},"vehicle_type_id":"4","last_reported":1731427890,"current_range_meters":35200,"station_id":"ce4bhnp2rcd13ifvqgvg","pricing_plan_id":"cebpf4jnsgd1na2vs0mg"},{"bike_id":"7faf32b8-1a4d-4313-a440-f081b7933db5","system_id":"levelo_inurba_marseille","lat":43.26783,"lon":5.39417,"is_reserved":false,"is_disabled":false,"rental_uris":{"android":"levelo://app?vid=7faf32b8-1a4d-4313-a440-f081b7933db5","ios":"levelo://app?vid=7faf32b8-1a4d-4313-a440-f081b7933db5"},"vehicle_type_id":"4","last_reported":1731427890,"current_range_meters":2000,"station_id":"ce4bhh12rcd13ifvqfg0","pricing_plan_id":"cebpf4jnsgd1na2vs0mg"},{"bike_id":"b64beb69-a70b-4282-946e-954b5571a9c2","system_id":"levelo_inurba_marseille","lat":43.28435,"lon":5.39211,"is_reserved":false,"is_disabled":false,"rental_uris":{"android":"levelo://app?vid=b64beb69-a70b-4282-946e-954b5571a9c2","ios":"levelo://app?vid=b64beb69-a70b-4282-946e-954b5571a9c2"},"vehicle_type_id":"4","last_reported":1731427890,"current_range_meters":19200,"station_id":"ce4bhoh2rcd13ifvqh5g","pricing_plan_id":"cebpf4jnsgd1na2vs0mg"},{"bike_id":"c4bf77ca-d3bf-4a37-85d6-8560560189de","system_id":"levelo_inurba_marseille","lat":43.28856,"lon":5.35867,"is_reserved":false,"is_disabled":false,"rental_uris":{"android":"levelo://app?vid=c4bf77ca-d3bf-4a37-85d6-8560560189de","ios":"levelo://app?vid=c4bf77ca-d3bf-4a37-85d6-8560560189de"},"vehicle_type_id":"4","last_reported":1731427890,"current_range_meters":38400,"station_id":"ce4bhb12rcd13ifvqem0","pricing_plan_id":"cebpf4jnsgd1na2vs0mg"},{"bike_id":"c3cc0151-3756-4284-a56d-74e20d0dbfa4","system_id":"levelo_inurba_marseille","lat":43.32477,"lon":5.36562,"is_reserved":false,"is_disabled":false,"rental_uris":{"android":"levelo://app?vid=c3cc0151-3756-4284-a56d-74e20d0dbfa4","ios":"levelo://app?vid=c3cc0151-3756-4284-a56d-74e20d0dbfa4"},"vehicle_type_id":"4","last_reported":1731427890,"current_range_meters":26800,"station_id":"ce4bhs12rcd13ifvqhvg","pricing_plan_id":"cebpf4jnsgd1na2vs0mg"},{"bike_id":"337ebe00-730f-4944-a7dd-ee763f67205c","system_id":"levelo_inurba_marseille","lat":43.28942,"lon":5.36638,"is_reserved":false,"is_disabled":false,"rental_uris":{"android":"levelo://app?vid=337ebe00-730f-4944-a7dd-ee763f67205c","ios":"levelo://app?vid=337ebe00-730f-4944-a7dd-ee763f67205c"},"vehicle_type_id":"4","last_reported":1731427890,"current_range_meters":38400,"station_id":"ce4bhap2rcd13ifvqek0","pricing_plan_id":"cebpf4jnsgd1na2vs0mg"},{"bike_id":"1b78dc6f-bcd7-4772-9063-a0fe1798c19e","system_id":"levelo_inurba_marseille","lat":43.28152,"lon":5.42641,"is_reserved":false,"is_disabled":false,"rental_uris":{"android":"levelo://app?vid=1b78dc6f-bcd7-4772-9063-a0fe1798c19e","ios":"levelo://app?vid=1b78dc6f-bcd7-4772-9063-a0fe1798c19e"},"vehicle_type_id":"4","last_reported":1731427890,"current_range_meters":36800,"station_id":"ce4bhnh2rcd13ifvqgug","pricing_plan_id":"cebpf4jnsgd1na2vs0mg"},{"bike_id":"338beb6c-7d58-4935-9c4c-65b1e1f6e74d","system_id":"levelo_inurba_marseille","lat":43.25006,"lon":5.38918,"is_reserved":false,"is_disabled":false,"rental_uris":{"android":"levelo://app?vid=338beb6c-7d58-4935-9c4c-65b1e1f6e74d","ios":"levelo://app?vid=338beb6c-7d58-4935-9c4c-65b1e1f6e74d"},"vehicle_type_id":"4","last_reported":1731427890,"current_range_meters":20800,"station_id":"ce4bhgp2rcd13ifvqfd0","pricing_plan_id":"cebpf4jnsgd1na2vs0mg"},{"bike_id":"515a80a5-0ba7-4345-8558-977afc45db37","system_id":"levelo_inurba_marseille","lat":43.28721,"lon":5.36091,"is_reserved":false,"is_disabled":false,"rental_uris":{"android":"levelo://app?vid=515a80a5-0ba7-4345-8558-977afc45db37","ios":"levelo://app?vid=515a80a5-0ba7-4345-8558-977afc45db37"},"vehicle_type_id":"4","last_reported":1731427890,"current_range_meters":37600,"station_id":"cki0cbj6b192h4jlfktg","pricing_plan_id":"cebpf4jnsgd1na2vs0mg"},{"bike_id":"6c86d1e7-0f75-4d75-932d-336f5dc8022b","system_id":"levelo_inurba_marseille","lat":43.26029,"lon":5.37554,"is_reserved":false,"is_disabled":false,"rental_uris":{"android":"levelo://app?vid=6c86d1e7-0f75-4d75-932d-336f5dc8022b","ios":"levelo://app?vid=6c86d1e7-0f75-4d75-932d-336f5dc8022b"},"vehicle_type_id":"4","last_reported":1731427890,"current_range_meters":38000,"station_id":"ce4bhgh2rcd13ifvqfa0","pricing_plan_id":"cebpf4jnsgd1na2vs0mg"},{"bike_id":"75477a1a-4e8c-48d3-bcf2-d9ee5222e19e","system_id":"levelo_inurba_marseille","lat":43.24807,"lon":5.37443,"is_reserved":false,"is_disabled":false,"rental_uris":{"android":"levelo://app?vid=75477a1a-4e8c-48d3-bcf2-d9ee5222e19e","ios":"levelo://app?vid=75477a1a-4e8c-48d3-bcf2-d9ee5222e19e"},"vehicle_type_id":"4","last_reported":1731427890,"current_range_meters":17600,"station_id":"ce4bhgh2rcd13ifvqfb0","pricing_plan_id":"cebpf4jnsgd1na2vs0mg"},{"bike_id":"1f41c8d1-3898-47e4-89a4-32059048e6e4","system_id":"levelo_inurba_marseille","lat":43.31488,"lon":5.37311,"is_reserved":false,"is_disabled":false,"rental_uris":{"android":"levelo://app?vid=1f41c8d1-3898-47e4-89a4-32059048e6e4","ios":"levelo://app?vid=1f41c8d1-3898-47e4-89a4-32059048e6e4"},"vehicle_type_id":"4","last_reported":1731427890,"current_range_meters":6400,"station_id":"ce4bgt12rcd13ifvqcd0","pricing_plan_id":"cebpf4jnsgd1na2vs0mg"},{"bike_id":"76ee696e-2e48-4531-991b-7a3e7dea90ec","system_id":"levelo_inurba_marseille","lat":43.29365,"lon":5.37859,"is_reserved":false,"is_disabled":false,"rental_uris":{"android":"levelo://app?vid=76ee696e-2e48-4531-991b-7a3e7dea90ec","ios":"levelo://app?vid=76ee696e-2e48-4531-991b-7a3e7dea90ec"},"vehicle_type_id":"4","last_reported":1731427890,"current_range_meters":30400,"station_id":"ce4bgjh2rcd13ifvqbf0","pricing_plan_id":"cebpf4jnsgd1na2vs0mg"},{"bike_id":"6e9f8483-9291-45d9-8a7f-b90a38e0e6c5","system_id":"levelo_inurba_marseille","lat":43.28464,"lon":5.35886,"is_reserved":false,"is_disabled":false,"rental_uris":{"android":"levelo://app?vid=6e9f8483-9291-45d9-8a7f-b90a38e0e6c5","ios":"levelo://app?vid=6e9f8483-9291-45d9-8a7f-b90a38e0e6c5"},"vehicle_type_id":"4","last_reported":1731427890,"current_range_meters":24800,"station_id":"ce4bhah2rcd13ifvqei0","pricing_plan_id":"cebpf4jnsgd1na2vs0mg"},{"bike_id":"36658518-cd00-4ec9-b67e-5290fd0d2b99","system_id":"levelo_inurba_marseille","lat":43.23155,"lon":5.43724,"is_reserved":false,"is_disabled":false,"rental_uris":{"android":"levelo://app?vid=36658518-cd00-4ec9-b67e-5290fd0d2b99","ios":"levelo://app?vid=36658518-cd00-4ec9-b67e-5290fd0d2b99"},"vehicle_type_id":"4","last_reported":1731427890,"current_range_meters":38800,"station_id":"ce4bhmp2rcd13ifvqgog","pricing_plan_id":"cebpf4jnsgd1na2vs0mg"},{"bike_id":"b3175448-b22f-40da-8bcb-ad3e3b2c3bee","system_id":"levelo_inurba_marseille","lat":43.30138,"lon":5.38784,"is_reserved":false,"is_disabled":false,"rental_uris":{"android":"levelo://app?vid=b3175448-b22f-40da-8bcb-ad3e3b2c3bee","ios":"levelo://app?vid=b3175448-b22f-40da-8bcb-ad3e3b2c3bee"},"vehicle_type_id":"4","last_reported":1731427890,"current_range_meters":34800,"station_id":"ce4bghh2rcd13ifvqb60","pricing_plan_id":"cebpf4jnsgd1na2vs0mg"},{"bike_id":"3d961f58-ecfb-4c19-86d7-5853998a46ec","system_id":"levelo_inurba_marseille","lat":43.31088,"lon":5.42439,"is_reserved":false,"is_disabled":false,"rental_uris":{"android":"levelo://app?vid=3d961f58-ecfb-4c19-86d7-5853998a46ec","ios":"levelo://app?vid=3d961f58-ecfb-4c19-86d7-5853998a46ec"},"vehicle_type_id":"4","last_reported":1731427890,"current_range_meters":33600,"station_id":"ce4bhp92rcd13ifvqhag","pricing_plan_id":"cebpf4jnsgd1na2vs0mg"},{"bike_id":"be7286c5-8ba3-48f2-9ec2-68842fd15d13","system_id":"levelo_inurba_marseille","lat":43.27379,"lon":5.36258,"is_reserved":false,"is_disabled":false,"rental_uris":{"android":"levelo://app?vid=be7286c5-8ba3-48f2-9ec2-68842fd15d13","ios":"levelo://app?vid=be7286c5-8ba3-48f2-9ec2-68842fd15d13"},"vehicle_type_id":"4","last_reported":1731427890,"current_range_meters":38800,"station_id":"ce4bhbh2rcd13ifvqeo0","pricing_plan_id":"cebpf4jnsgd1na2vs0mg"},{"bike_id":"4d4469f7-5424-4f01-8b8d-6eb6c3573259","system_id":"levelo_inurba_marseille","lat":43.337444,"lon":5.374475,"is_reserved":false,"is_disabled":false,"rental_uris":{"android":"levelo://app?vid=4d4469f7-5424-4f01-8b8d-6eb6c3573259","ios":"levelo://app?vid=4d4469f7-5424-4f01-8b8d-6eb6c3573259"},"vehicle_type_id":"4","last_reported":1731427890,"current_range_meters":37600,"station_id":"","pricing_plan_id":"cebpf4jnsgd1na2vs0mg"},{"bike_id":"abec2844-210b-47ec-989a-5d40d265bbad","system_id":"levelo_inurba_marseille","lat":43.32049,"lon":5.41547,"is_reserved":false,"is_disabled":false,"rental_uris":{"android":"levelo://app?vid=abec2844-210b-47ec-989a-5d40d265bbad","ios":"levelo://app?vid=abec2844-210b-47ec-989a-5d40d265bbad"},"vehicle_type_id":"4","last_reported":1731427890,"current_range_meters":36800,"station_id":"ce4bhq92rcd13ifvqhkg","pricing_plan_id":"cebpf4jnsgd1na2vs0mg"},{"bike_id":"052a1a4c-b94f-44cc-8d9d-bd13807ef51d","system_id":"levelo_inurba_marseille","lat":43.26203,"lon":5.37933,"is_reserved":false,"is_disabled":false,"rental_uris":{"android":"levelo://app?vid=052a1a4c-b94f-44cc-8d9d-bd13807ef51d","ios":"levelo://app?vid=052a1a4c-b94f-44cc-8d9d-bd13807ef51d"},"vehicle_type_id":"4","last_reported":1731427890,"current_range_meters":24400,"station_id":"ce4bhjp2rcd13ifvqg90","pricing_plan_id":"cebpf4jnsgd1na2vs0mg"},{"bike_id":"a7a06eea-fb75-4c94-ada0-1dadb648ba27","system_id":"levelo_inurba_marseille","lat":43.26941,"lon":5.40248,"is_reserved":false,"is_disabled":false,"rental_uris":{"android":"levelo://app?vid=a7a06eea-fb75-4c94-ada0-1dadb648ba27","ios":"levelo://app?vid=a7a06eea-fb75-4c94-ada0-1dadb648ba27"},"vehicle_type_id":"4","last_reported":1731427890,"current_range_meters":24400,"station_id":"cjm6bp8fraef2m0cb0m0","pricing_plan_id":"cebpf4jnsgd1na2vs0mg"},{"bike_id":"db63bedc-2c23-4536-821c-60587795bd16","system_id":"levelo_inurba_marseille","lat":43.28862,"lon":5.3584,"is_reserved":false,"is_disabled":false,"rental_uris":{"android":"levelo://app?vid=db63bedc-2c23-4536-821c-60587795bd16","ios":"levelo://app?vid=db63bedc-2c23-4536-821c-60587795bd16"},"vehicle_type_id":"4","last_reported":1731427890,"current_range_meters":38400,"station_id":"ce4bhb12rcd13ifvqem0","pricing_plan_id":"cebpf4jnsgd1na2vs0mg"},{"bike_id":"5abe97ac-9ed1-43c9-b478-f36f7a381c32","system_id":"levelo_inurba_marseille","lat":43.28936,"lon":5.39643,"is_reserved":false,"is_disabled":false,"rental_uris":{"android":"levelo://app?vid=5abe97ac-9ed1-43c9-b478-f36f7a381c32","ios":"levelo://app?vid=5abe97ac-9ed1-43c9-b478-f36f7a381c32"},"vehicle_type_id":"4","last_reported":1731427890,"current_range_meters":36800,"station_id":"ce4bh3h2rcd13ifvqdn0","pricing_plan_id":"cebpf4jnsgd1na2vs0mg"},{"bike_id":"d2d00d0c-0edb-4e3f-a6ed-e620fd87dfdf","system_id":"levelo_inurba_marseille","lat":43.29147,"lon":5.40342,"is_reserved":false,"is_disabled":false,"rental_uris":{"android":"levelo://app?vid=d2d00d0c-0edb-4e3f-a6ed-e620fd87dfdf","ios":"levelo://app?vid=d2d00d0c-0edb-4e3f-a6ed-e620fd87dfdf"},"vehicle_type_id":"4","last_reported":1731427890,"current_range_meters":25600,"station_id":"","pricing_plan_id":"cebpf4jnsgd1na2vs0mg"},