{"last_updated":1748581828,"ttl":60,"version":"2.2","data":{"bikes":[{"bike_id":"15c306f5-cf6b-4a8d-8326-60c1e9b2c733","system_id":"levelo_inurba_marseille","lat":43.27422,"lon":5.39406,"is_reserved":false,"is_disabled":true,"rental_uris":{"android":"levelo://app?vid=15c306f5-cf6b-4a8d-8326-60c1e9b2c733","ios":"levelo://app?vid=15c306f5-cf6b-4a8d-8326-60c1e9b2c733"},"vehicle_type_id":"4","last_reported":1748581828,"current_range_meters":2800,"station_id":"ce4bhdp2rcd13ifvqf20","pricing_plan_id":"cebpf4jnsgd1na2vs0mg"},{"bike_id":"6d7cfdcd-f061-4eee-b4e5-78d9b6729328","system_id":"levelo_inurba_marseille","lat":43.32987,"lon":5.43865,"is_reserved":false,"is_disabled":false,"rental_uris":{"android":"levelo://app?vid=6d7cfdcd-f061-4eee-b4e5-78d9b6729328","ios":"levelo://app?vid=6d7cfdcd-f061-4eee-b4e5-78d9b6729328"},"vehicle_type_id":"4","last_reported":1748581828,"current_range_meters":2800,"station_id":"","pricing_plan_id":"cebpf4jnsgd1na2vs0mg"},{"bike_id":"45a545f2-117e-41f7-b7df-f3f699944c28","system_id":"levelo_inurba_marseille","lat":43.32656,"lon":5.40994,"is_reserved":false,"is_disabled":false,"rental_uris":{"android":"levelo://app?vid=45a545f2-117e-41f7-b7df-f3f699944c28","ios":"levelo://app?vid=45a545f2-117e-41f7-b7df-f3f699944c28"},"vehicle_type_id":"4","last_reported":1748581828,"current_range_meters":2800,"station_id":"ce4bhpp2rcd13ifvqhgg","pricing_plan_id":"cebpf4jnsgd1na2vs0mg"},{"bike_id":"96ff1870-59aa-4633-879e-2899bfabb07c","system_id":"levelo_inurba_marseille","lat":43.257255,"lon":5.411093,"is_reserved":false,"is_disabled":false,"rental_uris":{"android":"levelo://app?vid=96ff1870-59aa-4633-879e-2899bfabb07c","ios":"levelo://app?vid=96ff1870-59aa-4633-879e-2899bfabb07c"},"vehicle_type_id":"4","last_reported":1748581828,"current_range_meters":2800,"station_id":"ce4bhkp2rcd13ifvqgd0","pricing_plan_id":"cebpf4jnsgd1na2vs0mg"},{"bike_id":"04b3db88-674e-4d54-8edd-81dfede77d38","system_id":"levelo_inurba_marseille","lat":43.291597,"lon":5.403223,"is_reserved":false,"is_disabled":false,"rental_uris":{"android":"levelo://app?vid=04b3db88-674e-4d54-8edd-81dfede77d38","ios":"levelo://app?vid=04b3db88-674e-4d54-8edd-81dfede77d38"},"vehicle_type_id":"4","last_reported":1748581828,"current_range_meters":3200,"station_id":"","pricing_plan_id":"cebpf4jnsgd1na2vs0mg"},{"bike_id":"3f0441b1-6cb6-41fd-b679-f454d34b2118","system_id":"levelo_inurba_marseille","lat":43.211883,"lon":5.350914,"is_reserved":false,"is_disabled":false,"rental_uris":{"android":"levelo://app?vid=3f0441b1-6cb6-41fd-b679-f454d34b2118","ios":"levelo://app?vid=3f0441b1-6cb6-41fd-b679-f454d34b2118"},"vehicle_type_id":"4","last_reported":1748581828,"current_range_meters":3200,"station_id":"st_cvj6sg6p6f1abm77japg","pricing_plan_id":"cebpf4jnsgd1na2vs0mg"},{"bike_id":"1eed49fb-ce64-4ebd-9903-7d87835a2ccf","system_id":"levelo_inurba_marseille","lat":43.29752,"lon":5.45984,"is_reserved":false,"is_disabled":false,"rental_uris":{"android":"levelo://app?vid=1eed49fb-ce64-4ebd-9903-7d87835a2ccf","ios":"levelo://app?vid=1eed49fb-ce64-4ebd-9903-7d87835a2ccf"},"vehicle_type_id":"4","last_reported":1748581828,"current_range_meters":3600,"station_id":"","pricing_plan_id":"cebpf4jnsgd1na2vs0mg"},{"bike_id":"c519088d-a216-460f-a22b-7250a0097080","system_id":"levelo_inurba_marseille","lat":43.28159,"lon":5.42633,"is_reserved":false,"is_disabled":false,"rental_uris":{"android":"levelo://app?vid=c519088d-a216-460f-a22b-7250a0097080","ios":"levelo://app?vid=c519088d-a216-460f-a22b-7250a0097080"},"vehicle_type_id":"4","last_reported":1748581828,"current_range_meters":3600,"station_id":"ce4bhnh2rcd13ifvqgug","pricing_plan_id":"cebpf4jnsgd1na2vs0mg"},{"bike_id":"78353d3a-f046-4900-8502-614ce335636a","system_id":"levelo_inurba_marseille","lat":43.29036,"lon":5.359286,"is_reserved":false,"is_disabled":true,"rental_uris":{"android":"levelo://app?vid=78353d3a-f046-4900-8502-614ce335636a","ios":"levelo://app?vid=78353d3a-f046-4900-8502-614ce335636a"},"vehicle_type_id":"4","last_reported":1748581828,"current_range_meters":4000,"station_id":"ce4bha92rcd13ifvqeg0","pricing_plan_id":"cebpf4jnsgd1na2vs0mg"},{"bike_id":"c1c51125-b169-41b9-b7df-e87ff78b4aea","system_id":"levelo_inurba_marseille","lat":43.262269,"lon":5.404589,"is_reserved":false,"is_disabled":false,"rental_uris":{"android":"levelo://app?vid=c1c51125-b169-41b9-b7df-e87ff78b4aea","ios":"levelo://app?vid=c1c51125-b169-41b9-b7df-e87ff78b4aea"},"vehicle_type_id":"4","last_reported":1748581828,"current_range_meters":4000,"station_id":"ce4bhmh2rcd13ifvqgmg","pricing_plan_id":"cebpf4jnsgd1na2vs0mg"},{"bike_id":"47ffa892-57a8-42b9-9b58-aedbf9ea0706","system_id":"levelo_inurba_marseille","lat":43.336041,"lon":5.410335,"is_reserved":false,"is_disabled":false,"rental_uris":{"android":"levelo://app?vid=47ffa892-57a8-42b9-9b58-aedbf9ea0706","ios":"levelo://app?vid=47ffa892-57a8-42b9-9b58-aedbf9ea0706"},"vehicle_type_id":"4","last_reported":1748581828,"current_range_meters":4000,"station_id":"ce4bhqh2rcd13ifvqhmg","pricing_plan_id":"cebpf4jnsgd1na2vs0mg"},{"bike_id":"64e8cb8d-1970-49b0-a53e-fe64e8b46825","system_id":"levelo_inurba_marseille","lat":43.25815,"lon":5.39426,"is_reserved":false,"is_disabled":false,"rental_uris":{"android":"levelo://app?vid=64e8cb8d-1970-49b0-a53e-fe64e8b46825","ios":"levelo://app?vid=64e8cb8d-1970-49b0-a53e-fe64e8b46825"},"vehicle_type_id":"4","last_reported":1748581828,"current_range_meters":4000,"station_id":"ce4bhip2rcd13ifvqft0","pricing_plan_id":"cebpf4jnsgd1na2vs0mg"},{"bike_id":"45ac51a9-9c69-482d-ad89-d9fe9c5778e6","system_id":"levelo_inurba_marseille","lat":43.29889,"lon":5.38147,"is_reserved":false,"is_disabled":true,"rental_uris":{"android":"levelo://app?vid=45ac51a9-9c69-482d-ad89-d9fe9c5778e6","ios":"levelo://app?vid=45ac51a9-9c69-482d-ad89-d9fe9c5778e6"},"vehicle_type_id":"4","last_reported":1748581828,"current_range_meters":4400,"station_id":"ce4bgj12rcd13ifvqbc0","pricing_plan_id":"cebpf4jnsgd1na2vs0mg"},{"bike_id":"dc5ea332-f524-4077-8b03-f9f927c43c76","system_id":"levelo_inurba_marseille","lat":43.29455,"lon":5.39765,"is_reserved":false,"is_disabled":false,"rental_uris":{"android":"levelo://app?vid=dc5ea332-f524-4077-8b03-f9f927c43c76","ios":"levelo://app?vid=dc5ea332-f524-4077-8b03-f9f927c43c76"},"vehicle_type_id":"4","last_reported":1748581828,"current_range_meters":4400,"station_id":"ce4bh3h2rcd13ifvqdo0","pricing_plan_id":"cebpf4jnsgd1na2vs0mg"},{"bike_id":"3c2c4e57-dc19-4c62-b19c-90e376fb4e55","system_id":"levelo_inurba_marseille","lat":43.27052,"lon":5.40264,"is_reserved":false,"is_disabled":false,"rental_uris":{"android":"levelo://app?vid=3c2c4e57-dc19-4c62-b19c-90e376fb4e55","ios":"levelo://app?vid=3c2c4e57-dc19-4c62-b19c-90e376fb4e55"},"vehicle_type_id":"4","last_reported":1748581828,"current_range_meters":4400,"station_id":"ce4bhk92rcd13ifvqgc0","pricing_plan_id":"cebpf4jnsgd1na2vs0mg"},{"bike_id":"11488e1b-74ae-4459-8884-1588199aa112","system_id":"levelo_inurba_marseille","lat":43.2694,"lon":5.40254,"is_reserved":false,"is_disabled":false,"rental_uris":{"android":"levelo://app?vid=11488e1b-74ae-4459-8884-1588199aa112","ios":"levelo://app?vid=11488e1b-74ae-4459-8884-1588199aa112"},"vehicle_type_id":"4","last_reported":1748581828,"current_range_meters":4400,"station_id":"cjm6bp8fraef2m0cb0m0","pricing_plan_id":"cebpf4jnsgd1na2vs0mg"},{"bike_id":"db3e3a0c-bf29-49a4-a2a5-c721b9aaa439","system_id":"levelo_inurba_marseille","lat":43.28472,"lon":5.38414,"is_reserved":false,"is_disabled":false,"rental_uris":{"android":"levelo://app?vid=db3e3a0c-bf29-49a4-a2a5-c721b9aaa439","ios":"levelo://app?vid=db3e3a0c-bf29-49a4-a2a5-c721b9aaa439"},"vehicle_type_id":"4","last_reported":1748581828,"current_range_meters":4400,"station_id":"ce4bh512rcd13ifvqe3g","pricing_plan_id":"cebpf4jnsgd1na2vs0mg"},{"bike_id":"4ba4135c-d510-4e4b-a1ba-c2cab12dadb1","system_id":"levelo_inurba_marseille","lat":43.284445,"lon":5.39557,"is_reserved":false,"is_disabled":false,"rental_uris":{"android":"levelo://app?vid=4ba4135c-d510-4e4b-a1ba-c2cab12dadb1","ios":"levelo://app?vid=4ba4135c-d510-4e4b-a1ba-c2cab12dadb1"},"vehicle_type_id":"4","last_reported":1748581828,"current_range_meters":10000,"station_id":"ce4bh292rcd13ifvqdg0","pricing_plan_id":"cebpf4jnsgd1na2vs0mg"},{"bike_id":"57b5f64c-bdd5-4a8d-b73a-f30035957fd1","system_id":"levelo_inurba_marseille","lat":43.302483,"lon":5.400628,"is_reserved":false,"is_disabled":true,"rental_uris":{"android":"levelo://app?vid=57b5f64c-bdd5-4a8d-b73a-f30035957fd1","ios":"levelo://app?vid=57b5f64c-bdd5-4a8d-b73a-f30035957fd1"},"vehicle_type_id":"4","last_reported":1748581828,"current_range_meters":4800,"station_id":"","pricing_plan_id":"cebpf4jnsgd1na2vs0mg"},{"bike_id":"dd71510b-388a-4ae0-8708-cd581b7431eb","system_id":"levelo_inurba_marseille","lat":43.24181,"lon":5.39726,"is_reserved":false,"is_disabled":false,"rental_uris":{"android":"levelo://app?vid=dd71510b-388a-4ae0-8708-cd581b7431eb","ios":"levelo://app?vid=dd71510b-388a-4ae0-8708-cd581b7431eb"},"vehicle_type_id":"4","last_reported":1748581828,"current_range_meters":4800,"station_id":"ce4bhn12rcd13ifvqgpg","pricing_plan_id":"cebpf4jnsgd1na2vs0mg"},{"bike_id":"c981519c-d263-4c95-b9bb-0aa79abfaf38","system_id":"levelo_inurba_marseille","lat":43.286894,"lon":5.386516,"is_reserved":false,"is_disabled":false,"rental_uris":{"android":"levelo://app?vid=c981519c-d263-4c95-b9bb-0aa79abfaf38","ios":"levelo://app?vid=c981519c-d263-4c95-b9bb-0aa79abfaf38"},"vehicle_type_id":"4","last_reported":1748581828,"current_range_meters":4800,"station_id":"ce4bh492rcd13ifvqdug","pricing_plan_id":"cebpf4jnsgd1na2vs0mg"},{"bike_id":"c006505c-40ec-4dbb-8fb7-e9d75b9aa51f","system_id":"levelo_inurba_marseille","lat":43.331485,"lon":5.381758,"is_reserved":false,"is_disabled":false,"rental_uris":{"android":"levelo://app?vid=c006505c-40ec-4dbb-8fb7-e9d75b9aa51f","ios":"levelo://app?vid=c006505c-40ec-4dbb-8fb7-e9d75b9aa51f"},"vehicle_type_id":"4","last_reported":1748581828,"current_range_meters":5600,"station_id":"","pricing_plan_id":"cebpf4jnsgd1na2vs0mg"},{"bike_id":"2f650bb1-6027-4191-83d2-16315820a0a7","system_id":"levelo_inurba_marseille","lat":43.29987,"lon":5.37373,"is_reserved":false,"is_disabled":false,"rental_uris":{"android":"levelo://app?vid=2f650bb1-6027-4191-83d2-16315820a0a7","ios":"levelo://app?vid=2f650bb1-6027-4191-83d2-16315820a0a7"},"vehicle_type_id":"4","last_reported":1748581828,"current_range_meters":5600,"station_id":"","pricing_plan_id":"cebpf4jnsgd1na2vs0mg"},{"bike_id":"e66e9b21-de04-48f6-8dcc-00a6af2fc671","system_id":"levelo_inurba_marseille","lat":43.30453,"lon":5.37903,"is_reserved":false,"is_disabled":false,"rental_uris":{"android":"levelo://app?vid=e66e9b21-de04-48f6-8dcc-00a6af2fc671","ios":"levelo://app?vid=e66e9b21-de04-48f6-8dcc-00a6af2fc671"},"vehicle_type_id":"4","last_reported":1748581828,"current_range_meters":5600,"station_id":"ce4bgup2rcd13ifvqcn0","pricing_plan_id":"cebpf4jnsgd1na2vs0mg"},{"bike_id":"8a5e6cfb-33fd-4496-8f19-11cd4908268c","system_id":"levelo_inurba_marseille","lat":43.28683,"lon":5.38672,"is_reserved":false,"is_disabled":false,"rental_uris":{"android":"levelo://app?vid=8a5e6cfb-33fd-4496-8f19-11cd4908268c","ios":"levelo://app?vid=8a5e6cfb-33fd-4496-8f19-11cd4908268c"},"vehicle_type_id":"4","last_reported":1748581828,"current_range_meters":5600,"station_id":"ce4bh492rcd13ifvqdug","pricing_plan_id":"cebpf4jnsgd1na2vs0mg"},{"bike_id":"015f9af9-da45-4c09-9c85-f29c0e49ce0d","system_id":"levelo_inurba_marseille","lat":43.24176,"lon":5.36402,"is_reserved":false,"is_disabled":false,"rental_uris":{"android":"levelo://app?vid=015f9af9-da45-4c09-9c85-f29c0e49ce0d","ios":"levelo://app?vid=015f9af9-da45-4c09-9c85-f29c0e49ce0d"},"vehicle_type_id":"4","last_reported":1748581828,"current_range_meters":6000,"station_id":"cpo36qri1sfpv3e86is0","pricing_plan_id":"cebpf4jnsgd1na2vs0mg"},{"bike_id":"4c5b150b-4be1-4396-b0f3-e96a5df5ab28","system_id":"levelo_inurba_marseille","lat":43.28353,"lon":5.38094,"is_reserved":false,"is_disabled":false,"rental_uris":{"android":"levelo://app?vid=4c5b150b-4be1-4396-b0f3-e96a5df5ab28","ios":"levelo://app?vid=4c5b150b-4be1-4396-b0f3-e96a5df5ab28"},"vehicle_type_id":"4","last_reported":1748581828,"current_range_meters":6000,"station_id":"ce4bh412rcd13ifvqdr0","pricing_plan_id":"cebpf4jnsgd1na2vs0mg"},{"bike_id":"80ed9ea3-315a-4ac8-93d9-78ae43f5c130","system_id":"levelo_inurba_marseille","lat":43.30112,"lon":5.3907,"is_reserved":false,"is_disabled":false,"rental_uris":{"android":"levelo://app?vid=80ed9ea3-315a-4ac8-93d9-78ae43f5c130","ios":"levelo://app?vid=80ed9ea3-315a-4ac8-93d9-78ae43f5c130"},"vehicle_type_id":"4","last_reported":1748581828,"current_range_meters":6000,"station_id":"ce4bh192rcd13ifvqdb0","pricing_plan_id":"cebpf4jnsgd1na2vs0mg"},{"bike_id":"22771043-09b1-43eb-91e0-5c845144e1e3","system_id":"levelo_inurba_marseille","lat":43.27692,"lon":5.40849,"is_reserved":false,"is_disabled":false,"rental_uris":{"android":"levelo://app?vid=22771043-09b1-43eb-91e0-5c845144e1e3","ios":"levelo://app?vid=22771043-09b1-43eb-91e0-5c845144e1e3"},"vehicle_type_id":"4","last_reported":1748581828,"current_range_meters":6400,"station_id":"","pricing_plan_id":"cebpf4jnsgd1na2vs0mg"},{"bike_id":"eb4b3905-d697-4843-bcd5-622b64c07feb","system_id":"levelo_inurba_marseille","lat":43.23131,"lon":5.43725,"is_reserved":false,"is_disabled":false,"rental_uris":{"android":"levelo://app?vid=eb4b3905-d697-4843-bcd5-622b64c07feb","ios":"levelo://app?vid=eb4b3905-d697-4843-bcd5-622b64c07feb"},"vehicle_type_id":"4","last_reported":1748581828,"current_range_meters":6400,"station_id":"ce4bhmp2rcd13ifvqgog","pricing_plan_id":"cebpf4jnsgd1na2vs0mg"},{"bike_id":"83de063b-de3e-48c3-9e52-452e145bc76c","system_id":"levelo_inurba_marseille","lat":43.240719,"lon":5.377631,"is_reserved":false,"is_disabled":false,"rental_uris":{"android":"levelo://app?vid=83de063b-de3e-48c3-9e52-452e145bc76c","ios":"levelo://app?vid=83de063b-de3e-48c3-9e52-452e145bc76c"},"vehicle_type_id":"4","last_reported":1748581828,"current_range_meters":6400,"station_id":"ce4bhnp2rcd13ifvqgvg","pricing_plan_id":"cebpf4jnsgd1na2vs0mg"},{"bike_id":"18b13977-375c-4da1-b1e8-2b0d0ef9b74a","system_id":"levelo_inurba_marseille","lat":43.30193,"lon":5.39485,"is_reserved":false,"is_disabled":false,"rental_uris":{"android":"levelo://app?vid=18b13977-375c-4da1-b1e8-2b0d0ef9b74a","ios":"levelo://app?vid=18b13977-375c-4da1-b1e8-2b0d0ef9b74a"},"vehicle_type_id":"4","last_reported":1748581828,"current_range_meters":6400,"station_id":"ce4bh0p2rcd13ifvqd70","pricing_plan_id":"cebpf4jnsgd1na2vs0mg"},{"bike_id":"92cc41b1-86b4-4ddd-8208-549b320e7443","system_id":"levelo_inurba_marseille","lat":43.326469,"lon":5.409939,"is_reserved":false,"is_disabled":false,"rental_uris":{"android":"levelo://app?vid=92cc41b1-86b4-4ddd-8208-549b320e7443","ios":"levelo://app?vid=92cc41b1-86b4-4ddd-8208-549b320e7443"},"vehicle_type_id":"4","last_reported":1748581828,"current_range_meters":6800,"station_id":"ce4bhpp2rcd13ifvqhgg","pricing_plan_id":"cebpf4jnsgd1na2vs0mg"},{"bike_id":"047bbed6-33d9-4486-b038-6c0f2513bd98","system_id":"levelo_inurba_marseille","lat":43.246695,"lon":5.381713,"is_reserved":false,"is_disabled":false,"rental_uris":{"android":"levelo://app?vid=047bbed6-33d9-4486-b038-6c0f2513bd98","ios":"levelo://app?vid=047bbed6-33d9-4486-b038-6c0f2513bd98"},"vehicle_type_id":"4","last_reported":1748581828,"current_range_meters":6800,"station_id":"ce4bhih2rcd13ifvqfr0","pricing_plan_id":"cebpf4jnsgd1na2vs0mg"},{"bike_id":"a329eac8-e7c4-4479-b5f4-6f80ea2c1466","system_id":"levelo_inurba_marseille","lat":43.284121,"lon":5.375225,"is_reserved":false,"is_disabled":false,"rental_uris":{"android":"levelo://app?vid=a329eac8-e7c4-4479-b5f4-6f80ea2c1466","ios":"levelo://app?vid=a329eac8-e7c4-4479-b5f4-6f80ea2c1466"},"vehicle_type_id":"4","last_reported":1748581828,"current_range_meters":6800,"station_id":"ce4bh412rcd13ifvqds0","pricing_plan_id":"cebpf4jnsgd1na2vs0mg"},{"bike_id":"7c6e48ab-b87e-4e89-9339-a1a2992e6797","system_id":"levelo_inurba_marseille","lat":43.26114,"lon":5.4147,"is_reserved":false,"is_disabled":false,"rental_uris":{"android":"levelo://app?vid=7c6e48ab-b87e-4e89-9339-a1a2992e6797","ios":"levelo://app?vid=7c6e48ab-b87e-4e89-9339-a1a2992e6797"},"vehicle_type_id":"4","last_reported":1748581828,"current_range_meters":6800,"station_id":"","pricing_plan_id":"cebpf4jnsgd1na2vs0mg"},{"bike_id":"2a0682f8-0ba4-4e21-9326-7a5912220f6c","system_id":"levelo_inurba_marseille","lat":43.31174,"lon":5.38711,"is_reserved":false,"is_disabled":false,"rental_uris":{"android":"levelo://app?vid=2a0682f8-0ba4-4e21-9326-7a5912220f6c","ios":"levelo://app?vid=2a0682f8-0ba4-4e21-9326-7a5912220f6c"},"vehicle_type_id":"4","last_reported":1748581828,"current_range_meters":6800,"station_id":"ce4bgv12rcd13ifvqcp0","pricing_plan_id":"cebpf4jnsgd1na2vs0mg"},{"bike_id":"a0292f76-9c39-4975-8852-43249404ddac","system_id":"levelo_inurba_marseille","lat":43.28408,"lon":5.37537,"is_reserved":false,"is_disabled":false,"rental_uris":{"android":"levelo://app?vid=a0292f76-9c39-4975-8852-43249404ddac","ios":"levelo://app?vid=a0292f76-9c39-4975-8852-43249404ddac"},"vehicle_type_id":"4","last_reported":1748581828,"current_range_meters":6800,"station_id":"ce4bh412rcd13ifvqds0","pricing_plan_id":"cebpf4jnsgd1na2vs0mg"},{"bike_id":"d5717ce5-c661-467b-a0d0-ac1d0564b554","system_id":"levelo_inurba_marseille","lat":43.319932,"lon":5.381501,"is_reserved":false,"is_disabled":false,"rental_uris":{"android":"levelo://app?vid=d5717ce5-c661-467b-a0d0-ac1d0564b554","ios":"levelo://app?vid=d5717ce5-c661-467b-a0d0-ac1d0564b554"},"vehicle_type_id":"4","last_reported":1748581828,"current_range_meters":6800,"station_id":"ce4bhr12rcd13ifvqhpg","pricing_plan_id":"cebpf4jnsgd1na2vs0mg"},{"bike_id":"439c2428-01fc-4528-992a-e5af19ad7cb7","system_id":"levelo_inurba_marseille","lat":43.313653,"lon":5.384968,"is_reserved":false,"is_disabled":false,"rental_uris":{"android":"levelo://app?vid=439c2428-01fc-4528-992a-e5af19ad7cb7","ios":"levelo://app?vid=439c2428-01fc-4528-992a-e5af19ad7cb7"},"vehicle_type_id":"4","last_reported":1748581828,"current_range_meters":6800,"station_id":"ce4bgt92rcd13ifvqcf0","pricing_plan_id":"cebpf4jnsgd1na2vs0mg"},{"bike_id":"583e2176-6c7f-425c-8d24-ee49a624fede","system_id":"levelo_inurba_marseille","lat":43.26573,"lon":5.39004,"is_reserved":false,"is_disabled":true,"rental_uris":{"android":"levelo://app?vid=583e2176-6c7f-425c-8d24-ee49a624fede","ios":"levelo://app?vid=583e2176-6c7f-425c-8d24-ee49a624fede"},"vehicle_type_id":"4","last_reported":1748581828,"current_range_meters":6800,"station_id":"ce4bhe12rcd13ifvqf30","pricing_plan_id":"cebpf4jnsgd1na2vs0mg"},{"bike_id":"56c661b2-09c6-4ae7-a74d-d7c5eda261a8","system_id":"levelo_inurba_marseille","lat":43.27996,"lon":5.41658,"is_reserved":false,"is_disabled":false,"rental_uris":{"android":"levelo://app?vid=56c661b2-09c6-4ae7-a74d-d7c5eda261a8","ios":"levelo://app?vid=56c661b2-09c6-4ae7-a74d-d7c5eda261a8"},"vehicle_type_id":"4","last_reported":1748581828,"current_range_meters":6800,"station_id":"ce4bho12rcd13ifvqh1g","pricing_plan_id":"cebpf4jnsgd1na2vs0mg"},{"bike_id":"497ec4a5-8002-40cf-b66d-3b629c958e7f","system_id":"levelo_inurba_marseille","lat":43.29151,"lon":5.40037,"is_reserved":false,"is_disabled":false,"rental_uris":{"android":"levelo://app?vid=497ec4a5-8002-40cf-b66d-3b629c958e7f","ios":"levelo://app?vid=497ec4a5-8002-40cf-b66d-3b629c958e7f"},"vehicle_type_id":"4","last_reported":1748581828,"current_range_meters":6800,"station_id":"","pricing_plan_id":"cebpf4jnsgd1na2vs0mg"},{"bike_id":"f38b9b08-f98d-4c07-9158-46f986b3db52","system_id":"levelo_inurba_marseille","lat":43.28341,"lon":5.37526,"is_reserved":false,"is_disabled":false,"rental_uris":{"android":"levelo://app?vid=f38b9b08-f98d-4c07-9158-46f986b3db52","ios":"levelo://app?vid=f38b9b08-f98d-4c07-9158-46f986b3db52"},"vehicle_type_id":"4","last_reported":1748581828,"current_range_meters":6800,"station_id":"","pricing_plan_id":"cebpf4jnsgd1na2vs0mg"},{"bike_id":"4fd6056e-aadb-4699-b1fa-8b8dbd97a31c","system_id":"levelo_inurba_marseille","lat":43.33609,"lon":5.41029,"is_reserved":false,"is_disabled":false,"rental_uris":{"android":"levelo://app?vid=4fd6056e-aadb-4699-b1fa-8b8dbd97a31c","ios":"levelo://app?vid=4fd6056e-aadb-4699-b1fa-8b8dbd97a31c"},"vehicle_type_id":"4","last_reported":1748581828,"current_range_meters":6800,"station_id":"ce4bhqh2rcd13ifvqhmg","pricing_plan_id":"cebpf4jnsgd1na2vs0mg"},{"bike_id":"b9ae16bc-ec39-406e-9e42-55cba52b28fe","system_id":"levelo_inurba_marseille","lat":43.26011,"lon":5.41733,"is_reserved":false,"is_disabled":false,"rental_uris":{"android":"levelo://app?vid=b9ae16bc-ec39-406e-9e42-55cba52b28fe","ios":"levelo://app?vid=b9ae16bc-ec39-406e-9e42-55cba52b28fe"},"vehicle_type_id":"4","last_reported":1748581828,"current_range_meters":6800,"station_id":"","pricing_plan_id":"cebpf4jnsgd1na2vs0mg"},{"bike_id":"bc8bd5b8-5786-4466-9769-11fe4ef18f0f","system_id":"levelo_inurba_marseille","lat":43.262174,"lon":5.404605,"is_reserved":false,"is_disabled":false,"rental_uris":{"android":"levelo://app?vid=bc8bd5b8-5786-4466-9769-11fe4ef18f0f","ios":"levelo://app?vid=bc8bd5b8-5786-4466-9769-11fe4ef18f0f"},"vehicle_type_id":"4","last_reported":1748581828,"current_range_meters":6800,"station_id":"ce4bhmh2rcd13ifvqgmg","pricing_plan_id":"cebpf4jnsgd1na2vs0mg"},{"bike_id":"419806d9-a0ba-4539-b6a3-66d05e973434","system_id":"levelo_inurba_marseille","lat":43.211921,"lon":5.350801,"is_reserved":false,"is_disabled":true,"rental_uris":{"android":"levelo://app?vid=419806d9-a0ba-4539-b6a3-66d05e973434","ios":"levelo://app?vid=419806d9-a0ba-4539-b6a3-66d05e973434"},"vehicle_type_id":"4","last_reported":1748581828,"current_range_meters":6800,"station_id":"","pricing_plan_id":"cebpf4jnsgd1na2vs0mg"},{"bike_id":"d59936d1-8ec8-4f42-8df1-dcddc80cd126","system_id":"levelo_inurba_marseille","lat":43.28949,"lon":5.39637,"is_reserved":false,"is_disabled":true,"rental_uris":{"android":"levelo://app?vid=d59936d1-8ec8-4f42-8df1-dcddc80cd126","ios":"levelo://app?vid=d59936d1-8ec8-4f42-8df1-dcddc80cd126"},"vehicle_type_id":"4","last_reported":1748581828,"current_range_meters":7200,"station_id":"ce4bh3h2rcd13ifvqdn0","pricing_plan_id":"cebpf4jnsgd1na2vs0mg"},{"bike_id":"9fa3982a-78e9-408f-aaa3-19562a00ad34","system_id":"levelo_inurba_marseille","lat":43.3118,"lon":5.38712,"is_reserved":false,"is_disabled":false,"rental_uris":{"android":"levelo://app?vid=9fa3982a-78e9-408f-aaa3-19562a00ad34","ios":"levelo://app?vid=9fa3982a-78e9-408f-aaa3-19562a00ad34"},"vehicle_type_id":"4","last_reported":1748581828,"current_range_meters":7200,"station_id":"ce4bgv12rcd13ifvqcp0","pricing_plan_id":"cebpf4jnsgd1na2vs0mg"},{"bike_id":"8c869018-c2f1-47df-8e3b-e48407b32a24","system_id":"levelo_inurba_marseille","lat":43.27195,"lon":5.40993,"is_reserved":false,"is_disabled":false,"rental_uris":{"android":"levelo://app?vid=8c869018-c2f1-47df-8e3b-e48407b32a24","ios":"levelo://app?vid=8c869018-c2f1-47df-8e3b-e48407b32a24"},"vehicle_type_id":"4","last_reported":1748581828,"current_range_meters":7200,"station_id":"ce4bhl12rcd13ifvqgf0","pricing_plan_id":"cebpf4jnsgd1na2vs0mg"},{"bike_id":"4fa5b492-f1d6-4a2b-b7f4-b14458fbd35b","system_id":"levelo_inurba_marseille","lat":43.313266,"lon":5.396925,"is_reserved":false,"is_disabled":false,"rental_uris":{"android":"levelo://app?vid=4fa5b492-f1d6-4a2b-b7f4-b14458fbd35b","ios":"levelo://app?vid=4fa5b492-f1d6-4a2b-b7f4-b14458fbd35b"},"vehicle_type_id":"4","last_reported":1748581828,"current_range_meters":7200,"station_id":"ce4bgvp2rcd13ifvqcu0","pricing_plan_id":"cebpf4jnsgd1na2vs0mg"},{"bike_id":"faef4eb4-18ac-462d-b4ca-b66224371625","system_id":"levelo_inurba_marseille","lat":43.308014,"lon":5.435331,"is_reserved":false,"is_disabled":false,"rental_uris":{"android":"levelo://app?vid=faef4eb4-18ac-462d-b4ca-b66224371625","ios":"levelo://app?vid=faef4eb4-18ac-462d-b4ca-b66224371625"},"vehicle_type_id":"4","last_reported":1748581828,"current_range_meters":7200,"station_id":"ce4bhph2rcd13ifvqheg","pricing_plan_id":"cebpf4jnsgd1na2vs0mg"},{"bike_id":"c6e0c180-aa6d-49e2-9c8b-018433f5b42d","system_id":"levelo_inurba_marseille","lat":43.25579,"lon":5.38206,"is_reserved":false,"is_disabled":false,"rental_uris":{"android":"levelo://app?vid=c6e0c180-aa6d-49e2-9c8b-018433f5b42d","ios":"levelo://app?vid=c6e0c180-aa6d-49e2-9c8b-018433f5b42d"},"vehicle_type_id":"4","last_reported":1748581828,"current_range_meters":7200,"station_id":"ce4bhih2rcd13ifvqfs0","pricing_plan_id":"cebpf4jnsgd1na2vs0mg"},{"bike_id":"956b6fae-56c8-4855-84db-9daa41ff5836","system_id":"levelo_inurba_marseille","lat":43.24545,"lon":5.39547,"is_reserved":false,"is_disabled":false,"rental_uris":{"android":"levelo://app?vid=956b6fae-56c8-4855-84db-9daa41ff5836","ios":"levelo://app?vid=956b6fae-56c8-4855-84db-9daa41ff5836"},"vehicle_type_id":"4","last_reported":1748581828,"current_range_meters":8000,"station_id":"ce4bhlp2rcd13ifvqgjg","pricing_plan_id":"cebpf4jnsgd1na2vs0mg"},{"bike_id":"bd3a474e-6db6-481d-adfd-f1df8f0e3a08","system_id":"levelo_inurba_marseille","lat":43.28422,"lon":5.37516,"is_reserved":false,"is_disabled":false,"rental_uris":{"android":"levelo://app?vid=bd3a474e-6db6-481d-adfd-f1df8f0e3a08","ios":"levelo://app?vid=bd3a474e-6db6-481d-adfd-f1df8f0e3a08"},"vehicle_type_id":"4","last_reported":1748581828,"current_range_meters":8000,"station_id":"ce4bh412rcd13ifvqds0","pricing_plan_id":"cebpf4jnsgd1na2vs0mg"},{"bike_id":"7f6b38d0-dcd2-4848-86a0-7b44e451f43f","system_id":"levelo_inurba_marseille","lat":43.277,"lon":5.41545,"is_reserved":false,"is_disabled":false,"rental_uris":{"android":"levelo://app?vid=7f6b38d0-dcd2-4848-86a0-7b44e451f43f","ios":"levelo://app?vid=7f6b38d0-dcd2-4848-86a0-7b44e451f43f"},"vehicle_type_id":"4","last_reported":1748581828,"current_range_meters":8000,"station_id":"","pricing_plan_id":"cebpf4jnsgd1na2vs0mg"},{"bike_id":"c20cde3d-efa4-4792-85cb-bcd9537bb570","system_id":"levelo_inurba_marseille","lat":43.2416,"lon":5.36402,"is_reserved":false,"is_disabled":true,"rental_uris":{"android":"levelo://app?vid=c20cde3d-efa4-4792-85cb-bcd9537bb570","ios":"levelo://app?vid=c20cde3d-efa4-4792-85cb-bcd9537bb570"},"vehicle_type_id":"4","last_reported":1748581828,"current_range_meters":8000,"station_id":"cpo36qri1sfpv3e86is0","pricing_plan_id":"cebpf4jnsgd1na2vs0mg"},{"bike_id":"ea32e7bb-bf59-4ecc-be1d-c146a2c5096c","system_id":"levelo_inurba_marseille","lat":43.29704,"lon":5.37284,"is_reserved":false,"is_disabled":false,"rental_uris":{"android":"levelo://app?vid=ea32e7bb-bf59-4ecc-be1d-c146a2c5096c","ios":"levelo://app?vid=ea32e7bb-bf59-4ecc-be1d-c146a2c5096c"},"vehicle_type_id":"4","last_reported":1748581828,"current_range_meters":8000,"station_id":"ce4bgk12rcd13ifvqbj0","pricing_plan_id":"cebpf4jnsgd1na2vs0mg"},{"bike_id":"d3f92fd6-293c-4ace-9e82-475ffd1b302b","system_id":"levelo_inurba_marseille","lat":43.31319,"lon":5.39711,"is_reserved":false,"is_disabled":false,"rental_uris":{"android":"levelo://app?vid=d3f92fd6-293c-4ace-9e82-475ffd1b302b","ios":"levelo://app?vid=d3f92fd6-293c-4ace-9e82-475ffd1b302b"},"vehicle_type_id":"4","last_reported":1748581828,"current_range_meters":8000,"station_id":"ce4bgvp2rcd13ifvqcu0","pricing_plan_id":"cebpf4jnsgd1na2vs0mg"},{"bike_id":"efc83553-69ab-4f41-8bb9-e5e59a46559a","system_id":"levelo_inurba_marseille","lat":43.306579,"lon":5.400762,"is_reserved":false,"is_disabled":false,"rental_uris":{"android":"levelo://app?vid=efc83553-69ab-4f41-8bb9-e5e59a46559a","ios":"levelo://app?vid=efc83553-69ab-4f41-8bb9-e5e59a46559a"},"vehicle_type_id":"4","last_reported":1748581828,"current_range_meters":8400,"station_id":"ce4bh112rcd13ifvqda0","pricing_plan_id":"cebpf4jnsgd1na2vs0mg"},{"bike_id":"c97c7aff-a44a-433f-b1e1-c4cf53d64484","system_id":"levelo_inurba_marseille","lat":43.27913,"lon":5.3958,"is_reserved":false,"is_disabled":false,"rental_uris":{"android":"levelo://app?vid=c97c7aff-a44a-433f-b1e1-c4cf53d64484","ios":"levelo://app?vid=c97c7aff-a44a-433f-b1e1-c4cf53d64484"},"vehicle_type_id":"4","last_reported":1748581828,"current_range_meters":8400,"station_id":"ce4bhf92rcd13ifvqf40","pricing_plan_id":"cebpf4jnsgd1na2vs0mg"},{"bike_id":"cbf3cf05-175c-44e7-967c-393836dacce2","system_id":"levelo_inurba_marseille","lat":43.305924,"lon":5.393383,"is_reserved":false,"is_disabled":false,"rental_uris":{"android":"levelo://app?vid=cbf3cf05-175c-44e7-967c-393836dacce2","ios":"levelo://app?vid=cbf3cf05-175c-44e7-967c-393836dacce2"},"vehicle_type_id":"4","last_reported":1748581828,"current_range_meters":8400,"station_id":"ce4bh0p2rcd13ifvqd80","pricing_plan_id":"cebpf4jnsgd1na2vs0mg"},{"bike_id":"0336b387-5859-40b9-80a1-1178d2ad5626","system_id":"levelo_inurba_marseille","lat":43.28153,"lon":5.42646,"is_reserved":false,"is_disabled":false,"rental_uris":{"android":"levelo://app?vid=0336b387-5859-40b9-80a1-1178d2ad5626","ios":"levelo://app?vid=0336b387-5859-40b9-80a1-1178d2ad5626"},"vehicle_type_id":"4","last_reported":1748581828,"current_range_meters":8400,"station_id":"ce4bhnh2rcd13ifvqgug","pricing_plan_id":"cebpf4jnsgd1na2vs0mg"},{"bike_id":"299bc464-0062-40b9-b8fd-94e53cb49a69","system_id":"levelo_inurba_marseille","lat":43.310072,"lon":5.380132,"is_reserved":false,"is_disabled":true,"rental_uris":{"android":"levelo://app?vid=299bc464-0062-40b9-b8fd-94e53cb49a69","ios":"levelo://app?vid=299bc464-0062-40b9-b8fd-94e53cb49a69"},"vehicle_type_id":"4","last_reported":1748581828,"current_range_meters":8400,"station_id":"","pricing_plan_id":"cebpf4jnsgd1na2vs0mg"},{"bike_id":"4c73f73e-db39-4beb-89da-9a61e6e86079","system_id":"levelo_inurba_marseille","lat":43.29444,"lon":5.39752,"is_reserved":false,"is_disabled":false,"rental_uris":{"android":"levelo://app?vid=4c73f73e-db39-4beb-89da-9a61e6e86079","ios":"levelo://app?vid=4c73f73e-db39-4beb-89da-9a61e6e86079"},"vehicle_type_id":"4","last_reported":1748581828,"current_range_meters":8400,"station_id":"ce4bh3h2rcd13ifvqdo0","pricing_plan_id":"cebpf4jnsgd1na2vs0mg"},{"bike_id":"aae5f7c7-b30a-474f-bb09-cb9f5f8f5101","system_id":"levelo_inurba_marseille","lat":43.24159,"lon":5.36404,"is_reserved":false,"is_disabled":false,"rental_uris":{"android":"levelo://app?vid=aae5f7c7-b30a-474f-bb09-cb9f5f8f5101","ios":"levelo://app?vid=aae5f7c7-b30a-474f-bb09-cb9f5f8f5101"},"vehicle_type_id":"4","last_reported":1748581828,"current_range_meters":8400,"station_id":"cpo36qri1sfpv3e86is0","pricing_plan_id":"cebpf4jnsgd1na2vs0mg"},{"bike_id":"92a2ca16-c950-4b2d-ac5b-d565b7fc399a","system_id":"levelo_inurba_marseille","lat":43.280253,"lon":5.369449,"is_reserved":false,"is_disabled":false,"rental_uris":{"android":"levelo://app?vid=92a2ca16-c950-4b2d-ac5b-d565b7fc399a","ios":"levelo://app?vid=92a2ca16-c950-4b2d-ac5b-d565b7fc399a"},"vehicle_type_id":"4","last_reported":1748581828,"current_range_meters":8400,"station_id":"ce4bha12rcd13ifvqef0","pricing_plan_id":"cebpf4jnsgd1na2vs0mg"},{"bike_id":"846430f4-bfb2-40a1-aab8-7ecef8a02a2d","system_id":"levelo_inurba_marseille","lat":43.26234,"lon":5.40451,"is_reserved":false,"is_disabled":false,"rental_uris":{"android":"levelo://app?vid=846430f4-bfb2-40a1-aab8-7ecef8a02a2d","ios":"levelo://app?vid=846430f4-bfb2-40a1-aab8-7ecef8a02a2d"},"vehicle_type_id":"4","last_reported":1748581828,"current_range_meters":8400,"station_id":"ce4bhmh2rcd13ifvqgmg","pricing_plan_id":"cebpf4jnsgd1na2vs0mg"},{"bike_id":"0651e6a4-fc8e-46f5-9f60-21afecbc4679","system_id":"levelo_inurba_marseille","lat":43.30879,"lon":5.37189,"is_reserved":false,"is_disabled":false,"rental_uris":{"android":"levelo://app?vid=0651e6a4-fc8e-46f5-9f60-21afecbc4679","ios":"levelo://app?vid=0651e6a4-fc8e-46f5-9f60-21afecbc4679"},"vehicle_type_id":"4","last_reported":1748581828,"current_range_meters":8400,"station_id":"ce4bguh2rcd13ifvqckg","pricing_plan_id":"cebpf4jnsgd1na2vs0mg"},{"bike_id":"e4db319b-ca7e-453d-ab62-af9006a40cb3","system_id":"levelo_inurba_marseille","lat":43.28851,"lon":5.3932,"is_reserved":false,"is_disabled":false,"rental_uris":{"android":"levelo://app?vid=e4db319b-ca7e-453d-ab62-af9006a40cb3","ios":"levelo://app?vid=e4db319b-ca7e-453d-ab62-af9006a40cb3"},"vehicle_type_id":"4","last_reported":1748581828,"current_range_meters":8800,"station_id":"ce4bh2p2rcd13ifvqdi0","pricing_plan_id":"cebpf4jnsgd1na2vs0mg"},{"bike_id":"ff2a370e-e43f-446f-93ec-b31861797423","system_id":"levelo_inurba_marseille","lat":43.28207,"lon":5.390593,"is_reserved":false,"is_disabled":false,"rental_uris":{"android":"levelo://app?vid=ff2a370e-e43f-446f-93ec-b31861797423","ios":"levelo://app?vid=ff2a370e-e43f-446f-93ec-b31861797423"},"vehicle_type_id":"4","last_reported":1748581828,"current_range_meters":8800,"station_id":"","pricing_plan_id":"cebpf4jnsgd1na2vs0mg"},{"bike_id":"0e009545-9acc-491d-b143-22cbd0096db4","system_id":"levelo_inurba_marseille","lat":43.33838,"lon":5.39253,"is_reserved":false,"is_disabled":false,"rental_uris":{"android":"levelo://app?vid=0e009545-9acc-491d-b143-22cbd0096db4","ios":"levelo://app?vid=0e009545-9acc-491d-b143-22cbd0096db4"},"vehicle_type_id":"4","last_reported":1748581828,"current_range_meters":8800,"station_id":"","pricing_plan_id":"cebpf4jnsgd1na2vs0mg"},{"bike_id":"98ed824e-3a51-4080-b8ac-5a763a3f6886","system_id":"levelo_inurba_marseille","lat":43.309331,"lon":5.401468,"is_reserved":false,"is_disabled":false,"rental_uris":{"android":"levelo://app?vid=98ed824e-3a51-4080-b8ac-5a763a3f6886","ios":"levelo://app?vid=98ed824e-3a51-4080-b8ac-5a763a3f6886"},"vehicle_type_id":"4","last_reported":1748581828,"current_range_meters":8800,"station_id":"ce4bgvp2rcd13ifvqct0","pricing_plan_id":"cebpf4jnsgd1na2vs0mg"},{"bike_id":"42dca157-bdb0-4361-8022-7979135f94aa","system_id":"levelo_inurba_marseille","lat":43.285688,"lon":5.365517,"is_reserved":false,"is_disabled":false,"rental_uris":{"android":"levelo://app?vid=42dca157-bdb0-4361-8022-7979135f94aa","ios":"levelo://app?vid=42dca157-bdb0-4361-8022-7979135f94aa"},"vehicle_type_id":"4","last_reported":1748581828,"current_range_meters":8800,"station_id":"","pricing_plan_id":"cebpf4jnsgd1na2vs0mg"},{"bike_id":"55f18836-1cd2-4eed-be83-e31222022d99","system_id":"levelo_inurba_marseille","lat":43.2584,"lon":5.39442,"is_reserved":false,"is_disabled":false,"rental_uris":{"android":"levelo://app?vid=55f18836-1cd2-4eed-be83-e31222022d99","ios":"levelo://app?vid=55f18836-1cd2-4eed-be83-e31222022d99"},"vehicle_type_id":"4","last_reported":1748581828,"current_range_meters":8800,"station_id":"ce4bhip2rcd13ifvqft0","pricing_plan_id":"cebpf4jnsgd1na2vs0mg"},{"bike_id":"ed1a6081-75be-44b2-a209-668e8f50f0aa","system_id":"levelo_inurba_marseille","lat":43.3064,"lon":5.40072,"is_reserved":false,"is_disabled":false,"rental_uris":{"android":"levelo://app?vid=ed1a6081-75be-44b2-a209-668e8f50f0aa","ios":"levelo://app?vid=ed1a6081-75be-44b2-a209-668e8f50f0aa"},"vehicle_type_id":"4","last_reported":1748581828,"current_range_meters":8800,"station_id":"ce4bh112rcd13ifvqda0","pricing_plan_id":"cebpf4jnsgd1na2vs0mg"},{"bike_id":"339f38b0-f75b-4455-bd41-33673ac56d64","system_id":"levelo_inurba_marseille","lat":43.30991,"lon":5.41718,"is_reserved":false,"is_disabled":false,"rental_uris":{"android":"levelo://app?vid=339f38b0-f75b-4455-bd41-33673ac56d64","ios":"levelo://app?vid=339f38b0-f75b-4455-bd41-33673ac56d64"},"vehicle_type_id":"4","last_reported":1748581828,"current_range_meters":8800,"station_id":"","pricing_plan_id":"cebpf4jnsgd1na2vs0mg"},{"bike_id":"f8bc173a-daa9-4ce4-a9bf-8100197dee35","system_id":"levelo_inurba_marseille","lat":43.313258,"lon":5.396934,"is_reserved":false,"is_disabled":false,"rental_uris":{"android":"levelo://app?vid=f8bc173a-daa9-4ce4-a9bf-8100197dee35","ios":"levelo://app?vid=f8bc173a-daa9-4ce4-a9bf-8100197dee35"},"vehicle_type_id":"4","last_reported":1748581828,"current_range_meters":8800,"station_id":"ce4bgvp2rcd13ifvqcu0","pricing_plan_id":"cebpf4jnsgd1na2vs0mg"},{"bike_id":"3e45dc99-9c2d-40cf-8f0f-fbea93c024d7","system_id":"levelo_inurba_marseille","lat":43.30649,"lon":5.40071,"is_reserved":false,"is_disabled":false,"rental_uris":{"android":"levelo://app?vid=3e45dc99-9c2d-40cf-8f0f-fbea93c024d7","ios":"levelo://app?vid=3e45dc99-9c2d-40cf-8f0f-fbea93c024d7"},"vehicle_type_id":"4","last_reported":1748581828,"current_range_meters":8800,"station_id":"ce4bh112rcd13ifvqda0","pricing_plan_id":"cebpf4jnsgd1na2vs0mg"},{"bike_id":"5498b61f-7186-410c-8c5d-2501f46ccf33","system_id":"levelo_inurba_marseille","lat":43.31355,"lon":5.38499,"is_reserved":false,"is_disabled":false,"rental_uris":{"android":"levelo://app?vid=5498b61f-7186-410c-8c5d-2501f46ccf33","ios":"levelo://app?vid=5498b61f-7186-410c-8c5d-2501f46ccf33"},"vehicle_type_id":"4","last_reported":1748581828,"current_range_meters":8800,"station_id":"ce4bgt92rcd13ifvqcf0","pricing_plan_id":"cebpf4jnsgd1na2vs0mg"},{"bike_id":"5a519813-f6ec-4fcd-9be7-b7b6b9061df5","system_id":"levelo_inurba_marseille","lat":43.299385,"lon":5.365384,"is_reserved":false,"is_disabled":true,"rental_uris":{"android":"levelo://app?vid=5a519813-f6ec-4fcd-9be7-b7b6b9061df5","ios":"levelo://app?vid=5a519813-f6ec-4fcd-9be7-b7b6b9061df5"},"vehicle_type_id":"4","last_reported":1748581828,"current_range_meters":8800,"station_id":"ce4bgm92rcd13ifvqbr0","pricing_plan_id":"cebpf4jnsgd1na2vs0mg"},{"bike_id":"c0595c09-72f3-46b5-88be-5bad603ecb44","system_id":"levelo_inurba_marseille","lat":43.28855,"lon":5.39311,"is_reserved":false,"is_disabled":false,"rental_uris":{"android":"levelo://app?vid=c0595c09-72f3-46b5-88be-5bad603ecb44","ios":"levelo://app?vid=c0595c09-72f3-46b5-88be-5bad603ecb44"},"vehicle_type_id":"4","last_reported":1748581828,"current_range_meters":8800,"station_id":"ce4bh2p2rcd13ifvqdi0","pricing_plan_id":"cebpf4jnsgd1na2vs0mg"},{"bike_id":"279a10e7-e84b-43fd-983f-0a5dd993c8a0","system_id":"levelo_inurba_marseille","lat":43.281554,"lon":5.426619,"is_reserved":false,"is_disabled":false,"rental_uris":{"android":"levelo://app?vid=279a10e7-e84b-43fd-983f-0a5dd993c8a0","ios":"levelo://app?vid=279a10e7-e84b-43fd-983f-0a5dd993c8a0"},"vehicle_type_id":"4","last_reported":1748581828,"current_range_meters":8800,"station_id":"ce4bhnh2rcd13ifvqgug","pricing_plan_id":"cebpf4jnsgd1na2vs0mg"},{"bike_id":"08818466-c8d1-44f6-a5b1-b36755983432","system_id":"levelo_inurba_marseille","lat":43.32081,"lon":5.44083,"is_reserved":false,"is_disabled":false,"rental_uris":{"android":"levelo://app?vid=08818466-c8d1-44f6-a5b1-b36755983432","ios":"levelo://app?vid=08818466-c8d1-44f6-a5b1-b36755983432"},"vehicle_type_id":"4","last_reported":1748581828,"current_range_meters":8800,"station_id":"","pricing_plan_id":"cebpf4jnsgd1na2vs0mg"},{"bike_id":"84615e18-e2f0-47bb-b2d3-d90928f13ba0","system_id":"levelo_inurba_marseille","lat":43.30586,"lon":5.39362,"is_reserved":false,"is_disabled":false,"rental_uris":{"android":"levelo://app?vid=84615e18-e2f0-47bb-b2d3-d90928f13ba0","ios":"levelo://app?vid=84615e18-e2f0-47bb-b2d3-d90928f13ba0"},"vehicle_type_id":"4","last_reported":1748581828,"current_range_meters":8800,"station_id":"ce4bh0p2rcd13ifvqd80","pricing_plan_id":"cebpf4jnsgd1na2vs0mg"},{"bike_id":"e2201cbe-9b60-4fcf-8b8c-02dcf0931510","system_id":"levelo_inurba_marseille","lat":43.302516,"lon":5.400983,"is_reserved":false,"is_disabled":false,"rental_uris":{"android":"levelo://app?vid=e2201cbe-9b60-4fcf-8b8c-02dcf0931510","ios":"levelo://app?vid=e2201cbe-9b60-4fcf-8b8c-02dcf0931510"},"vehicle_type_id":"4","last_reported":1748581828,"current_range_meters":8800,"station_id":"ce4bgvh2rcd13ifvqcs0","pricing_plan_id":"cebpf4jnsgd1na2vs0mg"},{"bike_id":"6ad5c3ef-6839-4e1c-9425-30e460d8bcf4","system_id":"levelo_inurba_marseille","lat":43.311711,"lon":5.387096,"is_reserved":false,"is_disabled":false,"rental_uris":{"android":"levelo://app?vid=6ad5c3ef-6839-4e1c-9425-30e460d8bcf4","ios":"levelo://app?vid=6ad5c3ef-6839-4e1c-9425-30e460d8bcf4"},"vehicle_type_id":"4","last_reported":1748581828,"current_range_meters":9200,"station_id":"ce4bgv12rcd13ifvqcp0","pricing_plan_id":"cebpf4jnsgd1na2vs0mg"},{"bike_id":"42457cf4-066b-4e99-be8a-c611cdb501b2","system_id":"levelo_inurba_marseille","lat":43.23326,"lon":5.36156,"is_reserved":false,"is_disabled":false,"rental_uris":{"android":"levelo://app?vid=42457cf4-066b-4e99-be8a-c611cdb501b2","ios":"levelo://app?vid=42457cf4-066b-4e99-be8a-c611cdb501b2"},"vehicle_type_id":"4","last_reported":1748581828,"current_range_meters":9200,"station_id":"","pricing_plan_id":"cebpf4jnsgd1na2vs0mg"},{"bike_id":"7203405e-5726-470e-b6e7-416d2f1da43a","system_id":"levelo_inurba_marseille","lat":43.28423,"lon":5.37517,"is_reserved":false,"is_disabled":false,"rental_uris":{"android":"levelo://app?vid=7203405e-5726-470e-b6e7-416d2f1da43a","ios":"levelo://app?vid=7203405e-5726-470e-b6e7-416d2f1da43a"},"vehicle_type_id":"4","last_reported":1748581828,"current_range_meters":9200,"station_id":"ce4bh412rcd13ifvqds0","pricing_plan_id":"cebpf4jnsgd1na2vs0mg"},{"bike_id":"b0281835-9723-4509-ae81-eaa1f1eb11df","system_id":"levelo_inurba_marseille","lat":43.3089,"lon":5.39672,"is_reserved":false,"is_disabled":false,"rental_uris":{"android":"levelo://app?vid=b0281835-9723-4509-ae81-eaa1f1eb11df","ios":"levelo://app?vid=b0281835-9723-4509-ae81-eaa1f1eb11df"},"vehicle_type_id":"4","last_reported":1748581828,"current_range_meters":9200,"station_id":"ce4bh012rcd13ifvqcv0","pricing_plan_id":"cebpf4jnsgd1na2vs0mg"},{"bike_id":"b5339d27-0085-4d73-acbc-1f97803ffe8a","system_id":"levelo_inurba_marseille","lat":43.28706,"lon":5.39991,"is_reserved":false,"is_disabled":false,"rental_uris":{"android":"levelo://app?vid=b5339d27-0085-4d73-acbc-1f97803ffe8a","ios":"levelo://app?vid=b5339d27-0085-4d73-acbc-1f97803ffe8a"},"vehicle_type_id":"4","last_reported":1748581828,"current_range_meters":9200,"station_id":"ce4bho92rcd13ifvqh3g","pricing_plan_id":"cebpf4jnsgd1na2vs0mg"},{"bike_id":"27a21ca9-93ef-40e4-8c37-6a2ef37a9cad","system_id":"levelo_inurba_marseille","lat":43.28149,"lon":5.42663,"is_reserved":false,"is_disabled":false,"rental_uris":{"android":"levelo://app?vid=27a21ca9-93ef-40e4-8c37-6a2ef37a9cad","ios":"levelo://app?vid=27a21ca9-93ef-40e4-8c37-6a2ef37a9cad"},"vehicle_type_id":"4","last_reported":1748581828,"current_range_meters":9200,"station_id":"ce4bhnh2rcd13ifvqgug","pricing_plan_id":"cebpf4jnsgd1na2vs0mg"},{"bike_id":"c48b21be-a200-48c7-b6a5-2e7f96bd845a","system_id":"levelo_inurba_marseille","lat":43.29255,"lon":5.40898,"is_reserved":false,"is_disabled":false,"rental_uris":{"android":"levelo://app?vid=c48b21be-a200-48c7-b6a5-2e7f96bd845a","ios":"levelo://app?vid=c48b21be-a200-48c7-b6a5-2e7f96bd845a"},"vehicle_type_id":"4","last_reported":1748581828,"current_range_meters":9200,"station_id":"ce4bh192rcd13ifvqdc0","pricing_plan_id":"cebpf4jnsgd1na2vs0mg"},{"bike_id":"9645fd54-db8d-4cf3-9341-8f046247c936","system_id":"levelo_inurba_marseille","lat":43.26584,"lon":5.39029,"is_reserved":false,"is_disabled":false,"rental_uris":{"android":"levelo://app?vid=9645fd54-db8d-4cf3-9341-8f046247c936","ios":"levelo://app?vid=9645fd54-db8d-4cf3-9341-8f046247c936"},"vehicle_type_id":"4","last_reported":1748581828,"current_range_meters":9200,"station_id":"ce4bhe12rcd13ifvqf30","pricing_plan_id":"cebpf4jnsgd1na2vs0mg"},{"bike_id":"5ed9a349-2c75-4ed8-bb5e-4863bb47c81b","system_id":"levelo_inurba_marseille","lat":43.279645,"lon":5.387313,"is_reserved":false,"is_disabled":false,"rental_uris":{"android":"levelo://app?vid=5ed9a349-2c75-4ed8-bb5e-4863bb47c81b","ios":"levelo://app?vid=5ed9a349-2c75-4ed8-bb5e-4863bb47c81b"},"vehicle_type_id":"4","last_reported":1748581828,"current_range_meters":9200,"station_id":"ce4bhg12rcd13ifvqf80","pricing_plan_id":"cebpf4jnsgd1na2vs0mg"},{"bike_id":"fd5e4507-6c10-403b-acb1-87b9af7e800b","system_id":"levelo_inurba_marseille","lat":43.257161,"lon":5.411085,"is_reserved":false,"is_disabled":false,"rental_uris":{"android":"levelo://app?vid=fd5e4507-6c10-403b-acb1-87b9af7e800b","ios":"levelo://app?vid=fd5e4507-6c10-403b-acb1-87b9af7e800b"},"vehicle_type_id":"4","last_reported":1748581828,"current_range_meters":9600,"station_id":"ce4bhkp2rcd13ifvqgd0","pricing_plan_id":"cebpf4jnsgd1na2vs0mg"},{"bike_id":"a9677dbc-4873-44e1-a436-f6f19cf345d4","system_id":"levelo_inurba_marseille","lat":43.29252,"lon":5.4015,"is_reserved":false,"is_disabled":false,"rental_uris":{"android":"levelo://app?vid=a9677dbc-4873-44e1-a436-f6f19cf345d4","ios":"levelo://app?vid=a9677dbc-4873-44e1-a436-f6f19cf345d4"},"vehicle_type_id":"4","last_reported":1748581828,"current_range_meters":9600,"station_id":"ce4bh312rcd13ifvqdk0","pricing_plan_id":"cebpf4jnsgd1na2vs0mg"},{"bike_id":"438d1ea3-5c8f-4d35-9360-e6d605c5cfb2","system_id":"levelo_inurba_marseille","lat":43.24685,"lon":5.38191,"is_reserved":false,"is_disabled":false,"rental_uris":{"android":"levelo://app?vid=438d1ea3-5c8f-4d35-9360-e6d605c5cfb2","ios":"levelo://app?vid=438d1ea3-5c8f-4d35-9360-e6d605c5cfb2"},"vehicle_type_id":"4","last_reported":1748581828,"current_range_meters":9600,"station_id":"ce4bhih2rcd13ifvqfr0","pricing_plan_id":"cebpf4jnsgd1na2vs0mg"},{"bike_id":"00f77637-c960-45d0-b516-a2f6a0285858","system_id":"levelo_inurba_marseille","lat":43.29731,"lon":5.38543,"is_reserved":false,"is_disabled":false,"rental_uris":{"android":"levelo://app?vid=00f77637-c960-45d0-b516-a2f6a0285858","ios":"levelo://app?vid=00f77637-c960-45d0-b516-a2f6a0285858"},"vehicle_type_id":"4","last_reported":1748581828,"current_range_meters":9600,"station_id":"","pricing_plan_id":"cebpf4jnsgd1na2vs0mg"},{"bike_id":"64864384-5888-49d8-b447-ac40385fe3be","system_id":"levelo_inurba_marseille","lat":43.310799,"lon":5.424424,"is_reserved":false,"is_disabled":false,"rental_uris":{"android":"levelo://app?vid=64864384-5888-49d8-b447-ac40385fe3be","ios":"levelo://app?vid=64864384-5888-49d8-b447-ac40385fe3be"},"vehicle_type_id":"4","last_reported":1748581828,"current_range_meters":9600,"station_id":"ce4bhp92rcd13ifvqhag","pricing_plan_id":"cebpf4jnsgd1na2vs0mg"},{"bike_id":"2e1f9dd1-9cf3-4ecd-933e-eb0930ee47df","system_id":"levelo_inurba_marseille","lat":43.308896,"lon":5.396316,"is_reserved":false,"is_disabled":false,"rental_uris":{"android":"levelo://app?vid=2e1f9dd1-9cf3-4ecd-933e-eb0930ee47df","ios":"levelo://app?vid=2e1f9dd1-9cf3-4ecd-933e-eb0930ee47df"},"vehicle_type_id":"4","last_reported":1748581828,"current_range_meters":9600,"station_id":"ce4bh012rcd13ifvqcv0","pricing_plan_id":"cebpf4jnsgd1na2vs0mg"},{"bike_id":"b0f67d6d-3250-42ef-8f19-4e74e6760f9a","system_id":"levelo_inurba_marseille","lat":43.34396,"lon":5.38146,"is_reserved":false,"is_disabled":false,"rental_uris":{"android":"levelo://app?vid=b0f67d6d-3250-42ef-8f19-4e74e6760f9a","ios":"levelo://app?vid=b0f67d6d-3250-42ef-8f19-4e74e6760f9a"},"vehicle_type_id":"4","last_reported":1748581828,"current_range_meters":9600,"station_id":"","pricing_plan_id":"cebpf4jnsgd1na2vs0mg"},{"bike_id":"42df4447-2a76-4506-87ae-8a7472a1c3a9","system_id":"levelo_inurba_marseille","lat":43.30311,"lon":5.36893,"is_reserved":false,"is_disabled":false,"rental_uris":{"android":"levelo://app?vid=42df4447-2a76-4506-87ae-8a7472a1c3a9","ios":"levelo://app?vid=42df4447-2a76-4506-87ae-8a7472a1c3a9"},"vehicle_type_id":"4","last_reported":1748581828,"current_range_meters":9600,"station_id":"ce4bgqh2rcd13ifvqc5g","pricing_plan_id":"cebpf4jnsgd1na2vs0mg"},{"bike_id":"d2efc7ef-e8cf-48f9-9e09-ac995bd4b4ef","system_id":"levelo_inurba_marseille","lat":43.2848,"lon":5.3844,"is_reserved":false,"is_disabled":false,"rental_uris":{"android":"levelo://app?vid=d2efc7ef-e8cf-48f9-9e09-ac995bd4b4ef","ios":"levelo://app?vid=d2efc7ef-e8cf-48f9-9e09-ac995bd4b4ef"},"vehicle_type_id":"4","last_reported":1748581828,"current_range_meters":9600,"station_id":"ce4bh512rcd13ifvqe3g","pricing_plan_id":"cebpf4jnsgd1na2vs0mg"},{"bike_id":"686ed4f1-6951-4fef-8cd5-5f765f30a155","system_id":"levelo_inurba_marseille","lat":43.279594,"lon":5.386999,"is_reserved":false,"is_disabled":false,"rental_uris":{"android":"levelo://app?vid=686ed4f1-6951-4fef-8cd5-5f765f30a155","ios":"levelo://app?vid=686ed4f1-6951-4fef-8cd5-5f765f30a155"},"vehicle_type_id":"4","last_reported":1748581828,"current_range_meters":9600,"station_id":"ce4bhg12rcd13ifvqf80","pricing_plan_id":"cebpf4jnsgd1na2vs0mg"},{"bike_id":"572f964a-6e64-4c5e-b089-ce909a800028","system_id":"levelo_inurba_marseille","lat":43.2931,"lon":5.40128,"is_reserved":false,"is_disabled":false,"rental_uris":{"android":"levelo://app?vid=572f964a-6e64-4c5e-b089-ce909a800028","ios":"levelo://app?vid=572f964a-6e64-4c5e-b089-ce909a800028"},"vehicle_type_id":"4","last_reported":1748581828,"current_range_meters":9600,"station_id":"ce4bh312rcd13ifvqdk0","pricing_plan_id":"cebpf4jnsgd1na2vs0mg"},{"bike_id":"8f77d28f-93fa-4e8f-9e42-7200f9b84966","system_id":"levelo_inurba_marseille","lat":43.30638,"lon":5.40086,"is_reserved":false,"is_disabled":false,"rental_uris":{"android":"levelo://app?vid=8f77d28f-93fa-4e8f-9e42-7200f9b84966","ios":"levelo://app?vid=8f77d28f-93fa-4e8f-9e42-7200f9b84966"},"vehicle_type_id":"4","last_reported":1748581828,"current_range_meters":9600,"station_id":"ce4bh112rcd13ifvqda0","pricing_plan_id":"cebpf4jnsgd1na2vs0mg"},{"bike_id":"a426f99b-d34a-41bf-bbda-59f7dfd6939b","system_id":"levelo_inurba_marseille","lat":43.255796,"lon":5.382262,"is_reserved":false,"is_disabled":false,"rental_uris":{"android":"levelo://app?vid=a426f99b-d34a-41bf-bbda-59f7dfd6939b","ios":"levelo://app?vid=a426f99b-d34a-41bf-bbda-59f7dfd6939b"},"vehicle_type_id":"4","last_reported":1748581828,"current_range_meters":10000,"station_id":"ce501612rcd8frsf0b60","pricing_plan_id":"cebpf4jnsgd1na2vs0mg"},{"bike_id":"f6190368-8750-48db-9e10-c28fb6c35384","system_id":"levelo_inurba_marseille","lat":43.30818,"lon":5.38161,"is_reserved":false,"is_disabled":false,"rental_uris":{"android":"levelo://app?vid=f6190368-8750-48db-9e10-c28fb6c35384","ios":"levelo://app?vid=f6190368-8750-48db-9e10-c28fb6c35384"},"vehicle_type_id":"4","last_reported":1748581828,"current_range_meters":10000,"station_id":"ce4bgt12rcd13ifvqce0","pricing_plan_id":"cebpf4jnsgd1na2vs0mg"},{"bike_id":"73347e41-dc3a-4a81-a49d-8afd60abbf88","system_id":"levelo_inurba_marseille","lat":43.25104,"lon":5.40297,"is_reserved":false,"is_disabled":false,"rental_uris":{"android":"levelo://app?vid=73347e41-dc3a-4a81-a49d-8afd60abbf88","ios":"levelo://app?vid=73347e41-dc3a-4a81-a49d-8afd60abbf88"},"vehicle_type_id":"4","last_reported":1748581828,"current_range_meters":10000,"station_id":"ce4bhlh2rcd13ifvqgig","pricing_plan_id":"cebpf4jnsgd1na2vs0mg"},{"bike_id":"f8ec9d78-7e62-4248-a76e-af09b5d3a770","system_id":"levelo_inurba_marseille","lat":43.29246,"lon":5.40916,"is_reserved":false,"is_disabled":false,"rental_uris":{"android":"levelo://app?vid=f8ec9d78-7e62-4248-a76e-af09b5d3a770","ios":"levelo://app?vid=f8ec9d78-7e62-4248-a76e-af09b5d3a770"},"vehicle_type_id":"4","last_reported":1748581828,"current_range_meters":10000,"station_id":"ce4bh192rcd13ifvqdc0","pricing_plan_id":"cebpf4jnsgd1na2vs0mg"},{"bike_id":"9106b7cd-70ae-456d-906e-062a4ff9165b","system_id":"levelo_inurba_marseille","lat":43.330191,"lon":5.394524,"is_reserved":false,"is_disabled":false,"rental_uris":{"android":"levelo://app?vid=9106b7cd-70ae-456d-906e-062a4ff9165b","ios":"levelo://app?vid=9106b7cd-70ae-456d-906e-062a4ff9165b"},"vehicle_type_id":"4","last_reported":1748581828,"current_range_meters":10000,"station_id":"","pricing_plan_id":"cebpf4jnsgd1na2vs0mg"},{"bike_id":"cd438c88-7f17-4c01-b238-d05b58df7798","system_id":"levelo_inurba_marseille","lat":43.28004,"lon":5.38763,"is_reserved":false,"is_disabled":false,"rental_uris":{"android":"levelo://app?vid=cd438c88-7f17-4c01-b238-d05b58df7798","ios":"levelo://app?vid=cd438c88-7f17-4c01-b238-d05b58df7798"},"vehicle_type_id":"4","last_reported":1748581828,"current_range_meters":10000,"station_id":"ce4bhg12rcd13ifvqf80","pricing_plan_id":"cebpf4jnsgd1na2vs0mg"},{"bike_id":"f8d26ebd-9168-41c8-9f49-36e1a1965f63","system_id":"levelo_inurba_marseille","lat":43.29873,"lon":5.43665,"is_reserved":false,"is_disabled":false,"rental_uris":{"android":"levelo://app?vid=f8d26ebd-9168-41c8-9f49-36e1a1965f63","ios":"levelo://app?vid=f8d26ebd-9168-41c8-9f49-36e1a1965f63"},"vehicle_type_id":"4","last_reported":1748581828,"current_range_meters":10000,"station_id":"ce4bhpp2rcd13ifvqhfg","pricing_plan_id":"cebpf4jnsgd1na2vs0mg"},{"bike_id":"c3708d46-6d3f-473e-a7dd-aaed7b1ccfcb","system_id":"levelo_inurba_marseille","lat":43.281005,"lon":5.378441,"is_reserved":false,"is_disabled":false,"rental_uris":{"android":"levelo://app?vid=c3708d46-6d3f-473e-a7dd-aaed7b1ccfcb","ios":"levelo://app?vid=c3708d46-6d3f-473e-a7dd-aaed7b1ccfcb"},"vehicle_type_id":"4","last_reported":1748581828,"current_range_meters":10000,"station_id":"ce4bha12rcd13ifvqee0","pricing_plan_id":"cebpf4jnsgd1na2vs0mg"},{"bike_id":"9656913e-5d0a-47f7-b654-a4bd8d02350a","system_id":"levelo_inurba_marseille","lat":43.29296,"lon":5.40165,"is_reserved":false,"is_disabled":false,"rental_uris":{"android":"levelo://app?vid=9656913e-5d0a-47f7-b654-a4bd8d02350a","ios":"levelo://app?vid=9656913e-5d0a-47f7-b654-a4bd8d02350a"},"vehicle_type_id":"4","last_reported":1748581828,"current_range_meters":10000,"station_id":"ce4bh312rcd13ifvqdk0","pricing_plan_id":"cebpf4jnsgd1na2vs0mg"},{"bike_id":"3aca9d89-7c6e-4143-a32d-6ac070d7f9ea","system_id":"levelo_inurba_marseille","lat":43.30252,"lon":5.40066,"is_reserved":false,"is_disabled":false,"rental_uris":{"android":"levelo://app?vid=3aca9d89-7c6e-4143-a32d-6ac070d7f9ea","ios":"levelo://app?vid=3aca9d89-7c6e-4143-a32d-6ac070d7f9ea"},"vehicle_type_id":"4","last_reported":1748581828,"current_range_meters":10000,"station_id":"ce4bgvh2rcd13ifvqcs0","pricing_plan_id":"cebpf4jnsgd1na2vs0mg"},{"bike_id":"c666405f-462c-40b6-aad2-05c3e84c9054","system_id":"levelo_inurba_marseille","lat":43.241694,"lon":5.364091,"is_reserved":false,"is_disabled":false,"rental_uris":{"android":"levelo://app?vid=c666405f-462c-40b6-aad2-05c3e84c9054","ios":"levelo://app?vid=c666405f-462c-40b6-aad2-05c3e84c9054"},"vehicle_type_id":"4","last_reported":1748581828,"current_range_meters":10000,"station_id":"cpo36qri1sfpv3e86is0","pricing_plan_id":"cebpf4jnsgd1na2vs0mg"},{"bike_id":"92f680ec-a41c-453b-b4c9-7372c97b1017","system_id":"levelo_inurba_marseille","lat":43.310813,"lon":5.42434,"is_reserved":false,"is_disabled":false,"rental_uris":{"android":"levelo://app?vid=92f680ec-a41c-453b-b4c9-7372c97b1017","ios":"levelo://app?vid=92f680ec-a41c-453b-b4c9-7372c97b1017"},"vehicle_type_id":"4","last_reported":1748581828,"current_range_meters":10800,"station_id":"ce4bhp92rcd13ifvqhag","pricing_plan_id":"cebpf4jnsgd1na2vs0mg"},{"bike_id":"dddeb80d-3057-46be-833d-4a0c2415e343","system_id":"levelo_inurba_marseille","lat":43.319966,"lon":5.381428,"is_reserved":false,"is_disabled":false,"rental_uris":{"android":"levelo://app?vid=dddeb80d-3057-46be-833d-4a0c2415e343","ios":"levelo://app?vid=dddeb80d-3057-46be-833d-4a0c2415e343"},"vehicle_type_id":"4","last_reported":1748581828,"current_range_meters":10800,"station_id":"ce4bhr12rcd13ifvqhpg","pricing_plan_id":"cebpf4jnsgd1na2vs0mg"},{"bike_id":"9a2b612c-527d-44fe-b45e-6d3c52d64fdc","system_id":"levelo_inurba_marseille","lat":43.283447,"lon":5.381073,"is_reserved":false,"is_disabled":false,"rental_uris":{"android":"levelo://app?vid=9a2b612c-527d-44fe-b45e-6d3c52d64fdc","ios":"levelo://app?vid=9a2b612c-527d-44fe-b45e-6d3c52d64fdc"},"vehicle_type_id":"4","last_reported":1748581828,"current_range_meters":10800,"station_id":"ce4bh412rcd13ifvqdr0","pricing_plan_id":"cebpf4jnsgd1na2vs0mg"},{"bike_id":"a0733277-9572-4c49-b86b-a255c71a8787","system_id":"levelo_inurba_marseille","lat":43.272103,"lon":5.409723,"is_reserved":false,"is_disabled":false,"rental_uris":{"android":"levelo://app?vid=a0733277-9572-4c49-b86b-a255c71a8787","ios":"levelo://app?vid=a0733277-9572-4c49-b86b-a255c71a8787"},"vehicle_type_id":"4","last_reported":1748581828,"current_range_meters":10800,"station_id":"ce4bhl12rcd13ifvqgf0","pricing_plan_id":"cebpf4jnsgd1na2vs0mg"},{"bike_id":"f5733814-9732-4748-bcc9-3b2fac8e1564","system_id":"levelo_inurba_marseille","lat":43.31256,"lon":5.37829,"is_reserved":false,"is_disabled":false,"rental_uris":{"android":"levelo://app?vid=f5733814-9732-4748-bcc9-3b2fac8e1564","ios":"levelo://app?vid=f5733814-9732-4748-bcc9-3b2fac8e1564"},"vehicle_type_id":"4","last_reported":1748581828,"current_range_meters":10800,"station_id":"","pricing_plan_id":"cebpf4jnsgd1na2vs0mg"},{"bike_id":"5c8310d7-7597-468d-8258-9640cba23bf9","system_id":"levelo_inurba_marseille","lat":43.28479,"lon":5.384376,"is_reserved":false,"is_disabled":true,"rental_uris":{"android":"levelo://app?vid=5c8310d7-7597-468d-8258-9640cba23bf9","ios":"levelo://app?vid=5c8310d7-7597-468d-8258-9640cba23bf9"},"vehicle_type_id":"4","last_reported":1748581828,"current_range_meters":10800,"station_id":"ce4bh512rcd13ifvqe3g","pricing_plan_id":"cebpf4jnsgd1na2vs0mg"},{"bike_id":"1be21534-ca7b-4f38-8bff-a7515afc85f6","system_id":"levelo_inurba_marseille","lat":43.24795,"lon":5.37464,"is_reserved":false,"is_disabled":false,"rental_uris":{"android":"levelo://app?vid=1be21534-ca7b-4f38-8bff-a7515afc85f6","ios":"levelo://app?vid=1be21534-ca7b-4f38-8bff-a7515afc85f6"},"vehicle_type_id":"4","last_reported":1748581828,"current_range_meters":10800,"station_id":"ce4bhgh2rcd13ifvqfb0","pricing_plan_id":"cebpf4jnsgd1na2vs0mg"},{"bike_id":"81dedcf5-3b05-43e1-add4-e5585c2ab925","system_id":"levelo_inurba_marseille","lat":43.248032,"lon":5.37467,"is_reserved":false,"is_disabled":true,"rental_uris":{"android":"levelo://app?vid=81dedcf5-3b05-43e1-add4-e5585c2ab925","ios":"levelo://app?vid=81dedcf5-3b05-43e1-add4-e5585c2ab925"},"vehicle_type_id":"4","last_reported":1748581828,"current_range_meters":10800,"station_id":"ce4bhgh2rcd13ifvqfb0","pricing_plan_id":"cebpf4jnsgd1na2vs0mg"},{"bike_id":"cc36bf8e-c4fd-4edb-8e2f-f3e1fdb01728","system_id":"levelo_inurba_marseille","lat":43.31178,"lon":5.40782,"is_reserved":false,"is_disabled":false,"rental_uris":{"android":"levelo://app?vid=cc36bf8e-c4fd-4edb-8e2f-f3e1fdb01728","ios":"levelo://app?vid=cc36bf8e-c4fd-4edb-8e2f-f3e1fdb01728"},"vehicle_type_id":"4","last_reported":1748581828,"current_range_meters":11200,"station_id":"","pricing_plan_id":"cebpf4jnsgd1na2vs0mg"},{"bike_id":"72248e32-616d-4c01-8c01-acbec0f57485","system_id":"levelo_inurba_marseille","lat":43.310819,"lon":5.424354,"is_reserved":false,"is_disabled":false,"rental_uris":{"android":"levelo://app?vid=72248e32-616d-4c01-8c01-acbec0f57485","ios":"levelo://app?vid=72248e32-616d-4c01-8c01-acbec0f57485"},"vehicle_type_id":"4","last_reported":1748581828,"current_range_meters":11200,"station_id":"ce4bhp92rcd13ifvqhag","pricing_plan_id":"cebpf4jnsgd1na2vs0mg"},{"bike_id":"0dc000bd-368c-4c59-a0e5-9ddd5a5b10f3","system_id":"levelo_inurba_marseille","lat":43.323366,"lon":5.406055,"is_reserved":false,"is_disabled":true,"rental_uris":{"android":"levelo://app?vid=0dc000bd-368c-4c59-a0e5-9ddd5a5b10f3","ios":"levelo://app?vid=0dc000bd-368c-4c59-a0e5-9ddd5a5b10f3"},"vehicle_type_id":"4","last_reported":1748581828,"current_range_meters":11200,"station_id":"ce4bhq92rcd13ifvqhjg","pricing_plan_id":"cebpf4jnsgd1na2vs0mg"},{"bike_id":"25f58006-0670-4b9b-9a5d-81321b2ee4c3","system_id":"levelo_inurba_marseille","lat":43.28699,"lon":5.39982,"is_reserved":false,"is_disabled":false,"rental_uris":{"android":"levelo://app?vid=25f58006-0670-4b9b-9a5d-81321b2ee4c3","ios":"levelo://app?vid=25f58006-0670-4b9b-9a5d-81321b2ee4c3"},"vehicle_type_id":"4","last_reported":1748581828,"current_range_meters":11200,"station_id":"ce4bho92rcd13ifvqh3g","pricing_plan_id":"cebpf4jnsgd1na2vs0mg"},{"bike_id":"e044c9db-ce02-4ecf-bf86-8eaa46f9c414","system_id":"levelo_inurba_marseille","lat":43.25708,"lon":5.39158,"is_reserved":false,"is_disabled":false,"rental_uris":{"android":"levelo://app?vid=e044c9db-ce02-4ecf-bf86-8eaa46f9c414","ios":"levelo://app?vid=e044c9db-ce02-4ecf-bf86-8eaa46f9c414"},"vehicle_type_id":"4","last_reported":1748581828,"current_range_meters":11200,"station_id":"","pricing_plan_id":"cebpf4jnsgd1na2vs0mg"},{"bike_id":"a4b76fe5-7bf0-4f86-b675-67301c06e06d","system_id":"levelo_inurba_marseille","lat":43.249987,"lon":5.389273,"is_reserved":false,"is_disabled":false,"rental_uris":{"android":"levelo://app?vid=a4b76fe5-7bf0-4f86-b675-67301c06e06d","ios":"levelo://app?vid=a4b76fe5-7bf0-4f86-b675-67301c06e06d"},"vehicle_type_id":"4","last_reported":1748581828,"current_range_meters":11200,"station_id":"ce4bhgp2rcd13ifvqfd0","pricing_plan_id":"cebpf4jnsgd1na2vs0mg"},{"bike_id":"ccc732c7-811b-474b-ac0d-78eb7f3eba2f","system_id":"levelo_inurba_marseille","lat":43.29623,"lon":5.37135,"is_reserved":false,"is_disabled":false,"rental_uris":{"android":"levelo://app?vid=ccc732c7-811b-474b-ac0d-78eb7f3eba2f","ios":"levelo://app?vid=ccc732c7-811b-474b-ac0d-78eb7f3eba2f"},"vehicle_type_id":"4","last_reported":1748581828,"current_range_meters":11200,"station_id":"ce4bgnh2rcd13ifvqc0g","pricing_plan_id":"cebpf4jnsgd1na2vs0mg"},{"bike_id":"b1070e7a-8a40-475b-91ea-d34046de595b","system_id":"levelo_inurba_marseille","lat":43.27966,"lon":5.38763,"is_reserved":false,"is_disabled":false,"rental_uris":{"android":"levelo://app?vid=b1070e7a-8a40-475b-91ea-d34046de595b","ios":"levelo://app?vid=b1070e7a-8a40-475b-91ea-d34046de595b"},"vehicle_type_id":"4","last_reported":1748581828,"current_range_meters":11200,"station_id":"ce4bhg12rcd13ifvqf80","pricing_plan_id":"cebpf4jnsgd1na2vs0mg"},{"bike_id":"e9cda520-c6f4-465d-ad7f-8c059b3dc45a","system_id":"levelo_inurba_marseille","lat":43.313967,"lon":5.383993,"is_reserved":false,"is_disabled":false,"rental_uris":{"android":"levelo://app?vid=e9cda520-c6f4-465d-ad7f-8c059b3dc45a","ios":"levelo://app?vid=e9cda520-c6f4-465d-ad7f-8c059b3dc45a"},"vehicle_type_id":"4","last_reported":1748581828,"current_range_meters":11200,"station_id":"","pricing_plan_id":"cebpf4jnsgd1na2vs0mg"},{"bike_id":"d7f1c75d-958d-4305-a2f7-b70acbe0c642","system_id":"levelo_inurba_marseille","lat":43.30925,"lon":5.40159,"is_reserved":false,"is_disabled":false,"rental_uris":{"android":"levelo://app?vid=d7f1c75d-958d-4305-a2f7-b70acbe0c642","ios":"levelo://app?vid=d7f1c75d-958d-4305-a2f7-b70acbe0c642"},"vehicle_type_id":"4","last_reported":1748581828,"current_range_meters":11200,"station_id":"ce4bgvp2rcd13ifvqct0","pricing_plan_id":"cebpf4jnsgd1na2vs0mg"},{"bike_id":"3ce395fd-7389-4f2f-9662-733b290a489c","system_id":"levelo_inurba_marseille","lat":43.30366,"lon":5.42491,"is_reserved":false,"is_disabled":true,"rental_uris":{"android":"levelo://app?vid=3ce395fd-7389-4f2f-9662-733b290a489c","ios":"levelo://app?vid=3ce395fd-7389-4f2f-9662-733b290a489c"},"vehicle_type_id":"4","last_reported":1748581828,"current_range_meters":11200,"station_id":"ce4bhoh2rcd13ifvqh6g","pricing_plan_id":"cebpf4jnsgd1na2vs0mg"},{"bike_id":"f33ccc5f-3a44-40ad-8216-30018004066d","system_id":"levelo_inurba_marseille","lat":43.3079,"lon":5.37655,"is_reserved":false,"is_disabled":false,"rental_uris":{"android":"levelo://app?vid=f33ccc5f-3a44-40ad-8216-30018004066d","ios":"levelo://app?vid=f33ccc5f-3a44-40ad-8216-30018004066d"},"vehicle_type_id":"4","last_reported":1748581828,"current_range_meters":11200,"station_id":"ce4bgv92rcd13ifvqcq0","pricing_plan_id":"cebpf4jnsgd1na2vs0mg"},{"bike_id":"6530242f-b0b0-4481-a762-bfc24a4d29eb","system_id":"levelo_inurba_marseille","lat":43.2467,"lon":5.38163,"is_reserved":false,"is_disabled":false,"rental_uris":{"android":"levelo://app?vid=6530242f-b0b0-4481-a762-bfc24a4d29eb","ios":"levelo://app?vid=6530242f-b0b0-4481-a762-bfc24a4d29eb"},"vehicle_type_id":"4","last_reported":1748581828,"current_range_meters":11600,"station_id":"ce4bhih2rcd13ifvqfr0","pricing_plan_id":"cebpf4jnsgd1na2vs0mg"},{"bike_id":"bc814b90-a2ac-4742-9a61-3655db91e805","system_id":"levelo_inurba_marseille","lat":43.292521,"lon":5.409034,"is_reserved":false,"is_disabled":false,"rental_uris":{"android":"levelo://app?vid=bc814b90-a2ac-4742-9a61-3655db91e805","ios":"levelo://app?vid=bc814b90-a2ac-4742-9a61-3655db91e805"},"vehicle_type_id":"4","last_reported":1748581828,"current_range_meters":11600,"station_id":"ce4bh192rcd13ifvqdc0","pricing_plan_id":"cebpf4jnsgd1na2vs0mg"},{"bike_id":"c6db7724-9a49-416b-8d08-0ca0825c616e","system_id":"levelo_inurba_marseille","lat":43.30931,"lon":5.40148,"is_reserved":false,"is_disabled":false,"rental_uris":{"android":"levelo://app?vid=c6db7724-9a49-416b-8d08-0ca0825c616e","ios":"levelo://app?vid=c6db7724-9a49-416b-8d08-0ca0825c616e"},"vehicle_type_id":"4","last_reported":1748581828,"current_range_meters":11600,"station_id":"ce4bgvp2rcd13ifvqct0","pricing_plan_id":"cebpf4jnsgd1na2vs0mg"},{"bike_id":"2a43368a-2db6-4afc-9126-3948147d9953","system_id":"levelo_inurba_marseille","lat":43.24069,"lon":5.37733,"is_reserved":false,"is_disabled":false,"rental_uris":{"android":"levelo://app?vid=2a43368a-2db6-4afc-9126-3948147d9953","ios":"levelo://app?vid=2a43368a-2db6-4afc-9126-3948147d9953"},"vehicle_type_id":"4","last_reported":1748581828,"current_range_meters":11600,"station_id":"ce4bhnp2rcd13ifvqgvg","pricing_plan_id":"cebpf4jnsgd1na2vs0mg"},{"bike_id":"e586cd86-8a84-464b-8fd5-c53eaf4494a1","system_id":"levelo_inurba_marseille","lat":43.30609,"lon":5.39297,"is_reserved":false,"is_disabled":false,"rental_uris":{"android":"levelo://app?vid=e586cd86-8a84-464b-8fd5-c53eaf4494a1","ios":"levelo://app?vid=e586cd86-8a84-464b-8fd5-c53eaf4494a1"},"vehicle_type_id":"4","last_reported":1748581828,"current_range_meters":11600,"station_id":"","pricing_plan_id":"cebpf4jnsgd1na2vs0mg"},{"bike_id":"0d021fa5-f24c-4d64-a714-3c7445f5e8d8","system_id":"levelo_inurba_marseille","lat":43.28348,"lon":5.38097,"is_reserved":false,"is_disabled":false,"rental_uris":{"android":"levelo://app?vid=0d021fa5-f24c-4d64-a714-3c7445f5e8d8","ios":"levelo://app?vid=0d021fa5-f24c-4d64-a714-3c7445f5e8d8"},"vehicle_type_id":"4","last_reported":1748581828,"current_range_meters":11600,"station_id":"ce4bh412rcd13ifvqdr0","pricing_plan_id":"cebpf4jnsgd1na2vs0mg"},{"bike_id":"01e35211-7a7d-498f-9b85-349277cc4988","system_id":"levelo_inurba_marseille","lat":43.2927,"lon":5.4092,"is_reserved":false,"is_disabled":false,"rental_uris":{"android":"levelo://app?vid=01e35211-7a7d-498f-9b85-349277cc4988","ios":"levelo://app?vid=01e35211-7a7d-498f-9b85-349277cc4988"},"vehicle_type_id":"4","last_reported":1748581828,"current_range_meters":11600,"station_id":"ce4bh192rcd13ifvqdc0","pricing_plan_id":"cebpf4jnsgd1na2vs0mg"},{"bike_id":"d3808c41-42ed-47ca-8ccc-30122ac22887","system_id":"levelo_inurba_marseille","lat":43.28326,"lon":5.38116,"is_reserved":false,"is_disabled":false,"rental_uris":{"android":"levelo://app?vid=d3808c41-42ed-47ca-8ccc-30122ac22887","ios":"levelo://app?vid=d3808c41-42ed-47ca-8ccc-30122ac22887"},"vehicle_type_id":"4","last_reported":1748581828,"current_range_meters":11600,"station_id":"ce4bh412rcd13ifvqdr0","pricing_plan_id":"cebpf4jnsgd1na2vs0mg"},{"bike_id":"3dd1b342-5d0a-4155-9da3-0dd9cd16e16e","system_id":"levelo_inurba_marseille","lat":43.22944,"lon":5.35443,"is_reserved":false,"is_disabled":true,"rental_uris":{"android":"levelo://app?vid=3dd1b342-5d0a-4155-9da3-0dd9cd16e16e","ios":"levelo://app?vid=3dd1b342-5d0a-4155-9da3-0dd9cd16e16e"},"vehicle_type_id":"4","last_reported":1748581828,"current_range_meters":12000,"station_id":"cpo3532slgdg3j2ikp40","pricing_plan_id":"cebpf4jnsgd1na2vs0mg"},{"bike_id":"61a789b9-188c-419e-a495-9d8bb5585016","system_id":"levelo_inurba_marseille","lat":43.27981,"lon":5.41674,"is_reserved":false,"is_disabled":false,"rental_uris":{"android":"levelo://app?vid=61a789b9-188c-419e-a495-9d8bb5585016","ios":"levelo://app?vid=61a789b9-188c-419e-a495-9d8bb5585016"},"vehicle_type_id":"4","last_reported":1748581828,"current_range_meters":12000,"station_id":"ce4bho12rcd13ifvqh1g","pricing_plan_id":"cebpf4jnsgd1na2vs0mg"},{"bike_id":"c81bbe6e-138d-4fd7-ab74-b00b6263d429","system_id":"levelo_inurba_marseille","lat":43.282111,"lon":5.390501,"is_reserved":false,"is_disabled":false,"rental_uris":{"android":"levelo://app?vid=c81bbe6e-138d-4fd7-ab74-b00b6263d429","ios":"levelo://app?vid=c81bbe6e-138d-4fd7-ab74-b00b6263d429"},"vehicle_type_id":"4","last_reported":1748581828,"current_range_meters":12000,"station_id":"","pricing_plan_id":"cebpf4jnsgd1na2vs0mg"},{"bike_id":"eeaaba6b-0ce0-43ef-a3d9-c4275a8344eb","system_id":"levelo_inurba_marseille","lat":43.25737,"lon":5.4113,"is_reserved":false,"is_disabled":false,"rental_uris":{"android":"levelo://app?vid=eeaaba6b-0ce0-43ef-a3d9-c4275a8344eb","ios":"levelo://app?vid=eeaaba6b-0ce0-43ef-a3d9-c4275a8344eb"},"vehicle_type_id":"4","last_reported":1748581828,"current_range_meters":12000,"station_id":"ce4bhkp2rcd13ifvqgd0","pricing_plan_id":"cebpf4jnsgd1na2vs0mg"},{"bike_id":"1ff3056f-eb69-44ea-b3f0-e38a31ea942e","system_id":"levelo_inurba_marseille","lat":43.26215,"lon":5.3744,"is_reserved":false,"is_disabled":false,"rental_uris":{"android":"levelo://app?vid=1ff3056f-eb69-44ea-b3f0-e38a31ea942e","ios":"levelo://app?vid=1ff3056f-eb69-44ea-b3f0-e38a31ea942e"},"vehicle_type_id":"4","last_reported":1748581828,"current_range_meters":12400,"station_id":"ce4bhgp2rcd13ifvqfc0","pricing_plan_id":"cebpf4jnsgd1na2vs0mg"},{"bike_id":"f98ad87e-348c-454d-b280-94c48242787c","system_id":"levelo_inurba_marseille","lat":43.336044,"lon":5.410293,"is_reserved":false,"is_disabled":false,"rental_uris":{"android":"levelo://app?vid=f98ad87e-348c-454d-b280-94c48242787c","ios":"levelo://app?vid=f98ad87e-348c-454d-b280-94c48242787c"},"vehicle_type_id":"4","last_reported":1748581828,"current_range_meters":12400,"station_id":"ce4bhqh2rcd13ifvqhmg","pricing_plan_id":"cebpf4jnsgd1na2vs0mg"},{"bike_id":"94d74484-c00f-4773-98b4-43f5ef9035c3","system_id":"levelo_inurba_marseille","lat":43.26229,"lon":5.40446,"is_reserved":false,"is_disabled":false,"rental_uris":{"android":"levelo://app?vid=94d74484-c00f-4773-98b4-43f5ef9035c3","ios":"levelo://app?vid=94d74484-c00f-4773-98b4-43f5ef9035c3"},"vehicle_type_id":"4","last_reported":1748581828,"current_range_meters":12400,"station_id":"ce4bhmh2rcd13ifvqgmg","pricing_plan_id":"cebpf4jnsgd1na2vs0mg"},{"bike_id":"da279776-c099-4cdd-acd3-f802ffed4965","system_id":"levelo_inurba_marseille","lat":43.29533,"lon":5.42257,"is_reserved":false,"is_disabled":false,"rental_uris":{"android":"levelo://app?vid=da279776-c099-4cdd-acd3-f802ffed4965","ios":"levelo://app?vid=da279776-c099-4cdd-acd3-f802ffed4965"},"vehicle_type_id":"4","last_reported":1748581828,"current_range_meters":12400,"station_id":"ce4bhph2rcd13ifvqhdg","pricing_plan_id":"cebpf4jnsgd1na2vs0mg"},{"bike_id":"3f133001-de67-4a16-ba1a-1751190238ae","system_id":"levelo_inurba_marseille","lat":43.284045,"lon":5.375221,"is_reserved":false,"is_disabled":true,"rental_uris":{"android":"levelo://app?vid=3f133001-de67-4a16-ba1a-1751190238ae","ios":"levelo://app?vid=3f133001-de67-4a16-ba1a-1751190238ae"},"vehicle_type_id":"4","last_reported":1748581828,"current_range_meters":12400,"station_id":"ce4bh412rcd13ifvqds0","pricing_plan_id":"cebpf4jnsgd1na2vs0mg"},{"bike_id":"ff392818-f13b-4ef0-b2ad-6e7155767c9d","system_id":"levelo_inurba_marseille","lat":43.33728,"lon":5.39184,"is_reserved":false,"is_disabled":false,"rental_uris":{"android":"levelo://app?vid=ff392818-f13b-4ef0-b2ad-6e7155767c9d","ios":"levelo://app?vid=ff392818-f13b-4ef0-b2ad-6e7155767c9d"},"vehicle_type_id":"4","last_reported":1748581828,"current_range_meters":12400,"station_id":"ce4bhr92rcd13ifvqhsg","pricing_plan_id":"cebpf4jnsgd1na2vs0mg"},{"bike_id":"7d4ba91c-7a7a-4535-9018-7a0082a8e326","system_id":"levelo_inurba_marseille","lat":43.279532,"lon":5.410279,"is_reserved":false,"is_disabled":false,"rental_uris":{"android":"levelo://app?vid=7d4ba91c-7a7a-4535-9018-7a0082a8e326","ios":"levelo://app?vid=7d4ba91c-7a7a-4535-9018-7a0082a8e326"},"vehicle_type_id":"4","last_reported":1748581828,"current_range_meters":12800,"station_id":"ce4bhnp2rcd13ifvqh0g","pricing_plan_id":"cebpf4jnsgd1na2vs0mg"},{"bike_id":"e2da91e0-a1c8-45a3-b835-1e6640875e3e","system_id":"levelo_inurba_marseille","lat":43.299322,"lon":5.365397,"is_reserved":false,"is_disabled":false,"rental_uris":{"android":"levelo://app?vid=e2da91e0-a1c8-45a3-b835-1e6640875e3e","ios":"levelo://app?vid=e2da91e0-a1c8-45a3-b835-1e6640875e3e"},"vehicle_type_id":"4","last_reported":1748581828,"current_range_meters":12800,"station_id":"ce4bgm92rcd13ifvqbr0","pricing_plan_id":"cebpf4jnsgd1na2vs0mg"},{"bike_id":"d041ba9b-b157-420b-92de-857f860b4947","system_id":"levelo_inurba_marseille","lat":43.28224,"lon":5.39029,"is_reserved":false,"is_disabled":false,"rental_uris":{"android":"levelo://app?vid=d041ba9b-b157-420b-92de-857f860b4947","ios":"levelo://app?vid=d041ba9b-b157-420b-92de-857f860b4947"},"vehicle_type_id":"4","last_reported":1748581828,"current_range_meters":12800,"station_id":"","pricing_plan_id":"cebpf4jnsgd1na2vs0mg"},{"bike_id":"a8d4273b-613f-442b-bea9-7c462c2c1bbc","system_id":"levelo_inurba_marseille","lat":43.2623,"lon":5.40458,"is_reserved":false,"is_disabled":false,"rental_uris":{"android":"levelo://app?vid=a8d4273b-613f-442b-bea9-7c462c2c1bbc","ios":"levelo://app?vid=a8d4273b-613f-442b-bea9-7c462c2c1bbc"},"vehicle_type_id":"4","last_reported":1748581828,"current_range_meters":12800,"station_id":"ce4bhmh2rcd13ifvqgmg","pricing_plan_id":"cebpf4jnsgd1na2vs0mg"},{"bike_id":"990df701-79a7-41ec-b963-3693dc590a87","system_id":"levelo_inurba_marseille","lat":43.30175,"lon":5.37909,"is_reserved":false,"is_disabled":false,"rental_uris":{"android":"levelo://app?vid=990df701-79a7-41ec-b963-3693dc590a87","ios":"levelo://app?vid=990df701-79a7-41ec-b963-3693dc590a87"},"vehicle_type_id":"4","last_reported":1748581828,"current_range_meters":12800,"station_id":"","pricing_plan_id":"cebpf4jnsgd1na2vs0mg"},{"bike_id":"c9b16b3f-d77e-4adf-8c10-65c6e295aa7d","system_id":"levelo_inurba_marseille","lat":43.279645,"lon":5.387198,"is_reserved":false,"is_disabled":false,"rental_uris":{"android":"levelo://app?vid=c9b16b3f-d77e-4adf-8c10-65c6e295aa7d","ios":"levelo://app?vid=c9b16b3f-d77e-4adf-8c10-65c6e295aa7d"},"vehicle_type_id":"4","last_reported":1748581828,"current_range_meters":13600,"station_id":"ce4bhg12rcd13ifvqf80","pricing_plan_id":"cebpf4jnsgd1na2vs0mg"},{"bike_id":"7243d7c8-02f5-4392-89cf-8c360e846d55","system_id":"levelo_inurba_marseille","lat":43.252754,"lon":5.378353,"is_reserved":false,"is_disabled":false,"rental_uris":{"android":"levelo://app?vid=7243d7c8-02f5-4392-89cf-8c360e846d55","ios":"levelo://app?vid=7243d7c8-02f5-4392-89cf-8c360e846d55"},"vehicle_type_id":"4","last_reported":1748581828,"current_range_meters":13600,"station_id":"","pricing_plan_id":"cebpf4jnsgd1na2vs0mg"},{"bike_id":"9258f519-c82c-4ad7-8052-a9d9f50de9e0","system_id":"levelo_inurba_marseille","lat":43.29521,"lon":5.39394,"is_reserved":false,"is_disabled":false,"rental_uris":{"android":"levelo://app?vid=9258f519-c82c-4ad7-8052-a9d9f50de9e0","ios":"levelo://app?vid=9258f519-c82c-4ad7-8052-a9d9f50de9e0"},"vehicle_type_id":"4","last_reported":1748581828,"current_range_meters":13600,"station_id":"ce4bh292rcd13ifvqdf0","pricing_plan_id":"cebpf4jnsgd1na2vs0mg"},{"bike_id":"6d9461e9-afcf-430b-8179-bb7d54f00db5","system_id":"levelo_inurba_marseille","lat":43.31495,"lon":5.37294,"is_reserved":false,"is_disabled":false,"rental_uris":{"android":"levelo://app?vid=6d9461e9-afcf-430b-8179-bb7d54f00db5","ios":"levelo://app?vid=6d9461e9-afcf-430b-8179-bb7d54f00db5"},"vehicle_type_id":"4","last_reported":1748581828,"current_range_meters":13600,"station_id":"ce4bgt12rcd13ifvqcd0","pricing_plan_id":"cebpf4jnsgd1na2vs0mg"},{"bike_id":"cd85ece0-e2f3-4caa-bbf2-457082671004","system_id":"levelo_inurba_marseille","lat":43.2403,"lon":5.36776,"is_reserved":false,"is_disabled":true,"rental_uris":{"android":"levelo://app?vid=cd85ece0-e2f3-4caa-bbf2-457082671004","ios":"levelo://app?vid=cd85ece0-e2f3-4caa-bbf2-457082671004"},"vehicle_type_id":"4","last_reported":1748581828,"current_range_meters":13600,"station_id":"","pricing_plan_id":"cebpf4jnsgd1na2vs0mg"},{"bike_id":"13eb6a89-d27c-4a24-8717-6c750aa95c9a","system_id":"levelo_inurba_marseille","lat":43.28481,"lon":5.38447,"is_reserved":false,"is_disabled":false,"rental_uris":{"android":"levelo://app?vid=13eb6a89-d27c-4a24-8717-6c750aa95c9a","ios":"levelo://app?vid=13eb6a89-d27c-4a24-8717-6c750aa95c9a"},"vehicle_type_id":"4","last_reported":1748581828,"current_range_meters":13600,"station_id":"ce4bh512rcd13ifvqe3g","pricing_plan_id":"cebpf4jnsgd1na2vs0mg"},{"bike_id":"9ea654fd-9c6b-45ea-9771-15bf83e7f507","system_id":"levelo_inurba_marseille","lat":43.269279,"lon":5.402616,"is_reserved":false,"is_disabled":false,"rental_uris":{"android":"levelo://app?vid=9ea654fd-9c6b-45ea-9771-15bf83e7f507","ios":"levelo://app?vid=9ea654fd-9c6b-45ea-9771-15bf83e7f507"},"vehicle_type_id":"4","last_reported":1748581828,"current_range_meters":13600,"station_id":"cjm6bp8fraef2m0cb0m0","pricing_plan_id":"cebpf4jnsgd1na2vs0mg"},{"bike_id":"0bdee142-1fda-4a23-9616-8b7744765971","system_id":"levelo_inurba_marseille","lat":43.24666,"lon":5.38188,"is_reserved":false,"is_disabled":false,"rental_uris":{"android":"levelo://app?vid=0bdee142-1fda-4a23-9616-8b7744765971","ios":"levelo://app?vid=0bdee142-1fda-4a23-9616-8b7744765971"},"vehicle_type_id":"4","last_reported":1748581828,"current_range_meters":14000,"station_id":"ce4bhih2rcd13ifvqfr0","pricing_plan_id":"cebpf4jnsgd1na2vs0mg"},{"bike_id":"e9c75eff-63de-4ef0-a634-1da4ed1cbb2f","system_id":"levelo_inurba_marseille","lat":43.310804,"lon":5.424321,"is_reserved":false,"is_disabled":true,"rental_uris":{"android":"levelo://app?vid=e9c75eff-63de-4ef0-a634-1da4ed1cbb2f","ios":"levelo://app?vid=e9c75eff-63de-4ef0-a634-1da4ed1cbb2f"},"vehicle_type_id":"4","last_reported":1748581828,"current_range_meters":14000,"station_id":"ce4bhp92rcd13ifvqhag","pricing_plan_id":"cebpf4jnsgd1na2vs0mg"},{"bike_id":"70e9d8e7-e460-4281-841b-0fdb0735b585","system_id":"levelo_inurba_marseille","lat":43.30154,"lon":5.38101,"is_reserved":false,"is_disabled":false,"rental_uris":{"android":"levelo://app?vid=70e9d8e7-e460-4281-841b-0fdb0735b585","ios":"levelo://app?vid=70e9d8e7-e460-4281-841b-0fdb0735b585"},"vehicle_type_id":"4","last_reported":1748581828,"current_range_meters":14000,"station_id":"ce4bgjp2rcd13ifvqbh0","pricing_plan_id":"cebpf4jnsgd1na2vs0mg"},{"bike_id":"55ec6299-b4d1-47ca-b040-43c90bc9c9b4","system_id":"levelo_inurba_marseille","lat":43.32665,"lon":5.40996,"is_reserved":false,"is_disabled":false,"rental_uris":{"android":"levelo://app?vid=55ec6299-b4d1-47ca-b040-43c90bc9c9b4","ios":"levelo://app?vid=55ec6299-b4d1-47ca-b040-43c90bc9c9b4"},"vehicle_type_id":"4","last_reported":1748581828,"current_range_meters":14000,"station_id":"ce4bhpp2rcd13ifvqhgg","pricing_plan_id":"cebpf4jnsgd1na2vs0mg"},{"bike_id":"9afff74f-25c0-4cce-8476-3dd3e572dd8c","system_id":"levelo_inurba_marseille","lat":43.24079,"lon":5.37752,"is_reserved":false,"is_disabled":false,"rental_uris":{"android":"levelo://app?vid=9afff74f-25c0-4cce-8476-3dd3e572dd8c","ios":"levelo://app?vid=9afff74f-25c0-4cce-8476-3dd3e572dd8c"},"vehicle_type_id":"4","last_reported":1748581828,"current_range_meters":14000,"station_id":"ce4bhnp2rcd13ifvqgvg","pricing_plan_id":"cebpf4jnsgd1na2vs0mg"},{"bike_id":"2236b6c0-f763-40f5-8e40-14b379518f91","system_id":"levelo_inurba_marseille","lat":43.246026,"lon":5.393019,"is_reserved":false,"is_disabled":false,"rental_uris":{"android":"levelo://app?vid=2236b6c0-f763-40f5-8e40-14b379518f91","ios":"levelo://app?vid=2236b6c0-f763-40f5-8e40-14b379518f91"},"vehicle_type_id":"4","last_reported":1748581828,"current_range_meters":14000,"station_id":"","pricing_plan_id":"cebpf4jnsgd1na2vs0mg"},{"bike_id":"69362ca8-aad5-4f84-99b8-c7328973ac4f","system_id":"levelo_inurba_marseille","lat":43.23149,"lon":5.43729,"is_reserved":false,"is_disabled":false,"rental_uris":{"android":"levelo://app?vid=69362ca8-aad5-4f84-99b8-c7328973ac4f","ios":"levelo://app?vid=69362ca8-aad5-4f84-99b8-c7328973ac4f"},"vehicle_type_id":"4","last_reported":1748581828,"current_range_meters":14000,"station_id":"ce4bhmp2rcd13ifvqgog","pricing_plan_id":"cebpf4jnsgd1na2vs0mg"},{"bike_id":"8a17b903-cbef-4ca1-985e-91f7861d3ad0","system_id":"levelo_inurba_marseille","lat":43.2417,"lon":5.36415,"is_reserved":false,"is_disabled":true,"rental_uris":{"android":"levelo://app?vid=8a17b903-cbef-4ca1-985e-91f7861d3ad0","ios":"levelo://app?vid=8a17b903-cbef-4ca1-985e-91f7861d3ad0"},"vehicle_type_id":"4","last_reported":1748581828,"current_range_meters":14400,"station_id":"cpo36qri1sfpv3e86is0","pricing_plan_id":"cebpf4jnsgd1na2vs0mg"},{"bike_id":"eef3edab-c7bc-4626-8a57-2353989bd7cc","system_id":"levelo_inurba_marseille","lat":43.24087,"lon":5.3775,"is_reserved":false,"is_disabled":false,"rental_uris":{"android":"levelo://app?vid=eef3edab-c7bc-4626-8a57-2353989bd7cc","ios":"levelo://app?vid=eef3edab-c7bc-4626-8a57-2353989bd7cc"},"vehicle_type_id":"4","last_reported":1748581828,"current_range_meters":14400,"station_id":"ce4bhnp2rcd13ifvqgvg","pricing_plan_id":"cebpf4jnsgd1na2vs0mg"},{"bike_id":"694acfcc-04e1-4ddf-9f64-b0ddb8feaccc","system_id":"levelo_inurba_marseille","lat":43.281,"lon":5.37866,"is_reserved":false,"is_disabled":false,"rental_uris":{"android":"levelo://app?vid=694acfcc-04e1-4ddf-9f64-b0ddb8feaccc","ios":"levelo://app?vid=694acfcc-04e1-4ddf-9f64-b0ddb8feaccc"},"vehicle_type_id":"4","last_reported":1748581828,"current_range_meters":14400,"station_id":"ce4bha12rcd13ifvqee0","pricing_plan_id":"cebpf4jnsgd1na2vs0mg"},{"bike_id":"0fbfc8d7-51f2-48ba-bf46-e03726ce033d","system_id":"levelo_inurba_marseille","lat":43.24642,"lon":5.38177,"is_reserved":false,"is_disabled":false,"rental_uris":{"android":"levelo://app?vid=0fbfc8d7-51f2-48ba-bf46-e03726ce033d","ios":"levelo://app?vid=0fbfc8d7-51f2-48ba-bf46-e03726ce033d"},"vehicle_type_id":"4","last_reported":1748581828,"current_range_meters":14400,"station_id":"ce4bhih2rcd13ifvqfr0","pricing_plan_id":"cebpf4jnsgd1na2vs0mg"},{"bike_id":"7f20e79f-7534-48cb-872e-e8fc538f0a14","system_id":"levelo_inurba_marseille","lat":43.308859,"lon":5.396513,"is_reserved":false,"is_disabled":false,"rental_uris":{"android":"levelo://app?vid=7f20e79f-7534-48cb-872e-e8fc538f0a14","ios":"levelo://app?vid=7f20e79f-7534-48cb-872e-e8fc538f0a14"},"vehicle_type_id":"4","last_reported":1748581828,"current_range_meters":14400,"station_id":"ce4bh012rcd13ifvqcv0","pricing_plan_id":"cebpf4jnsgd1na2vs0mg"},{"bike_id":"750dca5e-0985-4141-af6e-6536febb610d","system_id":"levelo_inurba_marseille","lat":43.26559,"lon":5.3731,"is_reserved":false,"is_disabled":false,"rental_uris":{"android":"levelo://app?vid=750dca5e-0985-4141-af6e-6536febb610d","ios":"levelo://app?vid=750dca5e-0985-4141-af6e-6536febb610d"},"vehicle_type_id":"4","last_reported":1748581828,"current_range_meters":14400,"station_id":"ce4bhg12rcd13ifvqf70","pricing_plan_id":"cebpf4jnsgd1na2vs0mg"},{"bike_id":"a511d578-129f-44e0-a573-a31884933e6b","system_id":"levelo_inurba_marseille","lat":43.275073,"lon":5.40942,"is_reserved":false,"is_disabled":false,"rental_uris":{"android":"levelo://app?vid=a511d578-129f-44e0-a573-a31884933e6b","ios":"levelo://app?vid=a511d578-129f-44e0-a573-a31884933e6b"},"vehicle_type_id":"4","last_reported":1748581828,"current_range_meters":14400,"station_id":"","pricing_plan_id":"cebpf4jnsgd1na2vs0mg"},{"bike_id":"94fab7f0-906e-4ec7-95e9-0bc00b03b609","system_id":"levelo_inurba_marseille","lat":43.25057,"lon":5.39462,"is_reserved":false,"is_disabled":false,"rental_uris":{"android":"levelo://app?vid=94fab7f0-906e-4ec7-95e9-0bc00b03b609","ios":"levelo://app?vid=94fab7f0-906e-4ec7-95e9-0bc00b03b609"},"vehicle_type_id":"4","last_reported":1748581828,"current_range_meters":14400,"station_id":"ce4bhm12rcd13ifvqgkg","pricing_plan_id":"cebpf4jnsgd1na2vs0mg"},{"bike_id":"9fe1e697-36ec-421f-b0be-031c2f5ed7f3","system_id":"levelo_inurba_marseille","lat":43.33779,"lon":5.37436,"is_reserved":false,"is_disabled":false,"rental_uris":{"android":"levelo://app?vid=9fe1e697-36ec-421f-b0be-031c2f5ed7f3","ios":"levelo://app?vid=9fe1e697-36ec-421f-b0be-031c2f5ed7f3"},"vehicle_type_id":"4","last_reported":1748581828,"current_range_meters":14800,"station_id":"","pricing_plan_id":"cebpf4jnsgd1na2vs0mg"},{"bike_id":"2be6f613-1d2e-4314-b7c8-a27f95203c5e","system_id":"levelo_inurba_marseille","lat":43.279682,"lon":5.387066,"is_reserved":false,"is_disabled":false,"rental_uris":{"android":"levelo://app?vid=2be6f613-1d2e-4314-b7c8-a27f95203c5e","ios":"levelo://app?vid=2be6f613-1d2e-4314-b7c8-a27f95203c5e"},"vehicle_type_id":"4","last_reported":1748581828,"current_range_meters":14800,"station_id":"ce4bhg12rcd13ifvqf80","pricing_plan_id":"cebpf4jnsgd1na2vs0mg"},{"bike_id":"503caf17-0eca-485d-a69a-e55496762ea8","system_id":"levelo_inurba_marseille","lat":43.286636,"lon":5.36355,"is_reserved":false,"is_disabled":false,"rental_uris":{"android":"levelo://app?vid=503caf17-0eca-485d-a69a-e55496762ea8","ios":"levelo://app?vid=503caf17-0eca-485d-a69a-e55496762ea8"},"vehicle_type_id":"4","last_reported":1748581828,"current_range_meters":14800,"station_id":"ce4bhah2rcd13ifvqej0","pricing_plan_id":"cebpf4jnsgd1na2vs0mg"},{"bike_id":"308f7f20-4b40-4cf6-af1f-91d99aa3b6c7","system_id":"levelo_inurba_marseille","lat":43.30888,"lon":5.3964,"is_reserved":false,"is_disabled":false,"rental_uris":{"android":"levelo://app?vid=308f7f20-4b40-4cf6-af1f-91d99aa3b6c7","ios":"levelo://app?vid=308f7f20-4b40-4cf6-af1f-91d99aa3b6c7"},"vehicle_type_id":"4","last_reported":1748581828,"current_range_meters":14800,"station_id":"ce4bh012rcd13ifvqcv0","pricing_plan_id":"cebpf4jnsgd1na2vs0mg"},{"bike_id":"8fed41b2-9d6b-4474-8486-624fae52b6a2","system_id":"levelo_inurba_marseille","lat":43.27922,"lon":5.41067,"is_reserved":false,"is_disabled":false,"rental_uris":{"android":"levelo://app?vid=8fed41b2-9d6b-4474-8486-624fae52b6a2","ios":"levelo://app?vid=8fed41b2-9d6b-4474-8486-624fae52b6a2"},"vehicle_type_id":"4","last_reported":1748581828,"current_range_meters":14800,"station_id":"ce4bhnp2rcd13ifvqh0g","pricing_plan_id":"cebpf4jnsgd1na2vs0mg"},{"bike_id":"ec99f384-d898-41dd-b58c-5d977d5ab448","system_id":"levelo_inurba_marseille","lat":43.274379,"lon":5.361437,"is_reserved":false,"is_disabled":false,"rental_uris":{"android":"levelo://app?vid=ec99f384-d898-41dd-b58c-5d977d5ab448","ios":"levelo://app?vid=ec99f384-d898-41dd-b58c-5d977d5ab448"},"vehicle_type_id":"4","last_reported":1748581828,"current_range_meters":14800,"station_id":"ce4bh692rcd13ifvqea0","pricing_plan_id":"cebpf4jnsgd1na2vs0mg"},{"bike_id":"7772ee7a-25f5-4bc7-a3bc-e28a5309d741","system_id":"levelo_inurba_marseille","lat":43.30374,"lon":5.424929,"is_reserved":false,"is_disabled":true,"rental_uris":{"android":"levelo://app?vid=7772ee7a-25f5-4bc7-a3bc-e28a5309d741","ios":"levelo://app?vid=7772ee7a-25f5-4bc7-a3bc-e28a5309d741"},"vehicle_type_id":"4","last_reported":1748581828,"current_range_meters":14800,"station_id":"ce4bhoh2rcd13ifvqh6g","pricing_plan_id":"cebpf4jnsgd1na2vs0mg"},{"bike_id":"feba793f-64b7-499b-881e-97c387064e0d","system_id":"levelo_inurba_marseille","lat":43.30939,"lon":5.40179,"is_reserved":false,"is_disabled":false,"rental_uris":{"android":"levelo://app?vid=feba793f-64b7-499b-881e-97c387064e0d","ios":"levelo://app?vid=feba793f-64b7-499b-881e-97c387064e0d"},"vehicle_type_id":"4","last_reported":1748581828,"current_range_meters":15200,"station_id":"ce4bgvp2rcd13ifvqct0","pricing_plan_id":"cebpf4jnsgd1na2vs0mg"},{"bike_id":"e8b5eefd-da82-4786-abc2-64263b33e753","system_id":"levelo_inurba_marseille","lat":43.288537,"lon":5.393179,"is_reserved":false,"is_disabled":false,"rental_uris":{"android":"levelo://app?vid=e8b5eefd-da82-4786-abc2-64263b33e753","ios":"levelo://app?vid=e8b5eefd-da82-4786-abc2-64263b33e753"},"vehicle_type_id":"4","last_reported":1748581828,"current_range_meters":14800,"station_id":"ce4bh2p2rcd13ifvqdi0","pricing_plan_id":"cebpf4jnsgd1na2vs0mg"},{"bike_id":"e8df6e55-a561-4b7a-912e-d9ea01a18adc","system_id":"levelo_inurba_marseille","lat":43.29272,"lon":5.4015,"is_reserved":false,"is_disabled":false,"rental_uris":{"android":"levelo://app?vid=e8df6e55-a561-4b7a-912e-d9ea01a18adc","ios":"levelo://app?vid=e8df6e55-a561-4b7a-912e-d9ea01a18adc"},"vehicle_type_id":"4","last_reported":1748581828,"current_range_meters":15200,"station_id":"ce4bh312rcd13ifvqdk0","pricing_plan_id":"cebpf4jnsgd1na2vs0mg"},{"bike_id":"9162a4d8-7561-4771-a6d5-6cc99ea0e7b6","system_id":"levelo_inurba_marseille","lat":43.282149,"lon":5.390621,"is_reserved":false,"is_disabled":false,"rental_uris":{"android":"levelo://app?vid=9162a4d8-7561-4771-a6d5-6cc99ea0e7b6","ios":"levelo://app?vid=9162a4d8-7561-4771-a6d5-6cc99ea0e7b6"},"vehicle_type_id":"4","last_reported":1748581828,"current_range_meters":16000,"station_id":"","pricing_plan_id":"cebpf4jnsgd1na2vs0mg"},{"bike_id":"013557fd-cead-4ad6-9f03-4db76e4f2c3a","system_id":"levelo_inurba_marseille","lat":43.29358,"lon":5.37863,"is_reserved":false,"is_disabled":false,"rental_uris":{"android":"levelo://app?vid=013557fd-cead-4ad6-9f03-4db76e4f2c3a","ios":"levelo://app?vid=013557fd-cead-4ad6-9f03-4db76e4f2c3a"},"vehicle_type_id":"4","last_reported":1748581828,"current_range_meters":15200,"station_id":"ce4bgjh2rcd13ifvqbf0","pricing_plan_id":"cebpf4jnsgd1na2vs0mg"},{"bike_id":"bf9ada33-fac3-4c6c-a22e-d3b48e785518","system_id":"levelo_inurba_marseille","lat":43.28053,"lon":5.40927,"is_reserved":false,"is_disabled":false,"rental_uris":{"android":"levelo://app?vid=bf9ada33-fac3-4c6c-a22e-d3b48e785518","ios":"levelo://app?vid=bf9ada33-fac3-4c6c-a22e-d3b48e785518"},"vehicle_type_id":"4","last_reported":1748581828,"current_range_meters":16000,"station_id":"","pricing_plan_id":"cebpf4jnsgd1na2vs0mg"},{"bike_id":"67a6560c-83dc-490e-9fc7-f17e3d931afd","system_id":"levelo_inurba_marseille","lat":43.2418,"lon":5.36463,"is_reserved":false,"is_disabled":false,"rental_uris":{"android":"levelo://app?vid=67a6560c-83dc-490e-9fc7-f17e3d931afd","ios":"levelo://app?vid=67a6560c-83dc-490e-9fc7-f17e3d931afd"},"vehicle_type_id":"4","last_reported":1748581828,"current_range_meters":16000,"station_id":"cpo36qri1sfpv3e86is0","pricing_plan_id":"cebpf4jnsgd1na2vs0mg"},{"bike_id":"935a87dc-3869-4a84-92cc-3388c8e654a2","system_id":"levelo_inurba_marseille","lat":43.28857,"lon":5.35862,"is_reserved":false,"is_disabled":false,"rental_uris":{"android":"levelo://app?vid=935a87dc-3869-4a84-92cc-3388c8e654a2","ios":"levelo://app?vid=935a87dc-3869-4a84-92cc-3388c8e654a2"},"vehicle_type_id":"4","last_reported":1748581828,"current_range_meters":16000,"station_id":"ce4bhb12rcd13ifvqem0","pricing_plan_id":"cebpf4jnsgd1na2vs0mg"},{"bike_id":"552b3da3-8b76-4245-8293-d2a790feaac9","system_id":"levelo_inurba_marseille","lat":43.29803,"lon":5.4602,"is_reserved":false,"is_disabled":false,"rental_uris":{"android":"levelo://app?vid=552b3da3-8b76-4245-8293-d2a790feaac9","ios":"levelo://app?vid=552b3da3-8b76-4245-8293-d2a790feaac9"},"vehicle_type_id":"4","last_reported":1748581828,"current_range_meters":16000,"station_id":"","pricing_plan_id":"cebpf4jnsgd1na2vs0mg"},{"bike_id":"7cf6bda7-30df-44f6-8326-1bace21447c3","system_id":"levelo_inurba_marseille","lat":43.2707,"lon":5.42282,"is_reserved":false,"is_disabled":false,"rental_uris":{"android":"levelo://app?vid=7cf6bda7-30df-44f6-8326-1bace21447c3","ios":"levelo://app?vid=7cf6bda7-30df-44f6-8326-1bace21447c3"},"vehicle_type_id":"4","last_reported":1748581828,"current_range_meters":16000,"station_id":"ce4bhk92rcd13ifvqgb0","pricing_plan_id":"cebpf4jnsgd1na2vs0mg"},{"bike_id":"00779107-410c-4955-a69f-bca552dd6244","system_id":"levelo_inurba_marseille","lat":43.29285,"lon":5.40144,"is_reserved":false,"is_disabled":false,"rental_uris":{"android":"levelo://app?vid=00779107-410c-4955-a69f-bca552dd6244","ios":"levelo://app?vid=00779107-410c-4955-a69f-bca552dd6244"},"vehicle_type_id":"4","last_reported":1748581828,"current_range_meters":16000,"station_id":"ce4bh312rcd13ifvqdk0","pricing_plan_id":"cebpf4jnsgd1na2vs0mg"},{"bike_id":"b18036e4-cdbb-441f-a4f1-99c9cdbece34","system_id":"levelo_inurba_marseille","lat":43.29522,"lon":5.39075,"is_reserved":false,"is_disabled":false,"rental_uris":{"android":"levelo://app?vid=b18036e4-cdbb-441f-a4f1-99c9cdbece34","ios":"levelo://app?vid=b18036e4-cdbb-441f-a4f1-99c9cdbece34"},"vehicle_type_id":"4","last_reported":1748581828,"current_range_meters":16000,"station_id":"ce4bh3p2rcd13ifvqdp0","pricing_plan_id":"cebpf4jnsgd1na2vs0mg"},{"bike_id":"6e2d32db-77f9-401a-965b-8ce24716aac7","system_id":"levelo_inurba_marseille","lat":43.30416,"lon":5.412848,"is_reserved":false,"is_disabled":false,"rental_uris":{"android":"levelo://app?vid=6e2d32db-77f9-401a-965b-8ce24716aac7","ios":"levelo://app?vid=6e2d32db-77f9-401a-965b-8ce24716aac7"},"vehicle_type_id":"4","last_reported":1748581828,"current_range_meters":16000,"station_id":"ce4bhop2rcd13ifvqh8g","pricing_plan_id":"cebpf4jnsgd1na2vs0mg"},{"bike_id":"fd7ad8b5-d599-4a91-b59b-ac2aa9cb4f73","system_id":"levelo_inurba_marseille","lat":43.27144,"lon":5.400029,"is_reserved":false,"is_disabled":false,"rental_uris":{"android":"levelo://app?vid=fd7ad8b5-d599-4a91-b59b-ac2aa9cb4f73","ios":"levelo://app?vid=fd7ad8b5-d599-4a91-b59b-ac2aa9cb4f73"},"vehicle_type_id":"4","last_reported":1748581828,"current_range_meters":16400,"station_id":"","pricing_plan_id":"cebpf4jnsgd1na2vs0mg"},{"bike_id":"e4862250-78de-4055-9c6f-c9062be06a69","system_id":"levelo_inurba_marseille","lat":43.279026,"lon":5.395723,"is_reserved":false,"is_disabled":false,"rental_uris":{"android":"levelo://app?vid=e4862250-78de-4055-9c6f-c9062be06a69","ios":"levelo://app?vid=e4862250-78de-4055-9c6f-c9062be06a69"},"vehicle_type_id":"4","last_reported":1748581828,"current_range_meters":16400,"station_id":"ce4bhf92rcd13ifvqf40","pricing_plan_id":"cebpf4jnsgd1na2vs0mg"},{"bike_id":"950a66c6-0112-4714-a007-202e42172c1f","system_id":"levelo_inurba_marseille","lat":43.24796,"lon":5.37455,"is_reserved":false,"is_disabled":false,"rental_uris":{"android":"levelo://app?vid=950a66c6-0112-4714-a007-202e42172c1f","ios":"levelo://app?vid=950a66c6-0112-4714-a007-202e42172c1f"},"vehicle_type_id":"4","last_reported":1748581828,"current_range_meters":16400,"station_id":"ce4bhgh2rcd13ifvqfb0","pricing_plan_id":"cebpf4jnsgd1na2vs0mg"},{"bike_id":"7eca6927-0eee-41fb-838c-8606d041ec62","system_id":"levelo_inurba_marseille","lat":43.26247,"lon":5.40468,"is_reserved":false,"is_disabled":false,"rental_uris":{"android":"levelo://app?vid=7eca6927-0eee-41fb-838c-8606d041ec62","ios":"levelo://app?vid=7eca6927-0eee-41fb-838c-8606d041ec62"},"vehicle_type_id":"4","last_reported":1748581828,"current_range_meters":16400,"station_id":"ce4bhmh2rcd13ifvqgmg","pricing_plan_id":"cebpf4jnsgd1na2vs0mg"},{"bike_id":"03c5fbb1-cc40-457d-980a-b551faec06e9","system_id":"levelo_inurba_marseille","lat":43.25069,"lon":5.3953,"is_reserved":false,"is_disabled":false,"rental_uris":{"android":"levelo://app?vid=03c5fbb1-cc40-457d-980a-b551faec06e9","ios":"levelo://app?vid=03c5fbb1-cc40-457d-980a-b551faec06e9"},"vehicle_type_id":"4","last_reported":1748581828,"current_range_meters":16400,"station_id":"ce4bhm12rcd13ifvqgkg","pricing_plan_id":"cebpf4jnsgd1na2vs0mg"},{"bike_id":"c6edeaa8-286a-4072-9db4-ae3a11de5279","system_id":"levelo_inurba_marseille","lat":43.26923,"lon":5.40265,"is_reserved":false,"is_disabled":false,"rental_uris":{"android":"levelo://app?vid=c6edeaa8-286a-4072-9db4-ae3a11de5279","ios":"levelo://app?vid=c6edeaa8-286a-4072-9db4-ae3a11de5279"},"vehicle_type_id":"4","last_reported":1748581828,"current_range_meters":16400,"station_id":"cjm6bp8fraef2m0cb0m0","pricing_plan_id":"cebpf4jnsgd1na2vs0mg"},{"bike_id":"04d9f7dc-d334-4075-83bb-f85129ae64d5","system_id":"levelo_inurba_marseille","lat":43.29219,"lon":5.36059,"is_reserved":false,"is_disabled":false,"rental_uris":{"android":"levelo://app?vid=04d9f7dc-d334-4075-83bb-f85129ae64d5","ios":"levelo://app?vid=04d9f7dc-d334-4075-83bb-f85129ae64d5"},"vehicle_type_id":"4","last_reported":1748581828,"current_range_meters":16400,"station_id":"ce4bhbh2rcd13ifvqeqg","pricing_plan_id":"cebpf4jnsgd1na2vs0mg"},{"bike_id":"785cc5a2-55ff-4ed7-a9bf-bca5de4d9f6f","system_id":"levelo_inurba_marseille","lat":43.31506,"lon":5.37275,"is_reserved":false,"is_disabled":false,"rental_uris":{"android":"levelo://app?vid=785cc5a2-55ff-4ed7-a9bf-bca5de4d9f6f","ios":"levelo://app?vid=785cc5a2-55ff-4ed7-a9bf-bca5de4d9f6f"},"vehicle_type_id":"4","last_reported":1748581828,"current_range_meters":16400,"station_id":"ce4bgt12rcd13ifvqcd0","pricing_plan_id":"cebpf4jnsgd1na2vs0mg"},{"bike_id":"4bec59e8-2431-4556-96ff-b114cfc59a4a","system_id":"levelo_inurba_marseille","lat":43.288496,"lon":5.393118,"is_reserved":false,"is_disabled":false,"rental_uris":{"android":"levelo://app?vid=4bec59e8-2431-4556-96ff-b114cfc59a4a","ios":"levelo://app?vid=4bec59e8-2431-4556-96ff-b114cfc59a4a"},"vehicle_type_id":"4","last_reported":1748581828,"current_range_meters":16400,"station_id":"ce4bh2p2rcd13ifvqdi0","pricing_plan_id":"cebpf4jnsgd1na2vs0mg"},{"bike_id":"d6d1ada7-d095-4848-a9c7-71d520f6d868","system_id":"levelo_inurba_marseille","lat":43.299666,"lon":5.384894,"is_reserved":false,"is_disabled":false,"rental_uris":{"android":"levelo://app?vid=d6d1ada7-d095-4848-a9c7-71d520f6d868","ios":"levelo://app?vid=d6d1ada7-d095-4848-a9c7-71d520f6d868"},"vehicle_type_id":"4","last_reported":1748581828,"current_range_meters":16400,"station_id":"","pricing_plan_id":"cebpf4jnsgd1na2vs0mg"},{"bike_id":"14960bf0-5194-4f14-bef0-766957d27bb3","system_id":"levelo_inurba_marseille","lat":43.292743,"lon":5.401448,"is_reserved":false,"is_disabled":false,"rental_uris":{"android":"levelo://app?vid=14960bf0-5194-4f14-bef0-766957d27bb3","ios":"levelo://app?vid=14960bf0-5194-4f14-bef0-766957d27bb3"},"vehicle_type_id":"4","last_reported":1748581828,"current_range_meters":16400,"station_id":"ce4bh312rcd13ifvqdk0","pricing_plan_id":"cebpf4jnsgd1na2vs0mg"},{"bike_id":"dd34afa2-f665-4263-85a8-7de7dbd3a196","system_id":"levelo_inurba_marseille","lat":43.27608,"lon":5.39711,"is_reserved":false,"is_disabled":false,"rental_uris":{"android":"levelo://app?vid=dd34afa2-f665-4263-85a8-7de7dbd3a196","ios":"levelo://app?vid=dd34afa2-f665-4263-85a8-7de7dbd3a196"},"vehicle_type_id":"4","last_reported":1748581828,"current_range_meters":16400,"station_id":"","pricing_plan_id":"cebpf4jnsgd1na2vs0mg"},{"bike_id":"1d542995-8c8f-4777-b74d-8d8355e96125","system_id":"levelo_inurba_marseille","lat":43.287063,"lon":5.399955,"is_reserved":false,"is_disabled":false,"rental_uris":{"android":"levelo://app?vid=1d542995-8c8f-4777-b74d-8d8355e96125","ios":"levelo://app?vid=1d542995-8c8f-4777-b74d-8d8355e96125"},"vehicle_type_id":"4","last_reported":1748581828,"current_range_meters":16800,"station_id":"ce4bho92rcd13ifvqh3g","pricing_plan_id":"cebpf4jnsgd1na2vs0mg"},{"bike_id":"9cdfee17-44a7-4fce-88b2-36eb8338f6d6","system_id":"levelo_inurba_marseille","lat":43.279184,"lon":5.395885,"is_reserved":false,"is_disabled":false,"rental_uris":{"android":"levelo://app?vid=9cdfee17-44a7-4fce-88b2-36eb8338f6d6","ios":"levelo://app?vid=9cdfee17-44a7-4fce-88b2-36eb8338f6d6"},"vehicle_type_id":"4","last_reported":1748581828,"current_range_meters":16800,"station_id":"ce4bhf92rcd13ifvqf40","pricing_plan_id":"cebpf4jnsgd1na2vs0mg"},{"bike_id":"afe54a8f-9ee4-4945-bd13-798aefd8e42f","system_id":"levelo_inurba_marseille","lat":43.27207,"lon":5.39184,"is_reserved":false,"is_disabled":false,"rental_uris":{"android":"levelo://app?vid=afe54a8f-9ee4-4945-bd13-798aefd8e42f","ios":"levelo://app?vid=afe54a8f-9ee4-4945-bd13-798aefd8e42f"},"vehicle_type_id":"4","last_reported":1748581828,"current_range_meters":16800,"station_id":"ce4bhhp2rcd13ifvqfm0","pricing_plan_id":"cebpf4jnsgd1na2vs0mg"},{"bike_id":"b71fa88b-53a5-4b25-8399-9549cda9480a","system_id":"levelo_inurba_marseille","lat":43.31113,"lon":5.37779,"is_reserved":false,"is_disabled":false,"rental_uris":{"android":"levelo://app?vid=b71fa88b-53a5-4b25-8399-9549cda9480a","ios":"levelo://app?vid=b71fa88b-53a5-4b25-8399-9549cda9480a"},"vehicle_type_id":"4","last_reported":1748581828,"current_range_meters":16800,"station_id":"ce4bgt92rcd13ifvqcg0","pricing_plan_id":"cebpf4jnsgd1na2vs0mg"},