{"last_updated":1748585751,"ttl":60,"version":"2.2","data":{"bikes":[{"bike_id":"15c306f5-cf6b-4a8d-8326-60c1e9b2c733","system_id":"levelo_inurba_marseille","lat":43.27424,"lon":5.39395,"is_reserved":false,"is_disabled":true,"rental_uris":{"android":"levelo://app?vid=15c306f5-cf6b-4a8d-8326-60c1e9b2c733","ios":"levelo://app?vid=15c306f5-cf6b-4a8d-8326-60c1e9b2c733"},"vehicle_type_id":"4","last_reported":1748585751,"current_range_meters":2800,"station_id":"ce4bhdp2rcd13ifvqf20","pricing_plan_id":"cebpf4jnsgd1na2vs0mg"},{"bike_id":"6d7cfdcd-f061-4eee-b4e5-78d9b6729328","system_id":"levelo_inurba_marseille","lat":43.330076,"lon":5.438526,"is_reserved":false,"is_disabled":false,"rental_uris":{"android":"levelo://app?vid=6d7cfdcd-f061-4eee-b4e5-78d9b6729328","ios":"levelo://app?vid=6d7cfdcd-f061-4eee-b4e5-78d9b6729328"},"vehicle_type_id":"4","last_reported":1748585751,"current_range_meters":2800,"station_id":"","pricing_plan_id":"cebpf4jnsgd1na2vs0mg"},{"bike_id":"a560be21-6a84-4100-966b-2eb8ba2ec28c","system_id":"levelo_inurba_marseille","lat":43.26501,"lon":5.39545,"is_reserved":false,"is_disabled":true,"rental_uris":{"android":"levelo://app?vid=a560be21-6a84-4100-966b-2eb8ba2ec28c","ios":"levelo://app?vid=a560be21-6a84-4100-966b-2eb8ba2ec28c"},"vehicle_type_id":"4","last_reported":1748585751,"current_range_meters":2800,"station_id":"ce4bhi12rcd13ifvqfq0","pricing_plan_id":"cebpf4jnsgd1na2vs0mg"},{"bike_id":"04b3db88-674e-4d54-8edd-81dfede77d38","system_id":"levelo_inurba_marseille","lat":43.29157,"lon":5.40312,"is_reserved":false,"is_disabled":false,"rental_uris":{"android":"levelo://app?vid=04b3db88-674e-4d54-8edd-81dfede77d38","ios":"levelo://app?vid=04b3db88-674e-4d54-8edd-81dfede77d38"},"vehicle_type_id":"4","last_reported":1748585751,"current_range_meters":2800,"station_id":"","pricing_plan_id":"cebpf4jnsgd1na2vs0mg"},{"bike_id":"45a545f2-117e-41f7-b7df-f3f699944c28","system_id":"levelo_inurba_marseille","lat":43.326582,"lon":5.409959,"is_reserved":false,"is_disabled":false,"rental_uris":{"android":"levelo://app?vid=45a545f2-117e-41f7-b7df-f3f699944c28","ios":"levelo://app?vid=45a545f2-117e-41f7-b7df-f3f699944c28"},"vehicle_type_id":"4","last_reported":1748585751,"current_range_meters":2800,"station_id":"ce4bhpp2rcd13ifvqhgg","pricing_plan_id":"cebpf4jnsgd1na2vs0mg"},{"bike_id":"41e183f3-6443-49ae-8338-bcffc11e3e0b","system_id":"levelo_inurba_marseille","lat":43.30307,"lon":5.39197,"is_reserved":false,"is_disabled":false,"rental_uris":{"android":"levelo://app?vid=41e183f3-6443-49ae-8338-bcffc11e3e0b","ios":"levelo://app?vid=41e183f3-6443-49ae-8338-bcffc11e3e0b"},"vehicle_type_id":"4","last_reported":1748585751,"current_range_meters":3200,"station_id":"ce4bgkh2rcd13ifvqbk0","pricing_plan_id":"cebpf4jnsgd1na2vs0mg"},{"bike_id":"3f0441b1-6cb6-41fd-b679-f454d34b2118","system_id":"levelo_inurba_marseille","lat":43.211872,"lon":5.350848,"is_reserved":false,"is_disabled":false,"rental_uris":{"android":"levelo://app?vid=3f0441b1-6cb6-41fd-b679-f454d34b2118","ios":"levelo://app?vid=3f0441b1-6cb6-41fd-b679-f454d34b2118"},"vehicle_type_id":"4","last_reported":1748585751,"current_range_meters":3200,"station_id":"st_cvj6sg6p6f1abm77japg","pricing_plan_id":"cebpf4jnsgd1na2vs0mg"},{"bike_id":"78353d3a-f046-4900-8502-614ce335636a","system_id":"levelo_inurba_marseille","lat":43.2904,"lon":5.35917,"is_reserved":false,"is_disabled":true,"rental_uris":{"android":"levelo://app?vid=78353d3a-f046-4900-8502-614ce335636a","ios":"levelo://app?vid=78353d3a-f046-4900-8502-614ce335636a"},"vehicle_type_id":"4","last_reported":1748585751,"current_range_meters":3600,"station_id":"ce4bha92rcd13ifvqeg0","pricing_plan_id":"cebpf4jnsgd1na2vs0mg"},{"bike_id":"c1c51125-b169-41b9-b7df-e87ff78b4aea","system_id":"levelo_inurba_marseille","lat":43.262269,"lon":5.404618,"is_reserved":false,"is_disabled":false,"rental_uris":{"android":"levelo://app?vid=c1c51125-b169-41b9-b7df-e87ff78b4aea","ios":"levelo://app?vid=c1c51125-b169-41b9-b7df-e87ff78b4aea"},"vehicle_type_id":"4","last_reported":1748585751,"current_range_meters":3600,"station_id":"ce4bhmh2rcd13ifvqgmg","pricing_plan_id":"cebpf4jnsgd1na2vs0mg"},{"bike_id":"24204c04-5d8c-4ac1-bc38-3e364dee5b7a","system_id":"levelo_inurba_marseille","lat":43.30246,"lon":5.41311,"is_reserved":false,"is_disabled":false,"rental_uris":{"android":"levelo://app?vid=24204c04-5d8c-4ac1-bc38-3e364dee5b7a","ios":"levelo://app?vid=24204c04-5d8c-4ac1-bc38-3e364dee5b7a"},"vehicle_type_id":"4","last_reported":1748585751,"current_range_meters":3600,"station_id":"","pricing_plan_id":"cebpf4jnsgd1na2vs0mg"},{"bike_id":"2690272c-4a19-4377-b42d-ec9fcc28477f","system_id":"levelo_inurba_marseille","lat":43.33599,"lon":5.41001,"is_reserved":false,"is_disabled":false,"rental_uris":{"android":"levelo://app?vid=2690272c-4a19-4377-b42d-ec9fcc28477f","ios":"levelo://app?vid=2690272c-4a19-4377-b42d-ec9fcc28477f"},"vehicle_type_id":"4","last_reported":1748585751,"current_range_meters":3600,"station_id":"ce4bhqh2rcd13ifvqhmg","pricing_plan_id":"cebpf4jnsgd1na2vs0mg"},{"bike_id":"c519088d-a216-460f-a22b-7250a0097080","system_id":"levelo_inurba_marseille","lat":43.28143,"lon":5.42633,"is_reserved":false,"is_disabled":false,"rental_uris":{"android":"levelo://app?vid=c519088d-a216-460f-a22b-7250a0097080","ios":"levelo://app?vid=c519088d-a216-460f-a22b-7250a0097080"},"vehicle_type_id":"4","last_reported":1748585751,"current_range_meters":3600,"station_id":"ce4bhnh2rcd13ifvqgug","pricing_plan_id":"cebpf4jnsgd1na2vs0mg"},{"bike_id":"453cce4f-5d27-46da-8719-da33a38132da","system_id":"levelo_inurba_marseille","lat":43.2798,"lon":5.38737,"is_reserved":false,"is_disabled":false,"rental_uris":{"android":"levelo://app?vid=453cce4f-5d27-46da-8719-da33a38132da","ios":"levelo://app?vid=453cce4f-5d27-46da-8719-da33a38132da"},"vehicle_type_id":"4","last_reported":1748585751,"current_range_meters":3600,"station_id":"ce4bhg12rcd13ifvqf80","pricing_plan_id":"cebpf4jnsgd1na2vs0mg"},{"bike_id":"45ac51a9-9c69-482d-ad89-d9fe9c5778e6","system_id":"levelo_inurba_marseille","lat":43.29899,"lon":5.38136,"is_reserved":false,"is_disabled":false,"rental_uris":{"android":"levelo://app?vid=45ac51a9-9c69-482d-ad89-d9fe9c5778e6","ios":"levelo://app?vid=45ac51a9-9c69-482d-ad89-d9fe9c5778e6"},"vehicle_type_id":"4","last_reported":1748585751,"current_range_meters":4000,"station_id":"ce4bgj12rcd13ifvqbc0","pricing_plan_id":"cebpf4jnsgd1na2vs0mg"},{"bike_id":"199a3773-ea7f-4348-b6fa-d56bebf242bf","system_id":"levelo_inurba_marseille","lat":43.2708,"lon":5.40246,"is_reserved":false,"is_disabled":false,"rental_uris":{"android":"levelo://app?vid=199a3773-ea7f-4348-b6fa-d56bebf242bf","ios":"levelo://app?vid=199a3773-ea7f-4348-b6fa-d56bebf242bf"},"vehicle_type_id":"4","last_reported":1748585751,"current_range_meters":4000,"station_id":"ce4bhk92rcd13ifvqgc0","pricing_plan_id":"cebpf4jnsgd1na2vs0mg"},{"bike_id":"c68e08d5-2a2e-4dd7-b3ae-1794ee86546d","system_id":"levelo_inurba_marseille","lat":43.2993,"lon":5.36553,"is_reserved":false,"is_disabled":true,"rental_uris":{"android":"levelo://app?vid=c68e08d5-2a2e-4dd7-b3ae-1794ee86546d","ios":"levelo://app?vid=c68e08d5-2a2e-4dd7-b3ae-1794ee86546d"},"vehicle_type_id":"4","last_reported":1748585751,"current_range_meters":4000,"station_id":"ce4bgm92rcd13ifvqbr0","pricing_plan_id":"cebpf4jnsgd1na2vs0mg"},{"bike_id":"063f5812-7a07-4006-a81a-d617745176d3","system_id":"levelo_inurba_marseille","lat":43.25819,"lon":5.39439,"is_reserved":false,"is_disabled":false,"rental_uris":{"android":"levelo://app?vid=063f5812-7a07-4006-a81a-d617745176d3","ios":"levelo://app?vid=063f5812-7a07-4006-a81a-d617745176d3"},"vehicle_type_id":"4","last_reported":1748585751,"current_range_meters":4000,"station_id":"ce4bhip2rcd13ifvqft0","pricing_plan_id":"cebpf4jnsgd1na2vs0mg"},{"bike_id":"11488e1b-74ae-4459-8884-1588199aa112","system_id":"levelo_inurba_marseille","lat":43.26955,"lon":5.40256,"is_reserved":false,"is_disabled":false,"rental_uris":{"android":"levelo://app?vid=11488e1b-74ae-4459-8884-1588199aa112","ios":"levelo://app?vid=11488e1b-74ae-4459-8884-1588199aa112"},"vehicle_type_id":"4","last_reported":1748585751,"current_range_meters":4400,"station_id":"cjm6bp8fraef2m0cb0m0","pricing_plan_id":"cebpf4jnsgd1na2vs0mg"},{"bike_id":"57b5f64c-bdd5-4a8d-b73a-f30035957fd1","system_id":"levelo_inurba_marseille","lat":43.302483,"lon":5.400628,"is_reserved":false,"is_disabled":true,"rental_uris":{"android":"levelo://app?vid=57b5f64c-bdd5-4a8d-b73a-f30035957fd1","ios":"levelo://app?vid=57b5f64c-bdd5-4a8d-b73a-f30035957fd1"},"vehicle_type_id":"4","last_reported":1748585751,"current_range_meters":4400,"station_id":"","pricing_plan_id":"cebpf4jnsgd1na2vs0mg"},{"bike_id":"56c20712-8fb2-4612-9789-0f4e24ee3c5d","system_id":"levelo_inurba_marseille","lat":43.24174,"lon":5.39735,"is_reserved":false,"is_disabled":false,"rental_uris":{"android":"levelo://app?vid=56c20712-8fb2-4612-9789-0f4e24ee3c5d","ios":"levelo://app?vid=56c20712-8fb2-4612-9789-0f4e24ee3c5d"},"vehicle_type_id":"4","last_reported":1748585751,"current_range_meters":4400,"station_id":"ce4bhn12rcd13ifvqgpg","pricing_plan_id":"cebpf4jnsgd1na2vs0mg"},{"bike_id":"c981519c-d263-4c95-b9bb-0aa79abfaf38","system_id":"levelo_inurba_marseille","lat":43.28676,"lon":5.38663,"is_reserved":false,"is_disabled":false,"rental_uris":{"android":"levelo://app?vid=c981519c-d263-4c95-b9bb-0aa79abfaf38","ios":"levelo://app?vid=c981519c-d263-4c95-b9bb-0aa79abfaf38"},"vehicle_type_id":"4","last_reported":1748585751,"current_range_meters":4400,"station_id":"ce4bh492rcd13ifvqdug","pricing_plan_id":"cebpf4jnsgd1na2vs0mg"},{"bike_id":"8231def7-2bb5-4db5-b373-b1e78cb73988","system_id":"levelo_inurba_marseille","lat":43.21194,"lon":5.35071,"is_reserved":false,"is_disabled":false,"rental_uris":{"android":"levelo://app?vid=8231def7-2bb5-4db5-b373-b1e78cb73988","ios":"levelo://app?vid=8231def7-2bb5-4db5-b373-b1e78cb73988"},"vehicle_type_id":"4","last_reported":1748585751,"current_range_meters":4400,"station_id":"","pricing_plan_id":"cebpf4jnsgd1na2vs0mg"},{"bike_id":"c006505c-40ec-4dbb-8fb7-e9d75b9aa51f","system_id":"levelo_inurba_marseille","lat":43.331479,"lon":5.381724,"is_reserved":false,"is_disabled":false,"rental_uris":{"android":"levelo://app?vid=c006505c-40ec-4dbb-8fb7-e9d75b9aa51f","ios":"levelo://app?vid=c006505c-40ec-4dbb-8fb7-e9d75b9aa51f"},"vehicle_type_id":"4","last_reported":1748585751,"current_range_meters":4800,"station_id":"","pricing_plan_id":"cebpf4jnsgd1na2vs0mg"},{"bike_id":"ff6334ca-1730-4c7d-9848-1881a3416f0d","system_id":"levelo_inurba_marseille","lat":43.295775,"lon":5.367374,"is_reserved":false,"is_disabled":false,"rental_uris":{"android":"levelo://app?vid=ff6334ca-1730-4c7d-9848-1881a3416f0d","ios":"levelo://app?vid=ff6334ca-1730-4c7d-9848-1881a3416f0d"},"vehicle_type_id":"4","last_reported":1748585751,"current_range_meters":4800,"station_id":"","pricing_plan_id":"cebpf4jnsgd1na2vs0mg"},{"bike_id":"2f650bb1-6027-4191-83d2-16315820a0a7","system_id":"levelo_inurba_marseille","lat":43.29959,"lon":5.37378,"is_reserved":false,"is_disabled":false,"rental_uris":{"android":"levelo://app?vid=2f650bb1-6027-4191-83d2-16315820a0a7","ios":"levelo://app?vid=2f650bb1-6027-4191-83d2-16315820a0a7"},"vehicle_type_id":"4","last_reported":1748585751,"current_range_meters":4800,"station_id":"","pricing_plan_id":"cebpf4jnsgd1na2vs0mg"},{"bike_id":"e66e9b21-de04-48f6-8dcc-00a6af2fc671","system_id":"levelo_inurba_marseille","lat":43.304583,"lon":5.37899,"is_reserved":false,"is_disabled":false,"rental_uris":{"android":"levelo://app?vid=e66e9b21-de04-48f6-8dcc-00a6af2fc671","ios":"levelo://app?vid=e66e9b21-de04-48f6-8dcc-00a6af2fc671"},"vehicle_type_id":"4","last_reported":1748585751,"current_range_meters":4800,"station_id":"ce4bgup2rcd13ifvqcn0","pricing_plan_id":"cebpf4jnsgd1na2vs0mg"},{"bike_id":"ac09b0ea-5f8b-49ed-bcf6-cd0c0e4db7a9","system_id":"levelo_inurba_marseille","lat":43.29271,"lon":5.36842,"is_reserved":false,"is_disabled":false,"rental_uris":{"android":"levelo://app?vid=ac09b0ea-5f8b-49ed-bcf6-cd0c0e4db7a9","ios":"levelo://app?vid=ac09b0ea-5f8b-49ed-bcf6-cd0c0e4db7a9"},"vehicle_type_id":"4","last_reported":1748585751,"current_range_meters":5600,"station_id":"ce4bhbp2rcd13ifvqesg","pricing_plan_id":"cebpf4jnsgd1na2vs0mg"},{"bike_id":"20056b2e-a5c3-43e4-879c-03942f6d3303","system_id":"levelo_inurba_marseille","lat":43.290824,"lon":5.399495,"is_reserved":false,"is_disabled":false,"rental_uris":{"android":"levelo://app?vid=20056b2e-a5c3-43e4-879c-03942f6d3303","ios":"levelo://app?vid=20056b2e-a5c3-43e4-879c-03942f6d3303"},"vehicle_type_id":"4","last_reported":1748585751,"current_range_meters":5600,"station_id":"ce4bh392rcd13ifvqdm0","pricing_plan_id":"cebpf4jnsgd1na2vs0mg"},{"bike_id":"eb4b3905-d697-4843-bcd5-622b64c07feb","system_id":"levelo_inurba_marseille","lat":43.23135,"lon":5.4373,"is_reserved":false,"is_disabled":false,"rental_uris":{"android":"levelo://app?vid=eb4b3905-d697-4843-bcd5-622b64c07feb","ios":"levelo://app?vid=eb4b3905-d697-4843-bcd5-622b64c07feb"},"vehicle_type_id":"4","last_reported":1748585751,"current_range_meters":6000,"station_id":"ce4bhmp2rcd13ifvqgog","pricing_plan_id":"cebpf4jnsgd1na2vs0mg"},{"bike_id":"015f9af9-da45-4c09-9c85-f29c0e49ce0d","system_id":"levelo_inurba_marseille","lat":43.241706,"lon":5.363956,"is_reserved":false,"is_disabled":false,"rental_uris":{"android":"levelo://app?vid=015f9af9-da45-4c09-9c85-f29c0e49ce0d","ios":"levelo://app?vid=015f9af9-da45-4c09-9c85-f29c0e49ce0d"},"vehicle_type_id":"4","last_reported":1748585751,"current_range_meters":6000,"station_id":"cpo36qri1sfpv3e86is0","pricing_plan_id":"cebpf4jnsgd1na2vs0mg"},{"bike_id":"cbc7d32a-c951-4568-8efa-3a100cc61cf1","system_id":"levelo_inurba_marseille","lat":43.28662,"lon":5.38647,"is_reserved":false,"is_disabled":false,"rental_uris":{"android":"levelo://app?vid=cbc7d32a-c951-4568-8efa-3a100cc61cf1","ios":"levelo://app?vid=cbc7d32a-c951-4568-8efa-3a100cc61cf1"},"vehicle_type_id":"4","last_reported":1748585751,"current_range_meters":6000,"station_id":"ce4bh492rcd13ifvqdug","pricing_plan_id":"cebpf4jnsgd1na2vs0mg"},{"bike_id":"4c5b150b-4be1-4396-b0f3-e96a5df5ab28","system_id":"levelo_inurba_marseille","lat":43.28348,"lon":5.381013,"is_reserved":false,"is_disabled":false,"rental_uris":{"android":"levelo://app?vid=4c5b150b-4be1-4396-b0f3-e96a5df5ab28","ios":"levelo://app?vid=4c5b150b-4be1-4396-b0f3-e96a5df5ab28"},"vehicle_type_id":"4","last_reported":1748585751,"current_range_meters":6000,"station_id":"ce4bh412rcd13ifvqdr0","pricing_plan_id":"cebpf4jnsgd1na2vs0mg"},{"bike_id":"047bbed6-33d9-4486-b038-6c0f2513bd98","system_id":"levelo_inurba_marseille","lat":43.246703,"lon":5.381691,"is_reserved":false,"is_disabled":false,"rental_uris":{"android":"levelo://app?vid=047bbed6-33d9-4486-b038-6c0f2513bd98","ios":"levelo://app?vid=047bbed6-33d9-4486-b038-6c0f2513bd98"},"vehicle_type_id":"4","last_reported":1748585751,"current_range_meters":6400,"station_id":"ce4bhih2rcd13ifvqfr0","pricing_plan_id":"cebpf4jnsgd1na2vs0mg"},{"bike_id":"a329eac8-e7c4-4479-b5f4-6f80ea2c1466","system_id":"levelo_inurba_marseille","lat":43.284099,"lon":5.375191,"is_reserved":false,"is_disabled":false,"rental_uris":{"android":"levelo://app?vid=a329eac8-e7c4-4479-b5f4-6f80ea2c1466","ios":"levelo://app?vid=a329eac8-e7c4-4479-b5f4-6f80ea2c1466"},"vehicle_type_id":"4","last_reported":1748585751,"current_range_meters":6400,"station_id":"ce4bh412rcd13ifvqds0","pricing_plan_id":"cebpf4jnsgd1na2vs0mg"},{"bike_id":"22771043-09b1-43eb-91e0-5c845144e1e3","system_id":"levelo_inurba_marseille","lat":43.27689,"lon":5.40853,"is_reserved":false,"is_disabled":false,"rental_uris":{"android":"levelo://app?vid=22771043-09b1-43eb-91e0-5c845144e1e3","ios":"levelo://app?vid=22771043-09b1-43eb-91e0-5c845144e1e3"},"vehicle_type_id":"4","last_reported":1748585751,"current_range_meters":6400,"station_id":"","pricing_plan_id":"cebpf4jnsgd1na2vs0mg"},{"bike_id":"439c2428-01fc-4528-992a-e5af19ad7cb7","system_id":"levelo_inurba_marseille","lat":43.313673,"lon":5.384997,"is_reserved":false,"is_disabled":false,"rental_uris":{"android":"levelo://app?vid=439c2428-01fc-4528-992a-e5af19ad7cb7","ios":"levelo://app?vid=439c2428-01fc-4528-992a-e5af19ad7cb7"},"vehicle_type_id":"4","last_reported":1748585751,"current_range_meters":6400,"station_id":"ce4bgt92rcd13ifvqcf0","pricing_plan_id":"cebpf4jnsgd1na2vs0mg"},{"bike_id":"583e2176-6c7f-425c-8d24-ee49a624fede","system_id":"levelo_inurba_marseille","lat":43.265706,"lon":5.390233,"is_reserved":false,"is_disabled":true,"rental_uris":{"android":"levelo://app?vid=583e2176-6c7f-425c-8d24-ee49a624fede","ios":"levelo://app?vid=583e2176-6c7f-425c-8d24-ee49a624fede"},"vehicle_type_id":"4","last_reported":1748585751,"current_range_meters":6400,"station_id":"ce4bhe12rcd13ifvqf30","pricing_plan_id":"cebpf4jnsgd1na2vs0mg"},{"bike_id":"92cc41b1-86b4-4ddd-8208-549b320e7443","system_id":"levelo_inurba_marseille","lat":43.3266,"lon":5.40997,"is_reserved":false,"is_disabled":false,"rental_uris":{"android":"levelo://app?vid=92cc41b1-86b4-4ddd-8208-549b320e7443","ios":"levelo://app?vid=92cc41b1-86b4-4ddd-8208-549b320e7443"},"vehicle_type_id":"4","last_reported":1748585751,"current_range_meters":6800,"station_id":"ce4bhpp2rcd13ifvqhgg","pricing_plan_id":"cebpf4jnsgd1na2vs0mg"},{"bike_id":"7c6e48ab-b87e-4e89-9339-a1a2992e6797","system_id":"levelo_inurba_marseille","lat":43.26104,"lon":5.41455,"is_reserved":false,"is_disabled":false,"rental_uris":{"android":"levelo://app?vid=7c6e48ab-b87e-4e89-9339-a1a2992e6797","ios":"levelo://app?vid=7c6e48ab-b87e-4e89-9339-a1a2992e6797"},"vehicle_type_id":"4","last_reported":1748585751,"current_range_meters":6800,"station_id":"","pricing_plan_id":"cebpf4jnsgd1na2vs0mg"},{"bike_id":"2a0682f8-0ba4-4e21-9326-7a5912220f6c","system_id":"levelo_inurba_marseille","lat":43.311636,"lon":5.387187,"is_reserved":false,"is_disabled":false,"rental_uris":{"android":"levelo://app?vid=2a0682f8-0ba4-4e21-9326-7a5912220f6c","ios":"levelo://app?vid=2a0682f8-0ba4-4e21-9326-7a5912220f6c"},"vehicle_type_id":"4","last_reported":1748585751,"current_range_meters":6800,"station_id":"ce4bgv12rcd13ifvqcp0","pricing_plan_id":"cebpf4jnsgd1na2vs0mg"},{"bike_id":"d59936d1-8ec8-4f42-8df1-dcddc80cd126","system_id":"levelo_inurba_marseille","lat":43.28952,"lon":5.39624,"is_reserved":false,"is_disabled":false,"rental_uris":{"android":"levelo://app?vid=d59936d1-8ec8-4f42-8df1-dcddc80cd126","ios":"levelo://app?vid=d59936d1-8ec8-4f42-8df1-dcddc80cd126"},"vehicle_type_id":"4","last_reported":1748585751,"current_range_meters":6800,"station_id":"ce4bh3h2rcd13ifvqdn0","pricing_plan_id":"cebpf4jnsgd1na2vs0mg"},{"bike_id":"d5717ce5-c661-467b-a0d0-ac1d0564b554","system_id":"levelo_inurba_marseille","lat":43.319933,"lon":5.381519,"is_reserved":false,"is_disabled":false,"rental_uris":{"android":"levelo://app?vid=d5717ce5-c661-467b-a0d0-ac1d0564b554","ios":"levelo://app?vid=d5717ce5-c661-467b-a0d0-ac1d0564b554"},"vehicle_type_id":"4","last_reported":1748585751,"current_range_meters":6800,"station_id":"ce4bhr12rcd13ifvqhpg","pricing_plan_id":"cebpf4jnsgd1na2vs0mg"},{"bike_id":"ccae755c-d73e-4bb3-a5ab-3edcad894cbe","system_id":"levelo_inurba_marseille","lat":43.2986,"lon":5.39725,"is_reserved":false,"is_disabled":false,"rental_uris":{"android":"levelo://app?vid=ccae755c-d73e-4bb3-a5ab-3edcad894cbe","ios":"levelo://app?vid=ccae755c-d73e-4bb3-a5ab-3edcad894cbe"},"vehicle_type_id":"4","last_reported":1748585751,"current_range_meters":6800,"station_id":"ce4bh0h2rcd13ifvqd50","pricing_plan_id":"cebpf4jnsgd1na2vs0mg"},{"bike_id":"56c661b2-09c6-4ae7-a74d-d7c5eda261a8","system_id":"levelo_inurba_marseille","lat":43.28005,"lon":5.41658,"is_reserved":false,"is_disabled":false,"rental_uris":{"android":"levelo://app?vid=56c661b2-09c6-4ae7-a74d-d7c5eda261a8","ios":"levelo://app?vid=56c661b2-09c6-4ae7-a74d-d7c5eda261a8"},"vehicle_type_id":"4","last_reported":1748585751,"current_range_meters":6800,"station_id":"ce4bho12rcd13ifvqh1g","pricing_plan_id":"cebpf4jnsgd1na2vs0mg"},{"bike_id":"497ec4a5-8002-40cf-b66d-3b629c958e7f","system_id":"levelo_inurba_marseille","lat":43.29179,"lon":5.40033,"is_reserved":false,"is_disabled":false,"rental_uris":{"android":"levelo://app?vid=497ec4a5-8002-40cf-b66d-3b629c958e7f","ios":"levelo://app?vid=497ec4a5-8002-40cf-b66d-3b629c958e7f"},"vehicle_type_id":"4","last_reported":1748585751,"current_range_meters":6800,"station_id":"","pricing_plan_id":"cebpf4jnsgd1na2vs0mg"},{"bike_id":"b9ae16bc-ec39-406e-9e42-55cba52b28fe","system_id":"levelo_inurba_marseille","lat":43.260174,"lon":5.417476,"is_reserved":false,"is_disabled":false,"rental_uris":{"android":"levelo://app?vid=b9ae16bc-ec39-406e-9e42-55cba52b28fe","ios":"levelo://app?vid=b9ae16bc-ec39-406e-9e42-55cba52b28fe"},"vehicle_type_id":"4","last_reported":1748585751,"current_range_meters":6800,"station_id":"","pricing_plan_id":"cebpf4jnsgd1na2vs0mg"},{"bike_id":"bc8bd5b8-5786-4466-9769-11fe4ef18f0f","system_id":"levelo_inurba_marseille","lat":43.2623,"lon":5.40473,"is_reserved":false,"is_disabled":false,"rental_uris":{"android":"levelo://app?vid=bc8bd5b8-5786-4466-9769-11fe4ef18f0f","ios":"levelo://app?vid=bc8bd5b8-5786-4466-9769-11fe4ef18f0f"},"vehicle_type_id":"4","last_reported":1748585751,"current_range_meters":6800,"station_id":"ce4bhmh2rcd13ifvqgmg","pricing_plan_id":"cebpf4jnsgd1na2vs0mg"},{"bike_id":"419806d9-a0ba-4539-b6a3-66d05e973434","system_id":"levelo_inurba_marseille","lat":43.212027,"lon":5.35073,"is_reserved":false,"is_disabled":false,"rental_uris":{"android":"levelo://app?vid=419806d9-a0ba-4539-b6a3-66d05e973434","ios":"levelo://app?vid=419806d9-a0ba-4539-b6a3-66d05e973434"},"vehicle_type_id":"4","last_reported":1748585751,"current_range_meters":6800,"station_id":"st_cvj6sg6p6f1abm77japg","pricing_plan_id":"cebpf4jnsgd1na2vs0mg"},{"bike_id":"9fa3982a-78e9-408f-aaa3-19562a00ad34","system_id":"levelo_inurba_marseille","lat":43.311752,"lon":5.387104,"is_reserved":false,"is_disabled":false,"rental_uris":{"android":"levelo://app?vid=9fa3982a-78e9-408f-aaa3-19562a00ad34","ios":"levelo://app?vid=9fa3982a-78e9-408f-aaa3-19562a00ad34"},"vehicle_type_id":"4","last_reported":1748585751,"current_range_meters":7200,"station_id":"ce4bgv12rcd13ifvqcp0","pricing_plan_id":"cebpf4jnsgd1na2vs0mg"},{"bike_id":"8c869018-c2f1-47df-8e3b-e48407b32a24","system_id":"levelo_inurba_marseille","lat":43.271939,"lon":5.410003,"is_reserved":false,"is_disabled":false,"rental_uris":{"android":"levelo://app?vid=8c869018-c2f1-47df-8e3b-e48407b32a24","ios":"levelo://app?vid=8c869018-c2f1-47df-8e3b-e48407b32a24"},"vehicle_type_id":"4","last_reported":1748585751,"current_range_meters":7200,"station_id":"ce4bhl12rcd13ifvqgf0","pricing_plan_id":"cebpf4jnsgd1na2vs0mg"},{"bike_id":"efbfa03b-d1c1-4801-974f-b94daf1baf1a","system_id":"levelo_inurba_marseille","lat":43.27052,"lon":5.40261,"is_reserved":false,"is_disabled":false,"rental_uris":{"android":"levelo://app?vid=efbfa03b-d1c1-4801-974f-b94daf1baf1a","ios":"levelo://app?vid=efbfa03b-d1c1-4801-974f-b94daf1baf1a"},"vehicle_type_id":"4","last_reported":1748585751,"current_range_meters":7200,"station_id":"ce4bhk92rcd13ifvqgc0","pricing_plan_id":"cebpf4jnsgd1na2vs0mg"},{"bike_id":"4fa5b492-f1d6-4a2b-b7f4-b14458fbd35b","system_id":"levelo_inurba_marseille","lat":43.31331,"lon":5.39711,"is_reserved":false,"is_disabled":false,"rental_uris":{"android":"levelo://app?vid=4fa5b492-f1d6-4a2b-b7f4-b14458fbd35b","ios":"levelo://app?vid=4fa5b492-f1d6-4a2b-b7f4-b14458fbd35b"},"vehicle_type_id":"4","last_reported":1748585751,"current_range_meters":7200,"station_id":"ce4bgvp2rcd13ifvqcu0","pricing_plan_id":"cebpf4jnsgd1na2vs0mg"},{"bike_id":"faef4eb4-18ac-462d-b4ca-b66224371625","system_id":"levelo_inurba_marseille","lat":43.308035,"lon":5.435349,"is_reserved":false,"is_disabled":false,"rental_uris":{"android":"levelo://app?vid=faef4eb4-18ac-462d-b4ca-b66224371625","ios":"levelo://app?vid=faef4eb4-18ac-462d-b4ca-b66224371625"},"vehicle_type_id":"4","last_reported":1748585751,"current_range_meters":7200,"station_id":"ce4bhph2rcd13ifvqheg","pricing_plan_id":"cebpf4jnsgd1na2vs0mg"},{"bike_id":"956b6fae-56c8-4855-84db-9daa41ff5836","system_id":"levelo_inurba_marseille","lat":43.245462,"lon":5.395513,"is_reserved":false,"is_disabled":false,"rental_uris":{"android":"levelo://app?vid=956b6fae-56c8-4855-84db-9daa41ff5836","ios":"levelo://app?vid=956b6fae-56c8-4855-84db-9daa41ff5836"},"vehicle_type_id":"4","last_reported":1748585751,"current_range_meters":8000,"station_id":"ce4bhlp2rcd13ifvqgjg","pricing_plan_id":"cebpf4jnsgd1na2vs0mg"},{"bike_id":"bd3a474e-6db6-481d-adfd-f1df8f0e3a08","system_id":"levelo_inurba_marseille","lat":43.28405,"lon":5.37511,"is_reserved":false,"is_disabled":true,"rental_uris":{"android":"levelo://app?vid=bd3a474e-6db6-481d-adfd-f1df8f0e3a08","ios":"levelo://app?vid=bd3a474e-6db6-481d-adfd-f1df8f0e3a08"},"vehicle_type_id":"4","last_reported":1748585751,"current_range_meters":8000,"station_id":"ce4bh412rcd13ifvqds0","pricing_plan_id":"cebpf4jnsgd1na2vs0mg"},{"bike_id":"7f6b38d0-dcd2-4848-86a0-7b44e451f43f","system_id":"levelo_inurba_marseille","lat":43.276972,"lon":5.415398,"is_reserved":false,"is_disabled":false,"rental_uris":{"android":"levelo://app?vid=7f6b38d0-dcd2-4848-86a0-7b44e451f43f","ios":"levelo://app?vid=7f6b38d0-dcd2-4848-86a0-7b44e451f43f"},"vehicle_type_id":"4","last_reported":1748585751,"current_range_meters":8000,"station_id":"","pricing_plan_id":"cebpf4jnsgd1na2vs0mg"},{"bike_id":"c20cde3d-efa4-4792-85cb-bcd9537bb570","system_id":"levelo_inurba_marseille","lat":43.24177,"lon":5.3641,"is_reserved":false,"is_disabled":true,"rental_uris":{"android":"levelo://app?vid=c20cde3d-efa4-4792-85cb-bcd9537bb570","ios":"levelo://app?vid=c20cde3d-efa4-4792-85cb-bcd9537bb570"},"vehicle_type_id":"4","last_reported":1748585751,"current_range_meters":8000,"station_id":"cpo36qri1sfpv3e86is0","pricing_plan_id":"cebpf4jnsgd1na2vs0mg"},{"bike_id":"c0595c09-72f3-46b5-88be-5bad603ecb44","system_id":"levelo_inurba_marseille","lat":43.28855,"lon":5.39313,"is_reserved":false,"is_disabled":false,"rental_uris":{"android":"levelo://app?vid=c0595c09-72f3-46b5-88be-5bad603ecb44","ios":"levelo://app?vid=c0595c09-72f3-46b5-88be-5bad603ecb44"},"vehicle_type_id":"4","last_reported":1748585751,"current_range_meters":8000,"station_id":"ce4bh2p2rcd13ifvqdi0","pricing_plan_id":"cebpf4jnsgd1na2vs0mg"},{"bike_id":"ea32e7bb-bf59-4ecc-be1d-c146a2c5096c","system_id":"levelo_inurba_marseille","lat":43.296728,"lon":5.372816,"is_reserved":false,"is_disabled":false,"rental_uris":{"android":"levelo://app?vid=ea32e7bb-bf59-4ecc-be1d-c146a2c5096c","ios":"levelo://app?vid=ea32e7bb-bf59-4ecc-be1d-c146a2c5096c"},"vehicle_type_id":"4","last_reported":1748585751,"current_range_meters":8000,"station_id":"ce4bgk12rcd13ifvqbj0","pricing_plan_id":"cebpf4jnsgd1na2vs0mg"},{"bike_id":"f8ab7fe4-9032-412e-909f-7c4dc895cf48","system_id":"levelo_inurba_marseille","lat":43.26779,"lon":5.39419,"is_reserved":false,"is_disabled":false,"rental_uris":{"android":"levelo://app?vid=f8ab7fe4-9032-412e-909f-7c4dc895cf48","ios":"levelo://app?vid=f8ab7fe4-9032-412e-909f-7c4dc895cf48"},"vehicle_type_id":"4","last_reported":1748585751,"current_range_meters":7200,"station_id":"ce4bhh12rcd13ifvqfg0","pricing_plan_id":"cebpf4jnsgd1na2vs0mg"},{"bike_id":"ff2a370e-e43f-446f-93ec-b31861797423","system_id":"levelo_inurba_marseille","lat":43.282025,"lon":5.390295,"is_reserved":false,"is_disabled":true,"rental_uris":{"android":"levelo://app?vid=ff2a370e-e43f-446f-93ec-b31861797423","ios":"levelo://app?vid=ff2a370e-e43f-446f-93ec-b31861797423"},"vehicle_type_id":"4","last_reported":1748585751,"current_range_meters":8400,"station_id":"","pricing_plan_id":"cebpf4jnsgd1na2vs0mg"},{"bike_id":"a66565e0-7cf2-44c3-8a3f-e024cc3cf1e0","system_id":"levelo_inurba_marseille","lat":43.292517,"lon":5.376266,"is_reserved":false,"is_disabled":false,"rental_uris":{"android":"levelo://app?vid=a66565e0-7cf2-44c3-8a3f-e024cc3cf1e0","ios":"levelo://app?vid=a66565e0-7cf2-44c3-8a3f-e024cc3cf1e0"},"vehicle_type_id":"4","last_reported":1748585751,"current_range_meters":8400,"station_id":"ce4bgi12rcd13ifvqb80","pricing_plan_id":"cebpf4jnsgd1na2vs0mg"},{"bike_id":"c97c7aff-a44a-433f-b1e1-c4cf53d64484","system_id":"levelo_inurba_marseille","lat":43.27916,"lon":5.39583,"is_reserved":false,"is_disabled":false,"rental_uris":{"android":"levelo://app?vid=c97c7aff-a44a-433f-b1e1-c4cf53d64484","ios":"levelo://app?vid=c97c7aff-a44a-433f-b1e1-c4cf53d64484"},"vehicle_type_id":"4","last_reported":1748585751,"current_range_meters":8400,"station_id":"ce4bhf92rcd13ifvqf40","pricing_plan_id":"cebpf4jnsgd1na2vs0mg"},{"bike_id":"42dca157-bdb0-4361-8022-7979135f94aa","system_id":"levelo_inurba_marseille","lat":43.285681,"lon":5.365534,"is_reserved":false,"is_disabled":false,"rental_uris":{"android":"levelo://app?vid=42dca157-bdb0-4361-8022-7979135f94aa","ios":"levelo://app?vid=42dca157-bdb0-4361-8022-7979135f94aa"},"vehicle_type_id":"4","last_reported":1748585751,"current_range_meters":8400,"station_id":"","pricing_plan_id":"cebpf4jnsgd1na2vs0mg"},{"bike_id":"cbf3cf05-175c-44e7-967c-393836dacce2","system_id":"levelo_inurba_marseille","lat":43.305957,"lon":5.393443,"is_reserved":false,"is_disabled":false,"rental_uris":{"android":"levelo://app?vid=cbf3cf05-175c-44e7-967c-393836dacce2","ios":"levelo://app?vid=cbf3cf05-175c-44e7-967c-393836dacce2"},"vehicle_type_id":"4","last_reported":1748585751,"current_range_meters":8400,"station_id":"ce4bh0p2rcd13ifvqd80","pricing_plan_id":"cebpf4jnsgd1na2vs0mg"},{"bike_id":"0336b387-5859-40b9-80a1-1178d2ad5626","system_id":"levelo_inurba_marseille","lat":43.28134,"lon":5.4265,"is_reserved":false,"is_disabled":false,"rental_uris":{"android":"levelo://app?vid=0336b387-5859-40b9-80a1-1178d2ad5626","ios":"levelo://app?vid=0336b387-5859-40b9-80a1-1178d2ad5626"},"vehicle_type_id":"4","last_reported":1748585751,"current_range_meters":8400,"station_id":"ce4bhnh2rcd13ifvqgug","pricing_plan_id":"cebpf4jnsgd1na2vs0mg"},{"bike_id":"299bc464-0062-40b9-b8fd-94e53cb49a69","system_id":"levelo_inurba_marseille","lat":43.29768,"lon":5.377,"is_reserved":false,"is_disabled":false,"rental_uris":{"android":"levelo://app?vid=299bc464-0062-40b9-b8fd-94e53cb49a69","ios":"levelo://app?vid=299bc464-0062-40b9-b8fd-94e53cb49a69"},"vehicle_type_id":"4","last_reported":1748585751,"current_range_meters":8400,"station_id":"","pricing_plan_id":"cebpf4jnsgd1na2vs0mg"},{"bike_id":"aae5f7c7-b30a-474f-bb09-cb9f5f8f5101","system_id":"levelo_inurba_marseille","lat":43.2417,"lon":5.36397,"is_reserved":false,"is_disabled":false,"rental_uris":{"android":"levelo://app?vid=aae5f7c7-b30a-474f-bb09-cb9f5f8f5101","ios":"levelo://app?vid=aae5f7c7-b30a-474f-bb09-cb9f5f8f5101"},"vehicle_type_id":"4","last_reported":1748585751,"current_range_meters":8400,"station_id":"cpo36qri1sfpv3e86is0","pricing_plan_id":"cebpf4jnsgd1na2vs0mg"},{"bike_id":"279a10e7-e84b-43fd-983f-0a5dd993c8a0","system_id":"levelo_inurba_marseille","lat":43.281575,"lon":5.426709,"is_reserved":false,"is_disabled":false,"rental_uris":{"android":"levelo://app?vid=279a10e7-e84b-43fd-983f-0a5dd993c8a0","ios":"levelo://app?vid=279a10e7-e84b-43fd-983f-0a5dd993c8a0"},"vehicle_type_id":"4","last_reported":1748585751,"current_range_meters":8400,"station_id":"ce4bhnh2rcd13ifvqgug","pricing_plan_id":"cebpf4jnsgd1na2vs0mg"},{"bike_id":"85803271-88b9-406e-8ac7-cb7b38e46f8c","system_id":"levelo_inurba_marseille","lat":43.33021,"lon":5.39042,"is_reserved":false,"is_disabled":false,"rental_uris":{"android":"levelo://app?vid=85803271-88b9-406e-8ac7-cb7b38e46f8c","ios":"levelo://app?vid=85803271-88b9-406e-8ac7-cb7b38e46f8c"},"vehicle_type_id":"4","last_reported":1748585751,"current_range_meters":8000,"station_id":"ce4bhr92rcd13ifvqhrg","pricing_plan_id":"cebpf4jnsgd1na2vs0mg"},{"bike_id":"846430f4-bfb2-40a1-aab8-7ecef8a02a2d","system_id":"levelo_inurba_marseille","lat":43.26216,"lon":5.40453,"is_reserved":false,"is_disabled":true,"rental_uris":{"android":"levelo://app?vid=846430f4-bfb2-40a1-aab8-7ecef8a02a2d","ios":"levelo://app?vid=846430f4-bfb2-40a1-aab8-7ecef8a02a2d"},"vehicle_type_id":"4","last_reported":1748585751,"current_range_meters":8400,"station_id":"ce4bhmh2rcd13ifvqgmg","pricing_plan_id":"cebpf4jnsgd1na2vs0mg"},{"bike_id":"54e0c0f7-b8f3-48f3-a8b9-65efc0d1fd7c","system_id":"levelo_inurba_marseille","lat":43.312518,"lon":5.3679,"is_reserved":false,"is_disabled":false,"rental_uris":{"android":"levelo://app?vid=54e0c0f7-b8f3-48f3-a8b9-65efc0d1fd7c","ios":"levelo://app?vid=54e0c0f7-b8f3-48f3-a8b9-65efc0d1fd7c"},"vehicle_type_id":"4","last_reported":1748585751,"current_range_meters":8400,"station_id":"ce4bgr92rcd13ifvqc6g","pricing_plan_id":"cebpf4jnsgd1na2vs0mg"},{"bike_id":"84615e18-e2f0-47bb-b2d3-d90928f13ba0","system_id":"levelo_inurba_marseille","lat":43.305913,"lon":5.393623,"is_reserved":false,"is_disabled":false,"rental_uris":{"android":"levelo://app?vid=84615e18-e2f0-47bb-b2d3-d90928f13ba0","ios":"levelo://app?vid=84615e18-e2f0-47bb-b2d3-d90928f13ba0"},"vehicle_type_id":"4","last_reported":1748585751,"current_range_meters":8400,"station_id":"ce4bh0p2rcd13ifvqd80","pricing_plan_id":"cebpf4jnsgd1na2vs0mg"},{"bike_id":"0651e6a4-fc8e-46f5-9f60-21afecbc4679","system_id":"levelo_inurba_marseille","lat":43.30904,"lon":5.3721,"is_reserved":false,"is_disabled":false,"rental_uris":{"android":"levelo://app?vid=0651e6a4-fc8e-46f5-9f60-21afecbc4679","ios":"levelo://app?vid=0651e6a4-fc8e-46f5-9f60-21afecbc4679"},"vehicle_type_id":"4","last_reported":1748585751,"current_range_meters":8400,"station_id":"ce4bguh2rcd13ifvqckg","pricing_plan_id":"cebpf4jnsgd1na2vs0mg"},{"bike_id":"be9aa692-abb9-48ba-8254-ead15010a4db","system_id":"levelo_inurba_marseille","lat":43.29283,"lon":5.40134,"is_reserved":false,"is_disabled":false,"rental_uris":{"android":"levelo://app?vid=be9aa692-abb9-48ba-8254-ead15010a4db","ios":"levelo://app?vid=be9aa692-abb9-48ba-8254-ead15010a4db"},"vehicle_type_id":"4","last_reported":1748585751,"current_range_meters":8400,"station_id":"ce4bh312rcd13ifvqdk0","pricing_plan_id":"cebpf4jnsgd1na2vs0mg"},{"bike_id":"e2201cbe-9b60-4fcf-8b8c-02dcf0931510","system_id":"levelo_inurba_marseille","lat":43.302531,"lon":5.400864,"is_reserved":false,"is_disabled":false,"rental_uris":{"android":"levelo://app?vid=e2201cbe-9b60-4fcf-8b8c-02dcf0931510","ios":"levelo://app?vid=e2201cbe-9b60-4fcf-8b8c-02dcf0931510"},"vehicle_type_id":"4","last_reported":1748585751,"current_range_meters":8400,"station_id":"ce4bgvh2rcd13ifvqcs0","pricing_plan_id":"cebpf4jnsgd1na2vs0mg"},{"bike_id":"0e009545-9acc-491d-b143-22cbd0096db4","system_id":"levelo_inurba_marseille","lat":43.33806,"lon":5.39261,"is_reserved":false,"is_disabled":true,"rental_uris":{"android":"levelo://app?vid=0e009545-9acc-491d-b143-22cbd0096db4","ios":"levelo://app?vid=0e009545-9acc-491d-b143-22cbd0096db4"},"vehicle_type_id":"4","last_reported":1748585751,"current_range_meters":8800,"station_id":"","pricing_plan_id":"cebpf4jnsgd1na2vs0mg"},{"bike_id":"98ed824e-3a51-4080-b8ac-5a763a3f6886","system_id":"levelo_inurba_marseille","lat":43.30915,"lon":5.40155,"is_reserved":false,"is_disabled":false,"rental_uris":{"android":"levelo://app?vid=98ed824e-3a51-4080-b8ac-5a763a3f6886","ios":"levelo://app?vid=98ed824e-3a51-4080-b8ac-5a763a3f6886"},"vehicle_type_id":"4","last_reported":1748585751,"current_range_meters":8800,"station_id":"ce4bgvp2rcd13ifvqct0","pricing_plan_id":"cebpf4jnsgd1na2vs0mg"},{"bike_id":"ed1a6081-75be-44b2-a209-668e8f50f0aa","system_id":"levelo_inurba_marseille","lat":43.30655,"lon":5.40083,"is_reserved":false,"is_disabled":false,"rental_uris":{"android":"levelo://app?vid=ed1a6081-75be-44b2-a209-668e8f50f0aa","ios":"levelo://app?vid=ed1a6081-75be-44b2-a209-668e8f50f0aa"},"vehicle_type_id":"4","last_reported":1748585751,"current_range_meters":8800,"station_id":"ce4bh112rcd13ifvqda0","pricing_plan_id":"cebpf4jnsgd1na2vs0mg"},{"bike_id":"339f38b0-f75b-4455-bd41-33673ac56d64","system_id":"levelo_inurba_marseille","lat":43.309888,"lon":5.417253,"is_reserved":false,"is_disabled":false,"rental_uris":{"android":"levelo://app?vid=339f38b0-f75b-4455-bd41-33673ac56d64","ios":"levelo://app?vid=339f38b0-f75b-4455-bd41-33673ac56d64"},"vehicle_type_id":"4","last_reported":1748585751,"current_range_meters":8800,"station_id":"","pricing_plan_id":"cebpf4jnsgd1na2vs0mg"},{"bike_id":"f8bc173a-daa9-4ce4-a9bf-8100197dee35","system_id":"levelo_inurba_marseille","lat":43.31323,"lon":5.39723,"is_reserved":false,"is_disabled":false,"rental_uris":{"android":"levelo://app?vid=f8bc173a-daa9-4ce4-a9bf-8100197dee35","ios":"levelo://app?vid=f8bc173a-daa9-4ce4-a9bf-8100197dee35"},"vehicle_type_id":"4","last_reported":1748585751,"current_range_meters":8800,"station_id":"ce4bgvp2rcd13ifvqcu0","pricing_plan_id":"cebpf4jnsgd1na2vs0mg"},{"bike_id":"da279776-c099-4cdd-acd3-f802ffed4965","system_id":"levelo_inurba_marseille","lat":43.295454,"lon":5.422909,"is_reserved":false,"is_disabled":false,"rental_uris":{"android":"levelo://app?vid=da279776-c099-4cdd-acd3-f802ffed4965","ios":"levelo://app?vid=da279776-c099-4cdd-acd3-f802ffed4965"},"vehicle_type_id":"4","last_reported":1748585751,"current_range_meters":8800,"station_id":"ce4bhph2rcd13ifvqhdg","pricing_plan_id":"cebpf4jnsgd1na2vs0mg"},{"bike_id":"5a519813-f6ec-4fcd-9be7-b7b6b9061df5","system_id":"levelo_inurba_marseille","lat":43.299285,"lon":5.36552,"is_reserved":false,"is_disabled":false,"rental_uris":{"android":"levelo://app?vid=5a519813-f6ec-4fcd-9be7-b7b6b9061df5","ios":"levelo://app?vid=5a519813-f6ec-4fcd-9be7-b7b6b9061df5"},"vehicle_type_id":"4","last_reported":1748585751,"current_range_meters":8800,"station_id":"ce4bgm92rcd13ifvqbr0","pricing_plan_id":"cebpf4jnsgd1na2vs0mg"},{"bike_id":"08818466-c8d1-44f6-a5b1-b36755983432","system_id":"levelo_inurba_marseille","lat":43.320702,"lon":5.440924,"is_reserved":false,"is_disabled":false,"rental_uris":{"android":"levelo://app?vid=08818466-c8d1-44f6-a5b1-b36755983432","ios":"levelo://app?vid=08818466-c8d1-44f6-a5b1-b36755983432"},"vehicle_type_id":"4","last_reported":1748585751,"current_range_meters":8800,"station_id":"","pricing_plan_id":"cebpf4jnsgd1na2vs0mg"},{"bike_id":"c48b21be-a200-48c7-b6a5-2e7f96bd845a","system_id":"levelo_inurba_marseille","lat":43.29249,"lon":5.40899,"is_reserved":false,"is_disabled":false,"rental_uris":{"android":"levelo://app?vid=c48b21be-a200-48c7-b6a5-2e7f96bd845a","ios":"levelo://app?vid=c48b21be-a200-48c7-b6a5-2e7f96bd845a"},"vehicle_type_id":"4","last_reported":1748585751,"current_range_meters":8800,"station_id":"ce4bh192rcd13ifvqdc0","pricing_plan_id":"cebpf4jnsgd1na2vs0mg"},{"bike_id":"a9677dbc-4873-44e1-a436-f6f19cf345d4","system_id":"levelo_inurba_marseille","lat":43.29265,"lon":5.40133,"is_reserved":false,"is_disabled":false,"rental_uris":{"android":"levelo://app?vid=a9677dbc-4873-44e1-a436-f6f19cf345d4","ios":"levelo://app?vid=a9677dbc-4873-44e1-a436-f6f19cf345d4"},"vehicle_type_id":"4","last_reported":1748585751,"current_range_meters":9200,"station_id":"ce4bh312rcd13ifvqdk0","pricing_plan_id":"cebpf4jnsgd1na2vs0mg"},{"bike_id":"6ad5c3ef-6839-4e1c-9425-30e460d8bcf4","system_id":"levelo_inurba_marseille","lat":43.31177,"lon":5.38705,"is_reserved":false,"is_disabled":false,"rental_uris":{"android":"levelo://app?vid=6ad5c3ef-6839-4e1c-9425-30e460d8bcf4","ios":"levelo://app?vid=6ad5c3ef-6839-4e1c-9425-30e460d8bcf4"},"vehicle_type_id":"4","last_reported":1748585751,"current_range_meters":9200,"station_id":"ce4bgv12rcd13ifvqcp0","pricing_plan_id":"cebpf4jnsgd1na2vs0mg"},{"bike_id":"42457cf4-066b-4e99-be8a-c611cdb501b2","system_id":"levelo_inurba_marseille","lat":43.23329,"lon":5.36146,"is_reserved":false,"is_disabled":false,"rental_uris":{"android":"levelo://app?vid=42457cf4-066b-4e99-be8a-c611cdb501b2","ios":"levelo://app?vid=42457cf4-066b-4e99-be8a-c611cdb501b2"},"vehicle_type_id":"4","last_reported":1748585751,"current_range_meters":9200,"station_id":"","pricing_plan_id":"cebpf4jnsgd1na2vs0mg"},{"bike_id":"7203405e-5726-470e-b6e7-416d2f1da43a","system_id":"levelo_inurba_marseille","lat":43.28425,"lon":5.37517,"is_reserved":false,"is_disabled":false,"rental_uris":{"android":"levelo://app?vid=7203405e-5726-470e-b6e7-416d2f1da43a","ios":"levelo://app?vid=7203405e-5726-470e-b6e7-416d2f1da43a"},"vehicle_type_id":"4","last_reported":1748585751,"current_range_meters":9200,"station_id":"ce4bh412rcd13ifvqds0","pricing_plan_id":"cebpf4jnsgd1na2vs0mg"},{"bike_id":"b0281835-9723-4509-ae81-eaa1f1eb11df","system_id":"levelo_inurba_marseille","lat":43.3089,"lon":5.3967,"is_reserved":false,"is_disabled":false,"rental_uris":{"android":"levelo://app?vid=b0281835-9723-4509-ae81-eaa1f1eb11df","ios":"levelo://app?vid=b0281835-9723-4509-ae81-eaa1f1eb11df"},"vehicle_type_id":"4","last_reported":1748585751,"current_range_meters":9200,"station_id":"ce4bh012rcd13ifvqcv0","pricing_plan_id":"cebpf4jnsgd1na2vs0mg"},{"bike_id":"00f77637-c960-45d0-b516-a2f6a0285858","system_id":"levelo_inurba_marseille","lat":43.29727,"lon":5.38535,"is_reserved":false,"is_disabled":false,"rental_uris":{"android":"levelo://app?vid=00f77637-c960-45d0-b516-a2f6a0285858","ios":"levelo://app?vid=00f77637-c960-45d0-b516-a2f6a0285858"},"vehicle_type_id":"4","last_reported":1748585751,"current_range_meters":9200,"station_id":"","pricing_plan_id":"cebpf4jnsgd1na2vs0mg"},{"bike_id":"64864384-5888-49d8-b447-ac40385fe3be","system_id":"levelo_inurba_marseille","lat":43.31092,"lon":5.42427,"is_reserved":false,"is_disabled":false,"rental_uris":{"android":"levelo://app?vid=64864384-5888-49d8-b447-ac40385fe3be","ios":"levelo://app?vid=64864384-5888-49d8-b447-ac40385fe3be"},"vehicle_type_id":"4","last_reported":1748585751,"current_range_meters":9200,"station_id":"ce4bhp92rcd13ifvqhag","pricing_plan_id":"cebpf4jnsgd1na2vs0mg"},{"bike_id":"2e1f9dd1-9cf3-4ecd-933e-eb0930ee47df","system_id":"levelo_inurba_marseille","lat":43.30897,"lon":5.39612,"is_reserved":false,"is_disabled":false,"rental_uris":{"android":"levelo://app?vid=2e1f9dd1-9cf3-4ecd-933e-eb0930ee47df","ios":"levelo://app?vid=2e1f9dd1-9cf3-4ecd-933e-eb0930ee47df"},"vehicle_type_id":"4","last_reported":1748585751,"current_range_meters":9200,"station_id":"ce4bh012rcd13ifvqcv0","pricing_plan_id":"cebpf4jnsgd1na2vs0mg"},{"bike_id":"9645fd54-db8d-4cf3-9341-8f046247c936","system_id":"levelo_inurba_marseille","lat":43.265554,"lon":5.390085,"is_reserved":false,"is_disabled":false,"rental_uris":{"android":"levelo://app?vid=9645fd54-db8d-4cf3-9341-8f046247c936","ios":"levelo://app?vid=9645fd54-db8d-4cf3-9341-8f046247c936"},"vehicle_type_id":"4","last_reported":1748585751,"current_range_meters":9200,"station_id":"ce4bhe12rcd13ifvqf30","pricing_plan_id":"cebpf4jnsgd1na2vs0mg"},{"bike_id":"fd5e4507-6c10-403b-acb1-87b9af7e800b","system_id":"levelo_inurba_marseille","lat":43.2572,"lon":5.41124,"is_reserved":false,"is_disabled":false,"rental_uris":{"android":"levelo://app?vid=fd5e4507-6c10-403b-acb1-87b9af7e800b","ios":"levelo://app?vid=fd5e4507-6c10-403b-acb1-87b9af7e800b"},"vehicle_type_id":"4","last_reported":1748585751,"current_range_meters":9600,"station_id":"ce4bhkp2rcd13ifvqgd0","pricing_plan_id":"cebpf4jnsgd1na2vs0mg"},{"bike_id":"438d1ea3-5c8f-4d35-9360-e6d605c5cfb2","system_id":"levelo_inurba_marseille","lat":43.24678,"lon":5.38158,"is_reserved":false,"is_disabled":false,"rental_uris":{"android":"levelo://app?vid=438d1ea3-5c8f-4d35-9360-e6d605c5cfb2","ios":"levelo://app?vid=438d1ea3-5c8f-4d35-9360-e6d605c5cfb2"},"vehicle_type_id":"4","last_reported":1748585751,"current_range_meters":9600,"station_id":"ce4bhih2rcd13ifvqfr0","pricing_plan_id":"cebpf4jnsgd1na2vs0mg"},{"bike_id":"f8ec9d78-7e62-4248-a76e-af09b5d3a770","system_id":"levelo_inurba_marseille","lat":43.29272,"lon":5.40922,"is_reserved":false,"is_disabled":false,"rental_uris":{"android":"levelo://app?vid=f8ec9d78-7e62-4248-a76e-af09b5d3a770","ios":"levelo://app?vid=f8ec9d78-7e62-4248-a76e-af09b5d3a770"},"vehicle_type_id":"4","last_reported":1748585751,"current_range_meters":9600,"station_id":"ce4bh192rcd13ifvqdc0","pricing_plan_id":"cebpf4jnsgd1na2vs0mg"},{"bike_id":"b0f67d6d-3250-42ef-8f19-4e74e6760f9a","system_id":"levelo_inurba_marseille","lat":43.344004,"lon":5.381455,"is_reserved":false,"is_disabled":false,"rental_uris":{"android":"levelo://app?vid=b0f67d6d-3250-42ef-8f19-4e74e6760f9a","ios":"levelo://app?vid=b0f67d6d-3250-42ef-8f19-4e74e6760f9a"},"vehicle_type_id":"4","last_reported":1748585751,"current_range_meters":9600,"station_id":"","pricing_plan_id":"cebpf4jnsgd1na2vs0mg"},{"bike_id":"d2efc7ef-e8cf-48f9-9e09-ac995bd4b4ef","system_id":"levelo_inurba_marseille","lat":43.28492,"lon":5.38417,"is_reserved":false,"is_disabled":false,"rental_uris":{"android":"levelo://app?vid=d2efc7ef-e8cf-48f9-9e09-ac995bd4b4ef","ios":"levelo://app?vid=d2efc7ef-e8cf-48f9-9e09-ac995bd4b4ef"},"vehicle_type_id":"4","last_reported":1748585751,"current_range_meters":9600,"station_id":"ce4bh512rcd13ifvqe3g","pricing_plan_id":"cebpf4jnsgd1na2vs0mg"},{"bike_id":"686ed4f1-6951-4fef-8cd5-5f765f30a155","system_id":"levelo_inurba_marseille","lat":43.27969,"lon":5.3871,"is_reserved":false,"is_disabled":false,"rental_uris":{"android":"levelo://app?vid=686ed4f1-6951-4fef-8cd5-5f765f30a155","ios":"levelo://app?vid=686ed4f1-6951-4fef-8cd5-5f765f30a155"},"vehicle_type_id":"4","last_reported":1748585751,"current_range_meters":9600,"station_id":"ce4bhg12rcd13ifvqf80","pricing_plan_id":"cebpf4jnsgd1na2vs0mg"},{"bike_id":"572f964a-6e64-4c5e-b089-ce909a800028","system_id":"levelo_inurba_marseille","lat":43.292731,"lon":5.401481,"is_reserved":false,"is_disabled":false,"rental_uris":{"android":"levelo://app?vid=572f964a-6e64-4c5e-b089-ce909a800028","ios":"levelo://app?vid=572f964a-6e64-4c5e-b089-ce909a800028"},"vehicle_type_id":"4","last_reported":1748585751,"current_range_meters":9600,"station_id":"ce4bh312rcd13ifvqdk0","pricing_plan_id":"cebpf4jnsgd1na2vs0mg"},{"bike_id":"c666405f-462c-40b6-aad2-05c3e84c9054","system_id":"levelo_inurba_marseille","lat":43.2417,"lon":5.36426,"is_reserved":false,"is_disabled":false,"rental_uris":{"android":"levelo://app?vid=c666405f-462c-40b6-aad2-05c3e84c9054","ios":"levelo://app?vid=c666405f-462c-40b6-aad2-05c3e84c9054"},"vehicle_type_id":"4","last_reported":1748585751,"current_range_meters":9600,"station_id":"cpo36qri1sfpv3e86is0","pricing_plan_id":"cebpf4jnsgd1na2vs0mg"},{"bike_id":"a426f99b-d34a-41bf-bbda-59f7dfd6939b","system_id":"levelo_inurba_marseille","lat":43.255796,"lon":5.382262,"is_reserved":false,"is_disabled":false,"rental_uris":{"android":"levelo://app?vid=a426f99b-d34a-41bf-bbda-59f7dfd6939b","ios":"levelo://app?vid=a426f99b-d34a-41bf-bbda-59f7dfd6939b"},"vehicle_type_id":"4","last_reported":1748585751,"current_range_meters":10000,"station_id":"ce501612rcd8frsf0b60","pricing_plan_id":"cebpf4jnsgd1na2vs0mg"},{"bike_id":"73347e41-dc3a-4a81-a49d-8afd60abbf88","system_id":"levelo_inurba_marseille","lat":43.25099,"lon":5.40331,"is_reserved":false,"is_disabled":false,"rental_uris":{"android":"levelo://app?vid=73347e41-dc3a-4a81-a49d-8afd60abbf88","ios":"levelo://app?vid=73347e41-dc3a-4a81-a49d-8afd60abbf88"},"vehicle_type_id":"4","last_reported":1748585751,"current_range_meters":10000,"station_id":"ce4bhlh2rcd13ifvqgig","pricing_plan_id":"cebpf4jnsgd1na2vs0mg"},{"bike_id":"f5733814-9732-4748-bcc9-3b2fac8e1564","system_id":"levelo_inurba_marseille","lat":43.31256,"lon":5.37829,"is_reserved":false,"is_disabled":false,"rental_uris":{"android":"levelo://app?vid=f5733814-9732-4748-bcc9-3b2fac8e1564","ios":"levelo://app?vid=f5733814-9732-4748-bcc9-3b2fac8e1564"},"vehicle_type_id":"4","last_reported":1748585751,"current_range_meters":10000,"station_id":"","pricing_plan_id":"cebpf4jnsgd1na2vs0mg"},{"bike_id":"9106b7cd-70ae-456d-906e-062a4ff9165b","system_id":"levelo_inurba_marseille","lat":43.330186,"lon":5.394469,"is_reserved":false,"is_disabled":false,"rental_uris":{"android":"levelo://app?vid=9106b7cd-70ae-456d-906e-062a4ff9165b","ios":"levelo://app?vid=9106b7cd-70ae-456d-906e-062a4ff9165b"},"vehicle_type_id":"4","last_reported":1748585751,"current_range_meters":10000,"station_id":"","pricing_plan_id":"cebpf4jnsgd1na2vs0mg"},{"bike_id":"5c8310d7-7597-468d-8258-9640cba23bf9","system_id":"levelo_inurba_marseille","lat":43.284886,"lon":5.384501,"is_reserved":false,"is_disabled":true,"rental_uris":{"android":"levelo://app?vid=5c8310d7-7597-468d-8258-9640cba23bf9","ios":"levelo://app?vid=5c8310d7-7597-468d-8258-9640cba23bf9"},"vehicle_type_id":"4","last_reported":1748585751,"current_range_meters":10000,"station_id":"ce4bh512rcd13ifvqe3g","pricing_plan_id":"cebpf4jnsgd1na2vs0mg"},{"bike_id":"cd438c88-7f17-4c01-b238-d05b58df7798","system_id":"levelo_inurba_marseille","lat":43.279711,"lon":5.387448,"is_reserved":false,"is_disabled":false,"rental_uris":{"android":"levelo://app?vid=cd438c88-7f17-4c01-b238-d05b58df7798","ios":"levelo://app?vid=cd438c88-7f17-4c01-b238-d05b58df7798"},"vehicle_type_id":"4","last_reported":1748585751,"current_range_meters":10000,"station_id":"ce4bhg12rcd13ifvqf80","pricing_plan_id":"cebpf4jnsgd1na2vs0mg"},{"bike_id":"f8d26ebd-9168-41c8-9f49-36e1a1965f63","system_id":"levelo_inurba_marseille","lat":43.29885,"lon":5.43679,"is_reserved":false,"is_disabled":false,"rental_uris":{"android":"levelo://app?vid=f8d26ebd-9168-41c8-9f49-36e1a1965f63","ios":"levelo://app?vid=f8d26ebd-9168-41c8-9f49-36e1a1965f63"},"vehicle_type_id":"4","last_reported":1748585751,"current_range_meters":10000,"station_id":"ce4bhpp2rcd13ifvqhfg","pricing_plan_id":"cebpf4jnsgd1na2vs0mg"},{"bike_id":"c3708d46-6d3f-473e-a7dd-aaed7b1ccfcb","system_id":"levelo_inurba_marseille","lat":43.281017,"lon":5.378437,"is_reserved":false,"is_disabled":false,"rental_uris":{"android":"levelo://app?vid=c3708d46-6d3f-473e-a7dd-aaed7b1ccfcb","ios":"levelo://app?vid=c3708d46-6d3f-473e-a7dd-aaed7b1ccfcb"},"vehicle_type_id":"4","last_reported":1748585751,"current_range_meters":10000,"station_id":"ce4bha12rcd13ifvqee0","pricing_plan_id":"cebpf4jnsgd1na2vs0mg"},{"bike_id":"9656913e-5d0a-47f7-b654-a4bd8d02350a","system_id":"levelo_inurba_marseille","lat":43.29276,"lon":5.40137,"is_reserved":false,"is_disabled":false,"rental_uris":{"android":"levelo://app?vid=9656913e-5d0a-47f7-b654-a4bd8d02350a","ios":"levelo://app?vid=9656913e-5d0a-47f7-b654-a4bd8d02350a"},"vehicle_type_id":"4","last_reported":1748585751,"current_range_meters":10000,"station_id":"ce4bh312rcd13ifvqdk0","pricing_plan_id":"cebpf4jnsgd1na2vs0mg"},{"bike_id":"3aca9d89-7c6e-4143-a32d-6ac070d7f9ea","system_id":"levelo_inurba_marseille","lat":43.30246,"lon":5.400606,"is_reserved":false,"is_disabled":false,"rental_uris":{"android":"levelo://app?vid=3aca9d89-7c6e-4143-a32d-6ac070d7f9ea","ios":"levelo://app?vid=3aca9d89-7c6e-4143-a32d-6ac070d7f9ea"},"vehicle_type_id":"4","last_reported":1748585751,"current_range_meters":10000,"station_id":"ce4bgvh2rcd13ifvqcs0","pricing_plan_id":"cebpf4jnsgd1na2vs0mg"},{"bike_id":"cc36bf8e-c4fd-4edb-8e2f-f3e1fdb01728","system_id":"levelo_inurba_marseille","lat":43.31181,"lon":5.4076,"is_reserved":false,"is_disabled":false,"rental_uris":{"android":"levelo://app?vid=cc36bf8e-c4fd-4edb-8e2f-f3e1fdb01728","ios":"levelo://app?vid=cc36bf8e-c4fd-4edb-8e2f-f3e1fdb01728"},"vehicle_type_id":"4","last_reported":1748585751,"current_range_meters":10800,"station_id":"","pricing_plan_id":"cebpf4jnsgd1na2vs0mg"},{"bike_id":"332ff066-7345-459c-849e-2d981712257f","system_id":"levelo_inurba_marseille","lat":43.2994,"lon":5.36549,"is_reserved":false,"is_disabled":false,"rental_uris":{"android":"levelo://app?vid=332ff066-7345-459c-849e-2d981712257f","ios":"levelo://app?vid=332ff066-7345-459c-849e-2d981712257f"},"vehicle_type_id":"4","last_reported":1748585751,"current_range_meters":10800,"station_id":"ce4bgm92rcd13ifvqbr0","pricing_plan_id":"cebpf4jnsgd1na2vs0mg"},{"bike_id":"dddeb80d-3057-46be-833d-4a0c2415e343","system_id":"levelo_inurba_marseille","lat":43.319953,"lon":5.381417,"is_reserved":false,"is_disabled":false,"rental_uris":{"android":"levelo://app?vid=dddeb80d-3057-46be-833d-4a0c2415e343","ios":"levelo://app?vid=dddeb80d-3057-46be-833d-4a0c2415e343"},"vehicle_type_id":"4","last_reported":1748585751,"current_range_meters":10800,"station_id":"ce4bhr12rcd13ifvqhpg","pricing_plan_id":"cebpf4jnsgd1na2vs0mg"},{"bike_id":"9a2b612c-527d-44fe-b45e-6d3c52d64fdc","system_id":"levelo_inurba_marseille","lat":43.28358,"lon":5.38112,"is_reserved":false,"is_disabled":false,"rental_uris":{"android":"levelo://app?vid=9a2b612c-527d-44fe-b45e-6d3c52d64fdc","ios":"levelo://app?vid=9a2b612c-527d-44fe-b45e-6d3c52d64fdc"},"vehicle_type_id":"4","last_reported":1748585751,"current_range_meters":10800,"station_id":"ce4bh412rcd13ifvqdr0","pricing_plan_id":"cebpf4jnsgd1na2vs0mg"},{"bike_id":"b1070e7a-8a40-475b-91ea-d34046de595b","system_id":"levelo_inurba_marseille","lat":43.27934,"lon":5.38771,"is_reserved":false,"is_disabled":false,"rental_uris":{"android":"levelo://app?vid=b1070e7a-8a40-475b-91ea-d34046de595b","ios":"levelo://app?vid=b1070e7a-8a40-475b-91ea-d34046de595b"},"vehicle_type_id":"4","last_reported":1748585751,"current_range_meters":10800,"station_id":"ce4bhg12rcd13ifvqf80","pricing_plan_id":"cebpf4jnsgd1na2vs0mg"},{"bike_id":"a0733277-9572-4c49-b86b-a255c71a8787","system_id":"levelo_inurba_marseille","lat":43.271942,"lon":5.410001,"is_reserved":false,"is_disabled":false,"rental_uris":{"android":"levelo://app?vid=a0733277-9572-4c49-b86b-a255c71a8787","ios":"levelo://app?vid=a0733277-9572-4c49-b86b-a255c71a8787"},"vehicle_type_id":"4","last_reported":1748585751,"current_range_meters":10800,"station_id":"ce4bhl12rcd13ifvqgf0","pricing_plan_id":"cebpf4jnsgd1na2vs0mg"},{"bike_id":"1be21534-ca7b-4f38-8bff-a7515afc85f6","system_id":"levelo_inurba_marseille","lat":43.248047,"lon":5.374622,"is_reserved":false,"is_disabled":false,"rental_uris":{"android":"levelo://app?vid=1be21534-ca7b-4f38-8bff-a7515afc85f6","ios":"levelo://app?vid=1be21534-ca7b-4f38-8bff-a7515afc85f6"},"vehicle_type_id":"4","last_reported":1748585751,"current_range_meters":10800,"station_id":"ce4bhgh2rcd13ifvqfb0","pricing_plan_id":"cebpf4jnsgd1na2vs0mg"},{"bike_id":"81dedcf5-3b05-43e1-add4-e5585c2ab925","system_id":"levelo_inurba_marseille","lat":43.24812,"lon":5.3746,"is_reserved":false,"is_disabled":true,"rental_uris":{"android":"levelo://app?vid=81dedcf5-3b05-43e1-add4-e5585c2ab925","ios":"levelo://app?vid=81dedcf5-3b05-43e1-add4-e5585c2ab925"},"vehicle_type_id":"4","last_reported":1748585751,"current_range_meters":10800,"station_id":"ce4bhgh2rcd13ifvqfb0","pricing_plan_id":"cebpf4jnsgd1na2vs0mg"},{"bike_id":"3cd9ded2-027b-4023-b70f-0cbbb98ccb35","system_id":"levelo_inurba_marseille","lat":43.27208,"lon":5.39166,"is_reserved":false,"is_disabled":false,"rental_uris":{"android":"levelo://app?vid=3cd9ded2-027b-4023-b70f-0cbbb98ccb35","ios":"levelo://app?vid=3cd9ded2-027b-4023-b70f-0cbbb98ccb35"},"vehicle_type_id":"4","last_reported":1748585751,"current_range_meters":10800,"station_id":"ce4bhhp2rcd13ifvqfm0","pricing_plan_id":"cebpf4jnsgd1na2vs0mg"},{"bike_id":"f33ccc5f-3a44-40ad-8216-30018004066d","system_id":"levelo_inurba_marseille","lat":43.30783,"lon":5.37662,"is_reserved":false,"is_disabled":false,"rental_uris":{"android":"levelo://app?vid=f33ccc5f-3a44-40ad-8216-30018004066d","ios":"levelo://app?vid=f33ccc5f-3a44-40ad-8216-30018004066d"},"vehicle_type_id":"4","last_reported":1748585751,"current_range_meters":10800,"station_id":"ce4bgv92rcd13ifvqcq0","pricing_plan_id":"cebpf4jnsgd1na2vs0mg"},{"bike_id":"72248e32-616d-4c01-8c01-acbec0f57485","system_id":"levelo_inurba_marseille","lat":43.310796,"lon":5.424366,"is_reserved":false,"is_disabled":false,"rental_uris":{"android":"levelo://app?vid=72248e32-616d-4c01-8c01-acbec0f57485","ios":"levelo://app?vid=72248e32-616d-4c01-8c01-acbec0f57485"},"vehicle_type_id":"4","last_reported":1748585751,"current_range_meters":11200,"station_id":"ce4bhp92rcd13ifvqhag","pricing_plan_id":"cebpf4jnsgd1na2vs0mg"},{"bike_id":"0dc000bd-368c-4c59-a0e5-9ddd5a5b10f3","system_id":"levelo_inurba_marseille","lat":43.323348,"lon":5.406122,"is_reserved":false,"is_disabled":true,"rental_uris":{"android":"levelo://app?vid=0dc000bd-368c-4c59-a0e5-9ddd5a5b10f3","ios":"levelo://app?vid=0dc000bd-368c-4c59-a0e5-9ddd5a5b10f3"},"vehicle_type_id":"4","last_reported":1748585751,"current_range_meters":11200,"station_id":"ce4bhq92rcd13ifvqhjg","pricing_plan_id":"cebpf4jnsgd1na2vs0mg"},{"bike_id":"25f58006-0670-4b9b-9a5d-81321b2ee4c3","system_id":"levelo_inurba_marseille","lat":43.287077,"lon":5.399849,"is_reserved":false,"is_disabled":false,"rental_uris":{"android":"levelo://app?vid=25f58006-0670-4b9b-9a5d-81321b2ee4c3","ios":"levelo://app?vid=25f58006-0670-4b9b-9a5d-81321b2ee4c3"},"vehicle_type_id":"4","last_reported":1748585751,"current_range_meters":11200,"station_id":"ce4bho92rcd13ifvqh3g","pricing_plan_id":"cebpf4jnsgd1na2vs0mg"},{"bike_id":"e044c9db-ce02-4ecf-bf86-8eaa46f9c414","system_id":"levelo_inurba_marseille","lat":43.25705,"lon":5.39141,"is_reserved":false,"is_disabled":false,"rental_uris":{"android":"levelo://app?vid=e044c9db-ce02-4ecf-bf86-8eaa46f9c414","ios":"levelo://app?vid=e044c9db-ce02-4ecf-bf86-8eaa46f9c414"},"vehicle_type_id":"4","last_reported":1748585751,"current_range_meters":11200,"station_id":"","pricing_plan_id":"cebpf4jnsgd1na2vs0mg"},{"bike_id":"a4b76fe5-7bf0-4f86-b675-67301c06e06d","system_id":"levelo_inurba_marseille","lat":43.25004,"lon":5.38936,"is_reserved":false,"is_disabled":false,"rental_uris":{"android":"levelo://app?vid=a4b76fe5-7bf0-4f86-b675-67301c06e06d","ios":"levelo://app?vid=a4b76fe5-7bf0-4f86-b675-67301c06e06d"},"vehicle_type_id":"4","last_reported":1748585751,"current_range_meters":11200,"station_id":"ce4bhgp2rcd13ifvqfd0","pricing_plan_id":"cebpf4jnsgd1na2vs0mg"},{"bike_id":"f3e39458-f11e-4115-b908-f93194cd8f31","system_id":"levelo_inurba_marseille","lat":43.28571,"lon":5.39492,"is_reserved":false,"is_disabled":false,"rental_uris":{"android":"levelo://app?vid=f3e39458-f11e-4115-b908-f93194cd8f31","ios":"levelo://app?vid=f3e39458-f11e-4115-b908-f93194cd8f31"},"vehicle_type_id":"4","last_reported":1748585751,"current_range_meters":11200,"station_id":"ce4bh292rcd13ifvqdg0","pricing_plan_id":"cebpf4jnsgd1na2vs0mg"},{"bike_id":"c6db7724-9a49-416b-8d08-0ca0825c616e","system_id":"levelo_inurba_marseille","lat":43.30925,"lon":5.40147,"is_reserved":false,"is_disabled":false,"rental_uris":{"android":"levelo://app?vid=c6db7724-9a49-416b-8d08-0ca0825c616e","ios":"levelo://app?vid=c6db7724-9a49-416b-8d08-0ca0825c616e"},"vehicle_type_id":"4","last_reported":1748585751,"current_range_meters":11200,"station_id":"ce4bgvp2rcd13ifvqct0","pricing_plan_id":"cebpf4jnsgd1na2vs0mg"},{"bike_id":"ccc732c7-811b-474b-ac0d-78eb7f3eba2f","system_id":"levelo_inurba_marseille","lat":43.29641,"lon":5.37165,"is_reserved":false,"is_disabled":false,"rental_uris":{"android":"levelo://app?vid=ccc732c7-811b-474b-ac0d-78eb7f3eba2f","ios":"levelo://app?vid=ccc732c7-811b-474b-ac0d-78eb7f3eba2f"},"vehicle_type_id":"4","last_reported":1748585751,"current_range_meters":11200,"station_id":"ce4bgnh2rcd13ifvqc0g","pricing_plan_id":"cebpf4jnsgd1na2vs0mg"},{"bike_id":"d3a84a41-b9d5-4965-ad67-4b3dca68337a","system_id":"levelo_inurba_marseille","lat":43.27675,"lon":5.38878,"is_reserved":false,"is_disabled":false,"rental_uris":{"android":"levelo://app?vid=d3a84a41-b9d5-4965-ad67-4b3dca68337a","ios":"levelo://app?vid=d3a84a41-b9d5-4965-ad67-4b3dca68337a"},"vehicle_type_id":"4","last_reported":1748585751,"current_range_meters":11200,"station_id":"ce4bhi12rcd13ifvqfo0","pricing_plan_id":"cebpf4jnsgd1na2vs0mg"},{"bike_id":"46410aa1-20b8-47ef-bef1-e5ba1cef6b3a","system_id":"levelo_inurba_marseille","lat":43.29886,"lon":5.39735,"is_reserved":false,"is_disabled":false,"rental_uris":{"android":"levelo://app?vid=46410aa1-20b8-47ef-bef1-e5ba1cef6b3a","ios":"levelo://app?vid=46410aa1-20b8-47ef-bef1-e5ba1cef6b3a"},"vehicle_type_id":"4","last_reported":1748585751,"current_range_meters":11200,"station_id":"ce4bh0h2rcd13ifvqd50","pricing_plan_id":"cebpf4jnsgd1na2vs0mg"},{"bike_id":"e9cda520-c6f4-465d-ad7f-8c059b3dc45a","system_id":"levelo_inurba_marseille","lat":43.313967,"lon":5.383993,"is_reserved":false,"is_disabled":false,"rental_uris":{"android":"levelo://app?vid=e9cda520-c6f4-465d-ad7f-8c059b3dc45a","ios":"levelo://app?vid=e9cda520-c6f4-465d-ad7f-8c059b3dc45a"},"vehicle_type_id":"4","last_reported":1748585751,"current_range_meters":11200,"station_id":"","pricing_plan_id":"cebpf4jnsgd1na2vs0mg"},{"bike_id":"d7f1c75d-958d-4305-a2f7-b70acbe0c642","system_id":"levelo_inurba_marseille","lat":43.30928,"lon":5.40122,"is_reserved":false,"is_disabled":false,"rental_uris":{"android":"levelo://app?vid=d7f1c75d-958d-4305-a2f7-b70acbe0c642","ios":"levelo://app?vid=d7f1c75d-958d-4305-a2f7-b70acbe0c642"},"vehicle_type_id":"4","last_reported":1748585751,"current_range_meters":11200,"station_id":"ce4bgvp2rcd13ifvqct0","pricing_plan_id":"cebpf4jnsgd1na2vs0mg"},{"bike_id":"3ce395fd-7389-4f2f-9662-733b290a489c","system_id":"levelo_inurba_marseille","lat":43.30383,"lon":5.425,"is_reserved":false,"is_disabled":true,"rental_uris":{"android":"levelo://app?vid=3ce395fd-7389-4f2f-9662-733b290a489c","ios":"levelo://app?vid=3ce395fd-7389-4f2f-9662-733b290a489c"},"vehicle_type_id":"4","last_reported":1748585751,"current_range_meters":11200,"station_id":"ce4bhoh2rcd13ifvqh6g","pricing_plan_id":"cebpf4jnsgd1na2vs0mg"},{"bike_id":"0d021fa5-f24c-4d64-a714-3c7445f5e8d8","system_id":"levelo_inurba_marseille","lat":43.283501,"lon":5.381034,"is_reserved":false,"is_disabled":false,"rental_uris":{"android":"levelo://app?vid=0d021fa5-f24c-4d64-a714-3c7445f5e8d8","ios":"levelo://app?vid=0d021fa5-f24c-4d64-a714-3c7445f5e8d8"},"vehicle_type_id":"4","last_reported":1748585751,"current_range_meters":11200,"station_id":"ce4bh412rcd13ifvqdr0","pricing_plan_id":"cebpf4jnsgd1na2vs0mg"},{"bike_id":"e6fd2ca1-d968-4e6d-950a-3de70295f052","system_id":"levelo_inurba_marseille","lat":43.28416,"lon":5.34971,"is_reserved":false,"is_disabled":false,"rental_uris":{"android":"levelo://app?vid=e6fd2ca1-d968-4e6d-950a-3de70295f052","ios":"levelo://app?vid=e6fd2ca1-d968-4e6d-950a-3de70295f052"},"vehicle_type_id":"4","last_reported":1748585751,"current_range_meters":11200,"station_id":"ce4bhbh2rcd13ifvqepg","pricing_plan_id":"cebpf4jnsgd1na2vs0mg"},{"bike_id":"6530242f-b0b0-4481-a762-bfc24a4d29eb","system_id":"levelo_inurba_marseille","lat":43.2467,"lon":5.38179,"is_reserved":false,"is_disabled":false,"rental_uris":{"android":"levelo://app?vid=6530242f-b0b0-4481-a762-bfc24a4d29eb","ios":"levelo://app?vid=6530242f-b0b0-4481-a762-bfc24a4d29eb"},"vehicle_type_id":"4","last_reported":1748585751,"current_range_meters":11600,"station_id":"ce4bhih2rcd13ifvqfr0","pricing_plan_id":"cebpf4jnsgd1na2vs0mg"},{"bike_id":"1a033729-7d76-4cd7-b553-fd0ee867bce4","system_id":"levelo_inurba_marseille","lat":43.30961,"lon":5.39045,"is_reserved":false,"is_disabled":false,"rental_uris":{"android":"levelo://app?vid=1a033729-7d76-4cd7-b553-fd0ee867bce4","ios":"levelo://app?vid=1a033729-7d76-4cd7-b553-fd0ee867bce4"},"vehicle_type_id":"4","last_reported":1748585751,"current_range_meters":11600,"station_id":"ce4bgup2rcd13ifvqco0","pricing_plan_id":"cebpf4jnsgd1na2vs0mg"},{"bike_id":"bc814b90-a2ac-4742-9a61-3655db91e805","system_id":"levelo_inurba_marseille","lat":43.29276,"lon":5.40905,"is_reserved":false,"is_disabled":false,"rental_uris":{"android":"levelo://app?vid=bc814b90-a2ac-4742-9a61-3655db91e805","ios":"levelo://app?vid=bc814b90-a2ac-4742-9a61-3655db91e805"},"vehicle_type_id":"4","last_reported":1748585751,"current_range_meters":11600,"station_id":"ce4bh192rcd13ifvqdc0","pricing_plan_id":"cebpf4jnsgd1na2vs0mg"},{"bike_id":"c81bbe6e-138d-4fd7-ab74-b00b6263d429","system_id":"levelo_inurba_marseille","lat":43.282091,"lon":5.390516,"is_reserved":false,"is_disabled":false,"rental_uris":{"android":"levelo://app?vid=c81bbe6e-138d-4fd7-ab74-b00b6263d429","ios":"levelo://app?vid=c81bbe6e-138d-4fd7-ab74-b00b6263d429"},"vehicle_type_id":"4","last_reported":1748585751,"current_range_meters":11600,"station_id":"","pricing_plan_id":"cebpf4jnsgd1na2vs0mg"},{"bike_id":"eeaaba6b-0ce0-43ef-a3d9-c4275a8344eb","system_id":"levelo_inurba_marseille","lat":43.257,"lon":5.41127,"is_reserved":false,"is_disabled":false,"rental_uris":{"android":"levelo://app?vid=eeaaba6b-0ce0-43ef-a3d9-c4275a8344eb","ios":"levelo://app?vid=eeaaba6b-0ce0-43ef-a3d9-c4275a8344eb"},"vehicle_type_id":"4","last_reported":1748585751,"current_range_meters":11600,"station_id":"ce4bhkp2rcd13ifvqgd0","pricing_plan_id":"cebpf4jnsgd1na2vs0mg"},{"bike_id":"3dd1b342-5d0a-4155-9da3-0dd9cd16e16e","system_id":"levelo_inurba_marseille","lat":43.229225,"lon":5.35394,"is_reserved":false,"is_disabled":false,"rental_uris":{"android":"levelo://app?vid=3dd1b342-5d0a-4155-9da3-0dd9cd16e16e","ios":"levelo://app?vid=3dd1b342-5d0a-4155-9da3-0dd9cd16e16e"},"vehicle_type_id":"4","last_reported":1748585751,"current_range_meters":12000,"station_id":"cpo3532slgdg3j2ikp40","pricing_plan_id":"cebpf4jnsgd1na2vs0mg"},{"bike_id":"f204eb0b-e2e4-440d-be8e-78a2e28253f7","system_id":"levelo_inurba_marseille","lat":43.29001,"lon":5.35612,"is_reserved":false,"is_disabled":false,"rental_uris":{"android":"levelo://app?vid=f204eb0b-e2e4-440d-be8e-78a2e28253f7","ios":"levelo://app?vid=f204eb0b-e2e4-440d-be8e-78a2e28253f7"},"vehicle_type_id":"4","last_reported":1748585751,"current_range_meters":12000,"station_id":"ce4bhb92rcd13ifvqen0","pricing_plan_id":"cebpf4jnsgd1na2vs0mg"},{"bike_id":"61a789b9-188c-419e-a495-9d8bb5585016","system_id":"levelo_inurba_marseille","lat":43.27993,"lon":5.41663,"is_reserved":false,"is_disabled":false,"rental_uris":{"android":"levelo://app?vid=61a789b9-188c-419e-a495-9d8bb5585016","ios":"levelo://app?vid=61a789b9-188c-419e-a495-9d8bb5585016"},"vehicle_type_id":"4","last_reported":1748585751,"current_range_meters":12000,"station_id":"ce4bho12rcd13ifvqh1g","pricing_plan_id":"cebpf4jnsgd1na2vs0mg"},{"bike_id":"ff392818-f13b-4ef0-b2ad-6e7155767c9d","system_id":"levelo_inurba_marseille","lat":43.337291,"lon":5.391816,"is_reserved":false,"is_disabled":false,"rental_uris":{"android":"levelo://app?vid=ff392818-f13b-4ef0-b2ad-6e7155767c9d","ios":"levelo://app?vid=ff392818-f13b-4ef0-b2ad-6e7155767c9d"},"vehicle_type_id":"4","last_reported":1748585751,"current_range_meters":12000,"station_id":"ce4bhr92rcd13ifvqhsg","pricing_plan_id":"cebpf4jnsgd1na2vs0mg"},{"bike_id":"94d74484-c00f-4773-98b4-43f5ef9035c3","system_id":"levelo_inurba_marseille","lat":43.262247,"lon":5.404544,"is_reserved":false,"is_disabled":false,"rental_uris":{"android":"levelo://app?vid=94d74484-c00f-4773-98b4-43f5ef9035c3","ios":"levelo://app?vid=94d74484-c00f-4773-98b4-43f5ef9035c3"},"vehicle_type_id":"4","last_reported":1748585751,"current_range_meters":12400,"station_id":"ce4bhmh2rcd13ifvqgmg","pricing_plan_id":"cebpf4jnsgd1na2vs0mg"},{"bike_id":"36e6da93-f153-468d-bc4c-ccd6d06524f4","system_id":"levelo_inurba_marseille","lat":43.29228,"lon":5.3606,"is_reserved":false,"is_disabled":false,"rental_uris":{"android":"levelo://app?vid=36e6da93-f153-468d-bc4c-ccd6d06524f4","ios":"levelo://app?vid=36e6da93-f153-468d-bc4c-ccd6d06524f4"},"vehicle_type_id":"4","last_reported":1748585751,"current_range_meters":12400,"station_id":"","pricing_plan_id":"cebpf4jnsgd1na2vs0mg"},{"bike_id":"6d9461e9-afcf-430b-8179-bb7d54f00db5","system_id":"levelo_inurba_marseille","lat":43.31449,"lon":5.37239,"is_reserved":false,"is_disabled":false,"rental_uris":{"android":"levelo://app?vid=6d9461e9-afcf-430b-8179-bb7d54f00db5","ios":"levelo://app?vid=6d9461e9-afcf-430b-8179-bb7d54f00db5"},"vehicle_type_id":"4","last_reported":1748585751,"current_range_meters":12400,"station_id":"ce4bgt12rcd13ifvqcd0","pricing_plan_id":"cebpf4jnsgd1na2vs0mg"},{"bike_id":"3f133001-de67-4a16-ba1a-1751190238ae","system_id":"levelo_inurba_marseille","lat":43.28421,"lon":5.37529,"is_reserved":false,"is_disabled":false,"rental_uris":{"android":"levelo://app?vid=3f133001-de67-4a16-ba1a-1751190238ae","ios":"levelo://app?vid=3f133001-de67-4a16-ba1a-1751190238ae"},"vehicle_type_id":"4","last_reported":1748585751,"current_range_meters":12400,"station_id":"ce4bh412rcd13ifvqds0","pricing_plan_id":"cebpf4jnsgd1na2vs0mg"},{"bike_id":"7d4ba91c-7a7a-4535-9018-7a0082a8e326","system_id":"levelo_inurba_marseille","lat":43.27941,"lon":5.41049,"is_reserved":false,"is_disabled":false,"rental_uris":{"android":"levelo://app?vid=7d4ba91c-7a7a-4535-9018-7a0082a8e326","ios":"levelo://app?vid=7d4ba91c-7a7a-4535-9018-7a0082a8e326"},"vehicle_type_id":"4","last_reported":1748585751,"current_range_meters":12800,"station_id":"ce4bhnp2rcd13ifvqh0g","pricing_plan_id":"cebpf4jnsgd1na2vs0mg"},{"bike_id":"7243d7c8-02f5-4392-89cf-8c360e846d55","system_id":"levelo_inurba_marseille","lat":43.252755,"lon":5.378354,"is_reserved":false,"is_disabled":false,"rental_uris":{"android":"levelo://app?vid=7243d7c8-02f5-4392-89cf-8c360e846d55","ios":"levelo://app?vid=7243d7c8-02f5-4392-89cf-8c360e846d55"},"vehicle_type_id":"4","last_reported":1748585751,"current_range_meters":12800,"station_id":"","pricing_plan_id":"cebpf4jnsgd1na2vs0mg"},{"bike_id":"e2da91e0-a1c8-45a3-b835-1e6640875e3e","system_id":"levelo_inurba_marseille","lat":43.29916,"lon":5.36502,"is_reserved":false,"is_disabled":false,"rental_uris":{"android":"levelo://app?vid=e2da91e0-a1c8-45a3-b835-1e6640875e3e","ios":"levelo://app?vid=e2da91e0-a1c8-45a3-b835-1e6640875e3e"},"vehicle_type_id":"4","last_reported":1748585751,"current_range_meters":12800,"station_id":"ce4bgm92rcd13ifvqbr0","pricing_plan_id":"cebpf4jnsgd1na2vs0mg"},{"bike_id":"d041ba9b-b157-420b-92de-857f860b4947","system_id":"levelo_inurba_marseille","lat":43.282184,"lon":5.390435,"is_reserved":false,"is_disabled":false,"rental_uris":{"android":"levelo://app?vid=d041ba9b-b157-420b-92de-857f860b4947","ios":"levelo://app?vid=d041ba9b-b157-420b-92de-857f860b4947"},"vehicle_type_id":"4","last_reported":1748585751,"current_range_meters":12800,"station_id":"","pricing_plan_id":"cebpf4jnsgd1na2vs0mg"},{"bike_id":"a8d4273b-613f-442b-bea9-7c462c2c1bbc","system_id":"levelo_inurba_marseille","lat":43.26229,"lon":5.40462,"is_reserved":false,"is_disabled":false,"rental_uris":{"android":"levelo://app?vid=a8d4273b-613f-442b-bea9-7c462c2c1bbc","ios":"levelo://app?vid=a8d4273b-613f-442b-bea9-7c462c2c1bbc"},"vehicle_type_id":"4","last_reported":1748585751,"current_range_meters":12800,"station_id":"ce4bhmh2rcd13ifvqgmg","pricing_plan_id":"cebpf4jnsgd1na2vs0mg"},{"bike_id":"990df701-79a7-41ec-b963-3693dc590a87","system_id":"levelo_inurba_marseille","lat":43.30175,"lon":5.37909,"is_reserved":false,"is_disabled":false,"rental_uris":{"android":"levelo://app?vid=990df701-79a7-41ec-b963-3693dc590a87","ios":"levelo://app?vid=990df701-79a7-41ec-b963-3693dc590a87"},"vehicle_type_id":"4","last_reported":1748585751,"current_range_meters":12800,"station_id":"","pricing_plan_id":"cebpf4jnsgd1na2vs0mg"},{"bike_id":"c9b16b3f-d77e-4adf-8c10-65c6e295aa7d","system_id":"levelo_inurba_marseille","lat":43.2798,"lon":5.38746,"is_reserved":false,"is_disabled":false,"rental_uris":{"android":"levelo://app?vid=c9b16b3f-d77e-4adf-8c10-65c6e295aa7d","ios":"levelo://app?vid=c9b16b3f-d77e-4adf-8c10-65c6e295aa7d"},"vehicle_type_id":"4","last_reported":1748585751,"current_range_meters":13600,"station_id":"ce4bhg12rcd13ifvqf80","pricing_plan_id":"cebpf4jnsgd1na2vs0mg"},{"bike_id":"55ec6299-b4d1-47ca-b040-43c90bc9c9b4","system_id":"levelo_inurba_marseille","lat":43.326596,"lon":5.409959,"is_reserved":false,"is_disabled":false,"rental_uris":{"android":"levelo://app?vid=55ec6299-b4d1-47ca-b040-43c90bc9c9b4","ios":"levelo://app?vid=55ec6299-b4d1-47ca-b040-43c90bc9c9b4"},"vehicle_type_id":"4","last_reported":1748585751,"current_range_meters":13600,"station_id":"ce4bhpp2rcd13ifvqhgg","pricing_plan_id":"cebpf4jnsgd1na2vs0mg"},{"bike_id":"cd85ece0-e2f3-4caa-bbf2-457082671004","system_id":"levelo_inurba_marseille","lat":43.24057,"lon":5.36747,"is_reserved":false,"is_disabled":true,"rental_uris":{"android":"levelo://app?vid=cd85ece0-e2f3-4caa-bbf2-457082671004","ios":"levelo://app?vid=cd85ece0-e2f3-4caa-bbf2-457082671004"},"vehicle_type_id":"4","last_reported":1748585751,"current_range_meters":13600,"station_id":"","pricing_plan_id":"cebpf4jnsgd1na2vs0mg"},{"bike_id":"9ea654fd-9c6b-45ea-9771-15bf83e7f507","system_id":"levelo_inurba_marseille","lat":43.26937,"lon":5.40275,"is_reserved":false,"is_disabled":false,"rental_uris":{"android":"levelo://app?vid=9ea654fd-9c6b-45ea-9771-15bf83e7f507","ios":"levelo://app?vid=9ea654fd-9c6b-45ea-9771-15bf83e7f507"},"vehicle_type_id":"4","last_reported":1748585751,"current_range_meters":13600,"station_id":"cjm6bp8fraef2m0cb0m0","pricing_plan_id":"cebpf4jnsgd1na2vs0mg"},{"bike_id":"b1c1911c-6d29-4798-b9ed-90670a6673c9","system_id":"levelo_inurba_marseille","lat":43.320777,"lon":5.415417,"is_reserved":false,"is_disabled":false,"rental_uris":{"android":"levelo://app?vid=b1c1911c-6d29-4798-b9ed-90670a6673c9","ios":"levelo://app?vid=b1c1911c-6d29-4798-b9ed-90670a6673c9"},"vehicle_type_id":"4","last_reported":1748585751,"current_range_meters":13600,"station_id":"ce4bhq92rcd13ifvqhkg","pricing_plan_id":"cebpf4jnsgd1na2vs0mg"},{"bike_id":"69362ca8-aad5-4f84-99b8-c7328973ac4f","system_id":"levelo_inurba_marseille","lat":43.231495,"lon":5.437281,"is_reserved":false,"is_disabled":false,"rental_uris":{"android":"levelo://app?vid=69362ca8-aad5-4f84-99b8-c7328973ac4f","ios":"levelo://app?vid=69362ca8-aad5-4f84-99b8-c7328973ac4f"},"vehicle_type_id":"4","last_reported":1748585751,"current_range_meters":13600,"station_id":"ce4bhmp2rcd13ifvqgog","pricing_plan_id":"cebpf4jnsgd1na2vs0mg"},{"bike_id":"0bdee142-1fda-4a23-9616-8b7744765971","system_id":"levelo_inurba_marseille","lat":43.24674,"lon":5.38174,"is_reserved":false,"is_disabled":true,"rental_uris":{"android":"levelo://app?vid=0bdee142-1fda-4a23-9616-8b7744765971","ios":"levelo://app?vid=0bdee142-1fda-4a23-9616-8b7744765971"},"vehicle_type_id":"4","last_reported":1748585751,"current_range_meters":14000,"station_id":"ce4bhih2rcd13ifvqfr0","pricing_plan_id":"cebpf4jnsgd1na2vs0mg"},{"bike_id":"e9c75eff-63de-4ef0-a634-1da4ed1cbb2f","system_id":"levelo_inurba_marseille","lat":43.31079,"lon":5.42447,"is_reserved":false,"is_disabled":true,"rental_uris":{"android":"levelo://app?vid=e9c75eff-63de-4ef0-a634-1da4ed1cbb2f","ios":"levelo://app?vid=e9c75eff-63de-4ef0-a634-1da4ed1cbb2f"},"vehicle_type_id":"4","last_reported":1748585751,"current_range_meters":14000,"station_id":"ce4bhp92rcd13ifvqhag","pricing_plan_id":"cebpf4jnsgd1na2vs0mg"},{"bike_id":"eef3edab-c7bc-4626-8a57-2353989bd7cc","system_id":"levelo_inurba_marseille","lat":43.240766,"lon":5.377539,"is_reserved":false,"is_disabled":false,"rental_uris":{"android":"levelo://app?vid=eef3edab-c7bc-4626-8a57-2353989bd7cc","ios":"levelo://app?vid=eef3edab-c7bc-4626-8a57-2353989bd7cc"},"vehicle_type_id":"4","last_reported":1748585751,"current_range_meters":14000,"station_id":"ce4bhnp2rcd13ifvqgvg","pricing_plan_id":"cebpf4jnsgd1na2vs0mg"},{"bike_id":"9afff74f-25c0-4cce-8476-3dd3e572dd8c","system_id":"levelo_inurba_marseille","lat":43.24079,"lon":5.37756,"is_reserved":false,"is_disabled":false,"rental_uris":{"android":"levelo://app?vid=9afff74f-25c0-4cce-8476-3dd3e572dd8c","ios":"levelo://app?vid=9afff74f-25c0-4cce-8476-3dd3e572dd8c"},"vehicle_type_id":"4","last_reported":1748585751,"current_range_meters":14000,"station_id":"ce4bhnp2rcd13ifvqgvg","pricing_plan_id":"cebpf4jnsgd1na2vs0mg"},{"bike_id":"2236b6c0-f763-40f5-8e40-14b379518f91","system_id":"levelo_inurba_marseille","lat":43.246051,"lon":5.393042,"is_reserved":false,"is_disabled":false,"rental_uris":{"android":"levelo://app?vid=2236b6c0-f763-40f5-8e40-14b379518f91","ios":"levelo://app?vid=2236b6c0-f763-40f5-8e40-14b379518f91"},"vehicle_type_id":"4","last_reported":1748585751,"current_range_meters":14000,"station_id":"","pricing_plan_id":"cebpf4jnsgd1na2vs0mg"},{"bike_id":"f38b9b08-f98d-4c07-9158-46f986b3db52","system_id":"levelo_inurba_marseille","lat":43.28422,"lon":5.37516,"is_reserved":false,"is_disabled":false,"rental_uris":{"android":"levelo://app?vid=f38b9b08-f98d-4c07-9158-46f986b3db52","ios":"levelo://app?vid=f38b9b08-f98d-4c07-9158-46f986b3db52"},"vehicle_type_id":"4","last_reported":1748585751,"current_range_meters":14000,"station_id":"ce4bh412rcd13ifvqds0","pricing_plan_id":"cebpf4jnsgd1na2vs0mg"},{"bike_id":"9fe1e697-36ec-421f-b0be-031c2f5ed7f3","system_id":"levelo_inurba_marseille","lat":43.337825,"lon":5.374285,"is_reserved":false,"is_disabled":false,"rental_uris":{"android":"levelo://app?vid=9fe1e697-36ec-421f-b0be-031c2f5ed7f3","ios":"levelo://app?vid=9fe1e697-36ec-421f-b0be-031c2f5ed7f3"},"vehicle_type_id":"4","last_reported":1748585751,"current_range_meters":14400,"station_id":"","pricing_plan_id":"cebpf4jnsgd1na2vs0mg"},{"bike_id":"87fbf9be-b609-41e9-ac91-aec44d782174","system_id":"levelo_inurba_marseille","lat":43.29747,"lon":5.37661,"is_reserved":false,"is_disabled":false,"rental_uris":{"android":"levelo://app?vid=87fbf9be-b609-41e9-ac91-aec44d782174","ios":"levelo://app?vid=87fbf9be-b609-41e9-ac91-aec44d782174"},"vehicle_type_id":"4","last_reported":1748585751,"current_range_meters":14000,"station_id":"ce4bgkh2rcd13ifvqbl0","pricing_plan_id":"cebpf4jnsgd1na2vs0mg"},{"bike_id":"8a17b903-cbef-4ca1-985e-91f7861d3ad0","system_id":"levelo_inurba_marseille","lat":43.24167,"lon":5.36402,"is_reserved":false,"is_disabled":true,"rental_uris":{"android":"levelo://app?vid=8a17b903-cbef-4ca1-985e-91f7861d3ad0","ios":"levelo://app?vid=8a17b903-cbef-4ca1-985e-91f7861d3ad0"},"vehicle_type_id":"4","last_reported":1748585751,"current_range_meters":14400,"station_id":"cpo36qri1sfpv3e86is0","pricing_plan_id":"cebpf4jnsgd1na2vs0mg"},{"bike_id":"503caf17-0eca-485d-a69a-e55496762ea8","system_id":"levelo_inurba_marseille","lat":43.28682,"lon":5.36376,"is_reserved":false,"is_disabled":false,"rental_uris":{"android":"levelo://app?vid=503caf17-0eca-485d-a69a-e55496762ea8","ios":"levelo://app?vid=503caf17-0eca-485d-a69a-e55496762ea8"},"vehicle_type_id":"4","last_reported":1748585751,"current_range_meters":14400,"station_id":"ce4bhah2rcd13ifvqej0","pricing_plan_id":"cebpf4jnsgd1na2vs0mg"},{"bike_id":"bc21b124-348f-4508-be40-827466919d4f","system_id":"levelo_inurba_marseille","lat":43.29934,"lon":5.36551,"is_reserved":false,"is_disabled":false,"rental_uris":{"android":"levelo://app?vid=bc21b124-348f-4508-be40-827466919d4f","ios":"levelo://app?vid=bc21b124-348f-4508-be40-827466919d4f"},"vehicle_type_id":"4","last_reported":1748585751,"current_range_meters":14400,"station_id":"ce4bgm92rcd13ifvqbr0","pricing_plan_id":"cebpf4jnsgd1na2vs0mg"},{"bike_id":"8fed41b2-9d6b-4474-8486-624fae52b6a2","system_id":"levelo_inurba_marseille","lat":43.27942,"lon":5.41042,"is_reserved":false,"is_disabled":true,"rental_uris":{"android":"levelo://app?vid=8fed41b2-9d6b-4474-8486-624fae52b6a2","ios":"levelo://app?vid=8fed41b2-9d6b-4474-8486-624fae52b6a2"},"vehicle_type_id":"4","last_reported":1748585751,"current_range_meters":14400,"station_id":"ce4bhnp2rcd13ifvqh0g","pricing_plan_id":"cebpf4jnsgd1na2vs0mg"},{"bike_id":"0fbfc8d7-51f2-48ba-bf46-e03726ce033d","system_id":"levelo_inurba_marseille","lat":43.24673,"lon":5.38159,"is_reserved":false,"is_disabled":false,"rental_uris":{"android":"levelo://app?vid=0fbfc8d7-51f2-48ba-bf46-e03726ce033d","ios":"levelo://app?vid=0fbfc8d7-51f2-48ba-bf46-e03726ce033d"},"vehicle_type_id":"4","last_reported":1748585751,"current_range_meters":14400,"station_id":"ce4bhih2rcd13ifvqfr0","pricing_plan_id":"cebpf4jnsgd1na2vs0mg"},{"bike_id":"ec99f384-d898-41dd-b58c-5d977d5ab448","system_id":"levelo_inurba_marseille","lat":43.274379,"lon":5.361437,"is_reserved":false,"is_disabled":false,"rental_uris":{"android":"levelo://app?vid=ec99f384-d898-41dd-b58c-5d977d5ab448","ios":"levelo://app?vid=ec99f384-d898-41dd-b58c-5d977d5ab448"},"vehicle_type_id":"4","last_reported":1748585751,"current_range_meters":14400,"station_id":"ce4bh692rcd13ifvqea0","pricing_plan_id":"cebpf4jnsgd1na2vs0mg"},{"bike_id":"f21d068f-9497-455a-a686-64452537b900","system_id":"levelo_inurba_marseille","lat":43.29276,"lon":5.36841,"is_reserved":false,"is_disabled":false,"rental_uris":{"android":"levelo://app?vid=f21d068f-9497-455a-a686-64452537b900","ios":"levelo://app?vid=f21d068f-9497-455a-a686-64452537b900"},"vehicle_type_id":"4","last_reported":1748585751,"current_range_meters":14400,"station_id":"ce4bhbp2rcd13ifvqesg","pricing_plan_id":"cebpf4jnsgd1na2vs0mg"},{"bike_id":"a511d578-129f-44e0-a573-a31884933e6b","system_id":"levelo_inurba_marseille","lat":43.275068,"lon":5.409417,"is_reserved":false,"is_disabled":false,"rental_uris":{"android":"levelo://app?vid=a511d578-129f-44e0-a573-a31884933e6b","ios":"levelo://app?vid=a511d578-129f-44e0-a573-a31884933e6b"},"vehicle_type_id":"4","last_reported":1748585751,"current_range_meters":14400,"station_id":"","pricing_plan_id":"cebpf4jnsgd1na2vs0mg"},{"bike_id":"feba793f-64b7-499b-881e-97c387064e0d","system_id":"levelo_inurba_marseille","lat":43.30936,"lon":5.40175,"is_reserved":false,"is_disabled":false,"rental_uris":{"android":"levelo://app?vid=feba793f-64b7-499b-881e-97c387064e0d","ios":"levelo://app?vid=feba793f-64b7-499b-881e-97c387064e0d"},"vehicle_type_id":"4","last_reported":1748585751,"current_range_meters":14800,"station_id":"ce4bgvp2rcd13ifvqct0","pricing_plan_id":"cebpf4jnsgd1na2vs0mg"},{"bike_id":"2be6f613-1d2e-4314-b7c8-a27f95203c5e","system_id":"levelo_inurba_marseille","lat":43.27992,"lon":5.38715,"is_reserved":false,"is_disabled":false,"rental_uris":{"android":"levelo://app?vid=2be6f613-1d2e-4314-b7c8-a27f95203c5e","ios":"levelo://app?vid=2be6f613-1d2e-4314-b7c8-a27f95203c5e"},"vehicle_type_id":"4","last_reported":1748585751,"current_range_meters":14800,"station_id":"ce4bhg12rcd13ifvqf80","pricing_plan_id":"cebpf4jnsgd1na2vs0mg"},{"bike_id":"68efb344-91ba-42e8-a824-93a84b520faf","system_id":"levelo_inurba_marseille","lat":43.28468,"lon":5.35893,"is_reserved":false,"is_disabled":false,"rental_uris":{"android":"levelo://app?vid=68efb344-91ba-42e8-a824-93a84b520faf","ios":"levelo://app?vid=68efb344-91ba-42e8-a824-93a84b520faf"},"vehicle_type_id":"4","last_reported":1748585751,"current_range_meters":14800,"station_id":"ce4bhah2rcd13ifvqei0","pricing_plan_id":"cebpf4jnsgd1na2vs0mg"},{"bike_id":"73ef86de-d9af-4057-9b7c-cefbdd67024f","system_id":"levelo_inurba_marseille","lat":43.29623,"lon":5.37726,"is_reserved":false,"is_disabled":false,"rental_uris":{"android":"levelo://app?vid=73ef86de-d9af-4057-9b7c-cefbdd67024f","ios":"levelo://app?vid=73ef86de-d9af-4057-9b7c-cefbdd67024f"},"vehicle_type_id":"4","last_reported":1748585751,"current_range_meters":14400,"station_id":"ce4bgi92rcd13ifvqb90","pricing_plan_id":"cebpf4jnsgd1na2vs0mg"},{"bike_id":"e8df6e55-a561-4b7a-912e-d9ea01a18adc","system_id":"levelo_inurba_marseille","lat":43.292737,"lon":5.401314,"is_reserved":false,"is_disabled":false,"rental_uris":{"android":"levelo://app?vid=e8df6e55-a561-4b7a-912e-d9ea01a18adc","ios":"levelo://app?vid=e8df6e55-a561-4b7a-912e-d9ea01a18adc"},"vehicle_type_id":"4","last_reported":1748585751,"current_range_meters":14800,"station_id":"ce4bh312rcd13ifvqdk0","pricing_plan_id":"cebpf4jnsgd1na2vs0mg"},{"bike_id":"7772ee7a-25f5-4bc7-a3bc-e28a5309d741","system_id":"levelo_inurba_marseille","lat":43.30374,"lon":5.42493,"is_reserved":false,"is_disabled":true,"rental_uris":{"android":"levelo://app?vid=7772ee7a-25f5-4bc7-a3bc-e28a5309d741","ios":"levelo://app?vid=7772ee7a-25f5-4bc7-a3bc-e28a5309d741"},"vehicle_type_id":"4","last_reported":1748585751,"current_range_meters":14800,"station_id":"ce4bhoh2rcd13ifvqh6g","pricing_plan_id":"cebpf4jnsgd1na2vs0mg"},{"bike_id":"40f28152-9bc3-4f5f-8bf9-e69b60f08186","system_id":"levelo_inurba_marseille","lat":43.290334,"lon":5.3996,"is_reserved":false,"is_disabled":false,"rental_uris":{"android":"levelo://app?vid=40f28152-9bc3-4f5f-8bf9-e69b60f08186","ios":"levelo://app?vid=40f28152-9bc3-4f5f-8bf9-e69b60f08186"},"vehicle_type_id":"4","last_reported":1748585751,"current_range_meters":14800,"station_id":"ce4bh392rcd13ifvqdm0","pricing_plan_id":"cebpf4jnsgd1na2vs0mg"},{"bike_id":"b18036e4-cdbb-441f-a4f1-99c9cdbece34","system_id":"levelo_inurba_marseille","lat":43.29499,"lon":5.39047,"is_reserved":false,"is_disabled":false,"rental_uris":{"android":"levelo://app?vid=b18036e4-cdbb-441f-a4f1-99c9cdbece34","ios":"levelo://app?vid=b18036e4-cdbb-441f-a4f1-99c9cdbece34"},"vehicle_type_id":"4","last_reported":1748585751,"current_range_meters":15200,"station_id":"ce4bh3p2rcd13ifvqdp0","pricing_plan_id":"cebpf4jnsgd1na2vs0mg"},{"bike_id":"950a66c6-0112-4714-a007-202e42172c1f","system_id":"levelo_inurba_marseille","lat":43.248137,"lon":5.374566,"is_reserved":false,"is_disabled":false,"rental_uris":{"android":"levelo://app?vid=950a66c6-0112-4714-a007-202e42172c1f","ios":"levelo://app?vid=950a66c6-0112-4714-a007-202e42172c1f"},"vehicle_type_id":"4","last_reported":1748585751,"current_range_meters":16000,"station_id":"ce4bhgh2rcd13ifvqfb0","pricing_plan_id":"cebpf4jnsgd1na2vs0mg"},{"bike_id":"bf9ada33-fac3-4c6c-a22e-d3b48e785518","system_id":"levelo_inurba_marseille","lat":43.28049,"lon":5.40903,"is_reserved":false,"is_disabled":false,"rental_uris":{"android":"levelo://app?vid=bf9ada33-fac3-4c6c-a22e-d3b48e785518","ios":"levelo://app?vid=bf9ada33-fac3-4c6c-a22e-d3b48e785518"},"vehicle_type_id":"4","last_reported":1748585751,"current_range_meters":16000,"station_id":"","pricing_plan_id":"cebpf4jnsgd1na2vs0mg"},{"bike_id":"67a6560c-83dc-490e-9fc7-f17e3d931afd","system_id":"levelo_inurba_marseille","lat":43.24163,"lon":5.36428,"is_reserved":false,"is_disabled":false,"rental_uris":{"android":"levelo://app?vid=67a6560c-83dc-490e-9fc7-f17e3d931afd","ios":"levelo://app?vid=67a6560c-83dc-490e-9fc7-f17e3d931afd"},"vehicle_type_id":"4","last_reported":1748585751,"current_range_meters":16000,"station_id":"cpo36qri1sfpv3e86is0","pricing_plan_id":"cebpf4jnsgd1na2vs0mg"},{"bike_id":"00779107-410c-4955-a69f-bca552dd6244","system_id":"levelo_inurba_marseille","lat":43.29261,"lon":5.40179,"is_reserved":false,"is_disabled":true,"rental_uris":{"android":"levelo://app?vid=00779107-410c-4955-a69f-bca552dd6244","ios":"levelo://app?vid=00779107-410c-4955-a69f-bca552dd6244"},"vehicle_type_id":"4","last_reported":1748585751,"current_range_meters":16000,"station_id":"","pricing_plan_id":"cebpf4jnsgd1na2vs0mg"},{"bike_id":"14960bf0-5194-4f14-bef0-766957d27bb3","system_id":"levelo_inurba_marseille","lat":43.292745,"lon":5.401452,"is_reserved":false,"is_disabled":false,"rental_uris":{"android":"levelo://app?vid=14960bf0-5194-4f14-bef0-766957d27bb3","ios":"levelo://app?vid=14960bf0-5194-4f14-bef0-766957d27bb3"},"vehicle_type_id":"4","last_reported":1748585751,"current_range_meters":16000,"station_id":"ce4bh312rcd13ifvqdk0","pricing_plan_id":"cebpf4jnsgd1na2vs0mg"},{"bike_id":"dd34afa2-f665-4263-85a8-7de7dbd3a196","system_id":"levelo_inurba_marseille","lat":43.27608,"lon":5.39707,"is_reserved":false,"is_disabled":false,"rental_uris":{"android":"levelo://app?vid=dd34afa2-f665-4263-85a8-7de7dbd3a196","ios":"levelo://app?vid=dd34afa2-f665-4263-85a8-7de7dbd3a196"},"vehicle_type_id":"4","last_reported":1748585751,"current_range_meters":16000,"station_id":"","pricing_plan_id":"cebpf4jnsgd1na2vs0mg"},{"bike_id":"6e2d32db-77f9-401a-965b-8ce24716aac7","system_id":"levelo_inurba_marseille","lat":43.30412,"lon":5.41278,"is_reserved":false,"is_disabled":false,"rental_uris":{"android":"levelo://app?vid=6e2d32db-77f9-401a-965b-8ce24716aac7","ios":"levelo://app?vid=6e2d32db-77f9-401a-965b-8ce24716aac7"},"vehicle_type_id":"4","last_reported":1748585751,"current_range_meters":16000,"station_id":"ce4bhop2rcd13ifvqh8g","pricing_plan_id":"cebpf4jnsgd1na2vs0mg"},{"bike_id":"fd7ad8b5-d599-4a91-b59b-ac2aa9cb4f73","system_id":"levelo_inurba_marseille","lat":43.27141,"lon":5.40015,"is_reserved":false,"is_disabled":false,"rental_uris":{"android":"levelo://app?vid=fd7ad8b5-d599-4a91-b59b-ac2aa9cb4f73","ios":"levelo://app?vid=fd7ad8b5-d599-4a91-b59b-ac2aa9cb4f73"},"vehicle_type_id":"4","last_reported":1748585751,"current_range_meters":16400,"station_id":"","pricing_plan_id":"cebpf4jnsgd1na2vs0mg"},{"bike_id":"e4862250-78de-4055-9c6f-c9062be06a69","system_id":"levelo_inurba_marseille","lat":43.27913,"lon":5.39573,"is_reserved":false,"is_disabled":false,"rental_uris":{"android":"levelo://app?vid=e4862250-78de-4055-9c6f-c9062be06a69","ios":"levelo://app?vid=e4862250-78de-4055-9c6f-c9062be06a69"},"vehicle_type_id":"4","last_reported":1748585751,"current_range_meters":16400,"station_id":"ce4bhf92rcd13ifvqf40","pricing_plan_id":"cebpf4jnsgd1na2vs0mg"},{"bike_id":"1d542995-8c8f-4777-b74d-8d8355e96125","system_id":"levelo_inurba_marseille","lat":43.287086,"lon":5.399966,"is_reserved":false,"is_disabled":false,"rental_uris":{"android":"levelo://app?vid=1d542995-8c8f-4777-b74d-8d8355e96125","ios":"levelo://app?vid=1d542995-8c8f-4777-b74d-8d8355e96125"},"vehicle_type_id":"4","last_reported":1748585751,"current_range_meters":16400,"station_id":"ce4bho92rcd13ifvqh3g","pricing_plan_id":"cebpf4jnsgd1na2vs0mg"},{"bike_id":"7eca6927-0eee-41fb-838c-8606d041ec62","system_id":"levelo_inurba_marseille","lat":43.262313,"lon":5.404569,"is_reserved":false,"is_disabled":false,"rental_uris":{"android":"levelo://app?vid=7eca6927-0eee-41fb-838c-8606d041ec62","ios":"levelo://app?vid=7eca6927-0eee-41fb-838c-8606d041ec62"},"vehicle_type_id":"4","last_reported":1748585751,"current_range_meters":16400,"station_id":"ce4bhmh2rcd13ifvqgmg","pricing_plan_id":"cebpf4jnsgd1na2vs0mg"},{"bike_id":"c6edeaa8-286a-4072-9db4-ae3a11de5279","system_id":"levelo_inurba_marseille","lat":43.269339,"lon":5.40268,"is_reserved":false,"is_disabled":false,"rental_uris":{"android":"levelo://app?vid=c6edeaa8-286a-4072-9db4-ae3a11de5279","ios":"levelo://app?vid=c6edeaa8-286a-4072-9db4-ae3a11de5279"},"vehicle_type_id":"4","last_reported":1748585751,"current_range_meters":16400,"station_id":"cjm6bp8fraef2m0cb0m0","pricing_plan_id":"cebpf4jnsgd1na2vs0mg"},{"bike_id":"785cc5a2-55ff-4ed7-a9bf-bca5de4d9f6f","system_id":"levelo_inurba_marseille","lat":43.31492,"lon":5.37268,"is_reserved":false,"is_disabled":false,"rental_uris":{"android":"levelo://app?vid=785cc5a2-55ff-4ed7-a9bf-bca5de4d9f6f","ios":"levelo://app?vid=785cc5a2-55ff-4ed7-a9bf-bca5de4d9f6f"},"vehicle_type_id":"4","last_reported":1748585751,"current_range_meters":16400,"station_id":"ce4bgt12rcd13ifvqcd0","pricing_plan_id":"cebpf4jnsgd1na2vs0mg"},{"bike_id":"d6d1ada7-d095-4848-a9c7-71d520f6d868","system_id":"levelo_inurba_marseille","lat":43.299666,"lon":5.384894,"is_reserved":false,"is_disabled":false,"rental_uris":{"android":"levelo://app?vid=d6d1ada7-d095-4848-a9c7-71d520f6d868","ios":"levelo://app?vid=d6d1ada7-d095-4848-a9c7-71d520f6d868"},"vehicle_type_id":"4","last_reported":1748585751,"current_range_meters":16400,"station_id":"","pricing_plan_id":"cebpf4jnsgd1na2vs0mg"},{"bike_id":"a1b28146-67ba-460f-a3b6-23293e9aee3a","system_id":"levelo_inurba_marseille","lat":43.28633,"lon":5.35098,"is_reserved":false,"is_disabled":true,"rental_uris":{"android":"levelo://app?vid=a1b28146-67ba-460f-a3b6-23293e9aee3a","ios":"levelo://app?vid=a1b28146-67ba-460f-a3b6-23293e9aee3a"},"vehicle_type_id":"4","last_reported":1748585751,"current_range_meters":16800,"station_id":"ce4bhch2rcd13ifvqeug","pricing_plan_id":"cebpf4jnsgd1na2vs0mg"},{"bike_id":"b8c78187-c280-4f6b-b629-94e19155c6fb","system_id":"levelo_inurba_marseille","lat":43.32341,"lon":5.40625,"is_reserved":false,"is_disabled":false,"rental_uris":{"android":"levelo://app?vid=b8c78187-c280-4f6b-b629-94e19155c6fb","ios":"levelo://app?vid=b8c78187-c280-4f6b-b629-94e19155c6fb"},"vehicle_type_id":"4","last_reported":1748585751,"current_range_meters":16800,"station_id":"ce4bhq92rcd13ifvqhjg","pricing_plan_id":"cebpf4jnsgd1na2vs0mg"},{"bike_id":"3cfcd708-bb66-4827-988c-59ab1f9ea42d","system_id":"levelo_inurba_marseille","lat":43.26216,"lon":5.40439,"is_reserved":false,"is_disabled":false,"rental_uris":{"android":"levelo://app?vid=3cfcd708-bb66-4827-988c-59ab1f9ea42d","ios":"levelo://app?vid=3cfcd708-bb66-4827-988c-59ab1f9ea42d"},"vehicle_type_id":"4","last_reported":1748585751,"current_range_meters":16800,"station_id":"ce4bhmh2rcd13ifvqgmg","pricing_plan_id":"cebpf4jnsgd1na2vs0mg"},{"bike_id":"53149a50-42d6-422b-81ff-d309079f9b29","system_id":"levelo_inurba_marseille","lat":43.25945,"lon":5.409003,"is_reserved":false,"is_disabled":false,"rental_uris":{"android":"levelo://app?vid=53149a50-42d6-422b-81ff-d309079f9b29","ios":"levelo://app?vid=53149a50-42d6-422b-81ff-d309079f9b29"},"vehicle_type_id":"4","last_reported":1748585751,"current_range_meters":16800,"station_id":"ce4bhm92rcd13ifvqglg","pricing_plan_id":"cebpf4jnsgd1na2vs0mg"},{"bike_id":"aafe2f57-e2ec-44cd-b95f-d6871f482382","system_id":"levelo_inurba_marseille","lat":43.30642,"lon":5.4009,"is_reserved":false,"is_disabled":false,"rental_uris":{"android":"levelo://app?vid=aafe2f57-e2ec-44cd-b95f-d6871f482382","ios":"levelo://app?vid=aafe2f57-e2ec-44cd-b95f-d6871f482382"},"vehicle_type_id":"4","last_reported":1748585751,"current_range_meters":16800,"station_id":"ce4bh112rcd13ifvqda0","pricing_plan_id":"cebpf4jnsgd1na2vs0mg"},{"bike_id":"71930e17-fe3c-443f-b621-4d725e50390f","system_id":"levelo_inurba_marseille","lat":43.33723,"lon":5.39201,"is_reserved":false,"is_disabled":false,"rental_uris":{"android":"levelo://app?vid=71930e17-fe3c-443f-b621-4d725e50390f","ios":"levelo://app?vid=71930e17-fe3c-443f-b621-4d725e50390f"},"vehicle_type_id":"4","last_reported":1748585751,"current_range_meters":16800,"station_id":"ce4bhr92rcd13ifvqhsg","pricing_plan_id":"cebpf4jnsgd1na2vs0mg"},{"bike_id":"ea1afa67-912b-48d2-b0ee-9c5c6ef439b9","system_id":"levelo_inurba_marseille","lat":43.3021,"lon":5.394575,"is_reserved":false,"is_disabled":true,"rental_uris":{"android":"levelo://app?vid=ea1afa67-912b-48d2-b0ee-9c5c6ef439b9","ios":"levelo://app?vid=ea1afa67-912b-48d2-b0ee-9c5c6ef439b9"},"vehicle_type_id":"4","last_reported":1748585751,"current_range_meters":17200,"station_id":"ce4bh0p2rcd13ifvqd70","pricing_plan_id":"cebpf4jnsgd1na2vs0mg"},{"bike_id":"769bf774-ef8d-46a0-b7de-5f61cbc6536d","system_id":"levelo_inurba_marseille","lat":43.313339,"lon":5.397007,"is_reserved":false,"is_disabled":false,"rental_uris":{"android":"levelo://app?vid=769bf774-ef8d-46a0-b7de-5f61cbc6536d","ios":"levelo://app?vid=769bf774-ef8d-46a0-b7de-5f61cbc6536d"},"vehicle_type_id":"4","last_reported":1748585751,"current_range_meters":17200,"station_id":"ce4bgvp2rcd13ifvqcu0","pricing_plan_id":"cebpf4jnsgd1na2vs0mg"},{"bike_id":"dbb57c29-9454-46fa-84b2-992e8315e32c","system_id":"levelo_inurba_marseille","lat":43.32458,"lon":5.42792,"is_reserved":false,"is_disabled":false,"rental_uris":{"android":"levelo://app?vid=dbb57c29-9454-46fa-84b2-992e8315e32c","ios":"levelo://app?vid=dbb57c29-9454-46fa-84b2-992e8315e32c"},"vehicle_type_id":"4","last_reported":1748585751,"current_range_meters":17200,"station_id":"","pricing_plan_id":"cebpf4jnsgd1na2vs0mg"},{"bike_id":"07b3c5e0-096c-41df-94f1-841dab9c0646","system_id":"levelo_inurba_marseille","lat":43.30595,"lon":5.393468,"is_reserved":false,"is_disabled":false,"rental_uris":{"android":"levelo://app?vid=07b3c5e0-096c-41df-94f1-841dab9c0646","ios":"levelo://app?vid=07b3c5e0-096c-41df-94f1-841dab9c0646"},"vehicle_type_id":"4","last_reported":1748585751,"current_range_meters":17200,"station_id":"ce4bh0p2rcd13ifvqd80","pricing_plan_id":"cebpf4jnsgd1na2vs0mg"},{"bike_id":"2107ac88-e739-41e7-8529-9b0a08463278","system_id":"levelo_inurba_marseille","lat":43.28363,"lon":5.38639,"is_reserved":false,"is_disabled":false,"rental_uris":{"android":"levelo://app?vid=2107ac88-e739-41e7-8529-9b0a08463278","ios":"levelo://app?vid=2107ac88-e739-41e7-8529-9b0a08463278"},"vehicle_type_id":"4","last_reported":1748585751,"current_range_meters":17200,"station_id":"ce4bh492rcd13ifvqdvg","pricing_plan_id":"cebpf4jnsgd1na2vs0mg"},{"bike_id":"f47d5d15-b929-42e8-aa00-5bc8a2dc15e4","system_id":"levelo_inurba_marseille","lat":43.225081,"lon":5.347807,"is_reserved":false,"is_disabled":false,"rental_uris":{"android":"levelo://app?vid=f47d5d15-b929-42e8-aa00-5bc8a2dc15e4","ios":"levelo://app?vid=f47d5d15-b929-42e8-aa00-5bc8a2dc15e4"},"vehicle_type_id":"4","last_reported":1748585751,"current_range_meters":17200,"station_id":"st_cvj5dfep6f1abm77gieg","pricing_plan_id":"cebpf4jnsgd1na2vs0mg"},{"bike_id":"3c51308f-5dee-4d47-a714-30fa80397e69","system_id":"levelo_inurba_marseille","lat":43.26521,"lon":5.3953,"is_reserved":false,"is_disabled":false,"rental_uris":{"android":"levelo://app?vid=3c51308f-5dee-4d47-a714-30fa80397e69","ios":"levelo://app?vid=3c51308f-5dee-4d47-a714-30fa80397e69"},"vehicle_type_id":"4","last_reported":1748585751,"current_range_meters":17200,"station_id":"ce4bhi12rcd13ifvqfq0","pricing_plan_id":"cebpf4jnsgd1na2vs0mg"},{"bike_id":"08043533-3fad-49a7-bdc5-3eccd764ed99","system_id":"levelo_inurba_marseille","lat":43.307769,"lon":5.376625,"is_reserved":false,"is_disabled":false,"rental_uris":{"android":"levelo://app?vid=08043533-3fad-49a7-bdc5-3eccd764ed99","ios":"levelo://app?vid=08043533-3fad-49a7-bdc5-3eccd764ed99"},"vehicle_type_id":"4","last_reported":1748585751,"current_range_meters":17200,"station_id":"ce4bgv92rcd13ifvqcq0","pricing_plan_id":"cebpf4jnsgd1na2vs0mg"},{"bike_id":"45fe38e3-f8b0-4003-b3b2-7f189c52b654","system_id":"levelo_inurba_marseille","lat":43.279286,"lon":5.395938,"is_reserved":false,"is_disabled":false,"rental_uris":{"android":"levelo://app?vid=45fe38e3-f8b0-4003-b3b2-7f189c52b654","ios":"levelo://app?vid=45fe38e3-f8b0-4003-b3b2-7f189c52b654"},"vehicle_type_id":"4","last_reported":1748585751,"current_range_meters":17600,"station_id":"ce4bhf92rcd13ifvqf40","pricing_plan_id":"cebpf4jnsgd1na2vs0mg"},{"bike_id":"7ce60bd5-d2ef-4324-b7da-93a6c66bfcc4","system_id":"levelo_inurba_marseille","lat":43.30556,"lon":5.36538,"is_reserved":false,"is_disabled":true,"rental_uris":{"android":"levelo://app?vid=7ce60bd5-d2ef-4324-b7da-93a6c66bfcc4","ios":"levelo://app?vid=7ce60bd5-d2ef-4324-b7da-93a6c66bfcc4"},"vehicle_type_id":"4","last_reported":1748585751,"current_range_meters":17600,"station_id":"ce4bgs12rcd13ifvqcag","pricing_plan_id":"cebpf4jnsgd1na2vs0mg"},{"bike_id":"f5f3c231-531f-4ead-aba7-cb3c00ff5a10","system_id":"levelo_inurba_marseille","lat":43.28411,"lon":5.37516,"is_reserved":false,"is_disabled":false,"rental_uris":{"android":"levelo://app?vid=f5f3c231-531f-4ead-aba7-cb3c00ff5a10","ios":"levelo://app?vid=f5f3c231-531f-4ead-aba7-cb3c00ff5a10"},"vehicle_type_id":"4","last_reported":1748585751,"current_range_meters":17600,"station_id":"ce4bh412rcd13ifvqds0","pricing_plan_id":"cebpf4jnsgd1na2vs0mg"},{"bike_id":"65cbc169-797e-4e8e-8be8-c90cfcafc3ac","system_id":"levelo_inurba_marseille","lat":43.281551,"lon":5.426524,"is_reserved":false,"is_disabled":false,"rental_uris":{"android":"levelo://app?vid=65cbc169-797e-4e8e-8be8-c90cfcafc3ac","ios":"levelo://app?vid=65cbc169-797e-4e8e-8be8-c90cfcafc3ac"},"vehicle_type_id":"4","last_reported":1748585751,"current_range_meters":17600,"station_id":"ce4bhnh2rcd13ifvqgug","pricing_plan_id":"cebpf4jnsgd1na2vs0mg"},{"bike_id":"3597c329-ae8c-40ad-9e06-5f737601d5b6","system_id":"levelo_inurba_marseille","lat":43.21749,"lon":5.34605,"is_reserved":false,"is_disabled":false,"rental_uris":{"android":"levelo://app?vid=3597c329-ae8c-40ad-9e06-5f737601d5b6","ios":"levelo://app?vid=3597c329-ae8c-40ad-9e06-5f737601d5b6"},"vehicle_type_id":"4","last_reported":1748585751,"current_range_meters":17600,"station_id":"st_cvj6r9ubvosntc0bgbag","pricing_plan_id":"cebpf4jnsgd1na2vs0mg"},{"bike_id":"40d93b38-d927-4ba6-a282-200a941a336f","system_id":"levelo_inurba_marseille","lat":43.29622,"lon":5.406,"is_reserved":false,"is_disabled":false,"rental_uris":{"android":"levelo://app?vid=40d93b38-d927-4ba6-a282-200a941a336f","ios":"levelo://app?vid=40d93b38-d927-4ba6-a282-200a941a336f"},"vehicle_type_id":"4","last_reported":1748585751,"current_range_meters":17600,"station_id":"ce4bh0h2rcd13ifvqd60","pricing_plan_id":"cebpf4jnsgd1na2vs0mg"},