{"last_updated":1745262482,"ttl":60,"version":"2.2","data":{"bikes":[{"bike_id":"a901796b-39cd-4c36-9c43-7e365a386734","system_id":"levelo_inurba_marseille","lat":43.29199,"lon":5.39313,"is_reserved":false,"is_disabled":false,"rental_uris":{"android":"levelo://app?vid=a901796b-39cd-4c36-9c43-7e365a386734","ios":"levelo://app?vid=a901796b-39cd-4c36-9c43-7e365a386734"},"vehicle_type_id":"4","last_reported":1745262482,"current_range_meters":2800,"station_id":"ce4bh192rcd13ifvqdd0","pricing_plan_id":"cebpf4jnsgd1na2vs0mg"},{"bike_id":"e5a4b173-0a18-4a33-8a4f-4aba33f46c5a","system_id":"levelo_inurba_marseille","lat":43.30899,"lon":5.36847,"is_reserved":false,"is_disabled":false,"rental_uris":{"android":"levelo://app?vid=e5a4b173-0a18-4a33-8a4f-4aba33f46c5a","ios":"levelo://app?vid=e5a4b173-0a18-4a33-8a4f-4aba33f46c5a"},"vehicle_type_id":"4","last_reported":1745262482,"current_range_meters":2800,"station_id":"ce4bgn92rcd13ifvqbvg","pricing_plan_id":"cebpf4jnsgd1na2vs0mg"},{"bike_id":"cf27e485-425a-43a1-9159-a88e8798fd70","system_id":"levelo_inurba_marseille","lat":43.29275,"lon":5.40116,"is_reserved":false,"is_disabled":false,"rental_uris":{"android":"levelo://app?vid=cf27e485-425a-43a1-9159-a88e8798fd70","ios":"levelo://app?vid=cf27e485-425a-43a1-9159-a88e8798fd70"},"vehicle_type_id":"4","last_reported":1745262482,"current_range_meters":3200,"station_id":"ce4bh312rcd13ifvqdk0","pricing_plan_id":"cebpf4jnsgd1na2vs0mg"},{"bike_id":"47ece7d5-b83c-4f4c-9b4f-37709ab677b7","system_id":"levelo_inurba_marseille","lat":43.29003,"lon":5.35611,"is_reserved":false,"is_disabled":false,"rental_uris":{"android":"levelo://app?vid=47ece7d5-b83c-4f4c-9b4f-37709ab677b7","ios":"levelo://app?vid=47ece7d5-b83c-4f4c-9b4f-37709ab677b7"},"vehicle_type_id":"4","last_reported":1745262482,"current_range_meters":3200,"station_id":"ce4bh192rcd13ifvqdc0","pricing_plan_id":"cebpf4jnsgd1na2vs0mg"},{"bike_id":"bc61986f-982e-4995-87d9-9af77c12debd","system_id":"levelo_inurba_marseille","lat":43.29417,"lon":5.386184,"is_reserved":false,"is_disabled":false,"rental_uris":{"android":"levelo://app?vid=bc61986f-982e-4995-87d9-9af77c12debd","ios":"levelo://app?vid=bc61986f-982e-4995-87d9-9af77c12debd"},"vehicle_type_id":"4","last_reported":1745262482,"current_range_meters":3200,"station_id":"ce4bh2h2rcd13ifvqdh0","pricing_plan_id":"cebpf4jnsgd1na2vs0mg"},{"bike_id":"dea4c88b-2c2f-43a7-bd81-9c9b914276fd","system_id":"levelo_inurba_marseille","lat":43.23187,"lon":5.35573,"is_reserved":false,"is_disabled":true,"rental_uris":{"android":"levelo://app?vid=dea4c88b-2c2f-43a7-bd81-9c9b914276fd","ios":"levelo://app?vid=dea4c88b-2c2f-43a7-bd81-9c9b914276fd"},"vehicle_type_id":"4","last_reported":1745262482,"current_range_meters":3200,"station_id":"ce4bhu92rcd13ifvqi70","pricing_plan_id":"cebpf4jnsgd1na2vs0mg"},{"bike_id":"dcf6d2bf-a79f-4f03-8e62-f22297319cc3","system_id":"levelo_inurba_marseille","lat":43.22924,"lon":5.35375,"is_reserved":false,"is_disabled":true,"rental_uris":{"android":"levelo://app?vid=dcf6d2bf-a79f-4f03-8e62-f22297319cc3","ios":"levelo://app?vid=dcf6d2bf-a79f-4f03-8e62-f22297319cc3"},"vehicle_type_id":"4","last_reported":1745262482,"current_range_meters":3200,"station_id":"cpo3532slgdg3j2ikp40","pricing_plan_id":"cebpf4jnsgd1na2vs0mg"},{"bike_id":"1ae521e0-7462-40d9-8cc8-40012d1e1a23","system_id":"levelo_inurba_marseille","lat":43.30645,"lon":5.40087,"is_reserved":false,"is_disabled":false,"rental_uris":{"android":"levelo://app?vid=1ae521e0-7462-40d9-8cc8-40012d1e1a23","ios":"levelo://app?vid=1ae521e0-7462-40d9-8cc8-40012d1e1a23"},"vehicle_type_id":"4","last_reported":1745262482,"current_range_meters":3200,"station_id":"ce4bh112rcd13ifvqda0","pricing_plan_id":"cebpf4jnsgd1na2vs0mg"},{"bike_id":"ebea1a23-d4de-4edb-a161-8b40c6bfe090","system_id":"levelo_inurba_marseille","lat":43.30888,"lon":5.39658,"is_reserved":false,"is_disabled":false,"rental_uris":{"android":"levelo://app?vid=ebea1a23-d4de-4edb-a161-8b40c6bfe090","ios":"levelo://app?vid=ebea1a23-d4de-4edb-a161-8b40c6bfe090"},"vehicle_type_id":"4","last_reported":1745262482,"current_range_meters":3200,"station_id":"ce4bh012rcd13ifvqcv0","pricing_plan_id":"cebpf4jnsgd1na2vs0mg"},{"bike_id":"442dad88-48c0-450b-9862-c3d725dc8e61","system_id":"levelo_inurba_marseille","lat":43.30881,"lon":5.36866,"is_reserved":false,"is_disabled":false,"rental_uris":{"android":"levelo://app?vid=442dad88-48c0-450b-9862-c3d725dc8e61","ios":"levelo://app?vid=442dad88-48c0-450b-9862-c3d725dc8e61"},"vehicle_type_id":"4","last_reported":1745262482,"current_range_meters":3600,"station_id":"ce4bgn92rcd13ifvqbvg","pricing_plan_id":"cebpf4jnsgd1na2vs0mg"},{"bike_id":"db63ef2b-f795-4461-841e-4a88a18bc5c9","system_id":"levelo_inurba_marseille","lat":43.29444,"lon":5.39744,"is_reserved":false,"is_disabled":true,"rental_uris":{"android":"levelo://app?vid=db63ef2b-f795-4461-841e-4a88a18bc5c9","ios":"levelo://app?vid=db63ef2b-f795-4461-841e-4a88a18bc5c9"},"vehicle_type_id":"4","last_reported":1745262482,"current_range_meters":3600,"station_id":"ce4bh3h2rcd13ifvqdo0","pricing_plan_id":"cebpf4jnsgd1na2vs0mg"},{"bike_id":"393f69a7-29ef-4af6-9586-f11f88b87f63","system_id":"levelo_inurba_marseille","lat":43.2804,"lon":5.369291,"is_reserved":false,"is_disabled":false,"rental_uris":{"android":"levelo://app?vid=393f69a7-29ef-4af6-9586-f11f88b87f63","ios":"levelo://app?vid=393f69a7-29ef-4af6-9586-f11f88b87f63"},"vehicle_type_id":"4","last_reported":1745262482,"current_range_meters":3600,"station_id":"ce4bha12rcd13ifvqef0","pricing_plan_id":"cebpf4jnsgd1na2vs0mg"},{"bike_id":"f8a4dedb-ece2-49f2-82c0-8ba3b30d7a70","system_id":"levelo_inurba_marseille","lat":43.31363,"lon":5.38483,"is_reserved":false,"is_disabled":false,"rental_uris":{"android":"levelo://app?vid=f8a4dedb-ece2-49f2-82c0-8ba3b30d7a70","ios":"levelo://app?vid=f8a4dedb-ece2-49f2-82c0-8ba3b30d7a70"},"vehicle_type_id":"4","last_reported":1745262482,"current_range_meters":3600,"station_id":"ce4bgt92rcd13ifvqcf0","pricing_plan_id":"cebpf4jnsgd1na2vs0mg"},{"bike_id":"c6023d7b-0c8f-4a5e-8eb4-dd919f7bc1c0","system_id":"levelo_inurba_marseille","lat":43.27382,"lon":5.36263,"is_reserved":false,"is_disabled":true,"rental_uris":{"android":"levelo://app?vid=c6023d7b-0c8f-4a5e-8eb4-dd919f7bc1c0","ios":"levelo://app?vid=c6023d7b-0c8f-4a5e-8eb4-dd919f7bc1c0"},"vehicle_type_id":"4","last_reported":1745262482,"current_range_meters":3600,"station_id":"ce4bhbh2rcd13ifvqeo0","pricing_plan_id":"cebpf4jnsgd1na2vs0mg"},{"bike_id":"7cd384a8-9bf8-4185-954e-cd4be8774e72","system_id":"levelo_inurba_marseille","lat":43.28072,"lon":5.39643,"is_reserved":false,"is_disabled":false,"rental_uris":{"android":"levelo://app?vid=7cd384a8-9bf8-4185-954e-cd4be8774e72","ios":"levelo://app?vid=7cd384a8-9bf8-4185-954e-cd4be8774e72"},"vehicle_type_id":"4","last_reported":1745262482,"current_range_meters":3600,"station_id":"ce4bho12rcd13ifvqh2g","pricing_plan_id":"cebpf4jnsgd1na2vs0mg"},{"bike_id":"fc3312cf-0fd5-4970-b770-7d8b0ddcaf00","system_id":"levelo_inurba_marseille","lat":43.28445,"lon":5.35904,"is_reserved":false,"is_disabled":false,"rental_uris":{"android":"levelo://app?vid=fc3312cf-0fd5-4970-b770-7d8b0ddcaf00","ios":"levelo://app?vid=fc3312cf-0fd5-4970-b770-7d8b0ddcaf00"},"vehicle_type_id":"4","last_reported":1745262482,"current_range_meters":3600,"station_id":"ce4bhah2rcd13ifvqei0","pricing_plan_id":"cebpf4jnsgd1na2vs0mg"},{"bike_id":"b83d06f4-c557-43fa-b40f-b5ee371778c4","system_id":"levelo_inurba_marseille","lat":43.30132,"lon":5.3879,"is_reserved":false,"is_disabled":false,"rental_uris":{"android":"levelo://app?vid=b83d06f4-c557-43fa-b40f-b5ee371778c4","ios":"levelo://app?vid=b83d06f4-c557-43fa-b40f-b5ee371778c4"},"vehicle_type_id":"4","last_reported":1745262482,"current_range_meters":3600,"station_id":"ce4bghh2rcd13ifvqb60","pricing_plan_id":"cebpf4jnsgd1na2vs0mg"},{"bike_id":"1c8a50b5-bd4f-4ff3-b27c-a01261b70fcd","system_id":"levelo_inurba_marseille","lat":43.28612,"lon":5.37059,"is_reserved":false,"is_disabled":false,"rental_uris":{"android":"levelo://app?vid=1c8a50b5-bd4f-4ff3-b27c-a01261b70fcd","ios":"levelo://app?vid=1c8a50b5-bd4f-4ff3-b27c-a01261b70fcd"},"vehicle_type_id":"4","last_reported":1745262482,"current_range_meters":4000,"station_id":"ce4bht12rcd13ifvqi60","pricing_plan_id":"cebpf4jnsgd1na2vs0mg"},{"bike_id":"213fb158-06bd-4e42-8510-0aa3f7eaae67","system_id":"levelo_inurba_marseille","lat":43.2319,"lon":5.35554,"is_reserved":false,"is_disabled":true,"rental_uris":{"android":"levelo://app?vid=213fb158-06bd-4e42-8510-0aa3f7eaae67","ios":"levelo://app?vid=213fb158-06bd-4e42-8510-0aa3f7eaae67"},"vehicle_type_id":"4","last_reported":1745262482,"current_range_meters":4000,"station_id":"ce4bhu92rcd13ifvqi70","pricing_plan_id":"cebpf4jnsgd1na2vs0mg"},{"bike_id":"5ef51819-f0a7-4025-8755-a5b839ea8df8","system_id":"levelo_inurba_marseille","lat":43.28478,"lon":5.38418,"is_reserved":false,"is_disabled":false,"rental_uris":{"android":"levelo://app?vid=5ef51819-f0a7-4025-8755-a5b839ea8df8","ios":"levelo://app?vid=5ef51819-f0a7-4025-8755-a5b839ea8df8"},"vehicle_type_id":"4","last_reported":1745262482,"current_range_meters":4000,"station_id":"ce4bh512rcd13ifvqe3g","pricing_plan_id":"cebpf4jnsgd1na2vs0mg"},{"bike_id":"bf8a87f5-2993-48d5-be02-77652065c470","system_id":"levelo_inurba_marseille","lat":43.29086,"lon":5.38114,"is_reserved":false,"is_disabled":false,"rental_uris":{"android":"levelo://app?vid=bf8a87f5-2993-48d5-be02-77652065c470","ios":"levelo://app?vid=bf8a87f5-2993-48d5-be02-77652065c470"},"vehicle_type_id":"4","last_reported":1745262482,"current_range_meters":4000,"station_id":"ce4bh192rcd13ifvqdd0","pricing_plan_id":"cebpf4jnsgd1na2vs0mg"},{"bike_id":"a4a134c3-1e31-4d73-8110-3fb269e43619","system_id":"levelo_inurba_marseille","lat":43.29198,"lon":5.39315,"is_reserved":false,"is_disabled":false,"rental_uris":{"android":"levelo://app?vid=a4a134c3-1e31-4d73-8110-3fb269e43619","ios":"levelo://app?vid=a4a134c3-1e31-4d73-8110-3fb269e43619"},"vehicle_type_id":"4","last_reported":1745262482,"current_range_meters":4000,"station_id":"ce4bh192rcd13ifvqdd0","pricing_plan_id":"cebpf4jnsgd1na2vs0mg"},{"bike_id":"c5f2f1d9-5405-4fc2-b402-9de3c6799137","system_id":"levelo_inurba_marseille","lat":43.26553,"lon":5.3728,"is_reserved":false,"is_disabled":false,"rental_uris":{"android":"levelo://app?vid=c5f2f1d9-5405-4fc2-b402-9de3c6799137","ios":"levelo://app?vid=c5f2f1d9-5405-4fc2-b402-9de3c6799137"},"vehicle_type_id":"4","last_reported":1745262482,"current_range_meters":4000,"station_id":"ce4bhg12rcd13ifvqf70","pricing_plan_id":"cebpf4jnsgd1na2vs0mg"},{"bike_id":"ef689f9c-5875-4d06-aca8-829a5c43d234","system_id":"levelo_inurba_marseille","lat":43.2897,"lon":5.37836,"is_reserved":false,"is_disabled":false,"rental_uris":{"android":"levelo://app?vid=ef689f9c-5875-4d06-aca8-829a5c43d234","ios":"levelo://app?vid=ef689f9c-5875-4d06-aca8-829a5c43d234"},"vehicle_type_id":"4","last_reported":1745262482,"current_range_meters":4400,"station_id":"ce4bh9p2rcd13ifvqed0","pricing_plan_id":"cebpf4jnsgd1na2vs0mg"},{"bike_id":"ae1550c4-de7d-454b-b42e-17d266c4ac72","system_id":"levelo_inurba_marseille","lat":43.308941,"lon":5.371992,"is_reserved":false,"is_disabled":false,"rental_uris":{"android":"levelo://app?vid=ae1550c4-de7d-454b-b42e-17d266c4ac72","ios":"levelo://app?vid=ae1550c4-de7d-454b-b42e-17d266c4ac72"},"vehicle_type_id":"4","last_reported":1745262482,"current_range_meters":4400,"station_id":"ce4bguh2rcd13ifvqckg","pricing_plan_id":"cebpf4jnsgd1na2vs0mg"},{"bike_id":"d98db80f-2bfb-4873-a493-c7457e024e97","system_id":"levelo_inurba_marseille","lat":43.29092,"lon":5.38124,"is_reserved":false,"is_disabled":false,"rental_uris":{"android":"levelo://app?vid=d98db80f-2bfb-4873-a493-c7457e024e97","ios":"levelo://app?vid=d98db80f-2bfb-4873-a493-c7457e024e97"},"vehicle_type_id":"4","last_reported":1745262482,"current_range_meters":4400,"station_id":"ce4bh512rcd13ifvqe2g","pricing_plan_id":"cebpf4jnsgd1na2vs0mg"},{"bike_id":"c2ea8ebc-ba79-4209-a3d3-a74bdf4cfee7","system_id":"levelo_inurba_marseille","lat":43.28952,"lon":5.36376,"is_reserved":false,"is_disabled":false,"rental_uris":{"android":"levelo://app?vid=c2ea8ebc-ba79-4209-a3d3-a74bdf4cfee7","ios":"levelo://app?vid=c2ea8ebc-ba79-4209-a3d3-a74bdf4cfee7"},"vehicle_type_id":"4","last_reported":1745262482,"current_range_meters":4400,"station_id":"ce4bhc92rcd13ifvqetg","pricing_plan_id":"cebpf4jnsgd1na2vs0mg"},{"bike_id":"250a1180-cdbf-47ad-b753-7bc38153647b","system_id":"levelo_inurba_marseille","lat":43.29519,"lon":5.39395,"is_reserved":false,"is_disabled":false,"rental_uris":{"android":"levelo://app?vid=250a1180-cdbf-47ad-b753-7bc38153647b","ios":"levelo://app?vid=250a1180-cdbf-47ad-b753-7bc38153647b"},"vehicle_type_id":"4","last_reported":1745262482,"current_range_meters":4400,"station_id":"ce4bh292rcd13ifvqdf0","pricing_plan_id":"cebpf4jnsgd1na2vs0mg"},{"bike_id":"0234f4de-715c-4af7-bb72-e43762961e43","system_id":"levelo_inurba_marseille","lat":43.317095,"lon":5.423987,"is_reserved":false,"is_disabled":false,"rental_uris":{"android":"levelo://app?vid=0234f4de-715c-4af7-bb72-e43762961e43","ios":"levelo://app?vid=0234f4de-715c-4af7-bb72-e43762961e43"},"vehicle_type_id":"4","last_reported":1745262482,"current_range_meters":4400,"station_id":"ce4bhp92rcd13ifvqhbg","pricing_plan_id":"cebpf4jnsgd1na2vs0mg"},{"bike_id":"97fb693a-f2fb-4896-8c8d-7bc9845bbd83","system_id":"levelo_inurba_marseille","lat":43.30583,"lon":5.39348,"is_reserved":false,"is_disabled":false,"rental_uris":{"android":"levelo://app?vid=97fb693a-f2fb-4896-8c8d-7bc9845bbd83","ios":"levelo://app?vid=97fb693a-f2fb-4896-8c8d-7bc9845bbd83"},"vehicle_type_id":"4","last_reported":1745262482,"current_range_meters":4800,"station_id":"ce4bh0p2rcd13ifvqd80","pricing_plan_id":"cebpf4jnsgd1na2vs0mg"},{"bike_id":"13dcc10c-4cac-4cf2-9318-07e242720dc9","system_id":"levelo_inurba_marseille","lat":43.312,"lon":5.37715,"is_reserved":false,"is_disabled":false,"rental_uris":{"android":"levelo://app?vid=13dcc10c-4cac-4cf2-9318-07e242720dc9","ios":"levelo://app?vid=13dcc10c-4cac-4cf2-9318-07e242720dc9"},"vehicle_type_id":"4","last_reported":1745262482,"current_range_meters":4800,"station_id":"","pricing_plan_id":"cebpf4jnsgd1na2vs0mg"},{"bike_id":"efbc6328-7abf-4350-8a3c-697edf20a9c9","system_id":"levelo_inurba_marseille","lat":43.28474,"lon":5.38414,"is_reserved":false,"is_disabled":false,"rental_uris":{"android":"levelo://app?vid=efbc6328-7abf-4350-8a3c-697edf20a9c9","ios":"levelo://app?vid=efbc6328-7abf-4350-8a3c-697edf20a9c9"},"vehicle_type_id":"4","last_reported":1745262482,"current_range_meters":4800,"station_id":"ce4bh512rcd13ifvqe3g","pricing_plan_id":"cebpf4jnsgd1na2vs0mg"},{"bike_id":"62397de3-c5e2-4f07-b2bf-3c0d22d85f13","system_id":"levelo_inurba_marseille","lat":43.300913,"lon":5.390807,"is_reserved":false,"is_disabled":false,"rental_uris":{"android":"levelo://app?vid=62397de3-c5e2-4f07-b2bf-3c0d22d85f13","ios":"levelo://app?vid=62397de3-c5e2-4f07-b2bf-3c0d22d85f13"},"vehicle_type_id":"4","last_reported":1745262482,"current_range_meters":7200,"station_id":"ce4bh192rcd13ifvqdb0","pricing_plan_id":"cebpf4jnsgd1na2vs0mg"},{"bike_id":"e1d098df-d18f-4238-be7b-64dbf758765d","system_id":"levelo_inurba_marseille","lat":43.27674,"lon":5.3887,"is_reserved":false,"is_disabled":false,"rental_uris":{"android":"levelo://app?vid=e1d098df-d18f-4238-be7b-64dbf758765d","ios":"levelo://app?vid=e1d098df-d18f-4238-be7b-64dbf758765d"},"vehicle_type_id":"4","last_reported":1745262482,"current_range_meters":4800,"station_id":"ce4bhi12rcd13ifvqfo0","pricing_plan_id":"cebpf4jnsgd1na2vs0mg"},{"bike_id":"949a3b98-b3d0-4b58-9e5c-50967c540964","system_id":"levelo_inurba_marseille","lat":43.29714,"lon":5.40075,"is_reserved":false,"is_disabled":false,"rental_uris":{"android":"levelo://app?vid=949a3b98-b3d0-4b58-9e5c-50967c540964","ios":"levelo://app?vid=949a3b98-b3d0-4b58-9e5c-50967c540964"},"vehicle_type_id":"4","last_reported":1745262482,"current_range_meters":4800,"station_id":"","pricing_plan_id":"cebpf4jnsgd1na2vs0mg"},{"bike_id":"7c3d914b-e715-44bc-9cd3-ab2b7e1e56d3","system_id":"levelo_inurba_marseille","lat":43.29795,"lon":5.38099,"is_reserved":false,"is_disabled":false,"rental_uris":{"android":"levelo://app?vid=7c3d914b-e715-44bc-9cd3-ab2b7e1e56d3","ios":"levelo://app?vid=7c3d914b-e715-44bc-9cd3-ab2b7e1e56d3"},"vehicle_type_id":"4","last_reported":1745262482,"current_range_meters":6000,"station_id":"ce4bgip2rcd13ifvqbb0","pricing_plan_id":"cebpf4jnsgd1na2vs0mg"},{"bike_id":"45153191-45c4-445e-976e-05a0742d263d","system_id":"levelo_inurba_marseille","lat":43.29024,"lon":5.38646,"is_reserved":false,"is_disabled":false,"rental_uris":{"android":"levelo://app?vid=45153191-45c4-445e-976e-05a0742d263d","ios":"levelo://app?vid=45153191-45c4-445e-976e-05a0742d263d"},"vehicle_type_id":"4","last_reported":1745262482,"current_range_meters":5600,"station_id":"ce4bh4p2rcd13ifvqe0g","pricing_plan_id":"cebpf4jnsgd1na2vs0mg"},{"bike_id":"1d3ad12c-49e9-4321-8cc9-f689e02a3e54","system_id":"levelo_inurba_marseille","lat":43.25003,"lon":5.3892,"is_reserved":false,"is_disabled":false,"rental_uris":{"android":"levelo://app?vid=1d3ad12c-49e9-4321-8cc9-f689e02a3e54","ios":"levelo://app?vid=1d3ad12c-49e9-4321-8cc9-f689e02a3e54"},"vehicle_type_id":"4","last_reported":1745262482,"current_range_meters":5600,"station_id":"ce4bhgp2rcd13ifvqfd0","pricing_plan_id":"cebpf4jnsgd1na2vs0mg"},{"bike_id":"7cbee0a6-6e2a-4c46-9fb2-e251e283dd79","system_id":"levelo_inurba_marseille","lat":43.31684,"lon":5.40475,"is_reserved":false,"is_disabled":false,"rental_uris":{"android":"levelo://app?vid=7cbee0a6-6e2a-4c46-9fb2-e251e283dd79","ios":"levelo://app?vid=7cbee0a6-6e2a-4c46-9fb2-e251e283dd79"},"vehicle_type_id":"4","last_reported":1745262482,"current_range_meters":5600,"station_id":"ce4bh012rcd13ifvqd00","pricing_plan_id":"cebpf4jnsgd1na2vs0mg"},{"bike_id":"1813cc78-ad5e-46e0-b963-70ce894e6aa3","system_id":"levelo_inurba_marseille","lat":43.30131,"lon":5.38782,"is_reserved":false,"is_disabled":false,"rental_uris":{"android":"levelo://app?vid=1813cc78-ad5e-46e0-b963-70ce894e6aa3","ios":"levelo://app?vid=1813cc78-ad5e-46e0-b963-70ce894e6aa3"},"vehicle_type_id":"4","last_reported":1745262482,"current_range_meters":5600,"station_id":"ce4bghh2rcd13ifvqb60","pricing_plan_id":"cebpf4jnsgd1na2vs0mg"},{"bike_id":"4f0b25c3-2f51-4c00-9f56-69333455e756","system_id":"levelo_inurba_marseille","lat":43.27861,"lon":5.39271,"is_reserved":false,"is_disabled":false,"rental_uris":{"android":"levelo://app?vid=4f0b25c3-2f51-4c00-9f56-69333455e756","ios":"levelo://app?vid=4f0b25c3-2f51-4c00-9f56-69333455e756"},"vehicle_type_id":"4","last_reported":1745262482,"current_range_meters":5600,"station_id":"","pricing_plan_id":"cebpf4jnsgd1na2vs0mg"},{"bike_id":"e39d68e1-d581-42b4-beaf-9a00f5ac5bac","system_id":"levelo_inurba_marseille","lat":43.21197,"lon":5.35071,"is_reserved":false,"is_disabled":true,"rental_uris":{"android":"levelo://app?vid=e39d68e1-d581-42b4-beaf-9a00f5ac5bac","ios":"levelo://app?vid=e39d68e1-d581-42b4-beaf-9a00f5ac5bac"},"vehicle_type_id":"4","last_reported":1745262482,"current_range_meters":5600,"station_id":"st_cvj6sg6p6f1abm77japg","pricing_plan_id":"cebpf4jnsgd1na2vs0mg"},{"bike_id":"ff015f52-fe71-4780-baef-e4240fb87c7a","system_id":"levelo_inurba_marseille","lat":43.28688,"lon":5.3867,"is_reserved":false,"is_disabled":false,"rental_uris":{"android":"levelo://app?vid=ff015f52-fe71-4780-baef-e4240fb87c7a","ios":"levelo://app?vid=ff015f52-fe71-4780-baef-e4240fb87c7a"},"vehicle_type_id":"4","last_reported":1745262482,"current_range_meters":5600,"station_id":"ce4bh492rcd13ifvqdug","pricing_plan_id":"cebpf4jnsgd1na2vs0mg"},{"bike_id":"0d5ea7b1-dddf-43fe-aea2-a6db5036338d","system_id":"levelo_inurba_marseille","lat":43.29027,"lon":5.38643,"is_reserved":false,"is_disabled":true,"rental_uris":{"android":"levelo://app?vid=0d5ea7b1-dddf-43fe-aea2-a6db5036338d","ios":"levelo://app?vid=0d5ea7b1-dddf-43fe-aea2-a6db5036338d"},"vehicle_type_id":"4","last_reported":1745262482,"current_range_meters":6000,"station_id":"ce4bh4p2rcd13ifvqe0g","pricing_plan_id":"cebpf4jnsgd1na2vs0mg"},{"bike_id":"f72ab755-4e3c-4824-8091-681d60d607bf","system_id":"levelo_inurba_marseille","lat":43.29199,"lon":5.39329,"is_reserved":false,"is_disabled":false,"rental_uris":{"android":"levelo://app?vid=f72ab755-4e3c-4824-8091-681d60d607bf","ios":"levelo://app?vid=f72ab755-4e3c-4824-8091-681d60d607bf"},"vehicle_type_id":"4","last_reported":1745262482,"current_range_meters":6000,"station_id":"ce4bh192rcd13ifvqdd0","pricing_plan_id":"cebpf4jnsgd1na2vs0mg"},{"bike_id":"49225d49-9260-47b2-a782-7d3d21b08c48","system_id":"levelo_inurba_marseille","lat":43.295342,"lon":5.378851,"is_reserved":false,"is_disabled":false,"rental_uris":{"android":"levelo://app?vid=49225d49-9260-47b2-a782-7d3d21b08c48","ios":"levelo://app?vid=49225d49-9260-47b2-a782-7d3d21b08c48"},"vehicle_type_id":"4","last_reported":1745262482,"current_range_meters":6000,"station_id":"","pricing_plan_id":"cebpf4jnsgd1na2vs0mg"},{"bike_id":"aa7732ee-a4c3-41d6-bfd4-2c8591d397d0","system_id":"levelo_inurba_marseille","lat":43.26389,"lon":5.41044,"is_reserved":false,"is_disabled":false,"rental_uris":{"android":"levelo://app?vid=aa7732ee-a4c3-41d6-bfd4-2c8591d397d0","ios":"levelo://app?vid=aa7732ee-a4c3-41d6-bfd4-2c8591d397d0"},"vehicle_type_id":"4","last_reported":1745262482,"current_range_meters":6000,"station_id":"","pricing_plan_id":"cebpf4jnsgd1na2vs0mg"},{"bike_id":"de190201-03da-4d86-ad36-353dd1c9aaea","system_id":"levelo_inurba_marseille","lat":43.29414,"lon":5.38623,"is_reserved":false,"is_disabled":false,"rental_uris":{"android":"levelo://app?vid=de190201-03da-4d86-ad36-353dd1c9aaea","ios":"levelo://app?vid=de190201-03da-4d86-ad36-353dd1c9aaea"},"vehicle_type_id":"4","last_reported":1745262482,"current_range_meters":6400,"station_id":"ce4bh2h2rcd13ifvqdh0","pricing_plan_id":"cebpf4jnsgd1na2vs0mg"},{"bike_id":"2ef4145c-8a24-4f0f-a655-ea9e3224249b","system_id":"levelo_inurba_marseille","lat":43.29888,"lon":5.38881,"is_reserved":false,"is_disabled":false,"rental_uris":{"android":"levelo://app?vid=2ef4145c-8a24-4f0f-a655-ea9e3224249b","ios":"levelo://app?vid=2ef4145c-8a24-4f0f-a655-ea9e3224249b"},"vehicle_type_id":"4","last_reported":1745262482,"current_range_meters":6400,"station_id":"ce4bh392rcd13ifvqdl0","pricing_plan_id":"cebpf4jnsgd1na2vs0mg"},{"bike_id":"2bdde4a3-7509-460a-b2c7-d172c5297380","system_id":"levelo_inurba_marseille","lat":43.21194,"lon":5.3507,"is_reserved":false,"is_disabled":true,"rental_uris":{"android":"levelo://app?vid=2bdde4a3-7509-460a-b2c7-d172c5297380","ios":"levelo://app?vid=2bdde4a3-7509-460a-b2c7-d172c5297380"},"vehicle_type_id":"4","last_reported":1745262482,"current_range_meters":6400,"station_id":"st_cvj6sg6p6f1abm77japg","pricing_plan_id":"cebpf4jnsgd1na2vs0mg"},{"bike_id":"9f354094-8daa-47e9-a771-5877caf7e8d3","system_id":"levelo_inurba_marseille","lat":43.28399,"lon":5.37509,"is_reserved":false,"is_disabled":false,"rental_uris":{"android":"levelo://app?vid=9f354094-8daa-47e9-a771-5877caf7e8d3","ios":"levelo://app?vid=9f354094-8daa-47e9-a771-5877caf7e8d3"},"vehicle_type_id":"4","last_reported":1745262482,"current_range_meters":6400,"station_id":"ce4bh412rcd13ifvqds0","pricing_plan_id":"cebpf4jnsgd1na2vs0mg"},{"bike_id":"76cf5fee-d256-466d-a830-4ad6dbe7ce37","system_id":"levelo_inurba_marseille","lat":43.303213,"lon":5.404441,"is_reserved":false,"is_disabled":false,"rental_uris":{"android":"levelo://app?vid=76cf5fee-d256-466d-a830-4ad6dbe7ce37","ios":"levelo://app?vid=76cf5fee-d256-466d-a830-4ad6dbe7ce37"},"vehicle_type_id":"4","last_reported":1745262482,"current_range_meters":6400,"station_id":"ce4bh012rcd13ifvqd10","pricing_plan_id":"cebpf4jnsgd1na2vs0mg"},{"bike_id":"4bf257ff-5181-40fc-87ed-08d661564e4c","system_id":"levelo_inurba_marseille","lat":43.2952,"lon":5.3854,"is_reserved":false,"is_disabled":false,"rental_uris":{"android":"levelo://app?vid=4bf257ff-5181-40fc-87ed-08d661564e4c","ios":"levelo://app?vid=4bf257ff-5181-40fc-87ed-08d661564e4c"},"vehicle_type_id":"4","last_reported":1745262482,"current_range_meters":6800,"station_id":"ce4bgih2rcd13ifvqba0","pricing_plan_id":"cebpf4jnsgd1na2vs0mg"},{"bike_id":"f4b7679c-b4b8-4f40-8343-5ff5738ed382","system_id":"levelo_inurba_marseille","lat":43.29252,"lon":5.38439,"is_reserved":false,"is_disabled":false,"rental_uris":{"android":"levelo://app?vid=f4b7679c-b4b8-4f40-8343-5ff5738ed382","ios":"levelo://app?vid=f4b7679c-b4b8-4f40-8343-5ff5738ed382"},"vehicle_type_id":"4","last_reported":1745262482,"current_range_meters":6800,"station_id":"ce4bh692rcd13ifvqea0","pricing_plan_id":"cebpf4jnsgd1na2vs0mg"},{"bike_id":"e7970486-b494-4051-868a-ffdb049cce9a","system_id":"levelo_inurba_marseille","lat":43.30092,"lon":5.39072,"is_reserved":false,"is_disabled":false,"rental_uris":{"android":"levelo://app?vid=e7970486-b494-4051-868a-ffdb049cce9a","ios":"levelo://app?vid=e7970486-b494-4051-868a-ffdb049cce9a"},"vehicle_type_id":"4","last_reported":1745262482,"current_range_meters":6800,"station_id":"ce4bh192rcd13ifvqdb0","pricing_plan_id":"cebpf4jnsgd1na2vs0mg"},{"bike_id":"3a6d009e-2e7e-4c02-9f51-08d9aaf56ce6","system_id":"levelo_inurba_marseille","lat":43.30309,"lon":5.392,"is_reserved":false,"is_disabled":true,"rental_uris":{"android":"levelo://app?vid=3a6d009e-2e7e-4c02-9f51-08d9aaf56ce6","ios":"levelo://app?vid=3a6d009e-2e7e-4c02-9f51-08d9aaf56ce6"},"vehicle_type_id":"4","last_reported":1745262482,"current_range_meters":6800,"station_id":"ce4bgkh2rcd13ifvqbk0","pricing_plan_id":"cebpf4jnsgd1na2vs0mg"},{"bike_id":"2759bb3c-4f64-447c-9e92-2508ddee191d","system_id":"levelo_inurba_marseille","lat":43.29974,"lon":5.37171,"is_reserved":false,"is_disabled":false,"rental_uris":{"android":"levelo://app?vid=2759bb3c-4f64-447c-9e92-2508ddee191d","ios":"levelo://app?vid=2759bb3c-4f64-447c-9e92-2508ddee191d"},"vehicle_type_id":"4","last_reported":1745262482,"current_range_meters":6800,"station_id":"ce4bgr92rcd13ifvqc7g","pricing_plan_id":"cebpf4jnsgd1na2vs0mg"},{"bike_id":"6d0b1e09-0778-4875-a9ec-ebd4ab3c5c71","system_id":"levelo_inurba_marseille","lat":43.21198,"lon":5.35068,"is_reserved":false,"is_disabled":true,"rental_uris":{"android":"levelo://app?vid=6d0b1e09-0778-4875-a9ec-ebd4ab3c5c71","ios":"levelo://app?vid=6d0b1e09-0778-4875-a9ec-ebd4ab3c5c71"},"vehicle_type_id":"4","last_reported":1745262482,"current_range_meters":6800,"station_id":"st_cvj6sg6p6f1abm77japg","pricing_plan_id":"cebpf4jnsgd1na2vs0mg"},{"bike_id":"901518be-3c90-4e14-ada4-9071cd926d8b","system_id":"levelo_inurba_marseille","lat":43.27493,"lon":5.4243,"is_reserved":false,"is_disabled":true,"rental_uris":{"android":"levelo://app?vid=901518be-3c90-4e14-ada4-9071cd926d8b","ios":"levelo://app?vid=901518be-3c90-4e14-ada4-9071cd926d8b"},"vehicle_type_id":"4","last_reported":1745262482,"current_range_meters":6800,"station_id":"ce4bhn92rcd13ifvqgrg","pricing_plan_id":"cebpf4jnsgd1na2vs0mg"},{"bike_id":"8a7ec3da-38e6-4187-9266-c9d5e220963c","system_id":"levelo_inurba_marseille","lat":43.24654,"lon":5.38899,"is_reserved":false,"is_disabled":false,"rental_uris":{"android":"levelo://app?vid=8a7ec3da-38e6-4187-9266-c9d5e220963c","ios":"levelo://app?vid=8a7ec3da-38e6-4187-9266-c9d5e220963c"},"vehicle_type_id":"4","last_reported":1745262482,"current_range_meters":6800,"station_id":"ce4bhg12rcd13ifvqf60","pricing_plan_id":"cebpf4jnsgd1na2vs0mg"},{"bike_id":"7b5053a1-6abc-494a-aa95-a321d1070bc6","system_id":"levelo_inurba_marseille","lat":43.28078,"lon":5.39656,"is_reserved":false,"is_disabled":false,"rental_uris":{"android":"levelo://app?vid=7b5053a1-6abc-494a-aa95-a321d1070bc6","ios":"levelo://app?vid=7b5053a1-6abc-494a-aa95-a321d1070bc6"},"vehicle_type_id":"4","last_reported":1745262482,"current_range_meters":7200,"station_id":"ce4bho12rcd13ifvqh2g","pricing_plan_id":"cebpf4jnsgd1na2vs0mg"},{"bike_id":"e9b40b8c-aa8b-493b-9704-ac204b4fdb74","system_id":"levelo_inurba_marseille","lat":43.22499,"lon":5.34782,"is_reserved":false,"is_disabled":true,"rental_uris":{"android":"levelo://app?vid=e9b40b8c-aa8b-493b-9704-ac204b4fdb74","ios":"levelo://app?vid=e9b40b8c-aa8b-493b-9704-ac204b4fdb74"},"vehicle_type_id":"4","last_reported":1745262482,"current_range_meters":7200,"station_id":"","pricing_plan_id":"cebpf4jnsgd1na2vs0mg"},{"bike_id":"02f16d4f-2b68-4108-bbed-4b96bddbbb6d","system_id":"levelo_inurba_marseille","lat":43.29016,"lon":5.38128,"is_reserved":false,"is_disabled":false,"rental_uris":{"android":"levelo://app?vid=02f16d4f-2b68-4108-bbed-4b96bddbbb6d","ios":"levelo://app?vid=02f16d4f-2b68-4108-bbed-4b96bddbbb6d"},"vehicle_type_id":"4","last_reported":1745262482,"current_range_meters":7200,"station_id":"ce4bh4p2rcd13ifvqe1g","pricing_plan_id":"cebpf4jnsgd1na2vs0mg"},{"bike_id":"d5254860-01e9-48cf-aa1d-c9230eea6296","system_id":"levelo_inurba_marseille","lat":43.31681,"lon":5.40468,"is_reserved":false,"is_disabled":false,"rental_uris":{"android":"levelo://app?vid=d5254860-01e9-48cf-aa1d-c9230eea6296","ios":"levelo://app?vid=d5254860-01e9-48cf-aa1d-c9230eea6296"},"vehicle_type_id":"4","last_reported":1745262482,"current_range_meters":7200,"station_id":"ce4bh012rcd13ifvqd00","pricing_plan_id":"cebpf4jnsgd1na2vs0mg"},{"bike_id":"64dd3bfc-4f90-4caf-b651-ecb0b5889e48","system_id":"levelo_inurba_marseille","lat":43.290247,"lon":5.381299,"is_reserved":false,"is_disabled":false,"rental_uris":{"android":"levelo://app?vid=64dd3bfc-4f90-4caf-b651-ecb0b5889e48","ios":"levelo://app?vid=64dd3bfc-4f90-4caf-b651-ecb0b5889e48"},"vehicle_type_id":"4","last_reported":1745262482,"current_range_meters":7200,"station_id":"ce4bh4p2rcd13ifvqe1g","pricing_plan_id":"cebpf4jnsgd1na2vs0mg"},{"bike_id":"78a51960-7f1a-46c8-a114-701fb862f3fd","system_id":"levelo_inurba_marseille","lat":43.3044,"lon":5.38886,"is_reserved":false,"is_disabled":false,"rental_uris":{"android":"levelo://app?vid=78a51960-7f1a-46c8-a114-701fb862f3fd","ios":"levelo://app?vid=78a51960-7f1a-46c8-a114-701fb862f3fd"},"vehicle_type_id":"4","last_reported":1745262482,"current_range_meters":7200,"station_id":"ce4bgk12rcd13ifvqbi0","pricing_plan_id":"cebpf4jnsgd1na2vs0mg"},{"bike_id":"a373f1b2-c1f8-4d57-bca1-4c97514ea92c","system_id":"levelo_inurba_marseille","lat":43.31279,"lon":5.36837,"is_reserved":false,"is_disabled":true,"rental_uris":{"android":"levelo://app?vid=a373f1b2-c1f8-4d57-bca1-4c97514ea92c","ios":"levelo://app?vid=a373f1b2-c1f8-4d57-bca1-4c97514ea92c"},"vehicle_type_id":"4","last_reported":1745262482,"current_range_meters":7200,"station_id":"ce4bgl92rcd13ifvqbq0","pricing_plan_id":"cebpf4jnsgd1na2vs0mg"},{"bike_id":"f3f340a3-e5ea-4961-8256-ba168bd105d0","system_id":"levelo_inurba_marseille","lat":43.29184,"lon":5.39334,"is_reserved":false,"is_disabled":false,"rental_uris":{"android":"levelo://app?vid=f3f340a3-e5ea-4961-8256-ba168bd105d0","ios":"levelo://app?vid=f3f340a3-e5ea-4961-8256-ba168bd105d0"},"vehicle_type_id":"4","last_reported":1745262482,"current_range_meters":7200,"station_id":"ce4bh192rcd13ifvqdd0","pricing_plan_id":"cebpf4jnsgd1na2vs0mg"},{"bike_id":"8ec9a8ac-eb08-46aa-808d-7285f883d9da","system_id":"levelo_inurba_marseille","lat":43.29885,"lon":5.39727,"is_reserved":false,"is_disabled":false,"rental_uris":{"android":"levelo://app?vid=8ec9a8ac-eb08-46aa-808d-7285f883d9da","ios":"levelo://app?vid=8ec9a8ac-eb08-46aa-808d-7285f883d9da"},"vehicle_type_id":"4","last_reported":1745262482,"current_range_meters":7200,"station_id":"ce4bh0h2rcd13ifvqd50","pricing_plan_id":"cebpf4jnsgd1na2vs0mg"},{"bike_id":"f984d1c9-94d7-48d1-9f06-f702edb8335d","system_id":"levelo_inurba_marseille","lat":43.24168,"lon":5.36396,"is_reserved":false,"is_disabled":true,"rental_uris":{"android":"levelo://app?vid=f984d1c9-94d7-48d1-9f06-f702edb8335d","ios":"levelo://app?vid=f984d1c9-94d7-48d1-9f06-f702edb8335d"},"vehicle_type_id":"4","last_reported":1745262482,"current_range_meters":7200,"station_id":"cpo36qri1sfpv3e86is0","pricing_plan_id":"cebpf4jnsgd1na2vs0mg"},{"bike_id":"a8533ee4-3ca9-4b70-9906-0934786bd64e","system_id":"levelo_inurba_marseille","lat":43.29523,"lon":5.38535,"is_reserved":false,"is_disabled":false,"rental_uris":{"android":"levelo://app?vid=a8533ee4-3ca9-4b70-9906-0934786bd64e","ios":"levelo://app?vid=a8533ee4-3ca9-4b70-9906-0934786bd64e"},"vehicle_type_id":"4","last_reported":1745262482,"current_range_meters":7200,"station_id":"ce4bgih2rcd13ifvqba0","pricing_plan_id":"cebpf4jnsgd1na2vs0mg"},{"bike_id":"4ded19ea-e166-47c6-abee-aeab528e9710","system_id":"levelo_inurba_marseille","lat":43.28938,"lon":5.36626,"is_reserved":false,"is_disabled":false,"rental_uris":{"android":"levelo://app?vid=4ded19ea-e166-47c6-abee-aeab528e9710","ios":"levelo://app?vid=4ded19ea-e166-47c6-abee-aeab528e9710"},"vehicle_type_id":"4","last_reported":1745262482,"current_range_meters":7200,"station_id":"ce4bhap2rcd13ifvqek0","pricing_plan_id":"cebpf4jnsgd1na2vs0mg"},{"bike_id":"fce42aed-2209-4249-9139-b16de87552a7","system_id":"levelo_inurba_marseille","lat":43.30955,"lon":5.39037,"is_reserved":false,"is_disabled":false,"rental_uris":{"android":"levelo://app?vid=fce42aed-2209-4249-9139-b16de87552a7","ios":"levelo://app?vid=fce42aed-2209-4249-9139-b16de87552a7"},"vehicle_type_id":"4","last_reported":1745262482,"current_range_meters":8000,"station_id":"ce4bgup2rcd13ifvqco0","pricing_plan_id":"cebpf4jnsgd1na2vs0mg"},{"bike_id":"0c20c7a2-3c2c-40af-ba71-b3e4f7fe2ea1","system_id":"levelo_inurba_marseille","lat":43.28998,"lon":5.366583,"is_reserved":false,"is_disabled":false,"rental_uris":{"android":"levelo://app?vid=0c20c7a2-3c2c-40af-ba71-b3e4f7fe2ea1","ios":"levelo://app?vid=0c20c7a2-3c2c-40af-ba71-b3e4f7fe2ea1"},"vehicle_type_id":"4","last_reported":1745262482,"current_range_meters":9200,"station_id":"ce4bhap2rcd13ifvqek0","pricing_plan_id":"cebpf4jnsgd1na2vs0mg"},{"bike_id":"5723ed25-cf6f-4de6-b5c5-e1e700379220","system_id":"levelo_inurba_marseille","lat":43.29262,"lon":5.38419,"is_reserved":false,"is_disabled":false,"rental_uris":{"android":"levelo://app?vid=5723ed25-cf6f-4de6-b5c5-e1e700379220","ios":"levelo://app?vid=5723ed25-cf6f-4de6-b5c5-e1e700379220"},"vehicle_type_id":"4","last_reported":1745262482,"current_range_meters":7200,"station_id":"ce4bh692rcd13ifvqea0","pricing_plan_id":"cebpf4jnsgd1na2vs0mg"},{"bike_id":"3be8363e-85d5-4418-bd40-fd2496f282a2","system_id":"levelo_inurba_marseille","lat":43.31685,"lon":5.40473,"is_reserved":false,"is_disabled":false,"rental_uris":{"android":"levelo://app?vid=3be8363e-85d5-4418-bd40-fd2496f282a2","ios":"levelo://app?vid=3be8363e-85d5-4418-bd40-fd2496f282a2"},"vehicle_type_id":"4","last_reported":1745262482,"current_range_meters":8000,"station_id":"ce4bh012rcd13ifvqd00","pricing_plan_id":"cebpf4jnsgd1na2vs0mg"},{"bike_id":"192d51cc-116a-4926-aa4a-e1515bcb8248","system_id":"levelo_inurba_marseille","lat":43.29972,"lon":5.38455,"is_reserved":false,"is_disabled":true,"rental_uris":{"android":"levelo://app?vid=192d51cc-116a-4926-aa4a-e1515bcb8248","ios":"levelo://app?vid=192d51cc-116a-4926-aa4a-e1515bcb8248"},"vehicle_type_id":"4","last_reported":1745262482,"current_range_meters":8000,"station_id":"ce4bgj92rcd13ifvqbd0","pricing_plan_id":"cebpf4jnsgd1na2vs0mg"},{"bike_id":"f3a940f0-aed0-4bad-a33e-6bbde2229405","system_id":"levelo_inurba_marseille","lat":43.29103,"lon":5.381409,"is_reserved":false,"is_disabled":false,"rental_uris":{"android":"levelo://app?vid=f3a940f0-aed0-4bad-a33e-6bbde2229405","ios":"levelo://app?vid=f3a940f0-aed0-4bad-a33e-6bbde2229405"},"vehicle_type_id":"4","last_reported":1745262482,"current_range_meters":8000,"station_id":"ce4bh512rcd13ifvqe2g","pricing_plan_id":"cebpf4jnsgd1na2vs0mg"},{"bike_id":"23e4f5a2-d63f-4331-aa67-f460a1a7513b","system_id":"levelo_inurba_marseille","lat":43.29532,"lon":5.38531,"is_reserved":false,"is_disabled":false,"rental_uris":{"android":"levelo://app?vid=23e4f5a2-d63f-4331-aa67-f460a1a7513b","ios":"levelo://app?vid=23e4f5a2-d63f-4331-aa67-f460a1a7513b"},"vehicle_type_id":"4","last_reported":1745262482,"current_range_meters":8000,"station_id":"ce4bgih2rcd13ifvqba0","pricing_plan_id":"cebpf4jnsgd1na2vs0mg"},{"bike_id":"d2ad2d5d-49f3-4cbf-9a85-e6db35cbb04d","system_id":"levelo_inurba_marseille","lat":43.25724,"lon":5.41106,"is_reserved":false,"is_disabled":false,"rental_uris":{"android":"levelo://app?vid=d2ad2d5d-49f3-4cbf-9a85-e6db35cbb04d","ios":"levelo://app?vid=d2ad2d5d-49f3-4cbf-9a85-e6db35cbb04d"},"vehicle_type_id":"4","last_reported":1745262482,"current_range_meters":8000,"station_id":"ce4bhkp2rcd13ifvqgd0","pricing_plan_id":"cebpf4jnsgd1na2vs0mg"},{"bike_id":"bfefb57c-154e-4cbc-90d7-24ac4b95745f","system_id":"levelo_inurba_marseille","lat":43.31154,"lon":5.36749,"is_reserved":false,"is_disabled":false,"rental_uris":{"android":"levelo://app?vid=bfefb57c-154e-4cbc-90d7-24ac4b95745f","ios":"levelo://app?vid=bfefb57c-154e-4cbc-90d7-24ac4b95745f"},"vehicle_type_id":"4","last_reported":1745262482,"current_range_meters":8000,"station_id":"","pricing_plan_id":"cebpf4jnsgd1na2vs0mg"},{"bike_id":"0e3f01e5-c3de-4476-9321-0ae8ce1ce1f2","system_id":"levelo_inurba_marseille","lat":43.283762,"lon":5.386406,"is_reserved":false,"is_disabled":false,"rental_uris":{"android":"levelo://app?vid=0e3f01e5-c3de-4476-9321-0ae8ce1ce1f2","ios":"levelo://app?vid=0e3f01e5-c3de-4476-9321-0ae8ce1ce1f2"},"vehicle_type_id":"4","last_reported":1745262482,"current_range_meters":8000,"station_id":"ce4bh492rcd13ifvqdvg","pricing_plan_id":"cebpf4jnsgd1na2vs0mg"},{"bike_id":"c6e6ce50-97c6-4729-930a-93f8630e64d2","system_id":"levelo_inurba_marseille","lat":43.29198,"lon":5.35804,"is_reserved":false,"is_disabled":false,"rental_uris":{"android":"levelo://app?vid=c6e6ce50-97c6-4729-930a-93f8630e64d2","ios":"levelo://app?vid=c6e6ce50-97c6-4729-930a-93f8630e64d2"},"vehicle_type_id":"4","last_reported":1745262482,"current_range_meters":11200,"station_id":"ce4bhb12rcd13ifvqel0","pricing_plan_id":"cebpf4jnsgd1na2vs0mg"},{"bike_id":"dacb9310-ef47-42d4-82c3-6f67b29ded17","system_id":"levelo_inurba_marseille","lat":43.3199,"lon":5.38144,"is_reserved":false,"is_disabled":true,"rental_uris":{"android":"levelo://app?vid=dacb9310-ef47-42d4-82c3-6f67b29ded17","ios":"levelo://app?vid=dacb9310-ef47-42d4-82c3-6f67b29ded17"},"vehicle_type_id":"4","last_reported":1745262482,"current_range_meters":8400,"station_id":"ce4bhr12rcd13ifvqhpg","pricing_plan_id":"cebpf4jnsgd1na2vs0mg"},{"bike_id":"85175fb0-a5c3-40fd-b8f0-a9073a37f8f0","system_id":"levelo_inurba_marseille","lat":43.28998,"lon":5.35611,"is_reserved":false,"is_disabled":false,"rental_uris":{"android":"levelo://app?vid=85175fb0-a5c3-40fd-b8f0-a9073a37f8f0","ios":"levelo://app?vid=85175fb0-a5c3-40fd-b8f0-a9073a37f8f0"},"vehicle_type_id":"4","last_reported":1745262482,"current_range_meters":9600,"station_id":"ce4bhb92rcd13ifvqen0","pricing_plan_id":"cebpf4jnsgd1na2vs0mg"},{"bike_id":"92223572-9c4e-4e11-abb0-80ffcb01caab","system_id":"levelo_inurba_marseille","lat":43.295342,"lon":5.385344,"is_reserved":false,"is_disabled":false,"rental_uris":{"android":"levelo://app?vid=92223572-9c4e-4e11-abb0-80ffcb01caab","ios":"levelo://app?vid=92223572-9c4e-4e11-abb0-80ffcb01caab"},"vehicle_type_id":"4","last_reported":1745262482,"current_range_meters":8400,"station_id":"ce4bgih2rcd13ifvqba0","pricing_plan_id":"cebpf4jnsgd1na2vs0mg"},{"bike_id":"70313b9e-da0f-451b-b6d0-252d8447c127","system_id":"levelo_inurba_marseille","lat":43.287,"lon":5.37403,"is_reserved":false,"is_disabled":false,"rental_uris":{"android":"levelo://app?vid=70313b9e-da0f-451b-b6d0-252d8447c127","ios":"levelo://app?vid=70313b9e-da0f-451b-b6d0-252d8447c127"},"vehicle_type_id":"4","last_reported":1745262482,"current_range_meters":8400,"station_id":"ce4bh3p2rcd13ifvqdq0","pricing_plan_id":"cebpf4jnsgd1na2vs0mg"},{"bike_id":"5c9fb802-7afe-45a5-8a04-050d1c8cc1b5","system_id":"levelo_inurba_marseille","lat":43.31219,"lon":5.36843,"is_reserved":false,"is_disabled":false,"rental_uris":{"android":"levelo://app?vid=5c9fb802-7afe-45a5-8a04-050d1c8cc1b5","ios":"levelo://app?vid=5c9fb802-7afe-45a5-8a04-050d1c8cc1b5"},"vehicle_type_id":"4","last_reported":1745262482,"current_range_meters":8400,"station_id":"ce4bgl92rcd13ifvqbq0","pricing_plan_id":"cebpf4jnsgd1na2vs0mg"},{"bike_id":"c8834f95-6016-4fd9-93c4-406cd7209183","system_id":"levelo_inurba_marseille","lat":43.30364,"lon":5.40422,"is_reserved":false,"is_disabled":false,"rental_uris":{"android":"levelo://app?vid=c8834f95-6016-4fd9-93c4-406cd7209183","ios":"levelo://app?vid=c8834f95-6016-4fd9-93c4-406cd7209183"},"vehicle_type_id":"4","last_reported":1745262482,"current_range_meters":8400,"station_id":"ce4bh012rcd13ifvqd10","pricing_plan_id":"cebpf4jnsgd1na2vs0mg"},{"bike_id":"0473ed2f-5039-4e71-8f48-2421954e8490","system_id":"levelo_inurba_marseille","lat":43.28694,"lon":5.39976,"is_reserved":false,"is_disabled":false,"rental_uris":{"android":"levelo://app?vid=0473ed2f-5039-4e71-8f48-2421954e8490","ios":"levelo://app?vid=0473ed2f-5039-4e71-8f48-2421954e8490"},"vehicle_type_id":"4","last_reported":1745262482,"current_range_meters":8800,"station_id":"ce4bho92rcd13ifvqh3g","pricing_plan_id":"cebpf4jnsgd1na2vs0mg"},{"bike_id":"2118672d-b962-419d-b54b-f9eed6f77cab","system_id":"levelo_inurba_marseille","lat":43.27575,"lon":5.38412,"is_reserved":false,"is_disabled":false,"rental_uris":{"android":"levelo://app?vid=2118672d-b962-419d-b54b-f9eed6f77cab","ios":"levelo://app?vid=2118672d-b962-419d-b54b-f9eed6f77cab"},"vehicle_type_id":"4","last_reported":1745262482,"current_range_meters":8800,"station_id":"ce4bhh92rcd13ifvqfi0","pricing_plan_id":"cebpf4jnsgd1na2vs0mg"},{"bike_id":"fdbf53dc-c001-4cbc-9204-4aaa3f39f340","system_id":"levelo_inurba_marseille","lat":43.2952,"lon":5.39042,"is_reserved":false,"is_disabled":false,"rental_uris":{"android":"levelo://app?vid=fdbf53dc-c001-4cbc-9204-4aaa3f39f340","ios":"levelo://app?vid=fdbf53dc-c001-4cbc-9204-4aaa3f39f340"},"vehicle_type_id":"4","last_reported":1745262482,"current_range_meters":8800,"station_id":"ce4bh3p2rcd13ifvqdp0","pricing_plan_id":"cebpf4jnsgd1na2vs0mg"},{"bike_id":"4ab011d8-b099-4844-99c1-9eeb02237894","system_id":"levelo_inurba_marseille","lat":43.31484,"lon":5.37309,"is_reserved":false,"is_disabled":false,"rental_uris":{"android":"levelo://app?vid=4ab011d8-b099-4844-99c1-9eeb02237894","ios":"levelo://app?vid=4ab011d8-b099-4844-99c1-9eeb02237894"},"vehicle_type_id":"4","last_reported":1745262482,"current_range_meters":8800,"station_id":"ce4bgt12rcd13ifvqcd0","pricing_plan_id":"cebpf4jnsgd1na2vs0mg"},{"bike_id":"fac4d9d4-fb2d-43d8-8f90-866c5d224706","system_id":"levelo_inurba_marseille","lat":43.30884,"lon":5.3965,"is_reserved":false,"is_disabled":false,"rental_uris":{"android":"levelo://app?vid=fac4d9d4-fb2d-43d8-8f90-866c5d224706","ios":"levelo://app?vid=fac4d9d4-fb2d-43d8-8f90-866c5d224706"},"vehicle_type_id":"4","last_reported":1745262482,"current_range_meters":8800,"station_id":"ce4bh012rcd13ifvqcv0","pricing_plan_id":"cebpf4jnsgd1na2vs0mg"},{"bike_id":"1f84f51f-d2f4-4d4c-982d-d184ffe24a02","system_id":"levelo_inurba_marseille","lat":43.3236,"lon":5.38891,"is_reserved":false,"is_disabled":true,"rental_uris":{"android":"levelo://app?vid=1f84f51f-d2f4-4d4c-982d-d184ffe24a02","ios":"levelo://app?vid=1f84f51f-d2f4-4d4c-982d-d184ffe24a02"},"vehicle_type_id":"4","last_reported":1745262482,"current_range_meters":8800,"station_id":"ce4bhqp2rcd13ifvqhog","pricing_plan_id":"cebpf4jnsgd1na2vs0mg"},{"bike_id":"5eb689d0-1a02-480e-898e-4fbf2c8b1899","system_id":"levelo_inurba_marseille","lat":43.2655,"lon":5.39045,"is_reserved":false,"is_disabled":false,"rental_uris":{"android":"levelo://app?vid=5eb689d0-1a02-480e-898e-4fbf2c8b1899","ios":"levelo://app?vid=5eb689d0-1a02-480e-898e-4fbf2c8b1899"},"vehicle_type_id":"4","last_reported":1745262482,"current_range_meters":8800,"station_id":"ce4bhe12rcd13ifvqf30","pricing_plan_id":"cebpf4jnsgd1na2vs0mg"},{"bike_id":"5cca747e-23ae-49d6-9ba3-1c7939696a15","system_id":"levelo_inurba_marseille","lat":43.25131,"lon":5.40318,"is_reserved":false,"is_disabled":false,"rental_uris":{"android":"levelo://app?vid=5cca747e-23ae-49d6-9ba3-1c7939696a15","ios":"levelo://app?vid=5cca747e-23ae-49d6-9ba3-1c7939696a15"},"vehicle_type_id":"4","last_reported":1745262482,"current_range_meters":9200,"station_id":"ce4bhlh2rcd13ifvqgig","pricing_plan_id":"cebpf4jnsgd1na2vs0mg"},{"bike_id":"b80ff78e-a74b-4985-afe3-790db9257846","system_id":"levelo_inurba_marseille","lat":43.29529,"lon":5.38543,"is_reserved":false,"is_disabled":false,"rental_uris":{"android":"levelo://app?vid=b80ff78e-a74b-4985-afe3-790db9257846","ios":"levelo://app?vid=b80ff78e-a74b-4985-afe3-790db9257846"},"vehicle_type_id":"4","last_reported":1745262482,"current_range_meters":9200,"station_id":"ce4bgih2rcd13ifvqba0","pricing_plan_id":"cebpf4jnsgd1na2vs0mg"},{"bike_id":"729cb1e5-195c-4c2f-a407-ff2a3f1fc00b","system_id":"levelo_inurba_marseille","lat":43.29022,"lon":5.38656,"is_reserved":false,"is_disabled":false,"rental_uris":{"android":"levelo://app?vid=729cb1e5-195c-4c2f-a407-ff2a3f1fc00b","ios":"levelo://app?vid=729cb1e5-195c-4c2f-a407-ff2a3f1fc00b"},"vehicle_type_id":"4","last_reported":1745262482,"current_range_meters":9200,"station_id":"ce4bh4p2rcd13ifvqe0g","pricing_plan_id":"cebpf4jnsgd1na2vs0mg"},{"bike_id":"f2c7a35c-da29-4f74-9787-533689996722","system_id":"levelo_inurba_marseille","lat":43.29429,"lon":5.38609,"is_reserved":false,"is_disabled":false,"rental_uris":{"android":"levelo://app?vid=f2c7a35c-da29-4f74-9787-533689996722","ios":"levelo://app?vid=f2c7a35c-da29-4f74-9787-533689996722"},"vehicle_type_id":"4","last_reported":1745262482,"current_range_meters":9200,"station_id":"ce4bh2h2rcd13ifvqdh0","pricing_plan_id":"cebpf4jnsgd1na2vs0mg"},{"bike_id":"d54aa125-a7b8-488a-aa84-0d00027add4b","system_id":"levelo_inurba_marseille","lat":43.2756,"lon":5.38428,"is_reserved":false,"is_disabled":false,"rental_uris":{"android":"levelo://app?vid=d54aa125-a7b8-488a-aa84-0d00027add4b","ios":"levelo://app?vid=d54aa125-a7b8-488a-aa84-0d00027add4b"},"vehicle_type_id":"4","last_reported":1745262482,"current_range_meters":9200,"station_id":"ce4bhh92rcd13ifvqfi0","pricing_plan_id":"cebpf4jnsgd1na2vs0mg"},{"bike_id":"f56e1161-7ff0-4300-8db9-1ffe8dc33443","system_id":"levelo_inurba_marseille","lat":43.29424,"lon":5.38625,"is_reserved":false,"is_disabled":false,"rental_uris":{"android":"levelo://app?vid=f56e1161-7ff0-4300-8db9-1ffe8dc33443","ios":"levelo://app?vid=f56e1161-7ff0-4300-8db9-1ffe8dc33443"},"vehicle_type_id":"4","last_reported":1745262482,"current_range_meters":9200,"station_id":"ce4bh2h2rcd13ifvqdh0","pricing_plan_id":"cebpf4jnsgd1na2vs0mg"},{"bike_id":"08adba7b-eac3-4cfc-9923-2ccf0cc4ffef","system_id":"levelo_inurba_marseille","lat":43.2452,"lon":5.41306,"is_reserved":false,"is_disabled":false,"rental_uris":{"android":"levelo://app?vid=08adba7b-eac3-4cfc-9923-2ccf0cc4ffef","ios":"levelo://app?vid=08adba7b-eac3-4cfc-9923-2ccf0cc4ffef"},"vehicle_type_id":"4","last_reported":1745262482,"current_range_meters":9200,"station_id":"","pricing_plan_id":"cebpf4jnsgd1na2vs0mg"},{"bike_id":"cfb7b194-cda7-4e24-9e68-03c4bccc2cae","system_id":"levelo_inurba_marseille","lat":43.28455,"lon":5.35889,"is_reserved":false,"is_disabled":false,"rental_uris":{"android":"levelo://app?vid=cfb7b194-cda7-4e24-9e68-03c4bccc2cae","ios":"levelo://app?vid=cfb7b194-cda7-4e24-9e68-03c4bccc2cae"},"vehicle_type_id":"4","last_reported":1745262482,"current_range_meters":9200,"station_id":"ce4bhah2rcd13ifvqei0","pricing_plan_id":"cebpf4jnsgd1na2vs0mg"},{"bike_id":"21529204-a44d-43e5-834c-054d484e8dc1","system_id":"levelo_inurba_marseille","lat":43.2893,"lon":5.3962,"is_reserved":false,"is_disabled":false,"rental_uris":{"android":"levelo://app?vid=21529204-a44d-43e5-834c-054d484e8dc1","ios":"levelo://app?vid=21529204-a44d-43e5-834c-054d484e8dc1"},"vehicle_type_id":"4","last_reported":1745262482,"current_range_meters":9200,"station_id":"ce4bh3h2rcd13ifvqdn0","pricing_plan_id":"cebpf4jnsgd1na2vs0mg"},{"bike_id":"34166cb2-24d1-48d4-88e5-65264e3a037d","system_id":"levelo_inurba_marseille","lat":43.31041,"lon":5.37103,"is_reserved":false,"is_disabled":false,"rental_uris":{"android":"levelo://app?vid=34166cb2-24d1-48d4-88e5-65264e3a037d","ios":"levelo://app?vid=34166cb2-24d1-48d4-88e5-65264e3a037d"},"vehicle_type_id":"4","last_reported":1745262482,"current_range_meters":9600,"station_id":"","pricing_plan_id":"cebpf4jnsgd1na2vs0mg"},{"bike_id":"5d71f84a-10ca-4e55-9806-002e8068abd8","system_id":"levelo_inurba_marseille","lat":43.27931,"lon":5.39626,"is_reserved":false,"is_disabled":false,"rental_uris":{"android":"levelo://app?vid=5d71f84a-10ca-4e55-9806-002e8068abd8","ios":"levelo://app?vid=5d71f84a-10ca-4e55-9806-002e8068abd8"},"vehicle_type_id":"4","last_reported":1745262482,"current_range_meters":9600,"station_id":"ce4bhf92rcd13ifvqf40","pricing_plan_id":"cebpf4jnsgd1na2vs0mg"},{"bike_id":"87b91b8c-aaa1-472f-affc-87c2b260c97d","system_id":"levelo_inurba_marseille","lat":43.31191,"lon":5.38719,"is_reserved":false,"is_disabled":false,"rental_uris":{"android":"levelo://app?vid=87b91b8c-aaa1-472f-affc-87c2b260c97d","ios":"levelo://app?vid=87b91b8c-aaa1-472f-affc-87c2b260c97d"},"vehicle_type_id":"4","last_reported":1745262482,"current_range_meters":9600,"station_id":"ce4bgv12rcd13ifvqcp0","pricing_plan_id":"cebpf4jnsgd1na2vs0mg"},{"bike_id":"b09a0f3d-c48b-475b-8346-07998bdf0685","system_id":"levelo_inurba_marseille","lat":43.24071,"lon":5.37754,"is_reserved":false,"is_disabled":false,"rental_uris":{"android":"levelo://app?vid=b09a0f3d-c48b-475b-8346-07998bdf0685","ios":"levelo://app?vid=b09a0f3d-c48b-475b-8346-07998bdf0685"},"vehicle_type_id":"4","last_reported":1745262482,"current_range_meters":9600,"station_id":"ce4bhnp2rcd13ifvqgvg","pricing_plan_id":"cebpf4jnsgd1na2vs0mg"},{"bike_id":"89cfd28b-0c7c-4079-955f-194e937acbb9","system_id":"levelo_inurba_marseille","lat":43.29951,"lon":5.36335,"is_reserved":false,"is_disabled":false,"rental_uris":{"android":"levelo://app?vid=89cfd28b-0c7c-4079-955f-194e937acbb9","ios":"levelo://app?vid=89cfd28b-0c7c-4079-955f-194e937acbb9"},"vehicle_type_id":"4","last_reported":1745262482,"current_range_meters":9600,"station_id":"","pricing_plan_id":"cebpf4jnsgd1na2vs0mg"},{"bike_id":"91e08a4b-ddcc-4b67-9353-958cd7ae2dab","system_id":"levelo_inurba_marseille","lat":43.29438,"lon":5.38616,"is_reserved":false,"is_disabled":false,"rental_uris":{"android":"levelo://app?vid=91e08a4b-ddcc-4b67-9353-958cd7ae2dab","ios":"levelo://app?vid=91e08a4b-ddcc-4b67-9353-958cd7ae2dab"},"vehicle_type_id":"4","last_reported":1745262482,"current_range_meters":10000,"station_id":"ce4bh2h2rcd13ifvqdh0","pricing_plan_id":"cebpf4jnsgd1na2vs0mg"},{"bike_id":"af062bcb-c0d8-4f82-b254-b3dfb315e067","system_id":"levelo_inurba_marseille","lat":43.33022,"lon":5.3903,"is_reserved":false,"is_disabled":false,"rental_uris":{"android":"levelo://app?vid=af062bcb-c0d8-4f82-b254-b3dfb315e067","ios":"levelo://app?vid=af062bcb-c0d8-4f82-b254-b3dfb315e067"},"vehicle_type_id":"4","last_reported":1745262482,"current_range_meters":10000,"station_id":"ce4bhr92rcd13ifvqhrg","pricing_plan_id":"cebpf4jnsgd1na2vs0mg"},{"bike_id":"9ad118bd-af48-449e-8228-b923b72759d6","system_id":"levelo_inurba_marseille","lat":43.29306,"lon":5.37171,"is_reserved":false,"is_disabled":false,"rental_uris":{"android":"levelo://app?vid=9ad118bd-af48-449e-8228-b923b72759d6","ios":"levelo://app?vid=9ad118bd-af48-449e-8228-b923b72759d6"},"vehicle_type_id":"4","last_reported":1745262482,"current_range_meters":9600,"station_id":"ce4bgh92rcd13ifvqb40","pricing_plan_id":"cebpf4jnsgd1na2vs0mg"},{"bike_id":"d9e79c39-e7f5-4230-a287-0d676fda5550","system_id":"levelo_inurba_marseille","lat":43.29281,"lon":5.40123,"is_reserved":false,"is_disabled":false,"rental_uris":{"android":"levelo://app?vid=d9e79c39-e7f5-4230-a287-0d676fda5550","ios":"levelo://app?vid=d9e79c39-e7f5-4230-a287-0d676fda5550"},"vehicle_type_id":"4","last_reported":1745262482,"current_range_meters":9200,"station_id":"ce4bh312rcd13ifvqdk0","pricing_plan_id":"cebpf4jnsgd1na2vs0mg"},{"bike_id":"e6db9924-58e0-40de-b15f-4b349bad09ad","system_id":"levelo_inurba_marseille","lat":43.28932,"lon":5.36628,"is_reserved":false,"is_disabled":true,"rental_uris":{"android":"levelo://app?vid=e6db9924-58e0-40de-b15f-4b349bad09ad","ios":"levelo://app?vid=e6db9924-58e0-40de-b15f-4b349bad09ad"},"vehicle_type_id":"4","last_reported":1745262482,"current_range_meters":10800,"station_id":"ce4bhap2rcd13ifvqek0","pricing_plan_id":"cebpf4jnsgd1na2vs0mg"},{"bike_id":"35f2a906-9ed9-4281-a569-57111b51db28","system_id":"levelo_inurba_marseille","lat":43.24984,"lon":5.3894,"is_reserved":false,"is_disabled":false,"rental_uris":{"android":"levelo://app?vid=35f2a906-9ed9-4281-a569-57111b51db28","ios":"levelo://app?vid=35f2a906-9ed9-4281-a569-57111b51db28"},"vehicle_type_id":"4","last_reported":1745262482,"current_range_meters":10800,"station_id":"ce4bhgp2rcd13ifvqfd0","pricing_plan_id":"cebpf4jnsgd1na2vs0mg"},{"bike_id":"1c755526-7610-4241-9257-348acde561d3","system_id":"levelo_inurba_marseille","lat":43.24882,"lon":5.38209,"is_reserved":false,"is_disabled":false,"rental_uris":{"android":"levelo://app?vid=1c755526-7610-4241-9257-348acde561d3","ios":"levelo://app?vid=1c755526-7610-4241-9257-348acde561d3"},"vehicle_type_id":"4","last_reported":1745262482,"current_range_meters":10800,"station_id":"","pricing_plan_id":"cebpf4jnsgd1na2vs0mg"},{"bike_id":"c633ffb6-a2e4-43ee-bc04-55b3730fd199","system_id":"levelo_inurba_marseille","lat":43.29396,"lon":5.38625,"is_reserved":false,"is_disabled":true,"rental_uris":{"android":"levelo://app?vid=c633ffb6-a2e4-43ee-bc04-55b3730fd199","ios":"levelo://app?vid=c633ffb6-a2e4-43ee-bc04-55b3730fd199"},"vehicle_type_id":"4","last_reported":1745262482,"current_range_meters":10800,"station_id":"ce4bh2h2rcd13ifvqdh0","pricing_plan_id":"cebpf4jnsgd1na2vs0mg"},{"bike_id":"f394c908-49bc-478c-b18d-216712314ca5","system_id":"levelo_inurba_marseille","lat":43.31493,"lon":5.37307,"is_reserved":false,"is_disabled":false,"rental_uris":{"android":"levelo://app?vid=f394c908-49bc-478c-b18d-216712314ca5","ios":"levelo://app?vid=f394c908-49bc-478c-b18d-216712314ca5"},"vehicle_type_id":"4","last_reported":1745262482,"current_range_meters":10800,"station_id":"ce4bgt12rcd13ifvqcd0","pricing_plan_id":"cebpf4jnsgd1na2vs0mg"},{"bike_id":"90e0b130-5136-4d08-9d37-613283692d66","system_id":"levelo_inurba_marseille","lat":43.29536,"lon":5.38533,"is_reserved":false,"is_disabled":false,"rental_uris":{"android":"levelo://app?vid=90e0b130-5136-4d08-9d37-613283692d66","ios":"levelo://app?vid=90e0b130-5136-4d08-9d37-613283692d66"},"vehicle_type_id":"4","last_reported":1745262482,"current_range_meters":10800,"station_id":"ce4bgih2rcd13ifvqba0","pricing_plan_id":"cebpf4jnsgd1na2vs0mg"},{"bike_id":"9ae7c2a9-b974-4db4-a84e-4c12bcfc3209","system_id":"levelo_inurba_marseille","lat":43.29506,"lon":5.37503,"is_reserved":false,"is_disabled":false,"rental_uris":{"android":"levelo://app?vid=9ae7c2a9-b974-4db4-a84e-4c12bcfc3209","ios":"levelo://app?vid=9ae7c2a9-b974-4db4-a84e-4c12bcfc3209"},"vehicle_type_id":"4","last_reported":1745262482,"current_range_meters":10800,"station_id":"ce4bgkp2rcd13ifvqbmg","pricing_plan_id":"cebpf4jnsgd1na2vs0mg"},{"bike_id":"62801924-329e-46ea-aa72-be8e28d87636","system_id":"levelo_inurba_marseille","lat":43.26676,"lon":5.39981,"is_reserved":false,"is_disabled":false,"rental_uris":{"android":"levelo://app?vid=62801924-329e-46ea-aa72-be8e28d87636","ios":"levelo://app?vid=62801924-329e-46ea-aa72-be8e28d87636"},"vehicle_type_id":"4","last_reported":1745262482,"current_range_meters":10800,"station_id":"","pricing_plan_id":"cebpf4jnsgd1na2vs0mg"},{"bike_id":"d1be1167-d8d0-444d-93f2-ba551cf54cdb","system_id":"levelo_inurba_marseille","lat":43.29532,"lon":5.38548,"is_reserved":false,"is_disabled":false,"rental_uris":{"android":"levelo://app?vid=d1be1167-d8d0-444d-93f2-ba551cf54cdb","ios":"levelo://app?vid=d1be1167-d8d0-444d-93f2-ba551cf54cdb"},"vehicle_type_id":"4","last_reported":1745262482,"current_range_meters":10800,"station_id":"ce4bgih2rcd13ifvqba0","pricing_plan_id":"cebpf4jnsgd1na2vs0mg"},{"bike_id":"38496ab1-dcd9-47e1-88de-12902fbdc1d3","system_id":"levelo_inurba_marseille","lat":43.29025,"lon":5.38646,"is_reserved":false,"is_disabled":false,"rental_uris":{"android":"levelo://app?vid=38496ab1-dcd9-47e1-88de-12902fbdc1d3","ios":"levelo://app?vid=38496ab1-dcd9-47e1-88de-12902fbdc1d3"},"vehicle_type_id":"4","last_reported":1745262482,"current_range_meters":10800,"station_id":"ce4bh4p2rcd13ifvqe0g","pricing_plan_id":"cebpf4jnsgd1na2vs0mg"},{"bike_id":"de2978e4-2860-475d-9b19-8da1b00905b5","system_id":"levelo_inurba_marseille","lat":43.27212,"lon":5.391319,"is_reserved":false,"is_disabled":false,"rental_uris":{"android":"levelo://app?vid=de2978e4-2860-475d-9b19-8da1b00905b5","ios":"levelo://app?vid=de2978e4-2860-475d-9b19-8da1b00905b5"},"vehicle_type_id":"4","last_reported":1745262482,"current_range_meters":10800,"station_id":"ce4bhjp2rcd13ifvqg90","pricing_plan_id":"cebpf4jnsgd1na2vs0mg"},{"bike_id":"8f42ce83-824f-47b7-be56-14b2d02e0077","system_id":"levelo_inurba_marseille","lat":43.27833,"lon":5.39206,"is_reserved":false,"is_disabled":false,"rental_uris":{"android":"levelo://app?vid=8f42ce83-824f-47b7-be56-14b2d02e0077","ios":"levelo://app?vid=8f42ce83-824f-47b7-be56-14b2d02e0077"},"vehicle_type_id":"4","last_reported":1745262482,"current_range_meters":11600,"station_id":"ce4bhjp2rcd13ifvqga0","pricing_plan_id":"cebpf4jnsgd1na2vs0mg"},{"bike_id":"72b23bf4-2837-48d3-94ad-d31c43702c9c","system_id":"levelo_inurba_marseille","lat":43.28728,"lon":5.37934,"is_reserved":false,"is_disabled":false,"rental_uris":{"android":"levelo://app?vid=72b23bf4-2837-48d3-94ad-d31c43702c9c","ios":"levelo://app?vid=72b23bf4-2837-48d3-94ad-d31c43702c9c"},"vehicle_type_id":"4","last_reported":1745262482,"current_range_meters":11600,"station_id":"ce4bh9p2rcd13ifvqec0","pricing_plan_id":"cebpf4jnsgd1na2vs0mg"},{"bike_id":"5be65ad6-9740-4e7b-afdc-0d70f1572bfb","system_id":"levelo_inurba_marseille","lat":43.3043,"lon":5.41293,"is_reserved":false,"is_disabled":false,"rental_uris":{"android":"levelo://app?vid=5be65ad6-9740-4e7b-afdc-0d70f1572bfb","ios":"levelo://app?vid=5be65ad6-9740-4e7b-afdc-0d70f1572bfb"},"vehicle_type_id":"4","last_reported":1745262482,"current_range_meters":11600,"station_id":"ce4bhop2rcd13ifvqh8g","pricing_plan_id":"cebpf4jnsgd1na2vs0mg"},{"bike_id":"b187e78d-1724-4b31-8cf0-6bdebd0684ee","system_id":"levelo_inurba_marseille","lat":43.289735,"lon":5.378285,"is_reserved":false,"is_disabled":true,"rental_uris":{"android":"levelo://app?vid=b187e78d-1724-4b31-8cf0-6bdebd0684ee","ios":"levelo://app?vid=b187e78d-1724-4b31-8cf0-6bdebd0684ee"},"vehicle_type_id":"4","last_reported":1745262482,"current_range_meters":11600,"station_id":"ce4bh9p2rcd13ifvqed0","pricing_plan_id":"cebpf4jnsgd1na2vs0mg"},{"bike_id":"d58e580d-a07a-4ccb-8f68-250bb0d42615","system_id":"levelo_inurba_marseille","lat":43.28437,"lon":5.39181,"is_reserved":false,"is_disabled":false,"rental_uris":{"android":"levelo://app?vid=d58e580d-a07a-4ccb-8f68-250bb0d42615","ios":"levelo://app?vid=d58e580d-a07a-4ccb-8f68-250bb0d42615"},"vehicle_type_id":"4","last_reported":1745262482,"current_range_meters":11600,"station_id":"ce4bhoh2rcd13ifvqh5g","pricing_plan_id":"cebpf4jnsgd1na2vs0mg"},{"bike_id":"98bb5fbf-6f36-4f60-9412-0dcd0922c2df","system_id":"levelo_inurba_marseille","lat":43.291564,"lon":5.353875,"is_reserved":false,"is_disabled":false,"rental_uris":{"android":"levelo://app?vid=98bb5fbf-6f36-4f60-9412-0dcd0922c2df","ios":"levelo://app?vid=98bb5fbf-6f36-4f60-9412-0dcd0922c2df"},"vehicle_type_id":"4","last_reported":1745262482,"current_range_meters":11600,"station_id":"ce4bh3p2rcd13ifvqdp0","pricing_plan_id":"cebpf4jnsgd1na2vs0mg"},{"bike_id":"798ae489-d2ac-42ba-9ac1-0932d89ef48c","system_id":"levelo_inurba_marseille","lat":43.28937,"lon":5.36638,"is_reserved":false,"is_disabled":false,"rental_uris":{"android":"levelo://app?vid=798ae489-d2ac-42ba-9ac1-0932d89ef48c","ios":"levelo://app?vid=798ae489-d2ac-42ba-9ac1-0932d89ef48c"},"vehicle_type_id":"4","last_reported":1745262482,"current_range_meters":11600,"station_id":"ce4bhap2rcd13ifvqek0","pricing_plan_id":"cebpf4jnsgd1na2vs0mg"},{"bike_id":"5da9ce03-b9eb-40a3-8b3b-38c436fa8161","system_id":"levelo_inurba_marseille","lat":43.28959,"lon":5.36657,"is_reserved":false,"is_disabled":false,"rental_uris":{"android":"levelo://app?vid=5da9ce03-b9eb-40a3-8b3b-38c436fa8161","ios":"levelo://app?vid=5da9ce03-b9eb-40a3-8b3b-38c436fa8161"},"vehicle_type_id":"4","last_reported":1745262482,"current_range_meters":11600,"station_id":"ce4bhap2rcd13ifvqek0","pricing_plan_id":"cebpf4jnsgd1na2vs0mg"},{"bike_id":"0cd4670c-b87b-4f49-b23f-4279ff19f79c","system_id":"levelo_inurba_marseille","lat":43.29258,"lon":5.40907,"is_reserved":false,"is_disabled":false,"rental_uris":{"android":"levelo://app?vid=0cd4670c-b87b-4f49-b23f-4279ff19f79c","ios":"levelo://app?vid=0cd4670c-b87b-4f49-b23f-4279ff19f79c"},"vehicle_type_id":"4","last_reported":1745262482,"current_range_meters":11600,"station_id":"ce4bh192rcd13ifvqdc0","pricing_plan_id":"cebpf4jnsgd1na2vs0mg"},{"bike_id":"8a5e469e-8f73-4295-9e2a-f7c916d70e3e","system_id":"levelo_inurba_marseille","lat":43.27901,"lon":5.39588,"is_reserved":false,"is_disabled":false,"rental_uris":{"android":"levelo://app?vid=8a5e469e-8f73-4295-9e2a-f7c916d70e3e","ios":"levelo://app?vid=8a5e469e-8f73-4295-9e2a-f7c916d70e3e"},"vehicle_type_id":"4","last_reported":1745262482,"current_range_meters":12000,"station_id":"ce4bhf92rcd13ifvqf40","pricing_plan_id":"cebpf4jnsgd1na2vs0mg"},{"bike_id":"6a4e6518-e23a-48fd-9eeb-fcc85d5bc6af","system_id":"levelo_inurba_marseille","lat":43.3134,"lon":5.38504,"is_reserved":false,"is_disabled":false,"rental_uris":{"android":"levelo://app?vid=6a4e6518-e23a-48fd-9eeb-fcc85d5bc6af","ios":"levelo://app?vid=6a4e6518-e23a-48fd-9eeb-fcc85d5bc6af"},"vehicle_type_id":"4","last_reported":1745262482,"current_range_meters":12000,"station_id":"ce4bgt92rcd13ifvqcf0","pricing_plan_id":"cebpf4jnsgd1na2vs0mg"},{"bike_id":"39d9d440-4dfc-47b2-a569-b548185fcb2a","system_id":"levelo_inurba_marseille","lat":43.284668,"lon":5.384128,"is_reserved":false,"is_disabled":false,"rental_uris":{"android":"levelo://app?vid=39d9d440-4dfc-47b2-a569-b548185fcb2a","ios":"levelo://app?vid=39d9d440-4dfc-47b2-a569-b548185fcb2a"},"vehicle_type_id":"4","last_reported":1745262482,"current_range_meters":11600,"station_id":"ce4bh512rcd13ifvqe3g","pricing_plan_id":"cebpf4jnsgd1na2vs0mg"},{"bike_id":"563eb651-7186-4ecb-b7c1-0f0e9d97b571","system_id":"levelo_inurba_marseille","lat":43.30586,"lon":5.39349,"is_reserved":false,"is_disabled":false,"rental_uris":{"android":"levelo://app?vid=563eb651-7186-4ecb-b7c1-0f0e9d97b571","ios":"levelo://app?vid=563eb651-7186-4ecb-b7c1-0f0e9d97b571"},"vehicle_type_id":"4","last_reported":1745262482,"current_range_meters":12000,"station_id":"ce4bh0p2rcd13ifvqd80","pricing_plan_id":"cebpf4jnsgd1na2vs0mg"},{"bike_id":"677117fb-69bb-43af-888b-b015a5cb7838","system_id":"levelo_inurba_marseille","lat":43.28944,"lon":5.3639,"is_reserved":false,"is_disabled":false,"rental_uris":{"android":"levelo://app?vid=677117fb-69bb-43af-888b-b015a5cb7838","ios":"levelo://app?vid=677117fb-69bb-43af-888b-b015a5cb7838"},"vehicle_type_id":"4","last_reported":1745262482,"current_range_meters":8800,"station_id":"ce4bhc92rcd13ifvqetg","pricing_plan_id":"cebpf4jnsgd1na2vs0mg"},{"bike_id":"e9da63aa-8f92-4958-806a-3d11d648be93","system_id":"levelo_inurba_marseille","lat":43.28703,"lon":5.39981,"is_reserved":false,"is_disabled":false,"rental_uris":{"android":"levelo://app?vid=e9da63aa-8f92-4958-806a-3d11d648be93","ios":"levelo://app?vid=e9da63aa-8f92-4958-806a-3d11d648be93"},"vehicle_type_id":"4","last_reported":1745262482,"current_range_meters":12400,"station_id":"ce4bho92rcd13ifvqh3g","pricing_plan_id":"cebpf4jnsgd1na2vs0mg"},{"bike_id":"3337ab4e-cb2c-4557-a1e9-2876aacf9541","system_id":"levelo_inurba_marseille","lat":43.29087,"lon":5.3812,"is_reserved":false,"is_disabled":false,"rental_uris":{"android":"levelo://app?vid=3337ab4e-cb2c-4557-a1e9-2876aacf9541","ios":"levelo://app?vid=3337ab4e-cb2c-4557-a1e9-2876aacf9541"},"vehicle_type_id":"4","last_reported":1745262482,"current_range_meters":12400,"station_id":"ce4bh512rcd13ifvqe2g","pricing_plan_id":"cebpf4jnsgd1na2vs0mg"},{"bike_id":"3f60bb88-040b-47d0-b1b3-cc0b33ae64a0","system_id":"levelo_inurba_marseille","lat":43.29868,"lon":5.3891,"is_reserved":false,"is_disabled":false,"rental_uris":{"android":"levelo://app?vid=3f60bb88-040b-47d0-b1b3-cc0b33ae64a0","ios":"levelo://app?vid=3f60bb88-040b-47d0-b1b3-cc0b33ae64a0"},"vehicle_type_id":"4","last_reported":1745262482,"current_range_meters":12400,"station_id":"ce4bh392rcd13ifvqdl0","pricing_plan_id":"cebpf4jnsgd1na2vs0mg"},{"bike_id":"ff2e6612-7c47-4eb8-a784-eafa6f25df10","system_id":"levelo_inurba_marseille","lat":43.29428,"lon":5.38616,"is_reserved":false,"is_disabled":false,"rental_uris":{"android":"levelo://app?vid=ff2e6612-7c47-4eb8-a784-eafa6f25df10","ios":"levelo://app?vid=ff2e6612-7c47-4eb8-a784-eafa6f25df10"},"vehicle_type_id":"4","last_reported":1745262482,"current_range_meters":12400,"station_id":"ce4bh2h2rcd13ifvqdh0","pricing_plan_id":"cebpf4jnsgd1na2vs0mg"},{"bike_id":"d5aaf7b9-7fe4-4e49-ab5f-5b64544b07d5","system_id":"levelo_inurba_marseille","lat":43.25017,"lon":5.38922,"is_reserved":false,"is_disabled":false,"rental_uris":{"android":"levelo://app?vid=d5aaf7b9-7fe4-4e49-ab5f-5b64544b07d5","ios":"levelo://app?vid=d5aaf7b9-7fe4-4e49-ab5f-5b64544b07d5"},"vehicle_type_id":"4","last_reported":1745262482,"current_range_meters":12800,"station_id":"ce4bhgp2rcd13ifvqfd0","pricing_plan_id":"cebpf4jnsgd1na2vs0mg"},{"bike_id":"0c537194-ebfa-430b-879b-e7e080857e06","system_id":"levelo_inurba_marseille","lat":43.32654,"lon":5.40994,"is_reserved":false,"is_disabled":false,"rental_uris":{"android":"levelo://app?vid=0c537194-ebfa-430b-879b-e7e080857e06","ios":"levelo://app?vid=0c537194-ebfa-430b-879b-e7e080857e06"},"vehicle_type_id":"4","last_reported":1745262482,"current_range_meters":12400,"station_id":"ce4bhpp2rcd13ifvqhgg","pricing_plan_id":"cebpf4jnsgd1na2vs0mg"},{"bike_id":"b91bf00d-14ef-4dba-a650-9758826ad274","system_id":"levelo_inurba_marseille","lat":43.28611,"lon":5.37056,"is_reserved":false,"is_disabled":false,"rental_uris":{"android":"levelo://app?vid=b91bf00d-14ef-4dba-a650-9758826ad274","ios":"levelo://app?vid=b91bf00d-14ef-4dba-a650-9758826ad274"},"vehicle_type_id":"4","last_reported":1745262482,"current_range_meters":13600,"station_id":"ce4bht12rcd13ifvqi60","pricing_plan_id":"cebpf4jnsgd1na2vs0mg"},{"bike_id":"8fd43598-927a-4b0c-abdc-ee6ebcc379cd","system_id":"levelo_inurba_marseille","lat":43.30785,"lon":5.38129,"is_reserved":false,"is_disabled":false,"rental_uris":{"android":"levelo://app?vid=8fd43598-927a-4b0c-abdc-ee6ebcc379cd","ios":"levelo://app?vid=8fd43598-927a-4b0c-abdc-ee6ebcc379cd"},"vehicle_type_id":"4","last_reported":1745262482,"current_range_meters":13600,"station_id":"ce4bgt12rcd13ifvqce0","pricing_plan_id":"cebpf4jnsgd1na2vs0mg"},{"bike_id":"2dc4e79a-33a8-48b0-bf03-f6328f1dc1f6","system_id":"levelo_inurba_marseille","lat":43.32367,"lon":5.38883,"is_reserved":false,"is_disabled":true,"rental_uris":{"android":"levelo://app?vid=2dc4e79a-33a8-48b0-bf03-f6328f1dc1f6","ios":"levelo://app?vid=2dc4e79a-33a8-48b0-bf03-f6328f1dc1f6"},"vehicle_type_id":"4","last_reported":1745262482,"current_range_meters":13600,"station_id":"ce4bhqp2rcd13ifvqhog","pricing_plan_id":"cebpf4jnsgd1na2vs0mg"},{"bike_id":"4d89aeb5-983e-43bd-848d-c160b936b043","system_id":"levelo_inurba_marseille","lat":43.29594,"lon":5.37729,"is_reserved":false,"is_disabled":false,"rental_uris":{"android":"levelo://app?vid=4d89aeb5-983e-43bd-848d-c160b936b043","ios":"levelo://app?vid=4d89aeb5-983e-43bd-848d-c160b936b043"},"vehicle_type_id":"4","last_reported":1745262482,"current_range_meters":13600,"station_id":"ce4bgi92rcd13ifvqb90","pricing_plan_id":"cebpf4jnsgd1na2vs0mg"},{"bike_id":"4eb3e58f-17bb-4007-b6f7-ead627ffb500","system_id":"levelo_inurba_marseille","lat":43.29242,"lon":5.38438,"is_reserved":false,"is_disabled":true,"rental_uris":{"android":"levelo://app?vid=4eb3e58f-17bb-4007-b6f7-ead627ffb500","ios":"levelo://app?vid=4eb3e58f-17bb-4007-b6f7-ead627ffb500"},"vehicle_type_id":"4","last_reported":1745262482,"current_range_meters":13600,"station_id":"ce4bh692rcd13ifvqea0","pricing_plan_id":"cebpf4jnsgd1na2vs0mg"},{"bike_id":"03b5bd57-7050-41b5-b7fb-1485f3b1257f","system_id":"levelo_inurba_marseille","lat":43.26555,"lon":5.37281,"is_reserved":false,"is_disabled":false,"rental_uris":{"android":"levelo://app?vid=03b5bd57-7050-41b5-b7fb-1485f3b1257f","ios":"levelo://app?vid=03b5bd57-7050-41b5-b7fb-1485f3b1257f"},"vehicle_type_id":"4","last_reported":1745262482,"current_range_meters":13600,"station_id":"ce4bhg12rcd13ifvqf70","pricing_plan_id":"cebpf4jnsgd1na2vs0mg"},{"bike_id":"8a44a43c-91cb-4eb6-8420-d89b304e2906","system_id":"levelo_inurba_marseille","lat":43.29519,"lon":5.39044,"is_reserved":false,"is_disabled":false,"rental_uris":{"android":"levelo://app?vid=8a44a43c-91cb-4eb6-8420-d89b304e2906","ios":"levelo://app?vid=8a44a43c-91cb-4eb6-8420-d89b304e2906"},"vehicle_type_id":"4","last_reported":1745262482,"current_range_meters":13600,"station_id":"ce4bh3p2rcd13ifvqdp0","pricing_plan_id":"cebpf4jnsgd1na2vs0mg"},{"bike_id":"0695b45c-eea8-445d-9093-b6d11052d5c3","system_id":"levelo_inurba_marseille","lat":43.30903,"lon":5.3963,"is_reserved":false,"is_disabled":false,"rental_uris":{"android":"levelo://app?vid=0695b45c-eea8-445d-9093-b6d11052d5c3","ios":"levelo://app?vid=0695b45c-eea8-445d-9093-b6d11052d5c3"},"vehicle_type_id":"4","last_reported":1745262482,"current_range_meters":14000,"station_id":"ce4bh012rcd13ifvqcv0","pricing_plan_id":"cebpf4jnsgd1na2vs0mg"},{"bike_id":"ca62fc37-4f28-42e1-8992-3e4769c6cf3a","system_id":"levelo_inurba_marseille","lat":43.24087,"lon":5.37762,"is_reserved":false,"is_disabled":false,"rental_uris":{"android":"levelo://app?vid=ca62fc37-4f28-42e1-8992-3e4769c6cf3a","ios":"levelo://app?vid=ca62fc37-4f28-42e1-8992-3e4769c6cf3a"},"vehicle_type_id":"4","last_reported":1745262482,"current_range_meters":14000,"station_id":"ce4bhnp2rcd13ifvqgvg","pricing_plan_id":"cebpf4jnsgd1na2vs0mg"},{"bike_id":"fa6fb692-3c02-45e3-ae8b-7fd21c19ed5f","system_id":"levelo_inurba_marseille","lat":43.28634,"lon":5.3836,"is_reserved":false,"is_disabled":false,"rental_uris":{"android":"levelo://app?vid=fa6fb692-3c02-45e3-ae8b-7fd21c19ed5f","ios":"levelo://app?vid=fa6fb692-3c02-45e3-ae8b-7fd21c19ed5f"},"vehicle_type_id":"4","last_reported":1745262482,"current_range_meters":14000,"station_id":"","pricing_plan_id":"cebpf4jnsgd1na2vs0mg"},{"bike_id":"93842f89-db2d-461f-9513-91ddee89786f","system_id":"levelo_inurba_marseille","lat":43.32478,"lon":5.36571,"is_reserved":false,"is_disabled":false,"rental_uris":{"android":"levelo://app?vid=93842f89-db2d-461f-9513-91ddee89786f","ios":"levelo://app?vid=93842f89-db2d-461f-9513-91ddee89786f"},"vehicle_type_id":"4","last_reported":1745262482,"current_range_meters":14000,"station_id":"ce4bhs12rcd13ifvqhvg","pricing_plan_id":"cebpf4jnsgd1na2vs0mg"},{"bike_id":"43ea2697-003d-4975-8a5e-6da0f8df830d","system_id":"levelo_inurba_marseille","lat":43.31995,"lon":5.38157,"is_reserved":false,"is_disabled":false,"rental_uris":{"android":"levelo://app?vid=43ea2697-003d-4975-8a5e-6da0f8df830d","ios":"levelo://app?vid=43ea2697-003d-4975-8a5e-6da0f8df830d"},"vehicle_type_id":"4","last_reported":1745262482,"current_range_meters":14400,"station_id":"ce4bhr12rcd13ifvqhpg","pricing_plan_id":"cebpf4jnsgd1na2vs0mg"},{"bike_id":"3a7d236f-b85d-4e5e-9d2c-6da160cbac3a","system_id":"levelo_inurba_marseille","lat":43.2707,"lon":5.4228,"is_reserved":false,"is_disabled":false,"rental_uris":{"android":"levelo://app?vid=3a7d236f-b85d-4e5e-9d2c-6da160cbac3a","ios":"levelo://app?vid=3a7d236f-b85d-4e5e-9d2c-6da160cbac3a"},"vehicle_type_id":"4","last_reported":1745262482,"current_range_meters":14400,"station_id":"ce4bhk92rcd13ifvqgb0","pricing_plan_id":"cebpf4jnsgd1na2vs0mg"},{"bike_id":"01af44ff-c6fa-4cec-ba8e-036c0312c26d","system_id":"levelo_inurba_marseille","lat":43.27819,"lon":5.407,"is_reserved":false,"is_disabled":false,"rental_uris":{"android":"levelo://app?vid=01af44ff-c6fa-4cec-ba8e-036c0312c26d","ios":"levelo://app?vid=01af44ff-c6fa-4cec-ba8e-036c0312c26d"},"vehicle_type_id":"4","last_reported":1745262482,"current_range_meters":14400,"station_id":"ce4bhnh2rcd13ifvqgtg","pricing_plan_id":"cebpf4jnsgd1na2vs0mg"},{"bike_id":"e6931250-60d7-4697-a72d-e36c4e574ee3","system_id":"levelo_inurba_marseille","lat":43.29165,"lon":5.37148,"is_reserved":false,"is_disabled":false,"rental_uris":{"android":"levelo://app?vid=e6931250-60d7-4697-a72d-e36c4e574ee3","ios":"levelo://app?vid=e6931250-60d7-4697-a72d-e36c4e574ee3"},"vehicle_type_id":"4","last_reported":1745262482,"current_range_meters":14400,"station_id":"ce4bha92rcd13ifvqeh0","pricing_plan_id":"cebpf4jnsgd1na2vs0mg"},{"bike_id":"017bd7d9-74bc-4ce6-8831-09c45389624e","system_id":"levelo_inurba_marseille","lat":43.30886,"lon":5.39646,"is_reserved":false,"is_disabled":false,"rental_uris":{"android":"levelo://app?vid=017bd7d9-74bc-4ce6-8831-09c45389624e","ios":"levelo://app?vid=017bd7d9-74bc-4ce6-8831-09c45389624e"},"vehicle_type_id":"4","last_reported":1745262482,"current_range_meters":14400,"station_id":"ce4bh012rcd13ifvqcv0","pricing_plan_id":"cebpf4jnsgd1na2vs0mg"},{"bike_id":"213da5e8-23e1-4c9c-89ed-8256ec571fc4","system_id":"levelo_inurba_marseille","lat":43.28367,"lon":5.38628,"is_reserved":false,"is_disabled":false,"rental_uris":{"android":"levelo://app?vid=213da5e8-23e1-4c9c-89ed-8256ec571fc4","ios":"levelo://app?vid=213da5e8-23e1-4c9c-89ed-8256ec571fc4"},"vehicle_type_id":"4","last_reported":1745262482,"current_range_meters":14400,"station_id":"ce4bh492rcd13ifvqdvg","pricing_plan_id":"cebpf4jnsgd1na2vs0mg"},{"bike_id":"3ca4ac75-ea4a-4a10-82cb-8a89057911ee","system_id":"levelo_inurba_marseille","lat":43.28912,"lon":5.38397,"is_reserved":false,"is_disabled":false,"rental_uris":{"android":"levelo://app?vid=3ca4ac75-ea4a-4a10-82cb-8a89057911ee","ios":"levelo://app?vid=3ca4ac75-ea4a-4a10-82cb-8a89057911ee"},"vehicle_type_id":"4","last_reported":1745262482,"current_range_meters":14000,"station_id":"ce4bh612rcd13ifvqe6g","pricing_plan_id":"cebpf4jnsgd1na2vs0mg"},{"bike_id":"e7a7b790-fc2d-4083-a8a5-bb9e51585388","system_id":"levelo_inurba_marseille","lat":43.29303,"lon":5.3853,"is_reserved":false,"is_disabled":false,"rental_uris":{"android":"levelo://app?vid=e7a7b790-fc2d-4083-a8a5-bb9e51585388","ios":"levelo://app?vid=e7a7b790-fc2d-4083-a8a5-bb9e51585388"},"vehicle_type_id":"4","last_reported":1745262482,"current_range_meters":14400,"station_id":"","pricing_plan_id":"cebpf4jnsgd1na2vs0mg"},{"bike_id":"895a56a6-79e4-46da-830b-f51ebd573d90","system_id":"levelo_inurba_marseille","lat":43.27574,"lon":5.38421,"is_reserved":false,"is_disabled":false,"rental_uris":{"android":"levelo://app?vid=895a56a6-79e4-46da-830b-f51ebd573d90","ios":"levelo://app?vid=895a56a6-79e4-46da-830b-f51ebd573d90"},"vehicle_type_id":"4","last_reported":1745262482,"current_range_meters":14400,"station_id":"ce4bhh92rcd13ifvqfi0","pricing_plan_id":"cebpf4jnsgd1na2vs0mg"},{"bike_id":"0a536518-79a4-40dc-8bd3-71d044441b24","system_id":"levelo_inurba_marseille","lat":43.25665,"lon":5.41118,"is_reserved":false,"is_disabled":false,"rental_uris":{"android":"levelo://app?vid=0a536518-79a4-40dc-8bd3-71d044441b24","ios":"levelo://app?vid=0a536518-79a4-40dc-8bd3-71d044441b24"},"vehicle_type_id":"4","last_reported":1745262482,"current_range_meters":14800,"station_id":"ce4bhkp2rcd13ifvqgd0","pricing_plan_id":"cebpf4jnsgd1na2vs0mg"},{"bike_id":"b373a9fc-b19f-49e6-9414-e3e614041e34","system_id":"levelo_inurba_marseille","lat":43.27066,"lon":5.42288,"is_reserved":false,"is_disabled":true,"rental_uris":{"android":"levelo://app?vid=b373a9fc-b19f-49e6-9414-e3e614041e34","ios":"levelo://app?vid=b373a9fc-b19f-49e6-9414-e3e614041e34"},"vehicle_type_id":"4","last_reported":1745262482,"current_range_meters":14800,"station_id":"ce4bhk92rcd13ifvqgb0","pricing_plan_id":"cebpf4jnsgd1na2vs0mg"},{"bike_id":"0cc8691f-a082-4a9b-944f-91ae0092fb38","system_id":"levelo_inurba_marseille","lat":43.29327,"lon":5.40164,"is_reserved":false,"is_disabled":false,"rental_uris":{"android":"levelo://app?vid=0cc8691f-a082-4a9b-944f-91ae0092fb38","ios":"levelo://app?vid=0cc8691f-a082-4a9b-944f-91ae0092fb38"},"vehicle_type_id":"4","last_reported":1745262482,"current_range_meters":14800,"station_id":"","pricing_plan_id":"cebpf4jnsgd1na2vs0mg"},{"bike_id":"02f119d0-9bdd-444e-8eb0-5a79afb123db","system_id":"levelo_inurba_marseille","lat":43.29972,"lon":5.3717,"is_reserved":false,"is_disabled":false,"rental_uris":{"android":"levelo://app?vid=02f119d0-9bdd-444e-8eb0-5a79afb123db","ios":"levelo://app?vid=02f119d0-9bdd-444e-8eb0-5a79afb123db"},"vehicle_type_id":"4","last_reported":1745262482,"current_range_meters":14800,"station_id":"ce4bgr92rcd13ifvqc7g","pricing_plan_id":"cebpf4jnsgd1na2vs0mg"},{"bike_id":"d32fbf05-1aad-42af-a6ce-f8db15a610a7","system_id":"levelo_inurba_marseille","lat":43.296352,"lon":5.377615,"is_reserved":false,"is_disabled":false,"rental_uris":{"android":"levelo://app?vid=d32fbf05-1aad-42af-a6ce-f8db15a610a7","ios":"levelo://app?vid=d32fbf05-1aad-42af-a6ce-f8db15a610a7"},"vehicle_type_id":"4","last_reported":1745262482,"current_range_meters":14400,"station_id":"ce4bgk12rcd13ifvqbj0","pricing_plan_id":"cebpf4jnsgd1na2vs0mg"},{"bike_id":"3af2c45a-68e1-411f-8c78-dd8dea5672bb","system_id":"levelo_inurba_marseille","lat":43.2749,"lon":5.42457,"is_reserved":false,"is_disabled":false,"rental_uris":{"android":"levelo://app?vid=3af2c45a-68e1-411f-8c78-dd8dea5672bb","ios":"levelo://app?vid=3af2c45a-68e1-411f-8c78-dd8dea5672bb"},"vehicle_type_id":"4","last_reported":1745262482,"current_range_meters":14800,"station_id":"ce4bhn92rcd13ifvqgrg","pricing_plan_id":"cebpf4jnsgd1na2vs0mg"},{"bike_id":"d3f0a195-641d-4fc9-bf93-167ffb3829fe","system_id":"levelo_inurba_marseille","lat":43.32476,"lon":5.3656,"is_reserved":false,"is_disabled":false,"rental_uris":{"android":"levelo://app?vid=d3f0a195-641d-4fc9-bf93-167ffb3829fe","ios":"levelo://app?vid=d3f0a195-641d-4fc9-bf93-167ffb3829fe"},"vehicle_type_id":"4","last_reported":1745262482,"current_range_meters":14800,"station_id":"ce4bhs12rcd13ifvqhvg","pricing_plan_id":"cebpf4jnsgd1na2vs0mg"},{"bike_id":"e3f2ff94-19f7-4b16-a506-885772f72f4c","system_id":"levelo_inurba_marseille","lat":43.24167,"lon":5.36402,"is_reserved":false,"is_disabled":true,"rental_uris":{"android":"levelo://app?vid=e3f2ff94-19f7-4b16-a506-885772f72f4c","ios":"levelo://app?vid=e3f2ff94-19f7-4b16-a506-885772f72f4c"},"vehicle_type_id":"4","last_reported":1745262482,"current_range_meters":14800,"station_id":"cpo36qri1sfpv3e86is0","pricing_plan_id":"cebpf4jnsgd1na2vs0mg"},{"bike_id":"d01df6a6-b745-430f-aed3-8244c27e3204","system_id":"levelo_inurba_marseille","lat":43.28346,"lon":5.38114,"is_reserved":false,"is_disabled":false,"rental_uris":{"android":"levelo://app?vid=d01df6a6-b745-430f-aed3-8244c27e3204","ios":"levelo://app?vid=d01df6a6-b745-430f-aed3-8244c27e3204"},"vehicle_type_id":"4","last_reported":1745262482,"current_range_meters":15200,"station_id":"ce4bh412rcd13ifvqdr0","pricing_plan_id":"cebpf4jnsgd1na2vs0mg"},{"bike_id":"bf4c75cc-035f-4c1b-95bc-06322504f79a","system_id":"levelo_inurba_marseille","lat":43.29013,"lon":5.38639,"is_reserved":false,"is_disabled":false,"rental_uris":{"android":"levelo://app?vid=bf4c75cc-035f-4c1b-95bc-06322504f79a","ios":"levelo://app?vid=bf4c75cc-035f-4c1b-95bc-06322504f79a"},"vehicle_type_id":"4","last_reported":1745262482,"current_range_meters":15200,"station_id":"ce4bh4p2rcd13ifvqe0g","pricing_plan_id":"cebpf4jnsgd1na2vs0mg"},{"bike_id":"afca05cb-9dea-4e13-bae3-b0bd83251e29","system_id":"levelo_inurba_marseille","lat":43.33761,"lon":5.37431,"is_reserved":false,"is_disabled":false,"rental_uris":{"android":"levelo://app?vid=afca05cb-9dea-4e13-bae3-b0bd83251e29","ios":"levelo://app?vid=afca05cb-9dea-4e13-bae3-b0bd83251e29"},"vehicle_type_id":"4","last_reported":1745262482,"current_range_meters":15200,"station_id":"","pricing_plan_id":"cebpf4jnsgd1na2vs0mg"},{"bike_id":"ea954903-9b5b-44a3-b2e9-ef8f27685345","system_id":"levelo_inurba_marseille","lat":43.290421,"lon":5.399641,"is_reserved":false,"is_disabled":false,"rental_uris":{"android":"levelo://app?vid=ea954903-9b5b-44a3-b2e9-ef8f27685345","ios":"levelo://app?vid=ea954903-9b5b-44a3-b2e9-ef8f27685345"},"vehicle_type_id":"4","last_reported":1745262482,"current_range_meters":15200,"station_id":"ce4bh392rcd13ifvqdm0","pricing_plan_id":"cebpf4jnsgd1na2vs0mg"},{"bike_id":"cfe1c638-936a-4bb9-ab2d-e431fefcb495","system_id":"levelo_inurba_marseille","lat":43.28472,"lon":5.38413,"is_reserved":false,"is_disabled":false,"rental_uris":{"android":"levelo://app?vid=cfe1c638-936a-4bb9-ab2d-e431fefcb495","ios":"levelo://app?vid=cfe1c638-936a-4bb9-ab2d-e431fefcb495"},"vehicle_type_id":"4","last_reported":1745262482,"current_range_meters":15200,"station_id":"ce4bh512rcd13ifvqe3g","pricing_plan_id":"cebpf4jnsgd1na2vs0mg"},{"bike_id":"619ec361-2562-4f7e-8b7c-174dc8026364","system_id":"levelo_inurba_marseille","lat":43.28449,"lon":5.39187,"is_reserved":false,"is_disabled":false,"rental_uris":{"android":"levelo://app?vid=619ec361-2562-4f7e-8b7c-174dc8026364","ios":"levelo://app?vid=619ec361-2562-4f7e-8b7c-174dc8026364"},"vehicle_type_id":"4","last_reported":1745262482,"current_range_meters":15200,"station_id":"ce4bhoh2rcd13ifvqh5g","pricing_plan_id":"cebpf4jnsgd1na2vs0mg"},{"bike_id":"31dad1ac-0f84-44f8-a969-f5f6007b9b50","system_id":"levelo_inurba_marseille","lat":43.25006,"lon":5.38927,"is_reserved":false,"is_disabled":true,"rental_uris":{"android":"levelo://app?vid=31dad1ac-0f84-44f8-a969-f5f6007b9b50","ios":"levelo://app?vid=31dad1ac-0f84-44f8-a969-f5f6007b9b50"},"vehicle_type_id":"4","last_reported":1745262482,"current_range_meters":16000,"station_id":"ce4bhgp2rcd13ifvqfd0","pricing_plan_id":"cebpf4jnsgd1na2vs0mg"},{"bike_id":"994bee52-f9be-44d3-ae29-6886858b8f6e","system_id":"levelo_inurba_marseille","lat":43.27556,"lon":5.38425,"is_reserved":false,"is_disabled":false,"rental_uris":{"android":"levelo://app?vid=994bee52-f9be-44d3-ae29-6886858b8f6e","ios":"levelo://app?vid=994bee52-f9be-44d3-ae29-6886858b8f6e"},"vehicle_type_id":"4","last_reported":1745262482,"current_range_meters":16000,"station_id":"ce4bhh92rcd13ifvqfi0","pricing_plan_id":"cebpf4jnsgd1na2vs0mg"},{"bike_id":"217bc09c-9054-444f-b0a6-1a91698bbf60","system_id":"levelo_inurba_marseille","lat":43.26168,"lon":5.37463,"is_reserved":false,"is_disabled":true,"rental_uris":{"android":"levelo://app?vid=217bc09c-9054-444f-b0a6-1a91698bbf60","ios":"levelo://app?vid=217bc09c-9054-444f-b0a6-1a91698bbf60"},"vehicle_type_id":"4","last_reported":1745262482,"current_range_meters":16000,"station_id":"ce4bhgp2rcd13ifvqfc0","pricing_plan_id":"cebpf4jnsgd1na2vs0mg"},{"bike_id":"9323df6b-29b9-4849-90e6-866947222871","system_id":"levelo_inurba_marseille","lat":43.29677,"lon":5.37301,"is_reserved":false,"is_disabled":false,"rental_uris":{"android":"levelo://app?vid=9323df6b-29b9-4849-90e6-866947222871","ios":"levelo://app?vid=9323df6b-29b9-4849-90e6-866947222871"},"vehicle_type_id":"4","last_reported":1745262482,"current_range_meters":16000,"station_id":"ce4bgk12rcd13ifvqbj0","pricing_plan_id":"cebpf4jnsgd1na2vs0mg"},{"bike_id":"749d66c3-e678-4f19-b8c9-69df915bebaa","system_id":"levelo_inurba_marseille","lat":43.30269,"lon":5.37717,"is_reserved":false,"is_disabled":false,"rental_uris":{"android":"levelo://app?vid=749d66c3-e678-4f19-b8c9-69df915bebaa","ios":"levelo://app?vid=749d66c3-e678-4f19-b8c9-69df915bebaa"},"vehicle_type_id":"4","last_reported":1745262482,"current_range_meters":16000,"station_id":"ce4bguh2rcd13ifvqcj0","pricing_plan_id":"cebpf4jnsgd1na2vs0mg"},{"bike_id":"21ffe4dd-9b04-4167-af60-a12818379bcd","system_id":"levelo_inurba_marseille","lat":43.30136,"lon":5.38776,"is_reserved":false,"is_disabled":false,"rental_uris":{"android":"levelo://app?vid=21ffe4dd-9b04-4167-af60-a12818379bcd","ios":"levelo://app?vid=21ffe4dd-9b04-4167-af60-a12818379bcd"},"vehicle_type_id":"4","last_reported":1745262482,"current_range_meters":16000,"station_id":"ce4bghh2rcd13ifvqb60","pricing_plan_id":"cebpf4jnsgd1na2vs0mg"},{"bike_id":"662963d3-112f-4a81-b171-f876ba323f1e","system_id":"levelo_inurba_marseille","lat":43.27836,"lon":5.39211,"is_reserved":false,"is_disabled":false,"rental_uris":{"android":"levelo://app?vid=662963d3-112f-4a81-b171-f876ba323f1e","ios":"levelo://app?vid=662963d3-112f-4a81-b171-f876ba323f1e"},"vehicle_type_id":"4","last_reported":1745262482,"current_range_meters":16000,"station_id":"ce4bhjp2rcd13ifvqga0","pricing_plan_id":"cebpf4jnsgd1na2vs0mg"},{"bike_id":"a597aa79-a9e7-446e-9f8d-ad8e32781eda","system_id":"levelo_inurba_marseille","lat":43.25932,"lon":5.4087,"is_reserved":false,"is_disabled":false,"rental_uris":{"android":"levelo://app?vid=a597aa79-a9e7-446e-9f8d-ad8e32781eda","ios":"levelo://app?vid=a597aa79-a9e7-446e-9f8d-ad8e32781eda"},"vehicle_type_id":"4","last_reported":1745262482,"current_range_meters":16000,"station_id":"ce4bhm92rcd13ifvqglg","pricing_plan_id":"cebpf4jnsgd1na2vs0mg"},{"bike_id":"a7b2a63d-3e0d-4cc9-9b24-18ba9052d541","system_id":"levelo_inurba_marseille","lat":43.28936,"lon":5.36631,"is_reserved":false,"is_disabled":false,"rental_uris":{"android":"levelo://app?vid=a7b2a63d-3e0d-4cc9-9b24-18ba9052d541","ios":"levelo://app?vid=a7b2a63d-3e0d-4cc9-9b24-18ba9052d541"},"vehicle_type_id":"4","last_reported":1745262482,"current_range_meters":16000,"station_id":"ce4bhap2rcd13ifvqek0","pricing_plan_id":"cebpf4jnsgd1na2vs0mg"},{"bike_id":"a7aa4f0d-dbae-40db-a193-3ad158f70ff8","system_id":"levelo_inurba_marseille","lat":43.31023,"lon":5.37105,"is_reserved":false,"is_disabled":false,"rental_uris":{"android":"levelo://app?vid=a7aa4f0d-dbae-40db-a193-3ad158f70ff8","ios":"levelo://app?vid=a7aa4f0d-dbae-40db-a193-3ad158f70ff8"},"vehicle_type_id":"4","last_reported":1745262482,"current_range_meters":16400,"station_id":"","pricing_plan_id":"cebpf4jnsgd1na2vs0mg"},{"bike_id":"b101afbf-59d1-496d-8034-1c01b9f4a24e","system_id":"levelo_inurba_marseille","lat":43.29197,"lon":5.39325,"is_reserved":false,"is_disabled":false,"rental_uris":{"android":"levelo://app?vid=b101afbf-59d1-496d-8034-1c01b9f4a24e","ios":"levelo://app?vid=b101afbf-59d1-496d-8034-1c01b9f4a24e"},"vehicle_type_id":"4","last_reported":1745262482,"current_range_meters":16400,"station_id":"ce4bh192rcd13ifvqdd0","pricing_plan_id":"cebpf4jnsgd1na2vs0mg"},{"bike_id":"e0984a65-d243-4f77-a1cb-254126487ba4","system_id":"levelo_inurba_marseille","lat":43.29535,"lon":5.38548,"is_reserved":false,"is_disabled":false,"rental_uris":{"android":"levelo://app?vid=e0984a65-d243-4f77-a1cb-254126487ba4","ios":"levelo://app?vid=e0984a65-d243-4f77-a1cb-254126487ba4"},"vehicle_type_id":"4","last_reported":1745262482,"current_range_meters":16400,"station_id":"ce4bgih2rcd13ifvqba0","pricing_plan_id":"cebpf4jnsgd1na2vs0mg"},{"bike_id":"6b4282bc-9432-4c95-847b-7452cf13e716","system_id":"levelo_inurba_marseille","lat":43.2938,"lon":5.37114,"is_reserved":false,"is_disabled":true,"rental_uris":{"android":"levelo://app?vid=6b4282bc-9432-4c95-847b-7452cf13e716","ios":"levelo://app?vid=6b4282bc-9432-4c95-847b-7452cf13e716"},"vehicle_type_id":"4","last_reported":1745262482,"current_range_meters":16800,"station_id":"","pricing_plan_id":"cebpf4jnsgd1na2vs0mg"},{"bike_id":"806dbb01-32e0-4dbb-b475-7f3321cda862","system_id":"levelo_inurba_marseille","lat":43.26211,"lon":5.37435,"is_reserved":false,"is_disabled":false,"rental_uris":{"android":"levelo://app?vid=806dbb01-32e0-4dbb-b475-7f3321cda862","ios":"levelo://app?vid=806dbb01-32e0-4dbb-b475-7f3321cda862"},"vehicle_type_id":"4","last_reported":1745262482,"current_range_meters":16400,"station_id":"ce4bhgp2rcd13ifvqfc0","pricing_plan_id":"cebpf4jnsgd1na2vs0mg"},{"bike_id":"24899145-0ca4-4c18-9d4a-a07581aa429d","system_id":"levelo_inurba_marseille","lat":43.29263,"lon":5.38421,"is_reserved":false,"is_disabled":false,"rental_uris":{"android":"levelo://app?vid=24899145-0ca4-4c18-9d4a-a07581aa429d","ios":"levelo://app?vid=24899145-0ca4-4c18-9d4a-a07581aa429d"},"vehicle_type_id":"4","last_reported":1745262482,"current_range_meters":16400,"station_id":"ce4bh692rcd13ifvqea0","pricing_plan_id":"cebpf4jnsgd1na2vs0mg"},{"bike_id":"df305b9d-651b-421a-9f36-f124ba8a58e1","system_id":"levelo_inurba_marseille","lat":43.29508,"lon":5.37515,"is_reserved":false,"is_disabled":false,"rental_uris":{"android":"levelo://app?vid=df305b9d-651b-421a-9f36-f124ba8a58e1","ios":"levelo://app?vid=df305b9d-651b-421a-9f36-f124ba8a58e1"},"vehicle_type_id":"4","last_reported":1745262482,"current_range_meters":16400,"station_id":"ce4bgkp2rcd13ifvqbmg","pricing_plan_id":"cebpf4jnsgd1na2vs0mg"},{"bike_id":"8e83c5b2-a197-423b-adee-b8a5d9068476","system_id":"levelo_inurba_marseille","lat":43.29421,"lon":5.38628,"is_reserved":false,"is_disabled":false,"rental_uris":{"android":"levelo://app?vid=8e83c5b2-a197-423b-adee-b8a5d9068476","ios":"levelo://app?vid=8e83c5b2-a197-423b-adee-b8a5d9068476"},"vehicle_type_id":"4","last_reported":1745262482,"current_range_meters":16400,"station_id":"ce4bh2h2rcd13ifvqdh0","pricing_plan_id":"cebpf4jnsgd1na2vs0mg"},{"bike_id":"03892155-4df9-4c97-8108-2bb5a799ecf0","system_id":"levelo_inurba_marseille","lat":43.322005,"lon":5.412287,"is_reserved":false,"is_disabled":false,"rental_uris":{"android":"levelo://app?vid=03892155-4df9-4c97-8108-2bb5a799ecf0","ios":"levelo://app?vid=03892155-4df9-4c97-8108-2bb5a799ecf0"},"vehicle_type_id":"4","last_reported":1745262482,"current_range_meters":16400,"station_id":"ce4bhqh2rcd13ifvqhmg","pricing_plan_id":"cebpf4jnsgd1na2vs0mg"},{"bike_id":"0d9d0468-e29f-4af6-97e7-c3ebb712776e","system_id":"levelo_inurba_marseille","lat":43.265575,"lon":5.37283,"is_reserved":false,"is_disabled":false,"rental_uris":{"android":"levelo://app?vid=0d9d0468-e29f-4af6-97e7-c3ebb712776e","ios":"levelo://app?vid=0d9d0468-e29f-4af6-97e7-c3ebb712776e"},"vehicle_type_id":"4","last_reported":1745262482,"current_range_meters":16800,"station_id":"ce4bhg12rcd13ifvqf70","pricing_plan_id":"cebpf4jnsgd1na2vs0mg"},{"bike_id":"47f93c64-f89b-4ae0-87bc-c0193ce20f58","system_id":"levelo_inurba_marseille","lat":43.27837,"lon":5.39204,"is_reserved":false,"is_disabled":false,"rental_uris":{"android":"levelo://app?vid=47f93c64-f89b-4ae0-87bc-c0193ce20f58","ios":"levelo://app?vid=47f93c64-f89b-4ae0-87bc-c0193ce20f58"},"vehicle_type_id":"4","last_reported":1745262482,"current_range_meters":16800,"station_id":"ce4bhjp2rcd13ifvqga0","pricing_plan_id":"cebpf4jnsgd1na2vs0mg"},{"bike_id":"c77866f9-4896-426f-a252-ff971ba04fb9","system_id":"levelo_inurba_marseille","lat":43.31343,"lon":5.36714,"is_reserved":false,"is_disabled":false,"rental_uris":{"android":"levelo://app?vid=c77866f9-4896-426f-a252-ff971ba04fb9","ios":"levelo://app?vid=c77866f9-4896-426f-a252-ff971ba04fb9"},"vehicle_type_id":"4","last_reported":1745262482,"current_range_meters":16800,"station_id":"ce4bgr92rcd13ifvqc6g","pricing_plan_id":"cebpf4jnsgd1na2vs0mg"},{"bike_id":"2a35ab10-f416-439f-a4fa-784873cd587f","system_id":"levelo_inurba_marseille","lat":43.26951,"lon":5.38663,"is_reserved":false,"is_disabled":true,"rental_uris":{"android":"levelo://app?vid=2a35ab10-f416-439f-a4fa-784873cd587f","ios":"levelo://app?vid=2a35ab10-f416-439f-a4fa-784873cd587f"},"vehicle_type_id":"4","last_reported":1745262482,"current_range_meters":16800,"station_id":"ce4bhh92rcd13ifvqfh0","pricing_plan_id":"cebpf4jnsgd1na2vs0mg"},{"bike_id":"50b1b506-4add-471c-a7d8-394090d5cf06","system_id":"levelo_inurba_marseille","lat":43.32472,"lon":5.36555,"is_reserved":false,"is_disabled":false,"rental_uris":{"android":"levelo://app?vid=50b1b506-4add-471c-a7d8-394090d5cf06","ios":"levelo://app?vid=50b1b506-4add-471c-a7d8-394090d5cf06"},"vehicle_type_id":"4","last_reported":1745262482,"current_range_meters":16800,"station_id":"ce4bhs12rcd13ifvqhvg","pricing_plan_id":"cebpf4jnsgd1na2vs0mg"},{"bike_id":"80a2ab3b-2595-4a1f-abcc-783f02da5d82","system_id":"levelo_inurba_marseille","lat":43.29423,"lon":5.38629,"is_reserved":false,"is_disabled":false,"rental_uris":{"android":"levelo://app?vid=80a2ab3b-2595-4a1f-abcc-783f02da5d82","ios":"levelo://app?vid=80a2ab3b-2595-4a1f-abcc-783f02da5d82"},"vehicle_type_id":"4","last_reported":1745262482,"current_range_meters":16800,"station_id":"ce4bh2h2rcd13ifvqdh0","pricing_plan_id":"cebpf4jnsgd1na2vs0mg"},{"bike_id":"12505a0a-b14f-4f59-9be1-55ce43130db1","system_id":"levelo_inurba_marseille","lat":43.29585,"lon":5.38099,"is_reserved":false,"is_disabled":true,"rental_uris":{"android":"levelo://app?vid=12505a0a-b14f-4f59-9be1-55ce43130db1","ios":"levelo://app?vid=12505a0a-b14f-4f59-9be1-55ce43130db1"},"vehicle_type_id":"4","last_reported":1745262482,"current_range_meters":16800,"station_id":"ce4bgl12rcd13ifvqbo0","pricing_plan_id":"cebpf4jnsgd1na2vs0mg"},{"bike_id":"c69634dc-be3a-4eed-9a6a-8488857b2196","system_id":"levelo_inurba_marseille","lat":43.28439,"lon":5.39185,"is_reserved":false,"is_disabled":false,"rental_uris":{"android":"levelo://app?vid=c69634dc-be3a-4eed-9a6a-8488857b2196","ios":"levelo://app?vid=c69634dc-be3a-4eed-9a6a-8488857b2196"},"vehicle_type_id":"4","last_reported":1745262482,"current_range_meters":16800,"station_id":"ce4bhoh2rcd13ifvqh5g","pricing_plan_id":"cebpf4jnsgd1na2vs0mg"},{"bike_id":"8ffc6bc0-feb5-4366-ae32-5db0b209e174","system_id":"levelo_inurba_marseille","lat":43.30537,"lon":5.38418,"is_reserved":false,"is_disabled":false,"rental_uris":{"android":"levelo://app?vid=8ffc6bc0-feb5-4366-ae32-5db0b209e174","ios":"levelo://app?vid=8ffc6bc0-feb5-4366-ae32-5db0b209e174"},"vehicle_type_id":"4","last_reported":1745262482,"current_range_meters":16800,"station_id":"ce4bgg92rcd13ifvqb30","pricing_plan_id":"cebpf4jnsgd1na2vs0mg"},{"bike_id":"40557462-7858-4622-8399-50b397607ad7","system_id":"levelo_inurba_marseille","lat":43.28935,"lon":5.36634,"is_reserved":false,"is_disabled":false,"rental_uris":{"android":"levelo://app?vid=40557462-7858-4622-8399-50b397607ad7","ios":"levelo://app?vid=40557462-7858-4622-8399-50b397607ad7"},"vehicle_type_id":"4","last_reported":1745262482,"current_range_meters":16800,"station_id":"ce4bhap2rcd13ifvqek0","pricing_plan_id":"cebpf4jnsgd1na2vs0mg"},{"bike_id":"0d187c2e-53e0-431d-a7dd-fbb8f8f0a5a0","system_id":"levelo_inurba_marseille","lat":43.30946,"lon":5.39027,"is_reserved":false,"is_disabled":false,"rental_uris":{"android":"levelo://app?vid=0d187c2e-53e0-431d-a7dd-fbb8f8f0a5a0","ios":"levelo://app?vid=0d187c2e-53e0-431d-a7dd-fbb8f8f0a5a0"},"vehicle_type_id":"4","last_reported":1745262482,"current_range_meters":16800,"station_id":"ce4bgup2rcd13ifvqco0","pricing_plan_id":"cebpf4jnsgd1na2vs0mg"},{"bike_id":"05ae4ae3-a912-4fda-9b05-aa770d26c9d7","system_id":"levelo_inurba_marseille","lat":43.276104,"lon":5.361028,"is_reserved":false,"is_disabled":false,"rental_uris":{"android":"levelo://app?vid=05ae4ae3-a912-4fda-9b05-aa770d26c9d7","ios":"levelo://app?vid=05ae4ae3-a912-4fda-9b05-aa770d26c9d7"},"vehicle_type_id":"4","last_reported":1745262482,"current_range_meters":17200,"station_id":"ce4bgj92rcd13ifvqbe0","pricing_plan_id":"cebpf4jnsgd1na2vs0mg"},{"bike_id":"a756bae3-49c1-4d6c-89e8-fcb7b0e7d2e2","system_id":"levelo_inurba_marseille","lat":43.29053,"lon":5.35904,"is_reserved":false,"is_disabled":true,"rental_uris":{"android":"levelo://app?vid=a756bae3-49c1-4d6c-89e8-fcb7b0e7d2e2","ios":"levelo://app?vid=a756bae3-49c1-4d6c-89e8-fcb7b0e7d2e2"},"vehicle_type_id":"4","last_reported":1745262482,"current_range_meters":17200,"station_id":"ce4bha92rcd13ifvqeg0","pricing_plan_id":"cebpf4jnsgd1na2vs0mg"},{"bike_id":"2cf0cd94-b8f7-4800-8ee8-331a3ae12fb7","system_id":"levelo_inurba_marseille","lat":43.285714,"lon":5.395009,"is_reserved":false,"is_disabled":false,"rental_uris":{"android":"levelo://app?vid=2cf0cd94-b8f7-4800-8ee8-331a3ae12fb7","ios":"levelo://app?vid=2cf0cd94-b8f7-4800-8ee8-331a3ae12fb7"},"vehicle_type_id":"4","last_reported":1745262482,"current_range_meters":17200,"station_id":"ce4bh292rcd13ifvqdg0","pricing_plan_id":"cebpf4jnsgd1na2vs0mg"},{"bike_id":"a5255d90-225f-40e7-9173-60478be8a6fd","system_id":"levelo_inurba_marseille","lat":43.29525,"lon":5.38533,"is_reserved":false,"is_disabled":false,"rental_uris":{"android":"levelo://app?vid=a5255d90-225f-40e7-9173-60478be8a6fd","ios":"levelo://app?vid=a5255d90-225f-40e7-9173-60478be8a6fd"},"vehicle_type_id":"4","last_reported":1745262482,"current_range_meters":17200,"station_id":"ce4bgih2rcd13ifvqba0","pricing_plan_id":"cebpf4jnsgd1na2vs0mg"},{"bike_id":"ba0df1f5-444c-4d05-8dc4-05455585ffc0","system_id":"levelo_inurba_marseille","lat":43.28004,"lon":5.4001,"is_reserved":false,"is_disabled":false,"rental_uris":{"android":"levelo://app?vid=ba0df1f5-444c-4d05-8dc4-05455585ffc0","ios":"levelo://app?vid=ba0df1f5-444c-4d05-8dc4-05455585ffc0"},"vehicle_type_id":"4","last_reported":1745262482,"current_range_meters":17200,"station_id":"ce4bho92rcd13ifvqh4g","pricing_plan_id":"cebpf4jnsgd1na2vs0mg"},{"bike_id":"f9b98dfd-b6d4-42b3-987c-8570a21d9723","system_id":"levelo_inurba_marseille","lat":43.30349,"lon":5.41876,"is_reserved":false,"is_disabled":false,"rental_uris":{"android":"levelo://app?vid=f9b98dfd-b6d4-42b3-987c-8570a21d9723","ios":"levelo://app?vid=f9b98dfd-b6d4-42b3-987c-8570a21d9723"},"vehicle_type_id":"4","last_reported":1745262482,"current_range_meters":17200,"station_id":"ce4bhop2rcd13ifvqh7g","pricing_plan_id":"cebpf4jnsgd1na2vs0mg"},{"bike_id":"013b0bba-3a8e-4176-aec5-9b030be1a006","system_id":"levelo_inurba_marseille","lat":43.31731,"lon":5.37776,"is_reserved":false,"is_disabled":false,"rental_uris":{"android":"levelo://app?vid=013b0bba-3a8e-4176-aec5-9b030be1a006","ios":"levelo://app?vid=013b0bba-3a8e-4176-aec5-9b030be1a006"},"vehicle_type_id":"4","last_reported":1745262482,"current_range_meters":17600,"station_id":"ce4bgth2rcd13ifvqch0","pricing_plan_id":"cebpf4jnsgd1na2vs0mg"},{"bike_id":"7b2dc864-a4e9-468c-9cee-f3075a20977d","system_id":"levelo_inurba_marseille","lat":43.30791,"lon":5.3814,"is_reserved":false,"is_disabled":true,"rental_uris":{"android":"levelo://app?vid=7b2dc864-a4e9-468c-9cee-f3075a20977d","ios":"levelo://app?vid=7b2dc864-a4e9-468c-9cee-f3075a20977d"},"vehicle_type_id":"4","last_reported":1745262482,"current_range_meters":17600,"station_id":"ce4bgt12rcd13ifvqce0","pricing_plan_id":"cebpf4jnsgd1na2vs0mg"},{"bike_id":"5effe88b-6e03-4c3c-b46a-378a9795b191","system_id":"levelo_inurba_marseille","lat":43.30305,"lon":5.39207,"is_reserved":false,"is_disabled":false,"rental_uris":{"android":"levelo://app?vid=5effe88b-6e03-4c3c-b46a-378a9795b191","ios":"levelo://app?vid=5effe88b-6e03-4c3c-b46a-378a9795b191"},"vehicle_type_id":"4","last_reported":1745262482,"current_range_meters":17600,"station_id":"ce4bgkh2rcd13ifvqbk0","pricing_plan_id":"cebpf4jnsgd1na2vs0mg"},{"bike_id":"d5a7e009-c61c-4a6e-85e9-82535edfdd79","system_id":"levelo_inurba_marseille","lat":43.27419,"lon":5.39417,"is_reserved":false,"is_disabled":false,"rental_uris":{"android":"levelo://app?vid=d5a7e009-c61c-4a6e-85e9-82535edfdd79","ios":"levelo://app?vid=d5a7e009-c61c-4a6e-85e9-82535edfdd79"},"vehicle_type_id":"4","last_reported":1745262482,"current_range_meters":17600,"station_id":"ce4bhdp2rcd13ifvqf20","pricing_plan_id":"cebpf4jnsgd1na2vs0mg"},{"bike_id":"5a968a37-0ff6-48cf-b3d3-0e5a96c4904f","system_id":"levelo_inurba_marseille","lat":43.2926,"lon":5.37607,"is_reserved":false,"is_disabled":false,"rental_uris":{"android":"levelo://app?vid=5a968a37-0ff6-48cf-b3d3-0e5a96c4904f","ios":"levelo://app?vid=5a968a37-0ff6-48cf-b3d3-0e5a96c4904f"},"vehicle_type_id":"4","last_reported":1745262482,"current_range_meters":17600,"station_id":"ce4bgi12rcd13ifvqb80","pricing_plan_id":"cebpf4jnsgd1na2vs0mg"},{"bike_id":"215278c5-28c5-412b-9b99-87416e71e32d","system_id":"levelo_inurba_marseille","lat":43.27809,"lon":5.40731,"is_reserved":false,"is_disabled":false,"rental_uris":{"android":"levelo://app?vid=215278c5-28c5-412b-9b99-87416e71e32d","ios":"levelo://app?vid=215278c5-28c5-412b-9b99-87416e71e32d"},