{"last_updated":1777550825,"ttl":60,"version":"2.2","data":{"bikes":[{"bike_id":"e3f98fa5-fb6b-4c2b-85e9-b7911aa861c4","system_id":"levelo_inurba_marseille","lat":43.24071,"lon":5.37753,"is_reserved":false,"is_disabled":false,"rental_uris":{"android":"levelo://app?vid=e3f98fa5-fb6b-4c2b-85e9-b7911aa861c4","ios":"levelo://app?vid=e3f98fa5-fb6b-4c2b-85e9-b7911aa861c4"},"vehicle_type_id":"4","last_reported":1777550826,"current_range_meters":2800,"station_id":"ce4bhnp2rcd13ifvqgvg","pricing_plan_id":"cebpf4jnsgd1na2vs0mg"},{"bike_id":"da558f6b-639e-4af7-8626-da08bd9b1336","system_id":"levelo_inurba_marseille","lat":43.2757,"lon":5.38415,"is_reserved":false,"is_disabled":false,"rental_uris":{"android":"levelo://app?vid=da558f6b-639e-4af7-8626-da08bd9b1336","ios":"levelo://app?vid=da558f6b-639e-4af7-8626-da08bd9b1336"},"vehicle_type_id":"4","last_reported":1777550826,"current_range_meters":2800,"station_id":"ce4bhh92rcd13ifvqfi0","pricing_plan_id":"cebpf4jnsgd1na2vs0mg"},{"bike_id":"e1d26622-7491-4fdf-a6f0-77cbc7cac2ef","system_id":"levelo_inurba_marseille","lat":43.24165,"lon":5.36403,"is_reserved":false,"is_disabled":true,"rental_uris":{"android":"levelo://app?vid=e1d26622-7491-4fdf-a6f0-77cbc7cac2ef","ios":"levelo://app?vid=e1d26622-7491-4fdf-a6f0-77cbc7cac2ef"},"vehicle_type_id":"4","last_reported":1777550826,"current_range_meters":2800,"station_id":"cpo36qri1sfpv3e86is0","pricing_plan_id":"cebpf4jnsgd1na2vs0mg"},{"bike_id":"12d94b52-d1b1-4da6-b733-5a2eb94f3454","system_id":"levelo_inurba_marseille","lat":43.28931,"lon":5.36634,"is_reserved":false,"is_disabled":false,"rental_uris":{"android":"levelo://app?vid=12d94b52-d1b1-4da6-b733-5a2eb94f3454","ios":"levelo://app?vid=12d94b52-d1b1-4da6-b733-5a2eb94f3454"},"vehicle_type_id":"4","last_reported":1777550826,"current_range_meters":2800,"station_id":"ce4bhap2rcd13ifvqek0","pricing_plan_id":"cebpf4jnsgd1na2vs0mg"},{"bike_id":"db01211c-a32e-46e2-95d6-44fcc7805f04","system_id":"levelo_inurba_marseille","lat":43.29299,"lon":5.37157,"is_reserved":false,"is_disabled":false,"rental_uris":{"android":"levelo://app?vid=db01211c-a32e-46e2-95d6-44fcc7805f04","ios":"levelo://app?vid=db01211c-a32e-46e2-95d6-44fcc7805f04"},"vehicle_type_id":"4","last_reported":1777550826,"current_range_meters":2800,"station_id":"ce4bgh92rcd13ifvqb40","pricing_plan_id":"cebpf4jnsgd1na2vs0mg"},{"bike_id":"cec970de-67af-4a97-8d56-ad908f495d85","system_id":"levelo_inurba_marseille","lat":43.281434,"lon":5.385991,"is_reserved":false,"is_disabled":false,"rental_uris":{"android":"levelo://app?vid=cec970de-67af-4a97-8d56-ad908f495d85","ios":"levelo://app?vid=cec970de-67af-4a97-8d56-ad908f495d85"},"vehicle_type_id":"4","last_reported":1777550826,"current_range_meters":2800,"station_id":"ce4bhgp2rcd13ifvqfe0","pricing_plan_id":"cebpf4jnsgd1na2vs0mg"},{"bike_id":"31042abc-fdb4-45c6-af1d-f214e842ea8b","system_id":"levelo_inurba_marseille","lat":43.30961,"lon":5.42171,"is_reserved":false,"is_disabled":false,"rental_uris":{"android":"levelo://app?vid=31042abc-fdb4-45c6-af1d-f214e842ea8b","ios":"levelo://app?vid=31042abc-fdb4-45c6-af1d-f214e842ea8b"},"vehicle_type_id":"4","last_reported":1777550826,"current_range_meters":2800,"station_id":"","pricing_plan_id":"cebpf4jnsgd1na2vs0mg"},{"bike_id":"f756759e-767e-42a7-8b63-4150acc0bf3c","system_id":"levelo_inurba_marseille","lat":43.28424,"lon":5.34987,"is_reserved":false,"is_disabled":false,"rental_uris":{"android":"levelo://app?vid=f756759e-767e-42a7-8b63-4150acc0bf3c","ios":"levelo://app?vid=f756759e-767e-42a7-8b63-4150acc0bf3c"},"vehicle_type_id":"4","last_reported":1777550826,"current_range_meters":2800,"station_id":"ce4bhbh2rcd13ifvqepg","pricing_plan_id":"cebpf4jnsgd1na2vs0mg"},{"bike_id":"4b04508f-dd7d-40f4-aa04-e897b83a481b","system_id":"levelo_inurba_marseille","lat":43.30193,"lon":5.3661,"is_reserved":false,"is_disabled":true,"rental_uris":{"android":"levelo://app?vid=4b04508f-dd7d-40f4-aa04-e897b83a481b","ios":"levelo://app?vid=4b04508f-dd7d-40f4-aa04-e897b83a481b"},"vehicle_type_id":"4","last_reported":1777550826,"current_range_meters":2800,"station_id":"ce4bgrh2rcd13ifvqc8g","pricing_plan_id":"cebpf4jnsgd1na2vs0mg"},{"bike_id":"071dcaba-1a2c-452c-b079-a31669d1d79a","system_id":"levelo_inurba_marseille","lat":43.31874,"lon":5.40729,"is_reserved":false,"is_disabled":false,"rental_uris":{"android":"levelo://app?vid=071dcaba-1a2c-452c-b079-a31669d1d79a","ios":"levelo://app?vid=071dcaba-1a2c-452c-b079-a31669d1d79a"},"vehicle_type_id":"4","last_reported":1777550826,"current_range_meters":2800,"station_id":"ce4bhq12rcd13ifvqhig","pricing_plan_id":"cebpf4jnsgd1na2vs0mg"},{"bike_id":"e841d6e3-fc80-4953-affe-f2a728a44380","system_id":"levelo_inurba_marseille","lat":43.27747,"lon":5.35618,"is_reserved":false,"is_disabled":false,"rental_uris":{"android":"levelo://app?vid=e841d6e3-fc80-4953-affe-f2a728a44380","ios":"levelo://app?vid=e841d6e3-fc80-4953-affe-f2a728a44380"},"vehicle_type_id":"4","last_reported":1777550826,"current_range_meters":2800,"station_id":"","pricing_plan_id":"cebpf4jnsgd1na2vs0mg"},{"bike_id":"c5863615-7347-4c2f-95f7-f536599f65c3","system_id":"levelo_inurba_marseille","lat":43.29007,"lon":5.35593,"is_reserved":false,"is_disabled":false,"rental_uris":{"android":"levelo://app?vid=c5863615-7347-4c2f-95f7-f536599f65c3","ios":"levelo://app?vid=c5863615-7347-4c2f-95f7-f536599f65c3"},"vehicle_type_id":"4","last_reported":1777550826,"current_range_meters":2800,"station_id":"ce4bhb92rcd13ifvqen0","pricing_plan_id":"cebpf4jnsgd1na2vs0mg"},{"bike_id":"b664614e-0298-48de-96bc-27654df9d7fb","system_id":"levelo_inurba_marseille","lat":43.25706,"lon":5.39976,"is_reserved":false,"is_disabled":false,"rental_uris":{"android":"levelo://app?vid=b664614e-0298-48de-96bc-27654df9d7fb","ios":"levelo://app?vid=b664614e-0298-48de-96bc-27654df9d7fb"},"vehicle_type_id":"4","last_reported":1777550826,"current_range_meters":3200,"station_id":"","pricing_plan_id":"cebpf4jnsgd1na2vs0mg"},{"bike_id":"e4b6da7d-4651-4f09-a150-359285fff222","system_id":"levelo_inurba_marseille","lat":43.306,"lon":5.37223,"is_reserved":false,"is_disabled":false,"rental_uris":{"android":"levelo://app?vid=e4b6da7d-4651-4f09-a150-359285fff222","ios":"levelo://app?vid=e4b6da7d-4651-4f09-a150-359285fff222"},"vehicle_type_id":"4","last_reported":1777550826,"current_range_meters":3200,"station_id":"ce4bgqh2rcd13ifvqc4g","pricing_plan_id":"cebpf4jnsgd1na2vs0mg"},{"bike_id":"53d6fcee-a36c-438d-8323-8bfe4399c65c","system_id":"levelo_inurba_marseille","lat":43.27349,"lon":5.39044,"is_reserved":false,"is_disabled":false,"rental_uris":{"android":"levelo://app?vid=53d6fcee-a36c-438d-8323-8bfe4399c65c","ios":"levelo://app?vid=53d6fcee-a36c-438d-8323-8bfe4399c65c"},"vehicle_type_id":"4","last_reported":1777550826,"current_range_meters":3200,"station_id":"ce4bhgp2rcd13ifvqfe0","pricing_plan_id":"cebpf4jnsgd1na2vs0mg"},{"bike_id":"6f4879c5-334f-4c73-b456-62da0547ded7","system_id":"levelo_inurba_marseille","lat":43.30532,"lon":5.36536,"is_reserved":false,"is_disabled":false,"rental_uris":{"android":"levelo://app?vid=6f4879c5-334f-4c73-b456-62da0547ded7","ios":"levelo://app?vid=6f4879c5-334f-4c73-b456-62da0547ded7"},"vehicle_type_id":"4","last_reported":1777550826,"current_range_meters":3200,"station_id":"ce4bgs12rcd13ifvqcag","pricing_plan_id":"cebpf4jnsgd1na2vs0mg"},{"bike_id":"ab84dcb5-fe66-4bca-82a0-ade7d53985c4","system_id":"levelo_inurba_marseille","lat":43.27954,"lon":5.40738,"is_reserved":false,"is_disabled":false,"rental_uris":{"android":"levelo://app?vid=ab84dcb5-fe66-4bca-82a0-ade7d53985c4","ios":"levelo://app?vid=ab84dcb5-fe66-4bca-82a0-ade7d53985c4"},"vehicle_type_id":"4","last_reported":1777550826,"current_range_meters":3200,"station_id":"","pricing_plan_id":"cebpf4jnsgd1na2vs0mg"},{"bike_id":"c24df063-7ce0-4314-bdbe-5d5d4cdbf32d","system_id":"levelo_inurba_marseille","lat":43.31379,"lon":5.38494,"is_reserved":false,"is_disabled":false,"rental_uris":{"android":"levelo://app?vid=c24df063-7ce0-4314-bdbe-5d5d4cdbf32d","ios":"levelo://app?vid=c24df063-7ce0-4314-bdbe-5d5d4cdbf32d"},"vehicle_type_id":"4","last_reported":1777550826,"current_range_meters":3200,"station_id":"ce4bgt92rcd13ifvqcf0","pricing_plan_id":"cebpf4jnsgd1na2vs0mg"},{"bike_id":"2909102a-b355-4fef-b79b-63799f4a6d3a","system_id":"levelo_inurba_marseille","lat":43.29774,"lon":5.37089,"is_reserved":false,"is_disabled":false,"rental_uris":{"android":"levelo://app?vid=2909102a-b355-4fef-b79b-63799f4a6d3a","ios":"levelo://app?vid=2909102a-b355-4fef-b79b-63799f4a6d3a"},"vehicle_type_id":"4","last_reported":1777550826,"current_range_meters":3200,"station_id":"ce4bgop2rcd13ifvqc1g","pricing_plan_id":"cebpf4jnsgd1na2vs0mg"},{"bike_id":"a80e5d63-6815-48d7-be3e-0900487a58b6","system_id":"levelo_inurba_marseille","lat":43.26221,"lon":5.38768,"is_reserved":false,"is_disabled":false,"rental_uris":{"android":"levelo://app?vid=a80e5d63-6815-48d7-be3e-0900487a58b6","ios":"levelo://app?vid=a80e5d63-6815-48d7-be3e-0900487a58b6"},"vehicle_type_id":"4","last_reported":1777550826,"current_range_meters":3200,"station_id":"","pricing_plan_id":"cebpf4jnsgd1na2vs0mg"},{"bike_id":"2a64b039-978d-454b-b892-6345c486562c","system_id":"levelo_inurba_marseille","lat":43.240695,"lon":5.377676,"is_reserved":false,"is_disabled":false,"rental_uris":{"android":"levelo://app?vid=2a64b039-978d-454b-b892-6345c486562c","ios":"levelo://app?vid=2a64b039-978d-454b-b892-6345c486562c"},"vehicle_type_id":"4","last_reported":1777550826,"current_range_meters":3200,"station_id":"ce4bhnp2rcd13ifvqgvg","pricing_plan_id":"cebpf4jnsgd1na2vs0mg"},{"bike_id":"3d80f3c6-f394-4b9a-9d5a-186cb23f83aa","system_id":"levelo_inurba_marseille","lat":43.241723,"lon":5.397333,"is_reserved":false,"is_disabled":true,"rental_uris":{"android":"levelo://app?vid=3d80f3c6-f394-4b9a-9d5a-186cb23f83aa","ios":"levelo://app?vid=3d80f3c6-f394-4b9a-9d5a-186cb23f83aa"},"vehicle_type_id":"4","last_reported":1777550826,"current_range_meters":3200,"station_id":"ce4bhn12rcd13ifvqgpg","pricing_plan_id":"cebpf4jnsgd1na2vs0mg"},{"bike_id":"3d002b1f-e9ee-4d36-9797-9e39b30c596f","system_id":"levelo_inurba_marseille","lat":43.295773,"lon":5.367366,"is_reserved":false,"is_disabled":false,"rental_uris":{"android":"levelo://app?vid=3d002b1f-e9ee-4d36-9797-9e39b30c596f","ios":"levelo://app?vid=3d002b1f-e9ee-4d36-9797-9e39b30c596f"},"vehicle_type_id":"4","last_reported":1777550826,"current_range_meters":3600,"station_id":"ce4bgph2rcd13ifvqc2g","pricing_plan_id":"cebpf4jnsgd1na2vs0mg"},{"bike_id":"95ca8cc5-afd5-46a2-b335-22ee4def044e","system_id":"levelo_inurba_marseille","lat":43.24631,"lon":5.43157,"is_reserved":false,"is_disabled":false,"rental_uris":{"android":"levelo://app?vid=95ca8cc5-afd5-46a2-b335-22ee4def044e","ios":"levelo://app?vid=95ca8cc5-afd5-46a2-b335-22ee4def044e"},"vehicle_type_id":"4","last_reported":1777550826,"current_range_meters":3600,"station_id":"st_d2m6c4gdas8pm72e190g","pricing_plan_id":"cebpf4jnsgd1na2vs0mg"},{"bike_id":"2c514eca-0c7c-4c54-8544-da1a555049b6","system_id":"levelo_inurba_marseille","lat":43.26538,"lon":5.3693,"is_reserved":false,"is_disabled":false,"rental_uris":{"android":"levelo://app?vid=2c514eca-0c7c-4c54-8544-da1a555049b6","ios":"levelo://app?vid=2c514eca-0c7c-4c54-8544-da1a555049b6"},"vehicle_type_id":"4","last_reported":1777550826,"current_range_meters":3600,"station_id":"","pricing_plan_id":"cebpf4jnsgd1na2vs0mg"},{"bike_id":"c1995dfc-3d7a-44a7-990d-b8343c1a3752","system_id":"levelo_inurba_marseille","lat":43.2737,"lon":5.3625,"is_reserved":false,"is_disabled":false,"rental_uris":{"android":"levelo://app?vid=c1995dfc-3d7a-44a7-990d-b8343c1a3752","ios":"levelo://app?vid=c1995dfc-3d7a-44a7-990d-b8343c1a3752"},"vehicle_type_id":"4","last_reported":1777550826,"current_range_meters":3600,"station_id":"ce4bhbh2rcd13ifvqeo0","pricing_plan_id":"cebpf4jnsgd1na2vs0mg"},{"bike_id":"cd735691-a8cf-469c-b880-28ec2dcf0dc2","system_id":"levelo_inurba_marseille","lat":43.33536,"lon":5.37462,"is_reserved":false,"is_disabled":false,"rental_uris":{"android":"levelo://app?vid=cd735691-a8cf-469c-b880-28ec2dcf0dc2","ios":"levelo://app?vid=cd735691-a8cf-469c-b880-28ec2dcf0dc2"},"vehicle_type_id":"4","last_reported":1777550826,"current_range_meters":3600,"station_id":"st_d46tts09ee8s73dlu43g","pricing_plan_id":"cebpf4jnsgd1na2vs0mg"},{"bike_id":"d4767b66-ff3d-4f9c-894b-f1f5ed28b397","system_id":"levelo_inurba_marseille","lat":43.28114,"lon":5.37864,"is_reserved":false,"is_disabled":false,"rental_uris":{"android":"levelo://app?vid=d4767b66-ff3d-4f9c-894b-f1f5ed28b397","ios":"levelo://app?vid=d4767b66-ff3d-4f9c-894b-f1f5ed28b397"},"vehicle_type_id":"4","last_reported":1777550826,"current_range_meters":3600,"station_id":"ce4bha12rcd13ifvqee0","pricing_plan_id":"cebpf4jnsgd1na2vs0mg"},{"bike_id":"5609c1b5-512a-4478-bfc9-acfae1c9e788","system_id":"levelo_inurba_marseille","lat":43.29873,"lon":5.39735,"is_reserved":false,"is_disabled":false,"rental_uris":{"android":"levelo://app?vid=5609c1b5-512a-4478-bfc9-acfae1c9e788","ios":"levelo://app?vid=5609c1b5-512a-4478-bfc9-acfae1c9e788"},"vehicle_type_id":"4","last_reported":1777550826,"current_range_meters":3600,"station_id":"ce4bh0h2rcd13ifvqd50","pricing_plan_id":"cebpf4jnsgd1na2vs0mg"},{"bike_id":"ebfd27a8-bee9-4186-9065-52eaed6e9ad2","system_id":"levelo_inurba_marseille","lat":43.29507,"lon":5.37481,"is_reserved":false,"is_disabled":false,"rental_uris":{"android":"levelo://app?vid=ebfd27a8-bee9-4186-9065-52eaed6e9ad2","ios":"levelo://app?vid=ebfd27a8-bee9-4186-9065-52eaed6e9ad2"},"vehicle_type_id":"4","last_reported":1777550826,"current_range_meters":3600,"station_id":"ce4bgkp2rcd13ifvqbmg","pricing_plan_id":"cebpf4jnsgd1na2vs0mg"},{"bike_id":"822c6958-cb3e-425b-ad96-387fd56fb098","system_id":"levelo_inurba_marseille","lat":43.29022,"lon":5.38145,"is_reserved":false,"is_disabled":false,"rental_uris":{"android":"levelo://app?vid=822c6958-cb3e-425b-ad96-387fd56fb098","ios":"levelo://app?vid=822c6958-cb3e-425b-ad96-387fd56fb098"},"vehicle_type_id":"4","last_reported":1777550826,"current_range_meters":3600,"station_id":"ce4bh4p2rcd13ifvqe1g","pricing_plan_id":"cebpf4jnsgd1na2vs0mg"},{"bike_id":"b074a45d-f096-4c06-bd38-bbb6404b5557","system_id":"levelo_inurba_marseille","lat":43.24658,"lon":5.38159,"is_reserved":false,"is_disabled":false,"rental_uris":{"android":"levelo://app?vid=b074a45d-f096-4c06-bd38-bbb6404b5557","ios":"levelo://app?vid=b074a45d-f096-4c06-bd38-bbb6404b5557"},"vehicle_type_id":"4","last_reported":1777550826,"current_range_meters":3600,"station_id":"ce4bhih2rcd13ifvqfr0","pricing_plan_id":"cebpf4jnsgd1na2vs0mg"},{"bike_id":"6d4b419b-709c-49ca-a8cc-850caaf7b678","system_id":"levelo_inurba_marseille","lat":43.24396,"lon":5.37075,"is_reserved":false,"is_disabled":false,"rental_uris":{"android":"levelo://app?vid=6d4b419b-709c-49ca-a8cc-850caaf7b678","ios":"levelo://app?vid=6d4b419b-709c-49ca-a8cc-850caaf7b678"},"vehicle_type_id":"4","last_reported":1777550826,"current_range_meters":3600,"station_id":"ce4bhhh2rcd13ifvqfk0","pricing_plan_id":"cebpf4jnsgd1na2vs0mg"},{"bike_id":"fbff8655-0ee4-4439-9973-5c552d644fc3","system_id":"levelo_inurba_marseille","lat":43.32105,"lon":5.36768,"is_reserved":false,"is_disabled":false,"rental_uris":{"android":"levelo://app?vid=fbff8655-0ee4-4439-9973-5c552d644fc3","ios":"levelo://app?vid=fbff8655-0ee4-4439-9973-5c552d644fc3"},"vehicle_type_id":"4","last_reported":1777550826,"current_range_meters":3600,"station_id":"ce4bhrh2rcd13ifvqhug","pricing_plan_id":"cebpf4jnsgd1na2vs0mg"},{"bike_id":"f2aa6ab8-39e7-4c99-96b0-e04dc24b05e0","system_id":"levelo_inurba_marseille","lat":43.288625,"lon":5.358439,"is_reserved":false,"is_disabled":false,"rental_uris":{"android":"levelo://app?vid=f2aa6ab8-39e7-4c99-96b0-e04dc24b05e0","ios":"levelo://app?vid=f2aa6ab8-39e7-4c99-96b0-e04dc24b05e0"},"vehicle_type_id":"4","last_reported":1777550826,"current_range_meters":3600,"station_id":"ce4bhb12rcd13ifvqem0","pricing_plan_id":"cebpf4jnsgd1na2vs0mg"},{"bike_id":"b5592bc3-7c5d-4ba9-b1ae-b173928aef8c","system_id":"levelo_inurba_marseille","lat":43.28479,"lon":5.48393,"is_reserved":false,"is_disabled":false,"rental_uris":{"android":"levelo://app?vid=b5592bc3-7c5d-4ba9-b1ae-b173928aef8c","ios":"levelo://app?vid=b5592bc3-7c5d-4ba9-b1ae-b173928aef8c"},"vehicle_type_id":"4","last_reported":1777550826,"current_range_meters":4000,"station_id":"","pricing_plan_id":"cebpf4jnsgd1na2vs0mg"},{"bike_id":"c56faddb-8dc7-44a3-b011-702d12765b64","system_id":"levelo_inurba_marseille","lat":43.21744,"lon":5.3461,"is_reserved":false,"is_disabled":false,"rental_uris":{"android":"levelo://app?vid=c56faddb-8dc7-44a3-b011-702d12765b64","ios":"levelo://app?vid=c56faddb-8dc7-44a3-b011-702d12765b64"},"vehicle_type_id":"4","last_reported":1777550826,"current_range_meters":4000,"station_id":"st_cvj6r9ubvosntc0bgbag","pricing_plan_id":"cebpf4jnsgd1na2vs0mg"},{"bike_id":"82a8043e-804e-4dc9-b426-b4d299449f67","system_id":"levelo_inurba_marseille","lat":43.31039,"lon":5.37175,"is_reserved":false,"is_disabled":false,"rental_uris":{"android":"levelo://app?vid=82a8043e-804e-4dc9-b426-b4d299449f67","ios":"levelo://app?vid=82a8043e-804e-4dc9-b426-b4d299449f67"},"vehicle_type_id":"4","last_reported":1777550826,"current_range_meters":4000,"station_id":"st_d4kl2rp97mjs73e7tdfg","pricing_plan_id":"cebpf4jnsgd1na2vs0mg"},{"bike_id":"d1b0cfb9-74d2-4ee1-ab25-6099cdfdd0f2","system_id":"levelo_inurba_marseille","lat":43.28371,"lon":5.40108,"is_reserved":false,"is_disabled":false,"rental_uris":{"android":"levelo://app?vid=d1b0cfb9-74d2-4ee1-ab25-6099cdfdd0f2","ios":"levelo://app?vid=d1b0cfb9-74d2-4ee1-ab25-6099cdfdd0f2"},"vehicle_type_id":"4","last_reported":1777550826,"current_range_meters":4000,"station_id":"","pricing_plan_id":"cebpf4jnsgd1na2vs0mg"},{"bike_id":"15cf2ef3-d24d-4948-97ac-1f2e66535ab5","system_id":"levelo_inurba_marseille","lat":43.3133,"lon":5.39693,"is_reserved":false,"is_disabled":false,"rental_uris":{"android":"levelo://app?vid=15cf2ef3-d24d-4948-97ac-1f2e66535ab5","ios":"levelo://app?vid=15cf2ef3-d24d-4948-97ac-1f2e66535ab5"},"vehicle_type_id":"4","last_reported":1777550826,"current_range_meters":4000,"station_id":"ce4bgvp2rcd13ifvqcu0","pricing_plan_id":"cebpf4jnsgd1na2vs0mg"},{"bike_id":"7f5d1c22-f034-4114-866a-5ab27f4fa9fd","system_id":"levelo_inurba_marseille","lat":43.303,"lon":5.38523,"is_reserved":false,"is_disabled":false,"rental_uris":{"android":"levelo://app?vid=7f5d1c22-f034-4114-866a-5ab27f4fa9fd","ios":"levelo://app?vid=7f5d1c22-f034-4114-866a-5ab27f4fa9fd"},"vehicle_type_id":"4","last_reported":1777550826,"current_range_meters":4000,"station_id":"","pricing_plan_id":"cebpf4jnsgd1na2vs0mg"},{"bike_id":"9205a08b-5191-472e-826f-09ef9391fcd8","system_id":"levelo_inurba_marseille","lat":43.29543,"lon":5.38549,"is_reserved":false,"is_disabled":true,"rental_uris":{"android":"levelo://app?vid=9205a08b-5191-472e-826f-09ef9391fcd8","ios":"levelo://app?vid=9205a08b-5191-472e-826f-09ef9391fcd8"},"vehicle_type_id":"4","last_reported":1777550826,"current_range_meters":4000,"station_id":"ce4bgih2rcd13ifvqba0","pricing_plan_id":"cebpf4jnsgd1na2vs0mg"},{"bike_id":"a496669f-42ea-4ec8-b909-b71bb128370f","system_id":"levelo_inurba_marseille","lat":43.3354,"lon":5.37457,"is_reserved":false,"is_disabled":false,"rental_uris":{"android":"levelo://app?vid=a496669f-42ea-4ec8-b909-b71bb128370f","ios":"levelo://app?vid=a496669f-42ea-4ec8-b909-b71bb128370f"},"vehicle_type_id":"4","last_reported":1777550826,"current_range_meters":4000,"station_id":"st_d46tts09ee8s73dlu43g","pricing_plan_id":"cebpf4jnsgd1na2vs0mg"},{"bike_id":"f50a5089-eb1b-4c35-81e2-f4049f6ff44c","system_id":"levelo_inurba_marseille","lat":43.29001,"lon":5.35597,"is_reserved":false,"is_disabled":false,"rental_uris":{"android":"levelo://app?vid=f50a5089-eb1b-4c35-81e2-f4049f6ff44c","ios":"levelo://app?vid=f50a5089-eb1b-4c35-81e2-f4049f6ff44c"},"vehicle_type_id":"4","last_reported":1777550826,"current_range_meters":4000,"station_id":"ce4bhb92rcd13ifvqen0","pricing_plan_id":"cebpf4jnsgd1na2vs0mg"},{"bike_id":"54e67cc0-42a4-4dcd-ba78-585ce68a4794","system_id":"levelo_inurba_marseille","lat":43.32492,"lon":5.38278,"is_reserved":false,"is_disabled":false,"rental_uris":{"android":"levelo://app?vid=54e67cc0-42a4-4dcd-ba78-585ce68a4794","ios":"levelo://app?vid=54e67cc0-42a4-4dcd-ba78-585ce68a4794"},"vehicle_type_id":"4","last_reported":1777550826,"current_range_meters":4000,"station_id":"st_d4asgbiv49dc73anf9m0","pricing_plan_id":"cebpf4jnsgd1na2vs0mg"},{"bike_id":"b91f4f99-7987-40ea-afbb-1e1af65ec675","system_id":"levelo_inurba_marseille","lat":43.29438,"lon":5.40907,"is_reserved":false,"is_disabled":false,"rental_uris":{"android":"levelo://app?vid=b91f4f99-7987-40ea-afbb-1e1af65ec675","ios":"levelo://app?vid=b91f4f99-7987-40ea-afbb-1e1af65ec675"},"vehicle_type_id":"4","last_reported":1777550826,"current_range_meters":4000,"station_id":"","pricing_plan_id":"cebpf4jnsgd1na2vs0mg"},{"bike_id":"f8a2c876-1656-475b-a245-7c5d474d3bf2","system_id":"levelo_inurba_marseille","lat":43.29045,"lon":5.39959,"is_reserved":false,"is_disabled":false,"rental_uris":{"android":"levelo://app?vid=f8a2c876-1656-475b-a245-7c5d474d3bf2","ios":"levelo://app?vid=f8a2c876-1656-475b-a245-7c5d474d3bf2"},"vehicle_type_id":"4","last_reported":1777550826,"current_range_meters":4000,"station_id":"ce4bh392rcd13ifvqdm0","pricing_plan_id":"cebpf4jnsgd1na2vs0mg"},{"bike_id":"132b3abd-de5b-44e3-a784-0bd4b34de060","system_id":"levelo_inurba_marseille","lat":43.29785,"lon":5.37105,"is_reserved":false,"is_disabled":false,"rental_uris":{"android":"levelo://app?vid=132b3abd-de5b-44e3-a784-0bd4b34de060","ios":"levelo://app?vid=132b3abd-de5b-44e3-a784-0bd4b34de060"},"vehicle_type_id":"4","last_reported":1777550826,"current_range_meters":4000,"station_id":"ce4bgop2rcd13ifvqc1g","pricing_plan_id":"cebpf4jnsgd1na2vs0mg"},{"bike_id":"c96c7e4e-2ad8-4965-aa09-c069520101ad","system_id":"levelo_inurba_marseille","lat":43.23146,"lon":5.43707,"is_reserved":false,"is_disabled":false,"rental_uris":{"android":"levelo://app?vid=c96c7e4e-2ad8-4965-aa09-c069520101ad","ios":"levelo://app?vid=c96c7e4e-2ad8-4965-aa09-c069520101ad"},"vehicle_type_id":"4","last_reported":1777550826,"current_range_meters":4000,"station_id":"ce4bhmp2rcd13ifvqgog","pricing_plan_id":"cebpf4jnsgd1na2vs0mg"},{"bike_id":"d8de0a64-e3bb-4f89-8f07-313cae5af722","system_id":"levelo_inurba_marseille","lat":43.22558,"lon":5.41624,"is_reserved":false,"is_disabled":false,"rental_uris":{"android":"levelo://app?vid=d8de0a64-e3bb-4f89-8f07-313cae5af722","ios":"levelo://app?vid=d8de0a64-e3bb-4f89-8f07-313cae5af722"},"vehicle_type_id":"4","last_reported":1777550826,"current_range_meters":4400,"station_id":"st_d2o4gvlbi1j2169b742g","pricing_plan_id":"cebpf4jnsgd1na2vs0mg"},{"bike_id":"2ca2ed7b-d974-438e-9605-c88a8bd7cfd2","system_id":"levelo_inurba_marseille","lat":43.30836,"lon":5.38282,"is_reserved":false,"is_disabled":false,"rental_uris":{"android":"levelo://app?vid=2ca2ed7b-d974-438e-9605-c88a8bd7cfd2","ios":"levelo://app?vid=2ca2ed7b-d974-438e-9605-c88a8bd7cfd2"},"vehicle_type_id":"4","last_reported":1777550826,"current_range_meters":4400,"station_id":"","pricing_plan_id":"cebpf4jnsgd1na2vs0mg"},{"bike_id":"0438d68d-b4c6-4b23-a7e1-82657231ebe9","system_id":"levelo_inurba_marseille","lat":43.2848,"lon":5.48398,"is_reserved":false,"is_disabled":false,"rental_uris":{"android":"levelo://app?vid=0438d68d-b4c6-4b23-a7e1-82657231ebe9","ios":"levelo://app?vid=0438d68d-b4c6-4b23-a7e1-82657231ebe9"},"vehicle_type_id":"4","last_reported":1777550826,"current_range_meters":4400,"station_id":"","pricing_plan_id":"cebpf4jnsgd1na2vs0mg"},{"bike_id":"f5d54a5c-1326-41c8-8e47-d06363d61ffc","system_id":"levelo_inurba_marseille","lat":43.30593,"lon":5.3936,"is_reserved":false,"is_disabled":false,"rental_uris":{"android":"levelo://app?vid=f5d54a5c-1326-41c8-8e47-d06363d61ffc","ios":"levelo://app?vid=f5d54a5c-1326-41c8-8e47-d06363d61ffc"},"vehicle_type_id":"4","last_reported":1777550826,"current_range_meters":4400,"station_id":"ce4bh0p2rcd13ifvqd80","pricing_plan_id":"cebpf4jnsgd1na2vs0mg"},{"bike_id":"d39873d3-1952-466d-9f97-f5f5e1cad95a","system_id":"levelo_inurba_marseille","lat":43.28425,"lon":5.34992,"is_reserved":false,"is_disabled":false,"rental_uris":{"android":"levelo://app?vid=d39873d3-1952-466d-9f97-f5f5e1cad95a","ios":"levelo://app?vid=d39873d3-1952-466d-9f97-f5f5e1cad95a"},"vehicle_type_id":"4","last_reported":1777550826,"current_range_meters":4400,"station_id":"ce4bhbh2rcd13ifvqepg","pricing_plan_id":"cebpf4jnsgd1na2vs0mg"},{"bike_id":"b0fc715f-4a35-4272-9e2a-b10f7b105dc9","system_id":"levelo_inurba_marseille","lat":43.29302,"lon":5.44533,"is_reserved":false,"is_disabled":false,"rental_uris":{"android":"levelo://app?vid=b0fc715f-4a35-4272-9e2a-b10f7b105dc9","ios":"levelo://app?vid=b0fc715f-4a35-4272-9e2a-b10f7b105dc9"},"vehicle_type_id":"4","last_reported":1777550826,"current_range_meters":4400,"station_id":"","pricing_plan_id":"cebpf4jnsgd1na2vs0mg"},{"bike_id":"c49761ac-9f33-4552-bf2f-10763f93fa50","system_id":"levelo_inurba_marseille","lat":43.31883,"lon":5.36811,"is_reserved":false,"is_disabled":false,"rental_uris":{"android":"levelo://app?vid=c49761ac-9f33-4552-bf2f-10763f93fa50","ios":"levelo://app?vid=c49761ac-9f33-4552-bf2f-10763f93fa50"},"vehicle_type_id":"4","last_reported":1777550826,"current_range_meters":4400,"station_id":"st_d6o2h0d0559c73evc1b0","pricing_plan_id":"cebpf4jnsgd1na2vs0mg"},{"bike_id":"21a47790-9222-4194-a26c-1770c11fbe0a","system_id":"levelo_inurba_marseille","lat":43.29967,"lon":5.38526,"is_reserved":false,"is_disabled":false,"rental_uris":{"android":"levelo://app?vid=21a47790-9222-4194-a26c-1770c11fbe0a","ios":"levelo://app?vid=21a47790-9222-4194-a26c-1770c11fbe0a"},"vehicle_type_id":"4","last_reported":1777550826,"current_range_meters":4400,"station_id":"ce4bgj92rcd13ifvqbd0","pricing_plan_id":"cebpf4jnsgd1na2vs0mg"},{"bike_id":"dde9cb7a-d2cd-49d4-9390-db18f4c0f172","system_id":"levelo_inurba_marseille","lat":43.337444,"lon":5.374475,"is_reserved":false,"is_disabled":false,"rental_uris":{"android":"levelo://app?vid=dde9cb7a-d2cd-49d4-9390-db18f4c0f172","ios":"levelo://app?vid=dde9cb7a-d2cd-49d4-9390-db18f4c0f172"},"vehicle_type_id":"4","last_reported":1777550826,"current_range_meters":4800,"station_id":"ce4bgj12rcd13ifvqbc0","pricing_plan_id":"cebpf4jnsgd1na2vs0mg"},{"bike_id":"48357342-923a-40af-805e-c9f6abe5dd99","system_id":"levelo_inurba_marseille","lat":43.29553,"lon":5.375,"is_reserved":false,"is_disabled":false,"rental_uris":{"android":"levelo://app?vid=48357342-923a-40af-805e-c9f6abe5dd99","ios":"levelo://app?vid=48357342-923a-40af-805e-c9f6abe5dd99"},"vehicle_type_id":"4","last_reported":1777550826,"current_range_meters":4800,"station_id":"ce4bgkp2rcd13ifvqbmg","pricing_plan_id":"cebpf4jnsgd1na2vs0mg"},{"bike_id":"9d364f38-9209-43ca-93e4-cdc645941243","system_id":"levelo_inurba_marseille","lat":43.23154,"lon":5.43684,"is_reserved":false,"is_disabled":false,"rental_uris":{"android":"levelo://app?vid=9d364f38-9209-43ca-93e4-cdc645941243","ios":"levelo://app?vid=9d364f38-9209-43ca-93e4-cdc645941243"},"vehicle_type_id":"4","last_reported":1777550826,"current_range_meters":4800,"station_id":"ce4bhmp2rcd13ifvqgog","pricing_plan_id":"cebpf4jnsgd1na2vs0mg"},{"bike_id":"0486fb80-ff6e-45f7-b8a6-d874f33f0701","system_id":"levelo_inurba_marseille","lat":43.28468,"lon":5.35886,"is_reserved":false,"is_disabled":false,"rental_uris":{"android":"levelo://app?vid=0486fb80-ff6e-45f7-b8a6-d874f33f0701","ios":"levelo://app?vid=0486fb80-ff6e-45f7-b8a6-d874f33f0701"},"vehicle_type_id":"4","last_reported":1777550826,"current_range_meters":4800,"station_id":"ce4bhah2rcd13ifvqei0","pricing_plan_id":"cebpf4jnsgd1na2vs0mg"},{"bike_id":"a1569a5d-e546-4ee9-a4d0-91dd9f26cd56","system_id":"levelo_inurba_marseille","lat":43.29285,"lon":5.37467,"is_reserved":false,"is_disabled":false,"rental_uris":{"android":"levelo://app?vid=a1569a5d-e546-4ee9-a4d0-91dd9f26cd56","ios":"levelo://app?vid=a1569a5d-e546-4ee9-a4d0-91dd9f26cd56"},"vehicle_type_id":"4","last_reported":1777550826,"current_range_meters":4800,"station_id":"ce4bgi12rcd13ifvqb70","pricing_plan_id":"cebpf4jnsgd1na2vs0mg"},{"bike_id":"e8c45a74-740f-4fc5-b008-5dd3be21b931","system_id":"levelo_inurba_marseille","lat":43.31155,"lon":5.38056,"is_reserved":false,"is_disabled":false,"rental_uris":{"android":"levelo://app?vid=e8c45a74-740f-4fc5-b008-5dd3be21b931","ios":"levelo://app?vid=e8c45a74-740f-4fc5-b008-5dd3be21b931"},"vehicle_type_id":"4","last_reported":1777550826,"current_range_meters":4800,"station_id":"","pricing_plan_id":"cebpf4jnsgd1na2vs0mg"},{"bike_id":"acc57406-75de-43a2-a6ec-d941193f0be0","system_id":"levelo_inurba_marseille","lat":43.32358,"lon":5.36779,"is_reserved":false,"is_disabled":false,"rental_uris":{"android":"levelo://app?vid=acc57406-75de-43a2-a6ec-d941193f0be0","ios":"levelo://app?vid=acc57406-75de-43a2-a6ec-d941193f0be0"},"vehicle_type_id":"4","last_reported":1777550826,"current_range_meters":4800,"station_id":"ce4bhsh2rcd13ifvqi2g","pricing_plan_id":"cebpf4jnsgd1na2vs0mg"},{"bike_id":"fe7e4618-894d-4fe8-a328-af3f9eb613a6","system_id":"levelo_inurba_marseille","lat":43.28948,"lon":5.40178,"is_reserved":false,"is_disabled":false,"rental_uris":{"android":"levelo://app?vid=fe7e4618-894d-4fe8-a328-af3f9eb613a6","ios":"levelo://app?vid=fe7e4618-894d-4fe8-a328-af3f9eb613a6"},"vehicle_type_id":"4","last_reported":1777550826,"current_range_meters":4800,"station_id":"","pricing_plan_id":"cebpf4jnsgd1na2vs0mg"},{"bike_id":"945b3f65-3522-4839-bb4a-92155b98bfd3","system_id":"levelo_inurba_marseille","lat":43.28431,"lon":5.34989,"is_reserved":false,"is_disabled":false,"rental_uris":{"android":"levelo://app?vid=945b3f65-3522-4839-bb4a-92155b98bfd3","ios":"levelo://app?vid=945b3f65-3522-4839-bb4a-92155b98bfd3"},"vehicle_type_id":"4","last_reported":1777550826,"current_range_meters":4800,"station_id":"ce4bhbh2rcd13ifvqepg","pricing_plan_id":"cebpf4jnsgd1na2vs0mg"},{"bike_id":"b47039ed-82fb-4dd2-b368-650dd5852498","system_id":"levelo_inurba_marseille","lat":43.30546,"lon":5.36537,"is_reserved":false,"is_disabled":false,"rental_uris":{"android":"levelo://app?vid=b47039ed-82fb-4dd2-b368-650dd5852498","ios":"levelo://app?vid=b47039ed-82fb-4dd2-b368-650dd5852498"},"vehicle_type_id":"4","last_reported":1777550826,"current_range_meters":4800,"station_id":"ce4bgs12rcd13ifvqcag","pricing_plan_id":"cebpf4jnsgd1na2vs0mg"},{"bike_id":"4d3b0fb9-4fcc-46d7-8f90-81b232f0c7b3","system_id":"levelo_inurba_marseille","lat":43.30125,"lon":5.43118,"is_reserved":false,"is_disabled":false,"rental_uris":{"android":"levelo://app?vid=4d3b0fb9-4fcc-46d7-8f90-81b232f0c7b3","ios":"levelo://app?vid=4d3b0fb9-4fcc-46d7-8f90-81b232f0c7b3"},"vehicle_type_id":"4","last_reported":1777550826,"current_range_meters":4800,"station_id":"st_d3js3co5814s73ftftug","pricing_plan_id":"cebpf4jnsgd1na2vs0mg"},{"bike_id":"d86dd8a5-2f45-4caa-9f54-c870b164e148","system_id":"levelo_inurba_marseille","lat":43.29531,"lon":5.37505,"is_reserved":false,"is_disabled":false,"rental_uris":{"android":"levelo://app?vid=d86dd8a5-2f45-4caa-9f54-c870b164e148","ios":"levelo://app?vid=d86dd8a5-2f45-4caa-9f54-c870b164e148"},"vehicle_type_id":"4","last_reported":1777550826,"current_range_meters":4800,"station_id":"ce4bgkp2rcd13ifvqbmg","pricing_plan_id":"cebpf4jnsgd1na2vs0mg"},{"bike_id":"871f1eaf-b361-46d7-88bd-102fbea3add5","system_id":"levelo_inurba_marseille","lat":43.29572,"lon":5.37518,"is_reserved":false,"is_disabled":true,"rental_uris":{"android":"levelo://app?vid=871f1eaf-b361-46d7-88bd-102fbea3add5","ios":"levelo://app?vid=871f1eaf-b361-46d7-88bd-102fbea3add5"},"vehicle_type_id":"4","last_reported":1777550826,"current_range_meters":4800,"station_id":"ce4bgh92rcd13ifvqb50","pricing_plan_id":"cebpf4jnsgd1na2vs0mg"},{"bike_id":"1aebc52b-73b4-4c52-9886-caa6b1ef642f","system_id":"levelo_inurba_marseille","lat":43.28617,"lon":5.39874,"is_reserved":false,"is_disabled":false,"rental_uris":{"android":"levelo://app?vid=1aebc52b-73b4-4c52-9886-caa6b1ef642f","ios":"levelo://app?vid=1aebc52b-73b4-4c52-9886-caa6b1ef642f"},"vehicle_type_id":"4","last_reported":1777550826,"current_range_meters":4800,"station_id":"st_d4a7ka997mjs738ck50g","pricing_plan_id":"cebpf4jnsgd1na2vs0mg"},{"bike_id":"8829f460-aa5f-4233-9846-cd6731fc4acd","system_id":"levelo_inurba_marseille","lat":43.26983,"lon":5.40434,"is_reserved":false,"is_disabled":false,"rental_uris":{"android":"levelo://app?vid=8829f460-aa5f-4233-9846-cd6731fc4acd","ios":"levelo://app?vid=8829f460-aa5f-4233-9846-cd6731fc4acd"},"vehicle_type_id":"4","last_reported":1777550826,"current_range_meters":5600,"station_id":"","pricing_plan_id":"cebpf4jnsgd1na2vs0mg"},{"bike_id":"01fa279c-d41a-4b73-8498-3b8f577410b4","system_id":"levelo_inurba_marseille","lat":43.30424,"lon":5.41276,"is_reserved":false,"is_disabled":false,"rental_uris":{"android":"levelo://app?vid=01fa279c-d41a-4b73-8498-3b8f577410b4","ios":"levelo://app?vid=01fa279c-d41a-4b73-8498-3b8f577410b4"},"vehicle_type_id":"4","last_reported":1777550826,"current_range_meters":5600,"station_id":"ce4bhop2rcd13ifvqh8g","pricing_plan_id":"cebpf4jnsgd1na2vs0mg"},{"bike_id":"d23dfd1c-78fd-49df-804e-b0215ba8e8d2","system_id":"levelo_inurba_marseille","lat":43.29001,"lon":5.35626,"is_reserved":false,"is_disabled":false,"rental_uris":{"android":"levelo://app?vid=d23dfd1c-78fd-49df-804e-b0215ba8e8d2","ios":"levelo://app?vid=d23dfd1c-78fd-49df-804e-b0215ba8e8d2"},"vehicle_type_id":"4","last_reported":1777550826,"current_range_meters":5600,"station_id":"ce4bhb92rcd13ifvqen0","pricing_plan_id":"cebpf4jnsgd1na2vs0mg"},{"bike_id":"4973a181-d17c-430e-bbdc-8fc4d0df0c6f","system_id":"levelo_inurba_marseille","lat":43.23145,"lon":5.43716,"is_reserved":false,"is_disabled":false,"rental_uris":{"android":"levelo://app?vid=4973a181-d17c-430e-bbdc-8fc4d0df0c6f","ios":"levelo://app?vid=4973a181-d17c-430e-bbdc-8fc4d0df0c6f"},"vehicle_type_id":"4","last_reported":1777550826,"current_range_meters":5600,"station_id":"ce4bhmp2rcd13ifvqgog","pricing_plan_id":"cebpf4jnsgd1na2vs0mg"},{"bike_id":"c6567a1f-9195-4865-9421-b4695ac1649b","system_id":"levelo_inurba_marseille","lat":43.31396,"lon":5.36724,"is_reserved":false,"is_disabled":false,"rental_uris":{"android":"levelo://app?vid=c6567a1f-9195-4865-9421-b4695ac1649b","ios":"levelo://app?vid=c6567a1f-9195-4865-9421-b4695ac1649b"},"vehicle_type_id":"4","last_reported":1777550826,"current_range_meters":5600,"station_id":"ce4bgr92rcd13ifvqc6g","pricing_plan_id":"cebpf4jnsgd1na2vs0mg"},{"bike_id":"87dc6c48-6c9b-4425-a165-e6d019296494","system_id":"levelo_inurba_marseille","lat":43.28933,"lon":5.36641,"is_reserved":false,"is_disabled":false,"rental_uris":{"android":"levelo://app?vid=87dc6c48-6c9b-4425-a165-e6d019296494","ios":"levelo://app?vid=87dc6c48-6c9b-4425-a165-e6d019296494"},"vehicle_type_id":"4","last_reported":1777550826,"current_range_meters":5600,"station_id":"ce4bhap2rcd13ifvqek0","pricing_plan_id":"cebpf4jnsgd1na2vs0mg"},{"bike_id":"effe3b55-8579-43ad-b2fb-4a005d1283b3","system_id":"levelo_inurba_marseille","lat":43.29858,"lon":5.39732,"is_reserved":false,"is_disabled":false,"rental_uris":{"android":"levelo://app?vid=effe3b55-8579-43ad-b2fb-4a005d1283b3","ios":"levelo://app?vid=effe3b55-8579-43ad-b2fb-4a005d1283b3"},"vehicle_type_id":"4","last_reported":1777550826,"current_range_meters":5600,"station_id":"ce4bh0h2rcd13ifvqd50","pricing_plan_id":"cebpf4jnsgd1na2vs0mg"},{"bike_id":"6472e9f9-916c-4b68-b580-23681eaa5606","system_id":"levelo_inurba_marseille","lat":43.293012,"lon":5.374651,"is_reserved":false,"is_disabled":false,"rental_uris":{"android":"levelo://app?vid=6472e9f9-916c-4b68-b580-23681eaa5606","ios":"levelo://app?vid=6472e9f9-916c-4b68-b580-23681eaa5606"},"vehicle_type_id":"4","last_reported":1777550826,"current_range_meters":5600,"station_id":"ce4bgi12rcd13ifvqb70","pricing_plan_id":"cebpf4jnsgd1na2vs0mg"},{"bike_id":"4c4fd5bf-edd1-4e64-bbba-8e4e3d30b47b","system_id":"levelo_inurba_marseille","lat":43.28887,"lon":5.43051,"is_reserved":false,"is_disabled":false,"rental_uris":{"android":"levelo://app?vid=4c4fd5bf-edd1-4e64-bbba-8e4e3d30b47b","ios":"levelo://app?vid=4c4fd5bf-edd1-4e64-bbba-8e4e3d30b47b"},"vehicle_type_id":"4","last_reported":1777550826,"current_range_meters":5600,"station_id":"","pricing_plan_id":"cebpf4jnsgd1na2vs0mg"},{"bike_id":"60d77da4-6419-429b-9e7a-b2cf161a2f69","system_id":"levelo_inurba_marseille","lat":43.32642,"lon":5.39497,"is_reserved":false,"is_disabled":false,"rental_uris":{"android":"levelo://app?vid=60d77da4-6419-429b-9e7a-b2cf161a2f69","ios":"levelo://app?vid=60d77da4-6419-429b-9e7a-b2cf161a2f69"},"vehicle_type_id":"4","last_reported":1777550826,"current_range_meters":5600,"station_id":"","pricing_plan_id":"cebpf4jnsgd1na2vs0mg"},{"bike_id":"d5388f7a-4e0a-4376-b76b-701e4b281dc2","system_id":"levelo_inurba_marseille","lat":43.27057,"lon":5.40252,"is_reserved":false,"is_disabled":true,"rental_uris":{"android":"levelo://app?vid=d5388f7a-4e0a-4376-b76b-701e4b281dc2","ios":"levelo://app?vid=d5388f7a-4e0a-4376-b76b-701e4b281dc2"},"vehicle_type_id":"4","last_reported":1777550826,"current_range_meters":5600,"station_id":"ce4bhk92rcd13ifvqgc0","pricing_plan_id":"cebpf4jnsgd1na2vs0mg"},{"bike_id":"7a4f9c5b-0770-4973-b065-ff441b4f0ec4","system_id":"levelo_inurba_marseille","lat":43.28861,"lon":5.42519,"is_reserved":false,"is_disabled":false,"rental_uris":{"android":"levelo://app?vid=7a4f9c5b-0770-4973-b065-ff441b4f0ec4","ios":"levelo://app?vid=7a4f9c5b-0770-4973-b065-ff441b4f0ec4"},"vehicle_type_id":"4","last_reported":1777550826,"current_range_meters":6000,"station_id":"st_d3b462108ojc7389ooeg","pricing_plan_id":"cebpf4jnsgd1na2vs0mg"},{"bike_id":"262fc285-b6eb-4eda-9ac1-639b6caaacc5","system_id":"levelo_inurba_marseille","lat":43.32345,"lon":5.36748,"is_reserved":false,"is_disabled":false,"rental_uris":{"android":"levelo://app?vid=262fc285-b6eb-4eda-9ac1-639b6caaacc5","ios":"levelo://app?vid=262fc285-b6eb-4eda-9ac1-639b6caaacc5"},"vehicle_type_id":"4","last_reported":1777550826,"current_range_meters":6000,"station_id":"ce4bhsh2rcd13ifvqi2g","pricing_plan_id":"cebpf4jnsgd1na2vs0mg"},{"bike_id":"cb8ac0e2-2237-4772-a18e-a905100c412c","system_id":"levelo_inurba_marseille","lat":43.29005,"lon":5.35611,"is_reserved":false,"is_disabled":false,"rental_uris":{"android":"levelo://app?vid=cb8ac0e2-2237-4772-a18e-a905100c412c","ios":"levelo://app?vid=cb8ac0e2-2237-4772-a18e-a905100c412c"},"vehicle_type_id":"4","last_reported":1777550826,"current_range_meters":6000,"station_id":"ce4bhb92rcd13ifvqen0","pricing_plan_id":"cebpf4jnsgd1na2vs0mg"},{"bike_id":"1a3d543c-80b7-43e6-964f-291211f89e59","system_id":"levelo_inurba_marseille","lat":43.27421,"lon":5.39392,"is_reserved":false,"is_disabled":false,"rental_uris":{"android":"levelo://app?vid=1a3d543c-80b7-43e6-964f-291211f89e59","ios":"levelo://app?vid=1a3d543c-80b7-43e6-964f-291211f89e59"},"vehicle_type_id":"4","last_reported":1777550826,"current_range_meters":6000,"station_id":"ce4bhdp2rcd13ifvqf20","pricing_plan_id":"cebpf4jnsgd1na2vs0mg"},{"bike_id":"9235947e-eace-4312-a5e0-199f360d7285","system_id":"levelo_inurba_marseille","lat":43.29547,"lon":5.39973,"is_reserved":false,"is_disabled":false,"rental_uris":{"android":"levelo://app?vid=9235947e-eace-4312-a5e0-199f360d7285","ios":"levelo://app?vid=9235947e-eace-4312-a5e0-199f360d7285"},"vehicle_type_id":"4","last_reported":1777550826,"current_range_meters":6000,"station_id":"ce4bh312rcd13ifvqdj0","pricing_plan_id":"cebpf4jnsgd1na2vs0mg"},{"bike_id":"50ca9e21-0bb5-4200-8402-e04e994f182c","system_id":"levelo_inurba_marseille","lat":43.29258,"lon":5.36844,"is_reserved":false,"is_disabled":false,"rental_uris":{"android":"levelo://app?vid=50ca9e21-0bb5-4200-8402-e04e994f182c","ios":"levelo://app?vid=50ca9e21-0bb5-4200-8402-e04e994f182c"},"vehicle_type_id":"4","last_reported":1777550826,"current_range_meters":6000,"station_id":"ce4bhbp2rcd13ifvqesg","pricing_plan_id":"cebpf4jnsgd1na2vs0mg"},{"bike_id":"160e418f-f550-431c-8292-fbceee2d8472","system_id":"levelo_inurba_marseille","lat":43.30129,"lon":5.431,"is_reserved":false,"is_disabled":false,"rental_uris":{"android":"levelo://app?vid=160e418f-f550-431c-8292-fbceee2d8472","ios":"levelo://app?vid=160e418f-f550-431c-8292-fbceee2d8472"},"vehicle_type_id":"4","last_reported":1777550826,"current_range_meters":6000,"station_id":"st_d3js3co5814s73ftftug","pricing_plan_id":"cebpf4jnsgd1na2vs0mg"},{"bike_id":"26335112-9b2a-4a27-9ec1-b93b9cc755ad","system_id":"levelo_inurba_marseille","lat":43.30855,"lon":5.41887,"is_reserved":false,"is_disabled":false,"rental_uris":{"android":"levelo://app?vid=26335112-9b2a-4a27-9ec1-b93b9cc755ad","ios":"levelo://app?vid=26335112-9b2a-4a27-9ec1-b93b9cc755ad"},"vehicle_type_id":"4","last_reported":1777550826,"current_range_meters":6000,"station_id":"","pricing_plan_id":"cebpf4jnsgd1na2vs0mg"},{"bike_id":"821adca6-ac71-4cac-8138-2c6a08b68fad","system_id":"levelo_inurba_marseille","lat":43.3123,"lon":5.36837,"is_reserved":false,"is_disabled":false,"rental_uris":{"android":"levelo://app?vid=821adca6-ac71-4cac-8138-2c6a08b68fad","ios":"levelo://app?vid=821adca6-ac71-4cac-8138-2c6a08b68fad"},"vehicle_type_id":"4","last_reported":1777550826,"current_range_meters":6000,"station_id":"ce4bgl92rcd13ifvqbq0","pricing_plan_id":"cebpf4jnsgd1na2vs0mg"},{"bike_id":"898944a9-7654-45a2-a2ab-c958d55ca218","system_id":"levelo_inurba_marseille","lat":43.31709,"lon":5.37733,"is_reserved":false,"is_disabled":false,"rental_uris":{"android":"levelo://app?vid=898944a9-7654-45a2-a2ab-c958d55ca218","ios":"levelo://app?vid=898944a9-7654-45a2-a2ab-c958d55ca218"},"vehicle_type_id":"4","last_reported":1777550826,"current_range_meters":6000,"station_id":"ce4bgth2rcd13ifvqch0","pricing_plan_id":"cebpf4jnsgd1na2vs0mg"},{"bike_id":"3be4a7db-61a4-4555-aa09-c404800b0f79","system_id":"levelo_inurba_marseille","lat":43.33157,"lon":5.37672,"is_reserved":false,"is_disabled":false,"rental_uris":{"android":"levelo://app?vid=3be4a7db-61a4-4555-aa09-c404800b0f79","ios":"levelo://app?vid=3be4a7db-61a4-4555-aa09-c404800b0f79"},"vehicle_type_id":"4","last_reported":1777550826,"current_range_meters":6000,"station_id":"st_d46cu089ee8s73dldbu0","pricing_plan_id":"cebpf4jnsgd1na2vs0mg"},{"bike_id":"c836b09f-a666-4145-8191-473bc44c6a36","system_id":"levelo_inurba_marseille","lat":43.255772,"lon":5.382272,"is_reserved":false,"is_disabled":true,"rental_uris":{"android":"levelo://app?vid=c836b09f-a666-4145-8191-473bc44c6a36","ios":"levelo://app?vid=c836b09f-a666-4145-8191-473bc44c6a36"},"vehicle_type_id":"4","last_reported":1777550826,"current_range_meters":6000,"station_id":"ce4bhih2rcd13ifvqfs0","pricing_plan_id":"cebpf4jnsgd1na2vs0mg"},{"bike_id":"46523cb2-6b8e-455f-9277-3808cf80d4d2","system_id":"levelo_inurba_marseille","lat":43.337444,"lon":5.374475,"is_reserved":false,"is_disabled":true,"rental_uris":{"android":"levelo://app?vid=46523cb2-6b8e-455f-9277-3808cf80d4d2","ios":"levelo://app?vid=46523cb2-6b8e-455f-9277-3808cf80d4d2"},"vehicle_type_id":"4","last_reported":1777550826,"current_range_meters":6400,"station_id":"","pricing_plan_id":"cebpf4jnsgd1na2vs0mg"},{"bike_id":"58293293-347c-4f4b-8695-d90ac94462c2","system_id":"levelo_inurba_marseille","lat":43.30153,"lon":5.38095,"is_reserved":false,"is_disabled":false,"rental_uris":{"android":"levelo://app?vid=58293293-347c-4f4b-8695-d90ac94462c2","ios":"levelo://app?vid=58293293-347c-4f4b-8695-d90ac94462c2"},"vehicle_type_id":"4","last_reported":1777550826,"current_range_meters":6400,"station_id":"ce4bgjp2rcd13ifvqbh0","pricing_plan_id":"cebpf4jnsgd1na2vs0mg"},{"bike_id":"d97ed6ed-9254-4b2c-9752-a3aaf3378900","system_id":"levelo_inurba_marseille","lat":43.33514,"lon":5.37495,"is_reserved":false,"is_disabled":false,"rental_uris":{"android":"levelo://app?vid=d97ed6ed-9254-4b2c-9752-a3aaf3378900","ios":"levelo://app?vid=d97ed6ed-9254-4b2c-9752-a3aaf3378900"},"vehicle_type_id":"4","last_reported":1777550826,"current_range_meters":6400,"station_id":"","pricing_plan_id":"cebpf4jnsgd1na2vs0mg"},{"bike_id":"45ff3eb8-dc8c-4fd5-a87d-9a3eb0701e41","system_id":"levelo_inurba_marseille","lat":43.27489,"lon":5.42454,"is_reserved":false,"is_disabled":false,"rental_uris":{"android":"levelo://app?vid=45ff3eb8-dc8c-4fd5-a87d-9a3eb0701e41","ios":"levelo://app?vid=45ff3eb8-dc8c-4fd5-a87d-9a3eb0701e41"},"vehicle_type_id":"4","last_reported":1777550826,"current_range_meters":6400,"station_id":"ce4bhn92rcd13ifvqgrg","pricing_plan_id":"cebpf4jnsgd1na2vs0mg"},{"bike_id":"8ecd22d6-ea16-4947-a7cb-5d0643282d24","system_id":"levelo_inurba_marseille","lat":43.281,"lon":5.37846,"is_reserved":false,"is_disabled":true,"rental_uris":{"android":"levelo://app?vid=8ecd22d6-ea16-4947-a7cb-5d0643282d24","ios":"levelo://app?vid=8ecd22d6-ea16-4947-a7cb-5d0643282d24"},"vehicle_type_id":"4","last_reported":1777550826,"current_range_meters":6400,"station_id":"ce4bha12rcd13ifvqee0","pricing_plan_id":"cebpf4jnsgd1na2vs0mg"},{"bike_id":"14ffd392-a207-41da-942f-3d5d62a42696","system_id":"levelo_inurba_marseille","lat":43.31902,"lon":5.36803,"is_reserved":false,"is_disabled":false,"rental_uris":{"android":"levelo://app?vid=14ffd392-a207-41da-942f-3d5d62a42696","ios":"levelo://app?vid=14ffd392-a207-41da-942f-3d5d62a42696"},"vehicle_type_id":"4","last_reported":1777550826,"current_range_meters":6400,"station_id":"st_d6o2h0d0559c73evc1b0","pricing_plan_id":"cebpf4jnsgd1na2vs0mg"},{"bike_id":"b9b5ea88-4b9c-40d0-88f9-6ee1daf3a111","system_id":"levelo_inurba_marseille","lat":43.25004,"lon":5.38928,"is_reserved":false,"is_disabled":false,"rental_uris":{"android":"levelo://app?vid=b9b5ea88-4b9c-40d0-88f9-6ee1daf3a111","ios":"levelo://app?vid=b9b5ea88-4b9c-40d0-88f9-6ee1daf3a111"},"vehicle_type_id":"4","last_reported":1777550826,"current_range_meters":6400,"station_id":"ce4bhgp2rcd13ifvqfd0","pricing_plan_id":"cebpf4jnsgd1na2vs0mg"},{"bike_id":"dd649e74-ed5e-4ce6-b6fc-191746436a7b","system_id":"levelo_inurba_marseille","lat":43.25068,"lon":5.42507,"is_reserved":false,"is_disabled":false,"rental_uris":{"android":"levelo://app?vid=dd649e74-ed5e-4ce6-b6fc-191746436a7b","ios":"levelo://app?vid=dd649e74-ed5e-4ce6-b6fc-191746436a7b"},"vehicle_type_id":"4","last_reported":1777550826,"current_range_meters":6400,"station_id":"","pricing_plan_id":"cebpf4jnsgd1na2vs0mg"},{"bike_id":"9b171422-a10e-441a-8d08-0b74298acb49","system_id":"levelo_inurba_marseille","lat":43.28421,"lon":5.3498,"is_reserved":false,"is_disabled":false,"rental_uris":{"android":"levelo://app?vid=9b171422-a10e-441a-8d08-0b74298acb49","ios":"levelo://app?vid=9b171422-a10e-441a-8d08-0b74298acb49"},"vehicle_type_id":"4","last_reported":1777550826,"current_range_meters":6400,"station_id":"ce4bhbh2rcd13ifvqepg","pricing_plan_id":"cebpf4jnsgd1na2vs0mg"},{"bike_id":"212f32a6-c6cc-4c06-9908-982c23f0164b","system_id":"levelo_inurba_marseille","lat":43.30904,"lon":5.36841,"is_reserved":false,"is_disabled":false,"rental_uris":{"android":"levelo://app?vid=212f32a6-c6cc-4c06-9908-982c23f0164b","ios":"levelo://app?vid=212f32a6-c6cc-4c06-9908-982c23f0164b"},"vehicle_type_id":"4","last_reported":1777550826,"current_range_meters":6800,"station_id":"ce4bgn92rcd13ifvqbvg","pricing_plan_id":"cebpf4jnsgd1na2vs0mg"},{"bike_id":"a9beb6f8-a711-43b9-aa01-473c443cb1b4","system_id":"levelo_inurba_marseille","lat":43.27991,"lon":5.38738,"is_reserved":false,"is_disabled":false,"rental_uris":{"android":"levelo://app?vid=a9beb6f8-a711-43b9-aa01-473c443cb1b4","ios":"levelo://app?vid=a9beb6f8-a711-43b9-aa01-473c443cb1b4"},"vehicle_type_id":"4","last_reported":1777550826,"current_range_meters":6800,"station_id":"ce4bhg12rcd13ifvqf80","pricing_plan_id":"cebpf4jnsgd1na2vs0mg"},{"bike_id":"c10e9ddb-36f4-40a9-a01e-246729b8793e","system_id":"levelo_inurba_marseille","lat":43.23383,"lon":5.41236,"is_reserved":false,"is_disabled":false,"rental_uris":{"android":"levelo://app?vid=c10e9ddb-36f4-40a9-a01e-246729b8793e","ios":"levelo://app?vid=c10e9ddb-36f4-40a9-a01e-246729b8793e"},"vehicle_type_id":"4","last_reported":1777550826,"current_range_meters":6800,"station_id":"st_d75pvndhf9lc73cqq3eg","pricing_plan_id":"cebpf4jnsgd1na2vs0mg"},{"bike_id":"827e9ab8-0a9d-4a62-b30e-9eb29e3546f6","system_id":"levelo_inurba_marseille","lat":43.27699,"lon":5.38903,"is_reserved":false,"is_disabled":false,"rental_uris":{"android":"levelo://app?vid=827e9ab8-0a9d-4a62-b30e-9eb29e3546f6","ios":"levelo://app?vid=827e9ab8-0a9d-4a62-b30e-9eb29e3546f6"},"vehicle_type_id":"4","last_reported":1777550826,"current_range_meters":6800,"station_id":"ce4bhi12rcd13ifvqfo0","pricing_plan_id":"cebpf4jnsgd1na2vs0mg"},{"bike_id":"1779c4c0-f603-47b9-af0e-89fb3b794de1","system_id":"levelo_inurba_marseille","lat":43.2318,"lon":5.39983,"is_reserved":false,"is_disabled":false,"rental_uris":{"android":"levelo://app?vid=1779c4c0-f603-47b9-af0e-89fb3b794de1","ios":"levelo://app?vid=1779c4c0-f603-47b9-af0e-89fb3b794de1"},"vehicle_type_id":"4","last_reported":1777550826,"current_range_meters":6800,"station_id":"ce4bhn12rcd13ifvqgqg","pricing_plan_id":"cebpf4jnsgd1na2vs0mg"},{"bike_id":"a1aedc96-cb1a-422f-9edd-0baad6a92cb5","system_id":"levelo_inurba_marseille","lat":43.30266,"lon":5.37691,"is_reserved":false,"is_disabled":false,"rental_uris":{"android":"levelo://app?vid=a1aedc96-cb1a-422f-9edd-0baad6a92cb5","ios":"levelo://app?vid=a1aedc96-cb1a-422f-9edd-0baad6a92cb5"},"vehicle_type_id":"4","last_reported":1777550826,"current_range_meters":6800,"station_id":"ce4bguh2rcd13ifvqcj0","pricing_plan_id":"cebpf4jnsgd1na2vs0mg"},{"bike_id":"f3820a75-d723-420a-b617-99295e9f0340","system_id":"levelo_inurba_marseille","lat":43.30147,"lon":5.37411,"is_reserved":false,"is_disabled":false,"rental_uris":{"android":"levelo://app?vid=f3820a75-d723-420a-b617-99295e9f0340","ios":"levelo://app?vid=f3820a75-d723-420a-b617-99295e9f0340"},"vehicle_type_id":"4","last_reported":1777550826,"current_range_meters":6800,"station_id":"ce4bgs92rcd13ifvqcc0","pricing_plan_id":"cebpf4jnsgd1na2vs0mg"},{"bike_id":"507dc90f-2c69-410f-9585-3f3745349889","system_id":"levelo_inurba_marseille","lat":43.32368,"lon":5.38888,"is_reserved":false,"is_disabled":false,"rental_uris":{"android":"levelo://app?vid=507dc90f-2c69-410f-9585-3f3745349889","ios":"levelo://app?vid=507dc90f-2c69-410f-9585-3f3745349889"},"vehicle_type_id":"4","last_reported":1777550826,"current_range_meters":6800,"station_id":"ce4bhqp2rcd13ifvqhog","pricing_plan_id":"cebpf4jnsgd1na2vs0mg"},{"bike_id":"d5d49a16-dadc-4706-ba86-e1d5d6020b3d","system_id":"levelo_inurba_marseille","lat":43.29041,"lon":5.39952,"is_reserved":false,"is_disabled":false,"rental_uris":{"android":"levelo://app?vid=d5d49a16-dadc-4706-ba86-e1d5d6020b3d","ios":"levelo://app?vid=d5d49a16-dadc-4706-ba86-e1d5d6020b3d"},"vehicle_type_id":"4","last_reported":1777550826,"current_range_meters":7200,"station_id":"ce4bh392rcd13ifvqdm0","pricing_plan_id":"cebpf4jnsgd1na2vs0mg"},{"bike_id":"aa1066a2-52ee-4b5e-9ea8-f5bfb38bf0a4","system_id":"levelo_inurba_marseille","lat":43.32364,"lon":5.36736,"is_reserved":false,"is_disabled":false,"rental_uris":{"android":"levelo://app?vid=aa1066a2-52ee-4b5e-9ea8-f5bfb38bf0a4","ios":"levelo://app?vid=aa1066a2-52ee-4b5e-9ea8-f5bfb38bf0a4"},"vehicle_type_id":"4","last_reported":1777550826,"current_range_meters":7200,"station_id":"ce4bhsh2rcd13ifvqi2g","pricing_plan_id":"cebpf4jnsgd1na2vs0mg"},{"bike_id":"d935139c-f8d3-4cb6-b429-6cd8398aa239","system_id":"levelo_inurba_marseille","lat":43.27376,"lon":5.36263,"is_reserved":false,"is_disabled":false,"rental_uris":{"android":"levelo://app?vid=d935139c-f8d3-4cb6-b429-6cd8398aa239","ios":"levelo://app?vid=d935139c-f8d3-4cb6-b429-6cd8398aa239"},"vehicle_type_id":"4","last_reported":1777550826,"current_range_meters":7200,"station_id":"ce4bhbh2rcd13ifvqeo0","pricing_plan_id":"cebpf4jnsgd1na2vs0mg"},{"bike_id":"9ac79960-6ea7-499d-96a2-8173e74749ce","system_id":"levelo_inurba_marseille","lat":43.32486,"lon":5.36544,"is_reserved":false,"is_disabled":false,"rental_uris":{"android":"levelo://app?vid=9ac79960-6ea7-499d-96a2-8173e74749ce","ios":"levelo://app?vid=9ac79960-6ea7-499d-96a2-8173e74749ce"},"vehicle_type_id":"4","last_reported":1777550826,"current_range_meters":7200,"station_id":"ce4bhs12rcd13ifvqhvg","pricing_plan_id":"cebpf4jnsgd1na2vs0mg"},{"bike_id":"b99d6fe4-b8e7-4ae2-a227-dc144b9f45f9","system_id":"levelo_inurba_marseille","lat":43.29179,"lon":5.38607,"is_reserved":false,"is_disabled":false,"rental_uris":{"android":"levelo://app?vid=b99d6fe4-b8e7-4ae2-a227-dc144b9f45f9","ios":"levelo://app?vid=b99d6fe4-b8e7-4ae2-a227-dc144b9f45f9"},"vehicle_type_id":"4","last_reported":1777550826,"current_range_meters":7200,"station_id":"","pricing_plan_id":"cebpf4jnsgd1na2vs0mg"},{"bike_id":"3995b84f-572e-40b4-bef0-aa0d3ccae836","system_id":"levelo_inurba_marseille","lat":43.29604,"lon":5.36735,"is_reserved":false,"is_disabled":true,"rental_uris":{"android":"levelo://app?vid=3995b84f-572e-40b4-bef0-aa0d3ccae836","ios":"levelo://app?vid=3995b84f-572e-40b4-bef0-aa0d3ccae836"},"vehicle_type_id":"4","last_reported":1777550826,"current_range_meters":7200,"station_id":"ce4bgph2rcd13ifvqc2g","pricing_plan_id":"cebpf4jnsgd1na2vs0mg"},{"bike_id":"73ddb866-5c7b-49bc-a174-3923f7263bab","system_id":"levelo_inurba_marseille","lat":43.29643,"lon":5.36002,"is_reserved":false,"is_disabled":false,"rental_uris":{"android":"levelo://app?vid=73ddb866-5c7b-49bc-a174-3923f7263bab","ios":"levelo://app?vid=73ddb866-5c7b-49bc-a174-3923f7263bab"},"vehicle_type_id":"4","last_reported":1777550826,"current_range_meters":7200,"station_id":"","pricing_plan_id":"cebpf4jnsgd1na2vs0mg"},{"bike_id":"c2d3c152-eef5-44bd-9f72-ff670f052999","system_id":"levelo_inurba_marseille","lat":43.25583,"lon":5.38231,"is_reserved":false,"is_disabled":false,"rental_uris":{"android":"levelo://app?vid=c2d3c152-eef5-44bd-9f72-ff670f052999","ios":"levelo://app?vid=c2d3c152-eef5-44bd-9f72-ff670f052999"},"vehicle_type_id":"4","last_reported":1777550826,"current_range_meters":7200,"station_id":"ce4bhih2rcd13ifvqfs0","pricing_plan_id":"cebpf4jnsgd1na2vs0mg"},{"bike_id":"5cc847c3-c7ab-4803-a64a-cfb2e18548c3","system_id":"levelo_inurba_marseille","lat":43.29627,"lon":5.37011,"is_reserved":false,"is_disabled":false,"rental_uris":{"android":"levelo://app?vid=5cc847c3-c7ab-4803-a64a-cfb2e18548c3","ios":"levelo://app?vid=5cc847c3-c7ab-4803-a64a-cfb2e18548c3"},"vehicle_type_id":"4","last_reported":1777550826,"current_range_meters":7200,"station_id":"","pricing_plan_id":"cebpf4jnsgd1na2vs0mg"},{"bike_id":"21d1f734-a18c-4f60-9e31-937253d0af36","system_id":"levelo_inurba_marseille","lat":43.26556,"lon":5.37249,"is_reserved":false,"is_disabled":false,"rental_uris":{"android":"levelo://app?vid=21d1f734-a18c-4f60-9e31-937253d0af36","ios":"levelo://app?vid=21d1f734-a18c-4f60-9e31-937253d0af36"},"vehicle_type_id":"4","last_reported":1777550826,"current_range_meters":7200,"station_id":"ce4bhg12rcd13ifvqf70","pricing_plan_id":"cebpf4jnsgd1na2vs0mg"},{"bike_id":"269cea25-ab71-4d93-af9d-dcdc0fd5e0a5","system_id":"levelo_inurba_marseille","lat":43.31333,"lon":5.39688,"is_reserved":false,"is_disabled":false,"rental_uris":{"android":"levelo://app?vid=269cea25-ab71-4d93-af9d-dcdc0fd5e0a5","ios":"levelo://app?vid=269cea25-ab71-4d93-af9d-dcdc0fd5e0a5"},"vehicle_type_id":"4","last_reported":1777550826,"current_range_meters":7200,"station_id":"ce4bgvp2rcd13ifvqcu0","pricing_plan_id":"cebpf4jnsgd1na2vs0mg"},{"bike_id":"8dd331a7-fb5f-49f0-98bd-5e07152fbb85","system_id":"levelo_inurba_marseille","lat":43.25946,"lon":5.40912,"is_reserved":false,"is_disabled":false,"rental_uris":{"android":"levelo://app?vid=8dd331a7-fb5f-49f0-98bd-5e07152fbb85","ios":"levelo://app?vid=8dd331a7-fb5f-49f0-98bd-5e07152fbb85"},"vehicle_type_id":"4","last_reported":1777550826,"current_range_meters":7200,"station_id":"ce4bhm92rcd13ifvqglg","pricing_plan_id":"cebpf4jnsgd1na2vs0mg"},{"bike_id":"8ea852f6-7928-47da-af07-40bb0e92965d","system_id":"levelo_inurba_marseille","lat":43.29586,"lon":5.38247,"is_reserved":false,"is_disabled":false,"rental_uris":{"android":"levelo://app?vid=8ea852f6-7928-47da-af07-40bb0e92965d","ios":"levelo://app?vid=8ea852f6-7928-47da-af07-40bb0e92965d"},"vehicle_type_id":"4","last_reported":1777550826,"current_range_meters":7200,"station_id":"","pricing_plan_id":"cebpf4jnsgd1na2vs0mg"},{"bike_id":"91678251-0dc2-4a32-950d-1cd81af8140a","system_id":"levelo_inurba_marseille","lat":43.30202,"lon":5.366,"is_reserved":false,"is_disabled":false,"rental_uris":{"android":"levelo://app?vid=91678251-0dc2-4a32-950d-1cd81af8140a","ios":"levelo://app?vid=91678251-0dc2-4a32-950d-1cd81af8140a"},"vehicle_type_id":"4","last_reported":1777550826,"current_range_meters":7200,"station_id":"ce4bgrh2rcd13ifvqc8g","pricing_plan_id":"cebpf4jnsgd1na2vs0mg"},{"bike_id":"970e3ce7-6c16-42b9-808a-b6e6166dc42e","system_id":"levelo_inurba_marseille","lat":43.2901,"lon":5.35623,"is_reserved":false,"is_disabled":false,"rental_uris":{"android":"levelo://app?vid=970e3ce7-6c16-42b9-808a-b6e6166dc42e","ios":"levelo://app?vid=970e3ce7-6c16-42b9-808a-b6e6166dc42e"},"vehicle_type_id":"4","last_reported":1777550826,"current_range_meters":7200,"station_id":"ce4bhb92rcd13ifvqen0","pricing_plan_id":"cebpf4jnsgd1na2vs0mg"},{"bike_id":"a2a694ab-bd57-45a8-a651-048e4cefae01","system_id":"levelo_inurba_marseille","lat":43.28685,"lon":5.46684,"is_reserved":false,"is_disabled":false,"rental_uris":{"android":"levelo://app?vid=a2a694ab-bd57-45a8-a651-048e4cefae01","ios":"levelo://app?vid=a2a694ab-bd57-45a8-a651-048e4cefae01"},"vehicle_type_id":"4","last_reported":1777550826,"current_range_meters":7200,"station_id":"st_d6tc3vkotcvc738tfjhg","pricing_plan_id":"cebpf4jnsgd1na2vs0mg"},{"bike_id":"56064952-b891-447c-8a25-e35323d35a50","system_id":"levelo_inurba_marseille","lat":43.28022,"lon":5.36943,"is_reserved":false,"is_disabled":false,"rental_uris":{"android":"levelo://app?vid=56064952-b891-447c-8a25-e35323d35a50","ios":"levelo://app?vid=56064952-b891-447c-8a25-e35323d35a50"},"vehicle_type_id":"4","last_reported":1777550826,"current_range_meters":7200,"station_id":"ce4bha12rcd13ifvqef0","pricing_plan_id":"cebpf4jnsgd1na2vs0mg"},{"bike_id":"bddb161f-9add-49cc-bb4e-e6ec8eef01b7","system_id":"levelo_inurba_marseille","lat":43.29004,"lon":5.35612,"is_reserved":false,"is_disabled":false,"rental_uris":{"android":"levelo://app?vid=bddb161f-9add-49cc-bb4e-e6ec8eef01b7","ios":"levelo://app?vid=bddb161f-9add-49cc-bb4e-e6ec8eef01b7"},"vehicle_type_id":"4","last_reported":1777550826,"current_range_meters":7200,"station_id":"ce4bhb92rcd13ifvqen0","pricing_plan_id":"cebpf4jnsgd1na2vs0mg"},{"bike_id":"786a468e-df89-4701-b233-98e82dabab4a","system_id":"levelo_inurba_marseille","lat":43.23145,"lon":5.4371,"is_reserved":false,"is_disabled":false,"rental_uris":{"android":"levelo://app?vid=786a468e-df89-4701-b233-98e82dabab4a","ios":"levelo://app?vid=786a468e-df89-4701-b233-98e82dabab4a"},"vehicle_type_id":"4","last_reported":1777550826,"current_range_meters":7200,"station_id":"ce4bhmp2rcd13ifvqgog","pricing_plan_id":"cebpf4jnsgd1na2vs0mg"},{"bike_id":"efd3da0c-0627-40f5-bef1-2e073b2677bb","system_id":"levelo_inurba_marseille","lat":43.26683,"lon":5.38267,"is_reserved":false,"is_disabled":false,"rental_uris":{"android":"levelo://app?vid=efd3da0c-0627-40f5-bef1-2e073b2677bb","ios":"levelo://app?vid=efd3da0c-0627-40f5-bef1-2e073b2677bb"},"vehicle_type_id":"4","last_reported":1777550826,"current_range_meters":7200,"station_id":"ce4bhg92rcd13ifvqf90","pricing_plan_id":"cebpf4jnsgd1na2vs0mg"},{"bike_id":"f55c05d2-25a9-449d-9ca4-3b92ad23055f","system_id":"levelo_inurba_marseille","lat":43.23157,"lon":5.43702,"is_reserved":false,"is_disabled":false,"rental_uris":{"android":"levelo://app?vid=f55c05d2-25a9-449d-9ca4-3b92ad23055f","ios":"levelo://app?vid=f55c05d2-25a9-449d-9ca4-3b92ad23055f"},"vehicle_type_id":"4","last_reported":1777550826,"current_range_meters":7200,"station_id":"ce4bhmp2rcd13ifvqgog","pricing_plan_id":"cebpf4jnsgd1na2vs0mg"},{"bike_id":"f22882dc-02f0-439d-bcd7-d3fa9cf662ce","system_id":"levelo_inurba_marseille","lat":43.30281,"lon":5.37687,"is_reserved":false,"is_disabled":false,"rental_uris":{"android":"levelo://app?vid=f22882dc-02f0-439d-bcd7-d3fa9cf662ce","ios":"levelo://app?vid=f22882dc-02f0-439d-bcd7-d3fa9cf662ce"},"vehicle_type_id":"4","last_reported":1777550826,"current_range_meters":7200,"station_id":"ce4bguh2rcd13ifvqcj0","pricing_plan_id":"cebpf4jnsgd1na2vs0mg"},{"bike_id":"76b76a5a-e9c0-44f3-94af-8de1a567c89d","system_id":"levelo_inurba_marseille","lat":43.22535,"lon":5.34839,"is_reserved":false,"is_disabled":false,"rental_uris":{"android":"levelo://app?vid=76b76a5a-e9c0-44f3-94af-8de1a567c89d","ios":"levelo://app?vid=76b76a5a-e9c0-44f3-94af-8de1a567c89d"},"vehicle_type_id":"4","last_reported":1777550826,"current_range_meters":7200,"station_id":"st_cvj5dfep6f1abm77gieg","pricing_plan_id":"cebpf4jnsgd1na2vs0mg"},{"bike_id":"8cd25a6f-db58-4801-9539-91796b1d00af","system_id":"levelo_inurba_marseille","lat":43.2938,"lon":5.37838,"is_reserved":false,"is_disabled":false,"rental_uris":{"android":"levelo://app?vid=8cd25a6f-db58-4801-9539-91796b1d00af","ios":"levelo://app?vid=8cd25a6f-db58-4801-9539-91796b1d00af"},"vehicle_type_id":"4","last_reported":1777550826,"current_range_meters":8000,"station_id":"ce4bgjh2rcd13ifvqbf0","pricing_plan_id":"cebpf4jnsgd1na2vs0mg"},{"bike_id":"9c85ea94-e0db-4d3e-baca-fa152ee440d3","system_id":"levelo_inurba_marseille","lat":43.25594,"lon":5.38222,"is_reserved":false,"is_disabled":false,"rental_uris":{"android":"levelo://app?vid=9c85ea94-e0db-4d3e-baca-fa152ee440d3","ios":"levelo://app?vid=9c85ea94-e0db-4d3e-baca-fa152ee440d3"},"vehicle_type_id":"4","last_reported":1777550826,"current_range_meters":8000,"station_id":"ce4bhih2rcd13ifvqfs0","pricing_plan_id":"cebpf4jnsgd1na2vs0mg"},{"bike_id":"95f47514-1d7f-4013-95fe-a0916f7cc45a","system_id":"levelo_inurba_marseille","lat":43.33553,"lon":5.37467,"is_reserved":false,"is_disabled":false,"rental_uris":{"android":"levelo://app?vid=95f47514-1d7f-4013-95fe-a0916f7cc45a","ios":"levelo://app?vid=95f47514-1d7f-4013-95fe-a0916f7cc45a"},"vehicle_type_id":"4","last_reported":1777550826,"current_range_meters":8000,"station_id":"st_d46tts09ee8s73dlu43g","pricing_plan_id":"cebpf4jnsgd1na2vs0mg"},{"bike_id":"c76a4b5d-7caf-4e63-804a-3df554f9e335","system_id":"levelo_inurba_marseille","lat":43.30108,"lon":5.39918,"is_reserved":false,"is_disabled":true,"rental_uris":{"android":"levelo://app?vid=c76a4b5d-7caf-4e63-804a-3df554f9e335","ios":"levelo://app?vid=c76a4b5d-7caf-4e63-804a-3df554f9e335"},"vehicle_type_id":"4","last_reported":1777550826,"current_range_meters":8000,"station_id":"ce4bh0h2rcd13ifvqd40","pricing_plan_id":"cebpf4jnsgd1na2vs0mg"},{"bike_id":"cadcdc4c-2148-4dec-a8c2-bb77e59fbd52","system_id":"levelo_inurba_marseille","lat":43.28104,"lon":5.37841,"is_reserved":false,"is_disabled":false,"rental_uris":{"android":"levelo://app?vid=cadcdc4c-2148-4dec-a8c2-bb77e59fbd52","ios":"levelo://app?vid=cadcdc4c-2148-4dec-a8c2-bb77e59fbd52"},"vehicle_type_id":"4","last_reported":1777550826,"current_range_meters":8000,"station_id":"ce4bha12rcd13ifvqee0","pricing_plan_id":"cebpf4jnsgd1na2vs0mg"},{"bike_id":"b04a4ab1-ad02-4ba9-8c98-bd93ea2b5a7b","system_id":"levelo_inurba_marseille","lat":43.32092,"lon":5.43362,"is_reserved":false,"is_disabled":false,"rental_uris":{"android":"levelo://app?vid=b04a4ab1-ad02-4ba9-8c98-bd93ea2b5a7b","ios":"levelo://app?vid=b04a4ab1-ad02-4ba9-8c98-bd93ea2b5a7b"},"vehicle_type_id":"4","last_reported":1777550826,"current_range_meters":8000,"station_id":"","pricing_plan_id":"cebpf4jnsgd1na2vs0mg"},{"bike_id":"a9b3f069-d6cd-4f19-8d77-faf11ab1a5e1","system_id":"levelo_inurba_marseille","lat":43.30927,"lon":5.40145,"is_reserved":false,"is_disabled":false,"rental_uris":{"android":"levelo://app?vid=a9b3f069-d6cd-4f19-8d77-faf11ab1a5e1","ios":"levelo://app?vid=a9b3f069-d6cd-4f19-8d77-faf11ab1a5e1"},"vehicle_type_id":"4","last_reported":1777550826,"current_range_meters":8000,"station_id":"ce4bgvp2rcd13ifvqct0","pricing_plan_id":"cebpf4jnsgd1na2vs0mg"},{"bike_id":"5ff83e24-614c-4682-b768-9f3bd4a17095","system_id":"levelo_inurba_marseille","lat":43.26226,"lon":5.38763,"is_reserved":false,"is_disabled":false,"rental_uris":{"android":"levelo://app?vid=5ff83e24-614c-4682-b768-9f3bd4a17095","ios":"levelo://app?vid=5ff83e24-614c-4682-b768-9f3bd4a17095"},"vehicle_type_id":"4","last_reported":1777550826,"current_range_meters":8000,"station_id":"","pricing_plan_id":"cebpf4jnsgd1na2vs0mg"},{"bike_id":"b95935e1-f9eb-43c7-ad9c-aa899fe013d4","system_id":"levelo_inurba_marseille","lat":43.25002,"lon":5.38935,"is_reserved":false,"is_disabled":false,"rental_uris":{"android":"levelo://app?vid=b95935e1-f9eb-43c7-ad9c-aa899fe013d4","ios":"levelo://app?vid=b95935e1-f9eb-43c7-ad9c-aa899fe013d4"},"vehicle_type_id":"4","last_reported":1777550826,"current_range_meters":8000,"station_id":"ce4bhgp2rcd13ifvqfd0","pricing_plan_id":"cebpf4jnsgd1na2vs0mg"},{"bike_id":"1dcf7c16-8d26-4f8f-9d20-fea5dc57d8ec","system_id":"levelo_inurba_marseille","lat":43.25936,"lon":5.40905,"is_reserved":false,"is_disabled":false,"rental_uris":{"android":"levelo://app?vid=1dcf7c16-8d26-4f8f-9d20-fea5dc57d8ec","ios":"levelo://app?vid=1dcf7c16-8d26-4f8f-9d20-fea5dc57d8ec"},"vehicle_type_id":"4","last_reported":1777550826,"current_range_meters":8000,"station_id":"ce4bhm92rcd13ifvqglg","pricing_plan_id":"cebpf4jnsgd1na2vs0mg"},{"bike_id":"d580219f-6289-459e-b6c8-186e2ecce599","system_id":"levelo_inurba_marseille","lat":43.23153,"lon":5.43701,"is_reserved":false,"is_disabled":false,"rental_uris":{"android":"levelo://app?vid=d580219f-6289-459e-b6c8-186e2ecce599","ios":"levelo://app?vid=d580219f-6289-459e-b6c8-186e2ecce599"},"vehicle_type_id":"4","last_reported":1777550826,"current_range_meters":8000,"station_id":"ce4bhmp2rcd13ifvqgog","pricing_plan_id":"cebpf4jnsgd1na2vs0mg"},{"bike_id":"026cc723-ea69-4d1b-a039-2f86fa335617","system_id":"levelo_inurba_marseille","lat":43.28866,"lon":5.35867,"is_reserved":false,"is_disabled":false,"rental_uris":{"android":"levelo://app?vid=026cc723-ea69-4d1b-a039-2f86fa335617","ios":"levelo://app?vid=026cc723-ea69-4d1b-a039-2f86fa335617"},"vehicle_type_id":"4","last_reported":1777550826,"current_range_meters":8000,"station_id":"ce4bhb12rcd13ifvqem0","pricing_plan_id":"cebpf4jnsgd1na2vs0mg"},{"bike_id":"96c1677c-ba34-44c4-b8f0-676f4f85c27f","system_id":"levelo_inurba_marseille","lat":43.29478,"lon":5.38809,"is_reserved":false,"is_disabled":false,"rental_uris":{"android":"levelo://app?vid=96c1677c-ba34-44c4-b8f0-676f4f85c27f","ios":"levelo://app?vid=96c1677c-ba34-44c4-b8f0-676f4f85c27f"},"vehicle_type_id":"4","last_reported":1777550826,"current_range_meters":8000,"station_id":"","pricing_plan_id":"cebpf4jnsgd1na2vs0mg"},{"bike_id":"021651d2-4c60-4088-a359-b9197bac101e","system_id":"levelo_inurba_marseille","lat":43.29755,"lon":5.37941,"is_reserved":false,"is_disabled":false,"rental_uris":{"android":"levelo://app?vid=021651d2-4c60-4088-a359-b9197bac101e","ios":"levelo://app?vid=021651d2-4c60-4088-a359-b9197bac101e"},"vehicle_type_id":"4","last_reported":1777550826,"current_range_meters":8000,"station_id":"","pricing_plan_id":"cebpf4jnsgd1na2vs0mg"},{"bike_id":"865ec143-3a56-4bac-a3ed-0629f448d74b","system_id":"levelo_inurba_marseille","lat":43.29273,"lon":5.36838,"is_reserved":false,"is_disabled":false,"rental_uris":{"android":"levelo://app?vid=865ec143-3a56-4bac-a3ed-0629f448d74b","ios":"levelo://app?vid=865ec143-3a56-4bac-a3ed-0629f448d74b"},"vehicle_type_id":"4","last_reported":1777550826,"current_range_meters":8000,"station_id":"ce4bhbp2rcd13ifvqesg","pricing_plan_id":"cebpf4jnsgd1na2vs0mg"},{"bike_id":"e16f694d-f9d1-4b0e-9707-2beb3f4a4509","system_id":"levelo_inurba_marseille","lat":43.29017,"lon":5.35613,"is_reserved":false,"is_disabled":false,"rental_uris":{"android":"levelo://app?vid=e16f694d-f9d1-4b0e-9707-2beb3f4a4509","ios":"levelo://app?vid=e16f694d-f9d1-4b0e-9707-2beb3f4a4509"},"vehicle_type_id":"4","last_reported":1777550826,"current_range_meters":8000,"station_id":"ce4bhb92rcd13ifvqen0","pricing_plan_id":"cebpf4jnsgd1na2vs0mg"},{"bike_id":"d5cda9f5-de5e-48fd-b8fa-56c4fdce3a61","system_id":"levelo_inurba_marseille","lat":43.30462,"lon":5.36511,"is_reserved":false,"is_disabled":false,"rental_uris":{"android":"levelo://app?vid=d5cda9f5-de5e-48fd-b8fa-56c4fdce3a61","ios":"levelo://app?vid=d5cda9f5-de5e-48fd-b8fa-56c4fdce3a61"},"vehicle_type_id":"4","last_reported":1777550826,"current_range_meters":8000,"station_id":"","pricing_plan_id":"cebpf4jnsgd1na2vs0mg"},{"bike_id":"b6ea38d3-0fa8-4e6c-ac8b-f259bd7027f0","system_id":"levelo_inurba_marseille","lat":43.3135,"lon":5.36699,"is_reserved":false,"is_disabled":false,"rental_uris":{"android":"levelo://app?vid=b6ea38d3-0fa8-4e6c-ac8b-f259bd7027f0","ios":"levelo://app?vid=b6ea38d3-0fa8-4e6c-ac8b-f259bd7027f0"},"vehicle_type_id":"4","last_reported":1777550826,"current_range_meters":8400,"station_id":"ce4bgr92rcd13ifvqc6g","pricing_plan_id":"cebpf4jnsgd1na2vs0mg"},{"bike_id":"7d58de23-44be-4dd4-a60b-ef501bc2cc74","system_id":"levelo_inurba_marseille","lat":43.29618,"lon":5.37072,"is_reserved":false,"is_disabled":false,"rental_uris":{"android":"levelo://app?vid=7d58de23-44be-4dd4-a60b-ef501bc2cc74","ios":"levelo://app?vid=7d58de23-44be-4dd4-a60b-ef501bc2cc74"},"vehicle_type_id":"4","last_reported":1777550826,"current_range_meters":8400,"station_id":"","pricing_plan_id":"cebpf4jnsgd1na2vs0mg"},{"bike_id":"2db651d7-7b81-464a-bb48-581bf1e0c30d","system_id":"levelo_inurba_marseille","lat":43.24059,"lon":5.37791,"is_reserved":false,"is_disabled":false,"rental_uris":{"android":"levelo://app?vid=2db651d7-7b81-464a-bb48-581bf1e0c30d","ios":"levelo://app?vid=2db651d7-7b81-464a-bb48-581bf1e0c30d"},"vehicle_type_id":"4","last_reported":1777550826,"current_range_meters":8400,"station_id":"ce4bhnp2rcd13ifvqgvg","pricing_plan_id":"cebpf4jnsgd1na2vs0mg"},{"bike_id":"56d44c12-32cf-4cee-9a69-9039039b3a03","system_id":"levelo_inurba_marseille","lat":43.28161,"lon":5.42642,"is_reserved":false,"is_disabled":false,"rental_uris":{"android":"levelo://app?vid=56d44c12-32cf-4cee-9a69-9039039b3a03","ios":"levelo://app?vid=56d44c12-32cf-4cee-9a69-9039039b3a03"},"vehicle_type_id":"4","last_reported":1777550826,"current_range_meters":8400,"station_id":"ce4bhnh2rcd13ifvqgug","pricing_plan_id":"cebpf4jnsgd1na2vs0mg"},{"bike_id":"21528401-9eb2-45f2-876b-7cc1262785a9","system_id":"levelo_inurba_marseille","lat":43.29238,"lon":5.37598,"is_reserved":false,"is_disabled":false,"rental_uris":{"android":"levelo://app?vid=21528401-9eb2-45f2-876b-7cc1262785a9","ios":"levelo://app?vid=21528401-9eb2-45f2-876b-7cc1262785a9"},"vehicle_type_id":"4","last_reported":1777550826,"current_range_meters":8400,"station_id":"ce4bgi12rcd13ifvqb80","pricing_plan_id":"cebpf4jnsgd1na2vs0mg"},{"bike_id":"a5169939-c7ae-4b36-a3b7-8f3251554934","system_id":"levelo_inurba_marseille","lat":43.308245,"lon":5.394667,"is_reserved":false,"is_disabled":false,"rental_uris":{"android":"levelo://app?vid=a5169939-c7ae-4b36-a3b7-8f3251554934","ios":"levelo://app?vid=a5169939-c7ae-4b36-a3b7-8f3251554934"},"vehicle_type_id":"4","last_reported":1777550826,"current_range_meters":8400,"station_id":"ce4bgt12rcd13ifvqce0","pricing_plan_id":"cebpf4jnsgd1na2vs0mg"},{"bike_id":"0195b3a7-f19f-4649-864a-4c54bdc7ef80","system_id":"levelo_inurba_marseille","lat":43.337444,"lon":5.374475,"is_reserved":false,"is_disabled":false,"rental_uris":{"android":"levelo://app?vid=0195b3a7-f19f-4649-864a-4c54bdc7ef80","ios":"levelo://app?vid=0195b3a7-f19f-4649-864a-4c54bdc7ef80"},"vehicle_type_id":"4","last_reported":1777550826,"current_range_meters":8400,"station_id":"","pricing_plan_id":"cebpf4jnsgd1na2vs0mg"},{"bike_id":"3a4ab97e-f59c-440e-a1c5-fc235ca93bc2","system_id":"levelo_inurba_marseille","lat":43.24657,"lon":5.38149,"is_reserved":false,"is_disabled":false,"rental_uris":{"android":"levelo://app?vid=3a4ab97e-f59c-440e-a1c5-fc235ca93bc2","ios":"levelo://app?vid=3a4ab97e-f59c-440e-a1c5-fc235ca93bc2"},"vehicle_type_id":"4","last_reported":1777550826,"current_range_meters":8400,"station_id":"ce4bhih2rcd13ifvqfr0","pricing_plan_id":"cebpf4jnsgd1na2vs0mg"},{"bike_id":"f11c8d19-2403-4fbd-839b-d39635e384f6","system_id":"levelo_inurba_marseille","lat":43.27975,"lon":5.38737,"is_reserved":false,"is_disabled":false,"rental_uris":{"android":"levelo://app?vid=f11c8d19-2403-4fbd-839b-d39635e384f6","ios":"levelo://app?vid=f11c8d19-2403-4fbd-839b-d39635e384f6"},"vehicle_type_id":"4","last_reported":1777550826,"current_range_meters":8400,"station_id":"ce4bhg12rcd13ifvqf80","pricing_plan_id":"cebpf4jnsgd1na2vs0mg"},{"bike_id":"2e1835a0-48a3-4518-98fb-02c5a57dc625","system_id":"levelo_inurba_marseille","lat":43.29734,"lon":5.37685,"is_reserved":false,"is_disabled":false,"rental_uris":{"android":"levelo://app?vid=2e1835a0-48a3-4518-98fb-02c5a57dc625","ios":"levelo://app?vid=2e1835a0-48a3-4518-98fb-02c5a57dc625"},"vehicle_type_id":"4","last_reported":1777550826,"current_range_meters":8400,"station_id":"ce4bgkh2rcd13ifvqbl0","pricing_plan_id":"cebpf4jnsgd1na2vs0mg"},{"bike_id":"15ccd033-9a9c-47d6-a972-ff6689c29eee","system_id":"levelo_inurba_marseille","lat":43.32354,"lon":5.36713,"is_reserved":false,"is_disabled":false,"rental_uris":{"android":"levelo://app?vid=15ccd033-9a9c-47d6-a972-ff6689c29eee","ios":"levelo://app?vid=15ccd033-9a9c-47d6-a972-ff6689c29eee"},"vehicle_type_id":"4","last_reported":1777550826,"current_range_meters":8400,"station_id":"ce4bhsh2rcd13ifvqi2g","pricing_plan_id":"cebpf4jnsgd1na2vs0mg"},{"bike_id":"32f5efa9-6b69-462e-bf13-9c07acf0e806","system_id":"levelo_inurba_marseille","lat":43.262181,"lon":5.387635,"is_reserved":false,"is_disabled":false,"rental_uris":{"android":"levelo://app?vid=32f5efa9-6b69-462e-bf13-9c07acf0e806","ios":"levelo://app?vid=32f5efa9-6b69-462e-bf13-9c07acf0e806"},"vehicle_type_id":"4","last_reported":1777550826,"current_range_meters":8400,"station_id":"","pricing_plan_id":"cebpf4jnsgd1na2vs0mg"},{"bike_id":"bd381285-9688-4b86-bb58-500e4f0f2544","system_id":"levelo_inurba_marseille","lat":43.23315,"lon":5.39987,"is_reserved":false,"is_disabled":false,"rental_uris":{"android":"levelo://app?vid=bd381285-9688-4b86-bb58-500e4f0f2544","ios":"levelo://app?vid=bd381285-9688-4b86-bb58-500e4f0f2544"},"vehicle_type_id":"4","last_reported":1777550826,"current_range_meters":8400,"station_id":"","pricing_plan_id":"cebpf4jnsgd1na2vs0mg"},{"bike_id":"d2d2e7f5-75cd-42b3-8b6f-6203421c9e06","system_id":"levelo_inurba_marseille","lat":43.29212,"lon":5.36033,"is_reserved":false,"is_disabled":true,"rental_uris":{"android":"levelo://app?vid=d2d2e7f5-75cd-42b3-8b6f-6203421c9e06","ios":"levelo://app?vid=d2d2e7f5-75cd-42b3-8b6f-6203421c9e06"},"vehicle_type_id":"4","last_reported":1777550826,"current_range_meters":8400,"station_id":"ce4bhbh2rcd13ifvqeqg","pricing_plan_id":"cebpf4jnsgd1na2vs0mg"},{"bike_id":"aed45cbd-f604-4f44-8050-4f381106a767","system_id":"levelo_inurba_marseille","lat":43.27998,"lon":5.40009,"is_reserved":false,"is_disabled":false,"rental_uris":{"android":"levelo://app?vid=aed45cbd-f604-4f44-8050-4f381106a767","ios":"levelo://app?vid=aed45cbd-f604-4f44-8050-4f381106a767"},"vehicle_type_id":"4","last_reported":1777550826,"current_range_meters":8400,"station_id":"ce4bho92rcd13ifvqh4g","pricing_plan_id":"cebpf4jnsgd1na2vs0mg"},{"bike_id":"36cd46da-da24-47b3-83c3-7c306213cceb","system_id":"levelo_inurba_marseille","lat":43.29865,"lon":5.36235,"is_reserved":false,"is_disabled":false,"rental_uris":{"android":"levelo://app?vid=36cd46da-da24-47b3-83c3-7c306213cceb","ios":"levelo://app?vid=36cd46da-da24-47b3-83c3-7c306213cceb"},"vehicle_type_id":"4","last_reported":1777550826,"current_range_meters":8400,"station_id":"ce4bgpp2rcd13ifvqc3g","pricing_plan_id":"cebpf4jnsgd1na2vs0mg"},{"bike_id":"290b5a2b-62c9-4a20-957f-8f1c3289cd94","system_id":"levelo_inurba_marseille","lat":43.30135,"lon":5.37425,"is_reserved":false,"is_disabled":false,"rental_uris":{"android":"levelo://app?vid=290b5a2b-62c9-4a20-957f-8f1c3289cd94","ios":"levelo://app?vid=290b5a2b-62c9-4a20-957f-8f1c3289cd94"},"vehicle_type_id":"4","last_reported":1777550826,"current_range_meters":8400,"station_id":"ce4bgs92rcd13ifvqcc0","pricing_plan_id":"cebpf4jnsgd1na2vs0mg"},{"bike_id":"50cc6683-a4a6-490d-87fd-8c2be5eaa529","system_id":"levelo_inurba_marseille","lat":43.26872,"lon":5.41982,"is_reserved":false,"is_disabled":false,"rental_uris":{"android":"levelo://app?vid=50cc6683-a4a6-490d-87fd-8c2be5eaa529","ios":"levelo://app?vid=50cc6683-a4a6-490d-87fd-8c2be5eaa529"},"vehicle_type_id":"4","last_reported":1777550826,"current_range_meters":8400,"station_id":"","pricing_plan_id":"cebpf4jnsgd1na2vs0mg"},{"bike_id":"8b882137-8acc-4dd9-a6ae-ba2410fb2dd7","system_id":"levelo_inurba_marseille","lat":43.2781,"lon":5.40719,"is_reserved":false,"is_disabled":false,"rental_uris":{"android":"levelo://app?vid=8b882137-8acc-4dd9-a6ae-ba2410fb2dd7","ios":"levelo://app?vid=8b882137-8acc-4dd9-a6ae-ba2410fb2dd7"},"vehicle_type_id":"4","last_reported":1777550826,"current_range_meters":8400,"station_id":"ce4bhnh2rcd13ifvqgtg","pricing_plan_id":"cebpf4jnsgd1na2vs0mg"},{"bike_id":"370c4dae-afb2-4580-9737-dd746a1c6bce","system_id":"levelo_inurba_marseille","lat":43.27697,"lon":5.38886,"is_reserved":false,"is_disabled":false,"rental_uris":{"android":"levelo://app?vid=370c4dae-afb2-4580-9737-dd746a1c6bce","ios":"levelo://app?vid=370c4dae-afb2-4580-9737-dd746a1c6bce"},"vehicle_type_id":"4","last_reported":1777550826,"current_range_meters":8400,"station_id":"ce4bhi12rcd13ifvqfo0","pricing_plan_id":"cebpf4jnsgd1na2vs0mg"},{"bike_id":"cec643e2-fa5c-4f01-ae96-9447338fa641","system_id":"levelo_inurba_marseille","lat":43.30811,"lon":5.38156,"is_reserved":false,"is_disabled":false,"rental_uris":{"android":"levelo://app?vid=cec643e2-fa5c-4f01-ae96-9447338fa641","ios":"levelo://app?vid=cec643e2-fa5c-4f01-ae96-9447338fa641"},"vehicle_type_id":"4","last_reported":1777550826,"current_range_meters":8400,"station_id":"ce4bgt12rcd13ifvqce0","pricing_plan_id":"cebpf4jnsgd1na2vs0mg"},{"bike_id":"191b2ee6-2f04-4c42-a842-c0fdbb785553","system_id":"levelo_inurba_marseille","lat":43.28421,"lon":5.3498,"is_reserved":false,"is_disabled":false,"rental_uris":{"android":"levelo://app?vid=191b2ee6-2f04-4c42-a842-c0fdbb785553","ios":"levelo://app?vid=191b2ee6-2f04-4c42-a842-c0fdbb785553"},"vehicle_type_id":"4","last_reported":1777550826,"current_range_meters":8400,"station_id":"ce4bhbh2rcd13ifvqepg","pricing_plan_id":"cebpf4jnsgd1na2vs0mg"},{"bike_id":"b3a0c7ef-eaef-4e8c-be67-257dd8855170","system_id":"levelo_inurba_marseille","lat":43.2951,"lon":5.37501,"is_reserved":false,"is_disabled":false,"rental_uris":{"android":"levelo://app?vid=b3a0c7ef-eaef-4e8c-be67-257dd8855170","ios":"levelo://app?vid=b3a0c7ef-eaef-4e8c-be67-257dd8855170"},"vehicle_type_id":"4","last_reported":1777550826,"current_range_meters":8400,"station_id":"ce4bgkp2rcd13ifvqbmg","pricing_plan_id":"cebpf4jnsgd1na2vs0mg"},{"bike_id":"6d232a0e-f116-4caa-b7d8-4f9d4fab4a0b","system_id":"levelo_inurba_marseille","lat":43.30544,"lon":5.36514,"is_reserved":false,"is_disabled":true,"rental_uris":{"android":"levelo://app?vid=6d232a0e-f116-4caa-b7d8-4f9d4fab4a0b","ios":"levelo://app?vid=6d232a0e-f116-4caa-b7d8-4f9d4fab4a0b"},"vehicle_type_id":"4","last_reported":1777550826,"current_range_meters":8800,"station_id":"ce4bgs12rcd13ifvqcag","pricing_plan_id":"cebpf4jnsgd1na2vs0mg"},{"bike_id":"45af47f6-e069-4cb4-81e9-622e1316b31e","system_id":"levelo_inurba_marseille","lat":43.29844,"lon":5.36315,"is_reserved":false,"is_disabled":false,"rental_uris":{"android":"levelo://app?vid=45af47f6-e069-4cb4-81e9-622e1316b31e","ios":"levelo://app?vid=45af47f6-e069-4cb4-81e9-622e1316b31e"},"vehicle_type_id":"4","last_reported":1777550826,"current_range_meters":8800,"station_id":"ce4bgpp2rcd13ifvqc3g","pricing_plan_id":"cebpf4jnsgd1na2vs0mg"},{"bike_id":"27a7f961-88eb-427e-93af-a22e85f5167a","system_id":"levelo_inurba_marseille","lat":43.29541,"lon":5.37483,"is_reserved":false,"is_disabled":false,"rental_uris":{"android":"levelo://app?vid=27a7f961-88eb-427e-93af-a22e85f5167a","ios":"levelo://app?vid=27a7f961-88eb-427e-93af-a22e85f5167a"},"vehicle_type_id":"4","last_reported":1777550826,"current_range_meters":8800,"station_id":"ce4bgkp2rcd13ifvqbmg","pricing_plan_id":"cebpf4jnsgd1na2vs0mg"},{"bike_id":"1fe910de-238b-437d-9df9-4f4b9780bca0","system_id":"levelo_inurba_marseille","lat":43.33723,"lon":5.39185,"is_reserved":false,"is_disabled":false,"rental_uris":{"android":"levelo://app?vid=1fe910de-238b-437d-9df9-4f4b9780bca0","ios":"levelo://app?vid=1fe910de-238b-437d-9df9-4f4b9780bca0"},"vehicle_type_id":"4","last_reported":1777550826,"current_range_meters":8800,"station_id":"ce4bhr92rcd13ifvqhsg","pricing_plan_id":"cebpf4jnsgd1na2vs0mg"},{"bike_id":"652a1b10-8153-4c6b-88ee-5adbf591da9c","system_id":"levelo_inurba_marseille","lat":43.29575,"lon":5.3751,"is_reserved":false,"is_disabled":false,"rental_uris":{"android":"levelo://app?vid=652a1b10-8153-4c6b-88ee-5adbf591da9c","ios":"levelo://app?vid=652a1b10-8153-4c6b-88ee-5adbf591da9c"},"vehicle_type_id":"4","last_reported":1777550826,"current_range_meters":8800,"station_id":"ce4bgh92rcd13ifvqb50","pricing_plan_id":"cebpf4jnsgd1na2vs0mg"},{"bike_id":"335fc8dc-ad2f-4253-b0e2-b10d3d2d0173","system_id":"levelo_inurba_marseille","lat":43.28446,"lon":5.38545,"is_reserved":false,"is_disabled":true,"rental_uris":{"android":"levelo://app?vid=335fc8dc-ad2f-4253-b0e2-b10d3d2d0173","ios":"levelo://app?vid=335fc8dc-ad2f-4253-b0e2-b10d3d2d0173"},"vehicle_type_id":"4","last_reported":1777550826,"current_range_meters":8800,"station_id":"ce4bh8p2rcd13ifvqeb0","pricing_plan_id":"cebpf4jnsgd1na2vs0mg"},{"bike_id":"0c0a02b7-6d3a-42ee-92a9-4cdba4f67f7a","system_id":"levelo_inurba_marseille","lat":43.23184,"lon":5.39976,"is_reserved":false,"is_disabled":false,"rental_uris":{"android":"levelo://app?vid=0c0a02b7-6d3a-42ee-92a9-4cdba4f67f7a","ios":"levelo://app?vid=0c0a02b7-6d3a-42ee-92a9-4cdba4f67f7a"},"vehicle_type_id":"4","last_reported":1777550826,"current_range_meters":8800,"station_id":"ce4bhn12rcd13ifvqgqg","pricing_plan_id":"cebpf4jnsgd1na2vs0mg"},{"bike_id":"37728412-9808-4848-87a6-e43dab59174b","system_id":"levelo_inurba_marseille","lat":43.27164,"lon":5.41,"is_reserved":false,"is_disabled":false,"rental_uris":{"android":"levelo://app?vid=37728412-9808-4848-87a6-e43dab59174b","ios":"levelo://app?vid=37728412-9808-4848-87a6-e43dab59174b"},"vehicle_type_id":"4","last_reported":1777550826,"current_range_meters":8800,"station_id":"ce4bhl12rcd13ifvqgf0","pricing_plan_id":"cebpf4jnsgd1na2vs0mg"},{"bike_id":"2f8ddc63-ea14-47d6-b9ff-53b384c2c888","system_id":"levelo_inurba_marseille","lat":43.29566,"lon":5.39987,"is_reserved":false,"is_disabled":false,"rental_uris":{"android":"levelo://app?vid=2f8ddc63-ea14-47d6-b9ff-53b384c2c888","ios":"levelo://app?vid=2f8ddc63-ea14-47d6-b9ff-53b384c2c888"},"vehicle_type_id":"4","last_reported":1777550826,"current_range_meters":8800,"station_id":"ce4bh312rcd13ifvqdj0","pricing_plan_id":"cebpf4jnsgd1na2vs0mg"},{"bike_id":"626b9432-74f3-4811-b768-087f741983b9","system_id":"levelo_inurba_marseille","lat":43.27965,"lon":5.38732,"is_reserved":false,"is_disabled":false,"rental_uris":{"android":"levelo://app?vid=626b9432-74f3-4811-b768-087f741983b9","ios":"levelo://app?vid=626b9432-74f3-4811-b768-087f741983b9"},"vehicle_type_id":"4","last_reported":1777550826,"current_range_meters":8800,"station_id":"ce4bhg12rcd13ifvqf80","pricing_plan_id":"cebpf4jnsgd1na2vs0mg"},{"bike_id":"1bf38e0a-b6ae-4bb6-bc81-abf44b049ece","system_id":"levelo_inurba_marseille","lat":43.2997,"lon":5.38492,"is_reserved":false,"is_disabled":true,"rental_uris":{"android":"levelo://app?vid=1bf38e0a-b6ae-4bb6-bc81-abf44b049ece","ios":"levelo://app?vid=1bf38e0a-b6ae-4bb6-bc81-abf44b049ece"},"vehicle_type_id":"4","last_reported":1777550826,"current_range_meters":8800,"station_id":"ce4bgj92rcd13ifvqbd0","pricing_plan_id":"cebpf4jnsgd1na2vs0mg"},{"bike_id":"a9fdc35f-bdd3-4025-896f-985c490ec39f","system_id":"levelo_inurba_marseille","lat":43.30185,"lon":5.37437,"is_reserved":false,"is_disabled":false,"rental_uris":{"android":"levelo://app?vid=a9fdc35f-bdd3-4025-896f-985c490ec39f","ios":"levelo://app?vid=a9fdc35f-bdd3-4025-896f-985c490ec39f"},"vehicle_type_id":"4","last_reported":1777550826,"current_range_meters":8800,"station_id":"","pricing_plan_id":"cebpf4jnsgd1na2vs0mg"},{"bike_id":"275f0e36-65c4-489f-bd62-ec5e03923f09","system_id":"levelo_inurba_marseille","lat":43.22551,"lon":5.41611,"is_reserved":false,"is_disabled":false,"rental_uris":{"android":"levelo://app?vid=275f0e36-65c4-489f-bd62-ec5e03923f09","ios":"levelo://app?vid=275f0e36-65c4-489f-bd62-ec5e03923f09"},"vehicle_type_id":"4","last_reported":1777550826,"current_range_meters":8800,"station_id":"st_d2o4gvlbi1j2169b742g","pricing_plan_id":"cebpf4jnsgd1na2vs0mg"},{"bike_id":"1cebc6f2-764d-48f9-9814-dbd4c7dc1e9c","system_id":"levelo_inurba_marseille","lat":43.28979,"lon":5.3784,"is_reserved":false,"is_disabled":false,"rental_uris":{"android":"levelo://app?vid=1cebc6f2-764d-48f9-9814-dbd4c7dc1e9c","ios":"levelo://app?vid=1cebc6f2-764d-48f9-9814-dbd4c7dc1e9c"},"vehicle_type_id":"4","last_reported":1777550826,"current_range_meters":8800,"station_id":"ce4bh9p2rcd13ifvqed0","pricing_plan_id":"cebpf4jnsgd1na2vs0mg"},{"bike_id":"fcd8391d-af1d-433a-88fe-e98091893b80","system_id":"levelo_inurba_marseille","lat":43.255807,"lon":5.382307,"is_reserved":false,"is_disabled":false,"rental_uris":{"android":"levelo://app?vid=fcd8391d-af1d-433a-88fe-e98091893b80","ios":"levelo://app?vid=fcd8391d-af1d-433a-88fe-e98091893b80"},"vehicle_type_id":"4","last_reported":1777550826,"current_range_meters":8800,"station_id":"ce4bhih2rcd13ifvqfs0","pricing_plan_id":"cebpf4jnsgd1na2vs0mg"},{"bike_id":"bba0d7c0-c1b5-406f-a181-674a8536cbdb","system_id":"levelo_inurba_marseille","lat":43.25503,"lon":5.37636,"is_reserved":false,"is_disabled":false,"rental_uris":{"android":"levelo://app?vid=bba0d7c0-c1b5-406f-a181-674a8536cbdb","ios":"levelo://app?vid=bba0d7c0-c1b5-406f-a181-674a8536cbdb"},"vehicle_type_id":"4","last_reported":1777550826,"current_range_meters":8800,"station_id":"ce4bhh12rcd13ifvqff0","pricing_plan_id":"cebpf4jnsgd1na2vs0mg"},{"bike_id":"65dcd980-6fe9-4c7d-822c-075ad32b715a","system_id":"levelo_inurba_marseille","lat":43.23812,"lon":5.36631,"is_reserved":false,"is_disabled":false,"rental_uris":{"android":"levelo://app?vid=65dcd980-6fe9-4c7d-822c-075ad32b715a","ios":"levelo://app?vid=65dcd980-6fe9-4c7d-822c-075ad32b715a"},"vehicle_type_id":"4","last_reported":1777550826,"current_range_meters":8800,"station_id":"st_d3nk18o9ro0c73en2l3g","pricing_plan_id":"cebpf4jnsgd1na2vs0mg"},{"bike_id":"237e9d01-569e-4ff7-ac38-d42f6849b48a","system_id":"levelo_inurba_marseille","lat":43.29767,"lon":5.38092,"is_reserved":false,"is_disabled":true,"rental_uris":{"android":"levelo://app?vid=237e9d01-569e-4ff7-ac38-d42f6849b48a","ios":"levelo://app?vid=237e9d01-569e-4ff7-ac38-d42f6849b48a"},"vehicle_type_id":"4","last_reported":1777550826,"current_range_meters":8800,"station_id":"ce4bgip2rcd13ifvqbb0","pricing_plan_id":"cebpf4jnsgd1na2vs0mg"},{"bike_id":"5aa91473-46a9-4460-8305-ba7ccda38b0a","system_id":"levelo_inurba_marseille","lat":43.3116,"lon":5.36812,"is_reserved":false,"is_disabled":false,"rental_uris":{"android":"levelo://app?vid=5aa91473-46a9-4460-8305-ba7ccda38b0a","ios":"levelo://app?vid=5aa91473-46a9-4460-8305-ba7ccda38b0a"},"vehicle_type_id":"4","last_reported":1777550826,"current_range_meters":8800,"station_id":"","pricing_plan_id":"cebpf4jnsgd1na2vs0mg"},{"bike_id":"b2b5924c-ae57-4d04-8872-ff1b2babdda2","system_id":"levelo_inurba_marseille","lat":43.29791,"lon":5.38067,"is_reserved":false,"is_disabled":false,"rental_uris":{"android":"levelo://app?vid=b2b5924c-ae57-4d04-8872-ff1b2babdda2","ios":"levelo://app?vid=b2b5924c-ae57-4d04-8872-ff1b2babdda2"},"vehicle_type_id":"4","last_reported":1777550826,"current_range_meters":8800,"station_id":"ce4bgip2rcd13ifvqbb0","pricing_plan_id":"cebpf4jnsgd1na2vs0mg"},{"bike_id":"26d6b9c6-457d-42ed-927b-1dfba46f13bb","system_id":"levelo_inurba_marseille","lat":43.31498,"lon":5.37274,"is_reserved":false,"is_disabled":false,"rental_uris":{"android":"levelo://app?vid=26d6b9c6-457d-42ed-927b-1dfba46f13bb","ios":"levelo://app?vid=26d6b9c6-457d-42ed-927b-1dfba46f13bb"},"vehicle_type_id":"4","last_reported":1777550826,"current_range_meters":8800,"station_id":"ce4bgt12rcd13ifvqcd0","pricing_plan_id":"cebpf4jnsgd1na2vs0mg"},{"bike_id":"4de18ac9-f97e-4d55-814b-6d16c35e4c9e","system_id":"levelo_inurba_marseille","lat":43.29898,"lon":5.37456,"is_reserved":false,"is_disabled":false,"rental_uris":{"android":"levelo://app?vid=4de18ac9-f97e-4d55-814b-6d16c35e4c9e","ios":"levelo://app?vid=4de18ac9-f97e-4d55-814b-6d16c35e4c9e"},"vehicle_type_id":"4","last_reported":1777550826,"current_range_meters":8800,"station_id":"ce4bgjh2rcd13ifvqbg0","pricing_plan_id":"cebpf4jnsgd1na2vs0mg"},{"bike_id":"045be241-c57f-48b1-8154-68d5e4bdb9ff","system_id":"levelo_inurba_marseille","lat":43.28416,"lon":5.34986,"is_reserved":false,"is_disabled":false,"rental_uris":{"android":"levelo://app?vid=045be241-c57f-48b1-8154-68d5e4bdb9ff","ios":"levelo://app?vid=045be241-c57f-48b1-8154-68d5e4bdb9ff"},"vehicle_type_id":"4","last_reported":1777550826,"current_range_meters":8800,"station_id":"ce4bhbh2rcd13ifvqepg","pricing_plan_id":"cebpf4jnsgd1na2vs0mg"},{"bike_id":"b0d595b9-7c67-4713-9ca5-bce73f5b56b5","system_id":"levelo_inurba_marseille","lat":43.31374,"lon":5.36691,"is_reserved":false,"is_disabled":false,"rental_uris":{"android":"levelo://app?vid=b0d595b9-7c67-4713-9ca5-bce73f5b56b5","ios":"levelo://app?vid=b0d595b9-7c67-4713-9ca5-bce73f5b56b5"},"vehicle_type_id":"4","last_reported":1777550826,"current_range_meters":9200,"station_id":"ce4bgr92rcd13ifvqc6g","pricing_plan_id":"cebpf4jnsgd1na2vs0mg"},{"bike_id":"e3d0e9d9-cbeb-4e7b-aa61-dfc4941f4180","system_id":"levelo_inurba_marseille","lat":43.32103,"lon":5.36766,"is_reserved":false,"is_disabled":false,"rental_uris":{"android":"levelo://app?vid=e3d0e9d9-cbeb-4e7b-aa61-dfc4941f4180","ios":"levelo://app?vid=e3d0e9d9-cbeb-4e7b-aa61-dfc4941f4180"},"vehicle_type_id":"4","last_reported":1777550826,"current_range_meters":9200,"station_id":"ce4bhrh2rcd13ifvqhug","pricing_plan_id":"cebpf4jnsgd1na2vs0mg"},{"bike_id":"7e597ee9-163a-4945-8211-c8673fc7ccdd","system_id":"levelo_inurba_marseille","lat":43.30548,"lon":5.36695,"is_reserved":false,"is_disabled":false,"rental_uris":{"android":"levelo://app?vid=7e597ee9-163a-4945-8211-c8673fc7ccdd","ios":"levelo://app?vid=7e597ee9-163a-4945-8211-c8673fc7ccdd"},"vehicle_type_id":"4","last_reported":1777550826,"current_range_meters":9200,"station_id":"ce4bgrp2rcd13ifvqc9g","pricing_plan_id":"cebpf4jnsgd1na2vs0mg"},{"bike_id":"8426cc5d-9a5c-4008-9b62-a43a653eacff","system_id":"levelo_inurba_marseille","lat":43.29713,"lon":5.36617,"is_reserved":false,"is_disabled":false,"rental_uris":{"android":"levelo://app?vid=8426cc5d-9a5c-4008-9b62-a43a653eacff","ios":"levelo://app?vid=8426cc5d-9a5c-4008-9b62-a43a653eacff"},"vehicle_type_id":"4","last_reported":1777550826,"current_range_meters":9200,"station_id":"ce4bgn12rcd13ifvqbt0","pricing_plan_id":"cebpf4jnsgd1na2vs0mg"},{"bike_id":"a5e387fa-49b5-4a17-a925-09d5f690af8f","system_id":"levelo_inurba_marseille","lat":43.3212,"lon":5.36797,"is_reserved":false,"is_disabled":false,"rental_uris":{"android":"levelo://app?vid=a5e387fa-49b5-4a17-a925-09d5f690af8f","ios":"levelo://app?vid=a5e387fa-49b5-4a17-a925-09d5f690af8f"},"vehicle_type_id":"4","last_reported":1777550826,"current_range_meters":9200,"station_id":"ce4bhrh2rcd13ifvqhug","pricing_plan_id":"cebpf4jnsgd1na2vs0mg"},{"bike_id":"c5d08cef-877a-492b-b5b8-c38cdbd3a078","system_id":"levelo_inurba_marseille","lat":43.30139,"lon":5.38071,"is_reserved":false,"is_disabled":false,"rental_uris":{"android":"levelo://app?vid=c5d08cef-877a-492b-b5b8-c38cdbd3a078","ios":"levelo://app?vid=c5d08cef-877a-492b-b5b8-c38cdbd3a078"},"vehicle_type_id":"4","last_reported":1777550826,"current_range_meters":9200,"station_id":"ce4bgjp2rcd13ifvqbh0","pricing_plan_id":"cebpf4jnsgd1na2vs0mg"},{"bike_id":"46611baa-2233-47d3-a307-4123f065b079","system_id":"levelo_inurba_marseille","lat":43.28478,"lon":5.484,"is_reserved":false,"is_disabled":false,"rental_uris":{"android":"levelo://app?vid=46611baa-2233-47d3-a307-4123f065b079","ios":"levelo://app?vid=46611baa-2233-47d3-a307-4123f065b079"},"vehicle_type_id":"4","last_reported":1777550826,"current_range_meters":9200,"station_id":"","pricing_plan_id":"cebpf4jnsgd1na2vs0mg"},{"bike_id":"70e909e7-c831-4d92-a7ed-01cbe81032d5","system_id":"levelo_inurba_marseille","lat":43.27867,"lon":5.35447,"is_reserved":false,"is_disabled":false,"rental_uris":{"android":"levelo://app?vid=70e909e7-c831-4d92-a7ed-01cbe81032d5","ios":"levelo://app?vid=70e909e7-c831-4d92-a7ed-01cbe81032d5"},"vehicle_type_id":"4","last_reported":1777550826,"current_range_meters":9200,"station_id":"","pricing_plan_id":"cebpf4jnsgd1na2vs0mg"},{"bike_id":"e018f895-5771-4f44-b64f-db1b733c0c56","system_id":"levelo_inurba_marseille","lat":43.23741,"lon":5.43067,"is_reserved":false,"is_disabled":false,"rental_uris":{"android":"levelo://app?vid=e018f895-5771-4f44-b64f-db1b733c0c56","ios":"levelo://app?vid=e018f895-5771-4f44-b64f-db1b733c0c56"},"vehicle_type_id":"4","last_reported":1777550826,"current_range_meters":9200,"station_id":"","pricing_plan_id":"cebpf4jnsgd1na2vs0mg"},{"bike_id":"d193cfeb-a038-436f-91b9-4221c91e3d89","system_id":"levelo_inurba_marseille","lat":43.27469,"lon":5.4158,"is_reserved":false,"is_disabled":true,"rental_uris":{"android":"levelo://app?vid=d193cfeb-a038-436f-91b9-4221c91e3d89","ios":"levelo://app?vid=d193cfeb-a038-436f-91b9-4221c91e3d89"},"vehicle_type_id":"4","last_reported":1777550826,"current_range_meters":9200,"station_id":"","pricing_plan_id":"cebpf4jnsgd1na2vs0mg"},{"bike_id":"cfbf3059-fd7e-4626-bbb7-f76607be3dd8","system_id":"levelo_inurba_marseille","lat":43.30528,"lon":5.36693,"is_reserved":false,"is_disabled":true,"rental_uris":{"android":"levelo://app?vid=cfbf3059-fd7e-4626-bbb7-f76607be3dd8","ios":"levelo://app?vid=cfbf3059-fd7e-4626-bbb7-f76607be3dd8"},"vehicle_type_id":"4","last_reported":1777550826,"current_range_meters":9200,"station_id":"ce4bgrp2rcd13ifvqc9g","pricing_plan_id":"cebpf4jnsgd1na2vs0mg"},{"bike_id":"4f17915c-c3cf-4b49-8182-ea8a59f07c39","system_id":"levelo_inurba_marseille","lat":43.31115,"lon":5.3778,"is_reserved":false,"is_disabled":false,"rental_uris":{"android":"levelo://app?vid=4f17915c-c3cf-4b49-8182-ea8a59f07c39","ios":"levelo://app?vid=4f17915c-c3cf-4b49-8182-ea8a59f07c39"},"vehicle_type_id":"4","last_reported":1777550826,"current_range_meters":9200,"station_id":"ce4bgt92rcd13ifvqcg0","pricing_plan_id":"cebpf4jnsgd1na2vs0mg"},{"bike_id":"7d0fd0b8-10eb-4c5f-8af7-9e6fa7704ba4","system_id":"levelo_inurba_marseille","lat":43.24384,"lon":5.3705,"is_reserved":false,"is_disabled":false,"rental_uris":{"android":"levelo://app?vid=7d0fd0b8-10eb-4c5f-8af7-9e6fa7704ba4","ios":"levelo://app?vid=7d0fd0b8-10eb-4c5f-8af7-9e6fa7704ba4"},"vehicle_type_id":"4","last_reported":1777550826,"current_range_meters":9200,"station_id":"ce4bhhh2rcd13ifvqfk0","pricing_plan_id":"cebpf4jnsgd1na2vs0mg"},{"bike_id":"b90c1d01-6a44-4d47-adc9-f51f5ae2109b","system_id":"levelo_inurba_marseille","lat":43.22556,"lon":5.41632,"is_reserved":false,"is_disabled":false,"rental_uris":{"android":"levelo://app?vid=b90c1d01-6a44-4d47-adc9-f51f5ae2109b","ios":"levelo://app?vid=b90c1d01-6a44-4d47-adc9-f51f5ae2109b"},"vehicle_type_id":"4","last_reported":1777550826,"current_range_meters":9200,"station_id":"st_d2o4gvlbi1j2169b742g","pricing_plan_id":"cebpf4jnsgd1na2vs0mg"},{"bike_id":"cf756aed-771f-48de-b6e4-695766cf71a3","system_id":"levelo_inurba_marseille","lat":43.3096,"lon":5.39686,"is_reserved":false,"is_disabled":false,"rental_uris":{"android":"levelo://app?vid=cf756aed-771f-48de-b6e4-695766cf71a3","ios":"levelo://app?vid=cf756aed-771f-48de-b6e4-695766cf71a3"},"vehicle_type_id":"4","last_reported":1777550826,"current_range_meters":9200,"station_id":"","pricing_plan_id":"cebpf4jnsgd1na2vs0mg"},{"bike_id":"a8483a05-e652-437c-864d-0a9d370b8bff","system_id":"levelo_inurba_marseille","lat":43.2479,"lon":5.37455,"is_reserved":false,"is_disabled":false,"rental_uris":{"android":"levelo://app?vid=a8483a05-e652-437c-864d-0a9d370b8bff","ios":"levelo://app?vid=a8483a05-e652-437c-864d-0a9d370b8bff"},"vehicle_type_id":"4","last_reported":1777550826,"current_range_meters":9200,"station_id":"ce4bhgh2rcd13ifvqfb0","pricing_plan_id":"cebpf4jnsgd1na2vs0mg"},{"bike_id":"777b5b2a-7d7d-4308-8581-4b69e8a2d556","system_id":"levelo_inurba_marseille","lat":43.32342,"lon":5.36745,"is_reserved":false,"is_disabled":false,"rental_uris":{"android":"levelo://app?vid=777b5b2a-7d7d-4308-8581-4b69e8a2d556","ios":"levelo://app?vid=777b5b2a-7d7d-4308-8581-4b69e8a2d556"},"vehicle_type_id":"4","last_reported":1777550826,"current_range_meters":9600,"station_id":"ce4bhsh2rcd13ifvqi2g","pricing_plan_id":"cebpf4jnsgd1na2vs0mg"},{"bike_id":"3ae19c8d-7993-4bce-8a56-bc8493cb10a6","system_id":"levelo_inurba_marseille","lat":43.22556,"lon":5.41628,"is_reserved":false,"is_disabled":false,"rental_uris":{"android":"levelo://app?vid=3ae19c8d-7993-4bce-8a56-bc8493cb10a6","ios":"levelo://app?vid=3ae19c8d-7993-4bce-8a56-bc8493cb10a6"},"vehicle_type_id":"4","last_reported":1777550826,"current_range_meters":9600,"station_id":"st_d2o4gvlbi1j2169b742g","pricing_plan_id":"cebpf4jnsgd1na2vs0mg"},{"bike_id":"662d3ade-7838-42e9-9b62-a1e5749bd144","system_id":"levelo_inurba_marseille","lat":43.28701,"lon":5.4668,"is_reserved":false,"is_disabled":false,"rental_uris":{"android":"levelo://app?vid=662d3ade-7838-42e9-9b62-a1e5749bd144","ios":"levelo://app?vid=662d3ade-7838-42e9-9b62-a1e5749bd144"},"vehicle_type_id":"4","last_reported":1777550826,"current_range_meters":9600,"station_id":"st_d6tc3vkotcvc738tfjhg","pricing_plan_id":"cebpf4jnsgd1na2vs0mg"},{"bike_id":"3e37a766-0224-460c-ab40-46eb5e15117f","system_id":"levelo_inurba_marseille","lat":43.25592,"lon":5.38221,"is_reserved":false,"is_disabled":false,"rental_uris":{"android":"levelo://app?vid=3e37a766-0224-460c-ab40-46eb5e15117f","ios":"levelo://app?vid=3e37a766-0224-460c-ab40-46eb5e15117f"},"vehicle_type_id":"4","last_reported":1777550826,"current_range_meters":9600,"station_id":"ce4bhih2rcd13ifvqfs0","pricing_plan_id":"cebpf4jnsgd1na2vs0mg"},{"bike_id":"398f3248-7362-4af9-a2ab-073d3def34c4","system_id":"levelo_inurba_marseille","lat":43.30784,"lon":5.37668,"is_reserved":false,"is_disabled":false,"rental_uris":{"android":"levelo://app?vid=398f3248-7362-4af9-a2ab-073d3def34c4","ios":"levelo://app?vid=398f3248-7362-4af9-a2ab-073d3def34c4"},"vehicle_type_id":"4","last_reported":1777550826,"current_range_meters":9600,"station_id":"ce4bgv92rcd13ifvqcq0","pricing_plan_id":"cebpf4jnsgd1na2vs0mg"},{"bike_id":"bbaabfca-5d35-44b9-8209-7b9502a68833","system_id":"levelo_inurba_marseille","lat":43.33154,"lon":5.37707,"is_reserved":false,"is_disabled":false,"rental_uris":{"android":"levelo://app?vid=bbaabfca-5d35-44b9-8209-7b9502a68833","ios":"levelo://app?vid=bbaabfca-5d35-44b9-8209-7b9502a68833"},"vehicle_type_id":"4","last_reported":1777550826,"current_range_meters":9600,"station_id":"st_d46cu089ee8s73dldbu0","pricing_plan_id":"cebpf4jnsgd1na2vs0mg"},{"bike_id":"3bab5da5-8f04-429e-a8cc-b94afa4e8e70","system_id":"levelo_inurba_marseille","lat":43.22568,"lon":5.41613,"is_reserved":false,"is_disabled":false,"rental_uris":{"android":"levelo://app?vid=3bab5da5-8f04-429e-a8cc-b94afa4e8e70","ios":"levelo://app?vid=3bab5da5-8f04-429e-a8cc-b94afa4e8e70"},"vehicle_type_id":"4","last_reported":1777550826,"current_range_meters":9600,"station_id":"st_d2o4gvlbi1j2169b742g","pricing_plan_id":"cebpf4jnsgd1na2vs0mg"},{"bike_id":"6c33eaec-7524-4765-a3b4-3421cf14e6ae","system_id":"levelo_inurba_marseille","lat":43.2848,"lon":5.48385,"is_reserved":false,"is_disabled":false,"rental_uris":{"android":"levelo://app?vid=6c33eaec-7524-4765-a3b4-3421cf14e6ae","ios":"levelo://app?vid=6c33eaec-7524-4765-a3b4-3421cf14e6ae"},"vehicle_type_id":"4","last_reported":1777550826,"current_range_meters":9600,"station_id":"","pricing_plan_id":"cebpf4jnsgd1na2vs0mg"},