{"last_updated":1703768895,"ttl":30,"version":"2.2","data":{"bikes":[{"bike_id":"92ba66e1-7cd9-4425-a995-c61d09098f4c","system_id":"levelo_inurba_marseille","lat":43.31341,"lon":5.367098,"is_reserved":false,"is_disabled":false,"rental_uris":{"android":"levelo://app?vid=92ba66e1-7cd9-4425-a995-c61d09098f4c","ios":"levelo://app?vid=92ba66e1-7cd9-4425-a995-c61d09098f4c"},"vehicle_type_id":"4","last_reported":1703768895,"current_range_meters":29600,"station_id":"ce4bgr92rcd13ifvqc6g","pricing_plan_id":"free"},{"bike_id":"fd718e64-be48-4544-989d-0bea6dfd9864","system_id":"levelo_inurba_marseille","lat":43.31341,"lon":5.367098,"is_reserved":false,"is_disabled":false,"rental_uris":{"android":"levelo://app?vid=fd718e64-be48-4544-989d-0bea6dfd9864","ios":"levelo://app?vid=fd718e64-be48-4544-989d-0bea6dfd9864"},"vehicle_type_id":"4","last_reported":1703768895,"current_range_meters":29200,"station_id":"ce4bgr92rcd13ifvqc6g","pricing_plan_id":"free"},{"bike_id":"7f03bb82-3d8c-4897-b6bf-05bb5fa8a57c","system_id":"levelo_inurba_marseille","lat":43.31341,"lon":5.367098,"is_reserved":false,"is_disabled":false,"rental_uris":{"android":"levelo://app?vid=7f03bb82-3d8c-4897-b6bf-05bb5fa8a57c","ios":"levelo://app?vid=7f03bb82-3d8c-4897-b6bf-05bb5fa8a57c"},"vehicle_type_id":"4","last_reported":1703768895,"current_range_meters":31200,"station_id":"ce4bgr92rcd13ifvqc6g","pricing_plan_id":"free"},{"bike_id":"8d0aa6b3-acfc-4de3-94ac-62c967788013","system_id":"levelo_inurba_marseille","lat":43.31341,"lon":5.367098,"is_reserved":false,"is_disabled":false,"rental_uris":{"android":"levelo://app?vid=8d0aa6b3-acfc-4de3-94ac-62c967788013","ios":"levelo://app?vid=8d0aa6b3-acfc-4de3-94ac-62c967788013"},"vehicle_type_id":"4","last_reported":1703768895,"current_range_meters":14000,"station_id":"ce4bgr92rcd13ifvqc6g","pricing_plan_id":"free"},{"bike_id":"92d4f817-0078-49c2-a633-ec1dee59c53d","system_id":"levelo_inurba_marseille","lat":43.31341,"lon":5.367098,"is_reserved":false,"is_disabled":false,"rental_uris":{"android":"levelo://app?vid=92d4f817-0078-49c2-a633-ec1dee59c53d","ios":"levelo://app?vid=92d4f817-0078-49c2-a633-ec1dee59c53d"},"vehicle_type_id":"4","last_reported":1703768895,"current_range_meters":4800,"station_id":"ce4bgr92rcd13ifvqc6g","pricing_plan_id":"free"},{"bike_id":"d5982094-0c0a-4d8d-8dd0-d27ab3a034f5","system_id":"levelo_inurba_marseille","lat":43.31341,"lon":5.367098,"is_reserved":false,"is_disabled":false,"rental_uris":{"android":"levelo://app?vid=d5982094-0c0a-4d8d-8dd0-d27ab3a034f5","ios":"levelo://app?vid=d5982094-0c0a-4d8d-8dd0-d27ab3a034f5"},"vehicle_type_id":"4","last_reported":1703768895,"current_range_meters":21600,"station_id":"ce4bgr92rcd13ifvqc6g","pricing_plan_id":"free"},{"bike_id":"08e6c456-d68e-44b7-8971-a4415c10061d","system_id":"levelo_inurba_marseille","lat":43.312239,"lon":5.368562,"is_reserved":false,"is_disabled":false,"rental_uris":{"android":"levelo://app?vid=08e6c456-d68e-44b7-8971-a4415c10061d","ios":"levelo://app?vid=08e6c456-d68e-44b7-8971-a4415c10061d"},"vehicle_type_id":"4","last_reported":1703768895,"current_range_meters":16400,"station_id":"ce4bgl92rcd13ifvqbq0","pricing_plan_id":"free"},{"bike_id":"afbeb1d6-3a95-4ba0-b6a6-c585b87611ab","system_id":"levelo_inurba_marseille","lat":43.312239,"lon":5.368562,"is_reserved":false,"is_disabled":false,"rental_uris":{"android":"levelo://app?vid=afbeb1d6-3a95-4ba0-b6a6-c585b87611ab","ios":"levelo://app?vid=afbeb1d6-3a95-4ba0-b6a6-c585b87611ab"},"vehicle_type_id":"4","last_reported":1703768895,"current_range_meters":26800,"station_id":"ce4bgl92rcd13ifvqbq0","pricing_plan_id":"free"},{"bike_id":"0c1fc38f-404d-4a7d-9e77-04255704bc58","system_id":"levelo_inurba_marseille","lat":43.312239,"lon":5.368562,"is_reserved":false,"is_disabled":false,"rental_uris":{"android":"levelo://app?vid=0c1fc38f-404d-4a7d-9e77-04255704bc58","ios":"levelo://app?vid=0c1fc38f-404d-4a7d-9e77-04255704bc58"},"vehicle_type_id":"4","last_reported":1703768895,"current_range_meters":24400,"station_id":"ce4bgl92rcd13ifvqbq0","pricing_plan_id":"free"},{"bike_id":"8b954636-a42b-49a6-baca-652dfe79f349","system_id":"levelo_inurba_marseille","lat":43.312239,"lon":5.368562,"is_reserved":false,"is_disabled":false,"rental_uris":{"android":"levelo://app?vid=8b954636-a42b-49a6-baca-652dfe79f349","ios":"levelo://app?vid=8b954636-a42b-49a6-baca-652dfe79f349"},"vehicle_type_id":"4","last_reported":1703768895,"current_range_meters":29600,"station_id":"ce4bgl92rcd13ifvqbq0","pricing_plan_id":"free"},{"bike_id":"619d0e2c-5dc7-4aea-88bb-4cf8e486686f","system_id":"levelo_inurba_marseille","lat":43.309076,"lon":5.368465,"is_reserved":false,"is_disabled":false,"rental_uris":{"android":"levelo://app?vid=619d0e2c-5dc7-4aea-88bb-4cf8e486686f","ios":"levelo://app?vid=619d0e2c-5dc7-4aea-88bb-4cf8e486686f"},"vehicle_type_id":"4","last_reported":1703768895,"current_range_meters":28400,"station_id":"ce4bgn92rcd13ifvqbvg","pricing_plan_id":"free"},{"bike_id":"8bc3c047-836f-4235-b3c0-0c81ea54eccb","system_id":"levelo_inurba_marseille","lat":43.309076,"lon":5.368465,"is_reserved":false,"is_disabled":false,"rental_uris":{"android":"levelo://app?vid=8bc3c047-836f-4235-b3c0-0c81ea54eccb","ios":"levelo://app?vid=8bc3c047-836f-4235-b3c0-0c81ea54eccb"},"vehicle_type_id":"4","last_reported":1703768895,"current_range_meters":30000,"station_id":"ce4bgn92rcd13ifvqbvg","pricing_plan_id":"free"},{"bike_id":"71413311-6ad0-4f44-a6ac-a2b6c7e1916c","system_id":"levelo_inurba_marseille","lat":43.309076,"lon":5.368465,"is_reserved":false,"is_disabled":false,"rental_uris":{"android":"levelo://app?vid=71413311-6ad0-4f44-a6ac-a2b6c7e1916c","ios":"levelo://app?vid=71413311-6ad0-4f44-a6ac-a2b6c7e1916c"},"vehicle_type_id":"4","last_reported":1703768895,"current_range_meters":30000,"station_id":"ce4bgn92rcd13ifvqbvg","pricing_plan_id":"free"},{"bike_id":"970b1400-5b47-454e-88c5-79e8a0f93958","system_id":"levelo_inurba_marseille","lat":43.309076,"lon":5.368465,"is_reserved":false,"is_disabled":false,"rental_uris":{"android":"levelo://app?vid=970b1400-5b47-454e-88c5-79e8a0f93958","ios":"levelo://app?vid=970b1400-5b47-454e-88c5-79e8a0f93958"},"vehicle_type_id":"4","last_reported":1703768895,"current_range_meters":24800,"station_id":"ce4bgn92rcd13ifvqbvg","pricing_plan_id":"free"},{"bike_id":"92911933-4cc2-4e0d-a7c2-93431715e26a","system_id":"levelo_inurba_marseille","lat":43.309076,"lon":5.368465,"is_reserved":false,"is_disabled":false,"rental_uris":{"android":"levelo://app?vid=92911933-4cc2-4e0d-a7c2-93431715e26a","ios":"levelo://app?vid=92911933-4cc2-4e0d-a7c2-93431715e26a"},"vehicle_type_id":"4","last_reported":1703768895,"current_range_meters":27600,"station_id":"ce4bgn92rcd13ifvqbvg","pricing_plan_id":"free"},{"bike_id":"a25e6d05-2464-481d-b5cc-d1d8679f6660","system_id":"levelo_inurba_marseille","lat":43.309039,"lon":5.371797,"is_reserved":false,"is_disabled":false,"rental_uris":{"android":"levelo://app?vid=a25e6d05-2464-481d-b5cc-d1d8679f6660","ios":"levelo://app?vid=a25e6d05-2464-481d-b5cc-d1d8679f6660"},"vehicle_type_id":"4","last_reported":1703768895,"current_range_meters":26400,"station_id":"ce4bguh2rcd13ifvqckg","pricing_plan_id":"free"},{"bike_id":"2bf1159c-4b34-4bc3-a8b5-156be571c011","system_id":"levelo_inurba_marseille","lat":43.308528,"lon":5.373471,"is_reserved":false,"is_disabled":false,"rental_uris":{"android":"levelo://app?vid=2bf1159c-4b34-4bc3-a8b5-156be571c011","ios":"levelo://app?vid=2bf1159c-4b34-4bc3-a8b5-156be571c011"},"vehicle_type_id":"4","last_reported":1703768895,"current_range_meters":28400,"station_id":"","pricing_plan_id":"free"},{"bike_id":"e53a9163-4e5b-47fe-9556-01a0a159d6b4","system_id":"levelo_inurba_marseille","lat":43.318964,"lon":5.36877,"is_reserved":false,"is_disabled":false,"rental_uris":{"android":"levelo://app?vid=e53a9163-4e5b-47fe-9556-01a0a159d6b4","ios":"levelo://app?vid=e53a9163-4e5b-47fe-9556-01a0a159d6b4"},"vehicle_type_id":"4","last_reported":1703768895,"current_range_meters":4400,"station_id":"","pricing_plan_id":"free"},{"bike_id":"08c24006-8789-4084-8096-95e6fc52f53a","system_id":"levelo_inurba_marseille","lat":43.305712,"lon":5.365641,"is_reserved":false,"is_disabled":false,"rental_uris":{"android":"levelo://app?vid=08c24006-8789-4084-8096-95e6fc52f53a","ios":"levelo://app?vid=08c24006-8789-4084-8096-95e6fc52f53a"},"vehicle_type_id":"4","last_reported":1703768895,"current_range_meters":25200,"station_id":"ce4bgs12rcd13ifvqcag","pricing_plan_id":"free"},{"bike_id":"a7a66843-4d47-43ac-bbb1-e4f510f70a06","system_id":"levelo_inurba_marseille","lat":43.30537,"lon":5.367345,"is_reserved":false,"is_disabled":false,"rental_uris":{"android":"levelo://app?vid=a7a66843-4d47-43ac-bbb1-e4f510f70a06","ios":"levelo://app?vid=a7a66843-4d47-43ac-bbb1-e4f510f70a06"},"vehicle_type_id":"4","last_reported":1703768895,"current_range_meters":20400,"station_id":"ce4bgrp2rcd13ifvqc9g","pricing_plan_id":"free"},{"bike_id":"6b34a06f-ae89-4b39-886a-6056a876b889","system_id":"levelo_inurba_marseille","lat":43.30537,"lon":5.367345,"is_reserved":false,"is_disabled":false,"rental_uris":{"android":"levelo://app?vid=6b34a06f-ae89-4b39-886a-6056a876b889","ios":"levelo://app?vid=6b34a06f-ae89-4b39-886a-6056a876b889"},"vehicle_type_id":"4","last_reported":1703768895,"current_range_meters":16800,"station_id":"ce4bgrp2rcd13ifvqc9g","pricing_plan_id":"free"},{"bike_id":"fd574965-01c3-4205-bd6c-5fda4ea35152","system_id":"levelo_inurba_marseille","lat":43.30546,"lon":5.36567,"is_reserved":false,"is_disabled":false,"rental_uris":{"android":"levelo://app?vid=fd574965-01c3-4205-bd6c-5fda4ea35152","ios":"levelo://app?vid=fd574965-01c3-4205-bd6c-5fda4ea35152"},"vehicle_type_id":"4","last_reported":1703768895,"current_range_meters":26000,"station_id":"ce4bgs12rcd13ifvqcag","pricing_plan_id":"free"},{"bike_id":"ae142779-b131-49b2-bd89-4923944822d2","system_id":"levelo_inurba_marseille","lat":43.305368,"lon":5.367343,"is_reserved":false,"is_disabled":false,"rental_uris":{"android":"levelo://app?vid=ae142779-b131-49b2-bd89-4923944822d2","ios":"levelo://app?vid=ae142779-b131-49b2-bd89-4923944822d2"},"vehicle_type_id":"4","last_reported":1703768895,"current_range_meters":24000,"station_id":"ce4bgrp2rcd13ifvqc9g","pricing_plan_id":"free"},{"bike_id":"50e7ae88-debc-4396-887a-aa6a1106b20a","system_id":"levelo_inurba_marseille","lat":43.305368,"lon":5.367343,"is_reserved":false,"is_disabled":false,"rental_uris":{"android":"levelo://app?vid=50e7ae88-debc-4396-887a-aa6a1106b20a","ios":"levelo://app?vid=50e7ae88-debc-4396-887a-aa6a1106b20a"},"vehicle_type_id":"4","last_reported":1703768895,"current_range_meters":20000,"station_id":"ce4bgrp2rcd13ifvqc9g","pricing_plan_id":"free"},{"bike_id":"294daea1-dfb7-429d-8796-4bb97a5afdbf","system_id":"levelo_inurba_marseille","lat":43.30537,"lon":5.367345,"is_reserved":false,"is_disabled":false,"rental_uris":{"android":"levelo://app?vid=294daea1-dfb7-429d-8796-4bb97a5afdbf","ios":"levelo://app?vid=294daea1-dfb7-429d-8796-4bb97a5afdbf"},"vehicle_type_id":"4","last_reported":1703768895,"current_range_meters":14400,"station_id":"ce4bgrp2rcd13ifvqc9g","pricing_plan_id":"free"},{"bike_id":"0cbffb1f-cad0-4903-8235-6ece12fb0071","system_id":"levelo_inurba_marseille","lat":43.305401,"lon":5.36559,"is_reserved":false,"is_disabled":false,"rental_uris":{"android":"levelo://app?vid=0cbffb1f-cad0-4903-8235-6ece12fb0071","ios":"levelo://app?vid=0cbffb1f-cad0-4903-8235-6ece12fb0071"},"vehicle_type_id":"4","last_reported":1703768895,"current_range_meters":28400,"station_id":"ce4bgs12rcd13ifvqcag","pricing_plan_id":"free"},{"bike_id":"9517cb8e-b9c9-4738-88e8-264c5354905e","system_id":"levelo_inurba_marseille","lat":43.305368,"lon":5.367343,"is_reserved":false,"is_disabled":false,"rental_uris":{"android":"levelo://app?vid=9517cb8e-b9c9-4738-88e8-264c5354905e","ios":"levelo://app?vid=9517cb8e-b9c9-4738-88e8-264c5354905e"},"vehicle_type_id":"4","last_reported":1703768895,"current_range_meters":12000,"station_id":"ce4bgrp2rcd13ifvqc9g","pricing_plan_id":"free"},{"bike_id":"c07a61ec-4458-4e1e-89cf-fd90dc824bd2","system_id":"levelo_inurba_marseille","lat":43.305372,"lon":5.365414,"is_reserved":false,"is_disabled":false,"rental_uris":{"android":"levelo://app?vid=c07a61ec-4458-4e1e-89cf-fd90dc824bd2","ios":"levelo://app?vid=c07a61ec-4458-4e1e-89cf-fd90dc824bd2"},"vehicle_type_id":"4","last_reported":1703768895,"current_range_meters":26800,"station_id":"ce4bgs12rcd13ifvqcag","pricing_plan_id":"free"},{"bike_id":"675c39b1-12e1-4e8e-9b7c-28061f1dcf30","system_id":"levelo_inurba_marseille","lat":43.305393,"lon":5.365224,"is_reserved":false,"is_disabled":false,"rental_uris":{"android":"levelo://app?vid=675c39b1-12e1-4e8e-9b7c-28061f1dcf30","ios":"levelo://app?vid=675c39b1-12e1-4e8e-9b7c-28061f1dcf30"},"vehicle_type_id":"4","last_reported":1703768895,"current_range_meters":31200,"station_id":"ce4bgs12rcd13ifvqcag","pricing_plan_id":"free"},{"bike_id":"214514b4-e710-4d5c-a628-76cd2565b4bf","system_id":"levelo_inurba_marseille","lat":43.305368,"lon":5.367343,"is_reserved":false,"is_disabled":false,"rental_uris":{"android":"levelo://app?vid=214514b4-e710-4d5c-a628-76cd2565b4bf","ios":"levelo://app?vid=214514b4-e710-4d5c-a628-76cd2565b4bf"},"vehicle_type_id":"4","last_reported":1703768895,"current_range_meters":17200,"station_id":"ce4bgrp2rcd13ifvqc9g","pricing_plan_id":"free"},{"bike_id":"f16e10f8-b94e-4bda-b17e-003a27b85f06","system_id":"levelo_inurba_marseille","lat":43.305368,"lon":5.367343,"is_reserved":false,"is_disabled":false,"rental_uris":{"android":"levelo://app?vid=f16e10f8-b94e-4bda-b17e-003a27b85f06","ios":"levelo://app?vid=f16e10f8-b94e-4bda-b17e-003a27b85f06"},"vehicle_type_id":"4","last_reported":1703768895,"current_range_meters":31200,"station_id":"ce4bgrp2rcd13ifvqc9g","pricing_plan_id":"free"},{"bike_id":"2f43ee8c-5c3d-4678-8ee2-c2c0f9fc5b7e","system_id":"levelo_inurba_marseille","lat":43.311125,"lon":5.377624,"is_reserved":false,"is_disabled":false,"rental_uris":{"android":"levelo://app?vid=2f43ee8c-5c3d-4678-8ee2-c2c0f9fc5b7e","ios":"levelo://app?vid=2f43ee8c-5c3d-4678-8ee2-c2c0f9fc5b7e"},"vehicle_type_id":"4","last_reported":1703768895,"current_range_meters":29600,"station_id":"ce4bgt92rcd13ifvqcg0","pricing_plan_id":"free"},{"bike_id":"b4115a94-e9ab-4806-9ad1-28fcd8b30555","system_id":"levelo_inurba_marseille","lat":43.303046,"lon":5.368981,"is_reserved":false,"is_disabled":false,"rental_uris":{"android":"levelo://app?vid=b4115a94-e9ab-4806-9ad1-28fcd8b30555","ios":"levelo://app?vid=b4115a94-e9ab-4806-9ad1-28fcd8b30555"},"vehicle_type_id":"4","last_reported":1703768895,"current_range_meters":15600,"station_id":"ce4bgqh2rcd13ifvqc5g","pricing_plan_id":"free"},{"bike_id":"257af720-ca92-45d1-9d13-a1e5e778042b","system_id":"levelo_inurba_marseille","lat":43.303046,"lon":5.368981,"is_reserved":false,"is_disabled":false,"rental_uris":{"android":"levelo://app?vid=257af720-ca92-45d1-9d13-a1e5e778042b","ios":"levelo://app?vid=257af720-ca92-45d1-9d13-a1e5e778042b"},"vehicle_type_id":"4","last_reported":1703768895,"current_range_meters":29200,"station_id":"ce4bgqh2rcd13ifvqc5g","pricing_plan_id":"free"},{"bike_id":"141f9ecc-831b-4e68-91bb-80c1e7a8785c","system_id":"levelo_inurba_marseille","lat":43.303046,"lon":5.368981,"is_reserved":false,"is_disabled":false,"rental_uris":{"android":"levelo://app?vid=141f9ecc-831b-4e68-91bb-80c1e7a8785c","ios":"levelo://app?vid=141f9ecc-831b-4e68-91bb-80c1e7a8785c"},"vehicle_type_id":"4","last_reported":1703768895,"current_range_meters":28000,"station_id":"ce4bgqh2rcd13ifvqc5g","pricing_plan_id":"free"},{"bike_id":"67c3ec81-67c2-4da9-82d6-98c14b4e580a","system_id":"levelo_inurba_marseille","lat":43.30304,"lon":5.368987,"is_reserved":false,"is_disabled":false,"rental_uris":{"android":"levelo://app?vid=67c3ec81-67c2-4da9-82d6-98c14b4e580a","ios":"levelo://app?vid=67c3ec81-67c2-4da9-82d6-98c14b4e580a"},"vehicle_type_id":"4","last_reported":1703768895,"current_range_meters":26400,"station_id":"ce4bgqh2rcd13ifvqc5g","pricing_plan_id":"free"},{"bike_id":"875043e2-a7ee-494c-b485-5bef3d128e3c","system_id":"levelo_inurba_marseille","lat":43.303046,"lon":5.368981,"is_reserved":false,"is_disabled":false,"rental_uris":{"android":"levelo://app?vid=875043e2-a7ee-494c-b485-5bef3d128e3c","ios":"levelo://app?vid=875043e2-a7ee-494c-b485-5bef3d128e3c"},"vehicle_type_id":"4","last_reported":1703768895,"current_range_meters":23600,"station_id":"ce4bgqh2rcd13ifvqc5g","pricing_plan_id":"free"},{"bike_id":"e165ae47-252c-449a-a12b-17dfbff0f375","system_id":"levelo_inurba_marseille","lat":43.301939,"lon":5.366286,"is_reserved":false,"is_disabled":false,"rental_uris":{"android":"levelo://app?vid=e165ae47-252c-449a-a12b-17dfbff0f375","ios":"levelo://app?vid=e165ae47-252c-449a-a12b-17dfbff0f375"},"vehicle_type_id":"4","last_reported":1703768895,"current_range_meters":13600,"station_id":"ce4bgrh2rcd13ifvqc8g","pricing_plan_id":"free"},{"bike_id":"d550bcc2-e88e-42b1-b047-4303086f3b10","system_id":"levelo_inurba_marseille","lat":43.301939,"lon":5.366286,"is_reserved":false,"is_disabled":false,"rental_uris":{"android":"levelo://app?vid=d550bcc2-e88e-42b1-b047-4303086f3b10","ios":"levelo://app?vid=d550bcc2-e88e-42b1-b047-4303086f3b10"},"vehicle_type_id":"4","last_reported":1703768895,"current_range_meters":22400,"station_id":"ce4bgrh2rcd13ifvqc8g","pricing_plan_id":"free"},{"bike_id":"a8a0b2da-90fe-45ae-9e55-99ab66d61c8c","system_id":"levelo_inurba_marseille","lat":43.301939,"lon":5.366286,"is_reserved":false,"is_disabled":false,"rental_uris":{"android":"levelo://app?vid=a8a0b2da-90fe-45ae-9e55-99ab66d61c8c","ios":"levelo://app?vid=a8a0b2da-90fe-45ae-9e55-99ab66d61c8c"},"vehicle_type_id":"4","last_reported":1703768895,"current_range_meters":27600,"station_id":"ce4bgrh2rcd13ifvqc8g","pricing_plan_id":"free"},{"bike_id":"0d00271d-bfc5-4de3-89d9-b4c62c90c67b","system_id":"levelo_inurba_marseille","lat":43.308012,"lon":5.381511,"is_reserved":false,"is_disabled":false,"rental_uris":{"android":"levelo://app?vid=0d00271d-bfc5-4de3-89d9-b4c62c90c67b","ios":"levelo://app?vid=0d00271d-bfc5-4de3-89d9-b4c62c90c67b"},"vehicle_type_id":"4","last_reported":1703768895,"current_range_meters":26400,"station_id":"ce4bgt12rcd13ifvqce0","pricing_plan_id":"free"},{"bike_id":"c17f1af1-3d6a-4ae5-b6f7-b3a897bb17ea","system_id":"levelo_inurba_marseille","lat":43.304606,"lon":5.379026,"is_reserved":false,"is_disabled":false,"rental_uris":{"android":"levelo://app?vid=c17f1af1-3d6a-4ae5-b6f7-b3a897bb17ea","ios":"levelo://app?vid=c17f1af1-3d6a-4ae5-b6f7-b3a897bb17ea"},"vehicle_type_id":"4","last_reported":1703768895,"current_range_meters":22800,"station_id":"ce4bgup2rcd13ifvqcn0","pricing_plan_id":"free"},{"bike_id":"efca9db9-34f9-46aa-af91-84efec3aca93","system_id":"levelo_inurba_marseille","lat":43.304606,"lon":5.379026,"is_reserved":false,"is_disabled":false,"rental_uris":{"android":"levelo://app?vid=efca9db9-34f9-46aa-af91-84efec3aca93","ios":"levelo://app?vid=efca9db9-34f9-46aa-af91-84efec3aca93"},"vehicle_type_id":"4","last_reported":1703768895,"current_range_meters":31600,"station_id":"ce4bgup2rcd13ifvqcn0","pricing_plan_id":"free"},{"bike_id":"5810a51d-900e-4f21-b011-504985336ccb","system_id":"levelo_inurba_marseille","lat":43.324771,"lon":5.36557,"is_reserved":false,"is_disabled":false,"rental_uris":{"android":"levelo://app?vid=5810a51d-900e-4f21-b011-504985336ccb","ios":"levelo://app?vid=5810a51d-900e-4f21-b011-504985336ccb"},"vehicle_type_id":"4","last_reported":1703768895,"current_range_meters":22400,"station_id":"ce4bhs12rcd13ifvqhvg","pricing_plan_id":"free"},{"bike_id":"65a5bc48-fdb7-4909-98ac-a83f0d971e40","system_id":"levelo_inurba_marseille","lat":43.324771,"lon":5.36557,"is_reserved":false,"is_disabled":false,"rental_uris":{"android":"levelo://app?vid=65a5bc48-fdb7-4909-98ac-a83f0d971e40","ios":"levelo://app?vid=65a5bc48-fdb7-4909-98ac-a83f0d971e40"},"vehicle_type_id":"4","last_reported":1703768895,"current_range_meters":16000,"station_id":"ce4bhs12rcd13ifvqhvg","pricing_plan_id":"free"},{"bike_id":"8b2415c6-fbb4-4507-b756-5044ee1ffa8f","system_id":"levelo_inurba_marseille","lat":43.302784,"lon":5.377158,"is_reserved":false,"is_disabled":false,"rental_uris":{"android":"levelo://app?vid=8b2415c6-fbb4-4507-b756-5044ee1ffa8f","ios":"levelo://app?vid=8b2415c6-fbb4-4507-b756-5044ee1ffa8f"},"vehicle_type_id":"4","last_reported":1703768895,"current_range_meters":20400,"station_id":"ce4bguh2rcd13ifvqcj0","pricing_plan_id":"free"},{"bike_id":"eb75f652-373e-4726-9e33-c05a085e4a2d","system_id":"levelo_inurba_marseille","lat":43.301453,"lon":5.37416,"is_reserved":false,"is_disabled":false,"rental_uris":{"android":"levelo://app?vid=eb75f652-373e-4726-9e33-c05a085e4a2d","ios":"levelo://app?vid=eb75f652-373e-4726-9e33-c05a085e4a2d"},"vehicle_type_id":"4","last_reported":1703768895,"current_range_meters":5600,"station_id":"","pricing_plan_id":"free"},{"bike_id":"88f16620-5cc0-44a5-9f0b-4f40cad1b43b","system_id":"levelo_inurba_marseille","lat":43.301429,"lon":5.37413,"is_reserved":false,"is_disabled":false,"rental_uris":{"android":"levelo://app?vid=88f16620-5cc0-44a5-9f0b-4f40cad1b43b","ios":"levelo://app?vid=88f16620-5cc0-44a5-9f0b-4f40cad1b43b"},"vehicle_type_id":"4","last_reported":1703768895,"current_range_meters":28800,"station_id":"ce4bgs92rcd13ifvqcc0","pricing_plan_id":"free"},{"bike_id":"b142e925-c295-43ac-bd4d-906b4f93788a","system_id":"levelo_inurba_marseille","lat":43.30143,"lon":5.37413,"is_reserved":false,"is_disabled":false,"rental_uris":{"android":"levelo://app?vid=b142e925-c295-43ac-bd4d-906b4f93788a","ios":"levelo://app?vid=b142e925-c295-43ac-bd4d-906b4f93788a"},"vehicle_type_id":"4","last_reported":1703768895,"current_range_meters":31200,"station_id":"ce4bgs92rcd13ifvqcc0","pricing_plan_id":"free"},{"bike_id":"365d838c-9455-4f68-9938-d4190999e0b2","system_id":"levelo_inurba_marseille","lat":43.30143,"lon":5.37413,"is_reserved":false,"is_disabled":false,"rental_uris":{"android":"levelo://app?vid=365d838c-9455-4f68-9938-d4190999e0b2","ios":"levelo://app?vid=365d838c-9455-4f68-9938-d4190999e0b2"},"vehicle_type_id":"4","last_reported":1703768895,"current_range_meters":28400,"station_id":"ce4bgs92rcd13ifvqcc0","pricing_plan_id":"free"},{"bike_id":"a94ae358-d8e9-44a4-8ecb-635ade214bcd","system_id":"levelo_inurba_marseille","lat":43.311722,"lon":5.387247,"is_reserved":false,"is_disabled":false,"rental_uris":{"android":"levelo://app?vid=a94ae358-d8e9-44a4-8ecb-635ade214bcd","ios":"levelo://app?vid=a94ae358-d8e9-44a4-8ecb-635ade214bcd"},"vehicle_type_id":"4","last_reported":1703768895,"current_range_meters":26400,"station_id":"ce4bgv12rcd13ifvqcp0","pricing_plan_id":"free"},{"bike_id":"d798eee3-c9cd-4e09-a137-162e27e1625e","system_id":"levelo_inurba_marseille","lat":43.320041,"lon":5.381614,"is_reserved":false,"is_disabled":false,"rental_uris":{"android":"levelo://app?vid=d798eee3-c9cd-4e09-a137-162e27e1625e","ios":"levelo://app?vid=d798eee3-c9cd-4e09-a137-162e27e1625e"},"vehicle_type_id":"4","last_reported":1703768895,"current_range_meters":26000,"station_id":"ce4bhr12rcd13ifvqhpg","pricing_plan_id":"free"},{"bike_id":"ce4bcbf0-51cc-4ade-8cd7-e29f58c5cbe5","system_id":"levelo_inurba_marseille","lat":43.299724,"lon":5.371829,"is_reserved":false,"is_disabled":false,"rental_uris":{"android":"levelo://app?vid=ce4bcbf0-51cc-4ade-8cd7-e29f58c5cbe5","ios":"levelo://app?vid=ce4bcbf0-51cc-4ade-8cd7-e29f58c5cbe5"},"vehicle_type_id":"4","last_reported":1703768895,"current_range_meters":26800,"station_id":"ce4bgr92rcd13ifvqc7g","pricing_plan_id":"free"},{"bike_id":"92992bb6-d5c3-4b8e-8439-711388763210","system_id":"levelo_inurba_marseille","lat":43.298433,"lon":5.362774,"is_reserved":false,"is_disabled":false,"rental_uris":{"android":"levelo://app?vid=92992bb6-d5c3-4b8e-8439-711388763210","ios":"levelo://app?vid=92992bb6-d5c3-4b8e-8439-711388763210"},"vehicle_type_id":"4","last_reported":1703768895,"current_range_meters":28000,"station_id":"ce4bgpp2rcd13ifvqc3g","pricing_plan_id":"free"},{"bike_id":"ec92cc99-4328-4d02-a99d-38d1310566de","system_id":"levelo_inurba_marseille","lat":43.298433,"lon":5.362774,"is_reserved":false,"is_disabled":false,"rental_uris":{"android":"levelo://app?vid=ec92cc99-4328-4d02-a99d-38d1310566de","ios":"levelo://app?vid=ec92cc99-4328-4d02-a99d-38d1310566de"},"vehicle_type_id":"4","last_reported":1703768895,"current_range_meters":28800,"station_id":"ce4bgpp2rcd13ifvqc3g","pricing_plan_id":"free"},{"bike_id":"6b8f72aa-66ba-419d-be3a-a4718a21c5d1","system_id":"levelo_inurba_marseille","lat":43.298433,"lon":5.362774,"is_reserved":false,"is_disabled":false,"rental_uris":{"android":"levelo://app?vid=6b8f72aa-66ba-419d-be3a-a4718a21c5d1","ios":"levelo://app?vid=6b8f72aa-66ba-419d-be3a-a4718a21c5d1"},"vehicle_type_id":"4","last_reported":1703768895,"current_range_meters":24400,"station_id":"ce4bgpp2rcd13ifvqc3g","pricing_plan_id":"free"},{"bike_id":"efe44b84-aa74-49b6-88b0-d6fdf704a8f4","system_id":"levelo_inurba_marseille","lat":43.298433,"lon":5.362774,"is_reserved":false,"is_disabled":false,"rental_uris":{"android":"levelo://app?vid=efe44b84-aa74-49b6-88b0-d6fdf704a8f4","ios":"levelo://app?vid=efe44b84-aa74-49b6-88b0-d6fdf704a8f4"},"vehicle_type_id":"4","last_reported":1703768895,"current_range_meters":30400,"station_id":"ce4bgpp2rcd13ifvqc3g","pricing_plan_id":"free"},{"bike_id":"d535b341-a5bc-4960-8bd2-e8ecbd172c54","system_id":"levelo_inurba_marseille","lat":43.299243,"lon":5.37481,"is_reserved":false,"is_disabled":false,"rental_uris":{"android":"levelo://app?vid=d535b341-a5bc-4960-8bd2-e8ecbd172c54","ios":"levelo://app?vid=d535b341-a5bc-4960-8bd2-e8ecbd172c54"},"vehicle_type_id":"4","last_reported":1703768895,"current_range_meters":20400,"station_id":"ce4bgjh2rcd13ifvqbg0","pricing_plan_id":"free"},{"bike_id":"debad4d8-dd30-46e5-8f23-6a77f7d93b5f","system_id":"levelo_inurba_marseille","lat":43.299243,"lon":5.37481,"is_reserved":false,"is_disabled":false,"rental_uris":{"android":"levelo://app?vid=debad4d8-dd30-46e5-8f23-6a77f7d93b5f","ios":"levelo://app?vid=debad4d8-dd30-46e5-8f23-6a77f7d93b5f"},"vehicle_type_id":"4","last_reported":1703768895,"current_range_meters":3200,"station_id":"ce4bgjh2rcd13ifvqbg0","pricing_plan_id":"free"},{"bike_id":"7119845d-00aa-4d9f-be8c-fc97d41f1380","system_id":"levelo_inurba_marseille","lat":43.32633,"lon":5.374881,"is_reserved":false,"is_disabled":false,"rental_uris":{"android":"levelo://app?vid=7119845d-00aa-4d9f-be8c-fc97d41f1380","ios":"levelo://app?vid=7119845d-00aa-4d9f-be8c-fc97d41f1380"},"vehicle_type_id":"4","last_reported":1703768895,"current_range_meters":21200,"station_id":"","pricing_plan_id":"free"},{"bike_id":"ba739e7a-963b-4871-8659-4ea8fc63b087","system_id":"levelo_inurba_marseille","lat":43.297774,"lon":5.370875,"is_reserved":false,"is_disabled":false,"rental_uris":{"android":"levelo://app?vid=ba739e7a-963b-4871-8659-4ea8fc63b087","ios":"levelo://app?vid=ba739e7a-963b-4871-8659-4ea8fc63b087"},"vehicle_type_id":"4","last_reported":1703768895,"current_range_meters":20400,"station_id":"ce4bgop2rcd13ifvqc1g","pricing_plan_id":"free"},{"bike_id":"b80d7642-fe96-4085-a572-f27716682acd","system_id":"levelo_inurba_marseille","lat":43.322872,"lon":5.382756,"is_reserved":false,"is_disabled":false,"rental_uris":{"android":"levelo://app?vid=b80d7642-fe96-4085-a572-f27716682acd","ios":"levelo://app?vid=b80d7642-fe96-4085-a572-f27716682acd"},"vehicle_type_id":"4","last_reported":1703768895,"current_range_meters":14800,"station_id":"ce4bhr12rcd13ifvqhqg","pricing_plan_id":"free"},{"bike_id":"6d1471f8-bce9-466e-a589-4a37d3811250","system_id":"levelo_inurba_marseille","lat":43.322872,"lon":5.382756,"is_reserved":false,"is_disabled":false,"rental_uris":{"android":"levelo://app?vid=6d1471f8-bce9-466e-a589-4a37d3811250","ios":"levelo://app?vid=6d1471f8-bce9-466e-a589-4a37d3811250"},"vehicle_type_id":"4","last_reported":1703768895,"current_range_meters":31200,"station_id":"ce4bhr12rcd13ifvqhqg","pricing_plan_id":"free"},{"bike_id":"cada3c22-f541-4194-9be2-fadc3fe9e187","system_id":"levelo_inurba_marseille","lat":43.322872,"lon":5.382756,"is_reserved":false,"is_disabled":false,"rental_uris":{"android":"levelo://app?vid=cada3c22-f541-4194-9be2-fadc3fe9e187","ios":"levelo://app?vid=cada3c22-f541-4194-9be2-fadc3fe9e187"},"vehicle_type_id":"4","last_reported":1703768895,"current_range_meters":17600,"station_id":"ce4bhr12rcd13ifvqhqg","pricing_plan_id":"free"},{"bike_id":"63961824-470b-4769-af8f-257f972165a7","system_id":"levelo_inurba_marseille","lat":43.32291,"lon":5.38274,"is_reserved":false,"is_disabled":false,"rental_uris":{"android":"levelo://app?vid=63961824-470b-4769-af8f-257f972165a7","ios":"levelo://app?vid=63961824-470b-4769-af8f-257f972165a7"},"vehicle_type_id":"4","last_reported":1703768895,"current_range_meters":7600,"station_id":"ce4bhr12rcd13ifvqhqg","pricing_plan_id":"free"},{"bike_id":"3270f28d-7b09-46cb-ba43-f40752fc3385","system_id":"levelo_inurba_marseille","lat":43.322872,"lon":5.382756,"is_reserved":false,"is_disabled":false,"rental_uris":{"android":"levelo://app?vid=3270f28d-7b09-46cb-ba43-f40752fc3385","ios":"levelo://app?vid=3270f28d-7b09-46cb-ba43-f40752fc3385"},"vehicle_type_id":"4","last_reported":1703768895,"current_range_meters":30800,"station_id":"ce4bhr12rcd13ifvqhqg","pricing_plan_id":"free"},{"bike_id":"5c89eee7-6e83-42b4-bd81-efdcf68f6666","system_id":"levelo_inurba_marseille","lat":43.328246,"lon":5.36683,"is_reserved":false,"is_disabled":false,"rental_uris":{"android":"levelo://app?vid=5c89eee7-6e83-42b4-bd81-efdcf68f6666","ios":"levelo://app?vid=5c89eee7-6e83-42b4-bd81-efdcf68f6666"},"vehicle_type_id":"4","last_reported":1703768895,"current_range_meters":28000,"station_id":"ce4bhs92rcd13ifvqi0g","pricing_plan_id":"free"},{"bike_id":"6516e11b-ff9a-4979-b85a-a42584b5c933","system_id":"levelo_inurba_marseille","lat":43.32825,"lon":5.36682,"is_reserved":false,"is_disabled":false,"rental_uris":{"android":"levelo://app?vid=6516e11b-ff9a-4979-b85a-a42584b5c933","ios":"levelo://app?vid=6516e11b-ff9a-4979-b85a-a42584b5c933"},"vehicle_type_id":"4","last_reported":1703768895,"current_range_meters":24000,"station_id":"ce4bhs92rcd13ifvqi0g","pricing_plan_id":"free"},{"bike_id":"639980c6-9f73-401a-b944-961e7482aee9","system_id":"levelo_inurba_marseille","lat":43.32826,"lon":5.36682,"is_reserved":false,"is_disabled":false,"rental_uris":{"android":"levelo://app?vid=639980c6-9f73-401a-b944-961e7482aee9","ios":"levelo://app?vid=639980c6-9f73-401a-b944-961e7482aee9"},"vehicle_type_id":"4","last_reported":1703768895,"current_range_meters":6800,"station_id":"ce4bhs92rcd13ifvqi0g","pricing_plan_id":"free"},{"bike_id":"1ea82e61-37ea-4b15-a6ef-01d29683b9fd","system_id":"levelo_inurba_marseille","lat":43.32827,"lon":5.36674,"is_reserved":false,"is_disabled":false,"rental_uris":{"android":"levelo://app?vid=1ea82e61-37ea-4b15-a6ef-01d29683b9fd","ios":"levelo://app?vid=1ea82e61-37ea-4b15-a6ef-01d29683b9fd"},"vehicle_type_id":"4","last_reported":1703768895,"current_range_meters":20800,"station_id":"ce4bhs92rcd13ifvqi0g","pricing_plan_id":"free"},{"bike_id":"ddee1e46-a8ad-4997-9dc5-136753741280","system_id":"levelo_inurba_marseille","lat":43.32828,"lon":5.36684,"is_reserved":false,"is_disabled":false,"rental_uris":{"android":"levelo://app?vid=ddee1e46-a8ad-4997-9dc5-136753741280","ios":"levelo://app?vid=ddee1e46-a8ad-4997-9dc5-136753741280"},"vehicle_type_id":"4","last_reported":1703768895,"current_range_meters":26400,"station_id":"ce4bhs92rcd13ifvqi0g","pricing_plan_id":"free"},{"bike_id":"a677cd10-a09b-4b2e-bffd-45b05d2c9229","system_id":"levelo_inurba_marseille","lat":43.32828,"lon":5.36679,"is_reserved":false,"is_disabled":false,"rental_uris":{"android":"levelo://app?vid=a677cd10-a09b-4b2e-bffd-45b05d2c9229","ios":"levelo://app?vid=a677cd10-a09b-4b2e-bffd-45b05d2c9229"},"vehicle_type_id":"4","last_reported":1703768895,"current_range_meters":25600,"station_id":"ce4bhs92rcd13ifvqi0g","pricing_plan_id":"free"},{"bike_id":"51714c4a-3132-4951-88ec-80e85fa125e8","system_id":"levelo_inurba_marseille","lat":43.328284,"lon":5.36684,"is_reserved":false,"is_disabled":false,"rental_uris":{"android":"levelo://app?vid=51714c4a-3132-4951-88ec-80e85fa125e8","ios":"levelo://app?vid=51714c4a-3132-4951-88ec-80e85fa125e8"},"vehicle_type_id":"4","last_reported":1703768895,"current_range_meters":19200,"station_id":"ce4bhs92rcd13ifvqi0g","pricing_plan_id":"free"},{"bike_id":"b30b3d1b-ef61-4776-bd7b-61c34fd8cc81","system_id":"levelo_inurba_marseille","lat":43.328286,"lon":5.366856,"is_reserved":false,"is_disabled":false,"rental_uris":{"android":"levelo://app?vid=b30b3d1b-ef61-4776-bd7b-61c34fd8cc81","ios":"levelo://app?vid=b30b3d1b-ef61-4776-bd7b-61c34fd8cc81"},"vehicle_type_id":"4","last_reported":1703768895,"current_range_meters":18800,"station_id":"ce4bhs92rcd13ifvqi0g","pricing_plan_id":"free"},{"bike_id":"de708f00-7118-4d7c-9021-d7dcbd798473","system_id":"levelo_inurba_marseille","lat":43.328371,"lon":5.366909,"is_reserved":false,"is_disabled":false,"rental_uris":{"android":"levelo://app?vid=de708f00-7118-4d7c-9021-d7dcbd798473","ios":"levelo://app?vid=de708f00-7118-4d7c-9021-d7dcbd798473"},"vehicle_type_id":"4","last_reported":1703768895,"current_range_meters":16400,"station_id":"ce4bhs92rcd13ifvqi0g","pricing_plan_id":"free"},{"bike_id":"eb5d14f1-3ff6-466a-b73b-4ba7e2174d3d","system_id":"levelo_inurba_marseille","lat":43.3283,"lon":5.36682,"is_reserved":false,"is_disabled":false,"rental_uris":{"android":"levelo://app?vid=eb5d14f1-3ff6-466a-b73b-4ba7e2174d3d","ios":"levelo://app?vid=eb5d14f1-3ff6-466a-b73b-4ba7e2174d3d"},"vehicle_type_id":"4","last_reported":1703768895,"current_range_meters":10000,"station_id":"ce4bhs92rcd13ifvqi0g","pricing_plan_id":"free"},{"bike_id":"904f83aa-e9ab-401d-84c1-9edfed82b884","system_id":"levelo_inurba_marseille","lat":43.328371,"lon":5.366912,"is_reserved":false,"is_disabled":false,"rental_uris":{"android":"levelo://app?vid=904f83aa-e9ab-401d-84c1-9edfed82b884","ios":"levelo://app?vid=904f83aa-e9ab-401d-84c1-9edfed82b884"},"vehicle_type_id":"4","last_reported":1703768895,"current_range_meters":10000,"station_id":"ce4bhs92rcd13ifvqi0g","pricing_plan_id":"free"},{"bike_id":"b33e79d7-85bd-413c-801b-bcd1df69d847","system_id":"levelo_inurba_marseille","lat":43.32831,"lon":5.36678,"is_reserved":false,"is_disabled":false,"rental_uris":{"android":"levelo://app?vid=b33e79d7-85bd-413c-801b-bcd1df69d847","ios":"levelo://app?vid=b33e79d7-85bd-413c-801b-bcd1df69d847"},"vehicle_type_id":"4","last_reported":1703768895,"current_range_meters":17200,"station_id":"ce4bhs92rcd13ifvqi0g","pricing_plan_id":"free"},{"bike_id":"ea7074d7-b7c9-4941-82c2-dff391bae9cb","system_id":"levelo_inurba_marseille","lat":43.32831,"lon":5.36675,"is_reserved":false,"is_disabled":false,"rental_uris":{"android":"levelo://app?vid=ea7074d7-b7c9-4941-82c2-dff391bae9cb","ios":"levelo://app?vid=ea7074d7-b7c9-4941-82c2-dff391bae9cb"},"vehicle_type_id":"4","last_reported":1703768895,"current_range_meters":15200,"station_id":"ce4bhs92rcd13ifvqi0g","pricing_plan_id":"free"},{"bike_id":"a448ca86-2b35-41e1-89c4-32a99bab0563","system_id":"levelo_inurba_marseille","lat":43.328371,"lon":5.366912,"is_reserved":false,"is_disabled":false,"rental_uris":{"android":"levelo://app?vid=a448ca86-2b35-41e1-89c4-32a99bab0563","ios":"levelo://app?vid=a448ca86-2b35-41e1-89c4-32a99bab0563"},"vehicle_type_id":"4","last_reported":1703768895,"current_range_meters":24000,"station_id":"ce4bhs92rcd13ifvqi0g","pricing_plan_id":"free"},{"bike_id":"6f67326a-1664-406f-9978-902e013e2357","system_id":"levelo_inurba_marseille","lat":43.32832,"lon":5.36679,"is_reserved":false,"is_disabled":false,"rental_uris":{"android":"levelo://app?vid=6f67326a-1664-406f-9978-902e013e2357","ios":"levelo://app?vid=6f67326a-1664-406f-9978-902e013e2357"},"vehicle_type_id":"4","last_reported":1703768895,"current_range_meters":23600,"station_id":"ce4bhs92rcd13ifvqi0g","pricing_plan_id":"free"},{"bike_id":"59f2c11b-a230-4925-839e-bdb370c75a48","system_id":"levelo_inurba_marseille","lat":43.2968,"lon":5.37291,"is_reserved":false,"is_disabled":false,"rental_uris":{"android":"levelo://app?vid=59f2c11b-a230-4925-839e-bdb370c75a48","ios":"levelo://app?vid=59f2c11b-a230-4925-839e-bdb370c75a48"},"vehicle_type_id":"4","last_reported":1703768895,"current_range_meters":31200,"station_id":"ce4bgk12rcd13ifvqbj0","pricing_plan_id":"free"},{"bike_id":"921b424d-ad0d-4c7a-9d74-66e3a49bfa19","system_id":"levelo_inurba_marseille","lat":43.32934,"lon":5.36612,"is_reserved":false,"is_disabled":false,"rental_uris":{"android":"levelo://app?vid=921b424d-ad0d-4c7a-9d74-66e3a49bfa19","ios":"levelo://app?vid=921b424d-ad0d-4c7a-9d74-66e3a49bfa19"},"vehicle_type_id":"4","last_reported":1703768895,"current_range_meters":13600,"station_id":"","pricing_plan_id":"free"},{"bike_id":"10409f74-ac5d-49b7-b471-83ee94a1cfc9","system_id":"levelo_inurba_marseille","lat":43.2968,"lon":5.37291,"is_reserved":false,"is_disabled":false,"rental_uris":{"android":"levelo://app?vid=10409f74-ac5d-49b7-b471-83ee94a1cfc9","ios":"levelo://app?vid=10409f74-ac5d-49b7-b471-83ee94a1cfc9"},"vehicle_type_id":"4","last_reported":1703768895,"current_range_meters":27600,"station_id":"ce4bgk12rcd13ifvqbj0","pricing_plan_id":"free"},{"bike_id":"4394c1bb-dd17-48a3-9f23-64b06876ff55","system_id":"levelo_inurba_marseille","lat":43.29573,"lon":5.367355,"is_reserved":false,"is_disabled":false,"rental_uris":{"android":"levelo://app?vid=4394c1bb-dd17-48a3-9f23-64b06876ff55","ios":"levelo://app?vid=4394c1bb-dd17-48a3-9f23-64b06876ff55"},"vehicle_type_id":"4","last_reported":1703768895,"current_range_meters":30000,"station_id":"ce4bgph2rcd13ifvqc2g","pricing_plan_id":"free"},{"bike_id":"3e5a2a2b-2ee5-4de5-8e61-35198a6e4521","system_id":"levelo_inurba_marseille","lat":43.29573,"lon":5.367355,"is_reserved":false,"is_disabled":false,"rental_uris":{"android":"levelo://app?vid=3e5a2a2b-2ee5-4de5-8e61-35198a6e4521","ios":"levelo://app?vid=3e5a2a2b-2ee5-4de5-8e61-35198a6e4521"},"vehicle_type_id":"4","last_reported":1703768895,"current_range_meters":31200,"station_id":"ce4bgph2rcd13ifvqc2g","pricing_plan_id":"free"},{"bike_id":"b4ae8d21-3d52-4b3e-b058-c02e87467eb4","system_id":"levelo_inurba_marseille","lat":43.299028,"lon":5.381509,"is_reserved":false,"is_disabled":false,"rental_uris":{"android":"levelo://app?vid=b4ae8d21-3d52-4b3e-b058-c02e87467eb4","ios":"levelo://app?vid=b4ae8d21-3d52-4b3e-b058-c02e87467eb4"},"vehicle_type_id":"4","last_reported":1703768895,"current_range_meters":30000,"station_id":"ce4bgj12rcd13ifvqbc0","pricing_plan_id":"free"},{"bike_id":"f506369c-54c0-4dfa-a5ad-e0ec8519cd1d","system_id":"levelo_inurba_marseille","lat":43.298037,"lon":5.381066,"is_reserved":false,"is_disabled":false,"rental_uris":{"android":"levelo://app?vid=f506369c-54c0-4dfa-a5ad-e0ec8519cd1d","ios":"levelo://app?vid=f506369c-54c0-4dfa-a5ad-e0ec8519cd1d"},"vehicle_type_id":"4","last_reported":1703768895,"current_range_meters":28800,"station_id":"ce4bgip2rcd13ifvqbb0","pricing_plan_id":"free"},{"bike_id":"767c379a-924e-4ed6-987d-f8c4b75ced72","system_id":"levelo_inurba_marseille","lat":43.295748,"lon":5.37522,"is_reserved":false,"is_disabled":false,"rental_uris":{"android":"levelo://app?vid=767c379a-924e-4ed6-987d-f8c4b75ced72","ios":"levelo://app?vid=767c379a-924e-4ed6-987d-f8c4b75ced72"},"vehicle_type_id":"4","last_reported":1703768895,"current_range_meters":23200,"station_id":"ce4bgh92rcd13ifvqb50","pricing_plan_id":"free"},{"bike_id":"9dd5b2dc-0202-4290-a414-12ec960d8e80","system_id":"levelo_inurba_marseille","lat":43.30426,"lon":5.38896,"is_reserved":false,"is_disabled":false,"rental_uris":{"android":"levelo://app?vid=9dd5b2dc-0202-4290-a414-12ec960d8e80","ios":"levelo://app?vid=9dd5b2dc-0202-4290-a414-12ec960d8e80"},"vehicle_type_id":"4","last_reported":1703768895,"current_range_meters":24400,"station_id":"ce4bgk12rcd13ifvqbi0","pricing_plan_id":"free"},{"bike_id":"b11e5cd0-3198-4266-9a4c-da4e7a83a9ca","system_id":"levelo_inurba_marseille","lat":43.296263,"lon":5.377094,"is_reserved":false,"is_disabled":false,"rental_uris":{"android":"levelo://app?vid=b11e5cd0-3198-4266-9a4c-da4e7a83a9ca","ios":"levelo://app?vid=b11e5cd0-3198-4266-9a4c-da4e7a83a9ca"},"vehicle_type_id":"4","last_reported":1703768895,"current_range_meters":28400,"station_id":"ce4bgi92rcd13ifvqb90","pricing_plan_id":"free"},{"bike_id":"e6141b08-6129-4cbc-b3f2-238a27e4718a","system_id":"levelo_inurba_marseille","lat":43.299717,"lon":5.384845,"is_reserved":false,"is_disabled":false,"rental_uris":{"android":"levelo://app?vid=e6141b08-6129-4cbc-b3f2-238a27e4718a","ios":"levelo://app?vid=e6141b08-6129-4cbc-b3f2-238a27e4718a"},"vehicle_type_id":"4","last_reported":1703768895,"current_range_meters":14400,"station_id":"ce4bgj92rcd13ifvqbd0","pricing_plan_id":"free"},{"bike_id":"0f5740ce-e767-4b95-bf95-6fb5bc0a035f","system_id":"levelo_inurba_marseille","lat":43.299717,"lon":5.384845,"is_reserved":false,"is_disabled":false,"rental_uris":{"android":"levelo://app?vid=0f5740ce-e767-4b95-bf95-6fb5bc0a035f","ios":"levelo://app?vid=0f5740ce-e767-4b95-bf95-6fb5bc0a035f"},"vehicle_type_id":"4","last_reported":1703768895,"current_range_meters":19600,"station_id":"ce4bgj92rcd13ifvqbd0","pricing_plan_id":"free"},{"bike_id":"edc571ac-79f5-429a-89f8-86fa7ab8f6ba","system_id":"levelo_inurba_marseille","lat":43.32376,"lon":5.38938,"is_reserved":false,"is_disabled":false,"rental_uris":{"android":"levelo://app?vid=edc571ac-79f5-429a-89f8-86fa7ab8f6ba","ios":"levelo://app?vid=edc571ac-79f5-429a-89f8-86fa7ab8f6ba"},"vehicle_type_id":"4","last_reported":1703768895,"current_range_meters":18400,"station_id":"ce4bhqp2rcd13ifvqhog","pricing_plan_id":"free"},{"bike_id":"9d30113f-584f-4b16-9bcb-0c99e8b4abb7","system_id":"levelo_inurba_marseille","lat":43.293259,"lon":5.371586,"is_reserved":false,"is_disabled":false,"rental_uris":{"android":"levelo://app?vid=9d30113f-584f-4b16-9bcb-0c99e8b4abb7","ios":"levelo://app?vid=9d30113f-584f-4b16-9bcb-0c99e8b4abb7"},"vehicle_type_id":"4","last_reported":1703768895,"current_range_meters":22400,"station_id":"ce4bgh92rcd13ifvqb40","pricing_plan_id":"free"},{"bike_id":"e497c01b-5bb9-45b8-a23c-1f1c505cfedb","system_id":"levelo_inurba_marseille","lat":43.29305,"lon":5.37168,"is_reserved":false,"is_disabled":false,"rental_uris":{"android":"levelo://app?vid=e497c01b-5bb9-45b8-a23c-1f1c505cfedb","ios":"levelo://app?vid=e497c01b-5bb9-45b8-a23c-1f1c505cfedb"},"vehicle_type_id":"4","last_reported":1703768895,"current_range_meters":30400,"station_id":"ce4bgh92rcd13ifvqb40","pricing_plan_id":"free"},{"bike_id":"64f3fb52-664e-4a2c-ad5d-cdf51442a1a2","system_id":"levelo_inurba_marseille","lat":43.29272,"lon":5.36846,"is_reserved":false,"is_disabled":false,"rental_uris":{"android":"levelo://app?vid=64f3fb52-664e-4a2c-ad5d-cdf51442a1a2","ios":"levelo://app?vid=64f3fb52-664e-4a2c-ad5d-cdf51442a1a2"},"vehicle_type_id":"4","last_reported":1703768895,"current_range_meters":18000,"station_id":"ce4bhbp2rcd13ifvqesg","pricing_plan_id":"free"},{"bike_id":"b506df2b-9f74-438e-9775-960ef3a0c085","system_id":"levelo_inurba_marseille","lat":43.292749,"lon":5.368402,"is_reserved":false,"is_disabled":false,"rental_uris":{"android":"levelo://app?vid=b506df2b-9f74-438e-9775-960ef3a0c085","ios":"levelo://app?vid=b506df2b-9f74-438e-9775-960ef3a0c085"},"vehicle_type_id":"4","last_reported":1703768895,"current_range_meters":15600,"station_id":"ce4bhbp2rcd13ifvqesg","pricing_plan_id":"free"},{"bike_id":"01c3072f-f021-460f-a068-123f1c9ecdb0","system_id":"levelo_inurba_marseille","lat":43.305994,"lon":5.393687,"is_reserved":false,"is_disabled":false,"rental_uris":{"android":"levelo://app?vid=01c3072f-f021-460f-a068-123f1c9ecdb0","ios":"levelo://app?vid=01c3072f-f021-460f-a068-123f1c9ecdb0"},"vehicle_type_id":"4","last_reported":1703768895,"current_range_meters":16400,"station_id":"ce4bh0p2rcd13ifvqd80","pricing_plan_id":"free"},{"bike_id":"95804b1e-b56c-456c-abeb-19af6432b858","system_id":"levelo_inurba_marseille","lat":43.2936,"lon":5.37835,"is_reserved":false,"is_disabled":false,"rental_uris":{"android":"levelo://app?vid=95804b1e-b56c-456c-abeb-19af6432b858","ios":"levelo://app?vid=95804b1e-b56c-456c-abeb-19af6432b858"},"vehicle_type_id":"4","last_reported":1703768895,"current_range_meters":27200,"station_id":"ce4bgjh2rcd13ifvqbf0","pricing_plan_id":"free"},{"bike_id":"59efa4da-b689-4c3b-855b-5aa58a38f629","system_id":"levelo_inurba_marseille","lat":43.302992,"lon":5.392136,"is_reserved":false,"is_disabled":false,"rental_uris":{"android":"levelo://app?vid=59efa4da-b689-4c3b-855b-5aa58a38f629","ios":"levelo://app?vid=59efa4da-b689-4c3b-855b-5aa58a38f629"},"vehicle_type_id":"4","last_reported":1703768895,"current_range_meters":26800,"station_id":"ce4bgkh2rcd13ifvqbk0","pricing_plan_id":"free"},{"bike_id":"f069ebc3-bf92-4214-ad91-f924c3d281f5","system_id":"levelo_inurba_marseille","lat":43.2936,"lon":5.37835,"is_reserved":false,"is_disabled":false,"rental_uris":{"android":"levelo://app?vid=f069ebc3-bf92-4214-ad91-f924c3d281f5","ios":"levelo://app?vid=f069ebc3-bf92-4214-ad91-f924c3d281f5"},"vehicle_type_id":"4","last_reported":1703768895,"current_range_meters":18000,"station_id":"ce4bgjh2rcd13ifvqbf0","pricing_plan_id":"free"},{"bike_id":"3f3cbf6e-b816-442f-b047-5d7adb39ccfd","system_id":"levelo_inurba_marseille","lat":43.303002,"lon":5.392142,"is_reserved":false,"is_disabled":false,"rental_uris":{"android":"levelo://app?vid=3f3cbf6e-b816-442f-b047-5d7adb39ccfd","ios":"levelo://app?vid=3f3cbf6e-b816-442f-b047-5d7adb39ccfd"},"vehicle_type_id":"4","last_reported":1703768895,"current_range_meters":30000,"station_id":"ce4bgkh2rcd13ifvqbk0","pricing_plan_id":"free"},{"bike_id":"d8d1156c-7212-474e-8151-c4a1c264e07e","system_id":"levelo_inurba_marseille","lat":43.2936,"lon":5.37835,"is_reserved":false,"is_disabled":false,"rental_uris":{"android":"levelo://app?vid=d8d1156c-7212-474e-8151-c4a1c264e07e","ios":"levelo://app?vid=d8d1156c-7212-474e-8151-c4a1c264e07e"},"vehicle_type_id":"4","last_reported":1703768895,"current_range_meters":20000,"station_id":"ce4bgjh2rcd13ifvqbf0","pricing_plan_id":"free"},{"bike_id":"1e9867a2-0639-4c71-aa28-01c94f815bfa","system_id":"levelo_inurba_marseille","lat":43.292311,"lon":5.360731,"is_reserved":false,"is_disabled":false,"rental_uris":{"android":"levelo://app?vid=1e9867a2-0639-4c71-aa28-01c94f815bfa","ios":"levelo://app?vid=1e9867a2-0639-4c71-aa28-01c94f815bfa"},"vehicle_type_id":"4","last_reported":1703768895,"current_range_meters":22000,"station_id":"ce4bhbh2rcd13ifvqeqg","pricing_plan_id":"free"},{"bike_id":"d621cbd6-f80e-4d2f-b03f-0f4573ab89bc","system_id":"levelo_inurba_marseille","lat":43.30085,"lon":5.390856,"is_reserved":false,"is_disabled":false,"rental_uris":{"android":"levelo://app?vid=d621cbd6-f80e-4d2f-b03f-0f4573ab89bc","ios":"levelo://app?vid=d621cbd6-f80e-4d2f-b03f-0f4573ab89bc"},"vehicle_type_id":"4","last_reported":1703768895,"current_range_meters":23200,"station_id":"ce4bh192rcd13ifvqdb0","pricing_plan_id":"free"},{"bike_id":"743ae948-9016-4915-a693-e4388d89be48","system_id":"levelo_inurba_marseille","lat":43.291675,"lon":5.371583,"is_reserved":false,"is_disabled":false,"rental_uris":{"android":"levelo://app?vid=743ae948-9016-4915-a693-e4388d89be48","ios":"levelo://app?vid=743ae948-9016-4915-a693-e4388d89be48"},"vehicle_type_id":"4","last_reported":1703768895,"current_range_meters":31200,"station_id":"ce4bha92rcd13ifvqeh0","pricing_plan_id":"free"},{"bike_id":"dceb4274-56d5-4cd9-a3db-7d8cb896faa7","system_id":"levelo_inurba_marseille","lat":43.29263,"lon":5.37648,"is_reserved":false,"is_disabled":false,"rental_uris":{"android":"levelo://app?vid=dceb4274-56d5-4cd9-a3db-7d8cb896faa7","ios":"levelo://app?vid=dceb4274-56d5-4cd9-a3db-7d8cb896faa7"},"vehicle_type_id":"4","last_reported":1703768895,"current_range_meters":11600,"station_id":"","pricing_plan_id":"free"},{"bike_id":"86343b34-8e32-43a5-ad0d-278dbea1814c","system_id":"levelo_inurba_marseille","lat":43.292606,"lon":5.376416,"is_reserved":false,"is_disabled":false,"rental_uris":{"android":"levelo://app?vid=86343b34-8e32-43a5-ad0d-278dbea1814c","ios":"levelo://app?vid=86343b34-8e32-43a5-ad0d-278dbea1814c"},"vehicle_type_id":"4","last_reported":1703768895,"current_range_meters":10400,"station_id":"","pricing_plan_id":"free"},{"bike_id":"c22e4b95-cf7b-4ac4-8341-7f82e6f296d8","system_id":"levelo_inurba_marseille","lat":43.291675,"lon":5.371583,"is_reserved":false,"is_disabled":false,"rental_uris":{"android":"levelo://app?vid=c22e4b95-cf7b-4ac4-8341-7f82e6f296d8","ios":"levelo://app?vid=c22e4b95-cf7b-4ac4-8341-7f82e6f296d8"},"vehicle_type_id":"4","last_reported":1703768895,"current_range_meters":14400,"station_id":"ce4bha92rcd13ifvqeh0","pricing_plan_id":"free"},{"bike_id":"c90601bc-0c5c-4741-b561-1c8368b3d3d3","system_id":"levelo_inurba_marseille","lat":43.291675,"lon":5.371583,"is_reserved":false,"is_disabled":false,"rental_uris":{"android":"levelo://app?vid=c90601bc-0c5c-4741-b561-1c8368b3d3d3","ios":"levelo://app?vid=c90601bc-0c5c-4741-b561-1c8368b3d3d3"},"vehicle_type_id":"4","last_reported":1703768895,"current_range_meters":30000,"station_id":"ce4bha92rcd13ifvqeh0","pricing_plan_id":"free"},{"bike_id":"26f71cd7-f5e8-4c2a-9f8b-962ef80ad1bc","system_id":"levelo_inurba_marseille","lat":43.291675,"lon":5.371583,"is_reserved":false,"is_disabled":false,"rental_uris":{"android":"levelo://app?vid=26f71cd7-f5e8-4c2a-9f8b-962ef80ad1bc","ios":"levelo://app?vid=26f71cd7-f5e8-4c2a-9f8b-962ef80ad1bc"},"vehicle_type_id":"4","last_reported":1703768895,"current_range_meters":16800,"station_id":"ce4bha92rcd13ifvqeh0","pricing_plan_id":"free"},{"bike_id":"00fcaba3-30ef-4452-a34c-a3fd845f924c","system_id":"levelo_inurba_marseille","lat":43.29872,"lon":5.38903,"is_reserved":false,"is_disabled":false,"rental_uris":{"android":"levelo://app?vid=00fcaba3-30ef-4452-a34c-a3fd845f924c","ios":"levelo://app?vid=00fcaba3-30ef-4452-a34c-a3fd845f924c"},"vehicle_type_id":"4","last_reported":1703768895,"current_range_meters":29600,"station_id":"","pricing_plan_id":"free"},{"bike_id":"94d2eb92-0e95-4bff-8e08-d5e1aa9eb091","system_id":"levelo_inurba_marseille","lat":43.291675,"lon":5.371583,"is_reserved":false,"is_disabled":false,"rental_uris":{"android":"levelo://app?vid=94d2eb92-0e95-4bff-8e08-d5e1aa9eb091","ios":"levelo://app?vid=94d2eb92-0e95-4bff-8e08-d5e1aa9eb091"},"vehicle_type_id":"4","last_reported":1703768895,"current_range_meters":17600,"station_id":"ce4bha92rcd13ifvqeh0","pricing_plan_id":"free"},{"bike_id":"c2bea0dd-7b2c-4ff8-98a5-755eb5a61eb1","system_id":"levelo_inurba_marseille","lat":43.29874,"lon":5.38913,"is_reserved":false,"is_disabled":false,"rental_uris":{"android":"levelo://app?vid=c2bea0dd-7b2c-4ff8-98a5-755eb5a61eb1","ios":"levelo://app?vid=c2bea0dd-7b2c-4ff8-98a5-755eb5a61eb1"},"vehicle_type_id":"4","last_reported":1703768895,"current_range_meters":21200,"station_id":"","pricing_plan_id":"free"},{"bike_id":"da0eed94-9481-425f-983b-d7dcd05e44d7","system_id":"levelo_inurba_marseille","lat":43.29867,"lon":5.38918,"is_reserved":false,"is_disabled":false,"rental_uris":{"android":"levelo://app?vid=da0eed94-9481-425f-983b-d7dcd05e44d7","ios":"levelo://app?vid=da0eed94-9481-425f-983b-d7dcd05e44d7"},"vehicle_type_id":"4","last_reported":1703768895,"current_range_meters":13200,"station_id":"","pricing_plan_id":"free"},{"bike_id":"49bc057d-9e24-49e8-8abf-519fca206eab","system_id":"levelo_inurba_marseille","lat":43.313291,"lon":5.396838,"is_reserved":false,"is_disabled":false,"rental_uris":{"android":"levelo://app?vid=49bc057d-9e24-49e8-8abf-519fca206eab","ios":"levelo://app?vid=49bc057d-9e24-49e8-8abf-519fca206eab"},"vehicle_type_id":"4","last_reported":1703768895,"current_range_meters":27200,"station_id":"ce4bgvp2rcd13ifvqcu0","pricing_plan_id":"free"},{"bike_id":"3582cee9-44fc-48ac-909f-c5d6b5744fc3","system_id":"levelo_inurba_marseille","lat":43.309038,"lon":5.396546,"is_reserved":false,"is_disabled":false,"rental_uris":{"android":"levelo://app?vid=3582cee9-44fc-48ac-909f-c5d6b5744fc3","ios":"levelo://app?vid=3582cee9-44fc-48ac-909f-c5d6b5744fc3"},"vehicle_type_id":"4","last_reported":1703768895,"current_range_meters":22800,"station_id":"ce4bh012rcd13ifvqcv0","pricing_plan_id":"free"},{"bike_id":"63b4bcc0-7319-4898-9109-0e21b385b263","system_id":"levelo_inurba_marseille","lat":43.290779,"lon":5.371482,"is_reserved":false,"is_disabled":false,"rental_uris":{"android":"levelo://app?vid=63b4bcc0-7319-4898-9109-0e21b385b263","ios":"levelo://app?vid=63b4bcc0-7319-4898-9109-0e21b385b263"},"vehicle_type_id":"4","last_reported":1703768895,"current_range_meters":24000,"station_id":"ce4bh5p2rcd13ifvqe4g","pricing_plan_id":"free"},{"bike_id":"7ae2e869-c19d-4898-8584-64052c702162","system_id":"levelo_inurba_marseille","lat":43.30213,"lon":5.39472,"is_reserved":false,"is_disabled":false,"rental_uris":{"android":"levelo://app?vid=7ae2e869-c19d-4898-8584-64052c702162","ios":"levelo://app?vid=7ae2e869-c19d-4898-8584-64052c702162"},"vehicle_type_id":"4","last_reported":1703768895,"current_range_meters":22800,"station_id":"ce4bh0p2rcd13ifvqd70","pricing_plan_id":"free"},{"bike_id":"6bc88084-946c-4eeb-933d-09f0296b7d34","system_id":"levelo_inurba_marseille","lat":43.302008,"lon":5.394694,"is_reserved":false,"is_disabled":false,"rental_uris":{"android":"levelo://app?vid=6bc88084-946c-4eeb-933d-09f0296b7d34","ios":"levelo://app?vid=6bc88084-946c-4eeb-933d-09f0296b7d34"},"vehicle_type_id":"4","last_reported":1703768895,"current_range_meters":26000,"station_id":"ce4bh0p2rcd13ifvqd70","pricing_plan_id":"free"},{"bike_id":"2377edd0-f5ff-4da8-a0c3-e1e58678f0e6","system_id":"levelo_inurba_marseille","lat":43.290624,"lon":5.359245,"is_reserved":false,"is_disabled":false,"rental_uris":{"android":"levelo://app?vid=2377edd0-f5ff-4da8-a0c3-e1e58678f0e6","ios":"levelo://app?vid=2377edd0-f5ff-4da8-a0c3-e1e58678f0e6"},"vehicle_type_id":"4","last_reported":1703768895,"current_range_meters":29200,"station_id":"ce4bha92rcd13ifvqeg0","pricing_plan_id":"free"},{"bike_id":"fd975bba-1418-4661-985f-c09c2eee5ff0","system_id":"levelo_inurba_marseille","lat":43.290631,"lon":5.359244,"is_reserved":false,"is_disabled":false,"rental_uris":{"android":"levelo://app?vid=fd975bba-1418-4661-985f-c09c2eee5ff0","ios":"levelo://app?vid=fd975bba-1418-4661-985f-c09c2eee5ff0"},"vehicle_type_id":"4","last_reported":1703768895,"current_range_meters":26400,"station_id":"ce4bha92rcd13ifvqeg0","pricing_plan_id":"free"},{"bike_id":"deb6a5ec-c047-4e79-94dc-ff9d3c8ef71f","system_id":"levelo_inurba_marseille","lat":43.290631,"lon":5.359244,"is_reserved":false,"is_disabled":false,"rental_uris":{"android":"levelo://app?vid=deb6a5ec-c047-4e79-94dc-ff9d3c8ef71f","ios":"levelo://app?vid=deb6a5ec-c047-4e79-94dc-ff9d3c8ef71f"},"vehicle_type_id":"4","last_reported":1703768895,"current_range_meters":31200,"station_id":"ce4bha92rcd13ifvqeg0","pricing_plan_id":"free"},{"bike_id":"8c5def72-58eb-4ced-8f21-556605a2775e","system_id":"levelo_inurba_marseille","lat":43.290327,"lon":5.375711,"is_reserved":false,"is_disabled":false,"rental_uris":{"android":"levelo://app?vid=8c5def72-58eb-4ced-8f21-556605a2775e","ios":"levelo://app?vid=8c5def72-58eb-4ced-8f21-556605a2775e"},"vehicle_type_id":"4","last_reported":1703768895,"current_range_meters":20800,"station_id":"ce4bh692rcd13ifvqe90","pricing_plan_id":"free"},{"bike_id":"50334a21-bf1b-4597-b2bc-7d0dabdf6b57","system_id":"levelo_inurba_marseille","lat":43.29417,"lon":5.38623,"is_reserved":false,"is_disabled":false,"rental_uris":{"android":"levelo://app?vid=50334a21-bf1b-4597-b2bc-7d0dabdf6b57","ios":"levelo://app?vid=50334a21-bf1b-4597-b2bc-7d0dabdf6b57"},"vehicle_type_id":"4","last_reported":1703768895,"current_range_meters":22000,"station_id":"ce4bh2h2rcd13ifvqdh0","pricing_plan_id":"free"},{"bike_id":"3a411bc3-e086-4dd4-8b6d-6d082cb40f0f","system_id":"levelo_inurba_marseille","lat":43.290327,"lon":5.375711,"is_reserved":false,"is_disabled":false,"rental_uris":{"android":"levelo://app?vid=3a411bc3-e086-4dd4-8b6d-6d082cb40f0f","ios":"levelo://app?vid=3a411bc3-e086-4dd4-8b6d-6d082cb40f0f"},"vehicle_type_id":"4","last_reported":1703768895,"current_range_meters":27200,"station_id":"ce4bh692rcd13ifvqe90","pricing_plan_id":"free"},{"bike_id":"24fd383a-7000-44eb-ae8b-3b141f0c1d58","system_id":"levelo_inurba_marseille","lat":43.290327,"lon":5.375711,"is_reserved":false,"is_disabled":false,"rental_uris":{"android":"levelo://app?vid=24fd383a-7000-44eb-ae8b-3b141f0c1d58","ios":"levelo://app?vid=24fd383a-7000-44eb-ae8b-3b141f0c1d58"},"vehicle_type_id":"4","last_reported":1703768895,"current_range_meters":29200,"station_id":"ce4bh692rcd13ifvqe90","pricing_plan_id":"free"},{"bike_id":"c16e9d9f-f13c-4620-a41a-2bdaba0f6e53","system_id":"levelo_inurba_marseille","lat":43.292644,"lon":5.384257,"is_reserved":false,"is_disabled":false,"rental_uris":{"android":"levelo://app?vid=c16e9d9f-f13c-4620-a41a-2bdaba0f6e53","ios":"levelo://app?vid=c16e9d9f-f13c-4620-a41a-2bdaba0f6e53"},"vehicle_type_id":"4","last_reported":1703768895,"current_range_meters":30400,"station_id":"ce4bh692rcd13ifvqea0","pricing_plan_id":"free"},{"bike_id":"16d5e5d9-d98f-422a-bd25-0e1762141434","system_id":"levelo_inurba_marseille","lat":43.295169,"lon":5.390426,"is_reserved":false,"is_disabled":false,"rental_uris":{"android":"levelo://app?vid=16d5e5d9-d98f-422a-bd25-0e1762141434","ios":"levelo://app?vid=16d5e5d9-d98f-422a-bd25-0e1762141434"},"vehicle_type_id":"4","last_reported":1703768895,"current_range_meters":6800,"station_id":"ce4bh3p2rcd13ifvqdp0","pricing_plan_id":"free"},{"bike_id":"495faf64-a935-4c6e-b77f-2b296d14493a","system_id":"levelo_inurba_marseille","lat":43.331017,"lon":5.389194,"is_reserved":false,"is_disabled":false,"rental_uris":{"android":"levelo://app?vid=495faf64-a935-4c6e-b77f-2b296d14493a","ios":"levelo://app?vid=495faf64-a935-4c6e-b77f-2b296d14493a"},"vehicle_type_id":"4","last_reported":1703768895,"current_range_meters":12000,"station_id":"","pricing_plan_id":"free"},{"bike_id":"da82727f-5090-4dcc-9a39-e49701b0afae","system_id":"levelo_inurba_marseille","lat":43.33021,"lon":5.39046,"is_reserved":false,"is_disabled":false,"rental_uris":{"android":"levelo://app?vid=da82727f-5090-4dcc-9a39-e49701b0afae","ios":"levelo://app?vid=da82727f-5090-4dcc-9a39-e49701b0afae"},"vehicle_type_id":"4","last_reported":1703768895,"current_range_meters":11600,"station_id":"","pricing_plan_id":"free"},{"bike_id":"c34939e6-3810-4375-bc2d-0a340b4abf5b","system_id":"levelo_inurba_marseille","lat":43.28989,"lon":5.37907,"is_reserved":false,"is_disabled":false,"rental_uris":{"android":"levelo://app?vid=c34939e6-3810-4375-bc2d-0a340b4abf5b","ios":"levelo://app?vid=c34939e6-3810-4375-bc2d-0a340b4abf5b"},"vehicle_type_id":"4","last_reported":1703768895,"current_range_meters":30800,"station_id":"","pricing_plan_id":"free"},{"bike_id":"e7e5b367-b928-4b3e-b05f-87b6b3716e8c","system_id":"levelo_inurba_marseille","lat":43.33058,"lon":5.39034,"is_reserved":false,"is_disabled":false,"rental_uris":{"android":"levelo://app?vid=e7e5b367-b928-4b3e-b05f-87b6b3716e8c","ios":"levelo://app?vid=e7e5b367-b928-4b3e-b05f-87b6b3716e8c"},"vehicle_type_id":"4","last_reported":1703768895,"current_range_meters":28800,"station_id":"","pricing_plan_id":"free"},{"bike_id":"f000341d-907a-4ec4-879f-47bf57158097","system_id":"levelo_inurba_marseille","lat":43.2901,"lon":5.381269,"is_reserved":false,"is_disabled":false,"rental_uris":{"android":"levelo://app?vid=f000341d-907a-4ec4-879f-47bf57158097","ios":"levelo://app?vid=f000341d-907a-4ec4-879f-47bf57158097"},"vehicle_type_id":"4","last_reported":1703768895,"current_range_meters":20000,"station_id":"ce4bh4p2rcd13ifvqe1g","pricing_plan_id":"free"},{"bike_id":"370cccf7-c9ba-46c2-819b-c8e8cacc4c21","system_id":"levelo_inurba_marseille","lat":43.33145,"lon":5.3893,"is_reserved":false,"is_disabled":false,"rental_uris":{"android":"levelo://app?vid=370cccf7-c9ba-46c2-819b-c8e8cacc4c21","ios":"levelo://app?vid=370cccf7-c9ba-46c2-819b-c8e8cacc4c21"},"vehicle_type_id":"4","last_reported":1703768895,"current_range_meters":16400,"station_id":"","pricing_plan_id":"free"},{"bike_id":"99493afe-5dd2-46b2-863c-55f777feb7f4","system_id":"levelo_inurba_marseille","lat":43.28856,"lon":5.358371,"is_reserved":false,"is_disabled":false,"rental_uris":{"android":"levelo://app?vid=99493afe-5dd2-46b2-863c-55f777feb7f4","ios":"levelo://app?vid=99493afe-5dd2-46b2-863c-55f777feb7f4"},"vehicle_type_id":"4","last_reported":1703768895,"current_range_meters":18000,"station_id":"ce4bhb12rcd13ifvqem0","pricing_plan_id":"free"},{"bike_id":"45e9d267-5c57-452e-993a-c6c7fa826b87","system_id":"levelo_inurba_marseille","lat":43.337516,"lon":5.374405,"is_reserved":false,"is_disabled":false,"rental_uris":{"android":"levelo://app?vid=45e9d267-5c57-452e-993a-c6c7fa826b87","ios":"levelo://app?vid=45e9d267-5c57-452e-993a-c6c7fa826b87"},"vehicle_type_id":"4","last_reported":1703768895,"current_range_meters":23600,"station_id":"","pricing_plan_id":"free"},{"bike_id":"0f443f6c-185f-46ea-ad2e-b5cdc3584852","system_id":"levelo_inurba_marseille","lat":43.301117,"lon":5.398795,"is_reserved":false,"is_disabled":false,"rental_uris":{"android":"levelo://app?vid=0f443f6c-185f-46ea-ad2e-b5cdc3584852","ios":"levelo://app?vid=0f443f6c-185f-46ea-ad2e-b5cdc3584852"},"vehicle_type_id":"4","last_reported":1703768895,"current_range_meters":27200,"station_id":"ce4bh0h2rcd13ifvqd40","pricing_plan_id":"free"},{"bike_id":"981f9dbf-5820-453e-beb6-8bbddd90c1d2","system_id":"levelo_inurba_marseille","lat":43.337715,"lon":5.374464,"is_reserved":false,"is_disabled":false,"rental_uris":{"android":"levelo://app?vid=981f9dbf-5820-453e-beb6-8bbddd90c1d2","ios":"levelo://app?vid=981f9dbf-5820-453e-beb6-8bbddd90c1d2"},"vehicle_type_id":"4","last_reported":1703768895,"current_range_meters":25200,"station_id":"","pricing_plan_id":"free"},{"bike_id":"8653882a-97b3-480a-af35-2c94da93efb6","system_id":"levelo_inurba_marseille","lat":43.30131,"lon":5.39863,"is_reserved":false,"is_disabled":false,"rental_uris":{"android":"levelo://app?vid=8653882a-97b3-480a-af35-2c94da93efb6","ios":"levelo://app?vid=8653882a-97b3-480a-af35-2c94da93efb6"},"vehicle_type_id":"4","last_reported":1703768895,"current_range_meters":17200,"station_id":"ce4bh0h2rcd13ifvqd40","pricing_plan_id":"free"},{"bike_id":"42274dd4-8273-4c11-b622-36fe289e3567","system_id":"levelo_inurba_marseille","lat":43.30143,"lon":5.39872,"is_reserved":false,"is_disabled":false,"rental_uris":{"android":"levelo://app?vid=42274dd4-8273-4c11-b622-36fe289e3567","ios":"levelo://app?vid=42274dd4-8273-4c11-b622-36fe289e3567"},"vehicle_type_id":"4","last_reported":1703768895,"current_range_meters":25600,"station_id":"ce4bh0h2rcd13ifvqd40","pricing_plan_id":"free"},{"bike_id":"395b4c6b-2846-48f8-adf3-a7b6e4defa20","system_id":"levelo_inurba_marseille","lat":43.28727,"lon":5.36078,"is_reserved":false,"is_disabled":false,"rental_uris":{"android":"levelo://app?vid=395b4c6b-2846-48f8-adf3-a7b6e4defa20","ios":"levelo://app?vid=395b4c6b-2846-48f8-adf3-a7b6e4defa20"},"vehicle_type_id":"4","last_reported":1703768895,"current_range_meters":31200,"station_id":"cki0cbj6b192h4jlfktg","pricing_plan_id":"free"},{"bike_id":"8f1ca9e8-3293-4712-a6c0-d70dddbf3dfa","system_id":"levelo_inurba_marseille","lat":43.286938,"lon":5.373848,"is_reserved":false,"is_disabled":false,"rental_uris":{"android":"levelo://app?vid=8f1ca9e8-3293-4712-a6c0-d70dddbf3dfa","ios":"levelo://app?vid=8f1ca9e8-3293-4712-a6c0-d70dddbf3dfa"},"vehicle_type_id":"4","last_reported":1703768895,"current_range_meters":20000,"station_id":"","pricing_plan_id":"free"},{"bike_id":"d60802d6-4f47-444a-b234-883690eec05b","system_id":"levelo_inurba_marseille","lat":43.33138,"lon":5.39277,"is_reserved":false,"is_disabled":false,"rental_uris":{"android":"levelo://app?vid=d60802d6-4f47-444a-b234-883690eec05b","ios":"levelo://app?vid=d60802d6-4f47-444a-b234-883690eec05b"},"vehicle_type_id":"4","last_reported":1703768895,"current_range_meters":29600,"station_id":"","pricing_plan_id":"free"},{"bike_id":"908cdcf3-0b57-4d62-93bc-a0520031d11a","system_id":"levelo_inurba_marseille","lat":43.289307,"lon":5.38406,"is_reserved":false,"is_disabled":false,"rental_uris":{"android":"levelo://app?vid=908cdcf3-0b57-4d62-93bc-a0520031d11a","ios":"levelo://app?vid=908cdcf3-0b57-4d62-93bc-a0520031d11a"},"vehicle_type_id":"4","last_reported":1703768895,"current_range_meters":8000,"station_id":"ce4bh612rcd13ifvqe6g","pricing_plan_id":"free"},{"bike_id":"265d76d0-5317-4fc7-9caf-8144e70e2a7d","system_id":"levelo_inurba_marseille","lat":43.289307,"lon":5.38406,"is_reserved":false,"is_disabled":false,"rental_uris":{"android":"levelo://app?vid=265d76d0-5317-4fc7-9caf-8144e70e2a7d","ios":"levelo://app?vid=265d76d0-5317-4fc7-9caf-8144e70e2a7d"},"vehicle_type_id":"4","last_reported":1703768895,"current_range_meters":30400,"station_id":"ce4bh612rcd13ifvqe6g","pricing_plan_id":"free"},{"bike_id":"ca50650b-105e-4057-97d9-35c4343abe55","system_id":"levelo_inurba_marseille","lat":43.290345,"lon":5.38646,"is_reserved":false,"is_disabled":false,"rental_uris":{"android":"levelo://app?vid=ca50650b-105e-4057-97d9-35c4343abe55","ios":"levelo://app?vid=ca50650b-105e-4057-97d9-35c4343abe55"},"vehicle_type_id":"4","last_reported":1703768895,"current_range_meters":26800,"station_id":"ce4bh4p2rcd13ifvqe0g","pricing_plan_id":"free"},{"bike_id":"e480ee7f-a7fe-4f92-880c-6ee1da41ca03","system_id":"levelo_inurba_marseille","lat":43.286039,"lon":5.370681,"is_reserved":false,"is_disabled":false,"rental_uris":{"android":"levelo://app?vid=e480ee7f-a7fe-4f92-880c-6ee1da41ca03","ios":"levelo://app?vid=e480ee7f-a7fe-4f92-880c-6ee1da41ca03"},"vehicle_type_id":"4","last_reported":1703768895,"current_range_meters":20800,"station_id":"ce4bht12rcd13ifvqi60","pricing_plan_id":"free"},{"bike_id":"8e5846d3-9037-48fa-9ee2-cdfb769121b9","system_id":"levelo_inurba_marseille","lat":43.292644,"lon":5.384257,"is_reserved":false,"is_disabled":false,"rental_uris":{"android":"levelo://app?vid=8e5846d3-9037-48fa-9ee2-cdfb769121b9","ios":"levelo://app?vid=8e5846d3-9037-48fa-9ee2-cdfb769121b9"},"vehicle_type_id":"4","last_reported":1703768895,"current_range_meters":23200,"station_id":"ce4bh692rcd13ifvqea0","pricing_plan_id":"free"},{"bike_id":"fedf5f24-fc5a-44ad-830b-1afc378116fe","system_id":"levelo_inurba_marseille","lat":43.286039,"lon":5.370681,"is_reserved":false,"is_disabled":false,"rental_uris":{"android":"levelo://app?vid=fedf5f24-fc5a-44ad-830b-1afc378116fe","ios":"levelo://app?vid=fedf5f24-fc5a-44ad-830b-1afc378116fe"},"vehicle_type_id":"4","last_reported":1703768895,"current_range_meters":12400,"station_id":"ce4bht12rcd13ifvqi60","pricing_plan_id":"free"},{"bike_id":"48519747-168a-489f-98c7-8ed2ab2c46bb","system_id":"levelo_inurba_marseille","lat":43.286039,"lon":5.370681,"is_reserved":false,"is_disabled":false,"rental_uris":{"android":"levelo://app?vid=48519747-168a-489f-98c7-8ed2ab2c46bb","ios":"levelo://app?vid=48519747-168a-489f-98c7-8ed2ab2c46bb"},"vehicle_type_id":"4","last_reported":1703768895,"current_range_meters":16000,"station_id":"ce4bht12rcd13ifvqi60","pricing_plan_id":"free"},{"bike_id":"aac00441-5e5c-4474-92e6-e699a3867bae","system_id":"levelo_inurba_marseille","lat":43.28583,"lon":5.360229,"is_reserved":false,"is_disabled":false,"rental_uris":{"android":"levelo://app?vid=aac00441-5e5c-4474-92e6-e699a3867bae","ios":"levelo://app?vid=aac00441-5e5c-4474-92e6-e699a3867bae"},"vehicle_type_id":"4","last_reported":1703768895,"current_range_meters":30400,"station_id":"","pricing_plan_id":"free"},{"bike_id":"ad1e8a5e-397b-40fb-81c4-2912c45f49b6","system_id":"levelo_inurba_marseille","lat":43.291994,"lon":5.392907,"is_reserved":false,"is_disabled":false,"rental_uris":{"android":"levelo://app?vid=ad1e8a5e-397b-40fb-81c4-2912c45f49b6","ios":"levelo://app?vid=ad1e8a5e-397b-40fb-81c4-2912c45f49b6"},"vehicle_type_id":"4","last_reported":1703768895,"current_range_meters":2400,"station_id":"ce4bh192rcd13ifvqdd0","pricing_plan_id":"free"},{"bike_id":"fcafbc50-882d-469d-b202-3901715b1279","system_id":"levelo_inurba_marseille","lat":43.291994,"lon":5.392907,"is_reserved":false,"is_disabled":false,"rental_uris":{"android":"levelo://app?vid=fcafbc50-882d-469d-b202-3901715b1279","ios":"levelo://app?vid=fcafbc50-882d-469d-b202-3901715b1279"},"vehicle_type_id":"4","last_reported":1703768895,"current_range_meters":29200,"station_id":"ce4bh192rcd13ifvqdd0","pricing_plan_id":"free"},{"bike_id":"bee996a3-f947-41ff-8f65-d7f6002f8a65","system_id":"levelo_inurba_marseille","lat":43.286112,"lon":5.350968,"is_reserved":false,"is_disabled":false,"rental_uris":{"android":"levelo://app?vid=bee996a3-f947-41ff-8f65-d7f6002f8a65","ios":"levelo://app?vid=bee996a3-f947-41ff-8f65-d7f6002f8a65"},"vehicle_type_id":"4","last_reported":1703768895,"current_range_meters":26800,"station_id":"ce4bhb92rcd13ifvqen0","pricing_plan_id":"free"},{"bike_id":"cd1c23c7-fdb6-4ec1-a939-b21ee14750a7","system_id":"levelo_inurba_marseille","lat":43.286595,"lon":5.386795,"is_reserved":false,"is_disabled":false,"rental_uris":{"android":"levelo://app?vid=cd1c23c7-fdb6-4ec1-a939-b21ee14750a7","ios":"levelo://app?vid=cd1c23c7-fdb6-4ec1-a939-b21ee14750a7"},"vehicle_type_id":"4","last_reported":1703768895,"current_range_meters":29600,"station_id":"ce4bh492rcd13ifvqdug","pricing_plan_id":"free"},{"bike_id":"56eac566-c2f2-42b4-971b-f675e605a84b","system_id":"levelo_inurba_marseille","lat":43.286595,"lon":5.386795,"is_reserved":false,"is_disabled":false,"rental_uris":{"android":"levelo://app?vid=56eac566-c2f2-42b4-971b-f675e605a84b","ios":"levelo://app?vid=56eac566-c2f2-42b4-971b-f675e605a84b"},"vehicle_type_id":"4","last_reported":1703768895,"current_range_meters":30000,"station_id":"ce4bh492rcd13ifvqdug","pricing_plan_id":"free"},{"bike_id":"7510080d-af49-4281-80b0-457720854c57","system_id":"levelo_inurba_marseille","lat":43.28741,"lon":5.38986,"is_reserved":false,"is_disabled":false,"rental_uris":{"android":"levelo://app?vid=7510080d-af49-4281-80b0-457720854c57","ios":"levelo://app?vid=7510080d-af49-4281-80b0-457720854c57"},"vehicle_type_id":"4","last_reported":1703768895,"current_range_meters":0,"station_id":"","pricing_plan_id":"free"},{"bike_id":"88a90eb6-df1d-4c20-8e42-f03f5a6f3a0d","system_id":"levelo_inurba_marseille","lat":43.337225,"lon":5.391771,"is_reserved":false,"is_disabled":false,"rental_uris":{"android":"levelo://app?vid=88a90eb6-df1d-4c20-8e42-f03f5a6f3a0d","ios":"levelo://app?vid=88a90eb6-df1d-4c20-8e42-f03f5a6f3a0d"},"vehicle_type_id":"4","last_reported":1703768895,"current_range_meters":12000,"station_id":"ce4bhr92rcd13ifvqhsg","pricing_plan_id":"free"},{"bike_id":"381844c3-e025-4ad4-8b5b-45e3143ae1c8","system_id":"levelo_inurba_marseille","lat":43.323464,"lon":5.406297,"is_reserved":false,"is_disabled":false,"rental_uris":{"android":"levelo://app?vid=381844c3-e025-4ad4-8b5b-45e3143ae1c8","ios":"levelo://app?vid=381844c3-e025-4ad4-8b5b-45e3143ae1c8"},"vehicle_type_id":"4","last_reported":1703768895,"current_range_meters":19200,"station_id":"ce4bhq92rcd13ifvqhjg","pricing_plan_id":"free"},{"bike_id":"d2fd7dc8-9566-4ba1-881e-d08271192d38","system_id":"levelo_inurba_marseille","lat":43.297946,"lon":5.404063,"is_reserved":false,"is_disabled":false,"rental_uris":{"android":"levelo://app?vid=d2fd7dc8-9566-4ba1-881e-d08271192d38","ios":"levelo://app?vid=d2fd7dc8-9566-4ba1-881e-d08271192d38"},"vehicle_type_id":"4","last_reported":1703768895,"current_range_meters":29200,"station_id":"ce4bh112rcd13ifvqd90","pricing_plan_id":"free"},{"bike_id":"056a59c6-a1f0-4915-b2c5-2b92bdaa99b8","system_id":"levelo_inurba_marseille","lat":43.288501,"lon":5.393087,"is_reserved":false,"is_disabled":false,"rental_uris":{"android":"levelo://app?vid=056a59c6-a1f0-4915-b2c5-2b92bdaa99b8","ios":"levelo://app?vid=056a59c6-a1f0-4915-b2c5-2b92bdaa99b8"},"vehicle_type_id":"4","last_reported":1703768895,"current_range_meters":26800,"station_id":"ce4bh2p2rcd13ifvqdi0","pricing_plan_id":"free"},{"bike_id":"6aa341dc-28b8-454c-b0cd-cc2e90798880","system_id":"levelo_inurba_marseille","lat":43.283498,"lon":5.380948,"is_reserved":false,"is_disabled":false,"rental_uris":{"android":"levelo://app?vid=6aa341dc-28b8-454c-b0cd-cc2e90798880","ios":"levelo://app?vid=6aa341dc-28b8-454c-b0cd-cc2e90798880"},"vehicle_type_id":"4","last_reported":1703768895,"current_range_meters":26400,"station_id":"ce4bh412rcd13ifvqdr0","pricing_plan_id":"free"},{"bike_id":"e485450b-2736-4f4c-b94b-0da5a69b88aa","system_id":"levelo_inurba_marseille","lat":43.33385,"lon":5.39822,"is_reserved":false,"is_disabled":false,"rental_uris":{"android":"levelo://app?vid=e485450b-2736-4f4c-b94b-0da5a69b88aa","ios":"levelo://app?vid=e485450b-2736-4f4c-b94b-0da5a69b88aa"},"vehicle_type_id":"4","last_reported":1703768895,"current_range_meters":14800,"station_id":"","pricing_plan_id":"free"},{"bike_id":"635740b8-3fa2-4b8c-8d18-6da4ef3626c5","system_id":"levelo_inurba_marseille","lat":43.289363,"lon":5.396322,"is_reserved":false,"is_disabled":false,"rental_uris":{"android":"levelo://app?vid=635740b8-3fa2-4b8c-8d18-6da4ef3626c5","ios":"levelo://app?vid=635740b8-3fa2-4b8c-8d18-6da4ef3626c5"},"vehicle_type_id":"4","last_reported":1703768895,"current_range_meters":2000,"station_id":"ce4bh3h2rcd13ifvqdn0","pricing_plan_id":"free"},{"bike_id":"738b820e-97af-4de1-a920-b0934013360c","system_id":"levelo_inurba_marseille","lat":43.292724,"lon":5.401131,"is_reserved":false,"is_disabled":false,"rental_uris":{"android":"levelo://app?vid=738b820e-97af-4de1-a920-b0934013360c","ios":"levelo://app?vid=738b820e-97af-4de1-a920-b0934013360c"},"vehicle_type_id":"4","last_reported":1703768895,"current_range_meters":19200,"station_id":"ce4bh312rcd13ifvqdk0","pricing_plan_id":"free"},{"bike_id":"5f3e895b-dc9c-4d03-b0ce-69e164a15b25","system_id":"levelo_inurba_marseille","lat":43.292724,"lon":5.401131,"is_reserved":false,"is_disabled":false,"rental_uris":{"android":"levelo://app?vid=5f3e895b-dc9c-4d03-b0ce-69e164a15b25","ios":"levelo://app?vid=5f3e895b-dc9c-4d03-b0ce-69e164a15b25"},"vehicle_type_id":"4","last_reported":1703768895,"current_range_meters":29600,"station_id":"ce4bh312rcd13ifvqdk0","pricing_plan_id":"free"},{"bike_id":"a9f87e4b-eb55-4868-bd1b-26772c86abf3","system_id":"levelo_inurba_marseille","lat":43.292724,"lon":5.401131,"is_reserved":false,"is_disabled":false,"rental_uris":{"android":"levelo://app?vid=a9f87e4b-eb55-4868-bd1b-26772c86abf3","ios":"levelo://app?vid=a9f87e4b-eb55-4868-bd1b-26772c86abf3"},"vehicle_type_id":"4","last_reported":1703768895,"current_range_meters":27200,"station_id":"ce4bh312rcd13ifvqdk0","pricing_plan_id":"free"},{"bike_id":"ce7a6621-781a-43b7-ac5d-de05684a37fa","system_id":"levelo_inurba_marseille","lat":43.283502,"lon":5.386471,"is_reserved":false,"is_disabled":false,"rental_uris":{"android":"levelo://app?vid=ce7a6621-781a-43b7-ac5d-de05684a37fa","ios":"levelo://app?vid=ce7a6621-781a-43b7-ac5d-de05684a37fa"},"vehicle_type_id":"4","last_reported":1703768895,"current_range_meters":21200,"station_id":"ce4bh492rcd13ifvqdvg","pricing_plan_id":"free"},{"bike_id":"badbf3a4-6e16-4571-996b-28d02a5bd449","system_id":"levelo_inurba_marseille","lat":43.282744,"lon":5.350533,"is_reserved":false,"is_disabled":false,"rental_uris":{"android":"levelo://app?vid=badbf3a4-6e16-4571-996b-28d02a5bd449","ios":"levelo://app?vid=badbf3a4-6e16-4571-996b-28d02a5bd449"},"vehicle_type_id":"4","last_reported":1703768895,"current_range_meters":31600,"station_id":"ce4bhbp2rcd13ifvqerg","pricing_plan_id":"free"},{"bike_id":"77aefc2b-c7c0-43f6-9c8e-c673b8cfb8a2","system_id":"levelo_inurba_marseille","lat":43.282744,"lon":5.350533,"is_reserved":false,"is_disabled":false,"rental_uris":{"android":"levelo://app?vid=77aefc2b-c7c0-43f6-9c8e-c673b8cfb8a2","ios":"levelo://app?vid=77aefc2b-c7c0-43f6-9c8e-c673b8cfb8a2"},"vehicle_type_id":"4","last_reported":1703768895,"current_range_meters":15600,"station_id":"ce4bhbp2rcd13ifvqerg","pricing_plan_id":"free"},{"bike_id":"6e5a96e7-864c-4dd9-9b18-c703477660cd","system_id":"levelo_inurba_marseille","lat":43.284462,"lon":5.392121,"is_reserved":false,"is_disabled":false,"rental_uris":{"android":"levelo://app?vid=6e5a96e7-864c-4dd9-9b18-c703477660cd","ios":"levelo://app?vid=6e5a96e7-864c-4dd9-9b18-c703477660cd"},"vehicle_type_id":"4","last_reported":1703768895,"current_range_meters":28400,"station_id":"ce4bhoh2rcd13ifvqh5g","pricing_plan_id":"free"},{"bike_id":"11b5a8dd-6d7a-47e0-8263-d9406a753544","system_id":"levelo_inurba_marseille","lat":43.284462,"lon":5.392121,"is_reserved":false,"is_disabled":false,"rental_uris":{"android":"levelo://app?vid=11b5a8dd-6d7a-47e0-8263-d9406a753544","ios":"levelo://app?vid=11b5a8dd-6d7a-47e0-8263-d9406a753544"},"vehicle_type_id":"4","last_reported":1703768895,"current_range_meters":26400,"station_id":"ce4bhoh2rcd13ifvqh5g","pricing_plan_id":"free"},{"bike_id":"687d49f6-c503-4b1d-a16e-7587a50a51f3","system_id":"levelo_inurba_marseille","lat":43.28573,"lon":5.394992,"is_reserved":false,"is_disabled":false,"rental_uris":{"android":"levelo://app?vid=687d49f6-c503-4b1d-a16e-7587a50a51f3","ios":"levelo://app?vid=687d49f6-c503-4b1d-a16e-7587a50a51f3"},"vehicle_type_id":"4","last_reported":1703768895,"current_range_meters":29200,"station_id":"ce4bh292rcd13ifvqdg0","pricing_plan_id":"free"},{"bike_id":"bfc1f4c5-a47e-497b-9b0e-0e0905bcd04f","system_id":"levelo_inurba_marseille","lat":43.285742,"lon":5.395004,"is_reserved":false,"is_disabled":false,"rental_uris":{"android":"levelo://app?vid=bfc1f4c5-a47e-497b-9b0e-0e0905bcd04f","ios":"levelo://app?vid=bfc1f4c5-a47e-497b-9b0e-0e0905bcd04f"},"vehicle_type_id":"4","last_reported":1703768895,"current_range_meters":23600,"station_id":"ce4bh292rcd13ifvqdg0","pricing_plan_id":"free"},{"bike_id":"c9d73eed-5888-4e39-be0e-da9a3b48d0b3","system_id":"levelo_inurba_marseille","lat":43.283633,"lon":5.392028,"is_reserved":false,"is_disabled":false,"rental_uris":{"android":"levelo://app?vid=c9d73eed-5888-4e39-be0e-da9a3b48d0b3","ios":"levelo://app?vid=c9d73eed-5888-4e39-be0e-da9a3b48d0b3"},"vehicle_type_id":"4","last_reported":1703768895,"current_range_meters":19200,"station_id":"","pricing_plan_id":"free"},{"bike_id":"1c3044bb-08e0-4fea-b7be-9514d6994572","system_id":"levelo_inurba_marseille","lat":43.304188,"lon":5.412904,"is_reserved":false,"is_disabled":false,"rental_uris":{"android":"levelo://app?vid=1c3044bb-08e0-4fea-b7be-9514d6994572","ios":"levelo://app?vid=1c3044bb-08e0-4fea-b7be-9514d6994572"},"vehicle_type_id":"4","last_reported":1703768895,"current_range_meters":14000,"station_id":"ce4bhop2rcd13ifvqh8g","pricing_plan_id":"free"},{"bike_id":"da6049ec-8673-4273-b2fc-20efaa880ee2","system_id":"levelo_inurba_marseille","lat":43.30413,"lon":5.41282,"is_reserved":false,"is_disabled":false,"rental_uris":{"android":"levelo://app?vid=da6049ec-8673-4273-b2fc-20efaa880ee2","ios":"levelo://app?vid=da6049ec-8673-4273-b2fc-20efaa880ee2"},"vehicle_type_id":"4","last_reported":1703768895,"current_range_meters":30000,"station_id":"ce4bhop2rcd13ifvqh8g","pricing_plan_id":"free"},{"bike_id":"694ad407-7238-4062-89a8-4125ccd97cc0","system_id":"levelo_inurba_marseille","lat":43.30411,"lon":5.41283,"is_reserved":false,"is_disabled":false,"rental_uris":{"android":"levelo://app?vid=694ad407-7238-4062-89a8-4125ccd97cc0","ios":"levelo://app?vid=694ad407-7238-4062-89a8-4125ccd97cc0"},"vehicle_type_id":"4","last_reported":1703768895,"current_range_meters":30000,"station_id":"ce4bhop2rcd13ifvqh8g","pricing_plan_id":"free"},{"bike_id":"19035fd2-4552-46c6-b932-e107c071d9fb","system_id":"levelo_inurba_marseille","lat":43.304188,"lon":5.412904,"is_reserved":false,"is_disabled":false,"rental_uris":{"android":"levelo://app?vid=19035fd2-4552-46c6-b932-e107c071d9fb","ios":"levelo://app?vid=19035fd2-4552-46c6-b932-e107c071d9fb"},"vehicle_type_id":"4","last_reported":1703768895,"current_range_meters":30000,"station_id":"ce4bhop2rcd13ifvqh8g","pricing_plan_id":"free"},{"bike_id":"5ca7f675-826a-45cd-94b0-165a5595ff7b","system_id":"levelo_inurba_marseille","lat":43.279087,"lon":5.380114,"is_reserved":false,"is_disabled":false,"rental_uris":{"android":"levelo://app?vid=5ca7f675-826a-45cd-94b0-165a5595ff7b","ios":"levelo://app?vid=5ca7f675-826a-45cd-94b0-165a5595ff7b"},"vehicle_type_id":"4","last_reported":1703768895,"current_range_meters":26400,"station_id":"ce4bhf92rcd13ifvqf50","pricing_plan_id":"free"},{"bike_id":"2368d6dd-9128-4f25-8383-3141fc5d7213","system_id":"levelo_inurba_marseille","lat":43.287154,"lon":5.399979,"is_reserved":false,"is_disabled":false,"rental_uris":{"android":"levelo://app?vid=2368d6dd-9128-4f25-8383-3141fc5d7213","ios":"levelo://app?vid=2368d6dd-9128-4f25-8383-3141fc5d7213"},"vehicle_type_id":"4","last_reported":1703768895,"current_range_meters":19600,"station_id":"ce4bho92rcd13ifvqh3g","pricing_plan_id":"free"},{"bike_id":"6dc0be55-9cb6-4902-813b-4d91432fd0bf","system_id":"levelo_inurba_marseille","lat":43.287154,"lon":5.399979,"is_reserved":false,"is_disabled":false,"rental_uris":{"android":"levelo://app?vid=6dc0be55-9cb6-4902-813b-4d91432fd0bf","ios":"levelo://app?vid=6dc0be55-9cb6-4902-813b-4d91432fd0bf"},"vehicle_type_id":"4","last_reported":1703768895,"current_range_meters":12400,"station_id":"ce4bho92rcd13ifvqh3g","pricing_plan_id":"free"},{"bike_id":"01812779-389b-4d24-9d58-8e3c62cea9ce","system_id":"levelo_inurba_marseille","lat":43.320045,"lon":5.415048,"is_reserved":false,"is_disabled":false,"rental_uris":{"android":"levelo://app?vid=01812779-389b-4d24-9d58-8e3c62cea9ce","ios":"levelo://app?vid=01812779-389b-4d24-9d58-8e3c62cea9ce"},"vehicle_type_id":"4","last_reported":1703768895,"current_range_meters":30400,"station_id":"ce4bhq92rcd13ifvqhkg","pricing_plan_id":"free"},{"bike_id":"d0477505-fb40-4bda-adcd-c4ca8bcb1833","system_id":"levelo_inurba_marseille","lat":43.292569,"lon":5.409107,"is_reserved":false,"is_disabled":false,"rental_uris":{"android":"levelo://app?vid=d0477505-fb40-4bda-adcd-c4ca8bcb1833","ios":"levelo://app?vid=d0477505-fb40-4bda-adcd-c4ca8bcb1833"},"vehicle_type_id":"4","last_reported":1703768895,"current_range_meters":1200,"station_id":"ce4bh192rcd13ifvqdc0","pricing_plan_id":"free"},{"bike_id":"bf16c117-d788-449d-9785-2d9427c4588b","system_id":"levelo_inurba_marseille","lat":43.292571,"lon":5.409107,"is_reserved":false,"is_disabled":false,"rental_uris":{"android":"levelo://app?vid=bf16c117-d788-449d-9785-2d9427c4588b","ios":"levelo://app?vid=bf16c117-d788-449d-9785-2d9427c4588b"},"vehicle_type_id":"4","last_reported":1703768895,"current_range_meters":28800,"station_id":"ce4bh192rcd13ifvqdc0","pricing_plan_id":"free"},{"bike_id":"9a6c3cf3-0ca2-4dd3-bced-9dc22af51b59","system_id":"levelo_inurba_marseille","lat":43.325243,"lon":5.414326,"is_reserved":false,"is_disabled":false,"rental_uris":{"android":"levelo://app?vid=9a6c3cf3-0ca2-4dd3-bced-9dc22af51b59","ios":"levelo://app?vid=9a6c3cf3-0ca2-4dd3-bced-9dc22af51b59"},"vehicle_type_id":"4","last_reported":1703768895,"current_range_meters":20400,"station_id":"ce4bhq12rcd13ifvqhhg","pricing_plan_id":"free"},{"bike_id":"f5c6e5c0-30a4-4147-95a6-6c61538fe047","system_id":"levelo_inurba_marseille","lat":43.292569,"lon":5.409107,"is_reserved":false,"is_disabled":false,"rental_uris":{"android":"levelo://app?vid=f5c6e5c0-30a4-4147-95a6-6c61538fe047","ios":"levelo://app?vid=f5c6e5c0-30a4-4147-95a6-6c61538fe047"},"vehicle_type_id":"4","last_reported":1703768895,"current_range_meters":13600,"station_id":"ce4bh192rcd13ifvqdc0","pricing_plan_id":"free"},{"bike_id":"e984c370-80a5-4a6a-903a-386ed26f06ca","system_id":"levelo_inurba_marseille","lat":43.325233,"lon":5.414318,"is_reserved":false,"is_disabled":false,"rental_uris":{"android":"levelo://app?vid=e984c370-80a5-4a6a-903a-386ed26f06ca","ios":"levelo://app?vid=e984c370-80a5-4a6a-903a-386ed26f06ca"},"vehicle_type_id":"4","last_reported":1703768895,"current_range_meters":15200,"station_id":"ce4bhq12rcd13ifvqhhg","pricing_plan_id":"free"},{"bike_id":"f02eebdf-8a63-42e3-8884-2ab43371ba7e","system_id":"levelo_inurba_marseille","lat":43.292569,"lon":5.409107,"is_reserved":false,"is_disabled":false,"rental_uris":{"android":"levelo://app?vid=f02eebdf-8a63-42e3-8884-2ab43371ba7e","ios":"levelo://app?vid=f02eebdf-8a63-42e3-8884-2ab43371ba7e"},"vehicle_type_id":"4","last_reported":1703768895,"current_range_meters":31200,"station_id":"ce4bh192rcd13ifvqdc0","pricing_plan_id":"free"},{"bike_id":"e65bbceb-f6b3-41f3-8c06-1f793a6120fa","system_id":"levelo_inurba_marseille","lat":43.276179,"lon":5.361009,"is_reserved":false,"is_disabled":false,"rental_uris":{"android":"levelo://app?vid=e65bbceb-f6b3-41f3-8c06-1f793a6120fa","ios":"levelo://app?vid=e65bbceb-f6b3-41f3-8c06-1f793a6120fa"},"vehicle_type_id":"4","last_reported":1703768895,"current_range_meters":26000,"station_id":"ce4bgj92rcd13ifvqbe0","pricing_plan_id":"free"},{"bike_id":"8dd7ea32-f2b5-4354-a39b-b27ab12e5744","system_id":"levelo_inurba_marseille","lat":43.27376,"lon":5.36259,"is_reserved":false,"is_disabled":false,"rental_uris":{"android":"levelo://app?vid=8dd7ea32-f2b5-4354-a39b-b27ab12e5744","ios":"levelo://app?vid=8dd7ea32-f2b5-4354-a39b-b27ab12e5744"},"vehicle_type_id":"4","last_reported":1703768895,"current_range_meters":16000,"station_id":"ce4bhbh2rcd13ifvqeo0","pricing_plan_id":"free"},{"bike_id":"fbd54234-6abf-4cb9-8df8-0beeb82122ac","system_id":"levelo_inurba_marseille","lat":43.27371,"lon":5.36246,"is_reserved":false,"is_disabled":false,"rental_uris":{"android":"levelo://app?vid=fbd54234-6abf-4cb9-8df8-0beeb82122ac","ios":"levelo://app?vid=fbd54234-6abf-4cb9-8df8-0beeb82122ac"},"vehicle_type_id":"4","last_reported":1703768895,"current_range_meters":28800,"station_id":"ce4bhbh2rcd13ifvqeo0","pricing_plan_id":"free"},{"bike_id":"adfee354-d807-44de-99fe-302f6c5652db","system_id":"levelo_inurba_marseille","lat":43.273609,"lon":5.362708,"is_reserved":false,"is_disabled":false,"rental_uris":{"android":"levelo://app?vid=adfee354-d807-44de-99fe-302f6c5652db","ios":"levelo://app?vid=adfee354-d807-44de-99fe-302f6c5652db"},"vehicle_type_id":"4","last_reported":1703768895,"current_range_meters":29200,"station_id":"ce4bhbh2rcd13ifvqeo0","pricing_plan_id":"free"},{"bike_id":"96a28984-4c3e-47e0-88f0-9c67139f4c60","system_id":"levelo_inurba_marseille","lat":43.275625,"lon":5.384392,"is_reserved":false,"is_disabled":false,"rental_uris":{"android":"levelo://app?vid=96a28984-4c3e-47e0-88f0-9c67139f4c60","ios":"levelo://app?vid=96a28984-4c3e-47e0-88f0-9c67139f4c60"},"vehicle_type_id":"4","last_reported":1703768895,"current_range_meters":27200,"station_id":"ce4bhh92rcd13ifvqfi0","pricing_plan_id":"free"},{"bike_id":"b021e306-bfc2-4122-80ff-4b4568df9078","system_id":"levelo_inurba_marseille","lat":43.273609,"lon":5.362708,"is_reserved":false,"is_disabled":false,"rental_uris":{"android":"levelo://app?vid=b021e306-bfc2-4122-80ff-4b4568df9078","ios":"levelo://app?vid=b021e306-bfc2-4122-80ff-4b4568df9078"},"vehicle_type_id":"4","last_reported":1703768895,"current_range_meters":24000,"station_id":"ce4bhbh2rcd13ifvqeo0","pricing_plan_id":"free"},{"bike_id":"793b98d4-6f9a-4e8d-93b6-96556e19b068","system_id":"levelo_inurba_marseille","lat":43.275625,"lon":5.384392,"is_reserved":false,"is_disabled":false,"rental_uris":{"android":"levelo://app?vid=793b98d4-6f9a-4e8d-93b6-96556e19b068","ios":"levelo://app?vid=793b98d4-6f9a-4e8d-93b6-96556e19b068"},"vehicle_type_id":"4","last_reported":1703768895,"current_range_meters":30000,"station_id":"ce4bhh92rcd13ifvqfi0","pricing_plan_id":"free"},{"bike_id":"af148085-7af5-407c-a92f-8cffd7a5457d","system_id":"levelo_inurba_marseille","lat":43.336148,"lon":5.410349,"is_reserved":false,"is_disabled":false,"rental_uris":{"android":"levelo://app?vid=af148085-7af5-407c-a92f-8cffd7a5457d","ios":"levelo://app?vid=af148085-7af5-407c-a92f-8cffd7a5457d"},"vehicle_type_id":"4","last_reported":1703768895,"current_range_meters":29600,"station_id":"ce4bhqh2rcd13ifvqhmg","pricing_plan_id":"free"},{"bike_id":"3f302edb-3ace-4ffa-86b1-41d833c4ed69","system_id":"levelo_inurba_marseille","lat":43.276771,"lon":5.388799,"is_reserved":false,"is_disabled":false,"rental_uris":{"android":"levelo://app?vid=3f302edb-3ace-4ffa-86b1-41d833c4ed69","ios":"levelo://app?vid=3f302edb-3ace-4ffa-86b1-41d833c4ed69"},"vehicle_type_id":"4","last_reported":1703768895,"current_range_meters":26400,"station_id":"ce4bhi12rcd13ifvqfo0","pricing_plan_id":"free"},{"bike_id":"7cb553ae-3dcf-4790-8c27-abef6ad7acd5","system_id":"levelo_inurba_marseille","lat":43.340804,"lon":5.410219,"is_reserved":false,"is_disabled":false,"rental_uris":{"android":"levelo://app?vid=7cb553ae-3dcf-4790-8c27-abef6ad7acd5","ios":"levelo://app?vid=7cb553ae-3dcf-4790-8c27-abef6ad7acd5"},"vehicle_type_id":"4","last_reported":1703768895,"current_range_meters":10000,"station_id":"ce4bhqh2rcd13ifvqhlg","pricing_plan_id":"free"},{"bike_id":"47c4a75a-9589-431f-9913-07cae62c1708","system_id":"levelo_inurba_marseille","lat":43.276348,"lon":5.389433,"is_reserved":false,"is_disabled":false,"rental_uris":{"android":"levelo://app?vid=47c4a75a-9589-431f-9913-07cae62c1708","ios":"levelo://app?vid=47c4a75a-9589-431f-9913-07cae62c1708"},"vehicle_type_id":"4","last_reported":1703768895,"current_range_meters":14000,"station_id":"","pricing_plan_id":"free"},{"bike_id":"93a48291-1459-44a0-8431-543a44830d5f","system_id":"levelo_inurba_marseille","lat":43.279975,"lon":5.40009,"is_reserved":false,"is_disabled":false,"rental_uris":{"android":"levelo://app?vid=93a48291-1459-44a0-8431-543a44830d5f","ios":"levelo://app?vid=93a48291-1459-44a0-8431-543a44830d5f"},"vehicle_type_id":"4","last_reported":1703768895,"current_range_meters":6400,"station_id":"ce4bho92rcd13ifvqh4g","pricing_plan_id":"free"},{"bike_id":"bddc6921-1e2f-4809-9f0a-c7adc8601e3d","system_id":"levelo_inurba_marseille","lat":43.279975,"lon":5.40009,"is_reserved":false,"is_disabled":false,"rental_uris":{"android":"levelo://app?vid=bddc6921-1e2f-4809-9f0a-c7adc8601e3d","ios":"levelo://app?vid=bddc6921-1e2f-4809-9f0a-c7adc8601e3d"},"vehicle_type_id":"4","last_reported":1703768895,"current_range_meters":3200,"station_id":"ce4bho92rcd13ifvqh4g","pricing_plan_id":"free"},{"bike_id":"12915678-f2ca-4866-a195-a1e5afe0d7bf","system_id":"levelo_inurba_marseille","lat":43.279975,"lon":5.40009,"is_reserved":false,"is_disabled":false,"rental_uris":{"android":"levelo://app?vid=12915678-f2ca-4866-a195-a1e5afe0d7bf","ios":"levelo://app?vid=12915678-f2ca-4866-a195-a1e5afe0d7bf"},"vehicle_type_id":"4","last_reported":1703768895,"current_range_meters":14400,"station_id":"ce4bho92rcd13ifvqh4g","pricing_plan_id":"free"},{"bike_id":"8c260070-3888-46e0-9c82-233ab07c1fef","system_id":"levelo_inurba_marseille","lat":43.279975,"lon":5.40009,"is_reserved":false,"is_disabled":false,"rental_uris":{"android":"levelo://app?vid=8c260070-3888-46e0-9c82-233ab07c1fef","ios":"levelo://app?vid=8c260070-3888-46e0-9c82-233ab07c1fef"},"vehicle_type_id":"4","last_reported":1703768895,"current_range_meters":30400,"station_id":"ce4bho92rcd13ifvqh4g","pricing_plan_id":"free"},{"bike_id":"93701563-8eb2-4ac2-94e5-d33e3d4e586a","system_id":"levelo_inurba_marseille","lat":43.317121,"lon":5.423936,"is_reserved":false,"is_disabled":false,"rental_uris":{"android":"levelo://app?vid=93701563-8eb2-4ac2-94e5-d33e3d4e586a","ios":"levelo://app?vid=93701563-8eb2-4ac2-94e5-d33e3d4e586a"},"vehicle_type_id":"4","last_reported":1703768895,"current_range_meters":25200,"station_id":"ce4bhp92rcd13ifvqhbg","pricing_plan_id":"free"},{"bike_id":"6bee08e5-780c-476e-a929-383a3efdd1eb","system_id":"levelo_inurba_marseille","lat":43.274099,"lon":5.394019,"is_reserved":false,"is_disabled":false,"rental_uris":{"android":"levelo://app?vid=6bee08e5-780c-476e-a929-383a3efdd1eb","ios":"levelo://app?vid=6bee08e5-780c-476e-a929-383a3efdd1eb"},"vehicle_type_id":"4","last_reported":1703768895,"current_range_meters":31200,"station_id":"ce4bhdp2rcd13ifvqf20","pricing_plan_id":"free"},{"bike_id":"5881a3af-66d0-4192-876b-01aa1e3b8587","system_id":"levelo_inurba_marseille","lat":43.274103,"lon":5.394016,"is_reserved":false,"is_disabled":false,"rental_uris":{"android":"levelo://app?vid=5881a3af-66d0-4192-876b-01aa1e3b8587","ios":"levelo://app?vid=5881a3af-66d0-4192-876b-01aa1e3b8587"},"vehicle_type_id":"4","last_reported":1703768895,"current_range_meters":28000,"station_id":"ce4bhdp2rcd13ifvqf20","pricing_plan_id":"free"},{"bike_id":"f6a2ab9e-c3c8-434c-8dd0-fe1fec2f7661","system_id":"levelo_inurba_marseille","lat":43.274103,"lon":5.394016,"is_reserved":false,"is_disabled":false,"rental_uris":{"android":"levelo://app?vid=f6a2ab9e-c3c8-434c-8dd0-fe1fec2f7661","ios":"levelo://app?vid=f6a2ab9e-c3c8-434c-8dd0-fe1fec2f7661"},"vehicle_type_id":"4","last_reported":1703768895,"current_range_meters":20800,"station_id":"ce4bhdp2rcd13ifvqf20","pricing_plan_id":"free"},{"bike_id":"ad2e4612-31be-4b6c-9b98-a51b51f931ec","system_id":"levelo_inurba_marseille","lat":43.274099,"lon":5.394019,"is_reserved":false,"is_disabled":false,"rental_uris":{"android":"levelo://app?vid=ad2e4612-31be-4b6c-9b98-a51b51f931ec","ios":"levelo://app?vid=ad2e4612-31be-4b6c-9b98-a51b51f931ec"},"vehicle_type_id":"4","last_reported":1703768895,"current_range_meters":14000,"station_id":"ce4bhdp2rcd13ifvqf20","pricing_plan_id":"free"},{"bike_id":"3fd74712-72b6-47f8-85f9-5d1a7e3f45e4","system_id":"levelo_inurba_marseille","lat":43.273129,"lon":5.390725,"is_reserved":false,"is_disabled":false,"rental_uris":{"android":"levelo://app?vid=3fd74712-72b6-47f8-85f9-5d1a7e3f45e4","ios":"levelo://app?vid=3fd74712-72b6-47f8-85f9-5d1a7e3f45e4"},"vehicle_type_id":"4","last_reported":1703768895,"current_range_meters":27200,"station_id":"ce4bhgp2rcd13ifvqfe0","pricing_plan_id":"free"},{"bike_id":"192d14a9-2a45-4774-aa3a-b122462e99a1","system_id":"levelo_inurba_marseille","lat":43.304096,"lon":5.425385,"is_reserved":false,"is_disabled":false,"rental_uris":{"android":"levelo://app?vid=192d14a9-2a45-4774-aa3a-b122462e99a1","ios":"levelo://app?vid=192d14a9-2a45-4774-aa3a-b122462e99a1"},"vehicle_type_id":"4","last_reported":1703768895,"current_range_meters":8000,"station_id":"ce4bhoh2rcd13ifvqh6g","pricing_plan_id":"free"},{"bike_id":"6a48db3f-9fc3-4404-b973-f4cc675c01c7","system_id":"levelo_inurba_marseille","lat":43.295523,"lon":5.422926,"is_reserved":false,"is_disabled":false,"rental_uris":{"android":"levelo://app?vid=6a48db3f-9fc3-4404-b973-f4cc675c01c7","ios":"levelo://app?vid=6a48db3f-9fc3-4404-b973-f4cc675c01c7"},"vehicle_type_id":"4","last_reported":1703768895,"current_range_meters":29200,"station_id":"ce4bhph2rcd13ifvqhdg","pricing_plan_id":"free"},{"bike_id":"bc660e5c-f7cd-4460-935e-226ad1eba4eb","system_id":"levelo_inurba_marseille","lat":43.295523,"lon":5.422926,"is_reserved":false,"is_disabled":false,"rental_uris":{"android":"levelo://app?vid=bc660e5c-f7cd-4460-935e-226ad1eba4eb","ios":"levelo://app?vid=bc660e5c-f7cd-4460-935e-226ad1eba4eb"},"vehicle_type_id":"4","last_reported":1703768895,"current_range_meters":29600,"station_id":"ce4bhph2rcd13ifvqhdg","pricing_plan_id":"free"},{"bike_id":"623e5527-a121-4ec1-8cc0-17b5fddea11b","system_id":"levelo_inurba_marseille","lat":43.295523,"lon":5.422926,"is_reserved":false,"is_disabled":false,"rental_uris":{"android":"levelo://app?vid=623e5527-a121-4ec1-8cc0-17b5fddea11b","ios":"levelo://app?vid=623e5527-a121-4ec1-8cc0-17b5fddea11b"},"vehicle_type_id":"4","last_reported":1703768895,"current_range_meters":26800,"station_id":"ce4bhph2rcd13ifvqhdg","pricing_plan_id":"free"},{"bike_id":"adf5111d-6f9b-4db5-a250-275ab771e390","system_id":"levelo_inurba_marseille","lat":43.295523,"lon":5.422926,"is_reserved":false,"is_disabled":false,"rental_uris":{"android":"levelo://app?vid=adf5111d-6f9b-4db5-a250-275ab771e390","ios":"levelo://app?vid=adf5111d-6f9b-4db5-a250-275ab771e390"},"vehicle_type_id":"4","last_reported":1703768895,"current_range_meters":24800,"station_id":"ce4bhph2rcd13ifvqhdg","pricing_plan_id":"free"},{"bike_id":"8748f0f6-f6da-400d-9caa-9a0f1740277b","system_id":"levelo_inurba_marseille","lat":43.295511,"lon":5.422926,"is_reserved":false,"is_disabled":false,"rental_uris":{"android":"levelo://app?vid=8748f0f6-f6da-400d-9caa-9a0f1740277b","ios":"levelo://app?vid=8748f0f6-f6da-400d-9caa-9a0f1740277b"},"vehicle_type_id":"4","last_reported":1703768895,"current_range_meters":28000,"station_id":"ce4bhph2rcd13ifvqhdg","pricing_plan_id":"free"},{"bike_id":"acec87c8-498e-46a9-a572-8de891a24d3a","system_id":"levelo_inurba_marseille","lat":43.295523,"lon":5.422926,"is_reserved":false,"is_disabled":false,"rental_uris":{"android":"levelo://app?vid=acec87c8-498e-46a9-a572-8de891a24d3a","ios":"levelo://app?vid=acec87c8-498e-46a9-a572-8de891a24d3a"},"vehicle_type_id":"4","last_reported":1703768895,"current_range_meters":24800,"station_id":"ce4bhph2rcd13ifvqhdg","pricing_plan_id":"free"},{"bike_id":"6d735bdc-6834-49ef-ad58-2a1b73a15a49","system_id":"levelo_inurba_marseille","lat":43.295523,"lon":5.422926,"is_reserved":false,"is_disabled":false,"rental_uris":{"android":"levelo://app?vid=6d735bdc-6834-49ef-ad58-2a1b73a15a49","ios":"levelo://app?vid=6d735bdc-6834-49ef-ad58-2a1b73a15a49"},"vehicle_type_id":"4","last_reported":1703768895,"current_range_meters":31200,"station_id":"ce4bhph2rcd13ifvqhdg","pricing_plan_id":"free"},{"bike_id":"e192df68-2c2b-482d-b6fd-3b8920434290","system_id":"levelo_inurba_marseille","lat":43.29548,"lon":5.42281,"is_reserved":false,"is_disabled":false,"rental_uris":{"android":"levelo://app?vid=e192df68-2c2b-482d-b6fd-3b8920434290","ios":"levelo://app?vid=e192df68-2c2b-482d-b6fd-3b8920434290"},"vehicle_type_id":"4","last_reported":1703768895,"current_range_meters":22800,"station_id":"ce4bhph2rcd13ifvqhdg","pricing_plan_id":"free"},{"bike_id":"23dbbee6-d4a1-4819-8d81-04184524b313","system_id":"levelo_inurba_marseille","lat":43.295511,"lon":5.422926,"is_reserved":false,"is_disabled":false,"rental_uris":{"android":"levelo://app?vid=23dbbee6-d4a1-4819-8d81-04184524b313","ios":"levelo://app?vid=23dbbee6-d4a1-4819-8d81-04184524b313"},"vehicle_type_id":"4","last_reported":1703768895,"current_range_meters":28400,"station_id":"ce4bhph2rcd13ifvqhdg","pricing_plan_id":"free"},{"bike_id":"f3481ee6-e4b8-43d4-8ac2-7b4affdc4747","system_id":"levelo_inurba_marseille","lat":43.272116,"lon":5.391763,"is_reserved":false,"is_disabled":false,"rental_uris":{"android":"levelo://app?vid=f3481ee6-e4b8-43d4-8ac2-7b4affdc4747","ios":"levelo://app?vid=f3481ee6-e4b8-43d4-8ac2-7b4affdc4747"},"vehicle_type_id":"4","last_reported":1703768895,"current_range_meters":24000,"station_id":"ce4bhhp2rcd13ifvqfm0","pricing_plan_id":"free"},{"bike_id":"dcb34f7e-4bb0-4f50-a0bd-5ae8e961c5f1","system_id":"levelo_inurba_marseille","lat":43.27216,"lon":5.39239,"is_reserved":false,"is_disabled":false,"rental_uris":{"android":"levelo://app?vid=dcb34f7e-4bb0-4f50-a0bd-5ae8e961c5f1","ios":"levelo://app?vid=dcb34f7e-4bb0-4f50-a0bd-5ae8e961c5f1"},"vehicle_type_id":"4","last_reported":1703768895,"current_range_meters":1600,"station_id":"","pricing_plan_id":"free"},{"bike_id":"f8d5f965-ed32-40f5-9881-200d4d3cc044","system_id":"levelo_inurba_marseille","lat":43.269467,"lon":5.386439,"is_reserved":false,"is_disabled":false,"rental_uris":{"android":"levelo://app?vid=f8d5f965-ed32-40f5-9881-200d4d3cc044","ios":"levelo://app?vid=f8d5f965-ed32-40f5-9881-200d4d3cc044"},"vehicle_type_id":"4","last_reported":1703768895,"current_range_meters":24400,"station_id":"ce4bhh92rcd13ifvqfh0","pricing_plan_id":"free"},{"bike_id":"6ba9018c-34a3-4200-a53c-1168c5cd4bd2","system_id":"levelo_inurba_marseille","lat":43.279465,"lon":5.410561,"is_reserved":false,"is_disabled":false,"rental_uris":{"android":"levelo://app?vid=6ba9018c-34a3-4200-a53c-1168c5cd4bd2","ios":"levelo://app?vid=6ba9018c-34a3-4200-a53c-1168c5cd4bd2"},"vehicle_type_id":"4","last_reported":1703768895,"current_range_meters":25200,"station_id":"ce4bhnp2rcd13ifvqh0g","pricing_plan_id":"free"},{"bike_id":"d8e098b8-f38e-469e-8f51-d0a6b759eba0","system_id":"levelo_inurba_marseille","lat":43.26687,"lon":5.38269,"is_reserved":false,"is_disabled":false,"rental_uris":{"android":"levelo://app?vid=d8e098b8-f38e-469e-8f51-d0a6b759eba0","ios":"levelo://app?vid=d8e098b8-f38e-469e-8f51-d0a6b759eba0"},"vehicle_type_id":"4","last_reported":1703768895,"current_range_meters":18400,"station_id":"ce4bhg92rcd13ifvqf90","pricing_plan_id":"free"},