{"last_updated":1761055851,"ttl":60,"version":"2.2","data":{"bikes":[{"bike_id":"d8a0f4f8-3964-402e-924c-3470748785aa","system_id":"levelo_inurba_marseille","lat":43.337444,"lon":5.374475,"is_reserved":false,"is_disabled":false,"rental_uris":{"android":"levelo://app?vid=d8a0f4f8-3964-402e-924c-3470748785aa","ios":"levelo://app?vid=d8a0f4f8-3964-402e-924c-3470748785aa"},"vehicle_type_id":"4","last_reported":1761055851,"current_range_meters":0,"station_id":"","pricing_plan_id":"cebpf4jnsgd1na2vs0mg"},{"bike_id":"b76adba1-4cbf-4eac-8f8f-f105c0809b93","system_id":"levelo_inurba_marseille","lat":43.27187,"lon":5.3923,"is_reserved":false,"is_disabled":false,"rental_uris":{"android":"levelo://app?vid=b76adba1-4cbf-4eac-8f8f-f105c0809b93","ios":"levelo://app?vid=b76adba1-4cbf-4eac-8f8f-f105c0809b93"},"vehicle_type_id":"4","last_reported":1761055851,"current_range_meters":2800,"station_id":"","pricing_plan_id":"cebpf4jnsgd1na2vs0mg"},{"bike_id":"2006e961-853a-4ea2-8345-9a25c8d8a33f","system_id":"levelo_inurba_marseille","lat":43.262769,"lon":5.38802,"is_reserved":false,"is_disabled":false,"rental_uris":{"android":"levelo://app?vid=2006e961-853a-4ea2-8345-9a25c8d8a33f","ios":"levelo://app?vid=2006e961-853a-4ea2-8345-9a25c8d8a33f"},"vehicle_type_id":"4","last_reported":1761055851,"current_range_meters":2800,"station_id":"ce4bgk12rcd13ifvqbj0","pricing_plan_id":"cebpf4jnsgd1na2vs0mg"},{"bike_id":"19a20f03-3783-4d75-b1fb-3640f2d18b03","system_id":"levelo_inurba_marseille","lat":43.29527,"lon":5.38545,"is_reserved":false,"is_disabled":false,"rental_uris":{"android":"levelo://app?vid=19a20f03-3783-4d75-b1fb-3640f2d18b03","ios":"levelo://app?vid=19a20f03-3783-4d75-b1fb-3640f2d18b03"},"vehicle_type_id":"4","last_reported":1761055851,"current_range_meters":3600,"station_id":"ce4bgih2rcd13ifvqba0","pricing_plan_id":"cebpf4jnsgd1na2vs0mg"},{"bike_id":"6924f75f-46cf-4f3b-83c6-bef19f1c84b6","system_id":"levelo_inurba_marseille","lat":43.2417,"lon":5.36403,"is_reserved":false,"is_disabled":false,"rental_uris":{"android":"levelo://app?vid=6924f75f-46cf-4f3b-83c6-bef19f1c84b6","ios":"levelo://app?vid=6924f75f-46cf-4f3b-83c6-bef19f1c84b6"},"vehicle_type_id":"4","last_reported":1761055851,"current_range_meters":3600,"station_id":"cpo36qri1sfpv3e86is0","pricing_plan_id":"cebpf4jnsgd1na2vs0mg"},{"bike_id":"fbd7f20a-1cd0-4d53-bc63-e18a79fbb4c1","system_id":"levelo_inurba_marseille","lat":43.279007,"lon":5.409746,"is_reserved":false,"is_disabled":false,"rental_uris":{"android":"levelo://app?vid=fbd7f20a-1cd0-4d53-bc63-e18a79fbb4c1","ios":"levelo://app?vid=fbd7f20a-1cd0-4d53-bc63-e18a79fbb4c1"},"vehicle_type_id":"4","last_reported":1761055851,"current_range_meters":3600,"station_id":"","pricing_plan_id":"cebpf4jnsgd1na2vs0mg"},{"bike_id":"0cd4742b-9712-422c-bd96-93739adbe026","system_id":"levelo_inurba_marseille","lat":43.29282,"lon":5.40126,"is_reserved":false,"is_disabled":false,"rental_uris":{"android":"levelo://app?vid=0cd4742b-9712-422c-bd96-93739adbe026","ios":"levelo://app?vid=0cd4742b-9712-422c-bd96-93739adbe026"},"vehicle_type_id":"4","last_reported":1761055851,"current_range_meters":4000,"station_id":"ce4bh312rcd13ifvqdk0","pricing_plan_id":"cebpf4jnsgd1na2vs0mg"},{"bike_id":"782dcdf3-a9ba-4150-8299-00fb0a6dec0c","system_id":"levelo_inurba_marseille","lat":43.28859,"lon":5.38294,"is_reserved":false,"is_disabled":false,"rental_uris":{"android":"levelo://app?vid=782dcdf3-a9ba-4150-8299-00fb0a6dec0c","ios":"levelo://app?vid=782dcdf3-a9ba-4150-8299-00fb0a6dec0c"},"vehicle_type_id":"4","last_reported":1761055851,"current_range_meters":4000,"station_id":"","pricing_plan_id":"cebpf4jnsgd1na2vs0mg"},{"bike_id":"91f69060-3543-4e34-b988-d49287b314e8","system_id":"levelo_inurba_marseille","lat":43.28861,"lon":5.42527,"is_reserved":false,"is_disabled":false,"rental_uris":{"android":"levelo://app?vid=91f69060-3543-4e34-b988-d49287b314e8","ios":"levelo://app?vid=91f69060-3543-4e34-b988-d49287b314e8"},"vehicle_type_id":"4","last_reported":1761055851,"current_range_meters":4000,"station_id":"st_d3b462108ojc7389ooeg","pricing_plan_id":"cebpf4jnsgd1na2vs0mg"},{"bike_id":"433c1107-933a-455c-a117-8e4d84ed353c","system_id":"levelo_inurba_marseille","lat":43.28616,"lon":5.351059,"is_reserved":false,"is_disabled":false,"rental_uris":{"android":"levelo://app?vid=433c1107-933a-455c-a117-8e4d84ed353c","ios":"levelo://app?vid=433c1107-933a-455c-a117-8e4d84ed353c"},"vehicle_type_id":"4","last_reported":1761055851,"current_range_meters":4400,"station_id":"ce4bhch2rcd13ifvqeug","pricing_plan_id":"cebpf4jnsgd1na2vs0mg"},{"bike_id":"fbb75000-48f5-4dbe-aa37-aa4a8d769d08","system_id":"levelo_inurba_marseille","lat":43.21206,"lon":5.35063,"is_reserved":false,"is_disabled":false,"rental_uris":{"android":"levelo://app?vid=fbb75000-48f5-4dbe-aa37-aa4a8d769d08","ios":"levelo://app?vid=fbb75000-48f5-4dbe-aa37-aa4a8d769d08"},"vehicle_type_id":"4","last_reported":1761055851,"current_range_meters":4400,"station_id":"st_cvj6sg6p6f1abm77japg","pricing_plan_id":"cebpf4jnsgd1na2vs0mg"},{"bike_id":"78a0dc8b-3b9d-41f7-a3a3-18ec054e3617","system_id":"levelo_inurba_marseille","lat":43.30968,"lon":5.3812,"is_reserved":false,"is_disabled":false,"rental_uris":{"android":"levelo://app?vid=78a0dc8b-3b9d-41f7-a3a3-18ec054e3617","ios":"levelo://app?vid=78a0dc8b-3b9d-41f7-a3a3-18ec054e3617"},"vehicle_type_id":"4","last_reported":1761055851,"current_range_meters":4400,"station_id":"","pricing_plan_id":"cebpf4jnsgd1na2vs0mg"},{"bike_id":"c8898b06-2c23-459b-a4bd-584ea3e11fdb","system_id":"levelo_inurba_marseille","lat":43.30923,"lon":5.40139,"is_reserved":false,"is_disabled":false,"rental_uris":{"android":"levelo://app?vid=c8898b06-2c23-459b-a4bd-584ea3e11fdb","ios":"levelo://app?vid=c8898b06-2c23-459b-a4bd-584ea3e11fdb"},"vehicle_type_id":"4","last_reported":1761055851,"current_range_meters":4800,"station_id":"ce4bgvp2rcd13ifvqct0","pricing_plan_id":"cebpf4jnsgd1na2vs0mg"},{"bike_id":"0693bf4b-5a82-4f30-87be-a3216d5580da","system_id":"levelo_inurba_marseille","lat":43.25497,"lon":5.3765,"is_reserved":false,"is_disabled":false,"rental_uris":{"android":"levelo://app?vid=0693bf4b-5a82-4f30-87be-a3216d5580da","ios":"levelo://app?vid=0693bf4b-5a82-4f30-87be-a3216d5580da"},"vehicle_type_id":"4","last_reported":1761055851,"current_range_meters":4800,"station_id":"ce4bhh12rcd13ifvqff0","pricing_plan_id":"cebpf4jnsgd1na2vs0mg"},{"bike_id":"ab735377-b49d-450f-a541-da8a17f8750d","system_id":"levelo_inurba_marseille","lat":43.28409,"lon":5.37516,"is_reserved":false,"is_disabled":false,"rental_uris":{"android":"levelo://app?vid=ab735377-b49d-450f-a541-da8a17f8750d","ios":"levelo://app?vid=ab735377-b49d-450f-a541-da8a17f8750d"},"vehicle_type_id":"4","last_reported":1761055851,"current_range_meters":4800,"station_id":"ce4bh412rcd13ifvqds0","pricing_plan_id":"cebpf4jnsgd1na2vs0mg"},{"bike_id":"6aef7dfd-7ebe-4dde-8361-eb921f6fbc0d","system_id":"levelo_inurba_marseille","lat":43.2175,"lon":5.34619,"is_reserved":false,"is_disabled":false,"rental_uris":{"android":"levelo://app?vid=6aef7dfd-7ebe-4dde-8361-eb921f6fbc0d","ios":"levelo://app?vid=6aef7dfd-7ebe-4dde-8361-eb921f6fbc0d"},"vehicle_type_id":"4","last_reported":1761055851,"current_range_meters":4800,"station_id":"st_cvj6r9ubvosntc0bgbag","pricing_plan_id":"cebpf4jnsgd1na2vs0mg"},{"bike_id":"1714f72c-4de8-45b8-8f8f-3a5eca075b6d","system_id":"levelo_inurba_marseille","lat":43.273109,"lon":5.390826,"is_reserved":false,"is_disabled":false,"rental_uris":{"android":"levelo://app?vid=1714f72c-4de8-45b8-8f8f-3a5eca075b6d","ios":"levelo://app?vid=1714f72c-4de8-45b8-8f8f-3a5eca075b6d"},"vehicle_type_id":"4","last_reported":1761055851,"current_range_meters":4800,"station_id":"","pricing_plan_id":"cebpf4jnsgd1na2vs0mg"},{"bike_id":"217bb606-3d42-4d35-97c7-4bbe1b540e00","system_id":"levelo_inurba_marseille","lat":43.27425,"lon":5.39406,"is_reserved":false,"is_disabled":false,"rental_uris":{"android":"levelo://app?vid=217bb606-3d42-4d35-97c7-4bbe1b540e00","ios":"levelo://app?vid=217bb606-3d42-4d35-97c7-4bbe1b540e00"},"vehicle_type_id":"4","last_reported":1761055851,"current_range_meters":5600,"station_id":"ce4bhdp2rcd13ifvqf20","pricing_plan_id":"cebpf4jnsgd1na2vs0mg"},{"bike_id":"888cf5dc-fe12-4d27-8498-6486b8462d2d","system_id":"levelo_inurba_marseille","lat":43.217397,"lon":5.346053,"is_reserved":false,"is_disabled":false,"rental_uris":{"android":"levelo://app?vid=888cf5dc-fe12-4d27-8498-6486b8462d2d","ios":"levelo://app?vid=888cf5dc-fe12-4d27-8498-6486b8462d2d"},"vehicle_type_id":"4","last_reported":1761055851,"current_range_meters":5600,"station_id":"st_cvj6r9ubvosntc0bgbag","pricing_plan_id":"cebpf4jnsgd1na2vs0mg"},{"bike_id":"df232322-534c-43cc-99de-f18e2f9f7788","system_id":"levelo_inurba_marseille","lat":43.22522,"lon":5.348315,"is_reserved":false,"is_disabled":false,"rental_uris":{"android":"levelo://app?vid=df232322-534c-43cc-99de-f18e2f9f7788","ios":"levelo://app?vid=df232322-534c-43cc-99de-f18e2f9f7788"},"vehicle_type_id":"4","last_reported":1761055851,"current_range_meters":5600,"station_id":"","pricing_plan_id":"cebpf4jnsgd1na2vs0mg"},{"bike_id":"0adb8007-b38a-4c8f-9f32-ba61862af0dd","system_id":"levelo_inurba_marseille","lat":43.31245,"lon":5.36853,"is_reserved":false,"is_disabled":false,"rental_uris":{"android":"levelo://app?vid=0adb8007-b38a-4c8f-9f32-ba61862af0dd","ios":"levelo://app?vid=0adb8007-b38a-4c8f-9f32-ba61862af0dd"},"vehicle_type_id":"4","last_reported":1761055851,"current_range_meters":5600,"station_id":"ce4bgl92rcd13ifvqbq0","pricing_plan_id":"cebpf4jnsgd1na2vs0mg"},{"bike_id":"68b48e56-0dd9-4f01-a5cf-aa5bed18ac5a","system_id":"levelo_inurba_marseille","lat":43.211904,"lon":5.35075,"is_reserved":false,"is_disabled":false,"rental_uris":{"android":"levelo://app?vid=68b48e56-0dd9-4f01-a5cf-aa5bed18ac5a","ios":"levelo://app?vid=68b48e56-0dd9-4f01-a5cf-aa5bed18ac5a"},"vehicle_type_id":"4","last_reported":1761055851,"current_range_meters":5600,"station_id":"st_cvj6sg6p6f1abm77japg","pricing_plan_id":"cebpf4jnsgd1na2vs0mg"},{"bike_id":"4f1a5f93-ef2d-430c-af69-36b85813a3ec","system_id":"levelo_inurba_marseille","lat":43.28614,"lon":5.35105,"is_reserved":false,"is_disabled":false,"rental_uris":{"android":"levelo://app?vid=4f1a5f93-ef2d-430c-af69-36b85813a3ec","ios":"levelo://app?vid=4f1a5f93-ef2d-430c-af69-36b85813a3ec"},"vehicle_type_id":"4","last_reported":1761055851,"current_range_meters":5600,"station_id":"ce4bhch2rcd13ifvqeug","pricing_plan_id":"cebpf4jnsgd1na2vs0mg"},{"bike_id":"fe998b17-9d85-477f-b92c-87f6ebb6e1b3","system_id":"levelo_inurba_marseille","lat":43.244737,"lon":5.369312,"is_reserved":false,"is_disabled":false,"rental_uris":{"android":"levelo://app?vid=fe998b17-9d85-477f-b92c-87f6ebb6e1b3","ios":"levelo://app?vid=fe998b17-9d85-477f-b92c-87f6ebb6e1b3"},"vehicle_type_id":"4","last_reported":1761055851,"current_range_meters":6000,"station_id":"","pricing_plan_id":"cebpf4jnsgd1na2vs0mg"},{"bike_id":"249b6622-9f5a-4b31-947e-0817699a5c6e","system_id":"levelo_inurba_marseille","lat":43.314941,"lon":5.373105,"is_reserved":false,"is_disabled":false,"rental_uris":{"android":"levelo://app?vid=249b6622-9f5a-4b31-947e-0817699a5c6e","ios":"levelo://app?vid=249b6622-9f5a-4b31-947e-0817699a5c6e"},"vehicle_type_id":"4","last_reported":1761055851,"current_range_meters":6000,"station_id":"ce4bhgp2rcd13ifvqfe0","pricing_plan_id":"cebpf4jnsgd1na2vs0mg"},{"bike_id":"8b042003-c67e-4e06-bd01-ea32fba1d473","system_id":"levelo_inurba_marseille","lat":43.26141,"lon":5.38843,"is_reserved":false,"is_disabled":false,"rental_uris":{"android":"levelo://app?vid=8b042003-c67e-4e06-bd01-ea32fba1d473","ios":"levelo://app?vid=8b042003-c67e-4e06-bd01-ea32fba1d473"},"vehicle_type_id":"4","last_reported":1761055851,"current_range_meters":6000,"station_id":"","pricing_plan_id":"cebpf4jnsgd1na2vs0mg"},{"bike_id":"212a9329-66c4-44b3-8186-4a3357c4630e","system_id":"levelo_inurba_marseille","lat":43.29198,"lon":5.38089,"is_reserved":false,"is_disabled":false,"rental_uris":{"android":"levelo://app?vid=212a9329-66c4-44b3-8186-4a3357c4630e","ios":"levelo://app?vid=212a9329-66c4-44b3-8186-4a3357c4630e"},"vehicle_type_id":"4","last_reported":1761055851,"current_range_meters":6000,"station_id":"","pricing_plan_id":"cebpf4jnsgd1na2vs0mg"},{"bike_id":"bfa33921-f572-454a-86c9-9d9463e807ff","system_id":"levelo_inurba_marseille","lat":43.32069,"lon":5.415314,"is_reserved":false,"is_disabled":false,"rental_uris":{"android":"levelo://app?vid=bfa33921-f572-454a-86c9-9d9463e807ff","ios":"levelo://app?vid=bfa33921-f572-454a-86c9-9d9463e807ff"},"vehicle_type_id":"4","last_reported":1761055851,"current_range_meters":6000,"station_id":"ce4bhq92rcd13ifvqhkg","pricing_plan_id":"cebpf4jnsgd1na2vs0mg"},{"bike_id":"7750340e-3b9f-421b-a3cd-51ee2b59f4e6","system_id":"levelo_inurba_marseille","lat":43.2799,"lon":5.41664,"is_reserved":false,"is_disabled":false,"rental_uris":{"android":"levelo://app?vid=7750340e-3b9f-421b-a3cd-51ee2b59f4e6","ios":"levelo://app?vid=7750340e-3b9f-421b-a3cd-51ee2b59f4e6"},"vehicle_type_id":"4","last_reported":1761055851,"current_range_meters":6000,"station_id":"ce4bho12rcd13ifvqh1g","pricing_plan_id":"cebpf4jnsgd1na2vs0mg"},{"bike_id":"ada1219e-2344-4ed4-9a8b-26e07d491253","system_id":"levelo_inurba_marseille","lat":43.32486,"lon":5.36582,"is_reserved":false,"is_disabled":false,"rental_uris":{"android":"levelo://app?vid=ada1219e-2344-4ed4-9a8b-26e07d491253","ios":"levelo://app?vid=ada1219e-2344-4ed4-9a8b-26e07d491253"},"vehicle_type_id":"4","last_reported":1761055851,"current_range_meters":6400,"station_id":"ce4bhs12rcd13ifvqhvg","pricing_plan_id":"cebpf4jnsgd1na2vs0mg"},{"bike_id":"64a817e3-60a3-4f07-8f31-d4260d836623","system_id":"levelo_inurba_marseille","lat":43.27562,"lon":5.38434,"is_reserved":false,"is_disabled":false,"rental_uris":{"android":"levelo://app?vid=64a817e3-60a3-4f07-8f31-d4260d836623","ios":"levelo://app?vid=64a817e3-60a3-4f07-8f31-d4260d836623"},"vehicle_type_id":"4","last_reported":1761055851,"current_range_meters":6400,"station_id":"ce4bhh92rcd13ifvqfi0","pricing_plan_id":"cebpf4jnsgd1na2vs0mg"},{"bike_id":"0cdad2aa-17b7-4959-ae42-c1c645ed35c5","system_id":"levelo_inurba_marseille","lat":43.25126,"lon":5.40324,"is_reserved":false,"is_disabled":false,"rental_uris":{"android":"levelo://app?vid=0cdad2aa-17b7-4959-ae42-c1c645ed35c5","ios":"levelo://app?vid=0cdad2aa-17b7-4959-ae42-c1c645ed35c5"},"vehicle_type_id":"4","last_reported":1761055851,"current_range_meters":6800,"station_id":"ce4bhlh2rcd13ifvqgig","pricing_plan_id":"cebpf4jnsgd1na2vs0mg"},{"bike_id":"8a830d4f-ddab-46b9-9d0f-77194401daa1","system_id":"levelo_inurba_marseille","lat":43.34719,"lon":5.36609,"is_reserved":false,"is_disabled":false,"rental_uris":{"android":"levelo://app?vid=8a830d4f-ddab-46b9-9d0f-77194401daa1","ios":"levelo://app?vid=8a830d4f-ddab-46b9-9d0f-77194401daa1"},"vehicle_type_id":"4","last_reported":1761055851,"current_range_meters":6800,"station_id":"","pricing_plan_id":"cebpf4jnsgd1na2vs0mg"},{"bike_id":"3035566b-ee04-49ad-9ff9-3e6b88691590","system_id":"levelo_inurba_marseille","lat":43.28688,"lon":5.38679,"is_reserved":false,"is_disabled":false,"rental_uris":{"android":"levelo://app?vid=3035566b-ee04-49ad-9ff9-3e6b88691590","ios":"levelo://app?vid=3035566b-ee04-49ad-9ff9-3e6b88691590"},"vehicle_type_id":"4","last_reported":1761055851,"current_range_meters":6800,"station_id":"ce4bh492rcd13ifvqdug","pricing_plan_id":"cebpf4jnsgd1na2vs0mg"},{"bike_id":"2fe970b2-0b77-415b-a62a-8ff278f0aabb","system_id":"levelo_inurba_marseille","lat":43.27566,"lon":5.38435,"is_reserved":false,"is_disabled":false,"rental_uris":{"android":"levelo://app?vid=2fe970b2-0b77-415b-a62a-8ff278f0aabb","ios":"levelo://app?vid=2fe970b2-0b77-415b-a62a-8ff278f0aabb"},"vehicle_type_id":"4","last_reported":1761055851,"current_range_meters":6800,"station_id":"ce4bhh92rcd13ifvqfi0","pricing_plan_id":"cebpf4jnsgd1na2vs0mg"},{"bike_id":"98490d11-db71-4361-ab96-f0addd49d050","system_id":"levelo_inurba_marseille","lat":43.300033,"lon":5.373556,"is_reserved":false,"is_disabled":false,"rental_uris":{"android":"levelo://app?vid=98490d11-db71-4361-ab96-f0addd49d050","ios":"levelo://app?vid=98490d11-db71-4361-ab96-f0addd49d050"},"vehicle_type_id":"4","last_reported":1761055851,"current_range_meters":6800,"station_id":"","pricing_plan_id":"cebpf4jnsgd1na2vs0mg"},{"bike_id":"cc22600c-0f29-4874-b4f0-14302ff1ecb7","system_id":"levelo_inurba_marseille","lat":43.30534,"lon":5.36546,"is_reserved":false,"is_disabled":false,"rental_uris":{"android":"levelo://app?vid=cc22600c-0f29-4874-b4f0-14302ff1ecb7","ios":"levelo://app?vid=cc22600c-0f29-4874-b4f0-14302ff1ecb7"},"vehicle_type_id":"4","last_reported":1761055851,"current_range_meters":7200,"station_id":"ce4bgs12rcd13ifvqcag","pricing_plan_id":"cebpf4jnsgd1na2vs0mg"},{"bike_id":"c037874f-e454-4d1e-9f03-b485b4dbd4f2","system_id":"levelo_inurba_marseille","lat":43.291847,"lon":5.370596,"is_reserved":false,"is_disabled":false,"rental_uris":{"android":"levelo://app?vid=c037874f-e454-4d1e-9f03-b485b4dbd4f2","ios":"levelo://app?vid=c037874f-e454-4d1e-9f03-b485b4dbd4f2"},"vehicle_type_id":"4","last_reported":1761055851,"current_range_meters":7200,"station_id":"","pricing_plan_id":"cebpf4jnsgd1na2vs0mg"},{"bike_id":"3dce95df-7659-446e-9010-516137ea4310","system_id":"levelo_inurba_marseille","lat":43.30953,"lon":5.39041,"is_reserved":false,"is_disabled":true,"rental_uris":{"android":"levelo://app?vid=3dce95df-7659-446e-9010-516137ea4310","ios":"levelo://app?vid=3dce95df-7659-446e-9010-516137ea4310"},"vehicle_type_id":"4","last_reported":1761055851,"current_range_meters":7200,"station_id":"ce4bgup2rcd13ifvqco0","pricing_plan_id":"cebpf4jnsgd1na2vs0mg"},{"bike_id":"23d2e327-9a1c-43f9-a1d7-2fca27e96f84","system_id":"levelo_inurba_marseille","lat":43.27357,"lon":5.4151,"is_reserved":false,"is_disabled":false,"rental_uris":{"android":"levelo://app?vid=23d2e327-9a1c-43f9-a1d7-2fca27e96f84","ios":"levelo://app?vid=23d2e327-9a1c-43f9-a1d7-2fca27e96f84"},"vehicle_type_id":"4","last_reported":1761055851,"current_range_meters":7200,"station_id":"","pricing_plan_id":"cebpf4jnsgd1na2vs0mg"},{"bike_id":"c577f948-2236-4fee-bfb9-b1a1baebadab","system_id":"levelo_inurba_marseille","lat":43.2909,"lon":5.38119,"is_reserved":false,"is_disabled":false,"rental_uris":{"android":"levelo://app?vid=c577f948-2236-4fee-bfb9-b1a1baebadab","ios":"levelo://app?vid=c577f948-2236-4fee-bfb9-b1a1baebadab"},"vehicle_type_id":"4","last_reported":1761055851,"current_range_meters":7200,"station_id":"ce4bh512rcd13ifvqe2g","pricing_plan_id":"cebpf4jnsgd1na2vs0mg"},{"bike_id":"64a775c8-c121-4102-b7d5-2bb2159444df","system_id":"levelo_inurba_marseille","lat":43.21746,"lon":5.34606,"is_reserved":false,"is_disabled":false,"rental_uris":{"android":"levelo://app?vid=64a775c8-c121-4102-b7d5-2bb2159444df","ios":"levelo://app?vid=64a775c8-c121-4102-b7d5-2bb2159444df"},"vehicle_type_id":"4","last_reported":1761055851,"current_range_meters":7200,"station_id":"st_cvj6r9ubvosntc0bgbag","pricing_plan_id":"cebpf4jnsgd1na2vs0mg"},{"bike_id":"bf6f945e-1d89-4884-b25c-f9034db8230e","system_id":"levelo_inurba_marseille","lat":43.33136,"lon":5.39156,"is_reserved":false,"is_disabled":false,"rental_uris":{"android":"levelo://app?vid=bf6f945e-1d89-4884-b25c-f9034db8230e","ios":"levelo://app?vid=bf6f945e-1d89-4884-b25c-f9034db8230e"},"vehicle_type_id":"4","last_reported":1761055851,"current_range_meters":8000,"station_id":"","pricing_plan_id":"cebpf4jnsgd1na2vs0mg"},{"bike_id":"6d8da19b-0143-43ba-a2b6-b774a32597d4","system_id":"levelo_inurba_marseille","lat":43.28157,"lon":5.34764,"is_reserved":false,"is_disabled":false,"rental_uris":{"android":"levelo://app?vid=6d8da19b-0143-43ba-a2b6-b774a32597d4","ios":"levelo://app?vid=6d8da19b-0143-43ba-a2b6-b774a32597d4"},"vehicle_type_id":"4","last_reported":1761055851,"current_range_meters":8400,"station_id":"","pricing_plan_id":"cebpf4jnsgd1na2vs0mg"},{"bike_id":"bf8ec125-d0e1-4669-93ef-7d5ad0ddea3a","system_id":"levelo_inurba_marseille","lat":43.27228,"lon":5.4005,"is_reserved":false,"is_disabled":false,"rental_uris":{"android":"levelo://app?vid=bf8ec125-d0e1-4669-93ef-7d5ad0ddea3a","ios":"levelo://app?vid=bf8ec125-d0e1-4669-93ef-7d5ad0ddea3a"},"vehicle_type_id":"4","last_reported":1761055851,"current_range_meters":8800,"station_id":"","pricing_plan_id":"cebpf4jnsgd1na2vs0mg"},{"bike_id":"c61b835e-b3c8-4130-8a7d-86823b447306","system_id":"levelo_inurba_marseille","lat":43.28493,"lon":5.38433,"is_reserved":false,"is_disabled":false,"rental_uris":{"android":"levelo://app?vid=c61b835e-b3c8-4130-8a7d-86823b447306","ios":"levelo://app?vid=c61b835e-b3c8-4130-8a7d-86823b447306"},"vehicle_type_id":"4","last_reported":1761055851,"current_range_meters":8800,"station_id":"ce4bh512rcd13ifvqe3g","pricing_plan_id":"cebpf4jnsgd1na2vs0mg"},{"bike_id":"e7cb61d9-84d9-41c0-8427-00fc6a9e436b","system_id":"levelo_inurba_marseille","lat":43.3107,"lon":5.37589,"is_reserved":false,"is_disabled":false,"rental_uris":{"android":"levelo://app?vid=e7cb61d9-84d9-41c0-8427-00fc6a9e436b","ios":"levelo://app?vid=e7cb61d9-84d9-41c0-8427-00fc6a9e436b"},"vehicle_type_id":"4","last_reported":1761055851,"current_range_meters":8800,"station_id":"","pricing_plan_id":"cebpf4jnsgd1na2vs0mg"},{"bike_id":"b1c9cb01-42df-4b8e-89a2-c81e1e9f20cc","system_id":"levelo_inurba_marseille","lat":43.2118,"lon":5.35088,"is_reserved":false,"is_disabled":false,"rental_uris":{"android":"levelo://app?vid=b1c9cb01-42df-4b8e-89a2-c81e1e9f20cc","ios":"levelo://app?vid=b1c9cb01-42df-4b8e-89a2-c81e1e9f20cc"},"vehicle_type_id":"4","last_reported":1761055851,"current_range_meters":8800,"station_id":"ce4bhhh2rcd13ifvqfk0","pricing_plan_id":"cebpf4jnsgd1na2vs0mg"},{"bike_id":"19840955-f9d6-49c1-86e8-b7616b7da32c","system_id":"levelo_inurba_marseille","lat":43.33169,"lon":5.39059,"is_reserved":false,"is_disabled":false,"rental_uris":{"android":"levelo://app?vid=19840955-f9d6-49c1-86e8-b7616b7da32c","ios":"levelo://app?vid=19840955-f9d6-49c1-86e8-b7616b7da32c"},"vehicle_type_id":"4","last_reported":1761055851,"current_range_meters":8800,"station_id":"","pricing_plan_id":"cebpf4jnsgd1na2vs0mg"},{"bike_id":"c068c946-d4c6-4f24-acf7-03bb41b90039","system_id":"levelo_inurba_marseille","lat":43.33025,"lon":5.39039,"is_reserved":false,"is_disabled":false,"rental_uris":{"android":"levelo://app?vid=c068c946-d4c6-4f24-acf7-03bb41b90039","ios":"levelo://app?vid=c068c946-d4c6-4f24-acf7-03bb41b90039"},"vehicle_type_id":"4","last_reported":1761055851,"current_range_meters":8800,"station_id":"ce4bhr92rcd13ifvqhrg","pricing_plan_id":"cebpf4jnsgd1na2vs0mg"},{"bike_id":"faafaab3-2765-4e63-92f5-e8aca18c08f2","system_id":"levelo_inurba_marseille","lat":43.32089,"lon":5.36754,"is_reserved":false,"is_disabled":true,"rental_uris":{"android":"levelo://app?vid=faafaab3-2765-4e63-92f5-e8aca18c08f2","ios":"levelo://app?vid=faafaab3-2765-4e63-92f5-e8aca18c08f2"},"vehicle_type_id":"4","last_reported":1761055851,"current_range_meters":9200,"station_id":"ce4bhrh2rcd13ifvqhug","pricing_plan_id":"cebpf4jnsgd1na2vs0mg"},{"bike_id":"4438cd00-8ef6-4cc7-9440-89dfe649307d","system_id":"levelo_inurba_marseille","lat":43.29033,"lon":5.38646,"is_reserved":false,"is_disabled":false,"rental_uris":{"android":"levelo://app?vid=4438cd00-8ef6-4cc7-9440-89dfe649307d","ios":"levelo://app?vid=4438cd00-8ef6-4cc7-9440-89dfe649307d"},"vehicle_type_id":"4","last_reported":1761055851,"current_range_meters":9600,"station_id":"ce4bh4p2rcd13ifvqe0g","pricing_plan_id":"cebpf4jnsgd1na2vs0mg"},{"bike_id":"bedab86a-a42b-4d3b-a255-7e555fb6da4b","system_id":"levelo_inurba_marseille","lat":43.28817,"lon":5.45163,"is_reserved":false,"is_disabled":false,"rental_uris":{"android":"levelo://app?vid=bedab86a-a42b-4d3b-a255-7e555fb6da4b","ios":"levelo://app?vid=bedab86a-a42b-4d3b-a255-7e555fb6da4b"},"vehicle_type_id":"4","last_reported":1761055851,"current_range_meters":9600,"station_id":"","pricing_plan_id":"cebpf4jnsgd1na2vs0mg"},{"bike_id":"a2e131f8-3c9f-478a-b394-6a9db5f46a7a","system_id":"levelo_inurba_marseille","lat":43.30131,"lon":5.37428,"is_reserved":false,"is_disabled":true,"rental_uris":{"android":"levelo://app?vid=a2e131f8-3c9f-478a-b394-6a9db5f46a7a","ios":"levelo://app?vid=a2e131f8-3c9f-478a-b394-6a9db5f46a7a"},"vehicle_type_id":"4","last_reported":1761055851,"current_range_meters":9600,"station_id":"ce4bgs92rcd13ifvqcc0","pricing_plan_id":"cebpf4jnsgd1na2vs0mg"},{"bike_id":"f2ff0ade-5361-46d8-ab78-69bd403c3483","system_id":"levelo_inurba_marseille","lat":43.282121,"lon":5.349893,"is_reserved":false,"is_disabled":false,"rental_uris":{"android":"levelo://app?vid=f2ff0ade-5361-46d8-ab78-69bd403c3483","ios":"levelo://app?vid=f2ff0ade-5361-46d8-ab78-69bd403c3483"},"vehicle_type_id":"4","last_reported":1761055851,"current_range_meters":9600,"station_id":"","pricing_plan_id":"cebpf4jnsgd1na2vs0mg"},{"bike_id":"e35478c7-9171-498f-aae3-99c16f8f5c5f","system_id":"levelo_inurba_marseille","lat":43.27173,"lon":5.40992,"is_reserved":false,"is_disabled":false,"rental_uris":{"android":"levelo://app?vid=e35478c7-9171-498f-aae3-99c16f8f5c5f","ios":"levelo://app?vid=e35478c7-9171-498f-aae3-99c16f8f5c5f"},"vehicle_type_id":"4","last_reported":1761055851,"current_range_meters":9600,"station_id":"ce4bhl12rcd13ifvqgf0","pricing_plan_id":"cebpf4jnsgd1na2vs0mg"},{"bike_id":"0d4b23c5-b3e4-4096-bdf4-fdb72d95c8aa","system_id":"levelo_inurba_marseille","lat":43.29512,"lon":5.39402,"is_reserved":false,"is_disabled":false,"rental_uris":{"android":"levelo://app?vid=0d4b23c5-b3e4-4096-bdf4-fdb72d95c8aa","ios":"levelo://app?vid=0d4b23c5-b3e4-4096-bdf4-fdb72d95c8aa"},"vehicle_type_id":"4","last_reported":1761055851,"current_range_meters":9600,"station_id":"ce4bh292rcd13ifvqdf0","pricing_plan_id":"cebpf4jnsgd1na2vs0mg"},{"bike_id":"3ea16c49-dd15-43b8-ab67-c33a68019a8c","system_id":"levelo_inurba_marseille","lat":43.31335,"lon":5.39697,"is_reserved":false,"is_disabled":false,"rental_uris":{"android":"levelo://app?vid=3ea16c49-dd15-43b8-ab67-c33a68019a8c","ios":"levelo://app?vid=3ea16c49-dd15-43b8-ab67-c33a68019a8c"},"vehicle_type_id":"4","last_reported":1761055851,"current_range_meters":9600,"station_id":"ce4bgvp2rcd13ifvqcu0","pricing_plan_id":"cebpf4jnsgd1na2vs0mg"},{"bike_id":"037f360b-1302-4658-997d-42254636b523","system_id":"levelo_inurba_marseille","lat":43.23147,"lon":5.43716,"is_reserved":false,"is_disabled":false,"rental_uris":{"android":"levelo://app?vid=037f360b-1302-4658-997d-42254636b523","ios":"levelo://app?vid=037f360b-1302-4658-997d-42254636b523"},"vehicle_type_id":"4","last_reported":1761055851,"current_range_meters":10000,"station_id":"ce4bhmp2rcd13ifvqgog","pricing_plan_id":"cebpf4jnsgd1na2vs0mg"},{"bike_id":"af89308b-13fb-4251-95aa-12d9ed0f2c43","system_id":"levelo_inurba_marseille","lat":43.31699,"lon":5.43697,"is_reserved":false,"is_disabled":false,"rental_uris":{"android":"levelo://app?vid=af89308b-13fb-4251-95aa-12d9ed0f2c43","ios":"levelo://app?vid=af89308b-13fb-4251-95aa-12d9ed0f2c43"},"vehicle_type_id":"4","last_reported":1761055851,"current_range_meters":10000,"station_id":"ce4bhp92rcd13ifvqhcg","pricing_plan_id":"cebpf4jnsgd1na2vs0mg"},{"bike_id":"2f2cd53b-bf8d-472a-8c70-97638c6ae795","system_id":"levelo_inurba_marseille","lat":43.31884,"lon":5.39983,"is_reserved":false,"is_disabled":false,"rental_uris":{"android":"levelo://app?vid=2f2cd53b-bf8d-472a-8c70-97638c6ae795","ios":"levelo://app?vid=2f2cd53b-bf8d-472a-8c70-97638c6ae795"},"vehicle_type_id":"4","last_reported":1761055851,"current_range_meters":10000,"station_id":"","pricing_plan_id":"cebpf4jnsgd1na2vs0mg"},{"bike_id":"397b3153-bd5b-4a18-b6c0-84fbc6b765c6","system_id":"levelo_inurba_marseille","lat":43.302193,"lon":5.394745,"is_reserved":false,"is_disabled":false,"rental_uris":{"android":"levelo://app?vid=397b3153-bd5b-4a18-b6c0-84fbc6b765c6","ios":"levelo://app?vid=397b3153-bd5b-4a18-b6c0-84fbc6b765c6"},"vehicle_type_id":"4","last_reported":1761055851,"current_range_meters":10000,"station_id":"ce4bh0p2rcd13ifvqd70","pricing_plan_id":"cebpf4jnsgd1na2vs0mg"},{"bike_id":"adb6da43-a790-4bbe-8cdb-8fa1e5d17796","system_id":"levelo_inurba_marseille","lat":43.3175,"lon":5.38585,"is_reserved":false,"is_disabled":false,"rental_uris":{"android":"levelo://app?vid=adb6da43-a790-4bbe-8cdb-8fa1e5d17796","ios":"levelo://app?vid=adb6da43-a790-4bbe-8cdb-8fa1e5d17796"},"vehicle_type_id":"4","last_reported":1761055851,"current_range_meters":10000,"station_id":"","pricing_plan_id":"cebpf4jnsgd1na2vs0mg"},{"bike_id":"7a35955c-fc9b-47ab-b836-acc7017aac88","system_id":"levelo_inurba_marseille","lat":43.29533,"lon":5.38538,"is_reserved":false,"is_disabled":true,"rental_uris":{"android":"levelo://app?vid=7a35955c-fc9b-47ab-b836-acc7017aac88","ios":"levelo://app?vid=7a35955c-fc9b-47ab-b836-acc7017aac88"},"vehicle_type_id":"4","last_reported":1761055851,"current_range_meters":10000,"station_id":"ce4bgih2rcd13ifvqba0","pricing_plan_id":"cebpf4jnsgd1na2vs0mg"},{"bike_id":"e31fefd7-019d-4293-a003-27736cab78d4","system_id":"levelo_inurba_marseille","lat":43.32002,"lon":5.38162,"is_reserved":false,"is_disabled":false,"rental_uris":{"android":"levelo://app?vid=e31fefd7-019d-4293-a003-27736cab78d4","ios":"levelo://app?vid=e31fefd7-019d-4293-a003-27736cab78d4"},"vehicle_type_id":"4","last_reported":1761055851,"current_range_meters":10000,"station_id":"ce4bhr12rcd13ifvqhpg","pricing_plan_id":"cebpf4jnsgd1na2vs0mg"},{"bike_id":"94b27394-3ef6-429b-9066-ded2571b49b0","system_id":"levelo_inurba_marseille","lat":43.21738,"lon":5.34603,"is_reserved":false,"is_disabled":false,"rental_uris":{"android":"levelo://app?vid=94b27394-3ef6-429b-9066-ded2571b49b0","ios":"levelo://app?vid=94b27394-3ef6-429b-9066-ded2571b49b0"},"vehicle_type_id":"4","last_reported":1761055851,"current_range_meters":10000,"station_id":"st_cvj6r9ubvosntc0bgbag","pricing_plan_id":"cebpf4jnsgd1na2vs0mg"},{"bike_id":"540bc1d7-09a2-4444-8906-19d7fbc378fe","system_id":"levelo_inurba_marseille","lat":43.30866,"lon":5.39641,"is_reserved":false,"is_disabled":false,"rental_uris":{"android":"levelo://app?vid=540bc1d7-09a2-4444-8906-19d7fbc378fe","ios":"levelo://app?vid=540bc1d7-09a2-4444-8906-19d7fbc378fe"},"vehicle_type_id":"4","last_reported":1761055851,"current_range_meters":10000,"station_id":"ce4bh012rcd13ifvqcv0","pricing_plan_id":"cebpf4jnsgd1na2vs0mg"},{"bike_id":"e0b2a497-9bd4-4c0a-8fab-d2739f808190","system_id":"levelo_inurba_marseille","lat":43.239655,"lon":5.366291,"is_reserved":false,"is_disabled":false,"rental_uris":{"android":"levelo://app?vid=e0b2a497-9bd4-4c0a-8fab-d2739f808190","ios":"levelo://app?vid=e0b2a497-9bd4-4c0a-8fab-d2739f808190"},"vehicle_type_id":"4","last_reported":1761055851,"current_range_meters":10800,"station_id":"ce4bhi12rcd13ifvqfp0","pricing_plan_id":"cebpf4jnsgd1na2vs0mg"},{"bike_id":"4154d683-e72a-4592-9e60-2a3872848698","system_id":"levelo_inurba_marseille","lat":43.28481,"lon":5.48397,"is_reserved":false,"is_disabled":false,"rental_uris":{"android":"levelo://app?vid=4154d683-e72a-4592-9e60-2a3872848698","ios":"levelo://app?vid=4154d683-e72a-4592-9e60-2a3872848698"},"vehicle_type_id":"4","last_reported":1761055851,"current_range_meters":10800,"station_id":"st_d3jp68qikq2c7381ktn0","pricing_plan_id":"cebpf4jnsgd1na2vs0mg"},{"bike_id":"8be03831-4660-4434-a70c-8b40e2401cfc","system_id":"levelo_inurba_marseille","lat":43.21742,"lon":5.34615,"is_reserved":false,"is_disabled":false,"rental_uris":{"android":"levelo://app?vid=8be03831-4660-4434-a70c-8b40e2401cfc","ios":"levelo://app?vid=8be03831-4660-4434-a70c-8b40e2401cfc"},"vehicle_type_id":"4","last_reported":1761055851,"current_range_meters":10800,"station_id":"st_cvj6r9ubvosntc0bgbag","pricing_plan_id":"cebpf4jnsgd1na2vs0mg"},{"bike_id":"1e9bfffa-fe46-4cca-8d70-a5ba74081670","system_id":"levelo_inurba_marseille","lat":43.312269,"lon":5.368655,"is_reserved":false,"is_disabled":true,"rental_uris":{"android":"levelo://app?vid=1e9bfffa-fe46-4cca-8d70-a5ba74081670","ios":"levelo://app?vid=1e9bfffa-fe46-4cca-8d70-a5ba74081670"},"vehicle_type_id":"4","last_reported":1761055851,"current_range_meters":10800,"station_id":"ce4bgl92rcd13ifvqbq0","pricing_plan_id":"cebpf4jnsgd1na2vs0mg"},{"bike_id":"5d823415-4901-46a6-8d50-3886f3d86745","system_id":"levelo_inurba_marseille","lat":43.211964,"lon":5.350666,"is_reserved":false,"is_disabled":false,"rental_uris":{"android":"levelo://app?vid=5d823415-4901-46a6-8d50-3886f3d86745","ios":"levelo://app?vid=5d823415-4901-46a6-8d50-3886f3d86745"},"vehicle_type_id":"4","last_reported":1761055851,"current_range_meters":10800,"station_id":"st_cvj6sg6p6f1abm77japg","pricing_plan_id":"cebpf4jnsgd1na2vs0mg"},{"bike_id":"3d068a7d-8c2c-4f97-8d7d-54140fa95800","system_id":"levelo_inurba_marseille","lat":43.27337,"lon":5.39871,"is_reserved":false,"is_disabled":false,"rental_uris":{"android":"levelo://app?vid=3d068a7d-8c2c-4f97-8d7d-54140fa95800","ios":"levelo://app?vid=3d068a7d-8c2c-4f97-8d7d-54140fa95800"},"vehicle_type_id":"4","last_reported":1761055851,"current_range_meters":10800,"station_id":"","pricing_plan_id":"cebpf4jnsgd1na2vs0mg"},{"bike_id":"98dad89e-b1c7-4bfa-a30a-bf24eb72e7aa","system_id":"levelo_inurba_marseille","lat":43.26567,"lon":5.40324,"is_reserved":false,"is_disabled":false,"rental_uris":{"android":"levelo://app?vid=98dad89e-b1c7-4bfa-a30a-bf24eb72e7aa","ios":"levelo://app?vid=98dad89e-b1c7-4bfa-a30a-bf24eb72e7aa"},"vehicle_type_id":"4","last_reported":1761055851,"current_range_meters":10800,"station_id":"ce4bhmp2rcd13ifvqgng","pricing_plan_id":"cebpf4jnsgd1na2vs0mg"},{"bike_id":"b3368da1-faef-43a4-ada4-73d0de7687c7","system_id":"levelo_inurba_marseille","lat":43.31571,"lon":5.38755,"is_reserved":false,"is_disabled":false,"rental_uris":{"android":"levelo://app?vid=b3368da1-faef-43a4-ada4-73d0de7687c7","ios":"levelo://app?vid=b3368da1-faef-43a4-ada4-73d0de7687c7"},"vehicle_type_id":"4","last_reported":1761055851,"current_range_meters":10800,"station_id":"","pricing_plan_id":"cebpf4jnsgd1na2vs0mg"},{"bike_id":"2dd6b58b-d5b0-4f16-bfae-e8068c61174e","system_id":"levelo_inurba_marseille","lat":43.21194,"lon":5.3508,"is_reserved":false,"is_disabled":false,"rental_uris":{"android":"levelo://app?vid=2dd6b58b-d5b0-4f16-bfae-e8068c61174e","ios":"levelo://app?vid=2dd6b58b-d5b0-4f16-bfae-e8068c61174e"},"vehicle_type_id":"4","last_reported":1761055851,"current_range_meters":10800,"station_id":"st_cvj6sg6p6f1abm77japg","pricing_plan_id":"cebpf4jnsgd1na2vs0mg"},{"bike_id":"b7e41c34-cad5-468c-aadc-3ef8a1845b5a","system_id":"levelo_inurba_marseille","lat":43.28159,"lon":5.36118,"is_reserved":false,"is_disabled":false,"rental_uris":{"android":"levelo://app?vid=b7e41c34-cad5-468c-aadc-3ef8a1845b5a","ios":"levelo://app?vid=b7e41c34-cad5-468c-aadc-3ef8a1845b5a"},"vehicle_type_id":"4","last_reported":1761055851,"current_range_meters":11200,"station_id":"","pricing_plan_id":"cebpf4jnsgd1na2vs0mg"},{"bike_id":"3fa54b7c-1224-4ddb-aefd-035b8d9eca78","system_id":"levelo_inurba_marseille","lat":43.25583,"lon":5.38253,"is_reserved":false,"is_disabled":false,"rental_uris":{"android":"levelo://app?vid=3fa54b7c-1224-4ddb-aefd-035b8d9eca78","ios":"levelo://app?vid=3fa54b7c-1224-4ddb-aefd-035b8d9eca78"},"vehicle_type_id":"4","last_reported":1761055851,"current_range_meters":11200,"station_id":"ce4bhih2rcd13ifvqfs0","pricing_plan_id":"cebpf4jnsgd1na2vs0mg"},{"bike_id":"a63fb7f7-f9e7-4786-b516-541acf5339c5","system_id":"levelo_inurba_marseille","lat":43.31364,"lon":5.38494,"is_reserved":false,"is_disabled":false,"rental_uris":{"android":"levelo://app?vid=a63fb7f7-f9e7-4786-b516-541acf5339c5","ios":"levelo://app?vid=a63fb7f7-f9e7-4786-b516-541acf5339c5"},"vehicle_type_id":"4","last_reported":1761055851,"current_range_meters":11200,"station_id":"ce4bgt92rcd13ifvqcf0","pricing_plan_id":"cebpf4jnsgd1na2vs0mg"},{"bike_id":"65c20af1-ea86-41cd-b7b7-fc7005586849","system_id":"levelo_inurba_marseille","lat":43.32107,"lon":5.36776,"is_reserved":false,"is_disabled":false,"rental_uris":{"android":"levelo://app?vid=65c20af1-ea86-41cd-b7b7-fc7005586849","ios":"levelo://app?vid=65c20af1-ea86-41cd-b7b7-fc7005586849"},"vehicle_type_id":"4","last_reported":1761055851,"current_range_meters":11200,"station_id":"ce4bhrh2rcd13ifvqhug","pricing_plan_id":"cebpf4jnsgd1na2vs0mg"},{"bike_id":"f3bd9269-73c7-4897-902b-40b865f41e35","system_id":"levelo_inurba_marseille","lat":43.31703,"lon":5.37739,"is_reserved":false,"is_disabled":false,"rental_uris":{"android":"levelo://app?vid=f3bd9269-73c7-4897-902b-40b865f41e35","ios":"levelo://app?vid=f3bd9269-73c7-4897-902b-40b865f41e35"},"vehicle_type_id":"4","last_reported":1761055851,"current_range_meters":11200,"station_id":"ce4bgth2rcd13ifvqch0","pricing_plan_id":"cebpf4jnsgd1na2vs0mg"},{"bike_id":"54a7471e-8675-4b3b-a7a5-316aa76bbcbc","system_id":"levelo_inurba_marseille","lat":43.279207,"lon":5.404307,"is_reserved":false,"is_disabled":false,"rental_uris":{"android":"levelo://app?vid=54a7471e-8675-4b3b-a7a5-316aa76bbcbc","ios":"levelo://app?vid=54a7471e-8675-4b3b-a7a5-316aa76bbcbc"},"vehicle_type_id":"4","last_reported":1761055851,"current_range_meters":11200,"station_id":"","pricing_plan_id":"cebpf4jnsgd1na2vs0mg"},{"bike_id":"be1974bc-006a-4e55-8829-1393cb60db3a","system_id":"levelo_inurba_marseille","lat":43.29527,"lon":5.38543,"is_reserved":false,"is_disabled":false,"rental_uris":{"android":"levelo://app?vid=be1974bc-006a-4e55-8829-1393cb60db3a","ios":"levelo://app?vid=be1974bc-006a-4e55-8829-1393cb60db3a"},"vehicle_type_id":"4","last_reported":1761055851,"current_range_meters":11200,"station_id":"ce4bgih2rcd13ifvqba0","pricing_plan_id":"cebpf4jnsgd1na2vs0mg"},{"bike_id":"319b99bb-0438-48b7-8773-8d0fe8e324f4","system_id":"levelo_inurba_marseille","lat":43.29522,"lon":5.39026,"is_reserved":false,"is_disabled":false,"rental_uris":{"android":"levelo://app?vid=319b99bb-0438-48b7-8773-8d0fe8e324f4","ios":"levelo://app?vid=319b99bb-0438-48b7-8773-8d0fe8e324f4"},"vehicle_type_id":"4","last_reported":1761055851,"current_range_meters":11600,"station_id":"ce4bh3p2rcd13ifvqdp0","pricing_plan_id":"cebpf4jnsgd1na2vs0mg"},{"bike_id":"609e8845-7ae3-4c4f-97f5-856dd3a8b490","system_id":"levelo_inurba_marseille","lat":43.28863,"lon":5.42512,"is_reserved":false,"is_disabled":false,"rental_uris":{"android":"levelo://app?vid=609e8845-7ae3-4c4f-97f5-856dd3a8b490","ios":"levelo://app?vid=609e8845-7ae3-4c4f-97f5-856dd3a8b490"},"vehicle_type_id":"4","last_reported":1761055851,"current_range_meters":11600,"station_id":"st_d3b462108ojc7389ooeg","pricing_plan_id":"cebpf4jnsgd1na2vs0mg"},{"bike_id":"f2d65e06-962f-4f56-95c7-6af054d18e66","system_id":"levelo_inurba_marseille","lat":43.2174,"lon":5.34604,"is_reserved":false,"is_disabled":false,"rental_uris":{"android":"levelo://app?vid=f2d65e06-962f-4f56-95c7-6af054d18e66","ios":"levelo://app?vid=f2d65e06-962f-4f56-95c7-6af054d18e66"},"vehicle_type_id":"4","last_reported":1761055851,"current_range_meters":11600,"station_id":"st_cvj6r9ubvosntc0bgbag","pricing_plan_id":"cebpf4jnsgd1na2vs0mg"},{"bike_id":"3d900732-f44d-4bd2-97ca-cfed3d790f85","system_id":"levelo_inurba_marseille","lat":43.26033,"lon":5.39385,"is_reserved":false,"is_disabled":false,"rental_uris":{"android":"levelo://app?vid=3d900732-f44d-4bd2-97ca-cfed3d790f85","ios":"levelo://app?vid=3d900732-f44d-4bd2-97ca-cfed3d790f85"},"vehicle_type_id":"4","last_reported":1761055851,"current_range_meters":11600,"station_id":"ce4bhh92rcd13ifvqfj0","pricing_plan_id":"cebpf4jnsgd1na2vs0mg"},{"bike_id":"da3c5d5d-639d-4a11-88e1-f7b9c2ad220a","system_id":"levelo_inurba_marseille","lat":43.317274,"lon":5.377577,"is_reserved":false,"is_disabled":true,"rental_uris":{"android":"levelo://app?vid=da3c5d5d-639d-4a11-88e1-f7b9c2ad220a","ios":"levelo://app?vid=da3c5d5d-639d-4a11-88e1-f7b9c2ad220a"},"vehicle_type_id":"4","last_reported":1761055851,"current_range_meters":11600,"station_id":"ce4bgth2rcd13ifvqch0","pricing_plan_id":"cebpf4jnsgd1na2vs0mg"},{"bike_id":"f434a13c-41b9-41a3-8212-055ca998b49b","system_id":"levelo_inurba_marseille","lat":43.28632,"lon":5.40737,"is_reserved":false,"is_disabled":false,"rental_uris":{"android":"levelo://app?vid=f434a13c-41b9-41a3-8212-055ca998b49b","ios":"levelo://app?vid=f434a13c-41b9-41a3-8212-055ca998b49b"},"vehicle_type_id":"4","last_reported":1761055851,"current_range_meters":11600,"station_id":"","pricing_plan_id":"cebpf4jnsgd1na2vs0mg"},{"bike_id":"0f08a3f2-207d-48ff-8129-f94cf946fe4b","system_id":"levelo_inurba_marseille","lat":43.30779,"lon":5.37639,"is_reserved":false,"is_disabled":false,"rental_uris":{"android":"levelo://app?vid=0f08a3f2-207d-48ff-8129-f94cf946fe4b","ios":"levelo://app?vid=0f08a3f2-207d-48ff-8129-f94cf946fe4b"},"vehicle_type_id":"4","last_reported":1761055851,"current_range_meters":11600,"station_id":"ce4bgv92rcd13ifvqcq0","pricing_plan_id":"cebpf4jnsgd1na2vs0mg"},{"bike_id":"66bec76d-d7e9-4a1e-a715-39e56334bf96","system_id":"levelo_inurba_marseille","lat":43.28299,"lon":5.3966,"is_reserved":false,"is_disabled":false,"rental_uris":{"android":"levelo://app?vid=66bec76d-d7e9-4a1e-a715-39e56334bf96","ios":"levelo://app?vid=66bec76d-d7e9-4a1e-a715-39e56334bf96"},"vehicle_type_id":"4","last_reported":1761055851,"current_range_meters":12000,"station_id":"","pricing_plan_id":"cebpf4jnsgd1na2vs0mg"},{"bike_id":"35e242ba-2dde-4870-aac9-b14d79c1d669","system_id":"levelo_inurba_marseille","lat":43.28709,"lon":5.37919,"is_reserved":false,"is_disabled":false,"rental_uris":{"android":"levelo://app?vid=35e242ba-2dde-4870-aac9-b14d79c1d669","ios":"levelo://app?vid=35e242ba-2dde-4870-aac9-b14d79c1d669"},"vehicle_type_id":"4","last_reported":1761055851,"current_range_meters":12000,"station_id":"ce4bh9p2rcd13ifvqec0","pricing_plan_id":"cebpf4jnsgd1na2vs0mg"},{"bike_id":"68aa109a-1f4c-46c5-b96e-b6b302ff01d4","system_id":"levelo_inurba_marseille","lat":43.26566,"lon":5.39011,"is_reserved":false,"is_disabled":false,"rental_uris":{"android":"levelo://app?vid=68aa109a-1f4c-46c5-b96e-b6b302ff01d4","ios":"levelo://app?vid=68aa109a-1f4c-46c5-b96e-b6b302ff01d4"},"vehicle_type_id":"4","last_reported":1761055851,"current_range_meters":12000,"station_id":"ce4bhe12rcd13ifvqf30","pricing_plan_id":"cebpf4jnsgd1na2vs0mg"},{"bike_id":"1604878d-6d54-4611-a416-f6c03f37cf7a","system_id":"levelo_inurba_marseille","lat":43.30546,"lon":5.36678,"is_reserved":false,"is_disabled":false,"rental_uris":{"android":"levelo://app?vid=1604878d-6d54-4611-a416-f6c03f37cf7a","ios":"levelo://app?vid=1604878d-6d54-4611-a416-f6c03f37cf7a"},"vehicle_type_id":"4","last_reported":1761055851,"current_range_meters":12000,"station_id":"ce4bgrp2rcd13ifvqc9g","pricing_plan_id":"cebpf4jnsgd1na2vs0mg"},{"bike_id":"0ee16597-56e5-407e-a2ae-80191e99b47a","system_id":"levelo_inurba_marseille","lat":43.30129,"lon":5.39882,"is_reserved":false,"is_disabled":false,"rental_uris":{"android":"levelo://app?vid=0ee16597-56e5-407e-a2ae-80191e99b47a","ios":"levelo://app?vid=0ee16597-56e5-407e-a2ae-80191e99b47a"},"vehicle_type_id":"4","last_reported":1761055851,"current_range_meters":12000,"station_id":"ce4bh0h2rcd13ifvqd40","pricing_plan_id":"cebpf4jnsgd1na2vs0mg"},{"bike_id":"034babe5-fa3d-47e9-ab38-1ec1871a4072","system_id":"levelo_inurba_marseille","lat":43.29532,"lon":5.38549,"is_reserved":false,"is_disabled":true,"rental_uris":{"android":"levelo://app?vid=034babe5-fa3d-47e9-ab38-1ec1871a4072","ios":"levelo://app?vid=034babe5-fa3d-47e9-ab38-1ec1871a4072"},"vehicle_type_id":"4","last_reported":1761055851,"current_range_meters":12400,"station_id":"ce4bgih2rcd13ifvqba0","pricing_plan_id":"cebpf4jnsgd1na2vs0mg"},{"bike_id":"c4d17d81-19cf-4697-a9b1-d780d189ed78","system_id":"levelo_inurba_marseille","lat":43.25113,"lon":5.40331,"is_reserved":false,"is_disabled":true,"rental_uris":{"android":"levelo://app?vid=c4d17d81-19cf-4697-a9b1-d780d189ed78","ios":"levelo://app?vid=c4d17d81-19cf-4697-a9b1-d780d189ed78"},"vehicle_type_id":"4","last_reported":1761055851,"current_range_meters":12400,"station_id":"ce4bhlh2rcd13ifvqgig","pricing_plan_id":"cebpf4jnsgd1na2vs0mg"},{"bike_id":"c6c8fae7-ac0e-43a8-993e-c5e0f2693c4f","system_id":"levelo_inurba_marseille","lat":43.28852,"lon":5.35849,"is_reserved":false,"is_disabled":false,"rental_uris":{"android":"levelo://app?vid=c6c8fae7-ac0e-43a8-993e-c5e0f2693c4f","ios":"levelo://app?vid=c6c8fae7-ac0e-43a8-993e-c5e0f2693c4f"},"vehicle_type_id":"4","last_reported":1761055851,"current_range_meters":12400,"station_id":"ce4bhb12rcd13ifvqem0","pricing_plan_id":"cebpf4jnsgd1na2vs0mg"},{"bike_id":"2f09c01d-689c-4521-97af-b4ef07cad168","system_id":"levelo_inurba_marseille","lat":43.22567,"lon":5.41618,"is_reserved":false,"is_disabled":false,"rental_uris":{"android":"levelo://app?vid=2f09c01d-689c-4521-97af-b4ef07cad168","ios":"levelo://app?vid=2f09c01d-689c-4521-97af-b4ef07cad168"},"vehicle_type_id":"4","last_reported":1761055851,"current_range_meters":12400,"station_id":"st_d2o4gvlbi1j2169b742g","pricing_plan_id":"cebpf4jnsgd1na2vs0mg"},{"bike_id":"dd84ae40-ec7c-4324-b3ac-3de561a88d47","system_id":"levelo_inurba_marseille","lat":43.26491,"lon":5.39545,"is_reserved":false,"is_disabled":false,"rental_uris":{"android":"levelo://app?vid=dd84ae40-ec7c-4324-b3ac-3de561a88d47","ios":"levelo://app?vid=dd84ae40-ec7c-4324-b3ac-3de561a88d47"},"vehicle_type_id":"4","last_reported":1761055851,"current_range_meters":12400,"station_id":"ce4bhi12rcd13ifvqfq0","pricing_plan_id":"cebpf4jnsgd1na2vs0mg"},{"bike_id":"bf14685d-34d1-424f-a5b1-bd477b3d72fb","system_id":"levelo_inurba_marseille","lat":43.31221,"lon":5.368587,"is_reserved":false,"is_disabled":false,"rental_uris":{"android":"levelo://app?vid=bf14685d-34d1-424f-a5b1-bd477b3d72fb","ios":"levelo://app?vid=bf14685d-34d1-424f-a5b1-bd477b3d72fb"},"vehicle_type_id":"4","last_reported":1761055851,"current_range_meters":12800,"station_id":"ce4bgl92rcd13ifvqbq0","pricing_plan_id":"cebpf4jnsgd1na2vs0mg"},{"bike_id":"2e02b7a3-3996-4ec3-ac5d-d33004f0b891","system_id":"levelo_inurba_marseille","lat":43.29005,"lon":5.38108,"is_reserved":false,"is_disabled":false,"rental_uris":{"android":"levelo://app?vid=2e02b7a3-3996-4ec3-ac5d-d33004f0b891","ios":"levelo://app?vid=2e02b7a3-3996-4ec3-ac5d-d33004f0b891"},"vehicle_type_id":"4","last_reported":1761055851,"current_range_meters":12800,"station_id":"ce4bh4p2rcd13ifvqe1g","pricing_plan_id":"cebpf4jnsgd1na2vs0mg"},{"bike_id":"e6f107ef-554f-4a02-9907-6d80b8b4c7ee","system_id":"levelo_inurba_marseille","lat":43.32568,"lon":5.42461,"is_reserved":false,"is_disabled":false,"rental_uris":{"android":"levelo://app?vid=e6f107ef-554f-4a02-9907-6d80b8b4c7ee","ios":"levelo://app?vid=e6f107ef-554f-4a02-9907-6d80b8b4c7ee"},"vehicle_type_id":"4","last_reported":1761055851,"current_range_meters":12800,"station_id":"","pricing_plan_id":"cebpf4jnsgd1na2vs0mg"},{"bike_id":"adaeec60-974d-4b5f-9918-d8a8287a0bcf","system_id":"levelo_inurba_marseille","lat":43.30948,"lon":5.39028,"is_reserved":false,"is_disabled":false,"rental_uris":{"android":"levelo://app?vid=adaeec60-974d-4b5f-9918-d8a8287a0bcf","ios":"levelo://app?vid=adaeec60-974d-4b5f-9918-d8a8287a0bcf"},"vehicle_type_id":"4","last_reported":1761055851,"current_range_meters":13600,"station_id":"ce4bgup2rcd13ifvqco0","pricing_plan_id":"cebpf4jnsgd1na2vs0mg"},{"bike_id":"0fe0f79a-dc9b-40d6-b614-7f27bbe5fa08","system_id":"levelo_inurba_marseille","lat":43.311217,"lon":5.377898,"is_reserved":false,"is_disabled":false,"rental_uris":{"android":"levelo://app?vid=0fe0f79a-dc9b-40d6-b614-7f27bbe5fa08","ios":"levelo://app?vid=0fe0f79a-dc9b-40d6-b614-7f27bbe5fa08"},"vehicle_type_id":"4","last_reported":1761055851,"current_range_meters":13600,"station_id":"ce4bgt92rcd13ifvqcg0","pricing_plan_id":"cebpf4jnsgd1na2vs0mg"},{"bike_id":"4774c210-5eba-4dd8-973e-3bc1527de47b","system_id":"levelo_inurba_marseille","lat":43.217409,"lon":5.346084,"is_reserved":false,"is_disabled":false,"rental_uris":{"android":"levelo://app?vid=4774c210-5eba-4dd8-973e-3bc1527de47b","ios":"levelo://app?vid=4774c210-5eba-4dd8-973e-3bc1527de47b"},"vehicle_type_id":"4","last_reported":1761055851,"current_range_meters":13600,"station_id":"st_cvj6r9ubvosntc0bgbag","pricing_plan_id":"cebpf4jnsgd1na2vs0mg"},{"bike_id":"b8457e49-45d1-4539-8d31-1eb0283df508","system_id":"levelo_inurba_marseille","lat":43.331598,"lon":5.354964,"is_reserved":false,"is_disabled":false,"rental_uris":{"android":"levelo://app?vid=b8457e49-45d1-4539-8d31-1eb0283df508","ios":"levelo://app?vid=b8457e49-45d1-4539-8d31-1eb0283df508"},"vehicle_type_id":"4","last_reported":1761055851,"current_range_meters":13600,"station_id":"","pricing_plan_id":"cebpf4jnsgd1na2vs0mg"},{"bike_id":"cb0f6121-a1e7-4052-83e7-2c3de3cbbff9","system_id":"levelo_inurba_marseille","lat":43.29198,"lon":5.39315,"is_reserved":false,"is_disabled":false,"rental_uris":{"android":"levelo://app?vid=cb0f6121-a1e7-4052-83e7-2c3de3cbbff9","ios":"levelo://app?vid=cb0f6121-a1e7-4052-83e7-2c3de3cbbff9"},"vehicle_type_id":"4","last_reported":1761055851,"current_range_meters":13600,"station_id":"ce4bh192rcd13ifvqdd0","pricing_plan_id":"cebpf4jnsgd1na2vs0mg"},{"bike_id":"73cdef3f-b7aa-485a-87c2-e7aa8f9a2cb9","system_id":"levelo_inurba_marseille","lat":43.32479,"lon":5.3657,"is_reserved":false,"is_disabled":false,"rental_uris":{"android":"levelo://app?vid=73cdef3f-b7aa-485a-87c2-e7aa8f9a2cb9","ios":"levelo://app?vid=73cdef3f-b7aa-485a-87c2-e7aa8f9a2cb9"},"vehicle_type_id":"4","last_reported":1761055851,"current_range_meters":13600,"station_id":"ce4bhs12rcd13ifvqhvg","pricing_plan_id":"cebpf4jnsgd1na2vs0mg"},{"bike_id":"53143c9e-e5c9-4956-b244-c0802477f8bc","system_id":"levelo_inurba_marseille","lat":43.309998,"lon":5.389321,"is_reserved":false,"is_disabled":false,"rental_uris":{"android":"levelo://app?vid=53143c9e-e5c9-4956-b244-c0802477f8bc","ios":"levelo://app?vid=53143c9e-e5c9-4956-b244-c0802477f8bc"},"vehicle_type_id":"4","last_reported":1761055851,"current_range_meters":14000,"station_id":"ce4bgup2rcd13ifvqco0","pricing_plan_id":"cebpf4jnsgd1na2vs0mg"},{"bike_id":"25340c8d-e515-4d0f-91bd-c9a0b66d4087","system_id":"levelo_inurba_marseille","lat":43.29709,"lon":5.37704,"is_reserved":false,"is_disabled":false,"rental_uris":{"android":"levelo://app?vid=25340c8d-e515-4d0f-91bd-c9a0b66d4087","ios":"levelo://app?vid=25340c8d-e515-4d0f-91bd-c9a0b66d4087"},"vehicle_type_id":"4","last_reported":1761055851,"current_range_meters":14000,"station_id":"ce4bgkh2rcd13ifvqbl0","pricing_plan_id":"cebpf4jnsgd1na2vs0mg"},{"bike_id":"1bec0bd7-14ae-4143-81fb-8ec6bf1eedd6","system_id":"levelo_inurba_marseille","lat":43.29033,"lon":5.38652,"is_reserved":false,"is_disabled":false,"rental_uris":{"android":"levelo://app?vid=1bec0bd7-14ae-4143-81fb-8ec6bf1eedd6","ios":"levelo://app?vid=1bec0bd7-14ae-4143-81fb-8ec6bf1eedd6"},"vehicle_type_id":"4","last_reported":1761055851,"current_range_meters":14400,"station_id":"ce4bh4p2rcd13ifvqe0g","pricing_plan_id":"cebpf4jnsgd1na2vs0mg"},{"bike_id":"4c0a5d73-60b7-4822-a290-6e489f4a946f","system_id":"levelo_inurba_marseille","lat":43.28471,"lon":5.38538,"is_reserved":false,"is_disabled":true,"rental_uris":{"android":"levelo://app?vid=4c0a5d73-60b7-4822-a290-6e489f4a946f","ios":"levelo://app?vid=4c0a5d73-60b7-4822-a290-6e489f4a946f"},"vehicle_type_id":"4","last_reported":1761055851,"current_range_meters":14400,"station_id":"ce4bh8p2rcd13ifvqeb0","pricing_plan_id":"cebpf4jnsgd1na2vs0mg"},{"bike_id":"e6e6f486-132d-4413-ad65-7d6d7e1d47b4","system_id":"levelo_inurba_marseille","lat":43.29264,"lon":5.38444,"is_reserved":false,"is_disabled":false,"rental_uris":{"android":"levelo://app?vid=e6e6f486-132d-4413-ad65-7d6d7e1d47b4","ios":"levelo://app?vid=e6e6f486-132d-4413-ad65-7d6d7e1d47b4"},"vehicle_type_id":"4","last_reported":1761055851,"current_range_meters":14400,"station_id":"ce4bh692rcd13ifvqea0","pricing_plan_id":"cebpf4jnsgd1na2vs0mg"},{"bike_id":"53599475-2fbb-4aa1-961b-b309715a3c17","system_id":"levelo_inurba_marseille","lat":43.28606,"lon":5.37069,"is_reserved":false,"is_disabled":false,"rental_uris":{"android":"levelo://app?vid=53599475-2fbb-4aa1-961b-b309715a3c17","ios":"levelo://app?vid=53599475-2fbb-4aa1-961b-b309715a3c17"},"vehicle_type_id":"4","last_reported":1761055851,"current_range_meters":14400,"station_id":"ce4bht12rcd13ifvqi60","pricing_plan_id":"cebpf4jnsgd1na2vs0mg"},{"bike_id":"20ba811e-97a4-419c-a7f0-0d2e326fae69","system_id":"levelo_inurba_marseille","lat":43.28968,"lon":5.37838,"is_reserved":false,"is_disabled":false,"rental_uris":{"android":"levelo://app?vid=20ba811e-97a4-419c-a7f0-0d2e326fae69","ios":"levelo://app?vid=20ba811e-97a4-419c-a7f0-0d2e326fae69"},"vehicle_type_id":"4","last_reported":1761055851,"current_range_meters":14400,"station_id":"ce4bh9p2rcd13ifvqed0","pricing_plan_id":"cebpf4jnsgd1na2vs0mg"},{"bike_id":"b3f5a3da-7cce-49b6-a43f-cd007c91cce1","system_id":"levelo_inurba_marseille","lat":43.27373,"lon":5.36262,"is_reserved":false,"is_disabled":false,"rental_uris":{"android":"levelo://app?vid=b3f5a3da-7cce-49b6-a43f-cd007c91cce1","ios":"levelo://app?vid=b3f5a3da-7cce-49b6-a43f-cd007c91cce1"},"vehicle_type_id":"4","last_reported":1761055851,"current_range_meters":14400,"station_id":"ce4bhbh2rcd13ifvqeo0","pricing_plan_id":"cebpf4jnsgd1na2vs0mg"},{"bike_id":"f8ede6b7-fbcf-4a6f-8164-6dbaaecf0048","system_id":"levelo_inurba_marseille","lat":43.21186,"lon":5.35105,"is_reserved":false,"is_disabled":false,"rental_uris":{"android":"levelo://app?vid=f8ede6b7-fbcf-4a6f-8164-6dbaaecf0048","ios":"levelo://app?vid=f8ede6b7-fbcf-4a6f-8164-6dbaaecf0048"},"vehicle_type_id":"4","last_reported":1761055851,"current_range_meters":14800,"station_id":"st_cvj6sg6p6f1abm77japg","pricing_plan_id":"cebpf4jnsgd1na2vs0mg"},{"bike_id":"02f7835e-8895-43db-bc46-dc0659a292d5","system_id":"levelo_inurba_marseille","lat":43.29331,"lon":5.3707,"is_reserved":false,"is_disabled":false,"rental_uris":{"android":"levelo://app?vid=02f7835e-8895-43db-bc46-dc0659a292d5","ios":"levelo://app?vid=02f7835e-8895-43db-bc46-dc0659a292d5"},"vehicle_type_id":"4","last_reported":1761055851,"current_range_meters":14800,"station_id":"","pricing_plan_id":"cebpf4jnsgd1na2vs0mg"},{"bike_id":"22c660ad-ddf4-4958-a393-4acd861a2ace","system_id":"levelo_inurba_marseille","lat":43.280952,"lon":5.377951,"is_reserved":false,"is_disabled":false,"rental_uris":{"android":"levelo://app?vid=22c660ad-ddf4-4958-a393-4acd861a2ace","ios":"levelo://app?vid=22c660ad-ddf4-4958-a393-4acd861a2ace"},"vehicle_type_id":"4","last_reported":1761055851,"current_range_meters":15200,"station_id":"ce4bha12rcd13ifvqee0","pricing_plan_id":"cebpf4jnsgd1na2vs0mg"},{"bike_id":"acf3006a-1f2e-472b-a3ec-690e0b97587d","system_id":"levelo_inurba_marseille","lat":43.24648,"lon":5.38882,"is_reserved":false,"is_disabled":false,"rental_uris":{"android":"levelo://app?vid=acf3006a-1f2e-472b-a3ec-690e0b97587d","ios":"levelo://app?vid=acf3006a-1f2e-472b-a3ec-690e0b97587d"},"vehicle_type_id":"4","last_reported":1761055851,"current_range_meters":15200,"station_id":"ce4bhg12rcd13ifvqf60","pricing_plan_id":"cebpf4jnsgd1na2vs0mg"},{"bike_id":"d38bb17a-4ac6-4da6-829b-fc2ffe260364","system_id":"levelo_inurba_marseille","lat":43.31879,"lon":5.40749,"is_reserved":false,"is_disabled":true,"rental_uris":{"android":"levelo://app?vid=d38bb17a-4ac6-4da6-829b-fc2ffe260364","ios":"levelo://app?vid=d38bb17a-4ac6-4da6-829b-fc2ffe260364"},"vehicle_type_id":"4","last_reported":1761055851,"current_range_meters":15200,"station_id":"ce4bhq12rcd13ifvqhig","pricing_plan_id":"cebpf4jnsgd1na2vs0mg"},{"bike_id":"3201e625-69d5-420e-838c-f4c3f44666ef","system_id":"levelo_inurba_marseille","lat":43.33796,"lon":5.37434,"is_reserved":false,"is_disabled":false,"rental_uris":{"android":"levelo://app?vid=3201e625-69d5-420e-838c-f4c3f44666ef","ios":"levelo://app?vid=3201e625-69d5-420e-838c-f4c3f44666ef"},"vehicle_type_id":"4","last_reported":1761055851,"current_range_meters":15200,"station_id":"","pricing_plan_id":"cebpf4jnsgd1na2vs0mg"},{"bike_id":"89dd87c4-c8d0-4de7-8902-2b0447e67475","system_id":"levelo_inurba_marseille","lat":43.31232,"lon":5.36877,"is_reserved":false,"is_disabled":false,"rental_uris":{"android":"levelo://app?vid=89dd87c4-c8d0-4de7-8902-2b0447e67475","ios":"levelo://app?vid=89dd87c4-c8d0-4de7-8902-2b0447e67475"},"vehicle_type_id":"4","last_reported":1761055851,"current_range_meters":16000,"station_id":"","pricing_plan_id":"cebpf4jnsgd1na2vs0mg"},{"bike_id":"bfb49ac8-7cd7-4abf-87fe-e5eac64a56b2","system_id":"levelo_inurba_marseille","lat":43.239649,"lon":5.366355,"is_reserved":false,"is_disabled":false,"rental_uris":{"android":"levelo://app?vid=bfb49ac8-7cd7-4abf-87fe-e5eac64a56b2","ios":"levelo://app?vid=bfb49ac8-7cd7-4abf-87fe-e5eac64a56b2"},"vehicle_type_id":"4","last_reported":1761055851,"current_range_meters":16000,"station_id":"ce4bhi12rcd13ifvqfp0","pricing_plan_id":"cebpf4jnsgd1na2vs0mg"},{"bike_id":"b8d49fc1-17ac-48fd-a71d-4819ec7f1ca8","system_id":"levelo_inurba_marseille","lat":43.30311,"lon":5.36894,"is_reserved":false,"is_disabled":false,"rental_uris":{"android":"levelo://app?vid=b8d49fc1-17ac-48fd-a71d-4819ec7f1ca8","ios":"levelo://app?vid=b8d49fc1-17ac-48fd-a71d-4819ec7f1ca8"},"vehicle_type_id":"4","last_reported":1761055851,"current_range_meters":16000,"station_id":"ce4bgqh2rcd13ifvqc5g","pricing_plan_id":"cebpf4jnsgd1na2vs0mg"},{"bike_id":"2e227533-c99f-4c6e-afb9-62ce0c89ec30","system_id":"levelo_inurba_marseille","lat":43.32482,"lon":5.36575,"is_reserved":false,"is_disabled":false,"rental_uris":{"android":"levelo://app?vid=2e227533-c99f-4c6e-afb9-62ce0c89ec30","ios":"levelo://app?vid=2e227533-c99f-4c6e-afb9-62ce0c89ec30"},"vehicle_type_id":"4","last_reported":1761055851,"current_range_meters":16000,"station_id":"ce4bhs12rcd13ifvqhvg","pricing_plan_id":"cebpf4jnsgd1na2vs0mg"},{"bike_id":"7ca30e1d-e9fb-442a-9adf-378a6beb6c32","system_id":"levelo_inurba_marseille","lat":43.28923,"lon":5.38391,"is_reserved":false,"is_disabled":false,"rental_uris":{"android":"levelo://app?vid=7ca30e1d-e9fb-442a-9adf-378a6beb6c32","ios":"levelo://app?vid=7ca30e1d-e9fb-442a-9adf-378a6beb6c32"},"vehicle_type_id":"4","last_reported":1761055851,"current_range_meters":16400,"station_id":"ce4bh612rcd13ifvqe6g","pricing_plan_id":"cebpf4jnsgd1na2vs0mg"},{"bike_id":"d83ba3b5-f05f-4b3f-995a-05ad1a505367","system_id":"levelo_inurba_marseille","lat":43.3172,"lon":5.42395,"is_reserved":false,"is_disabled":false,"rental_uris":{"android":"levelo://app?vid=d83ba3b5-f05f-4b3f-995a-05ad1a505367","ios":"levelo://app?vid=d83ba3b5-f05f-4b3f-995a-05ad1a505367"},"vehicle_type_id":"4","last_reported":1761055851,"current_range_meters":16400,"station_id":"ce4bhp92rcd13ifvqhbg","pricing_plan_id":"cebpf4jnsgd1na2vs0mg"},{"bike_id":"1e4929a7-8380-4f06-b204-83d0a75e31bd","system_id":"levelo_inurba_marseille","lat":43.246504,"lon":5.388905,"is_reserved":false,"is_disabled":false,"rental_uris":{"android":"levelo://app?vid=1e4929a7-8380-4f06-b204-83d0a75e31bd","ios":"levelo://app?vid=1e4929a7-8380-4f06-b204-83d0a75e31bd"},"vehicle_type_id":"4","last_reported":1761055851,"current_range_meters":16400,"station_id":"ce4bhg12rcd13ifvqf60","pricing_plan_id":"cebpf4jnsgd1na2vs0mg"},{"bike_id":"ba7dba13-3ecd-4d57-aa38-d02cc11706f1","system_id":"levelo_inurba_marseille","lat":43.29931,"lon":5.36546,"is_reserved":false,"is_disabled":false,"rental_uris":{"android":"levelo://app?vid=ba7dba13-3ecd-4d57-aa38-d02cc11706f1","ios":"levelo://app?vid=ba7dba13-3ecd-4d57-aa38-d02cc11706f1"},"vehicle_type_id":"4","last_reported":1761055851,"current_range_meters":16400,"station_id":"ce4bgm92rcd13ifvqbr0","pricing_plan_id":"cebpf4jnsgd1na2vs0mg"},{"bike_id":"b551078c-1f6a-46f9-8082-79c8f58c86d9","system_id":"levelo_inurba_marseille","lat":43.30122,"lon":5.39868,"is_reserved":false,"is_disabled":false,"rental_uris":{"android":"levelo://app?vid=b551078c-1f6a-46f9-8082-79c8f58c86d9","ios":"levelo://app?vid=b551078c-1f6a-46f9-8082-79c8f58c86d9"},"vehicle_type_id":"4","last_reported":1761055851,"current_range_meters":16400,"station_id":"ce4bh0h2rcd13ifvqd40","pricing_plan_id":"cebpf4jnsgd1na2vs0mg"},{"bike_id":"8af54f17-6082-4d14-99b8-7d7d3ed40663","system_id":"levelo_inurba_marseille","lat":43.27848,"lon":5.39224,"is_reserved":false,"is_disabled":false,"rental_uris":{"android":"levelo://app?vid=8af54f17-6082-4d14-99b8-7d7d3ed40663","ios":"levelo://app?vid=8af54f17-6082-4d14-99b8-7d7d3ed40663"},"vehicle_type_id":"4","last_reported":1761055851,"current_range_meters":16400,"station_id":"","pricing_plan_id":"cebpf4jnsgd1na2vs0mg"},{"bike_id":"c752924e-aae6-4c28-b541-5493f6bf4827","system_id":"levelo_inurba_marseille","lat":43.29795,"lon":5.38086,"is_reserved":false,"is_disabled":false,"rental_uris":{"android":"levelo://app?vid=c752924e-aae6-4c28-b541-5493f6bf4827","ios":"levelo://app?vid=c752924e-aae6-4c28-b541-5493f6bf4827"},"vehicle_type_id":"4","last_reported":1761055851,"current_range_meters":16400,"station_id":"ce4bgip2rcd13ifvqbb0","pricing_plan_id":"cebpf4jnsgd1na2vs0mg"},{"bike_id":"613417e3-fc8f-46b8-8a36-17115a046208","system_id":"levelo_inurba_marseille","lat":43.29707,"lon":5.37707,"is_reserved":false,"is_disabled":false,"rental_uris":{"android":"levelo://app?vid=613417e3-fc8f-46b8-8a36-17115a046208","ios":"levelo://app?vid=613417e3-fc8f-46b8-8a36-17115a046208"},"vehicle_type_id":"4","last_reported":1761055851,"current_range_meters":16800,"station_id":"ce4bgkh2rcd13ifvqbl0","pricing_plan_id":"cebpf4jnsgd1na2vs0mg"},{"bike_id":"64d9e813-4fd3-4955-9199-a35ddf1a26f6","system_id":"levelo_inurba_marseille","lat":43.24166,"lon":5.36411,"is_reserved":false,"is_disabled":false,"rental_uris":{"android":"levelo://app?vid=64d9e813-4fd3-4955-9199-a35ddf1a26f6","ios":"levelo://app?vid=64d9e813-4fd3-4955-9199-a35ddf1a26f6"},"vehicle_type_id":"4","last_reported":1761055851,"current_range_meters":16800,"station_id":"cpo36qri1sfpv3e86is0","pricing_plan_id":"cebpf4jnsgd1na2vs0mg"},{"bike_id":"3b8d40bd-f357-479b-b9e2-5961004d593e","system_id":"levelo_inurba_marseille","lat":43.2464,"lon":5.38898,"is_reserved":false,"is_disabled":false,"rental_uris":{"android":"levelo://app?vid=3b8d40bd-f357-479b-b9e2-5961004d593e","ios":"levelo://app?vid=3b8d40bd-f357-479b-b9e2-5961004d593e"},"vehicle_type_id":"4","last_reported":1761055851,"current_range_meters":16800,"station_id":"ce4bhg12rcd13ifvqf60","pricing_plan_id":"cebpf4jnsgd1na2vs0mg"},{"bike_id":"4cd5868b-2cbb-496b-aa78-f9f5086f79af","system_id":"levelo_inurba_marseille","lat":43.24991,"lon":5.38923,"is_reserved":false,"is_disabled":false,"rental_uris":{"android":"levelo://app?vid=4cd5868b-2cbb-496b-aa78-f9f5086f79af","ios":"levelo://app?vid=4cd5868b-2cbb-496b-aa78-f9f5086f79af"},"vehicle_type_id":"4","last_reported":1761055851,"current_range_meters":17200,"station_id":"ce4bhgp2rcd13ifvqfd0","pricing_plan_id":"cebpf4jnsgd1na2vs0mg"},{"bike_id":"553f10ed-844a-4ff3-9772-5c77e7faf63b","system_id":"levelo_inurba_marseille","lat":43.30246,"lon":5.40052,"is_reserved":false,"is_disabled":false,"rental_uris":{"android":"levelo://app?vid=553f10ed-844a-4ff3-9772-5c77e7faf63b","ios":"levelo://app?vid=553f10ed-844a-4ff3-9772-5c77e7faf63b"},"vehicle_type_id":"4","last_reported":1761055851,"current_range_meters":17200,"station_id":"ce4bgvh2rcd13ifvqcs0","pricing_plan_id":"cebpf4jnsgd1na2vs0mg"},{"bike_id":"27366d83-b4b4-4f80-ad67-f1d2bd889b8c","system_id":"levelo_inurba_marseille","lat":43.280642,"lon":5.352788,"is_reserved":false,"is_disabled":false,"rental_uris":{"android":"levelo://app?vid=27366d83-b4b4-4f80-ad67-f1d2bd889b8c","ios":"levelo://app?vid=27366d83-b4b4-4f80-ad67-f1d2bd889b8c"},"vehicle_type_id":"4","last_reported":1761055851,"current_range_meters":17200,"station_id":"","pricing_plan_id":"cebpf4jnsgd1na2vs0mg"},{"bike_id":"a630ed88-3f05-4926-bbab-8387ab6b6a28","system_id":"levelo_inurba_marseille","lat":43.23151,"lon":5.43711,"is_reserved":false,"is_disabled":true,"rental_uris":{"android":"levelo://app?vid=a630ed88-3f05-4926-bbab-8387ab6b6a28","ios":"levelo://app?vid=a630ed88-3f05-4926-bbab-8387ab6b6a28"},"vehicle_type_id":"4","last_reported":1761055851,"current_range_meters":17200,"station_id":"ce4bhmp2rcd13ifvqgog","pricing_plan_id":"cebpf4jnsgd1na2vs0mg"},{"bike_id":"4e7e8f57-06ea-4923-b3c1-ea91802d5920","system_id":"levelo_inurba_marseille","lat":43.2799,"lon":5.41651,"is_reserved":false,"is_disabled":false,"rental_uris":{"android":"levelo://app?vid=4e7e8f57-06ea-4923-b3c1-ea91802d5920","ios":"levelo://app?vid=4e7e8f57-06ea-4923-b3c1-ea91802d5920"},"vehicle_type_id":"4","last_reported":1761055851,"current_range_meters":17200,"station_id":"ce4bho12rcd13ifvqh1g","pricing_plan_id":"cebpf4jnsgd1na2vs0mg"},{"bike_id":"9fdda01a-ce90-4d81-a20f-73d45a022293","system_id":"levelo_inurba_marseille","lat":43.29529,"lon":5.38541,"is_reserved":false,"is_disabled":false,"rental_uris":{"android":"levelo://app?vid=9fdda01a-ce90-4d81-a20f-73d45a022293","ios":"levelo://app?vid=9fdda01a-ce90-4d81-a20f-73d45a022293"},"vehicle_type_id":"4","last_reported":1761055851,"current_range_meters":17200,"station_id":"ce4bgih2rcd13ifvqba0","pricing_plan_id":"cebpf4jnsgd1na2vs0mg"},{"bike_id":"37d01fc8-4b4d-4652-a489-1254eb9d4c80","system_id":"levelo_inurba_marseille","lat":43.34076,"lon":5.40411,"is_reserved":false,"is_disabled":false,"rental_uris":{"android":"levelo://app?vid=37d01fc8-4b4d-4652-a489-1254eb9d4c80","ios":"levelo://app?vid=37d01fc8-4b4d-4652-a489-1254eb9d4c80"},"vehicle_type_id":"4","last_reported":1761055851,"current_range_meters":17200,"station_id":"","pricing_plan_id":"cebpf4jnsgd1na2vs0mg"},{"bike_id":"5f5bd4cf-7638-49d9-9751-0944b59d5e30","system_id":"levelo_inurba_marseille","lat":43.23136,"lon":5.43725,"is_reserved":false,"is_disabled":false,"rental_uris":{"android":"levelo://app?vid=5f5bd4cf-7638-49d9-9751-0944b59d5e30","ios":"levelo://app?vid=5f5bd4cf-7638-49d9-9751-0944b59d5e30"},"vehicle_type_id":"4","last_reported":1761055851,"current_range_meters":17600,"station_id":"ce4bhmp2rcd13ifvqgog","pricing_plan_id":"cebpf4jnsgd1na2vs0mg"},{"bike_id":"6692e090-9792-45dd-b639-89e41212fa24","system_id":"levelo_inurba_marseille","lat":43.31287,"lon":5.39673,"is_reserved":false,"is_disabled":true,"rental_uris":{"android":"levelo://app?vid=6692e090-9792-45dd-b639-89e41212fa24","ios":"levelo://app?vid=6692e090-9792-45dd-b639-89e41212fa24"},"vehicle_type_id":"4","last_reported":1761055851,"current_range_meters":17600,"station_id":"ce4bgvp2rcd13ifvqcu0","pricing_plan_id":"cebpf4jnsgd1na2vs0mg"},{"bike_id":"9bfd0283-2ebc-49db-91d0-80f9899c027d","system_id":"levelo_inurba_marseille","lat":43.23166,"lon":5.43661,"is_reserved":false,"is_disabled":false,"rental_uris":{"android":"levelo://app?vid=9bfd0283-2ebc-49db-91d0-80f9899c027d","ios":"levelo://app?vid=9bfd0283-2ebc-49db-91d0-80f9899c027d"},"vehicle_type_id":"4","last_reported":1761055851,"current_range_meters":17600,"station_id":"ce4bhmp2rcd13ifvqgog","pricing_plan_id":"cebpf4jnsgd1na2vs0mg"},{"bike_id":"b9489beb-b4db-4283-ad3d-073016e7d276","system_id":"levelo_inurba_marseille","lat":43.30419,"lon":5.39758,"is_reserved":false,"is_disabled":false,"rental_uris":{"android":"levelo://app?vid=b9489beb-b4db-4283-ad3d-073016e7d276","ios":"levelo://app?vid=b9489beb-b4db-4283-ad3d-073016e7d276"},"vehicle_type_id":"4","last_reported":1761055851,"current_range_meters":17600,"station_id":"ce4bh092rcd13ifvqd20","pricing_plan_id":"cebpf4jnsgd1na2vs0mg"},{"bike_id":"78ee1e8b-a3dd-46c1-be30-7a5f11e25e80","system_id":"levelo_inurba_marseille","lat":43.25927,"lon":5.40893,"is_reserved":false,"is_disabled":false,"rental_uris":{"android":"levelo://app?vid=78ee1e8b-a3dd-46c1-be30-7a5f11e25e80","ios":"levelo://app?vid=78ee1e8b-a3dd-46c1-be30-7a5f11e25e80"},"vehicle_type_id":"4","last_reported":1761055851,"current_range_meters":17600,"station_id":"ce4bhm92rcd13ifvqglg","pricing_plan_id":"cebpf4jnsgd1na2vs0mg"},{"bike_id":"02ad1b77-3b73-486d-962a-609c8b0520bd","system_id":"levelo_inurba_marseille","lat":43.2902,"lon":5.38129,"is_reserved":false,"is_disabled":false,"rental_uris":{"android":"levelo://app?vid=02ad1b77-3b73-486d-962a-609c8b0520bd","ios":"levelo://app?vid=02ad1b77-3b73-486d-962a-609c8b0520bd"},"vehicle_type_id":"4","last_reported":1761055851,"current_range_meters":18000,"station_id":"ce4bh4p2rcd13ifvqe1g","pricing_plan_id":"cebpf4jnsgd1na2vs0mg"},{"bike_id":"46f8eb4f-9684-4ab6-802f-0aa7397bbb21","system_id":"levelo_inurba_marseille","lat":43.30297,"lon":5.37644,"is_reserved":false,"is_disabled":false,"rental_uris":{"android":"levelo://app?vid=46f8eb4f-9684-4ab6-802f-0aa7397bbb21","ios":"levelo://app?vid=46f8eb4f-9684-4ab6-802f-0aa7397bbb21"},"vehicle_type_id":"4","last_reported":1761055851,"current_range_meters":18000,"station_id":"","pricing_plan_id":"cebpf4jnsgd1na2vs0mg"},{"bike_id":"4158f36d-bda6-455f-b1a4-6172239fd4bb","system_id":"levelo_inurba_marseille","lat":43.303087,"lon":5.391983,"is_reserved":false,"is_disabled":false,"rental_uris":{"android":"levelo://app?vid=4158f36d-bda6-455f-b1a4-6172239fd4bb","ios":"levelo://app?vid=4158f36d-bda6-455f-b1a4-6172239fd4bb"},"vehicle_type_id":"4","last_reported":1761055851,"current_range_meters":18000,"station_id":"ce4bgkh2rcd13ifvqbk0","pricing_plan_id":"cebpf4jnsgd1na2vs0mg"},{"bike_id":"08fdf15f-e503-46bb-a1a3-292cfe3a6fa6","system_id":"levelo_inurba_marseille","lat":43.28467,"lon":5.38414,"is_reserved":false,"is_disabled":false,"rental_uris":{"android":"levelo://app?vid=08fdf15f-e503-46bb-a1a3-292cfe3a6fa6","ios":"levelo://app?vid=08fdf15f-e503-46bb-a1a3-292cfe3a6fa6"},"vehicle_type_id":"4","last_reported":1761055851,"current_range_meters":18000,"station_id":"ce4bh512rcd13ifvqe3g","pricing_plan_id":"cebpf4jnsgd1na2vs0mg"},{"bike_id":"77f5ad24-7524-46db-9764-bb8f0cf09ab2","system_id":"levelo_inurba_marseille","lat":43.27847,"lon":5.39229,"is_reserved":false,"is_disabled":false,"rental_uris":{"android":"levelo://app?vid=77f5ad24-7524-46db-9764-bb8f0cf09ab2","ios":"levelo://app?vid=77f5ad24-7524-46db-9764-bb8f0cf09ab2"},"vehicle_type_id":"4","last_reported":1761055851,"current_range_meters":18000,"station_id":"ce4bhjp2rcd13ifvqga0","pricing_plan_id":"cebpf4jnsgd1na2vs0mg"},{"bike_id":"b303f3e6-f1bb-4b0b-934a-0c586b667b65","system_id":"levelo_inurba_marseille","lat":43.24632,"lon":5.43152,"is_reserved":false,"is_disabled":false,"rental_uris":{"android":"levelo://app?vid=b303f3e6-f1bb-4b0b-934a-0c586b667b65","ios":"levelo://app?vid=b303f3e6-f1bb-4b0b-934a-0c586b667b65"},"vehicle_type_id":"4","last_reported":1761055851,"current_range_meters":18000,"station_id":"st_d2m6c4gdas8pm72e190g","pricing_plan_id":"cebpf4jnsgd1na2vs0mg"},{"bike_id":"e688d3ec-75ce-4e81-a282-7cb0249261a0","system_id":"levelo_inurba_marseille","lat":43.30136,"lon":5.37409,"is_reserved":false,"is_disabled":false,"rental_uris":{"android":"levelo://app?vid=e688d3ec-75ce-4e81-a282-7cb0249261a0","ios":"levelo://app?vid=e688d3ec-75ce-4e81-a282-7cb0249261a0"},"vehicle_type_id":"4","last_reported":1761055851,"current_range_meters":18800,"station_id":"ce4bgs92rcd13ifvqcc0","pricing_plan_id":"cebpf4jnsgd1na2vs0mg"},{"bike_id":"c213f3a4-7331-4eba-b9d9-d77d00a1552c","system_id":"levelo_inurba_marseille","lat":43.325363,"lon":5.414622,"is_reserved":false,"is_disabled":false,"rental_uris":{"android":"levelo://app?vid=c213f3a4-7331-4eba-b9d9-d77d00a1552c","ios":"levelo://app?vid=c213f3a4-7331-4eba-b9d9-d77d00a1552c"},"vehicle_type_id":"4","last_reported":1761055851,"current_range_meters":18800,"station_id":"ce4bhq12rcd13ifvqhhg","pricing_plan_id":"cebpf4jnsgd1na2vs0mg"},{"bike_id":"705456d2-086c-468d-8ff0-725c6adc454c","system_id":"levelo_inurba_marseille","lat":43.312178,"lon":5.368621,"is_reserved":false,"is_disabled":false,"rental_uris":{"android":"levelo://app?vid=705456d2-086c-468d-8ff0-725c6adc454c","ios":"levelo://app?vid=705456d2-086c-468d-8ff0-725c6adc454c"},"vehicle_type_id":"4","last_reported":1761055851,"current_range_meters":18800,"station_id":"ce4bgl92rcd13ifvqbq0","pricing_plan_id":"cebpf4jnsgd1na2vs0mg"},{"bike_id":"e9382bd5-03e0-479d-a070-2675eeac0ef1","system_id":"levelo_inurba_marseille","lat":43.240822,"lon":5.377519,"is_reserved":false,"is_disabled":false,"rental_uris":{"android":"levelo://app?vid=e9382bd5-03e0-479d-a070-2675eeac0ef1","ios":"levelo://app?vid=e9382bd5-03e0-479d-a070-2675eeac0ef1"},"vehicle_type_id":"4","last_reported":1761055851,"current_range_meters":18800,"station_id":"ce4bhnp2rcd13ifvqgvg","pricing_plan_id":"cebpf4jnsgd1na2vs0mg"},{"bike_id":"464bd8a3-6573-4884-b980-774e68ad4ab1","system_id":"levelo_inurba_marseille","lat":43.2719,"lon":5.40984,"is_reserved":false,"is_disabled":false,"rental_uris":{"android":"levelo://app?vid=464bd8a3-6573-4884-b980-774e68ad4ab1","ios":"levelo://app?vid=464bd8a3-6573-4884-b980-774e68ad4ab1"},"vehicle_type_id":"4","last_reported":1761055851,"current_range_meters":18800,"station_id":"ce4bhl12rcd13ifvqgf0","pricing_plan_id":"cebpf4jnsgd1na2vs0mg"},{"bike_id":"a79e275b-d2ec-4c46-8c1d-0dfc1b288567","system_id":"levelo_inurba_marseille","lat":43.211963,"lon":5.350742,"is_reserved":false,"is_disabled":false,"rental_uris":{"android":"levelo://app?vid=a79e275b-d2ec-4c46-8c1d-0dfc1b288567","ios":"levelo://app?vid=a79e275b-d2ec-4c46-8c1d-0dfc1b288567"},"vehicle_type_id":"4","last_reported":1761055851,"current_range_meters":19200,"station_id":"","pricing_plan_id":"cebpf4jnsgd1na2vs0mg"},{"bike_id":"6b2011e2-4d10-4a24-ab8f-c7bae746f113","system_id":"levelo_inurba_marseille","lat":43.25001,"lon":5.38924,"is_reserved":false,"is_disabled":false,"rental_uris":{"android":"levelo://app?vid=6b2011e2-4d10-4a24-ab8f-c7bae746f113","ios":"levelo://app?vid=6b2011e2-4d10-4a24-ab8f-c7bae746f113"},"vehicle_type_id":"4","last_reported":1761055851,"current_range_meters":19200,"station_id":"ce4bhgp2rcd13ifvqfd0","pricing_plan_id":"cebpf4jnsgd1na2vs0mg"},{"bike_id":"0304937d-59ae-4711-98fb-b760d5f32ec0","system_id":"levelo_inurba_marseille","lat":43.28096,"lon":5.37833,"is_reserved":false,"is_disabled":false,"rental_uris":{"android":"levelo://app?vid=0304937d-59ae-4711-98fb-b760d5f32ec0","ios":"levelo://app?vid=0304937d-59ae-4711-98fb-b760d5f32ec0"},"vehicle_type_id":"4","last_reported":1761055851,"current_range_meters":19200,"station_id":"ce4bha12rcd13ifvqee0","pricing_plan_id":"cebpf4jnsgd1na2vs0mg"},{"bike_id":"a89e38a8-8680-46ea-ae3a-521cb2ea64e1","system_id":"levelo_inurba_marseille","lat":43.27059,"lon":5.42277,"is_reserved":false,"is_disabled":false,"rental_uris":{"android":"levelo://app?vid=a89e38a8-8680-46ea-ae3a-521cb2ea64e1","ios":"levelo://app?vid=a89e38a8-8680-46ea-ae3a-521cb2ea64e1"},"vehicle_type_id":"4","last_reported":1761055851,"current_range_meters":19200,"station_id":"ce4bhk92rcd13ifvqgb0","pricing_plan_id":"cebpf4jnsgd1na2vs0mg"},{"bike_id":"5d80d25c-89eb-4572-ad64-1d3debc59612","system_id":"levelo_inurba_marseille","lat":43.29077,"lon":5.40312,"is_reserved":false,"is_disabled":false,"rental_uris":{"android":"levelo://app?vid=5d80d25c-89eb-4572-ad64-1d3debc59612","ios":"levelo://app?vid=5d80d25c-89eb-4572-ad64-1d3debc59612"},"vehicle_type_id":"4","last_reported":1761055851,"current_range_meters":19200,"station_id":"","pricing_plan_id":"cebpf4jnsgd1na2vs0mg"},{"bike_id":"282752f7-e6c6-4d17-b29d-4c478a4166b7","system_id":"levelo_inurba_marseille","lat":43.27369,"lon":5.36262,"is_reserved":false,"is_disabled":false,"rental_uris":{"android":"levelo://app?vid=282752f7-e6c6-4d17-b29d-4c478a4166b7","ios":"levelo://app?vid=282752f7-e6c6-4d17-b29d-4c478a4166b7"},"vehicle_type_id":"4","last_reported":1761055851,"current_range_meters":19200,"station_id":"ce4bhbh2rcd13ifvqeo0","pricing_plan_id":"cebpf4jnsgd1na2vs0mg"},{"bike_id":"07e992db-48e1-481b-a50e-3b491cfc1455","system_id":"levelo_inurba_marseille","lat":43.31991,"lon":5.41291,"is_reserved":false,"is_disabled":false,"rental_uris":{"android":"levelo://app?vid=07e992db-48e1-481b-a50e-3b491cfc1455","ios":"levelo://app?vid=07e992db-48e1-481b-a50e-3b491cfc1455"},"vehicle_type_id":"4","last_reported":1761055851,"current_range_meters":19200,"station_id":"","pricing_plan_id":"cebpf4jnsgd1na2vs0mg"},{"bike_id":"6b2833d4-1846-45cd-9539-547af19ebf0a","system_id":"levelo_inurba_marseille","lat":43.21192,"lon":5.3507,"is_reserved":false,"is_disabled":false,"rental_uris":{"android":"levelo://app?vid=6b2833d4-1846-45cd-9539-547af19ebf0a","ios":"levelo://app?vid=6b2833d4-1846-45cd-9539-547af19ebf0a"},"vehicle_type_id":"4","last_reported":1761055851,"current_range_meters":19200,"station_id":"st_cvj6sg6p6f1abm77japg","pricing_plan_id":"cebpf4jnsgd1na2vs0mg"},{"bike_id":"32a33d2e-9d70-43b5-82bb-d901dc6532f3","system_id":"levelo_inurba_marseille","lat":43.28112,"lon":5.37793,"is_reserved":false,"is_disabled":false,"rental_uris":{"android":"levelo://app?vid=32a33d2e-9d70-43b5-82bb-d901dc6532f3","ios":"levelo://app?vid=32a33d2e-9d70-43b5-82bb-d901dc6532f3"},"vehicle_type_id":"4","last_reported":1761055851,"current_range_meters":19200,"station_id":"ce4bha12rcd13ifvqee0","pricing_plan_id":"cebpf4jnsgd1na2vs0mg"},{"bike_id":"1140485d-3eab-4bb3-9b6d-d188c5475d9d","system_id":"levelo_inurba_marseille","lat":43.29805,"lon":5.38091,"is_reserved":false,"is_disabled":false,"rental_uris":{"android":"levelo://app?vid=1140485d-3eab-4bb3-9b6d-d188c5475d9d","ios":"levelo://app?vid=1140485d-3eab-4bb3-9b6d-d188c5475d9d"},"vehicle_type_id":"4","last_reported":1761055851,"current_range_meters":19200,"station_id":"ce4bgip2rcd13ifvqbb0","pricing_plan_id":"cebpf4jnsgd1na2vs0mg"},{"bike_id":"7d48efd1-5862-4017-91a0-07aeaf5efe67","system_id":"levelo_inurba_marseille","lat":43.28616,"lon":5.35105,"is_reserved":false,"is_disabled":false,"rental_uris":{"android":"levelo://app?vid=7d48efd1-5862-4017-91a0-07aeaf5efe67","ios":"levelo://app?vid=7d48efd1-5862-4017-91a0-07aeaf5efe67"},"vehicle_type_id":"4","last_reported":1761055851,"current_range_meters":19200,"station_id":"ce4bhch2rcd13ifvqeug","pricing_plan_id":"cebpf4jnsgd1na2vs0mg"},{"bike_id":"1527ff95-3126-4ead-a9fd-37df6f696489","system_id":"levelo_inurba_marseille","lat":43.29026,"lon":5.38654,"is_reserved":false,"is_disabled":false,"rental_uris":{"android":"levelo://app?vid=1527ff95-3126-4ead-a9fd-37df6f696489","ios":"levelo://app?vid=1527ff95-3126-4ead-a9fd-37df6f696489"},"vehicle_type_id":"4","last_reported":1761055851,"current_range_meters":19200,"station_id":"ce4bh4p2rcd13ifvqe0g","pricing_plan_id":"cebpf4jnsgd1na2vs0mg"},{"bike_id":"2f56865c-e80f-4ae6-8b0e-40890cca3383","system_id":"levelo_inurba_marseille","lat":43.29595,"lon":5.38091,"is_reserved":false,"is_disabled":false,"rental_uris":{"android":"levelo://app?vid=2f56865c-e80f-4ae6-8b0e-40890cca3383","ios":"levelo://app?vid=2f56865c-e80f-4ae6-8b0e-40890cca3383"},"vehicle_type_id":"4","last_reported":1761055851,"current_range_meters":19600,"station_id":"ce4bgl12rcd13ifvqbo0","pricing_plan_id":"cebpf4jnsgd1na2vs0mg"},{"bike_id":"2ab2090c-37d7-43d3-8b97-a3d61c2e018c","system_id":"levelo_inurba_marseille","lat":43.32107,"lon":5.36793,"is_reserved":false,"is_disabled":false,"rental_uris":{"android":"levelo://app?vid=2ab2090c-37d7-43d3-8b97-a3d61c2e018c","ios":"levelo://app?vid=2ab2090c-37d7-43d3-8b97-a3d61c2e018c"},"vehicle_type_id":"4","last_reported":1761055851,"current_range_meters":19600,"station_id":"ce4bhrh2rcd13ifvqhug","pricing_plan_id":"cebpf4jnsgd1na2vs0mg"},{"bike_id":"38a2c044-1604-4f2b-a59a-12cf047aa400","system_id":"levelo_inurba_marseille","lat":43.25868,"lon":5.39897,"is_reserved":false,"is_disabled":false,"rental_uris":{"android":"levelo://app?vid=38a2c044-1604-4f2b-a59a-12cf047aa400","ios":"levelo://app?vid=38a2c044-1604-4f2b-a59a-12cf047aa400"},"vehicle_type_id":"4","last_reported":1761055851,"current_range_meters":19600,"station_id":"ce4bhl92rcd13ifvqghg","pricing_plan_id":"cebpf4jnsgd1na2vs0mg"},{"bike_id":"8c7181f4-326b-4d87-9eb7-1b4edab52280","system_id":"levelo_inurba_marseille","lat":43.30209,"lon":5.39473,"is_reserved":false,"is_disabled":false,"rental_uris":{"android":"levelo://app?vid=8c7181f4-326b-4d87-9eb7-1b4edab52280","ios":"levelo://app?vid=8c7181f4-326b-4d87-9eb7-1b4edab52280"},"vehicle_type_id":"4","last_reported":1761055851,"current_range_meters":19600,"station_id":"ce4bh0p2rcd13ifvqd70","pricing_plan_id":"cebpf4jnsgd1na2vs0mg"},{"bike_id":"2b39cd13-d4f6-4236-9849-0e3e4d4a450e","system_id":"levelo_inurba_marseille","lat":43.29874,"lon":5.39731,"is_reserved":false,"is_disabled":false,"rental_uris":{"android":"levelo://app?vid=2b39cd13-d4f6-4236-9849-0e3e4d4a450e","ios":"levelo://app?vid=2b39cd13-d4f6-4236-9849-0e3e4d4a450e"},"vehicle_type_id":"4","last_reported":1761055851,"current_range_meters":19600,"station_id":"ce4bh0h2rcd13ifvqd50","pricing_plan_id":"cebpf4jnsgd1na2vs0mg"},{"bike_id":"a2466fd1-71a5-44a7-9780-9d4576e19d89","system_id":"levelo_inurba_marseille","lat":43.21744,"lon":5.34612,"is_reserved":false,"is_disabled":false,"rental_uris":{"android":"levelo://app?vid=a2466fd1-71a5-44a7-9780-9d4576e19d89","ios":"levelo://app?vid=a2466fd1-71a5-44a7-9780-9d4576e19d89"},"vehicle_type_id":"4","last_reported":1761055851,"current_range_meters":19600,"station_id":"st_cvj6r9ubvosntc0bgbag","pricing_plan_id":"cebpf4jnsgd1na2vs0mg"},{"bike_id":"4865c63d-0470-435e-a6e4-d890b533aa0c","system_id":"levelo_inurba_marseille","lat":43.2407,"lon":5.37759,"is_reserved":false,"is_disabled":false,"rental_uris":{"android":"levelo://app?vid=4865c63d-0470-435e-a6e4-d890b533aa0c","ios":"levelo://app?vid=4865c63d-0470-435e-a6e4-d890b533aa0c"},"vehicle_type_id":"4","last_reported":1761055851,"current_range_meters":19600,"station_id":"ce4bhnp2rcd13ifvqgvg","pricing_plan_id":"cebpf4jnsgd1na2vs0mg"},{"bike_id":"fe7fb2a9-3fda-4a0c-91c9-7fbe69f012a3","system_id":"levelo_inurba_marseille","lat":43.24175,"lon":5.39737,"is_reserved":false,"is_disabled":false,"rental_uris":{"android":"levelo://app?vid=fe7fb2a9-3fda-4a0c-91c9-7fbe69f012a3","ios":"levelo://app?vid=fe7fb2a9-3fda-4a0c-91c9-7fbe69f012a3"},"vehicle_type_id":"4","last_reported":1761055851,"current_range_meters":19600,"station_id":"ce4bhn12rcd13ifvqgpg","pricing_plan_id":"cebpf4jnsgd1na2vs0mg"},{"bike_id":"1ed98c95-5f61-4e67-bfe7-7d1fd99d11d1","system_id":"levelo_inurba_marseille","lat":43.28412,"lon":5.37503,"is_reserved":false,"is_disabled":false,"rental_uris":{"android":"levelo://app?vid=1ed98c95-5f61-4e67-bfe7-7d1fd99d11d1","ios":"levelo://app?vid=1ed98c95-5f61-4e67-bfe7-7d1fd99d11d1"},"vehicle_type_id":"4","last_reported":1761055851,"current_range_meters":19600,"station_id":"ce4bh412rcd13ifvqds0","pricing_plan_id":"cebpf4jnsgd1na2vs0mg"},{"bike_id":"86cf1104-8c12-4377-a57e-7ce66e48a107","system_id":"levelo_inurba_marseille","lat":43.29778,"lon":5.371,"is_reserved":false,"is_disabled":false,"rental_uris":{"android":"levelo://app?vid=86cf1104-8c12-4377-a57e-7ce66e48a107","ios":"levelo://app?vid=86cf1104-8c12-4377-a57e-7ce66e48a107"},"vehicle_type_id":"4","last_reported":1761055851,"current_range_meters":20000,"station_id":"ce4bgop2rcd13ifvqc1g","pricing_plan_id":"cebpf4jnsgd1na2vs0mg"},{"bike_id":"bbd08cf4-31da-4d68-b46e-697f80190f23","system_id":"levelo_inurba_marseille","lat":43.27194,"lon":5.41001,"is_reserved":false,"is_disabled":false,"rental_uris":{"android":"levelo://app?vid=bbd08cf4-31da-4d68-b46e-697f80190f23","ios":"levelo://app?vid=bbd08cf4-31da-4d68-b46e-697f80190f23"},"vehicle_type_id":"4","last_reported":1761055851,"current_range_meters":20000,"station_id":"ce4bhl12rcd13ifvqgf0","pricing_plan_id":"cebpf4jnsgd1na2vs0mg"},{"bike_id":"0289d540-3ab2-4058-8d5f-f384081982dd","system_id":"levelo_inurba_marseille","lat":43.29525,"lon":5.38545,"is_reserved":false,"is_disabled":false,"rental_uris":{"android":"levelo://app?vid=0289d540-3ab2-4058-8d5f-f384081982dd","ios":"levelo://app?vid=0289d540-3ab2-4058-8d5f-f384081982dd"},"vehicle_type_id":"4","last_reported":1761055851,"current_range_meters":20000,"station_id":"","pricing_plan_id":"cebpf4jnsgd1na2vs0mg"},{"bike_id":"85706af5-0426-4c20-9921-fcc5b4adbc49","system_id":"levelo_inurba_marseille","lat":43.293725,"lon":5.37856,"is_reserved":false,"is_disabled":false,"rental_uris":{"android":"levelo://app?vid=85706af5-0426-4c20-9921-fcc5b4adbc49","ios":"levelo://app?vid=85706af5-0426-4c20-9921-fcc5b4adbc49"},"vehicle_type_id":"4","last_reported":1761055851,"current_range_meters":20000,"station_id":"ce4bgi12rcd13ifvqb70","pricing_plan_id":"cebpf4jnsgd1na2vs0mg"},{"bike_id":"9d8bcd8e-8ecf-425f-98ef-b7c9398172e2","system_id":"levelo_inurba_marseille","lat":43.32352,"lon":5.36753,"is_reserved":false,"is_disabled":false,"rental_uris":{"android":"levelo://app?vid=9d8bcd8e-8ecf-425f-98ef-b7c9398172e2","ios":"levelo://app?vid=9d8bcd8e-8ecf-425f-98ef-b7c9398172e2"},"vehicle_type_id":"4","last_reported":1761055851,"current_range_meters":20000,"station_id":"ce4bhsh2rcd13ifvqi2g","pricing_plan_id":"cebpf4jnsgd1na2vs0mg"},{"bike_id":"02bce7d3-47cc-4721-9582-08e7733e43ca","system_id":"levelo_inurba_marseille","lat":43.272089,"lon":5.391813,"is_reserved":false,"is_disabled":false,"rental_uris":{"android":"levelo://app?vid=02bce7d3-47cc-4721-9582-08e7733e43ca","ios":"levelo://app?vid=02bce7d3-47cc-4721-9582-08e7733e43ca"},"vehicle_type_id":"4","last_reported":1761055851,"current_range_meters":20000,"station_id":"ce4bhhp2rcd13ifvqfm0","pricing_plan_id":"cebpf4jnsgd1na2vs0mg"},{"bike_id":"9870a68d-ae62-4bec-82c3-a7443a850bdc","system_id":"levelo_inurba_marseille","lat":43.31265,"lon":5.37786,"is_reserved":false,"is_disabled":false,"rental_uris":{"android":"levelo://app?vid=9870a68d-ae62-4bec-82c3-a7443a850bdc","ios":"levelo://app?vid=9870a68d-ae62-4bec-82c3-a7443a850bdc"},"vehicle_type_id":"4","last_reported":1761055851,"current_range_meters":20400,"station_id":"","pricing_plan_id":"cebpf4jnsgd1na2vs0mg"},{"bike_id":"21836c3e-3bfc-4bbf-ac30-d9cc83ed406f","system_id":"levelo_inurba_marseille","lat":43.25714,"lon":5.41117,"is_reserved":false,"is_disabled":false,"rental_uris":{"android":"levelo://app?vid=21836c3e-3bfc-4bbf-ac30-d9cc83ed406f","ios":"levelo://app?vid=21836c3e-3bfc-4bbf-ac30-d9cc83ed406f"},"vehicle_type_id":"4","last_reported":1761055851,"current_range_meters":20400,"station_id":"ce4bhkp2rcd13ifvqgd0","pricing_plan_id":"cebpf4jnsgd1na2vs0mg"},{"bike_id":"e01c0407-9fea-4afc-844a-8e1d738fcda5","system_id":"levelo_inurba_marseille","lat":43.24167,"lon":5.36412,"is_reserved":false,"is_disabled":false,"rental_uris":{"android":"levelo://app?vid=e01c0407-9fea-4afc-844a-8e1d738fcda5","ios":"levelo://app?vid=e01c0407-9fea-4afc-844a-8e1d738fcda5"},"vehicle_type_id":"4","last_reported":1761055851,"current_range_meters":20400,"station_id":"cpo36qri1sfpv3e86is0","pricing_plan_id":"cebpf4jnsgd1na2vs0mg"},{"bike_id":"618a9c44-e479-45b6-b144-58d3228e3132","system_id":"levelo_inurba_marseille","lat":43.246526,"lon":5.388796,"is_reserved":false,"is_disabled":false,"rental_uris":{"android":"levelo://app?vid=618a9c44-e479-45b6-b144-58d3228e3132","ios":"levelo://app?vid=618a9c44-e479-45b6-b144-58d3228e3132"},"vehicle_type_id":"4","last_reported":1761055851,"current_range_meters":20400,"station_id":"ce4bhg12rcd13ifvqf60","pricing_plan_id":"cebpf4jnsgd1na2vs0mg"},{"bike_id":"38d57943-0e0d-47ce-a718-f5a3a2e7b701","system_id":"levelo_inurba_marseille","lat":43.27977,"lon":5.38737,"is_reserved":false,"is_disabled":false,"rental_uris":{"android":"levelo://app?vid=38d57943-0e0d-47ce-a718-f5a3a2e7b701","ios":"levelo://app?vid=38d57943-0e0d-47ce-a718-f5a3a2e7b701"},"vehicle_type_id":"4","last_reported":1761055851,"current_range_meters":20400,"station_id":"ce4bhg12rcd13ifvqf80","pricing_plan_id":"cebpf4jnsgd1na2vs0mg"},{"bike_id":"d05b4f72-890d-40dd-8975-d0e953f9fe74","system_id":"levelo_inurba_marseille","lat":43.291,"lon":5.38144,"is_reserved":false,"is_disabled":false,"rental_uris":{"android":"levelo://app?vid=d05b4f72-890d-40dd-8975-d0e953f9fe74","ios":"levelo://app?vid=d05b4f72-890d-40dd-8975-d0e953f9fe74"},"vehicle_type_id":"4","last_reported":1761055851,"current_range_meters":20400,"station_id":"ce4bh512rcd13ifvqe2g","pricing_plan_id":"cebpf4jnsgd1na2vs0mg"},{"bike_id":"615d5408-527f-4b95-b0c2-643f83d40cc9","system_id":"levelo_inurba_marseille","lat":43.31119,"lon":5.37775,"is_reserved":false,"is_disabled":false,"rental_uris":{"android":"levelo://app?vid=615d5408-527f-4b95-b0c2-643f83d40cc9","ios":"levelo://app?vid=615d5408-527f-4b95-b0c2-643f83d40cc9"},"vehicle_type_id":"4","last_reported":1761055851,"current_range_meters":20800,"station_id":"ce4bgt92rcd13ifvqcg0","pricing_plan_id":"cebpf4jnsgd1na2vs0mg"},{"bike_id":"3f3c3310-a815-4a04-b1a3-1d358b0a3cae","system_id":"levelo_inurba_marseille","lat":43.30132,"lon":5.38778,"is_reserved":false,"is_disabled":false,"rental_uris":{"android":"levelo://app?vid=3f3c3310-a815-4a04-b1a3-1d358b0a3cae","ios":"levelo://app?vid=3f3c3310-a815-4a04-b1a3-1d358b0a3cae"},"vehicle_type_id":"4","last_reported":1761055851,"current_range_meters":20800,"station_id":"ce4bghh2rcd13ifvqb60","pricing_plan_id":"cebpf4jnsgd1na2vs0mg"},{"bike_id":"e0ebb14e-f40e-4fbf-8d20-fea6816852dc","system_id":"levelo_inurba_marseille","lat":43.247783,"lon":5.374274,"is_reserved":false,"is_disabled":false,"rental_uris":{"android":"levelo://app?vid=e0ebb14e-f40e-4fbf-8d20-fea6816852dc","ios":"levelo://app?vid=e0ebb14e-f40e-4fbf-8d20-fea6816852dc"},"vehicle_type_id":"4","last_reported":1761055851,"current_range_meters":20800,"station_id":"ce4bhgh2rcd13ifvqfb0","pricing_plan_id":"cebpf4jnsgd1na2vs0mg"},{"bike_id":"56a0cc6f-39bd-41de-944c-6195e3a2e12f","system_id":"levelo_inurba_marseille","lat":43.3236,"lon":5.36769,"is_reserved":false,"is_disabled":false,"rental_uris":{"android":"levelo://app?vid=56a0cc6f-39bd-41de-944c-6195e3a2e12f","ios":"levelo://app?vid=56a0cc6f-39bd-41de-944c-6195e3a2e12f"},"vehicle_type_id":"4","last_reported":1761055851,"current_range_meters":20800,"station_id":"ce4bhsh2rcd13ifvqi2g","pricing_plan_id":"cebpf4jnsgd1na2vs0mg"},{"bike_id":"86d97ea8-ea7c-417b-9329-e4e07866625e","system_id":"levelo_inurba_marseille","lat":43.29799,"lon":5.38106,"is_reserved":false,"is_disabled":false,"rental_uris":{"android":"levelo://app?vid=86d97ea8-ea7c-417b-9329-e4e07866625e","ios":"levelo://app?vid=86d97ea8-ea7c-417b-9329-e4e07866625e"},"vehicle_type_id":"4","last_reported":1761055851,"current_range_meters":20800,"station_id":"ce4bgip2rcd13ifvqbb0","pricing_plan_id":"cebpf4jnsgd1na2vs0mg"},{"bike_id":"0f8fe6cf-0b86-4622-bd05-8f41aebbb7ad","system_id":"levelo_inurba_marseille","lat":43.28075,"lon":5.39665,"is_reserved":false,"is_disabled":false,"rental_uris":{"android":"levelo://app?vid=0f8fe6cf-0b86-4622-bd05-8f41aebbb7ad","ios":"levelo://app?vid=0f8fe6cf-0b86-4622-bd05-8f41aebbb7ad"},"vehicle_type_id":"4","last_reported":1761055851,"current_range_meters":20800,"station_id":"ce4bho12rcd13ifvqh2g","pricing_plan_id":"cebpf4jnsgd1na2vs0mg"},{"bike_id":"3d7013be-dfe4-430a-97e8-197a834810ee","system_id":"levelo_inurba_marseille","lat":43.246437,"lon":5.388998,"is_reserved":false,"is_disabled":false,"rental_uris":{"android":"levelo://app?vid=3d7013be-dfe4-430a-97e8-197a834810ee","ios":"levelo://app?vid=3d7013be-dfe4-430a-97e8-197a834810ee"},"vehicle_type_id":"4","last_reported":1761055851,"current_range_meters":21600,"station_id":"ce4bhg12rcd13ifvqf60","pricing_plan_id":"cebpf4jnsgd1na2vs0mg"},{"bike_id":"d51a3a33-a25a-4523-a017-ee80e4a64b09","system_id":"levelo_inurba_marseille","lat":43.33603,"lon":5.41029,"is_reserved":false,"is_disabled":false,"rental_uris":{"android":"levelo://app?vid=d51a3a33-a25a-4523-a017-ee80e4a64b09","ios":"levelo://app?vid=d51a3a33-a25a-4523-a017-ee80e4a64b09"},"vehicle_type_id":"4","last_reported":1761055851,"current_range_meters":21600,"station_id":"ce4bhqh2rcd13ifvqhmg","pricing_plan_id":"cebpf4jnsgd1na2vs0mg"},{"bike_id":"f943f823-d9e2-4f69-9794-8ee1bed89cda","system_id":"levelo_inurba_marseille","lat":43.24164,"lon":5.3641,"is_reserved":false,"is_disabled":false,"rental_uris":{"android":"levelo://app?vid=f943f823-d9e2-4f69-9794-8ee1bed89cda","ios":"levelo://app?vid=f943f823-d9e2-4f69-9794-8ee1bed89cda"},"vehicle_type_id":"4","last_reported":1761055851,"current_range_meters":21600,"station_id":"cpo36qri1sfpv3e86is0","pricing_plan_id":"cebpf4jnsgd1na2vs0mg"},{"bike_id":"facf3fce-7ff8-4cab-9915-d28188ead805","system_id":"levelo_inurba_marseille","lat":43.330042,"lon":5.389353,"is_reserved":false,"is_disabled":false,"rental_uris":{"android":"levelo://app?vid=facf3fce-7ff8-4cab-9915-d28188ead805","ios":"levelo://app?vid=facf3fce-7ff8-4cab-9915-d28188ead805"},"vehicle_type_id":"4","last_reported":1761055851,"current_range_meters":21600,"station_id":"ce4bhr92rcd13ifvqhrg","pricing_plan_id":"cebpf4jnsgd1na2vs0mg"},{"bike_id":"b3b13e92-d401-45af-ad84-a41c7bbeb5fe","system_id":"levelo_inurba_marseille","lat":43.30976,"lon":5.37516,"is_reserved":false,"is_disabled":false,"rental_uris":{"android":"levelo://app?vid=b3b13e92-d401-45af-ad84-a41c7bbeb5fe","ios":"levelo://app?vid=b3b13e92-d401-45af-ad84-a41c7bbeb5fe"},"vehicle_type_id":"4","last_reported":1761055851,"current_range_meters":21600,"station_id":"","pricing_plan_id":"cebpf4jnsgd1na2vs0mg"},{"bike_id":"75eebb0f-2447-4bf8-b846-45b5b359059b","system_id":"levelo_inurba_marseille","lat":43.337572,"lon":5.374947,"is_reserved":false,"is_disabled":false,"rental_uris":{"android":"levelo://app?vid=75eebb0f-2447-4bf8-b846-45b5b359059b","ios":"levelo://app?vid=75eebb0f-2447-4bf8-b846-45b5b359059b"},"vehicle_type_id":"4","last_reported":1761055851,"current_range_meters":21600,"station_id":"","pricing_plan_id":"cebpf4jnsgd1na2vs0mg"},{"bike_id":"7232bb60-2fbd-40fd-9d41-97ab2f0d9f37","system_id":"levelo_inurba_marseille","lat":43.24095,"lon":5.4136,"is_reserved":false,"is_disabled":false,"rental_uris":{"android":"levelo://app?vid=7232bb60-2fbd-40fd-9d41-97ab2f0d9f37","ios":"levelo://app?vid=7232bb60-2fbd-40fd-9d41-97ab2f0d9f37"},"vehicle_type_id":"4","last_reported":1761055851,"current_range_meters":22000,"station_id":"","pricing_plan_id":"cebpf4jnsgd1na2vs0mg"},{"bike_id":"fe0aaf8a-64a3-4682-9d94-3d717a0b0cf0","system_id":"levelo_inurba_marseille","lat":43.29534,"lon":5.38537,"is_reserved":false,"is_disabled":false,"rental_uris":{"android":"levelo://app?vid=fe0aaf8a-64a3-4682-9d94-3d717a0b0cf0","ios":"levelo://app?vid=fe0aaf8a-64a3-4682-9d94-3d717a0b0cf0"},"vehicle_type_id":"4","last_reported":1761055851,"current_range_meters":22000,"station_id":"ce4bgih2rcd13ifvqba0","pricing_plan_id":"cebpf4jnsgd1na2vs0mg"},{"bike_id":"db355b2a-8b52-4747-9a41-558d1e6fb7cc","system_id":"levelo_inurba_marseille","lat":43.292872,"lon":5.368497,"is_reserved":false,"is_disabled":false,"rental_uris":{"android":"levelo://app?vid=db355b2a-8b52-4747-9a41-558d1e6fb7cc","ios":"levelo://app?vid=db355b2a-8b52-4747-9a41-558d1e6fb7cc"},"vehicle_type_id":"4","last_reported":1761055851,"current_range_meters":22000,"station_id":"ce4bhbp2rcd13ifvqesg","pricing_plan_id":"cebpf4jnsgd1na2vs0mg"},{"bike_id":"c8c0fa58-a519-4343-9887-b0c694f93aef","system_id":"levelo_inurba_marseille","lat":43.28872,"lon":5.42529,"is_reserved":false,"is_disabled":false,"rental_uris":{"android":"levelo://app?vid=c8c0fa58-a519-4343-9887-b0c694f93aef","ios":"levelo://app?vid=c8c0fa58-a519-4343-9887-b0c694f93aef"},"vehicle_type_id":"4","last_reported":1761055851,"current_range_meters":22000,"station_id":"st_d3b462108ojc7389ooeg","pricing_plan_id":"cebpf4jnsgd1na2vs0mg"},{"bike_id":"61525fe3-26d4-4c5c-a075-e59599c296c4","system_id":"levelo_inurba_marseille","lat":43.31436,"lon":5.3929,"is_reserved":false,"is_disabled":false,"rental_uris":{"android":"levelo://app?vid=61525fe3-26d4-4c5c-a075-e59599c296c4","ios":"levelo://app?vid=61525fe3-26d4-4c5c-a075-e59599c296c4"},"vehicle_type_id":"4","last_reported":1761055851,"current_range_meters":22000,"station_id":"","pricing_plan_id":"cebpf4jnsgd1na2vs0mg"},{"bike_id":"62f0a2f8-d352-4580-a096-e8ce56ffccdb","system_id":"levelo_inurba_marseille","lat":43.321116,"lon":5.367872,"is_reserved":false,"is_disabled":false,"rental_uris":{"android":"levelo://app?vid=62f0a2f8-d352-4580-a096-e8ce56ffccdb","ios":"levelo://app?vid=62f0a2f8-d352-4580-a096-e8ce56ffccdb"},"vehicle_type_id":"4","last_reported":1761055851,"current_range_meters":22000,"station_id":"ce4bhrh2rcd13ifvqhug","pricing_plan_id":"cebpf4jnsgd1na2vs0mg"},{"bike_id":"4a7e6937-6aba-4720-8b40-75e5ef8aba48","system_id":"levelo_inurba_marseille","lat":43.30527,"lon":5.36558,"is_reserved":false,"is_disabled":false,"rental_uris":{"android":"levelo://app?vid=4a7e6937-6aba-4720-8b40-75e5ef8aba48","ios":"levelo://app?vid=4a7e6937-6aba-4720-8b40-75e5ef8aba48"},"vehicle_type_id":"4","last_reported":1761055851,"current_range_meters":22000,"station_id":"","pricing_plan_id":"cebpf4jnsgd1na2vs0mg"},{"bike_id":"c39a7afd-9b22-47a0-a7ab-0218dfa8552f","system_id":"levelo_inurba_marseille","lat":43.2854,"lon":5.44095,"is_reserved":false,"is_disabled":false,"rental_uris":{"android":"levelo://app?vid=c39a7afd-9b22-47a0-a7ab-0218dfa8552f","ios":"levelo://app?vid=c39a7afd-9b22-47a0-a7ab-0218dfa8552f"},"vehicle_type_id":"4","last_reported":1761055851,"current_range_meters":22000,"station_id":"st_d3j3df2ikq2c7380ej80","pricing_plan_id":"cebpf4jnsgd1na2vs0mg"},{"bike_id":"235de4f7-6d1d-47fd-b730-65d9d3c5179d","system_id":"levelo_inurba_marseille","lat":43.24629,"lon":5.431515,"is_reserved":false,"is_disabled":false,"rental_uris":{"android":"levelo://app?vid=235de4f7-6d1d-47fd-b730-65d9d3c5179d","ios":"levelo://app?vid=235de4f7-6d1d-47fd-b730-65d9d3c5179d"},"vehicle_type_id":"4","last_reported":1761055851,"current_range_meters":22000,"station_id":"st_d2m6c4gdas8pm72e190g","pricing_plan_id":"cebpf4jnsgd1na2vs0mg"},{"bike_id":"f04e3ab5-ced7-4af8-b997-19eceefb150c","system_id":"levelo_inurba_marseille","lat":43.296143,"lon":5.37154,"is_reserved":false,"is_disabled":false,"rental_uris":{"android":"levelo://app?vid=f04e3ab5-ced7-4af8-b997-19eceefb150c","ios":"levelo://app?vid=f04e3ab5-ced7-4af8-b997-19eceefb150c"},"vehicle_type_id":"4","last_reported":1761055851,"current_range_meters":22400,"station_id":"ce4bgnh2rcd13ifvqc0g","pricing_plan_id":"cebpf4jnsgd1na2vs0mg"},{"bike_id":"d986e984-26e4-4b4b-8597-b659002e9407","system_id":"levelo_inurba_marseille","lat":43.27819,"lon":5.40699,"is_reserved":false,"is_disabled":false,"rental_uris":{"android":"levelo://app?vid=d986e984-26e4-4b4b-8597-b659002e9407","ios":"levelo://app?vid=d986e984-26e4-4b4b-8597-b659002e9407"},"vehicle_type_id":"4","last_reported":1761055851,"current_range_meters":22400,"station_id":"ce4bhnh2rcd13ifvqgtg","pricing_plan_id":"cebpf4jnsgd1na2vs0mg"},{"bike_id":"3ae9ff26-5102-46e6-83ef-b1afa7d9f50b","system_id":"levelo_inurba_marseille","lat":43.305408,"lon":5.384265,"is_reserved":false,"is_disabled":false,"rental_uris":{"android":"levelo://app?vid=3ae9ff26-5102-46e6-83ef-b1afa7d9f50b","ios":"levelo://app?vid=3ae9ff26-5102-46e6-83ef-b1afa7d9f50b"},"vehicle_type_id":"4","last_reported":1761055851,"current_range_meters":22400,"station_id":"ce4bgkh2rcd13ifvqbk0","pricing_plan_id":"cebpf4jnsgd1na2vs0mg"},{"bike_id":"bda3ed1a-3199-4eb8-8229-577855d09dbb","system_id":"levelo_inurba_marseille","lat":43.3163,"lon":5.37876,"is_reserved":false,"is_disabled":false,"rental_uris":{"android":"levelo://app?vid=bda3ed1a-3199-4eb8-8229-577855d09dbb","ios":"levelo://app?vid=bda3ed1a-3199-4eb8-8229-577855d09dbb"},"vehicle_type_id":"4","last_reported":1761055851,"current_range_meters":22400,"station_id":"","pricing_plan_id":"cebpf4jnsgd1na2vs0mg"},{"bike_id":"e5028a4d-025a-41c7-8b58-958687977dd4","system_id":"levelo_inurba_marseille","lat":43.299308,"lon":5.388307,"is_reserved":false,"is_disabled":false,"rental_uris":{"android":"levelo://app?vid=e5028a4d-025a-41c7-8b58-958687977dd4","ios":"levelo://app?vid=e5028a4d-025a-41c7-8b58-958687977dd4"},"vehicle_type_id":"4","last_reported":1761055851,"current_range_meters":22800,"station_id":"ce4bh392rcd13ifvqdl0","pricing_plan_id":"cebpf4jnsgd1na2vs0mg"},{"bike_id":"fc088b50-e903-4413-b68e-3a2b8a695866","system_id":"levelo_inurba_marseille","lat":43.246226,"lon":5.431545,"is_reserved":false,"is_disabled":false,"rental_uris":{"android":"levelo://app?vid=fc088b50-e903-4413-b68e-3a2b8a695866","ios":"levelo://app?vid=fc088b50-e903-4413-b68e-3a2b8a695866"},"vehicle_type_id":"4","last_reported":1761055851,"current_range_meters":22800,"station_id":"st_d2m6c4gdas8pm72e190g","pricing_plan_id":"cebpf4jnsgd1na2vs0mg"},{"bike_id":"1eb0eb51-c9c5-4348-91f3-38b58d6ce1f1","system_id":"levelo_inurba_marseille","lat":43.29713,"lon":5.37691,"is_reserved":false,"is_disabled":false,"rental_uris":{"android":"levelo://app?vid=1eb0eb51-c9c5-4348-91f3-38b58d6ce1f1","ios":"levelo://app?vid=1eb0eb51-c9c5-4348-91f3-38b58d6ce1f1"},