{"last_updated":1720368513,"ttl":30,"version":"2.2","data":{"bikes":[{"bike_id":"c3ba9302-9b5a-4788-9450-5c515bb44498","system_id":"levelo_inurba_marseille","lat":43.309076,"lon":5.368465,"is_reserved":false,"is_disabled":false,"rental_uris":{"android":"levelo://app?vid=c3ba9302-9b5a-4788-9450-5c515bb44498","ios":"levelo://app?vid=c3ba9302-9b5a-4788-9450-5c515bb44498"},"vehicle_type_id":"4","last_reported":1720368513,"current_range_meters":0,"station_id":"ce4bgn92rcd13ifvqbvg","pricing_plan_id":"cebpf4jnsgd1na2vs0mg"},{"bike_id":"9b43066a-45a4-49a3-9c85-ee05b1e69b32","system_id":"levelo_inurba_marseille","lat":43.314811,"lon":5.373104,"is_reserved":false,"is_disabled":false,"rental_uris":{"android":"levelo://app?vid=9b43066a-45a4-49a3-9c85-ee05b1e69b32","ios":"levelo://app?vid=9b43066a-45a4-49a3-9c85-ee05b1e69b32"},"vehicle_type_id":"4","last_reported":1720368513,"current_range_meters":28400,"station_id":"ce4bgt12rcd13ifvqcd0","pricing_plan_id":"cebpf4jnsgd1na2vs0mg"},{"bike_id":"5c3d35c4-2e17-4ac6-8b2c-8d82621c300e","system_id":"levelo_inurba_marseille","lat":43.309039,"lon":5.371797,"is_reserved":false,"is_disabled":false,"rental_uris":{"android":"levelo://app?vid=5c3d35c4-2e17-4ac6-8b2c-8d82621c300e","ios":"levelo://app?vid=5c3d35c4-2e17-4ac6-8b2c-8d82621c300e"},"vehicle_type_id":"4","last_reported":1720368513,"current_range_meters":8400,"station_id":"ce4bguh2rcd13ifvqckg","pricing_plan_id":"cebpf4jnsgd1na2vs0mg"},{"bike_id":"41cdcdd6-ded1-4424-b142-2da7b544bf9d","system_id":"levelo_inurba_marseille","lat":43.317866,"lon":5.3695,"is_reserved":false,"is_disabled":false,"rental_uris":{"android":"levelo://app?vid=41cdcdd6-ded1-4424-b142-2da7b544bf9d","ios":"levelo://app?vid=41cdcdd6-ded1-4424-b142-2da7b544bf9d"},"vehicle_type_id":"4","last_reported":1720368513,"current_range_meters":400,"station_id":"","pricing_plan_id":"cebpf4jnsgd1na2vs0mg"},{"bike_id":"a959135e-73bb-4d74-a703-61fd9ed332ec","system_id":"levelo_inurba_marseille","lat":43.30534,"lon":5.36661,"is_reserved":false,"is_disabled":false,"rental_uris":{"android":"levelo://app?vid=a959135e-73bb-4d74-a703-61fd9ed332ec","ios":"levelo://app?vid=a959135e-73bb-4d74-a703-61fd9ed332ec"},"vehicle_type_id":"4","last_reported":1720368513,"current_range_meters":28400,"station_id":"","pricing_plan_id":"cebpf4jnsgd1na2vs0mg"},{"bike_id":"c1f8d72a-bbe0-4bc8-96b4-0607254579f5","system_id":"levelo_inurba_marseille","lat":43.305706,"lon":5.365654,"is_reserved":false,"is_disabled":false,"rental_uris":{"android":"levelo://app?vid=c1f8d72a-bbe0-4bc8-96b4-0607254579f5","ios":"levelo://app?vid=c1f8d72a-bbe0-4bc8-96b4-0607254579f5"},"vehicle_type_id":"4","last_reported":1720368513,"current_range_meters":0,"station_id":"ce4bgs12rcd13ifvqcag","pricing_plan_id":"cebpf4jnsgd1na2vs0mg"},{"bike_id":"1c2f430b-09cf-4538-b365-4f88b05fd743","system_id":"levelo_inurba_marseille","lat":43.30499,"lon":5.37101,"is_reserved":false,"is_disabled":false,"rental_uris":{"android":"levelo://app?vid=1c2f430b-09cf-4538-b365-4f88b05fd743","ios":"levelo://app?vid=1c2f430b-09cf-4538-b365-4f88b05fd743"},"vehicle_type_id":"4","last_reported":1720368513,"current_range_meters":0,"station_id":"","pricing_plan_id":"cebpf4jnsgd1na2vs0mg"},{"bike_id":"73b0fd51-8a57-42ae-ad00-3bc19ae119bb","system_id":"levelo_inurba_marseille","lat":43.30785,"lon":5.37653,"is_reserved":false,"is_disabled":false,"rental_uris":{"android":"levelo://app?vid=73b0fd51-8a57-42ae-ad00-3bc19ae119bb","ios":"levelo://app?vid=73b0fd51-8a57-42ae-ad00-3bc19ae119bb"},"vehicle_type_id":"4","last_reported":1720368513,"current_range_meters":2800,"station_id":"ce4bgv92rcd13ifvqcq0","pricing_plan_id":"cebpf4jnsgd1na2vs0mg"},{"bike_id":"d5a030a7-1720-4819-9bfe-8b1e0ac09174","system_id":"levelo_inurba_marseille","lat":43.307945,"lon":5.376487,"is_reserved":false,"is_disabled":false,"rental_uris":{"android":"levelo://app?vid=d5a030a7-1720-4819-9bfe-8b1e0ac09174","ios":"levelo://app?vid=d5a030a7-1720-4819-9bfe-8b1e0ac09174"},"vehicle_type_id":"4","last_reported":1720368513,"current_range_meters":19200,"station_id":"ce4bgv92rcd13ifvqcq0","pricing_plan_id":"cebpf4jnsgd1na2vs0mg"},{"bike_id":"de7f94a0-f3a6-4702-b950-2ed30e4e8005","system_id":"levelo_inurba_marseille","lat":43.31623,"lon":5.38219,"is_reserved":false,"is_disabled":false,"rental_uris":{"android":"levelo://app?vid=de7f94a0-f3a6-4702-b950-2ed30e4e8005","ios":"levelo://app?vid=de7f94a0-f3a6-4702-b950-2ed30e4e8005"},"vehicle_type_id":"4","last_reported":1720368513,"current_range_meters":12000,"station_id":"","pricing_plan_id":"cebpf4jnsgd1na2vs0mg"},{"bike_id":"121664f3-47a3-41c4-a7a8-20926809dff7","system_id":"levelo_inurba_marseille","lat":43.308012,"lon":5.381511,"is_reserved":false,"is_disabled":false,"rental_uris":{"android":"levelo://app?vid=121664f3-47a3-41c4-a7a8-20926809dff7","ios":"levelo://app?vid=121664f3-47a3-41c4-a7a8-20926809dff7"},"vehicle_type_id":"4","last_reported":1720368513,"current_range_meters":400,"station_id":"ce4bgt12rcd13ifvqce0","pricing_plan_id":"cebpf4jnsgd1na2vs0mg"},{"bike_id":"ad8c02c3-b43c-4efb-8ba1-4ac0faed2346","system_id":"levelo_inurba_marseille","lat":43.301008,"lon":5.368712,"is_reserved":false,"is_disabled":false,"rental_uris":{"android":"levelo://app?vid=ad8c02c3-b43c-4efb-8ba1-4ac0faed2346","ios":"levelo://app?vid=ad8c02c3-b43c-4efb-8ba1-4ac0faed2346"},"vehicle_type_id":"4","last_reported":1720368513,"current_range_meters":15200,"station_id":"","pricing_plan_id":"cebpf4jnsgd1na2vs0mg"},{"bike_id":"cba06cdd-58a4-4e5d-bbdd-20cdfd8568b3","system_id":"levelo_inurba_marseille","lat":43.32475,"lon":5.36569,"is_reserved":false,"is_disabled":false,"rental_uris":{"android":"levelo://app?vid=cba06cdd-58a4-4e5d-bbdd-20cdfd8568b3","ios":"levelo://app?vid=cba06cdd-58a4-4e5d-bbdd-20cdfd8568b3"},"vehicle_type_id":"4","last_reported":1720368513,"current_range_meters":3200,"station_id":"ce4bhs12rcd13ifvqhvg","pricing_plan_id":"cebpf4jnsgd1na2vs0mg"},{"bike_id":"f3a982b9-5767-495b-b9b3-55bbd041934d","system_id":"levelo_inurba_marseille","lat":43.324771,"lon":5.36557,"is_reserved":false,"is_disabled":false,"rental_uris":{"android":"levelo://app?vid=f3a982b9-5767-495b-b9b3-55bbd041934d","ios":"levelo://app?vid=f3a982b9-5767-495b-b9b3-55bbd041934d"},"vehicle_type_id":"4","last_reported":1720368513,"current_range_meters":18400,"station_id":"ce4bhs12rcd13ifvqhvg","pricing_plan_id":"cebpf4jnsgd1na2vs0mg"},{"bike_id":"ac21a9ef-c03a-402e-b21a-379453100149","system_id":"levelo_inurba_marseille","lat":43.324771,"lon":5.36557,"is_reserved":false,"is_disabled":false,"rental_uris":{"android":"levelo://app?vid=ac21a9ef-c03a-402e-b21a-379453100149","ios":"levelo://app?vid=ac21a9ef-c03a-402e-b21a-379453100149"},"vehicle_type_id":"4","last_reported":1720368513,"current_range_meters":19200,"station_id":"ce4bhs12rcd13ifvqhvg","pricing_plan_id":"cebpf4jnsgd1na2vs0mg"},{"bike_id":"5d852f61-c391-4582-b427-103f0805d646","system_id":"levelo_inurba_marseille","lat":43.324771,"lon":5.36557,"is_reserved":false,"is_disabled":false,"rental_uris":{"android":"levelo://app?vid=5d852f61-c391-4582-b427-103f0805d646","ios":"levelo://app?vid=5d852f61-c391-4582-b427-103f0805d646"},"vehicle_type_id":"4","last_reported":1720368513,"current_range_meters":29200,"station_id":"ce4bhs12rcd13ifvqhvg","pricing_plan_id":"cebpf4jnsgd1na2vs0mg"},{"bike_id":"66561364-9efe-4704-8653-e4e0325012d2","system_id":"levelo_inurba_marseille","lat":43.3248,"lon":5.365605,"is_reserved":false,"is_disabled":false,"rental_uris":{"android":"levelo://app?vid=66561364-9efe-4704-8653-e4e0325012d2","ios":"levelo://app?vid=66561364-9efe-4704-8653-e4e0325012d2"},"vehicle_type_id":"4","last_reported":1720368513,"current_range_meters":29600,"station_id":"ce4bhs12rcd13ifvqhvg","pricing_plan_id":"cebpf4jnsgd1na2vs0mg"},{"bike_id":"b1f4a16a-c03b-4120-aca8-941d6a6df2ab","system_id":"levelo_inurba_marseille","lat":43.32482,"lon":5.365645,"is_reserved":false,"is_disabled":false,"rental_uris":{"android":"levelo://app?vid=b1f4a16a-c03b-4120-aca8-941d6a6df2ab","ios":"levelo://app?vid=b1f4a16a-c03b-4120-aca8-941d6a6df2ab"},"vehicle_type_id":"4","last_reported":1720368513,"current_range_meters":14000,"station_id":"ce4bhs12rcd13ifvqhvg","pricing_plan_id":"cebpf4jnsgd1na2vs0mg"},{"bike_id":"1a218435-43f7-4451-93d1-9146cf664277","system_id":"levelo_inurba_marseille","lat":43.32482,"lon":5.36558,"is_reserved":false,"is_disabled":false,"rental_uris":{"android":"levelo://app?vid=1a218435-43f7-4451-93d1-9146cf664277","ios":"levelo://app?vid=1a218435-43f7-4451-93d1-9146cf664277"},"vehicle_type_id":"4","last_reported":1720368513,"current_range_meters":0,"station_id":"ce4bhs12rcd13ifvqhvg","pricing_plan_id":"cebpf4jnsgd1na2vs0mg"},{"bike_id":"dee8e93b-74c9-4b2f-a2a1-1ca8efd7a42f","system_id":"levelo_inurba_marseille","lat":43.324771,"lon":5.36557,"is_reserved":false,"is_disabled":false,"rental_uris":{"android":"levelo://app?vid=dee8e93b-74c9-4b2f-a2a1-1ca8efd7a42f","ios":"levelo://app?vid=dee8e93b-74c9-4b2f-a2a1-1ca8efd7a42f"},"vehicle_type_id":"4","last_reported":1720368513,"current_range_meters":17600,"station_id":"ce4bhs12rcd13ifvqhvg","pricing_plan_id":"cebpf4jnsgd1na2vs0mg"},{"bike_id":"f094d6e9-8310-4f1f-94a2-7cd8812ca797","system_id":"levelo_inurba_marseille","lat":43.324843,"lon":5.365634,"is_reserved":false,"is_disabled":false,"rental_uris":{"android":"levelo://app?vid=f094d6e9-8310-4f1f-94a2-7cd8812ca797","ios":"levelo://app?vid=f094d6e9-8310-4f1f-94a2-7cd8812ca797"},"vehicle_type_id":"4","last_reported":1720368513,"current_range_meters":0,"station_id":"ce4bhs12rcd13ifvqhvg","pricing_plan_id":"cebpf4jnsgd1na2vs0mg"},{"bike_id":"096abc1c-fc93-4e64-af4f-f536ac12d80d","system_id":"levelo_inurba_marseille","lat":43.324771,"lon":5.36557,"is_reserved":false,"is_disabled":false,"rental_uris":{"android":"levelo://app?vid=096abc1c-fc93-4e64-af4f-f536ac12d80d","ios":"levelo://app?vid=096abc1c-fc93-4e64-af4f-f536ac12d80d"},"vehicle_type_id":"4","last_reported":1720368513,"current_range_meters":9600,"station_id":"ce4bhs12rcd13ifvqhvg","pricing_plan_id":"cebpf4jnsgd1na2vs0mg"},{"bike_id":"db7f9773-8111-4360-afc8-f35dbeaceef9","system_id":"levelo_inurba_marseille","lat":43.32486,"lon":5.36569,"is_reserved":false,"is_disabled":false,"rental_uris":{"android":"levelo://app?vid=db7f9773-8111-4360-afc8-f35dbeaceef9","ios":"levelo://app?vid=db7f9773-8111-4360-afc8-f35dbeaceef9"},"vehicle_type_id":"4","last_reported":1720368513,"current_range_meters":3200,"station_id":"ce4bhs12rcd13ifvqhvg","pricing_plan_id":"cebpf4jnsgd1na2vs0mg"},{"bike_id":"b14ac795-e42f-4cb0-9e8e-f6a939edb762","system_id":"levelo_inurba_marseille","lat":43.32486,"lon":5.36562,"is_reserved":false,"is_disabled":false,"rental_uris":{"android":"levelo://app?vid=b14ac795-e42f-4cb0-9e8e-f6a939edb762","ios":"levelo://app?vid=b14ac795-e42f-4cb0-9e8e-f6a939edb762"},"vehicle_type_id":"4","last_reported":1720368513,"current_range_meters":28400,"station_id":"ce4bhs12rcd13ifvqhvg","pricing_plan_id":"cebpf4jnsgd1na2vs0mg"},{"bike_id":"14fd5de4-250d-4004-9087-6495b84347c0","system_id":"levelo_inurba_marseille","lat":43.324876,"lon":5.365602,"is_reserved":false,"is_disabled":false,"rental_uris":{"android":"levelo://app?vid=14fd5de4-250d-4004-9087-6495b84347c0","ios":"levelo://app?vid=14fd5de4-250d-4004-9087-6495b84347c0"},"vehicle_type_id":"4","last_reported":1720368513,"current_range_meters":6000,"station_id":"ce4bhs12rcd13ifvqhvg","pricing_plan_id":"cebpf4jnsgd1na2vs0mg"},{"bike_id":"da2320f8-f4a1-4b0a-9974-e156e3f1d167","system_id":"levelo_inurba_marseille","lat":43.324771,"lon":5.36557,"is_reserved":false,"is_disabled":false,"rental_uris":{"android":"levelo://app?vid=da2320f8-f4a1-4b0a-9974-e156e3f1d167","ios":"levelo://app?vid=da2320f8-f4a1-4b0a-9974-e156e3f1d167"},"vehicle_type_id":"4","last_reported":1720368513,"current_range_meters":22800,"station_id":"ce4bhs12rcd13ifvqhvg","pricing_plan_id":"cebpf4jnsgd1na2vs0mg"},{"bike_id":"d285936a-e80c-4261-98b8-dfdfc3ecd557","system_id":"levelo_inurba_marseille","lat":43.3249,"lon":5.3657,"is_reserved":false,"is_disabled":false,"rental_uris":{"android":"levelo://app?vid=d285936a-e80c-4261-98b8-dfdfc3ecd557","ios":"levelo://app?vid=d285936a-e80c-4261-98b8-dfdfc3ecd557"},"vehicle_type_id":"4","last_reported":1720368513,"current_range_meters":3600,"station_id":"ce4bhs12rcd13ifvqhvg","pricing_plan_id":"cebpf4jnsgd1na2vs0mg"},{"bike_id":"a3b70659-66fd-4149-b6de-fb04df64e8b4","system_id":"levelo_inurba_marseille","lat":43.324771,"lon":5.36557,"is_reserved":false,"is_disabled":false,"rental_uris":{"android":"levelo://app?vid=a3b70659-66fd-4149-b6de-fb04df64e8b4","ios":"levelo://app?vid=a3b70659-66fd-4149-b6de-fb04df64e8b4"},"vehicle_type_id":"4","last_reported":1720368513,"current_range_meters":12800,"station_id":"ce4bhs12rcd13ifvqhvg","pricing_plan_id":"cebpf4jnsgd1na2vs0mg"},{"bike_id":"e646995a-b610-4027-a2e3-96ad7c66fc07","system_id":"levelo_inurba_marseille","lat":43.324771,"lon":5.36557,"is_reserved":false,"is_disabled":false,"rental_uris":{"android":"levelo://app?vid=e646995a-b610-4027-a2e3-96ad7c66fc07","ios":"levelo://app?vid=e646995a-b610-4027-a2e3-96ad7c66fc07"},"vehicle_type_id":"4","last_reported":1720368513,"current_range_meters":8400,"station_id":"ce4bhs12rcd13ifvqhvg","pricing_plan_id":"cebpf4jnsgd1na2vs0mg"},{"bike_id":"55cb0d09-e706-479d-b4c0-3fa80b2ad431","system_id":"levelo_inurba_marseille","lat":43.32493,"lon":5.36565,"is_reserved":false,"is_disabled":false,"rental_uris":{"android":"levelo://app?vid=55cb0d09-e706-479d-b4c0-3fa80b2ad431","ios":"levelo://app?vid=55cb0d09-e706-479d-b4c0-3fa80b2ad431"},"vehicle_type_id":"4","last_reported":1720368513,"current_range_meters":28000,"station_id":"ce4bhs12rcd13ifvqhvg","pricing_plan_id":"cebpf4jnsgd1na2vs0mg"},{"bike_id":"fd30c03f-b063-4b0b-86ab-0569104418ef","system_id":"levelo_inurba_marseille","lat":43.324771,"lon":5.36557,"is_reserved":false,"is_disabled":false,"rental_uris":{"android":"levelo://app?vid=fd30c03f-b063-4b0b-86ab-0569104418ef","ios":"levelo://app?vid=fd30c03f-b063-4b0b-86ab-0569104418ef"},"vehicle_type_id":"4","last_reported":1720368513,"current_range_meters":18800,"station_id":"ce4bhs12rcd13ifvqhvg","pricing_plan_id":"cebpf4jnsgd1na2vs0mg"},{"bike_id":"195a3c08-b51e-480b-818f-9838d543d9ee","system_id":"levelo_inurba_marseille","lat":43.310804,"lon":5.38359,"is_reserved":false,"is_disabled":false,"rental_uris":{"android":"levelo://app?vid=195a3c08-b51e-480b-818f-9838d543d9ee","ios":"levelo://app?vid=195a3c08-b51e-480b-818f-9838d543d9ee"},"vehicle_type_id":"4","last_reported":1720368513,"current_range_meters":0,"station_id":"ce4bgv92rcd13ifvqcr0","pricing_plan_id":"cebpf4jnsgd1na2vs0mg"},{"bike_id":"ea734282-bfce-4546-af81-4033d339ba2d","system_id":"levelo_inurba_marseille","lat":43.30032,"lon":5.36557,"is_reserved":false,"is_disabled":false,"rental_uris":{"android":"levelo://app?vid=ea734282-bfce-4546-af81-4033d339ba2d","ios":"levelo://app?vid=ea734282-bfce-4546-af81-4033d339ba2d"},"vehicle_type_id":"4","last_reported":1720368513,"current_range_meters":28800,"station_id":"","pricing_plan_id":"cebpf4jnsgd1na2vs0mg"},{"bike_id":"71adc493-6bd6-4a26-9c72-fba52f447ac1","system_id":"levelo_inurba_marseille","lat":43.31999,"lon":5.38151,"is_reserved":false,"is_disabled":false,"rental_uris":{"android":"levelo://app?vid=71adc493-6bd6-4a26-9c72-fba52f447ac1","ios":"levelo://app?vid=71adc493-6bd6-4a26-9c72-fba52f447ac1"},"vehicle_type_id":"4","last_reported":1720368513,"current_range_meters":0,"station_id":"ce4bhr12rcd13ifvqhpg","pricing_plan_id":"cebpf4jnsgd1na2vs0mg"},{"bike_id":"7f86b07a-c709-4a81-89a5-f6ec27e10fc1","system_id":"levelo_inurba_marseille","lat":43.313571,"lon":5.384829,"is_reserved":false,"is_disabled":false,"rental_uris":{"android":"levelo://app?vid=7f86b07a-c709-4a81-89a5-f6ec27e10fc1","ios":"levelo://app?vid=7f86b07a-c709-4a81-89a5-f6ec27e10fc1"},"vehicle_type_id":"4","last_reported":1720368513,"current_range_meters":17200,"station_id":"ce4bgt92rcd13ifvqcf0","pricing_plan_id":"cebpf4jnsgd1na2vs0mg"},{"bike_id":"ae9394d5-bef2-4bb2-90b1-4cb641405fa3","system_id":"levelo_inurba_marseille","lat":43.312873,"lon":5.386532,"is_reserved":false,"is_disabled":false,"rental_uris":{"android":"levelo://app?vid=ae9394d5-bef2-4bb2-90b1-4cb641405fa3","ios":"levelo://app?vid=ae9394d5-bef2-4bb2-90b1-4cb641405fa3"},"vehicle_type_id":"4","last_reported":1720368513,"current_range_meters":4000,"station_id":"","pricing_plan_id":"cebpf4jnsgd1na2vs0mg"},{"bike_id":"05eda692-c8bb-471f-879e-57993752ab42","system_id":"levelo_inurba_marseille","lat":43.298433,"lon":5.362774,"is_reserved":false,"is_disabled":false,"rental_uris":{"android":"levelo://app?vid=05eda692-c8bb-471f-879e-57993752ab42","ios":"levelo://app?vid=05eda692-c8bb-471f-879e-57993752ab42"},"vehicle_type_id":"4","last_reported":1720368513,"current_range_meters":3600,"station_id":"ce4bgpp2rcd13ifvqc3g","pricing_plan_id":"cebpf4jnsgd1na2vs0mg"},{"bike_id":"9c052d3d-9de9-4cdb-9ffd-fba54403c3db","system_id":"levelo_inurba_marseille","lat":43.311722,"lon":5.387247,"is_reserved":false,"is_disabled":false,"rental_uris":{"android":"levelo://app?vid=9c052d3d-9de9-4cdb-9ffd-fba54403c3db","ios":"levelo://app?vid=9c052d3d-9de9-4cdb-9ffd-fba54403c3db"},"vehicle_type_id":"4","last_reported":1720368513,"current_range_meters":4400,"station_id":"ce4bgv12rcd13ifvqcp0","pricing_plan_id":"cebpf4jnsgd1na2vs0mg"},{"bike_id":"5d1aba9c-ba51-4455-9048-3dfaf580a469","system_id":"levelo_inurba_marseille","lat":43.32292,"lon":5.38268,"is_reserved":false,"is_disabled":false,"rental_uris":{"android":"levelo://app?vid=5d1aba9c-ba51-4455-9048-3dfaf580a469","ios":"levelo://app?vid=5d1aba9c-ba51-4455-9048-3dfaf580a469"},"vehicle_type_id":"4","last_reported":1720368513,"current_range_meters":12800,"station_id":"ce4bhr12rcd13ifvqhqg","pricing_plan_id":"cebpf4jnsgd1na2vs0mg"},{"bike_id":"ad9bbf5e-75ca-4dda-887e-376c97e00121","system_id":"levelo_inurba_marseille","lat":43.32297,"lon":5.38266,"is_reserved":false,"is_disabled":false,"rental_uris":{"android":"levelo://app?vid=ad9bbf5e-75ca-4dda-887e-376c97e00121","ios":"levelo://app?vid=ad9bbf5e-75ca-4dda-887e-376c97e00121"},"vehicle_type_id":"4","last_reported":1720368513,"current_range_meters":28400,"station_id":"ce4bhr12rcd13ifvqhqg","pricing_plan_id":"cebpf4jnsgd1na2vs0mg"},{"bike_id":"bd4bc90e-8217-4686-9c88-6f8303ef7c76","system_id":"levelo_inurba_marseille","lat":43.322942,"lon":5.382762,"is_reserved":false,"is_disabled":false,"rental_uris":{"android":"levelo://app?vid=bd4bc90e-8217-4686-9c88-6f8303ef7c76","ios":"levelo://app?vid=bd4bc90e-8217-4686-9c88-6f8303ef7c76"},"vehicle_type_id":"4","last_reported":1720368513,"current_range_meters":31200,"station_id":"ce4bhr12rcd13ifvqhqg","pricing_plan_id":"cebpf4jnsgd1na2vs0mg"},{"bike_id":"97c73b5e-b636-43a3-9589-08fc64bdd23e","system_id":"levelo_inurba_marseille","lat":43.297163,"lon":5.365866,"is_reserved":false,"is_disabled":false,"rental_uris":{"android":"levelo://app?vid=97c73b5e-b636-43a3-9589-08fc64bdd23e","ios":"levelo://app?vid=97c73b5e-b636-43a3-9589-08fc64bdd23e"},"vehicle_type_id":"4","last_reported":1720368513,"current_range_meters":4000,"station_id":"ce4bgn12rcd13ifvqbt0","pricing_plan_id":"cebpf4jnsgd1na2vs0mg"},{"bike_id":"c27e8371-e4ec-464e-9bda-f15a4285f366","system_id":"levelo_inurba_marseille","lat":43.31128,"lon":5.3899,"is_reserved":false,"is_disabled":false,"rental_uris":{"android":"levelo://app?vid=c27e8371-e4ec-464e-9bda-f15a4285f366","ios":"levelo://app?vid=c27e8371-e4ec-464e-9bda-f15a4285f366"},"vehicle_type_id":"4","last_reported":1720368513,"current_range_meters":400,"station_id":"","pricing_plan_id":"cebpf4jnsgd1na2vs0mg"},{"bike_id":"280525b4-850d-4349-9c72-4f70d3424eeb","system_id":"levelo_inurba_marseille","lat":43.327275,"lon":5.378532,"is_reserved":false,"is_disabled":false,"rental_uris":{"android":"levelo://app?vid=280525b4-850d-4349-9c72-4f70d3424eeb","ios":"levelo://app?vid=280525b4-850d-4349-9c72-4f70d3424eeb"},"vehicle_type_id":"4","last_reported":1720368513,"current_range_meters":6800,"station_id":"","pricing_plan_id":"cebpf4jnsgd1na2vs0mg"},{"bike_id":"5b05937c-03e2-4532-a128-56e74e29bb54","system_id":"levelo_inurba_marseille","lat":43.29573,"lon":5.367355,"is_reserved":false,"is_disabled":false,"rental_uris":{"android":"levelo://app?vid=5b05937c-03e2-4532-a128-56e74e29bb54","ios":"levelo://app?vid=5b05937c-03e2-4532-a128-56e74e29bb54"},"vehicle_type_id":"4","last_reported":1720368513,"current_range_meters":2000,"station_id":"ce4bgph2rcd13ifvqc2g","pricing_plan_id":"cebpf4jnsgd1na2vs0mg"},{"bike_id":"a1c77f5e-f042-4d4b-b349-02e8505a8a1b","system_id":"levelo_inurba_marseille","lat":43.29575,"lon":5.36699,"is_reserved":false,"is_disabled":false,"rental_uris":{"android":"levelo://app?vid=a1c77f5e-f042-4d4b-b349-02e8505a8a1b","ios":"levelo://app?vid=a1c77f5e-f042-4d4b-b349-02e8505a8a1b"},"vehicle_type_id":"4","last_reported":1720368513,"current_range_meters":0,"station_id":"ce4bgph2rcd13ifvqc2g","pricing_plan_id":"cebpf4jnsgd1na2vs0mg"},{"bike_id":"62db7c11-383d-4a54-9b01-9ef2675a2860","system_id":"levelo_inurba_marseille","lat":43.295697,"lon":5.366933,"is_reserved":false,"is_disabled":false,"rental_uris":{"android":"levelo://app?vid=62db7c11-383d-4a54-9b01-9ef2675a2860","ios":"levelo://app?vid=62db7c11-383d-4a54-9b01-9ef2675a2860"},"vehicle_type_id":"4","last_reported":1720368513,"current_range_meters":7200,"station_id":"ce4bgph2rcd13ifvqc2g","pricing_plan_id":"cebpf4jnsgd1na2vs0mg"},{"bike_id":"f46c88b7-7b40-4f0b-855c-3899542bf979","system_id":"levelo_inurba_marseille","lat":43.29915,"lon":5.38124,"is_reserved":false,"is_disabled":false,"rental_uris":{"android":"levelo://app?vid=f46c88b7-7b40-4f0b-855c-3899542bf979","ios":"levelo://app?vid=f46c88b7-7b40-4f0b-855c-3899542bf979"},"vehicle_type_id":"4","last_reported":1720368513,"current_range_meters":0,"station_id":"ce4bgj12rcd13ifvqbc0","pricing_plan_id":"cebpf4jnsgd1na2vs0mg"},{"bike_id":"77fca2f9-975b-4bc4-8986-fac021c30959","system_id":"levelo_inurba_marseille","lat":43.309589,"lon":5.390258,"is_reserved":false,"is_disabled":false,"rental_uris":{"android":"levelo://app?vid=77fca2f9-975b-4bc4-8986-fac021c30959","ios":"levelo://app?vid=77fca2f9-975b-4bc4-8986-fac021c30959"},"vehicle_type_id":"4","last_reported":1720368513,"current_range_meters":0,"station_id":"ce4bgup2rcd13ifvqco0","pricing_plan_id":"cebpf4jnsgd1na2vs0mg"},{"bike_id":"64975988-ba78-461f-b3a2-2e5ee2446848","system_id":"levelo_inurba_marseille","lat":43.31762,"lon":5.3902,"is_reserved":false,"is_disabled":false,"rental_uris":{"android":"levelo://app?vid=64975988-ba78-461f-b3a2-2e5ee2446848","ios":"levelo://app?vid=64975988-ba78-461f-b3a2-2e5ee2446848"},"vehicle_type_id":"4","last_reported":1720368513,"current_range_meters":24400,"station_id":"ce4bhqp2rcd13ifvqhng","pricing_plan_id":"cebpf4jnsgd1na2vs0mg"},{"bike_id":"8a99e706-2b47-4725-94bf-5fbc7d7c4d98","system_id":"levelo_inurba_marseille","lat":43.295748,"lon":5.37522,"is_reserved":false,"is_disabled":false,"rental_uris":{"android":"levelo://app?vid=8a99e706-2b47-4725-94bf-5fbc7d7c4d98","ios":"levelo://app?vid=8a99e706-2b47-4725-94bf-5fbc7d7c4d98"},"vehicle_type_id":"4","last_reported":1720368513,"current_range_meters":400,"station_id":"ce4bgh92rcd13ifvqb50","pricing_plan_id":"cebpf4jnsgd1na2vs0mg"},{"bike_id":"32ae3b0c-864c-49d1-a500-15c0ffd4659d","system_id":"levelo_inurba_marseille","lat":43.295748,"lon":5.37522,"is_reserved":false,"is_disabled":false,"rental_uris":{"android":"levelo://app?vid=32ae3b0c-864c-49d1-a500-15c0ffd4659d","ios":"levelo://app?vid=32ae3b0c-864c-49d1-a500-15c0ffd4659d"},"vehicle_type_id":"4","last_reported":1720368513,"current_range_meters":24400,"station_id":"ce4bgh92rcd13ifvqb50","pricing_plan_id":"cebpf4jnsgd1na2vs0mg"},{"bike_id":"dbdb990c-af7a-4329-b833-a8ba1f31c3d7","system_id":"levelo_inurba_marseille","lat":43.3044,"lon":5.38899,"is_reserved":false,"is_disabled":false,"rental_uris":{"android":"levelo://app?vid=dbdb990c-af7a-4329-b833-a8ba1f31c3d7","ios":"levelo://app?vid=dbdb990c-af7a-4329-b833-a8ba1f31c3d7"},"vehicle_type_id":"4","last_reported":1720368513,"current_range_meters":30000,"station_id":"ce4bgk12rcd13ifvqbi0","pricing_plan_id":"cebpf4jnsgd1na2vs0mg"},{"bike_id":"de635802-487a-4188-aa59-a888e3badbcd","system_id":"levelo_inurba_marseille","lat":43.296277,"lon":5.377108,"is_reserved":false,"is_disabled":false,"rental_uris":{"android":"levelo://app?vid=de635802-487a-4188-aa59-a888e3badbcd","ios":"levelo://app?vid=de635802-487a-4188-aa59-a888e3badbcd"},"vehicle_type_id":"4","last_reported":1720368513,"current_range_meters":0,"station_id":"ce4bgi92rcd13ifvqb90","pricing_plan_id":"cebpf4jnsgd1na2vs0mg"},{"bike_id":"b4ee8a36-6f73-4065-9564-b28ebf8585fb","system_id":"levelo_inurba_marseille","lat":43.295279,"lon":5.375048,"is_reserved":false,"is_disabled":false,"rental_uris":{"android":"levelo://app?vid=b4ee8a36-6f73-4065-9564-b28ebf8585fb","ios":"levelo://app?vid=b4ee8a36-6f73-4065-9564-b28ebf8585fb"},"vehicle_type_id":"4","last_reported":1720368513,"current_range_meters":0,"station_id":"ce4bgkp2rcd13ifvqbmg","pricing_plan_id":"cebpf4jnsgd1na2vs0mg"},{"bike_id":"9c6f1392-aa4a-4387-8fb8-ebcb6f97b430","system_id":"levelo_inurba_marseille","lat":43.32367,"lon":5.388836,"is_reserved":false,"is_disabled":false,"rental_uris":{"android":"levelo://app?vid=9c6f1392-aa4a-4387-8fb8-ebcb6f97b430","ios":"levelo://app?vid=9c6f1392-aa4a-4387-8fb8-ebcb6f97b430"},"vehicle_type_id":"4","last_reported":1720368513,"current_range_meters":3200,"station_id":"ce4bhqp2rcd13ifvqhog","pricing_plan_id":"cebpf4jnsgd1na2vs0mg"},{"bike_id":"caec7a11-75e9-4ca2-834d-064a78f863a4","system_id":"levelo_inurba_marseille","lat":43.29377,"lon":5.37279,"is_reserved":false,"is_disabled":false,"rental_uris":{"android":"levelo://app?vid=caec7a11-75e9-4ca2-834d-064a78f863a4","ios":"levelo://app?vid=caec7a11-75e9-4ca2-834d-064a78f863a4"},"vehicle_type_id":"4","last_reported":1720368513,"current_range_meters":0,"station_id":"","pricing_plan_id":"cebpf4jnsgd1na2vs0mg"},{"bike_id":"7358e278-ab82-4a08-b7ca-66f9f2690fbb","system_id":"levelo_inurba_marseille","lat":43.292749,"lon":5.368402,"is_reserved":false,"is_disabled":false,"rental_uris":{"android":"levelo://app?vid=7358e278-ab82-4a08-b7ca-66f9f2690fbb","ios":"levelo://app?vid=7358e278-ab82-4a08-b7ca-66f9f2690fbb"},"vehicle_type_id":"4","last_reported":1720368513,"current_range_meters":21600,"station_id":"ce4bhbp2rcd13ifvqesg","pricing_plan_id":"cebpf4jnsgd1na2vs0mg"},{"bike_id":"dc9122cf-3a86-439d-a8b6-4884e02a7c28","system_id":"levelo_inurba_marseille","lat":43.292747,"lon":5.368487,"is_reserved":false,"is_disabled":false,"rental_uris":{"android":"levelo://app?vid=dc9122cf-3a86-439d-a8b6-4884e02a7c28","ios":"levelo://app?vid=dc9122cf-3a86-439d-a8b6-4884e02a7c28"},"vehicle_type_id":"4","last_reported":1720368513,"current_range_meters":17200,"station_id":"ce4bhbp2rcd13ifvqesg","pricing_plan_id":"cebpf4jnsgd1na2vs0mg"},{"bike_id":"cd90d865-3663-4d37-b4f0-cfd9b5892393","system_id":"levelo_inurba_marseille","lat":43.29273,"lon":5.36839,"is_reserved":false,"is_disabled":false,"rental_uris":{"android":"levelo://app?vid=cd90d865-3663-4d37-b4f0-cfd9b5892393","ios":"levelo://app?vid=cd90d865-3663-4d37-b4f0-cfd9b5892393"},"vehicle_type_id":"4","last_reported":1720368513,"current_range_meters":0,"station_id":"ce4bhbp2rcd13ifvqesg","pricing_plan_id":"cebpf4jnsgd1na2vs0mg"},{"bike_id":"41b8cb73-cd67-47c2-8143-eefb31a03baa","system_id":"levelo_inurba_marseille","lat":43.29307,"lon":5.3744,"is_reserved":false,"is_disabled":false,"rental_uris":{"android":"levelo://app?vid=41b8cb73-cd67-47c2-8143-eefb31a03baa","ios":"levelo://app?vid=41b8cb73-cd67-47c2-8143-eefb31a03baa"},"vehicle_type_id":"4","last_reported":1720368513,"current_range_meters":0,"station_id":"ce4bgi12rcd13ifvqb70","pricing_plan_id":"cebpf4jnsgd1na2vs0mg"},{"bike_id":"284f2ae0-e229-4b13-ba21-c5a1adf571c8","system_id":"levelo_inurba_marseille","lat":43.29294,"lon":5.37459,"is_reserved":false,"is_disabled":false,"rental_uris":{"android":"levelo://app?vid=284f2ae0-e229-4b13-ba21-c5a1adf571c8","ios":"levelo://app?vid=284f2ae0-e229-4b13-ba21-c5a1adf571c8"},"vehicle_type_id":"4","last_reported":1720368513,"current_range_meters":0,"station_id":"ce4bgi12rcd13ifvqb70","pricing_plan_id":"cebpf4jnsgd1na2vs0mg"},{"bike_id":"be1ec77c-a423-44c9-823c-3a1c5a9ce0b7","system_id":"levelo_inurba_marseille","lat":43.302992,"lon":5.392136,"is_reserved":false,"is_disabled":false,"rental_uris":{"android":"levelo://app?vid=be1ec77c-a423-44c9-823c-3a1c5a9ce0b7","ios":"levelo://app?vid=be1ec77c-a423-44c9-823c-3a1c5a9ce0b7"},"vehicle_type_id":"4","last_reported":1720368513,"current_range_meters":1200,"station_id":"ce4bgkh2rcd13ifvqbk0","pricing_plan_id":"cebpf4jnsgd1na2vs0mg"},{"bike_id":"e88810d6-42b0-49c0-bfee-14217006fb02","system_id":"levelo_inurba_marseille","lat":43.29227,"lon":5.36071,"is_reserved":false,"is_disabled":false,"rental_uris":{"android":"levelo://app?vid=e88810d6-42b0-49c0-bfee-14217006fb02","ios":"levelo://app?vid=e88810d6-42b0-49c0-bfee-14217006fb02"},"vehicle_type_id":"4","last_reported":1720368513,"current_range_meters":0,"station_id":"ce4bhbh2rcd13ifvqeqg","pricing_plan_id":"cebpf4jnsgd1na2vs0mg"},{"bike_id":"44840e3f-971c-4083-ac61-758e66e400ce","system_id":"levelo_inurba_marseille","lat":43.30085,"lon":5.390856,"is_reserved":false,"is_disabled":false,"rental_uris":{"android":"levelo://app?vid=44840e3f-971c-4083-ac61-758e66e400ce","ios":"levelo://app?vid=44840e3f-971c-4083-ac61-758e66e400ce"},"vehicle_type_id":"4","last_reported":1720368513,"current_range_meters":11600,"station_id":"ce4bh192rcd13ifvqdb0","pricing_plan_id":"cebpf4jnsgd1na2vs0mg"},{"bike_id":"a28cbbfe-5961-4bc0-bbb6-bb40b51476e8","system_id":"levelo_inurba_marseille","lat":43.313291,"lon":5.396838,"is_reserved":false,"is_disabled":false,"rental_uris":{"android":"levelo://app?vid=a28cbbfe-5961-4bc0-bbb6-bb40b51476e8","ios":"levelo://app?vid=a28cbbfe-5961-4bc0-bbb6-bb40b51476e8"},"vehicle_type_id":"4","last_reported":1720368513,"current_range_meters":9600,"station_id":"ce4bgvp2rcd13ifvqcu0","pricing_plan_id":"cebpf4jnsgd1na2vs0mg"},{"bike_id":"ad0ea729-ee12-4b9d-bc28-a857b924f3ec","system_id":"levelo_inurba_marseille","lat":43.29198,"lon":5.35806,"is_reserved":false,"is_disabled":false,"rental_uris":{"android":"levelo://app?vid=ad0ea729-ee12-4b9d-bc28-a857b924f3ec","ios":"levelo://app?vid=ad0ea729-ee12-4b9d-bc28-a857b924f3ec"},"vehicle_type_id":"4","last_reported":1720368513,"current_range_meters":0,"station_id":"ce4bhb12rcd13ifvqel0","pricing_plan_id":"cebpf4jnsgd1na2vs0mg"},{"bike_id":"45d0108f-8d01-4355-85e3-ee8e2e1e791c","system_id":"levelo_inurba_marseille","lat":43.292005,"lon":5.357875,"is_reserved":false,"is_disabled":false,"rental_uris":{"android":"levelo://app?vid=45d0108f-8d01-4355-85e3-ee8e2e1e791c","ios":"levelo://app?vid=45d0108f-8d01-4355-85e3-ee8e2e1e791c"},"vehicle_type_id":"4","last_reported":1720368513,"current_range_meters":0,"station_id":"ce4bhb12rcd13ifvqel0","pricing_plan_id":"cebpf4jnsgd1na2vs0mg"},{"bike_id":"4b1a0c85-49bc-48c8-abc5-6934d576ea30","system_id":"levelo_inurba_marseille","lat":43.29529,"lon":5.385581,"is_reserved":false,"is_disabled":false,"rental_uris":{"android":"levelo://app?vid=4b1a0c85-49bc-48c8-abc5-6934d576ea30","ios":"levelo://app?vid=4b1a0c85-49bc-48c8-abc5-6934d576ea30"},"vehicle_type_id":"4","last_reported":1720368513,"current_range_meters":8800,"station_id":"ce4bgih2rcd13ifvqba0","pricing_plan_id":"cebpf4jnsgd1na2vs0mg"},{"bike_id":"03768508-dce3-4efc-8e50-ecdde66dfe9d","system_id":"levelo_inurba_marseille","lat":43.295292,"lon":5.385368,"is_reserved":false,"is_disabled":false,"rental_uris":{"android":"levelo://app?vid=03768508-dce3-4efc-8e50-ecdde66dfe9d","ios":"levelo://app?vid=03768508-dce3-4efc-8e50-ecdde66dfe9d"},"vehicle_type_id":"4","last_reported":1720368513,"current_range_meters":0,"station_id":"","pricing_plan_id":"cebpf4jnsgd1na2vs0mg"},{"bike_id":"ee45e4ff-193a-498d-b4db-66655b968b5b","system_id":"levelo_inurba_marseille","lat":43.29529,"lon":5.385581,"is_reserved":false,"is_disabled":false,"rental_uris":{"android":"levelo://app?vid=ee45e4ff-193a-498d-b4db-66655b968b5b","ios":"levelo://app?vid=ee45e4ff-193a-498d-b4db-66655b968b5b"},"vehicle_type_id":"4","last_reported":1720368513,"current_range_meters":0,"station_id":"ce4bgih2rcd13ifvqba0","pricing_plan_id":"cebpf4jnsgd1na2vs0mg"},{"bike_id":"0f8d02db-a3cf-429d-86bd-81acae53787e","system_id":"levelo_inurba_marseille","lat":43.29529,"lon":5.385581,"is_reserved":false,"is_disabled":false,"rental_uris":{"android":"levelo://app?vid=0f8d02db-a3cf-429d-86bd-81acae53787e","ios":"levelo://app?vid=0f8d02db-a3cf-429d-86bd-81acae53787e"},"vehicle_type_id":"4","last_reported":1720368513,"current_range_meters":2800,"station_id":"ce4bgih2rcd13ifvqba0","pricing_plan_id":"cebpf4jnsgd1na2vs0mg"},{"bike_id":"c2f9527f-e88f-4b43-b9c4-0bea9e3ada15","system_id":"levelo_inurba_marseille","lat":43.302008,"lon":5.394694,"is_reserved":false,"is_disabled":false,"rental_uris":{"android":"levelo://app?vid=c2f9527f-e88f-4b43-b9c4-0bea9e3ada15","ios":"levelo://app?vid=c2f9527f-e88f-4b43-b9c4-0bea9e3ada15"},"vehicle_type_id":"4","last_reported":1720368513,"current_range_meters":400,"station_id":"ce4bh0p2rcd13ifvqd70","pricing_plan_id":"cebpf4jnsgd1na2vs0mg"},{"bike_id":"678a9187-032c-4274-8f68-402502a6930c","system_id":"levelo_inurba_marseille","lat":43.302008,"lon":5.394694,"is_reserved":false,"is_disabled":false,"rental_uris":{"android":"levelo://app?vid=678a9187-032c-4274-8f68-402502a6930c","ios":"levelo://app?vid=678a9187-032c-4274-8f68-402502a6930c"},"vehicle_type_id":"4","last_reported":1720368513,"current_range_meters":7200,"station_id":"ce4bh0p2rcd13ifvqd70","pricing_plan_id":"cebpf4jnsgd1na2vs0mg"},{"bike_id":"778d87b5-426f-447b-b15b-a15873e60e98","system_id":"levelo_inurba_marseille","lat":43.290631,"lon":5.359244,"is_reserved":false,"is_disabled":false,"rental_uris":{"android":"levelo://app?vid=778d87b5-426f-447b-b15b-a15873e60e98","ios":"levelo://app?vid=778d87b5-426f-447b-b15b-a15873e60e98"},"vehicle_type_id":"4","last_reported":1720368513,"current_range_meters":16000,"station_id":"ce4bha92rcd13ifvqeg0","pricing_plan_id":"cebpf4jnsgd1na2vs0mg"},{"bike_id":"afe22f3f-3dd8-429a-b731-30814b31214b","system_id":"levelo_inurba_marseille","lat":43.294153,"lon":5.386305,"is_reserved":false,"is_disabled":false,"rental_uris":{"android":"levelo://app?vid=afe22f3f-3dd8-429a-b731-30814b31214b","ios":"levelo://app?vid=afe22f3f-3dd8-429a-b731-30814b31214b"},"vehicle_type_id":"4","last_reported":1720368513,"current_range_meters":2000,"station_id":"ce4bh2h2rcd13ifvqdh0","pricing_plan_id":"cebpf4jnsgd1na2vs0mg"},{"bike_id":"e9de04c4-6d9a-426f-8533-6ac297bef36e","system_id":"levelo_inurba_marseille","lat":43.289184,"lon":5.366408,"is_reserved":false,"is_disabled":false,"rental_uris":{"android":"levelo://app?vid=e9de04c4-6d9a-426f-8533-6ac297bef36e","ios":"levelo://app?vid=e9de04c4-6d9a-426f-8533-6ac297bef36e"},"vehicle_type_id":"4","last_reported":1720368513,"current_range_meters":21200,"station_id":"ce4bhap2rcd13ifvqek0","pricing_plan_id":"cebpf4jnsgd1na2vs0mg"},{"bike_id":"bbde4ff4-a6be-46a8-8124-78b31c862fe2","system_id":"levelo_inurba_marseille","lat":43.289184,"lon":5.366408,"is_reserved":false,"is_disabled":false,"rental_uris":{"android":"levelo://app?vid=bbde4ff4-a6be-46a8-8124-78b31c862fe2","ios":"levelo://app?vid=bbde4ff4-a6be-46a8-8124-78b31c862fe2"},"vehicle_type_id":"4","last_reported":1720368513,"current_range_meters":22400,"station_id":"ce4bhap2rcd13ifvqek0","pricing_plan_id":"cebpf4jnsgd1na2vs0mg"},{"bike_id":"7929fd23-9d6a-4482-a677-cff71a7885a3","system_id":"levelo_inurba_marseille","lat":43.289184,"lon":5.366408,"is_reserved":false,"is_disabled":false,"rental_uris":{"android":"levelo://app?vid=7929fd23-9d6a-4482-a677-cff71a7885a3","ios":"levelo://app?vid=7929fd23-9d6a-4482-a677-cff71a7885a3"},"vehicle_type_id":"4","last_reported":1720368513,"current_range_meters":24000,"station_id":"ce4bhap2rcd13ifvqek0","pricing_plan_id":"cebpf4jnsgd1na2vs0mg"},{"bike_id":"42c10ef4-2044-4a12-8e52-d6d9b2a6e940","system_id":"levelo_inurba_marseille","lat":43.28937,"lon":5.36636,"is_reserved":false,"is_disabled":false,"rental_uris":{"android":"levelo://app?vid=42c10ef4-2044-4a12-8e52-d6d9b2a6e940","ios":"levelo://app?vid=42c10ef4-2044-4a12-8e52-d6d9b2a6e940"},"vehicle_type_id":"4","last_reported":1720368513,"current_range_meters":0,"station_id":"ce4bhap2rcd13ifvqek0","pricing_plan_id":"cebpf4jnsgd1na2vs0mg"},{"bike_id":"0e661038-e6e9-4e6e-b691-1197c1750cf4","system_id":"levelo_inurba_marseille","lat":43.289184,"lon":5.366408,"is_reserved":false,"is_disabled":false,"rental_uris":{"android":"levelo://app?vid=0e661038-e6e9-4e6e-b691-1197c1750cf4","ios":"levelo://app?vid=0e661038-e6e9-4e6e-b691-1197c1750cf4"},"vehicle_type_id":"4","last_reported":1720368513,"current_range_meters":7600,"station_id":"ce4bhap2rcd13ifvqek0","pricing_plan_id":"cebpf4jnsgd1na2vs0mg"},{"bike_id":"f93e8877-e94b-40b1-b0b3-3e3f69bb64fd","system_id":"levelo_inurba_marseille","lat":43.309047,"lon":5.396551,"is_reserved":false,"is_disabled":false,"rental_uris":{"android":"levelo://app?vid=f93e8877-e94b-40b1-b0b3-3e3f69bb64fd","ios":"levelo://app?vid=f93e8877-e94b-40b1-b0b3-3e3f69bb64fd"},"vehicle_type_id":"4","last_reported":1720368513,"current_range_meters":0,"station_id":"ce4bh012rcd13ifvqcv0","pricing_plan_id":"cebpf4jnsgd1na2vs0mg"},{"bike_id":"6b4cf427-6c95-41f9-916e-42fb99214a9b","system_id":"levelo_inurba_marseille","lat":43.29009,"lon":5.35617,"is_reserved":false,"is_disabled":false,"rental_uris":{"android":"levelo://app?vid=6b4cf427-6c95-41f9-916e-42fb99214a9b","ios":"levelo://app?vid=6b4cf427-6c95-41f9-916e-42fb99214a9b"},"vehicle_type_id":"4","last_reported":1720368513,"current_range_meters":0,"station_id":"ce4bhb92rcd13ifvqen0","pricing_plan_id":"cebpf4jnsgd1na2vs0mg"},{"bike_id":"8604d99c-1103-40a2-b96b-da372d7ab94f","system_id":"levelo_inurba_marseille","lat":43.290103,"lon":5.356114,"is_reserved":false,"is_disabled":false,"rental_uris":{"android":"levelo://app?vid=8604d99c-1103-40a2-b96b-da372d7ab94f","ios":"levelo://app?vid=8604d99c-1103-40a2-b96b-da372d7ab94f"},"vehicle_type_id":"4","last_reported":1720368513,"current_range_meters":0,"station_id":"ce4bhb92rcd13ifvqen0","pricing_plan_id":"cebpf4jnsgd1na2vs0mg"},{"bike_id":"9c5e5217-7857-42be-81ef-36660265465a","system_id":"levelo_inurba_marseille","lat":43.290103,"lon":5.356114,"is_reserved":false,"is_disabled":false,"rental_uris":{"android":"levelo://app?vid=9c5e5217-7857-42be-81ef-36660265465a","ios":"levelo://app?vid=9c5e5217-7857-42be-81ef-36660265465a"},"vehicle_type_id":"4","last_reported":1720368513,"current_range_meters":0,"station_id":"ce4bhb92rcd13ifvqen0","pricing_plan_id":"cebpf4jnsgd1na2vs0mg"},{"bike_id":"47cbceeb-0363-4640-b58c-8c35ea4146cc","system_id":"levelo_inurba_marseille","lat":43.290103,"lon":5.356114,"is_reserved":false,"is_disabled":false,"rental_uris":{"android":"levelo://app?vid=47cbceeb-0363-4640-b58c-8c35ea4146cc","ios":"levelo://app?vid=47cbceeb-0363-4640-b58c-8c35ea4146cc"},"vehicle_type_id":"4","last_reported":1720368513,"current_range_meters":0,"station_id":"ce4bhb92rcd13ifvqen0","pricing_plan_id":"cebpf4jnsgd1na2vs0mg"},{"bike_id":"7067e0f6-9826-46ed-b1aa-0455b3e93cdd","system_id":"levelo_inurba_marseille","lat":43.290995,"lon":5.381361,"is_reserved":false,"is_disabled":false,"rental_uris":{"android":"levelo://app?vid=7067e0f6-9826-46ed-b1aa-0455b3e93cdd","ios":"levelo://app?vid=7067e0f6-9826-46ed-b1aa-0455b3e93cdd"},"vehicle_type_id":"4","last_reported":1720368513,"current_range_meters":2800,"station_id":"ce4bh512rcd13ifvqe2g","pricing_plan_id":"cebpf4jnsgd1na2vs0mg"},{"bike_id":"629a85b5-c74b-4400-9002-cf94054a7b59","system_id":"levelo_inurba_marseille","lat":43.290995,"lon":5.381361,"is_reserved":false,"is_disabled":false,"rental_uris":{"android":"levelo://app?vid=629a85b5-c74b-4400-9002-cf94054a7b59","ios":"levelo://app?vid=629a85b5-c74b-4400-9002-cf94054a7b59"},"vehicle_type_id":"4","last_reported":1720368513,"current_range_meters":800,"station_id":"ce4bh512rcd13ifvqe2g","pricing_plan_id":"cebpf4jnsgd1na2vs0mg"},{"bike_id":"693fefa1-d8e0-4c6a-857f-b1a71f5c1e34","system_id":"levelo_inurba_marseille","lat":43.330442,"lon":5.389148,"is_reserved":false,"is_disabled":false,"rental_uris":{"android":"levelo://app?vid=693fefa1-d8e0-4c6a-857f-b1a71f5c1e34","ios":"levelo://app?vid=693fefa1-d8e0-4c6a-857f-b1a71f5c1e34"},"vehicle_type_id":"4","last_reported":1720368513,"current_range_meters":16400,"station_id":"ce4bhr92rcd13ifvqhrg","pricing_plan_id":"cebpf4jnsgd1na2vs0mg"},{"bike_id":"6ca799b4-5206-401e-b8bd-22e758b7d31b","system_id":"levelo_inurba_marseille","lat":43.330442,"lon":5.389148,"is_reserved":false,"is_disabled":false,"rental_uris":{"android":"levelo://app?vid=6ca799b4-5206-401e-b8bd-22e758b7d31b","ios":"levelo://app?vid=6ca799b4-5206-401e-b8bd-22e758b7d31b"},"vehicle_type_id":"4","last_reported":1720368513,"current_range_meters":12800,"station_id":"ce4bhr92rcd13ifvqhrg","pricing_plan_id":"cebpf4jnsgd1na2vs0mg"},{"bike_id":"21f87a98-dde9-4d1e-a476-3d69426edb11","system_id":"levelo_inurba_marseille","lat":43.2901,"lon":5.381269,"is_reserved":false,"is_disabled":false,"rental_uris":{"android":"levelo://app?vid=21f87a98-dde9-4d1e-a476-3d69426edb11","ios":"levelo://app?vid=21f87a98-dde9-4d1e-a476-3d69426edb11"},"vehicle_type_id":"4","last_reported":1720368513,"current_range_meters":18800,"station_id":"ce4bh4p2rcd13ifvqe1g","pricing_plan_id":"cebpf4jnsgd1na2vs0mg"},{"bike_id":"0605d7c2-1fe3-4178-a5af-1a72291b2120","system_id":"levelo_inurba_marseille","lat":43.294162,"lon":5.386292,"is_reserved":false,"is_disabled":false,"rental_uris":{"android":"levelo://app?vid=0605d7c2-1fe3-4178-a5af-1a72291b2120","ios":"levelo://app?vid=0605d7c2-1fe3-4178-a5af-1a72291b2120"},"vehicle_type_id":"4","last_reported":1720368513,"current_range_meters":13200,"station_id":"ce4bh2h2rcd13ifvqdh0","pricing_plan_id":"cebpf4jnsgd1na2vs0mg"},{"bike_id":"fdbfcc29-04c6-4739-ba7e-441fb2e2593e","system_id":"levelo_inurba_marseille","lat":43.337408,"lon":5.374532,"is_reserved":false,"is_disabled":false,"rental_uris":{"android":"levelo://app?vid=fdbfcc29-04c6-4739-ba7e-441fb2e2593e","ios":"levelo://app?vid=fdbfcc29-04c6-4739-ba7e-441fb2e2593e"},"vehicle_type_id":"4","last_reported":1720368513,"current_range_meters":30800,"station_id":"","pricing_plan_id":"cebpf4jnsgd1na2vs0mg"},{"bike_id":"dabeb2c2-10f4-49ec-84b5-eb4ebc43f17a","system_id":"levelo_inurba_marseille","lat":43.28792,"lon":5.37359,"is_reserved":false,"is_disabled":false,"rental_uris":{"android":"levelo://app?vid=dabeb2c2-10f4-49ec-84b5-eb4ebc43f17a","ios":"levelo://app?vid=dabeb2c2-10f4-49ec-84b5-eb4ebc43f17a"},"vehicle_type_id":"4","last_reported":1720368513,"current_range_meters":8400,"station_id":"","pricing_plan_id":"cebpf4jnsgd1na2vs0mg"},{"bike_id":"e8043679-5e2d-45ca-af32-4c2eeb2d3b4d","system_id":"levelo_inurba_marseille","lat":43.33748,"lon":5.37421,"is_reserved":false,"is_disabled":false,"rental_uris":{"android":"levelo://app?vid=e8043679-5e2d-45ca-af32-4c2eeb2d3b4d","ios":"levelo://app?vid=e8043679-5e2d-45ca-af32-4c2eeb2d3b4d"},"vehicle_type_id":"4","last_reported":1720368513,"current_range_meters":14800,"station_id":"","pricing_plan_id":"cebpf4jnsgd1na2vs0mg"},{"bike_id":"88f27a2f-daa4-4dfc-b23a-0cfd244fc967","system_id":"levelo_inurba_marseille","lat":43.337447,"lon":5.374523,"is_reserved":false,"is_disabled":false,"rental_uris":{"android":"levelo://app?vid=88f27a2f-daa4-4dfc-b23a-0cfd244fc967","ios":"levelo://app?vid=88f27a2f-daa4-4dfc-b23a-0cfd244fc967"},"vehicle_type_id":"4","last_reported":1720368513,"current_range_meters":13200,"station_id":"","pricing_plan_id":"cebpf4jnsgd1na2vs0mg"},{"bike_id":"22664dbb-05c6-44b7-ac76-723d395f476e","system_id":"levelo_inurba_marseille","lat":43.337554,"lon":5.37438,"is_reserved":false,"is_disabled":false,"rental_uris":{"android":"levelo://app?vid=22664dbb-05c6-44b7-ac76-723d395f476e","ios":"levelo://app?vid=22664dbb-05c6-44b7-ac76-723d395f476e"},"vehicle_type_id":"4","last_reported":1720368513,"current_range_meters":24800,"station_id":"","pricing_plan_id":"cebpf4jnsgd1na2vs0mg"},{"bike_id":"d18fc15d-e9a7-4dbb-9aed-fc17bcc86552","system_id":"levelo_inurba_marseille","lat":43.337583,"lon":5.374265,"is_reserved":false,"is_disabled":false,"rental_uris":{"android":"levelo://app?vid=d18fc15d-e9a7-4dbb-9aed-fc17bcc86552","ios":"levelo://app?vid=d18fc15d-e9a7-4dbb-9aed-fc17bcc86552"},"vehicle_type_id":"4","last_reported":1720368513,"current_range_meters":13200,"station_id":"","pricing_plan_id":"cebpf4jnsgd1na2vs0mg"},{"bike_id":"41fcb31e-469f-4a07-8a88-fbe57c2d85f5","system_id":"levelo_inurba_marseille","lat":43.33755,"lon":5.37455,"is_reserved":false,"is_disabled":false,"rental_uris":{"android":"levelo://app?vid=41fcb31e-469f-4a07-8a88-fbe57c2d85f5","ios":"levelo://app?vid=41fcb31e-469f-4a07-8a88-fbe57c2d85f5"},"vehicle_type_id":"4","last_reported":1720368513,"current_range_meters":23200,"station_id":"","pricing_plan_id":"cebpf4jnsgd1na2vs0mg"},{"bike_id":"ba77c056-6fe7-4228-884f-a9f07e3f5ccc","system_id":"levelo_inurba_marseille","lat":43.337582,"lon":5.374388,"is_reserved":false,"is_disabled":false,"rental_uris":{"android":"levelo://app?vid=ba77c056-6fe7-4228-884f-a9f07e3f5ccc","ios":"levelo://app?vid=ba77c056-6fe7-4228-884f-a9f07e3f5ccc"},"vehicle_type_id":"4","last_reported":1720368513,"current_range_meters":30000,"station_id":"ce4rr2p2rcd13i802rgg","pricing_plan_id":"cebpf4jnsgd1na2vs0mg"},{"bike_id":"568e51fe-3317-4e32-82a4-2bd4944c6912","system_id":"levelo_inurba_marseille","lat":43.337623,"lon":5.374292,"is_reserved":false,"is_disabled":false,"rental_uris":{"android":"levelo://app?vid=568e51fe-3317-4e32-82a4-2bd4944c6912","ios":"levelo://app?vid=568e51fe-3317-4e32-82a4-2bd4944c6912"},"vehicle_type_id":"4","last_reported":1720368513,"current_range_meters":2000,"station_id":"","pricing_plan_id":"cebpf4jnsgd1na2vs0mg"},{"bike_id":"ca28a750-034c-4926-945c-7b5f8a0741a9","system_id":"levelo_inurba_marseille","lat":43.337675,"lon":5.374424,"is_reserved":false,"is_disabled":false,"rental_uris":{"android":"levelo://app?vid=ca28a750-034c-4926-945c-7b5f8a0741a9","ios":"levelo://app?vid=ca28a750-034c-4926-945c-7b5f8a0741a9"},"vehicle_type_id":"4","last_reported":1720368513,"current_range_meters":26000,"station_id":"","pricing_plan_id":"cebpf4jnsgd1na2vs0mg"},{"bike_id":"521138e1-cc76-4f6c-a6ca-333c20821687","system_id":"levelo_inurba_marseille","lat":43.33737,"lon":5.35581,"is_reserved":false,"is_disabled":false,"rental_uris":{"android":"levelo://app?vid=521138e1-cc76-4f6c-a6ca-333c20821687","ios":"levelo://app?vid=521138e1-cc76-4f6c-a6ca-333c20821687"},"vehicle_type_id":"4","last_reported":1720368513,"current_range_meters":26000,"station_id":"","pricing_plan_id":"cebpf4jnsgd1na2vs0mg"},{"bike_id":"86508d18-5384-49b0-b955-90d594a7bfad","system_id":"levelo_inurba_marseille","lat":43.286961,"lon":5.373785,"is_reserved":false,"is_disabled":false,"rental_uris":{"android":"levelo://app?vid=86508d18-5384-49b0-b955-90d594a7bfad","ios":"levelo://app?vid=86508d18-5384-49b0-b955-90d594a7bfad"},"vehicle_type_id":"4","last_reported":1720368513,"current_range_meters":9600,"station_id":"ce4bh3p2rcd13ifvqdq0","pricing_plan_id":"cebpf4jnsgd1na2vs0mg"},{"bike_id":"17d72318-a6e0-4426-a61a-7fc84cc3ac27","system_id":"levelo_inurba_marseille","lat":43.295196,"lon":5.39397,"is_reserved":false,"is_disabled":false,"rental_uris":{"android":"levelo://app?vid=17d72318-a6e0-4426-a61a-7fc84cc3ac27","ios":"levelo://app?vid=17d72318-a6e0-4426-a61a-7fc84cc3ac27"},"vehicle_type_id":"4","last_reported":1720368513,"current_range_meters":0,"station_id":"ce4bh292rcd13ifvqdf0","pricing_plan_id":"cebpf4jnsgd1na2vs0mg"},{"bike_id":"5b2be462-7591-411d-9177-f8915cb11790","system_id":"levelo_inurba_marseille","lat":43.29516,"lon":5.394,"is_reserved":false,"is_disabled":false,"rental_uris":{"android":"levelo://app?vid=5b2be462-7591-411d-9177-f8915cb11790","ios":"levelo://app?vid=5b2be462-7591-411d-9177-f8915cb11790"},"vehicle_type_id":"4","last_reported":1720368513,"current_range_meters":0,"station_id":"ce4bh292rcd13ifvqdf0","pricing_plan_id":"cebpf4jnsgd1na2vs0mg"},{"bike_id":"edd03247-35a9-4f85-89c6-97a43bb9d561","system_id":"levelo_inurba_marseille","lat":43.286039,"lon":5.370679,"is_reserved":false,"is_disabled":false,"rental_uris":{"android":"levelo://app?vid=edd03247-35a9-4f85-89c6-97a43bb9d561","ios":"levelo://app?vid=edd03247-35a9-4f85-89c6-97a43bb9d561"},"vehicle_type_id":"4","last_reported":1720368513,"current_range_meters":10000,"station_id":"ce4bht12rcd13ifvqi60","pricing_plan_id":"cebpf4jnsgd1na2vs0mg"},{"bike_id":"2f09e949-4135-4211-a8b7-225afd314046","system_id":"levelo_inurba_marseille","lat":43.291994,"lon":5.392907,"is_reserved":false,"is_disabled":false,"rental_uris":{"android":"levelo://app?vid=2f09e949-4135-4211-a8b7-225afd314046","ios":"levelo://app?vid=2f09e949-4135-4211-a8b7-225afd314046"},"vehicle_type_id":"4","last_reported":1720368513,"current_range_meters":7200,"station_id":"ce4bh192rcd13ifvqdd0","pricing_plan_id":"cebpf4jnsgd1na2vs0mg"},{"bike_id":"0d90b6f9-1f29-47ee-9671-673647bf2ecd","system_id":"levelo_inurba_marseille","lat":43.28466,"lon":5.35886,"is_reserved":false,"is_disabled":false,"rental_uris":{"android":"levelo://app?vid=0d90b6f9-1f29-47ee-9671-673647bf2ecd","ios":"levelo://app?vid=0d90b6f9-1f29-47ee-9671-673647bf2ecd"},"vehicle_type_id":"4","last_reported":1720368513,"current_range_meters":0,"station_id":"ce4bhah2rcd13ifvqei0","pricing_plan_id":"cebpf4jnsgd1na2vs0mg"},{"bike_id":"5d76fe50-25b5-4c90-af6b-f08fce3502ff","system_id":"levelo_inurba_marseille","lat":43.28614,"lon":5.35106,"is_reserved":false,"is_disabled":false,"rental_uris":{"android":"levelo://app?vid=5d76fe50-25b5-4c90-af6b-f08fce3502ff","ios":"levelo://app?vid=5d76fe50-25b5-4c90-af6b-f08fce3502ff"},"vehicle_type_id":"4","last_reported":1720368513,"current_range_meters":0,"station_id":"ce4bhch2rcd13ifvqeug","pricing_plan_id":"cebpf4jnsgd1na2vs0mg"},{"bike_id":"9190887b-e3fc-4f32-bd0c-406c222f944d","system_id":"levelo_inurba_marseille","lat":43.28418,"lon":5.37516,"is_reserved":false,"is_disabled":false,"rental_uris":{"android":"levelo://app?vid=9190887b-e3fc-4f32-bd0c-406c222f944d","ios":"levelo://app?vid=9190887b-e3fc-4f32-bd0c-406c222f944d"},"vehicle_type_id":"4","last_reported":1720368513,"current_range_meters":0,"station_id":"ce4bh412rcd13ifvqds0","pricing_plan_id":"cebpf4jnsgd1na2vs0mg"},{"bike_id":"76c97fce-a912-43f0-8c98-14aad94080a1","system_id":"levelo_inurba_marseille","lat":43.283998,"lon":5.375062,"is_reserved":false,"is_disabled":false,"rental_uris":{"android":"levelo://app?vid=76c97fce-a912-43f0-8c98-14aad94080a1","ios":"levelo://app?vid=76c97fce-a912-43f0-8c98-14aad94080a1"},"vehicle_type_id":"4","last_reported":1720368513,"current_range_meters":6800,"station_id":"ce4bh412rcd13ifvqds0","pricing_plan_id":"cebpf4jnsgd1na2vs0mg"},{"bike_id":"fc4d1c9b-a331-4110-92d1-f9549d9bfb27","system_id":"levelo_inurba_marseille","lat":43.283998,"lon":5.375062,"is_reserved":false,"is_disabled":false,"rental_uris":{"android":"levelo://app?vid=fc4d1c9b-a331-4110-92d1-f9549d9bfb27","ios":"levelo://app?vid=fc4d1c9b-a331-4110-92d1-f9549d9bfb27"},"vehicle_type_id":"4","last_reported":1720368513,"current_range_meters":0,"station_id":"ce4bh412rcd13ifvqds0","pricing_plan_id":"cebpf4jnsgd1na2vs0mg"},{"bike_id":"59f80a9a-c68d-44ab-a968-4f066e690603","system_id":"levelo_inurba_marseille","lat":43.286595,"lon":5.386795,"is_reserved":false,"is_disabled":false,"rental_uris":{"android":"levelo://app?vid=59f80a9a-c68d-44ab-a968-4f066e690603","ios":"levelo://app?vid=59f80a9a-c68d-44ab-a968-4f066e690603"},"vehicle_type_id":"4","last_reported":1720368513,"current_range_meters":0,"station_id":"ce4bh492rcd13ifvqdug","pricing_plan_id":"cebpf4jnsgd1na2vs0mg"},{"bike_id":"e50a0037-b687-432b-86ab-af9712f3d27e","system_id":"levelo_inurba_marseille","lat":43.33717,"lon":5.391857,"is_reserved":false,"is_disabled":false,"rental_uris":{"android":"levelo://app?vid=e50a0037-b687-432b-86ab-af9712f3d27e","ios":"levelo://app?vid=e50a0037-b687-432b-86ab-af9712f3d27e"},"vehicle_type_id":"4","last_reported":1720368513,"current_range_meters":15200,"station_id":"ce4bhr92rcd13ifvqhsg","pricing_plan_id":"cebpf4jnsgd1na2vs0mg"},{"bike_id":"0d189f17-124b-48dd-974e-dad1d9281d02","system_id":"levelo_inurba_marseille","lat":43.284776,"lon":5.385603,"is_reserved":false,"is_disabled":false,"rental_uris":{"android":"levelo://app?vid=0d189f17-124b-48dd-974e-dad1d9281d02","ios":"levelo://app?vid=0d189f17-124b-48dd-974e-dad1d9281d02"},"vehicle_type_id":"4","last_reported":1720368513,"current_range_meters":9600,"station_id":"ce4bh8p2rcd13ifvqeb0","pricing_plan_id":"cebpf4jnsgd1na2vs0mg"},{"bike_id":"d39299b3-89e3-4dd6-8b97-51a65cacd49c","system_id":"levelo_inurba_marseille","lat":43.2834,"lon":5.38101,"is_reserved":false,"is_disabled":false,"rental_uris":{"android":"levelo://app?vid=d39299b3-89e3-4dd6-8b97-51a65cacd49c","ios":"levelo://app?vid=d39299b3-89e3-4dd6-8b97-51a65cacd49c"},"vehicle_type_id":"4","last_reported":1720368513,"current_range_meters":0,"station_id":"ce4bh412rcd13ifvqdr0","pricing_plan_id":"cebpf4jnsgd1na2vs0mg"},{"bike_id":"b3cec3b2-765a-4a54-a853-295d44a61713","system_id":"levelo_inurba_marseille","lat":43.289363,"lon":5.396322,"is_reserved":false,"is_disabled":false,"rental_uris":{"android":"levelo://app?vid=b3cec3b2-765a-4a54-a853-295d44a61713","ios":"levelo://app?vid=b3cec3b2-765a-4a54-a853-295d44a61713"},"vehicle_type_id":"4","last_reported":1720368513,"current_range_meters":25200,"station_id":"ce4bh3h2rcd13ifvqdn0","pricing_plan_id":"cebpf4jnsgd1na2vs0mg"},{"bike_id":"f33d47da-760b-4e44-8225-90790118bab0","system_id":"levelo_inurba_marseille","lat":43.289363,"lon":5.396322,"is_reserved":false,"is_disabled":false,"rental_uris":{"android":"levelo://app?vid=f33d47da-760b-4e44-8225-90790118bab0","ios":"levelo://app?vid=f33d47da-760b-4e44-8225-90790118bab0"},"vehicle_type_id":"4","last_reported":1720368513,"current_range_meters":0,"station_id":"ce4bh3h2rcd13ifvqdn0","pricing_plan_id":"cebpf4jnsgd1na2vs0mg"},{"bike_id":"0a8474d7-30e3-4519-ad97-2cdb2b73345c","system_id":"levelo_inurba_marseille","lat":43.28268,"lon":5.35076,"is_reserved":false,"is_disabled":false,"rental_uris":{"android":"levelo://app?vid=0a8474d7-30e3-4519-ad97-2cdb2b73345c","ios":"levelo://app?vid=0a8474d7-30e3-4519-ad97-2cdb2b73345c"},"vehicle_type_id":"4","last_reported":1720368513,"current_range_meters":0,"station_id":"ce4bhbp2rcd13ifvqerg","pricing_plan_id":"cebpf4jnsgd1na2vs0mg"},{"bike_id":"677d22aa-0bc8-48f1-9acd-1df95e181eac","system_id":"levelo_inurba_marseille","lat":43.282744,"lon":5.350533,"is_reserved":false,"is_disabled":false,"rental_uris":{"android":"levelo://app?vid=677d22aa-0bc8-48f1-9acd-1df95e181eac","ios":"levelo://app?vid=677d22aa-0bc8-48f1-9acd-1df95e181eac"},"vehicle_type_id":"4","last_reported":1720368513,"current_range_meters":0,"station_id":"ce4bhbp2rcd13ifvqerg","pricing_plan_id":"cebpf4jnsgd1na2vs0mg"},{"bike_id":"6220937e-b4f4-4a37-9e1f-d0f8f8ffc206","system_id":"levelo_inurba_marseille","lat":43.28269,"lon":5.35058,"is_reserved":false,"is_disabled":false,"rental_uris":{"android":"levelo://app?vid=6220937e-b4f4-4a37-9e1f-d0f8f8ffc206","ios":"levelo://app?vid=6220937e-b4f4-4a37-9e1f-d0f8f8ffc206"},"vehicle_type_id":"4","last_reported":1720368513,"current_range_meters":0,"station_id":"ce4bhbp2rcd13ifvqerg","pricing_plan_id":"cebpf4jnsgd1na2vs0mg"},{"bike_id":"9132872b-38a8-4436-870c-108a630384bf","system_id":"levelo_inurba_marseille","lat":43.28265,"lon":5.3507,"is_reserved":false,"is_disabled":false,"rental_uris":{"android":"levelo://app?vid=9132872b-38a8-4436-870c-108a630384bf","ios":"levelo://app?vid=9132872b-38a8-4436-870c-108a630384bf"},"vehicle_type_id":"4","last_reported":1720368513,"current_range_meters":0,"station_id":"ce4bhbp2rcd13ifvqerg","pricing_plan_id":"cebpf4jnsgd1na2vs0mg"},{"bike_id":"f133b3d9-9f32-4b00-9bf5-ef2a64d2b562","system_id":"levelo_inurba_marseille","lat":43.28039,"lon":5.369297,"is_reserved":false,"is_disabled":false,"rental_uris":{"android":"levelo://app?vid=f133b3d9-9f32-4b00-9bf5-ef2a64d2b562","ios":"levelo://app?vid=f133b3d9-9f32-4b00-9bf5-ef2a64d2b562"},"vehicle_type_id":"4","last_reported":1720368513,"current_range_meters":0,"station_id":"ce4bha12rcd13ifvqef0","pricing_plan_id":"cebpf4jnsgd1na2vs0mg"},{"bike_id":"7add0b56-8bd3-4714-9875-a9559e07eb03","system_id":"levelo_inurba_marseille","lat":43.280382,"lon":5.369291,"is_reserved":false,"is_disabled":false,"rental_uris":{"android":"levelo://app?vid=7add0b56-8bd3-4714-9875-a9559e07eb03","ios":"levelo://app?vid=7add0b56-8bd3-4714-9875-a9559e07eb03"},"vehicle_type_id":"4","last_reported":1720368513,"current_range_meters":23200,"station_id":"ce4bha12rcd13ifvqef0","pricing_plan_id":"cebpf4jnsgd1na2vs0mg"},{"bike_id":"149ab994-ddb7-4d32-b61d-4913711f0ce0","system_id":"levelo_inurba_marseille","lat":43.280382,"lon":5.369291,"is_reserved":false,"is_disabled":false,"rental_uris":{"android":"levelo://app?vid=149ab994-ddb7-4d32-b61d-4913711f0ce0","ios":"levelo://app?vid=149ab994-ddb7-4d32-b61d-4913711f0ce0"},"vehicle_type_id":"4","last_reported":1720368513,"current_range_meters":30000,"station_id":"ce4bha12rcd13ifvqef0","pricing_plan_id":"cebpf4jnsgd1na2vs0mg"},{"bike_id":"2562b402-e01e-40ce-a305-36c03b85e795","system_id":"levelo_inurba_marseille","lat":43.28034,"lon":5.36941,"is_reserved":false,"is_disabled":false,"rental_uris":{"android":"levelo://app?vid=2562b402-e01e-40ce-a305-36c03b85e795","ios":"levelo://app?vid=2562b402-e01e-40ce-a305-36c03b85e795"},"vehicle_type_id":"4","last_reported":1720368513,"current_range_meters":18800,"station_id":"ce4bha12rcd13ifvqef0","pricing_plan_id":"cebpf4jnsgd1na2vs0mg"},{"bike_id":"95739e8a-7b68-44e8-b575-ee8d9a87b104","system_id":"levelo_inurba_marseille","lat":43.280317,"lon":5.369428,"is_reserved":false,"is_disabled":false,"rental_uris":{"android":"levelo://app?vid=95739e8a-7b68-44e8-b575-ee8d9a87b104","ios":"levelo://app?vid=95739e8a-7b68-44e8-b575-ee8d9a87b104"},"vehicle_type_id":"4","last_reported":1720368513,"current_range_meters":22000,"station_id":"ce4bha12rcd13ifvqef0","pricing_plan_id":"cebpf4jnsgd1na2vs0mg"},{"bike_id":"2397d6c2-3507-4389-bfde-c327e11bf45b","system_id":"levelo_inurba_marseille","lat":43.281044,"lon":5.378308,"is_reserved":false,"is_disabled":false,"rental_uris":{"android":"levelo://app?vid=2397d6c2-3507-4389-bfde-c327e11bf45b","ios":"levelo://app?vid=2397d6c2-3507-4389-bfde-c327e11bf45b"},"vehicle_type_id":"4","last_reported":1720368513,"current_range_meters":400,"station_id":"ce4bha12rcd13ifvqee0","pricing_plan_id":"cebpf4jnsgd1na2vs0mg"},{"bike_id":"6703c49e-7541-46dc-ae0d-81cae47ab36c","system_id":"levelo_inurba_marseille","lat":43.281,"lon":5.37828,"is_reserved":false,"is_disabled":false,"rental_uris":{"android":"levelo://app?vid=6703c49e-7541-46dc-ae0d-81cae47ab36c","ios":"levelo://app?vid=6703c49e-7541-46dc-ae0d-81cae47ab36c"},"vehicle_type_id":"4","last_reported":1720368513,"current_range_meters":0,"station_id":"ce4bha12rcd13ifvqee0","pricing_plan_id":"cebpf4jnsgd1na2vs0mg"},{"bike_id":"01bd32a6-02ba-4d74-945a-6f9a0267c26e","system_id":"levelo_inurba_marseille","lat":43.281044,"lon":5.378308,"is_reserved":false,"is_disabled":false,"rental_uris":{"android":"levelo://app?vid=01bd32a6-02ba-4d74-945a-6f9a0267c26e","ios":"levelo://app?vid=01bd32a6-02ba-4d74-945a-6f9a0267c26e"},"vehicle_type_id":"4","last_reported":1720368513,"current_range_meters":0,"station_id":"ce4bha12rcd13ifvqee0","pricing_plan_id":"cebpf4jnsgd1na2vs0mg"},{"bike_id":"ce4baa94-ab29-4298-b9ee-4c96fc2ce066","system_id":"levelo_inurba_marseille","lat":43.284462,"lon":5.392121,"is_reserved":false,"is_disabled":false,"rental_uris":{"android":"levelo://app?vid=ce4baa94-ab29-4298-b9ee-4c96fc2ce066","ios":"levelo://app?vid=ce4baa94-ab29-4298-b9ee-4c96fc2ce066"},"vehicle_type_id":"4","last_reported":1720368513,"current_range_meters":17600,"station_id":"ce4bhoh2rcd13ifvqh5g","pricing_plan_id":"cebpf4jnsgd1na2vs0mg"},{"bike_id":"da4639c4-49df-481b-bc2f-efe5676571ff","system_id":"levelo_inurba_marseille","lat":43.3266,"lon":5.40994,"is_reserved":false,"is_disabled":false,"rental_uris":{"android":"levelo://app?vid=da4639c4-49df-481b-bc2f-efe5676571ff","ios":"levelo://app?vid=da4639c4-49df-481b-bc2f-efe5676571ff"},"vehicle_type_id":"4","last_reported":1720368513,"current_range_meters":31200,"station_id":"ce4bhpp2rcd13ifvqhgg","pricing_plan_id":"cebpf4jnsgd1na2vs0mg"},{"bike_id":"0e491b02-da21-4fcf-b6fc-94ad34ddf2c0","system_id":"levelo_inurba_marseille","lat":43.287154,"lon":5.399979,"is_reserved":false,"is_disabled":false,"rental_uris":{"android":"levelo://app?vid=0e491b02-da21-4fcf-b6fc-94ad34ddf2c0","ios":"levelo://app?vid=0e491b02-da21-4fcf-b6fc-94ad34ddf2c0"},"vehicle_type_id":"4","last_reported":1720368513,"current_range_meters":27600,"station_id":"ce4bho92rcd13ifvqh3g","pricing_plan_id":"cebpf4jnsgd1na2vs0mg"},{"bike_id":"ca138b8d-0dba-457a-9feb-a4e64dbb6df8","system_id":"levelo_inurba_marseille","lat":43.287154,"lon":5.399979,"is_reserved":false,"is_disabled":false,"rental_uris":{"android":"levelo://app?vid=ca138b8d-0dba-457a-9feb-a4e64dbb6df8","ios":"levelo://app?vid=ca138b8d-0dba-457a-9feb-a4e64dbb6df8"},"vehicle_type_id":"4","last_reported":1720368513,"current_range_meters":0,"station_id":"ce4bho92rcd13ifvqh3g","pricing_plan_id":"cebpf4jnsgd1na2vs0mg"},{"bike_id":"d5373be0-1b48-4cc9-a05d-f36db62cac59","system_id":"levelo_inurba_marseille","lat":43.287154,"lon":5.399979,"is_reserved":false,"is_disabled":false,"rental_uris":{"android":"levelo://app?vid=d5373be0-1b48-4cc9-a05d-f36db62cac59","ios":"levelo://app?vid=d5373be0-1b48-4cc9-a05d-f36db62cac59"},"vehicle_type_id":"4","last_reported":1720368513,"current_range_meters":0,"station_id":"ce4bho92rcd13ifvqh3g","pricing_plan_id":"cebpf4jnsgd1na2vs0mg"},{"bike_id":"db3cdb44-0dba-40bb-addd-842108400114","system_id":"levelo_inurba_marseille","lat":43.279742,"lon":5.38744,"is_reserved":false,"is_disabled":false,"rental_uris":{"android":"levelo://app?vid=db3cdb44-0dba-40bb-addd-842108400114","ios":"levelo://app?vid=db3cdb44-0dba-40bb-addd-842108400114"},"vehicle_type_id":"4","last_reported":1720368513,"current_range_meters":0,"station_id":"ce4bhg12rcd13ifvqf80","pricing_plan_id":"cebpf4jnsgd1na2vs0mg"},{"bike_id":"0fc6ea7e-8c56-4802-9686-592f49664a79","system_id":"levelo_inurba_marseille","lat":43.299579,"lon":5.413255,"is_reserved":false,"is_disabled":false,"rental_uris":{"android":"levelo://app?vid=0fc6ea7e-8c56-4802-9686-592f49664a79","ios":"levelo://app?vid=0fc6ea7e-8c56-4802-9686-592f49664a79"},"vehicle_type_id":"4","last_reported":1720368513,"current_range_meters":25200,"station_id":"ce4bhp12rcd13ifvqh9g","pricing_plan_id":"cebpf4jnsgd1na2vs0mg"},{"bike_id":"e4593f0b-ebe2-4e96-b47d-805c30b73462","system_id":"levelo_inurba_marseille","lat":43.27958,"lon":5.38712,"is_reserved":false,"is_disabled":false,"rental_uris":{"android":"levelo://app?vid=e4593f0b-ebe2-4e96-b47d-805c30b73462","ios":"levelo://app?vid=e4593f0b-ebe2-4e96-b47d-805c30b73462"},"vehicle_type_id":"4","last_reported":1720368513,"current_range_meters":0,"station_id":"ce4bhg12rcd13ifvqf80","pricing_plan_id":"cebpf4jnsgd1na2vs0mg"},{"bike_id":"961e75ac-98db-45fe-9470-f461cc6430a3","system_id":"levelo_inurba_marseille","lat":43.292569,"lon":5.409107,"is_reserved":false,"is_disabled":false,"rental_uris":{"android":"levelo://app?vid=961e75ac-98db-45fe-9470-f461cc6430a3","ios":"levelo://app?vid=961e75ac-98db-45fe-9470-f461cc6430a3"},"vehicle_type_id":"4","last_reported":1720368513,"current_range_meters":1600,"station_id":"ce4bh192rcd13ifvqdc0","pricing_plan_id":"cebpf4jnsgd1na2vs0mg"},{"bike_id":"382a8291-49e8-486c-9c7d-ce244b6a3ff4","system_id":"levelo_inurba_marseille","lat":43.276179,"lon":5.361009,"is_reserved":false,"is_disabled":false,"rental_uris":{"android":"levelo://app?vid=382a8291-49e8-486c-9c7d-ce244b6a3ff4","ios":"levelo://app?vid=382a8291-49e8-486c-9c7d-ce244b6a3ff4"},"vehicle_type_id":"4","last_reported":1720368513,"current_range_meters":0,"station_id":"ce4bgj92rcd13ifvqbe0","pricing_plan_id":"cebpf4jnsgd1na2vs0mg"},{"bike_id":"d83dc5a5-2713-4540-9a8f-1c004bf70c58","system_id":"levelo_inurba_marseille","lat":43.325243,"lon":5.414326,"is_reserved":false,"is_disabled":false,"rental_uris":{"android":"levelo://app?vid=d83dc5a5-2713-4540-9a8f-1c004bf70c58","ios":"levelo://app?vid=d83dc5a5-2713-4540-9a8f-1c004bf70c58"},"vehicle_type_id":"4","last_reported":1720368513,"current_range_meters":28000,"station_id":"ce4bhq12rcd13ifvqhhg","pricing_plan_id":"cebpf4jnsgd1na2vs0mg"},{"bike_id":"6ec7c47f-63bd-48c1-b62f-d4403b9857cf","system_id":"levelo_inurba_marseille","lat":43.273609,"lon":5.362708,"is_reserved":false,"is_disabled":false,"rental_uris":{"android":"levelo://app?vid=6ec7c47f-63bd-48c1-b62f-d4403b9857cf","ios":"levelo://app?vid=6ec7c47f-63bd-48c1-b62f-d4403b9857cf"},"vehicle_type_id":"4","last_reported":1720368513,"current_range_meters":0,"station_id":"ce4bhbh2rcd13ifvqeo0","pricing_plan_id":"cebpf4jnsgd1na2vs0mg"},{"bike_id":"6c95d6c3-3589-45a5-bab1-285761c1f60e","system_id":"levelo_inurba_marseille","lat":43.275625,"lon":5.384392,"is_reserved":false,"is_disabled":false,"rental_uris":{"android":"levelo://app?vid=6c95d6c3-3589-45a5-bab1-285761c1f60e","ios":"levelo://app?vid=6c95d6c3-3589-45a5-bab1-285761c1f60e"},"vehicle_type_id":"4","last_reported":1720368513,"current_range_meters":800,"station_id":"ce4bhh92rcd13ifvqfi0","pricing_plan_id":"cebpf4jnsgd1na2vs0mg"},{"bike_id":"4c6c71fe-2f86-452b-9efe-6eed09ae3e9f","system_id":"levelo_inurba_marseille","lat":43.33612,"lon":5.410321,"is_reserved":false,"is_disabled":false,"rental_uris":{"android":"levelo://app?vid=4c6c71fe-2f86-452b-9efe-6eed09ae3e9f","ios":"levelo://app?vid=4c6c71fe-2f86-452b-9efe-6eed09ae3e9f"},"vehicle_type_id":"4","last_reported":1720368513,"current_range_meters":28400,"station_id":"ce4bhqh2rcd13ifvqhmg","pricing_plan_id":"cebpf4jnsgd1na2vs0mg"},{"bike_id":"a8175714-d88e-4086-bf77-db9e8094f304","system_id":"levelo_inurba_marseille","lat":43.275625,"lon":5.384392,"is_reserved":false,"is_disabled":false,"rental_uris":{"android":"levelo://app?vid=a8175714-d88e-4086-bf77-db9e8094f304","ios":"levelo://app?vid=a8175714-d88e-4086-bf77-db9e8094f304"},"vehicle_type_id":"4","last_reported":1720368513,"current_range_meters":0,"station_id":"ce4bhh92rcd13ifvqfi0","pricing_plan_id":"cebpf4jnsgd1na2vs0mg"},{"bike_id":"94ea73dc-8cbb-40a6-acb7-f5ef3a991411","system_id":"levelo_inurba_marseille","lat":43.275625,"lon":5.384392,"is_reserved":false,"is_disabled":false,"rental_uris":{"android":"levelo://app?vid=94ea73dc-8cbb-40a6-acb7-f5ef3a991411","ios":"levelo://app?vid=94ea73dc-8cbb-40a6-acb7-f5ef3a991411"},"vehicle_type_id":"4","last_reported":1720368513,"current_range_meters":0,"station_id":"ce4bhh92rcd13ifvqfi0","pricing_plan_id":"cebpf4jnsgd1na2vs0mg"},{"bike_id":"52f92f39-dba2-4e71-9b91-0e302f0e3998","system_id":"levelo_inurba_marseille","lat":43.336148,"lon":5.410349,"is_reserved":false,"is_disabled":false,"rental_uris":{"android":"levelo://app?vid=52f92f39-dba2-4e71-9b91-0e302f0e3998","ios":"levelo://app?vid=52f92f39-dba2-4e71-9b91-0e302f0e3998"},"vehicle_type_id":"4","last_reported":1720368513,"current_range_meters":27600,"station_id":"ce4bhqh2rcd13ifvqhmg","pricing_plan_id":"cebpf4jnsgd1na2vs0mg"},{"bike_id":"3d625c27-bdae-4f3c-ba4d-7616f7d980a0","system_id":"levelo_inurba_marseille","lat":43.27677,"lon":5.38875,"is_reserved":false,"is_disabled":false,"rental_uris":{"android":"levelo://app?vid=3d625c27-bdae-4f3c-ba4d-7616f7d980a0","ios":"levelo://app?vid=3d625c27-bdae-4f3c-ba4d-7616f7d980a0"},"vehicle_type_id":"4","last_reported":1720368513,"current_range_meters":0,"station_id":"ce4bhi12rcd13ifvqfo0","pricing_plan_id":"cebpf4jnsgd1na2vs0mg"},{"bike_id":"2423e19f-dfaf-42d6-98aa-3a3e739cfcb7","system_id":"levelo_inurba_marseille","lat":43.276771,"lon":5.388799,"is_reserved":false,"is_disabled":false,"rental_uris":{"android":"levelo://app?vid=2423e19f-dfaf-42d6-98aa-3a3e739cfcb7","ios":"levelo://app?vid=2423e19f-dfaf-42d6-98aa-3a3e739cfcb7"},"vehicle_type_id":"4","last_reported":1720368513,"current_range_meters":0,"station_id":"ce4bhi12rcd13ifvqfo0","pricing_plan_id":"cebpf4jnsgd1na2vs0mg"},{"bike_id":"6794011d-688c-4c1c-a763-585ac4552f19","system_id":"levelo_inurba_marseille","lat":43.35235,"lon":5.366965,"is_reserved":false,"is_disabled":false,"rental_uris":{"android":"levelo://app?vid=6794011d-688c-4c1c-a763-585ac4552f19","ios":"levelo://app?vid=6794011d-688c-4c1c-a763-585ac4552f19"},"vehicle_type_id":"4","last_reported":1720368513,"current_range_meters":17600,"station_id":"","pricing_plan_id":"cebpf4jnsgd1na2vs0mg"},{"bike_id":"af1b1893-7007-420b-af0c-6ff2b8883330","system_id":"levelo_inurba_marseille","lat":43.317121,"lon":5.423936,"is_reserved":false,"is_disabled":false,"rental_uris":{"android":"levelo://app?vid=af1b1893-7007-420b-af0c-6ff2b8883330","ios":"levelo://app?vid=af1b1893-7007-420b-af0c-6ff2b8883330"},"vehicle_type_id":"4","last_reported":1720368513,"current_range_meters":2400,"station_id":"ce4bhp92rcd13ifvqhbg","pricing_plan_id":"cebpf4jnsgd1na2vs0mg"},{"bike_id":"1bf2a201-3627-4833-9c7a-df2e88778770","system_id":"levelo_inurba_marseille","lat":43.310785,"lon":5.424305,"is_reserved":false,"is_disabled":false,"rental_uris":{"android":"levelo://app?vid=1bf2a201-3627-4833-9c7a-df2e88778770","ios":"levelo://app?vid=1bf2a201-3627-4833-9c7a-df2e88778770"},"vehicle_type_id":"4","last_reported":1720368513,"current_range_meters":16800,"station_id":"ce4bhp92rcd13ifvqhag","pricing_plan_id":"cebpf4jnsgd1na2vs0mg"},{"bike_id":"81ca0357-03f0-497a-b28e-73cccff22d7b","system_id":"levelo_inurba_marseille","lat":43.310785,"lon":5.424305,"is_reserved":false,"is_disabled":false,"rental_uris":{"android":"levelo://app?vid=81ca0357-03f0-497a-b28e-73cccff22d7b","ios":"levelo://app?vid=81ca0357-03f0-497a-b28e-73cccff22d7b"},"vehicle_type_id":"4","last_reported":1720368513,"current_range_meters":4000,"station_id":"ce4bhp92rcd13ifvqhag","pricing_plan_id":"cebpf4jnsgd1na2vs0mg"},{"bike_id":"553d57b7-7f32-47af-9959-65cf7ebd87e7","system_id":"levelo_inurba_marseille","lat":43.310785,"lon":5.424305,"is_reserved":false,"is_disabled":false,"rental_uris":{"android":"levelo://app?vid=553d57b7-7f32-47af-9959-65cf7ebd87e7","ios":"levelo://app?vid=553d57b7-7f32-47af-9959-65cf7ebd87e7"},"vehicle_type_id":"4","last_reported":1720368513,"current_range_meters":29200,"station_id":"ce4bhp92rcd13ifvqhag","pricing_plan_id":"cebpf4jnsgd1na2vs0mg"},{"bike_id":"d320ea65-1235-43c5-971c-975301da97a5","system_id":"levelo_inurba_marseille","lat":43.27032,"lon":5.365081,"is_reserved":false,"is_disabled":false,"rental_uris":{"android":"levelo://app?vid=d320ea65-1235-43c5-971c-975301da97a5","ios":"levelo://app?vid=d320ea65-1235-43c5-971c-975301da97a5"},"vehicle_type_id":"4","last_reported":1720368513,"current_range_meters":25600,"station_id":"","pricing_plan_id":"cebpf4jnsgd1na2vs0mg"},{"bike_id":"d383edda-7723-4196-8edb-8a9fb359b4c9","system_id":"levelo_inurba_marseille","lat":43.274099,"lon":5.394019,"is_reserved":false,"is_disabled":false,"rental_uris":{"android":"levelo://app?vid=d383edda-7723-4196-8edb-8a9fb359b4c9","ios":"levelo://app?vid=d383edda-7723-4196-8edb-8a9fb359b4c9"},"vehicle_type_id":"4","last_reported":1720368513,"current_range_meters":1600,"station_id":"ce4bhdp2rcd13ifvqf20","pricing_plan_id":"cebpf4jnsgd1na2vs0mg"},{"bike_id":"2b2cc602-4831-425c-87a1-14a7a58ab79d","system_id":"levelo_inurba_marseille","lat":43.29555,"lon":5.42279,"is_reserved":false,"is_disabled":false,"rental_uris":{"android":"levelo://app?vid=2b2cc602-4831-425c-87a1-14a7a58ab79d","ios":"levelo://app?vid=2b2cc602-4831-425c-87a1-14a7a58ab79d"},"vehicle_type_id":"4","last_reported":1720368513,"current_range_meters":9200,"station_id":"ce4bhph2rcd13ifvqhdg","pricing_plan_id":"cebpf4jnsgd1na2vs0mg"},{"bike_id":"5880292b-72b6-4b61-9e97-d44ee97dc8f3","system_id":"levelo_inurba_marseille","lat":43.295511,"lon":5.422926,"is_reserved":false,"is_disabled":false,"rental_uris":{"android":"levelo://app?vid=5880292b-72b6-4b61-9e97-d44ee97dc8f3","ios":"levelo://app?vid=5880292b-72b6-4b61-9e97-d44ee97dc8f3"},"vehicle_type_id":"4","last_reported":1720368513,"current_range_meters":4000,"station_id":"ce4bhph2rcd13ifvqhdg","pricing_plan_id":"cebpf4jnsgd1na2vs0mg"},{"bike_id":"f3926b07-b99c-47bd-95e4-e42b80c6b2db","system_id":"levelo_inurba_marseille","lat":43.295511,"lon":5.422926,"is_reserved":false,"is_disabled":false,"rental_uris":{"android":"levelo://app?vid=f3926b07-b99c-47bd-95e4-e42b80c6b2db","ios":"levelo://app?vid=f3926b07-b99c-47bd-95e4-e42b80c6b2db"},"vehicle_type_id":"4","last_reported":1720368513,"current_range_meters":0,"station_id":"ce4bhph2rcd13ifvqhdg","pricing_plan_id":"cebpf4jnsgd1na2vs0mg"},{"bike_id":"223f9123-af3e-42de-8d47-5cad00dadde9","system_id":"levelo_inurba_marseille","lat":43.278128,"lon":5.407195,"is_reserved":false,"is_disabled":false,"rental_uris":{"android":"levelo://app?vid=223f9123-af3e-42de-8d47-5cad00dadde9","ios":"levelo://app?vid=223f9123-af3e-42de-8d47-5cad00dadde9"},"vehicle_type_id":"4","last_reported":1720368513,"current_range_meters":0,"station_id":"ce4bhnh2rcd13ifvqgtg","pricing_plan_id":"cebpf4jnsgd1na2vs0mg"},{"bike_id":"7b4b9e75-167f-4100-8844-05d61dc6dfba","system_id":"levelo_inurba_marseille","lat":43.278128,"lon":5.407195,"is_reserved":false,"is_disabled":false,"rental_uris":{"android":"levelo://app?vid=7b4b9e75-167f-4100-8844-05d61dc6dfba","ios":"levelo://app?vid=7b4b9e75-167f-4100-8844-05d61dc6dfba"},"vehicle_type_id":"4","last_reported":1720368513,"current_range_meters":7200,"station_id":"ce4bhnh2rcd13ifvqgtg","pricing_plan_id":"cebpf4jnsgd1na2vs0mg"},{"bike_id":"35bab625-52b0-42ee-a597-e9eca46091a4","system_id":"levelo_inurba_marseille","lat":43.27814,"lon":5.40711,"is_reserved":false,"is_disabled":false,"rental_uris":{"android":"levelo://app?vid=35bab625-52b0-42ee-a597-e9eca46091a4","ios":"levelo://app?vid=35bab625-52b0-42ee-a597-e9eca46091a4"},"vehicle_type_id":"4","last_reported":1720368513,"current_range_meters":0,"station_id":"ce4bhnh2rcd13ifvqgtg","pricing_plan_id":"cebpf4jnsgd1na2vs0mg"},{"bike_id":"2b01f441-9161-4662-ac67-f1cd917eaf85","system_id":"levelo_inurba_marseille","lat":43.27816,"lon":5.40717,"is_reserved":false,"is_disabled":false,"rental_uris":{"android":"levelo://app?vid=2b01f441-9161-4662-ac67-f1cd917eaf85","ios":"levelo://app?vid=2b01f441-9161-4662-ac67-f1cd917eaf85"},"vehicle_type_id":"4","last_reported":1720368513,"current_range_meters":0,"station_id":"ce4bhnh2rcd13ifvqgtg","pricing_plan_id":"cebpf4jnsgd1na2vs0mg"},{"bike_id":"3cdba4c4-310a-4518-a6dd-279f83743cc9","system_id":"levelo_inurba_marseille","lat":43.278137,"lon":5.407173,"is_reserved":false,"is_disabled":false,"rental_uris":{"android":"levelo://app?vid=3cdba4c4-310a-4518-a6dd-279f83743cc9","ios":"levelo://app?vid=3cdba4c4-310a-4518-a6dd-279f83743cc9"},"vehicle_type_id":"4","last_reported":1720368513,"current_range_meters":0,"station_id":"ce4bhnh2rcd13ifvqgtg","pricing_plan_id":"cebpf4jnsgd1na2vs0mg"},{"bike_id":"2371a6ce-e92a-4955-b214-f17803b42868","system_id":"levelo_inurba_marseille","lat":43.27811,"lon":5.40714,"is_reserved":false,"is_disabled":false,"rental_uris":{"android":"levelo://app?vid=2371a6ce-e92a-4955-b214-f17803b42868","ios":"levelo://app?vid=2371a6ce-e92a-4955-b214-f17803b42868"},"vehicle_type_id":"4","last_reported":1720368513,"current_range_meters":1600,"station_id":"ce4bhnh2rcd13ifvqgtg","pricing_plan_id":"cebpf4jnsgd1na2vs0mg"},{"bike_id":"dec4b63d-5543-4461-b533-496d1f90d22b","system_id":"levelo_inurba_marseille","lat":43.269467,"lon":5.386439,"is_reserved":false,"is_disabled":false,"rental_uris":{"android":"levelo://app?vid=dec4b63d-5543-4461-b533-496d1f90d22b","ios":"levelo://app?vid=dec4b63d-5543-4461-b533-496d1f90d22b"},"vehicle_type_id":"4","last_reported":1720368513,"current_range_meters":2400,"station_id":"ce4bhh92rcd13ifvqfh0","pricing_plan_id":"cebpf4jnsgd1na2vs0mg"},{"bike_id":"96b8463a-9200-4660-9ecd-4dbe38397b11","system_id":"levelo_inurba_marseille","lat":43.279465,"lon":5.410561,"is_reserved":false,"is_disabled":false,"rental_uris":{"android":"levelo://app?vid=96b8463a-9200-4660-9ecd-4dbe38397b11","ios":"levelo://app?vid=96b8463a-9200-4660-9ecd-4dbe38397b11"},"vehicle_type_id":"4","last_reported":1720368513,"current_range_meters":0,"station_id":"ce4bhnp2rcd13ifvqh0g","pricing_plan_id":"cebpf4jnsgd1na2vs0mg"},{"bike_id":"542d6fc2-9298-4c57-8c0c-296d3e8fb25c","system_id":"levelo_inurba_marseille","lat":43.279465,"lon":5.410561,"is_reserved":false,"is_disabled":false,"rental_uris":{"android":"levelo://app?vid=542d6fc2-9298-4c57-8c0c-296d3e8fb25c","ios":"levelo://app?vid=542d6fc2-9298-4c57-8c0c-296d3e8fb25c"},"vehicle_type_id":"4","last_reported":1720368513,"current_range_meters":0,"station_id":"ce4bhnp2rcd13ifvqh0g","pricing_plan_id":"cebpf4jnsgd1na2vs0mg"},{"bike_id":"cb519633-6b9b-4a7e-a2ba-fed1b3f94624","system_id":"levelo_inurba_marseille","lat":43.26681,"lon":5.38264,"is_reserved":false,"is_disabled":false,"rental_uris":{"android":"levelo://app?vid=cb519633-6b9b-4a7e-a2ba-fed1b3f94624","ios":"levelo://app?vid=cb519633-6b9b-4a7e-a2ba-fed1b3f94624"},"vehicle_type_id":"4","last_reported":1720368513,"current_range_meters":12800,"station_id":"ce4bhg92rcd13ifvqf90","pricing_plan_id":"cebpf4jnsgd1na2vs0mg"},{"bike_id":"7c9536e6-3462-408c-9db2-b90a495c6a0d","system_id":"levelo_inurba_marseille","lat":43.26681,"lon":5.38266,"is_reserved":false,"is_disabled":false,"rental_uris":{"android":"levelo://app?vid=7c9536e6-3462-408c-9db2-b90a495c6a0d","ios":"levelo://app?vid=7c9536e6-3462-408c-9db2-b90a495c6a0d"},"vehicle_type_id":"4","last_reported":1720368513,"current_range_meters":26800,"station_id":"ce4bhg92rcd13ifvqf90","pricing_plan_id":"cebpf4jnsgd1na2vs0mg"},{"bike_id":"456f46dd-c95a-4c37-ad25-d81c10b0c3df","system_id":"levelo_inurba_marseille","lat":43.289723,"lon":5.425452,"is_reserved":false,"is_disabled":false,"rental_uris":{"android":"levelo://app?vid=456f46dd-c95a-4c37-ad25-d81c10b0c3df","ios":"levelo://app?vid=456f46dd-c95a-4c37-ad25-d81c10b0c3df"},"vehicle_type_id":"4","last_reported":1720368513,"current_range_meters":7200,"station_id":"","pricing_plan_id":"cebpf4jnsgd1na2vs0mg"},{"bike_id":"8444270b-0d6c-4388-9d90-c481ce6b5321","system_id":"levelo_inurba_marseille","lat":43.28848,"lon":5.42492,"is_reserved":false,"is_disabled":false,"rental_uris":{"android":"levelo://app?vid=8444270b-0d6c-4388-9d90-c481ce6b5321","ios":"levelo://app?vid=8444270b-0d6c-4388-9d90-c481ce6b5321"},"vehicle_type_id":"4","last_reported":1720368513,"current_range_meters":6400,"station_id":"","pricing_plan_id":"cebpf4jnsgd1na2vs0mg"},{"bike_id":"89c47a80-af86-49b4-86cf-9af254098882","system_id":"levelo_inurba_marseille","lat":43.27996,"lon":5.416624,"is_reserved":false,"is_disabled":false,"rental_uris":{"android":"levelo://app?vid=89c47a80-af86-49b4-86cf-9af254098882","ios":"levelo://app?vid=89c47a80-af86-49b4-86cf-9af254098882"},"vehicle_type_id":"4","last_reported":1720368513,"current_range_meters":0,"station_id":"ce4bho12rcd13ifvqh1g","pricing_plan_id":"cebpf4jnsgd1na2vs0mg"},{"bike_id":"014747a9-6651-4f69-aa12-d40ca5af42a2","system_id":"levelo_inurba_marseille","lat":43.33429,"lon":5.42876,"is_reserved":false,"is_disabled":false,"rental_uris":{"android":"levelo://app?vid=014747a9-6651-4f69-aa12-d40ca5af42a2","ios":"levelo://app?vid=014747a9-6651-4f69-aa12-d40ca5af42a2"},"vehicle_type_id":"4","last_reported":1720368513,"current_range_meters":2800,"station_id":"","pricing_plan_id":"cebpf4jnsgd1na2vs0mg"},{"bike_id":"df8ccc7d-7e35-40b2-abc3-53e7dad3c2f2","system_id":"levelo_inurba_marseille","lat":43.308051,"lon":5.43527,"is_reserved":false,"is_disabled":false,"rental_uris":{"android":"levelo://app?vid=df8ccc7d-7e35-40b2-abc3-53e7dad3c2f2","ios":"levelo://app?vid=df8ccc7d-7e35-40b2-abc3-53e7dad3c2f2"},"vehicle_type_id":"4","last_reported":1720368513,"current_range_meters":1200,"station_id":"ce4bhph2rcd13ifvqheg","pricing_plan_id":"cebpf4jnsgd1na2vs0mg"},{"bike_id":"e116ab0a-8313-424b-9230-535a03ea814f","system_id":"levelo_inurba_marseille","lat":43.265571,"lon":5.390032,"is_reserved":false,"is_disabled":false,"rental_uris":{"android":"levelo://app?vid=e116ab0a-8313-424b-9230-535a03ea814f","ios":"levelo://app?vid=e116ab0a-8313-424b-9230-535a03ea814f"},"vehicle_type_id":"4","last_reported":1720368513,"current_range_meters":8400,"station_id":"ce4bhe12rcd13ifvqf30","pricing_plan_id":"cebpf4jnsgd1na2vs0mg"},{"bike_id":"fa651663-a69c-4226-bdaa-f02eb7b8b5b2","system_id":"levelo_inurba_marseille","lat":43.26565,"lon":5.39005,"is_reserved":false,"is_disabled":false,"rental_uris":{"android":"levelo://app?vid=fa651663-a69c-4226-bdaa-f02eb7b8b5b2","ios":"levelo://app?vid=fa651663-a69c-4226-bdaa-f02eb7b8b5b2"},"vehicle_type_id":"4","last_reported":1720368513,"current_range_meters":21200,"station_id":"ce4bhe12rcd13ifvqf30","pricing_plan_id":"cebpf4jnsgd1na2vs0mg"},{"bike_id":"6fbedef5-2191-4c56-affa-d9d6a88f5e92","system_id":"levelo_inurba_marseille","lat":43.2694,"lon":5.40241,"is_reserved":false,"is_disabled":false,"rental_uris":{"android":"levelo://app?vid=6fbedef5-2191-4c56-affa-d9d6a88f5e92","ios":"levelo://app?vid=6fbedef5-2191-4c56-affa-d9d6a88f5e92"},"vehicle_type_id":"4","last_reported":1720368513,"current_range_meters":0,"station_id":"cjm6bp8fraef2m0cb0m0","pricing_plan_id":"cebpf4jnsgd1na2vs0mg"},{"bike_id":"1836839e-9b73-4c6f-ae12-1ed99b16d5fb","system_id":"levelo_inurba_marseille","lat":43.26949,"lon":5.40262,"is_reserved":false,"is_disabled":false,"rental_uris":{"android":"levelo://app?vid=1836839e-9b73-4c6f-ae12-1ed99b16d5fb","ios":"levelo://app?vid=1836839e-9b73-4c6f-ae12-1ed99b16d5fb"},"vehicle_type_id":"4","last_reported":1720368513,"current_range_meters":800,"station_id":"cjm6bp8fraef2m0cb0m0","pricing_plan_id":"cebpf4jnsgd1na2vs0mg"},{"bike_id":"a2de4e4b-d56b-47d5-b401-2c85e3678035","system_id":"levelo_inurba_marseille","lat":43.26941,"lon":5.40247,"is_reserved":false,"is_disabled":false,"rental_uris":{"android":"levelo://app?vid=a2de4e4b-d56b-47d5-b401-2c85e3678035","ios":"levelo://app?vid=a2de4e4b-d56b-47d5-b401-2c85e3678035"},"vehicle_type_id":"4","last_reported":1720368513,"current_range_meters":0,"station_id":"cjm6bp8fraef2m0cb0m0","pricing_plan_id":"cebpf4jnsgd1na2vs0mg"},{"bike_id":"66fe7e33-1f53-4072-94f2-50e98135c18d","system_id":"levelo_inurba_marseille","lat":43.26949,"lon":5.40262,"is_reserved":false,"is_disabled":false,"rental_uris":{"android":"levelo://app?vid=66fe7e33-1f53-4072-94f2-50e98135c18d","ios":"levelo://app?vid=66fe7e33-1f53-4072-94f2-50e98135c18d"},"vehicle_type_id":"4","last_reported":1720368513,"current_range_meters":16400,"station_id":"cjm6bp8fraef2m0cb0m0","pricing_plan_id":"cebpf4jnsgd1na2vs0mg"},{"bike_id":"d0468274-f823-409d-b811-64c9cf0ebe52","system_id":"levelo_inurba_marseille","lat":43.26203,"lon":5.370517,"is_reserved":false,"is_disabled":false,"rental_uris":{"android":"levelo://app?vid=d0468274-f823-409d-b811-64c9cf0ebe52","ios":"levelo://app?vid=d0468274-f823-409d-b811-64c9cf0ebe52"},"vehicle_type_id":"4","last_reported":1720368513,"current_range_meters":5600,"station_id":"","pricing_plan_id":"cebpf4jnsgd1na2vs0mg"},{"bike_id":"a01a3565-a763-4d38-af52-047ad439a3f6","system_id":"levelo_inurba_marseille","lat":43.26215,"lon":5.37442,"is_reserved":false,"is_disabled":false,"rental_uris":{"android":"levelo://app?vid=a01a3565-a763-4d38-af52-047ad439a3f6","ios":"levelo://app?vid=a01a3565-a763-4d38-af52-047ad439a3f6"},"vehicle_type_id":"4","last_reported":1720368513,"current_range_meters":0,"station_id":"ce4bhgp2rcd13ifvqfc0","pricing_plan_id":"cebpf4jnsgd1na2vs0mg"},{"bike_id":"4f0b5d80-990e-4a85-be39-69d9d91521be","system_id":"levelo_inurba_marseille","lat":43.239588,"lon":5.366238,"is_reserved":false,"is_disabled":false,"rental_uris":{"android":"levelo://app?vid=4f0b5d80-990e-4a85-be39-69d9d91521be","ios":"levelo://app?vid=4f0b5d80-990e-4a85-be39-69d9d91521be"},"vehicle_type_id":"4","last_reported":1720368513,"current_range_meters":800,"station_id":"ce4bhi12rcd13ifvqfp0","pricing_plan_id":"cebpf4jnsgd1na2vs0mg"},{"bike_id":"2a370199-dcfb-4f43-8842-dad47ab78534","system_id":"levelo_inurba_marseille","lat":43.26213,"lon":5.37442,"is_reserved":false,"is_disabled":false,"rental_uris":{"android":"levelo://app?vid=2a370199-dcfb-4f43-8842-dad47ab78534","ios":"levelo://app?vid=2a370199-dcfb-4f43-8842-dad47ab78534"},"vehicle_type_id":"4","last_reported":1720368513,"current_range_meters":0,"station_id":"ce4bhgp2rcd13ifvqfc0","pricing_plan_id":"cebpf4jnsgd1na2vs0mg"},{"bike_id":"5061f4a4-73a8-4a3b-8318-d593ccc85b43","system_id":"levelo_inurba_marseille","lat":43.2621,"lon":5.37442,"is_reserved":false,"is_disabled":false,"rental_uris":{"android":"levelo://app?vid=5061f4a4-73a8-4a3b-8318-d593ccc85b43","ios":"levelo://app?vid=5061f4a4-73a8-4a3b-8318-d593ccc85b43"},"vehicle_type_id":"4","last_reported":1720368513,"current_range_meters":0,"station_id":"ce4bhgp2rcd13ifvqfc0","pricing_plan_id":"cebpf4jnsgd1na2vs0mg"},{"bike_id":"59ece638-0e6f-449b-b8c7-8a374f467c4d","system_id":"levelo_inurba_marseille","lat":43.26205,"lon":5.37441,"is_reserved":false,"is_disabled":false,"rental_uris":{"android":"levelo://app?vid=59ece638-0e6f-449b-b8c7-8a374f467c4d","ios":"levelo://app?vid=59ece638-0e6f-449b-b8c7-8a374f467c4d"},"vehicle_type_id":"4","last_reported":1720368513,"current_range_meters":0,"station_id":"ce4bhgp2rcd13ifvqfc0","pricing_plan_id":"cebpf4jnsgd1na2vs0mg"},{"bike_id":"7d9dff7a-bfd2-46f7-bd1d-fc144446f56f","system_id":"levelo_inurba_marseille","lat":43.261775,"lon":5.37514,"is_reserved":false,"is_disabled":false,"rental_uris":{"android":"levelo://app?vid=7d9dff7a-bfd2-46f7-bd1d-fc144446f56f","ios":"levelo://app?vid=7d9dff7a-bfd2-46f7-bd1d-fc144446f56f"},"vehicle_type_id":"4","last_reported":1720368513,"current_range_meters":0,"station_id":"","pricing_plan_id":"cebpf4jnsgd1na2vs0mg"},{"bike_id":"bcc261ca-7c68-43e7-893d-0b8aa29d9977","system_id":"levelo_inurba_marseille","lat":43.271388,"lon":5.409269,"is_reserved":false,"is_disabled":false,"rental_uris":{"android":"levelo://app?vid=bcc261ca-7c68-43e7-893d-0b8aa29d9977","ios":"levelo://app?vid=bcc261ca-7c68-43e7-893d-0b8aa29d9977"},"vehicle_type_id":"4","last_reported":1720368513,"current_range_meters":26800,"station_id":"ce4bhl12rcd13ifvqgf0","pricing_plan_id":"cebpf4jnsgd1na2vs0mg"},{"bike_id":"949ee4c9-3b03-4525-98c1-6a937ee222f5","system_id":"levelo_inurba_marseille","lat":43.264958,"lon":5.395433,"is_reserved":false,"is_disabled":false,"rental_uris":{"android":"levelo://app?vid=949ee4c9-3b03-4525-98c1-6a937ee222f5","ios":"levelo://app?vid=949ee4c9-3b03-4525-98c1-6a937ee222f5"},"vehicle_type_id":"4","last_reported":1720368513,"current_range_meters":21200,"station_id":"ce4bhi12rcd13ifvqfq0","pricing_plan_id":"cebpf4jnsgd1na2vs0mg"},{"bike_id":"31d3446f-b0f3-4fa3-b634-500d667f3635","system_id":"levelo_inurba_marseille","lat":43.35156,"lon":5.41449,"is_reserved":false,"is_disabled":false,"rental_uris":{"android":"levelo://app?vid=31d3446f-b0f3-4fa3-b634-500d667f3635","ios":"levelo://app?vid=31d3446f-b0f3-4fa3-b634-500d667f3635"},"vehicle_type_id":"4","last_reported":1720368513,"current_range_meters":1600,"station_id":"","pricing_plan_id":"cebpf4jnsgd1na2vs0mg"},{"bike_id":"db3e03a4-3df4-4d6f-8cbc-c01b452ae70f","system_id":"levelo_inurba_marseille","lat":43.29902,"lon":5.4366,"is_reserved":false,"is_disabled":false,"rental_uris":{"android":"levelo://app?vid=db3e03a4-3df4-4d6f-8cbc-c01b452ae70f","ios":"levelo://app?vid=db3e03a4-3df4-4d6f-8cbc-c01b452ae70f"},"vehicle_type_id":"4","last_reported":1720368513,"current_range_meters":31200,"station_id":"ce4bhpp2rcd13ifvqhfg","pricing_plan_id":"cebpf4jnsgd1na2vs0mg"},{"bike_id":"b4ccc473-603a-4b83-afd6-852b428ae2c9","system_id":"levelo_inurba_marseille","lat":43.299045,"lon":5.436632,"is_reserved":false,"is_disabled":false,"rental_uris":{"android":"levelo://app?vid=b4ccc473-603a-4b83-afd6-852b428ae2c9","ios":"levelo://app?vid=b4ccc473-603a-4b83-afd6-852b428ae2c9"},"vehicle_type_id":"4","last_reported":1720368513,"current_range_meters":17200,"station_id":"ce4bhpp2rcd13ifvqhfg","pricing_plan_id":"cebpf4jnsgd1na2vs0mg"},{"bike_id":"537db5ae-e806-449e-9899-dd0f206a7809","system_id":"levelo_inurba_marseille","lat":43.299,"lon":5.436675,"is_reserved":false,"is_disabled":false,"rental_uris":{"android":"levelo://app?vid=537db5ae-e806-449e-9899-dd0f206a7809","ios":"levelo://app?vid=537db5ae-e806-449e-9899-dd0f206a7809"},"vehicle_type_id":"4","last_reported":1720368513,"current_range_meters":31200,"station_id":"ce4bhpp2rcd13ifvqhfg","pricing_plan_id":"cebpf4jnsgd1na2vs0mg"},{"bike_id":"2fca0af1-6e96-428e-a976-5e57e2178cc7","system_id":"levelo_inurba_marseille","lat":43.29901,"lon":5.4367,"is_reserved":false,"is_disabled":false,"rental_uris":{"android":"levelo://app?vid=2fca0af1-6e96-428e-a976-5e57e2178cc7","ios":"levelo://app?vid=2fca0af1-6e96-428e-a976-5e57e2178cc7"},"vehicle_type_id":"4","last_reported":1720368513,"current_range_meters":31200,"station_id":"ce4bhpp2rcd13ifvqhfg","pricing_plan_id":"cebpf4jnsgd1na2vs0mg"},{"bike_id":"7632fe19-3b01-43d3-ac8c-8816ac1d5258","system_id":"levelo_inurba_marseille","lat":43.29897,"lon":5.43672,"is_reserved":false,"is_disabled":false,"rental_uris":{"android":"levelo://app?vid=7632fe19-3b01-43d3-ac8c-8816ac1d5258","ios":"levelo://app?vid=7632fe19-3b01-43d3-ac8c-8816ac1d5258"},"vehicle_type_id":"4","last_reported":1720368513,"current_range_meters":8400,"station_id":"ce4bhpp2rcd13ifvqhfg","pricing_plan_id":"cebpf4jnsgd1na2vs0mg"},{"bike_id":"64cf53a4-b5cd-4849-b201-98a0a3381f43","system_id":"levelo_inurba_marseille","lat":43.260219,"lon":5.37546,"is_reserved":false,"is_disabled":false,"rental_uris":{"android":"levelo://app?vid=64cf53a4-b5cd-4849-b201-98a0a3381f43","ios":"levelo://app?vid=64cf53a4-b5cd-4849-b201-98a0a3381f43"},"vehicle_type_id":"4","last_reported":1720368513,"current_range_meters":1200,"station_id":"ce4bhgh2rcd13ifvqfa0","pricing_plan_id":"cebpf4jnsgd1na2vs0mg"},{"bike_id":"0841d80f-4de3-44f3-9f6c-023bfedb8ac2","system_id":"levelo_inurba_marseille","lat":43.26023,"lon":5.37549,"is_reserved":false,"is_disabled":false,"rental_uris":{"android":"levelo://app?vid=0841d80f-4de3-44f3-9f6c-023bfedb8ac2","ios":"levelo://app?vid=0841d80f-4de3-44f3-9f6c-023bfedb8ac2"},"vehicle_type_id":"4","last_reported":1720368513,"current_range_meters":0,"station_id":"ce4bhgh2rcd13ifvqfa0","pricing_plan_id":"cebpf4jnsgd1na2vs0mg"},{"bike_id":"0061a55b-b7b9-42b8-9bb4-30c413cd75bb","system_id":"levelo_inurba_marseille","lat":43.281548,"lon":5.42643,"is_reserved":false,"is_disabled":false,"rental_uris":{"android":"levelo://app?vid=0061a55b-b7b9-42b8-9bb4-30c413cd75bb","ios":"levelo://app?vid=0061a55b-b7b9-42b8-9bb4-30c413cd75bb"},"vehicle_type_id":"4","last_reported":1720368513,"current_range_meters":0,"station_id":"ce4bhnh2rcd13ifvqgug","pricing_plan_id":"cebpf4jnsgd1na2vs0mg"},{"bike_id":"68b3ff66-f00b-492a-bf3d-9751374677b1","system_id":"levelo_inurba_marseille","lat":43.281548,"lon":5.42643,"is_reserved":false,"is_disabled":false,"rental_uris":{"android":"levelo://app?vid=68b3ff66-f00b-492a-bf3d-9751374677b1","ios":"levelo://app?vid=68b3ff66-f00b-492a-bf3d-9751374677b1"},"vehicle_type_id":"4","last_reported":1720368513,"current_range_meters":18000,"station_id":"ce4bhnh2rcd13ifvqgug","pricing_plan_id":"cebpf4jnsgd1na2vs0mg"},{"bike_id":"f283b585-96c1-4e20-8eca-652387d462bc","system_id":"levelo_inurba_marseille","lat":43.281548,"lon":5.42643,"is_reserved":false,"is_disabled":false,"rental_uris":{"android":"levelo://app?vid=f283b585-96c1-4e20-8eca-652387d462bc","ios":"levelo://app?vid=f283b585-96c1-4e20-8eca-652387d462bc"},"vehicle_type_id":"4","last_reported":1720368513,"current_range_meters":11200,"station_id":"ce4bhnh2rcd13ifvqgug","pricing_plan_id":"cebpf4jnsgd1na2vs0mg"},{"bike_id":"2b966c7c-95e7-469a-b2fd-68b74f821b0b","system_id":"levelo_inurba_marseille","lat":43.281548,"lon":5.42643,"is_reserved":false,"is_disabled":false,"rental_uris":{"android":"levelo://app?vid=2b966c7c-95e7-469a-b2fd-68b74f821b0b","ios":"levelo://app?vid=2b966c7c-95e7-469a-b2fd-68b74f821b0b"},"vehicle_type_id":"4","last_reported":1720368513,"current_range_meters":0,"station_id":"ce4bhnh2rcd13ifvqgug","pricing_plan_id":"cebpf4jnsgd1na2vs0mg"},{"bike_id":"98c240d9-af37-4ea0-93eb-3108d7b66e35","system_id":"levelo_inurba_marseille","lat":43.281548,"lon":5.42643,"is_reserved":false,"is_disabled":false,"rental_uris":{"android":"levelo://app?vid=98c240d9-af37-4ea0-93eb-3108d7b66e35","ios":"levelo://app?vid=98c240d9-af37-4ea0-93eb-3108d7b66e35"},"vehicle_type_id":"4","last_reported":1720368513,"current_range_meters":5600,"station_id":"ce4bhnh2rcd13ifvqgug","pricing_plan_id":"cebpf4jnsgd1na2vs0mg"},{"bike_id":"ca026284-b585-4b35-bed5-23ebd12ff54c","system_id":"levelo_inurba_marseille","lat":43.281548,"lon":5.42643,"is_reserved":false,"is_disabled":false,"rental_uris":{"android":"levelo://app?vid=ca026284-b585-4b35-bed5-23ebd12ff54c","ios":"levelo://app?vid=ca026284-b585-4b35-bed5-23ebd12ff54c"},"vehicle_type_id":"4","last_reported":1720368513,"current_range_meters":1600,"station_id":"ce4bhnh2rcd13ifvqgug","pricing_plan_id":"cebpf4jnsgd1na2vs0mg"},{"bike_id":"dde0a351-4a38-40e9-a328-618f7c2904c1","system_id":"levelo_inurba_marseille","lat":43.28156,"lon":5.42645,"is_reserved":false,"is_disabled":false,"rental_uris":{"android":"levelo://app?vid=dde0a351-4a38-40e9-a328-618f7c2904c1","ios":"levelo://app?vid=dde0a351-4a38-40e9-a328-618f7c2904c1"},"vehicle_type_id":"4","last_reported":1720368513,"current_range_meters":4800,"station_id":"ce4bhnh2rcd13ifvqgug","pricing_plan_id":"cebpf4jnsgd1na2vs0mg"},{"bike_id":"b8334907-92b6-4167-82fa-265c229382af","system_id":"levelo_inurba_marseille","lat":43.28155,"lon":5.42646,"is_reserved":false,"is_disabled":false,"rental_uris":{"android":"levelo://app?vid=b8334907-92b6-4167-82fa-265c229382af","ios":"levelo://app?vid=b8334907-92b6-4167-82fa-265c229382af"},"vehicle_type_id":"4","last_reported":1720368513,"current_range_meters":7600,"station_id":"ce4bhnh2rcd13ifvqgug","pricing_plan_id":"cebpf4jnsgd1na2vs0mg"},{"bike_id":"edd408ff-a637-4adf-b781-4907a893ff5f","system_id":"levelo_inurba_marseille","lat":43.28154,"lon":5.42648,"is_reserved":false,"is_disabled":false,"rental_uris":{"android":"levelo://app?vid=edd408ff-a637-4adf-b781-4907a893ff5f","ios":"levelo://app?vid=edd408ff-a637-4adf-b781-4907a893ff5f"},"vehicle_type_id":"4","last_reported":1720368513,"current_range_meters":0,"station_id":"ce4bhnh2rcd13ifvqgug","pricing_plan_id":"cebpf4jnsgd1na2vs0mg"},{"bike_id":"3567b74b-d058-4183-8320-21109e3bdc36","system_id":"levelo_inurba_marseille","lat":43.281548,"lon":5.42643,"is_reserved":false,"is_disabled":false,"rental_uris":{"android":"levelo://app?vid=3567b74b-d058-4183-8320-21109e3bdc36","ios":"levelo://app?vid=3567b74b-d058-4183-8320-21109e3bdc36"},"vehicle_type_id":"4","last_reported":1720368513,"current_range_meters":28400,"station_id":"ce4bhnh2rcd13ifvqgug","pricing_plan_id":"cebpf4jnsgd1na2vs0mg"},{"bike_id":"9594a408-b20f-4e6a-896b-59b0911035b5","system_id":"levelo_inurba_marseille","lat":43.28154,"lon":5.42654,"is_reserved":false,"is_disabled":false,"rental_uris":{"android":"levelo://app?vid=9594a408-b20f-4e6a-896b-59b0911035b5","ios":"levelo://app?vid=9594a408-b20f-4e6a-896b-59b0911035b5"},"vehicle_type_id":"4","last_reported":1720368513,"current_range_meters":27600,"station_id":"ce4bhnh2rcd13ifvqgug","pricing_plan_id":"cebpf4jnsgd1na2vs0mg"},{"bike_id":"44de1cf5-27eb-4cf6-be5c-e92198898340","system_id":"levelo_inurba_marseille","lat":43.36786,"lon":5.36296,"is_reserved":false,"is_disabled":false,"rental_uris":{"android":"levelo://app?vid=44de1cf5-27eb-4cf6-be5c-e92198898340","ios":"levelo://app?vid=44de1cf5-27eb-4cf6-be5c-e92198898340"},"vehicle_type_id":"4","last_reported":1720368513,"current_range_meters":2800,"station_id":"","pricing_plan_id":"cebpf4jnsgd1na2vs0mg"},{"bike_id":"3b294a25-f80d-4972-8445-4efbd0ac00cb","system_id":"levelo_inurba_marseille","lat":43.275028,"lon":5.424534,"is_reserved":false,"is_disabled":false,"rental_uris":{"android":"levelo://app?vid=3b294a25-f80d-4972-8445-4efbd0ac00cb","ios":"levelo://app?vid=3b294a25-f80d-4972-8445-4efbd0ac00cb"},"vehicle_type_id":"4","last_reported":1720368513,"current_range_meters":27600,"station_id":"ce4bhn92rcd13ifvqgrg","pricing_plan_id":"cebpf4jnsgd1na2vs0mg"},{"bike_id":"6d70a76f-7eac-4a95-a2ec-8d8e2af30140","system_id":"levelo_inurba_marseille","lat":43.255756,"lon":5.382303,"is_reserved":false,"is_disabled":false,"rental_uris":{"android":"levelo://app?vid=6d70a76f-7eac-4a95-a2ec-8d8e2af30140","ios":"levelo://app?vid=6d70a76f-7eac-4a95-a2ec-8d8e2af30140"},"vehicle_type_id":"4","last_reported":1720368513,"current_range_meters":21600,"station_id":"ce4bhih2rcd13ifvqfs0","pricing_plan_id":"cebpf4jnsgd1na2vs0mg"},{"bike_id":"9d113b48-0c24-4655-8f6e-ddc49440dae2","system_id":"levelo_inurba_marseille","lat":43.255756,"lon":5.382303,"is_reserved":false,"is_disabled":false,"rental_uris":{"android":"levelo://app?vid=9d113b48-0c24-4655-8f6e-ddc49440dae2","ios":"levelo://app?vid=9d113b48-0c24-4655-8f6e-ddc49440dae2"},"vehicle_type_id":"4","last_reported":1720368513,"current_range_meters":9600,"station_id":"ce4bhih2rcd13ifvqfs0","pricing_plan_id":"cebpf4jnsgd1na2vs0mg"},{"bike_id":"ccf43096-9759-4763-8afa-2ec51f2475fe","system_id":"levelo_inurba_marseille","lat":43.25823,"lon":5.39436,"is_reserved":false,"is_disabled":false,"rental_uris":{"android":"levelo://app?vid=ccf43096-9759-4763-8afa-2ec51f2475fe","ios":"levelo://app?vid=ccf43096-9759-4763-8afa-2ec51f2475fe"},"vehicle_type_id":"4","last_reported":1720368513,"current_range_meters":11600,"station_id":"ce4bhip2rcd13ifvqft0","pricing_plan_id":"cebpf4jnsgd1na2vs0mg"},{"bike_id":"0b3f7da7-31f6-4dab-ac09-a6c52ac45b35","system_id":"levelo_inurba_marseille","lat":43.258224,"lon":5.394369,"is_reserved":false,"is_disabled":false,"rental_uris":{"android":"levelo://app?vid=0b3f7da7-31f6-4dab-ac09-a6c52ac45b35","ios":"levelo://app?vid=0b3f7da7-31f6-4dab-ac09-a6c52ac45b35"},"vehicle_type_id":"4","last_reported":1720368513,"current_range_meters":11600,"station_id":"ce4bhip2rcd13ifvqft0","pricing_plan_id":"cebpf4jnsgd1na2vs0mg"},{"bike_id":"ed3ccadc-5eae-415e-a0ce-3c1e35a00f83","system_id":"levelo_inurba_marseille","lat":43.25819,"lon":5.39431,"is_reserved":false,"is_disabled":false,"rental_uris":{"android":"levelo://app?vid=ed3ccadc-5eae-415e-a0ce-3c1e35a00f83","ios":"levelo://app?vid=ed3ccadc-5eae-415e-a0ce-3c1e35a00f83"},"vehicle_type_id":"4","last_reported":1720368513,"current_range_meters":1600,"station_id":"ce4bhip2rcd13ifvqft0","pricing_plan_id":"cebpf4jnsgd1na2vs0mg"},{"bike_id":"0c21b100-7804-4a1c-8603-cf3d844bbfa2","system_id":"levelo_inurba_marseille","lat":43.254947,"lon":5.376454,"is_reserved":false,"is_disabled":false,"rental_uris":{"android":"levelo://app?vid=0c21b100-7804-4a1c-8603-cf3d844bbfa2","ios":"levelo://app?vid=0c21b100-7804-4a1c-8603-cf3d844bbfa2"},"vehicle_type_id":"4","last_reported":1720368513,"current_range_meters":400,"station_id":"ce4bhh12rcd13ifvqff0","pricing_plan_id":"cebpf4jnsgd1na2vs0mg"},{"bike_id":"9a909a29-d5c4-4709-9377-5494a06db6c8","system_id":"levelo_inurba_marseille","lat":43.25493,"lon":5.37652,"is_reserved":false,"is_disabled":false,"rental_uris":{"android":"levelo://app?vid=9a909a29-d5c4-4709-9377-5494a06db6c8","ios":"levelo://app?vid=9a909a29-d5c4-4709-9377-5494a06db6c8"},"vehicle_type_id":"4","last_reported":1720368513,"current_range_meters":0,"station_id":"ce4bhh12rcd13ifvqff0","pricing_plan_id":"cebpf4jnsgd1na2vs0mg"},{"bike_id":"4183ca64-e603-49eb-86e0-dd2e93a54e62","system_id":"levelo_inurba_marseille","lat":43.25488,"lon":5.37647,"is_reserved":false,"is_disabled":false,"rental_uris":{"android":"levelo://app?vid=4183ca64-e603-49eb-86e0-dd2e93a54e62","ios":"levelo://app?vid=4183ca64-e603-49eb-86e0-dd2e93a54e62"},"vehicle_type_id":"4","last_reported":1720368513,"current_range_meters":0,"station_id":"ce4bhh12rcd13ifvqff0","pricing_plan_id":"cebpf4jnsgd1na2vs0mg"},