{"last_updated":1729372125,"ttl":60,"version":"2.2","data":{"bikes":[{"bike_id":"8c410295-3506-4d35-8d40-07a27a3c97e9","system_id":"levelo_inurba_marseille","lat":43.29415,"lon":5.38621,"is_reserved":false,"is_disabled":false,"rental_uris":{"android":"levelo://app?vid=8c410295-3506-4d35-8d40-07a27a3c97e9","ios":"levelo://app?vid=8c410295-3506-4d35-8d40-07a27a3c97e9"},"vehicle_type_id":"4","last_reported":1729372125,"current_range_meters":2000,"station_id":"ce4bh2h2rcd13ifvqdh0","pricing_plan_id":"cebpf4jnsgd1na2vs0mg"},{"bike_id":"9b9a7cfe-944f-49a6-84c3-af9eec72cacc","system_id":"levelo_inurba_marseille","lat":43.31124,"lon":5.37773,"is_reserved":false,"is_disabled":false,"rental_uris":{"android":"levelo://app?vid=9b9a7cfe-944f-49a6-84c3-af9eec72cacc","ios":"levelo://app?vid=9b9a7cfe-944f-49a6-84c3-af9eec72cacc"},"vehicle_type_id":"4","last_reported":1729372125,"current_range_meters":22800,"station_id":"ce4bgt92rcd13ifvqcg0","pricing_plan_id":"cebpf4jnsgd1na2vs0mg"},{"bike_id":"61269771-d9e1-4fa2-8501-82399966c8a7","system_id":"levelo_inurba_marseille","lat":43.30932,"lon":5.40132,"is_reserved":false,"is_disabled":false,"rental_uris":{"android":"levelo://app?vid=61269771-d9e1-4fa2-8501-82399966c8a7","ios":"levelo://app?vid=61269771-d9e1-4fa2-8501-82399966c8a7"},"vehicle_type_id":"4","last_reported":1729372125,"current_range_meters":7200,"station_id":"ce4bgvp2rcd13ifvqct0","pricing_plan_id":"cebpf4jnsgd1na2vs0mg"},{"bike_id":"cc7efa44-13df-4e12-a405-4e45667f6687","system_id":"levelo_inurba_marseille","lat":43.31118,"lon":5.37761,"is_reserved":false,"is_disabled":false,"rental_uris":{"android":"levelo://app?vid=cc7efa44-13df-4e12-a405-4e45667f6687","ios":"levelo://app?vid=cc7efa44-13df-4e12-a405-4e45667f6687"},"vehicle_type_id":"4","last_reported":1729372125,"current_range_meters":6400,"station_id":"ce4bgt92rcd13ifvqcg0","pricing_plan_id":"cebpf4jnsgd1na2vs0mg"},{"bike_id":"713f9c2f-20c4-4770-8656-7c88257a230c","system_id":"levelo_inurba_marseille","lat":43.30138,"lon":5.37413,"is_reserved":false,"is_disabled":false,"rental_uris":{"android":"levelo://app?vid=713f9c2f-20c4-4770-8656-7c88257a230c","ios":"levelo://app?vid=713f9c2f-20c4-4770-8656-7c88257a230c"},"vehicle_type_id":"4","last_reported":1729372125,"current_range_meters":38000,"station_id":"ce4bgs92rcd13ifvqcc0","pricing_plan_id":"cebpf4jnsgd1na2vs0mg"},{"bike_id":"1d123306-76de-4e99-b18a-f2b54d4716f7","system_id":"levelo_inurba_marseille","lat":43.32342,"lon":5.40622,"is_reserved":false,"is_disabled":false,"rental_uris":{"android":"levelo://app?vid=1d123306-76de-4e99-b18a-f2b54d4716f7","ios":"levelo://app?vid=1d123306-76de-4e99-b18a-f2b54d4716f7"},"vehicle_type_id":"4","last_reported":1729372125,"current_range_meters":22000,"station_id":"ce4bhq92rcd13ifvqhjg","pricing_plan_id":"cebpf4jnsgd1na2vs0mg"},{"bike_id":"e0879c3f-10eb-4d3b-8053-605cb1c6310c","system_id":"levelo_inurba_marseille","lat":43.26059,"lon":5.39392,"is_reserved":false,"is_disabled":false,"rental_uris":{"android":"levelo://app?vid=e0879c3f-10eb-4d3b-8053-605cb1c6310c","ios":"levelo://app?vid=e0879c3f-10eb-4d3b-8053-605cb1c6310c"},"vehicle_type_id":"4","last_reported":1729372125,"current_range_meters":24800,"station_id":"ce4bhh92rcd13ifvqfj0","pricing_plan_id":"cebpf4jnsgd1na2vs0mg"},{"bike_id":"5670cc1a-3b42-4baf-84dd-24fbe4175a33","system_id":"levelo_inurba_marseille","lat":43.30834,"lon":5.38116,"is_reserved":false,"is_disabled":false,"rental_uris":{"android":"levelo://app?vid=5670cc1a-3b42-4baf-84dd-24fbe4175a33","ios":"levelo://app?vid=5670cc1a-3b42-4baf-84dd-24fbe4175a33"},"vehicle_type_id":"4","last_reported":1729372125,"current_range_meters":10800,"station_id":"ce4bgt12rcd13ifvqce0","pricing_plan_id":"cebpf4jnsgd1na2vs0mg"},{"bike_id":"a382baf7-5813-4d8e-98d3-1ad147b7d417","system_id":"levelo_inurba_marseille","lat":43.31222,"lon":5.36859,"is_reserved":false,"is_disabled":false,"rental_uris":{"android":"levelo://app?vid=a382baf7-5813-4d8e-98d3-1ad147b7d417","ios":"levelo://app?vid=a382baf7-5813-4d8e-98d3-1ad147b7d417"},"vehicle_type_id":"4","last_reported":1729372125,"current_range_meters":19600,"station_id":"ce4bgl92rcd13ifvqbq0","pricing_plan_id":"cebpf4jnsgd1na2vs0mg"},{"bike_id":"3fbb8f30-0d80-4328-ab5c-f746ad375e95","system_id":"levelo_inurba_marseille","lat":43.27954,"lon":5.41039,"is_reserved":false,"is_disabled":false,"rental_uris":{"android":"levelo://app?vid=3fbb8f30-0d80-4328-ab5c-f746ad375e95","ios":"levelo://app?vid=3fbb8f30-0d80-4328-ab5c-f746ad375e95"},"vehicle_type_id":"4","last_reported":1729372125,"current_range_meters":25200,"station_id":"ce4bhnp2rcd13ifvqh0g","pricing_plan_id":"cebpf4jnsgd1na2vs0mg"},{"bike_id":"a8d2cfa4-d275-47c6-84f3-c214a2d8d7b4","system_id":"levelo_inurba_marseille","lat":43.31496,"lon":5.37301,"is_reserved":false,"is_disabled":false,"rental_uris":{"android":"levelo://app?vid=a8d2cfa4-d275-47c6-84f3-c214a2d8d7b4","ios":"levelo://app?vid=a8d2cfa4-d275-47c6-84f3-c214a2d8d7b4"},"vehicle_type_id":"4","last_reported":1729372125,"current_range_meters":39200,"station_id":"ce4bgt12rcd13ifvqcd0","pricing_plan_id":"cebpf4jnsgd1na2vs0mg"},{"bike_id":"9d103cac-2887-4bba-a8c7-7740b800f9fe","system_id":"levelo_inurba_marseille","lat":43.29276,"lon":5.4011,"is_reserved":false,"is_disabled":false,"rental_uris":{"android":"levelo://app?vid=9d103cac-2887-4bba-a8c7-7740b800f9fe","ios":"levelo://app?vid=9d103cac-2887-4bba-a8c7-7740b800f9fe"},"vehicle_type_id":"4","last_reported":1729372125,"current_range_meters":38800,"station_id":"ce4bh312rcd13ifvqdk0","pricing_plan_id":"cebpf4jnsgd1na2vs0mg"},{"bike_id":"5808184e-866e-4fa7-80c5-0c3e8948c68b","system_id":"levelo_inurba_marseille","lat":43.2315,"lon":5.43719,"is_reserved":false,"is_disabled":false,"rental_uris":{"android":"levelo://app?vid=5808184e-866e-4fa7-80c5-0c3e8948c68b","ios":"levelo://app?vid=5808184e-866e-4fa7-80c5-0c3e8948c68b"},"vehicle_type_id":"4","last_reported":1729372125,"current_range_meters":18800,"station_id":"ce4bhmp2rcd13ifvqgog","pricing_plan_id":"cebpf4jnsgd1na2vs0mg"},{"bike_id":"2eb5bbcc-4563-4be2-86d0-ad52e2a3d03f","system_id":"levelo_inurba_marseille","lat":43.293,"lon":5.37447,"is_reserved":false,"is_disabled":false,"rental_uris":{"android":"levelo://app?vid=2eb5bbcc-4563-4be2-86d0-ad52e2a3d03f","ios":"levelo://app?vid=2eb5bbcc-4563-4be2-86d0-ad52e2a3d03f"},"vehicle_type_id":"4","last_reported":1729372125,"current_range_meters":36800,"station_id":"ce4bgi12rcd13ifvqb70","pricing_plan_id":"cebpf4jnsgd1na2vs0mg"},{"bike_id":"f002ff7c-8d7f-4b30-a59b-b17d6e6e6eba","system_id":"levelo_inurba_marseille","lat":43.3266,"lon":5.40988,"is_reserved":false,"is_disabled":false,"rental_uris":{"android":"levelo://app?vid=f002ff7c-8d7f-4b30-a59b-b17d6e6e6eba","ios":"levelo://app?vid=f002ff7c-8d7f-4b30-a59b-b17d6e6e6eba"},"vehicle_type_id":"4","last_reported":1729372125,"current_range_meters":13600,"station_id":"ce4bhpp2rcd13ifvqhgg","pricing_plan_id":"cebpf4jnsgd1na2vs0mg"},{"bike_id":"474ccd54-d884-4c48-ac27-1f7190ae4438","system_id":"levelo_inurba_marseille","lat":43.33728,"lon":5.39189,"is_reserved":false,"is_disabled":false,"rental_uris":{"android":"levelo://app?vid=474ccd54-d884-4c48-ac27-1f7190ae4438","ios":"levelo://app?vid=474ccd54-d884-4c48-ac27-1f7190ae4438"},"vehicle_type_id":"4","last_reported":1729372125,"current_range_meters":10000,"station_id":"ce4bhr92rcd13ifvqhsg","pricing_plan_id":"cebpf4jnsgd1na2vs0mg"},{"bike_id":"d3a4e5c0-e2c5-458d-88f6-4a7924d87a09","system_id":"levelo_inurba_marseille","lat":43.29638,"lon":5.40593,"is_reserved":false,"is_disabled":false,"rental_uris":{"android":"levelo://app?vid=d3a4e5c0-e2c5-458d-88f6-4a7924d87a09","ios":"levelo://app?vid=d3a4e5c0-e2c5-458d-88f6-4a7924d87a09"},"vehicle_type_id":"4","last_reported":1729372125,"current_range_meters":38000,"station_id":"ce4bh0h2rcd13ifvqd60","pricing_plan_id":"cebpf4jnsgd1na2vs0mg"},{"bike_id":"e24448e1-d312-4184-bab5-aebb572fde79","system_id":"levelo_inurba_marseille","lat":43.28867,"lon":5.35873,"is_reserved":false,"is_disabled":false,"rental_uris":{"android":"levelo://app?vid=e24448e1-d312-4184-bab5-aebb572fde79","ios":"levelo://app?vid=e24448e1-d312-4184-bab5-aebb572fde79"},"vehicle_type_id":"4","last_reported":1729372125,"current_range_meters":22800,"station_id":"ce4bhb12rcd13ifvqem0","pricing_plan_id":"cebpf4jnsgd1na2vs0mg"},{"bike_id":"f82b8b6b-1e37-4447-afc6-b4a1a59aa9ef","system_id":"levelo_inurba_marseille","lat":43.26784,"lon":5.39417,"is_reserved":false,"is_disabled":false,"rental_uris":{"android":"levelo://app?vid=f82b8b6b-1e37-4447-afc6-b4a1a59aa9ef","ios":"levelo://app?vid=f82b8b6b-1e37-4447-afc6-b4a1a59aa9ef"},"vehicle_type_id":"4","last_reported":1729372125,"current_range_meters":37600,"station_id":"ce4bhh12rcd13ifvqfg0","pricing_plan_id":"cebpf4jnsgd1na2vs0mg"},{"bike_id":"760c49f5-20fe-4a12-800f-11e8602a9326","system_id":"levelo_inurba_marseille","lat":43.30958,"lon":5.39045,"is_reserved":false,"is_disabled":false,"rental_uris":{"android":"levelo://app?vid=760c49f5-20fe-4a12-800f-11e8602a9326","ios":"levelo://app?vid=760c49f5-20fe-4a12-800f-11e8602a9326"},"vehicle_type_id":"4","last_reported":1729372125,"current_range_meters":25200,"station_id":"ce4bgup2rcd13ifvqco0","pricing_plan_id":"cebpf4jnsgd1na2vs0mg"},{"bike_id":"7e0b5d71-a8eb-4421-a968-268fef2f6d80","system_id":"levelo_inurba_marseille","lat":43.30782,"lon":5.37654,"is_reserved":false,"is_disabled":false,"rental_uris":{"android":"levelo://app?vid=7e0b5d71-a8eb-4421-a968-268fef2f6d80","ios":"levelo://app?vid=7e0b5d71-a8eb-4421-a968-268fef2f6d80"},"vehicle_type_id":"4","last_reported":1729372125,"current_range_meters":14800,"station_id":"ce4bgv92rcd13ifvqcq0","pricing_plan_id":"cebpf4jnsgd1na2vs0mg"},{"bike_id":"ede2d1cf-651d-4f3c-8bb8-d3a93c16053a","system_id":"levelo_inurba_marseille","lat":43.28036,"lon":5.36948,"is_reserved":false,"is_disabled":false,"rental_uris":{"android":"levelo://app?vid=ede2d1cf-651d-4f3c-8bb8-d3a93c16053a","ios":"levelo://app?vid=ede2d1cf-651d-4f3c-8bb8-d3a93c16053a"},"vehicle_type_id":"4","last_reported":1729372125,"current_range_meters":4800,"station_id":"ce4bha12rcd13ifvqef0","pricing_plan_id":"cebpf4jnsgd1na2vs0mg"},{"bike_id":"7aa259b1-98ce-4330-9b3b-74957bda49bd","system_id":"levelo_inurba_marseille","lat":43.25868,"lon":5.39904,"is_reserved":false,"is_disabled":false,"rental_uris":{"android":"levelo://app?vid=7aa259b1-98ce-4330-9b3b-74957bda49bd","ios":"levelo://app?vid=7aa259b1-98ce-4330-9b3b-74957bda49bd"},"vehicle_type_id":"4","last_reported":1729372125,"current_range_meters":39200,"station_id":"ce4bhl92rcd13ifvqghg","pricing_plan_id":"cebpf4jnsgd1na2vs0mg"},{"bike_id":"a271bdd0-8735-4737-9887-7e1fad0a3b13","system_id":"levelo_inurba_marseille","lat":43.2756,"lon":5.38411,"is_reserved":false,"is_disabled":false,"rental_uris":{"android":"levelo://app?vid=a271bdd0-8735-4737-9887-7e1fad0a3b13","ios":"levelo://app?vid=a271bdd0-8735-4737-9887-7e1fad0a3b13"},"vehicle_type_id":"4","last_reported":1729372125,"current_range_meters":16800,"station_id":"ce4bhh92rcd13ifvqfi0","pricing_plan_id":"cebpf4jnsgd1na2vs0mg"},{"bike_id":"8108bff7-9c82-4941-8e42-7c5cef0cb1db","system_id":"levelo_inurba_marseille","lat":43.24666,"lon":5.38173,"is_reserved":false,"is_disabled":false,"rental_uris":{"android":"levelo://app?vid=8108bff7-9c82-4941-8e42-7c5cef0cb1db","ios":"levelo://app?vid=8108bff7-9c82-4941-8e42-7c5cef0cb1db"},"vehicle_type_id":"4","last_reported":1729372125,"current_range_meters":8400,"station_id":"ce4bhih2rcd13ifvqfr0","pricing_plan_id":"cebpf4jnsgd1na2vs0mg"},{"bike_id":"fc6e513b-da81-4d34-a427-493e42edd768","system_id":"levelo_inurba_marseille","lat":43.29545,"lon":5.39235,"is_reserved":false,"is_disabled":false,"rental_uris":{"android":"levelo://app?vid=fc6e513b-da81-4d34-a427-493e42edd768","ios":"levelo://app?vid=fc6e513b-da81-4d34-a427-493e42edd768"},"vehicle_type_id":"4","last_reported":1729372125,"current_range_meters":20000,"station_id":"","pricing_plan_id":"cebpf4jnsgd1na2vs0mg"},{"bike_id":"abf780da-a5cd-48fa-a6b9-9d83d03c0953","system_id":"levelo_inurba_marseille","lat":43.31064,"lon":5.38344,"is_reserved":false,"is_disabled":false,"rental_uris":{"android":"levelo://app?vid=abf780da-a5cd-48fa-a6b9-9d83d03c0953","ios":"levelo://app?vid=abf780da-a5cd-48fa-a6b9-9d83d03c0953"},"vehicle_type_id":"4","last_reported":1729372125,"current_range_meters":37600,"station_id":"ce4bgv92rcd13ifvqcr0","pricing_plan_id":"cebpf4jnsgd1na2vs0mg"},{"bike_id":"2dd524e3-a13d-4ad8-a2b4-fb75166b8356","system_id":"levelo_inurba_marseille","lat":43.28413,"lon":5.37515,"is_reserved":false,"is_disabled":false,"rental_uris":{"android":"levelo://app?vid=2dd524e3-a13d-4ad8-a2b4-fb75166b8356","ios":"levelo://app?vid=2dd524e3-a13d-4ad8-a2b4-fb75166b8356"},"vehicle_type_id":"4","last_reported":1729372125,"current_range_meters":28400,"station_id":"ce4bh412rcd13ifvqds0","pricing_plan_id":"cebpf4jnsgd1na2vs0mg"},{"bike_id":"4e50393c-3815-487b-aeae-7a81189985c5","system_id":"levelo_inurba_marseille","lat":43.29528,"lon":5.38538,"is_reserved":false,"is_disabled":false,"rental_uris":{"android":"levelo://app?vid=4e50393c-3815-487b-aeae-7a81189985c5","ios":"levelo://app?vid=4e50393c-3815-487b-aeae-7a81189985c5"},"vehicle_type_id":"4","last_reported":1729372125,"current_range_meters":38000,"station_id":"ce4bgih2rcd13ifvqba0","pricing_plan_id":"cebpf4jnsgd1na2vs0mg"},{"bike_id":"ecb85f99-17b9-4bf1-829c-0f61a2cf1ee6","system_id":"levelo_inurba_marseille","lat":43.2798,"lon":5.41679,"is_reserved":false,"is_disabled":false,"rental_uris":{"android":"levelo://app?vid=ecb85f99-17b9-4bf1-829c-0f61a2cf1ee6","ios":"levelo://app?vid=ecb85f99-17b9-4bf1-829c-0f61a2cf1ee6"},"vehicle_type_id":"4","last_reported":1729372125,"current_range_meters":11200,"station_id":"ce4bho12rcd13ifvqh1g","pricing_plan_id":"cebpf4jnsgd1na2vs0mg"},{"bike_id":"d0201ef7-288d-41c0-a113-a9447266d47b","system_id":"levelo_inurba_marseille","lat":43.3089,"lon":5.39642,"is_reserved":false,"is_disabled":false,"rental_uris":{"android":"levelo://app?vid=d0201ef7-288d-41c0-a113-a9447266d47b","ios":"levelo://app?vid=d0201ef7-288d-41c0-a113-a9447266d47b"},"vehicle_type_id":"4","last_reported":1729372125,"current_range_meters":6400,"station_id":"ce4bh012rcd13ifvqcv0","pricing_plan_id":"cebpf4jnsgd1na2vs0mg"},{"bike_id":"57dd0012-e7c2-43e3-90a1-087125ac63fa","system_id":"levelo_inurba_marseille","lat":43.33753,"lon":5.37454,"is_reserved":false,"is_disabled":false,"rental_uris":{"android":"levelo://app?vid=57dd0012-e7c2-43e3-90a1-087125ac63fa","ios":"levelo://app?vid=57dd0012-e7c2-43e3-90a1-087125ac63fa"},"vehicle_type_id":"4","last_reported":1729372125,"current_range_meters":38000,"station_id":"","pricing_plan_id":"cebpf4jnsgd1na2vs0mg"},{"bike_id":"d0c5a1c1-66a9-4933-b464-9142a7c2b7a1","system_id":"levelo_inurba_marseille","lat":43.28548,"lon":5.35997,"is_reserved":false,"is_disabled":false,"rental_uris":{"android":"levelo://app?vid=d0c5a1c1-66a9-4933-b464-9142a7c2b7a1","ios":"levelo://app?vid=d0c5a1c1-66a9-4933-b464-9142a7c2b7a1"},"vehicle_type_id":"4","last_reported":1729372125,"current_range_meters":14400,"station_id":"ce4bhah2rcd13ifvqei0","pricing_plan_id":"cebpf4jnsgd1na2vs0mg"},{"bike_id":"580fd143-444b-4424-b5bb-4b9e450f75b5","system_id":"levelo_inurba_marseille","lat":43.27943,"lon":5.41043,"is_reserved":false,"is_disabled":false,"rental_uris":{"android":"levelo://app?vid=580fd143-444b-4424-b5bb-4b9e450f75b5","ios":"levelo://app?vid=580fd143-444b-4424-b5bb-4b9e450f75b5"},"vehicle_type_id":"4","last_reported":1729372125,"current_range_meters":35200,"station_id":"ce4bhnp2rcd13ifvqh0g","pricing_plan_id":"cebpf4jnsgd1na2vs0mg"},{"bike_id":"a5280cbd-d187-41a1-badf-5e1878983c0b","system_id":"levelo_inurba_marseille","lat":43.30958,"lon":5.39022,"is_reserved":false,"is_disabled":false,"rental_uris":{"android":"levelo://app?vid=a5280cbd-d187-41a1-badf-5e1878983c0b","ios":"levelo://app?vid=a5280cbd-d187-41a1-badf-5e1878983c0b"},"vehicle_type_id":"4","last_reported":1729372125,"current_range_meters":18000,"station_id":"ce4bgup2rcd13ifvqco0","pricing_plan_id":"cebpf4jnsgd1na2vs0mg"},{"bike_id":"1a6a4619-f26e-4970-b3c0-a933218f2e6c","system_id":"levelo_inurba_marseille","lat":43.30596,"lon":5.39356,"is_reserved":false,"is_disabled":false,"rental_uris":{"android":"levelo://app?vid=1a6a4619-f26e-4970-b3c0-a933218f2e6c","ios":"levelo://app?vid=1a6a4619-f26e-4970-b3c0-a933218f2e6c"},"vehicle_type_id":"4","last_reported":1729372125,"current_range_meters":6800,"station_id":"ce4bh0p2rcd13ifvqd80","pricing_plan_id":"cebpf4jnsgd1na2vs0mg"},{"bike_id":"869b1024-b8db-4eb8-be1a-cd0ba29624d1","system_id":"levelo_inurba_marseille","lat":43.3107,"lon":5.38348,"is_reserved":false,"is_disabled":false,"rental_uris":{"android":"levelo://app?vid=869b1024-b8db-4eb8-be1a-cd0ba29624d1","ios":"levelo://app?vid=869b1024-b8db-4eb8-be1a-cd0ba29624d1"},"vehicle_type_id":"4","last_reported":1729372125,"current_range_meters":2000,"station_id":"ce4bgv92rcd13ifvqcr0","pricing_plan_id":"cebpf4jnsgd1na2vs0mg"},{"bike_id":"d4121f67-c188-4147-bce3-3db48cb9650c","system_id":"levelo_inurba_marseille","lat":43.27374,"lon":5.36258,"is_reserved":false,"is_disabled":false,"rental_uris":{"android":"levelo://app?vid=d4121f67-c188-4147-bce3-3db48cb9650c","ios":"levelo://app?vid=d4121f67-c188-4147-bce3-3db48cb9650c"},"vehicle_type_id":"4","last_reported":1729372125,"current_range_meters":28000,"station_id":"ce4bhbh2rcd13ifvqeo0","pricing_plan_id":"cebpf4jnsgd1na2vs0mg"},{"bike_id":"3318c727-7630-4ac2-ac98-0e9705d638b1","system_id":"levelo_inurba_marseille","lat":43.29271,"lon":5.38446,"is_reserved":false,"is_disabled":false,"rental_uris":{"android":"levelo://app?vid=3318c727-7630-4ac2-ac98-0e9705d638b1","ios":"levelo://app?vid=3318c727-7630-4ac2-ac98-0e9705d638b1"},"vehicle_type_id":"4","last_reported":1729372125,"current_range_meters":32000,"station_id":"","pricing_plan_id":"cebpf4jnsgd1na2vs0mg"},{"bike_id":"9e927d85-4215-47b3-8d8f-01fc49f32640","system_id":"levelo_inurba_marseille","lat":43.26489,"lon":5.39542,"is_reserved":false,"is_disabled":false,"rental_uris":{"android":"levelo://app?vid=9e927d85-4215-47b3-8d8f-01fc49f32640","ios":"levelo://app?vid=9e927d85-4215-47b3-8d8f-01fc49f32640"},"vehicle_type_id":"4","last_reported":1729372125,"current_range_meters":38800,"station_id":"ce4bhi12rcd13ifvqfq0","pricing_plan_id":"cebpf4jnsgd1na2vs0mg"},{"bike_id":"e8b3df60-01e0-45e7-8b61-61d52e175cbb","system_id":"levelo_inurba_marseille","lat":43.28103,"lon":5.37835,"is_reserved":false,"is_disabled":false,"rental_uris":{"android":"levelo://app?vid=e8b3df60-01e0-45e7-8b61-61d52e175cbb","ios":"levelo://app?vid=e8b3df60-01e0-45e7-8b61-61d52e175cbb"},"vehicle_type_id":"4","last_reported":1729372125,"current_range_meters":38800,"station_id":"ce4bha12rcd13ifvqee0","pricing_plan_id":"cebpf4jnsgd1na2vs0mg"},{"bike_id":"b88b0471-3e76-49b0-9ff7-c71e4fc07cd2","system_id":"levelo_inurba_marseille","lat":43.26569,"lon":5.39001,"is_reserved":false,"is_disabled":false,"rental_uris":{"android":"levelo://app?vid=b88b0471-3e76-49b0-9ff7-c71e4fc07cd2","ios":"levelo://app?vid=b88b0471-3e76-49b0-9ff7-c71e4fc07cd2"},"vehicle_type_id":"4","last_reported":1729372125,"current_range_meters":38800,"station_id":"ce4bhe12rcd13ifvqf30","pricing_plan_id":"cebpf4jnsgd1na2vs0mg"},{"bike_id":"aad566f0-196f-498c-86dc-1f53ef96c4a9","system_id":"levelo_inurba_marseille","lat":43.2501,"lon":5.38913,"is_reserved":false,"is_disabled":false,"rental_uris":{"android":"levelo://app?vid=aad566f0-196f-498c-86dc-1f53ef96c4a9","ios":"levelo://app?vid=aad566f0-196f-498c-86dc-1f53ef96c4a9"},"vehicle_type_id":"4","last_reported":1729372125,"current_range_meters":24000,"station_id":"ce4bhgp2rcd13ifvqfd0","pricing_plan_id":"cebpf4jnsgd1na2vs0mg"},{"bike_id":"319e285c-82b5-439b-a7b4-0550bf15a6bf","system_id":"levelo_inurba_marseille","lat":43.24995,"lon":5.38937,"is_reserved":false,"is_disabled":false,"rental_uris":{"android":"levelo://app?vid=319e285c-82b5-439b-a7b4-0550bf15a6bf","ios":"levelo://app?vid=319e285c-82b5-439b-a7b4-0550bf15a6bf"},"vehicle_type_id":"4","last_reported":1729372125,"current_range_meters":25600,"station_id":"ce4bhgp2rcd13ifvqfd0","pricing_plan_id":"cebpf4jnsgd1na2vs0mg"},{"bike_id":"6aa99f06-dfb6-48a5-8719-6314fb12cad0","system_id":"levelo_inurba_marseille","lat":43.29561,"lon":5.42289,"is_reserved":false,"is_disabled":false,"rental_uris":{"android":"levelo://app?vid=6aa99f06-dfb6-48a5-8719-6314fb12cad0","ios":"levelo://app?vid=6aa99f06-dfb6-48a5-8719-6314fb12cad0"},"vehicle_type_id":"4","last_reported":1729372125,"current_range_meters":35200,"station_id":"ce4bhph2rcd13ifvqhdg","pricing_plan_id":"cebpf4jnsgd1na2vs0mg"},{"bike_id":"30afc095-2eb5-44fc-b1cb-b11054af9d9c","system_id":"levelo_inurba_marseille","lat":43.28402,"lon":5.37515,"is_reserved":false,"is_disabled":false,"rental_uris":{"android":"levelo://app?vid=30afc095-2eb5-44fc-b1cb-b11054af9d9c","ios":"levelo://app?vid=30afc095-2eb5-44fc-b1cb-b11054af9d9c"},"vehicle_type_id":"4","last_reported":1729372125,"current_range_meters":30400,"station_id":"ce4bh412rcd13ifvqds0","pricing_plan_id":"cebpf4jnsgd1na2vs0mg"},{"bike_id":"a9247564-b71c-42d3-a7af-078e1531397e","system_id":"levelo_inurba_marseille","lat":43.25089,"lon":5.39506,"is_reserved":false,"is_disabled":false,"rental_uris":{"android":"levelo://app?vid=a9247564-b71c-42d3-a7af-078e1531397e","ios":"levelo://app?vid=a9247564-b71c-42d3-a7af-078e1531397e"},"vehicle_type_id":"4","last_reported":1729372125,"current_range_meters":39200,"station_id":"ce4bhm12rcd13ifvqgkg","pricing_plan_id":"cebpf4jnsgd1na2vs0mg"},{"bike_id":"de206718-1487-4450-8315-833bcef54f97","system_id":"levelo_inurba_marseille","lat":43.32486,"lon":5.36572,"is_reserved":false,"is_disabled":false,"rental_uris":{"android":"levelo://app?vid=de206718-1487-4450-8315-833bcef54f97","ios":"levelo://app?vid=de206718-1487-4450-8315-833bcef54f97"},"vehicle_type_id":"4","last_reported":1729372125,"current_range_meters":38800,"station_id":"ce4bhs12rcd13ifvqhvg","pricing_plan_id":"cebpf4jnsgd1na2vs0mg"},{"bike_id":"35e7f867-368c-476c-a860-684a9be05389","system_id":"levelo_inurba_marseille","lat":43.2656,"lon":5.39004,"is_reserved":false,"is_disabled":false,"rental_uris":{"android":"levelo://app?vid=35e7f867-368c-476c-a860-684a9be05389","ios":"levelo://app?vid=35e7f867-368c-476c-a860-684a9be05389"},"vehicle_type_id":"4","last_reported":1729372125,"current_range_meters":38800,"station_id":"ce4bhe12rcd13ifvqf30","pricing_plan_id":"cebpf4jnsgd1na2vs0mg"},{"bike_id":"e9370aaf-852b-4ddb-b814-2342e3b98ec4","system_id":"levelo_inurba_marseille","lat":43.29022,"lon":5.38628,"is_reserved":false,"is_disabled":false,"rental_uris":{"android":"levelo://app?vid=e9370aaf-852b-4ddb-b814-2342e3b98ec4","ios":"levelo://app?vid=e9370aaf-852b-4ddb-b814-2342e3b98ec4"},"vehicle_type_id":"4","last_reported":1729372125,"current_range_meters":38400,"station_id":"ce4bh4p2rcd13ifvqe0g","pricing_plan_id":"cebpf4jnsgd1na2vs0mg"},{"bike_id":"f835791a-40ff-4fab-994b-4f3755e6e522","system_id":"levelo_inurba_marseille","lat":43.28426,"lon":5.37514,"is_reserved":false,"is_disabled":false,"rental_uris":{"android":"levelo://app?vid=f835791a-40ff-4fab-994b-4f3755e6e522","ios":"levelo://app?vid=f835791a-40ff-4fab-994b-4f3755e6e522"},"vehicle_type_id":"4","last_reported":1729372125,"current_range_meters":26000,"station_id":"ce4bh412rcd13ifvqds0","pricing_plan_id":"cebpf4jnsgd1na2vs0mg"},{"bike_id":"8d99d55a-7b47-40c1-ad7b-8d15db9ce591","system_id":"levelo_inurba_marseille","lat":43.25116,"lon":5.40322,"is_reserved":false,"is_disabled":false,"rental_uris":{"android":"levelo://app?vid=8d99d55a-7b47-40c1-ad7b-8d15db9ce591","ios":"levelo://app?vid=8d99d55a-7b47-40c1-ad7b-8d15db9ce591"},"vehicle_type_id":"4","last_reported":1729372125,"current_range_meters":38800,"station_id":"ce4bhlh2rcd13ifvqgig","pricing_plan_id":"cebpf4jnsgd1na2vs0mg"},{"bike_id":"edd9209c-a9a6-48d3-b3c7-d241b6c7ad7c","system_id":"levelo_inurba_marseille","lat":43.31717,"lon":5.38289,"is_reserved":false,"is_disabled":false,"rental_uris":{"android":"levelo://app?vid=edd9209c-a9a6-48d3-b3c7-d241b6c7ad7c","ios":"levelo://app?vid=edd9209c-a9a6-48d3-b3c7-d241b6c7ad7c"},"vehicle_type_id":"4","last_reported":1729372125,"current_range_meters":36800,"station_id":"ce4bhr12rcd13ifvqhqg","pricing_plan_id":"cebpf4jnsgd1na2vs0mg"},{"bike_id":"14c05e35-ac2d-4eaf-bbf8-df9c4897f4a9","system_id":"levelo_inurba_marseille","lat":43.28682,"lon":5.36352,"is_reserved":false,"is_disabled":false,"rental_uris":{"android":"levelo://app?vid=14c05e35-ac2d-4eaf-bbf8-df9c4897f4a9","ios":"levelo://app?vid=14c05e35-ac2d-4eaf-bbf8-df9c4897f4a9"},"vehicle_type_id":"4","last_reported":1729372125,"current_range_meters":11200,"station_id":"ce4bhah2rcd13ifvqej0","pricing_plan_id":"cebpf4jnsgd1na2vs0mg"},{"bike_id":"fe2c5efc-0fec-40ae-8c77-00fb773d9638","system_id":"levelo_inurba_marseille","lat":43.29206,"lon":5.39324,"is_reserved":false,"is_disabled":false,"rental_uris":{"android":"levelo://app?vid=fe2c5efc-0fec-40ae-8c77-00fb773d9638","ios":"levelo://app?vid=fe2c5efc-0fec-40ae-8c77-00fb773d9638"},"vehicle_type_id":"4","last_reported":1729372125,"current_range_meters":19200,"station_id":"ce4bh192rcd13ifvqdd0","pricing_plan_id":"cebpf4jnsgd1na2vs0mg"},{"bike_id":"96c7d42c-9f4b-497c-ac11-1223fa401ea1","system_id":"levelo_inurba_marseille","lat":43.29978,"lon":5.37171,"is_reserved":false,"is_disabled":false,"rental_uris":{"android":"levelo://app?vid=96c7d42c-9f4b-497c-ac11-1223fa401ea1","ios":"levelo://app?vid=96c7d42c-9f4b-497c-ac11-1223fa401ea1"},"vehicle_type_id":"4","last_reported":1729372125,"current_range_meters":38800,"station_id":"ce4bgr92rcd13ifvqc7g","pricing_plan_id":"cebpf4jnsgd1na2vs0mg"},{"bike_id":"43d24770-4ece-4a77-a029-fe46e9bde13b","system_id":"levelo_inurba_marseille","lat":43.32107,"lon":5.36779,"is_reserved":false,"is_disabled":false,"rental_uris":{"android":"levelo://app?vid=43d24770-4ece-4a77-a029-fe46e9bde13b","ios":"levelo://app?vid=43d24770-4ece-4a77-a029-fe46e9bde13b"},"vehicle_type_id":"4","last_reported":1729372125,"current_range_meters":38800,"station_id":"ce4bhrh2rcd13ifvqhug","pricing_plan_id":"cebpf4jnsgd1na2vs0mg"},{"bike_id":"08769619-3f21-4bc0-bfc2-be3c72fea16d","system_id":"levelo_inurba_marseille","lat":43.294184,"lon":5.386255,"is_reserved":false,"is_disabled":false,"rental_uris":{"android":"levelo://app?vid=08769619-3f21-4bc0-bfc2-be3c72fea16d","ios":"levelo://app?vid=08769619-3f21-4bc0-bfc2-be3c72fea16d"},"vehicle_type_id":"4","last_reported":1729372125,"current_range_meters":6000,"station_id":"ce4bh2h2rcd13ifvqdh0","pricing_plan_id":"cebpf4jnsgd1na2vs0mg"},{"bike_id":"0e850293-9f68-4c2c-9bc1-b43bcb22921b","system_id":"levelo_inurba_marseille","lat":43.2481,"lon":5.37455,"is_reserved":false,"is_disabled":false,"rental_uris":{"android":"levelo://app?vid=0e850293-9f68-4c2c-9bc1-b43bcb22921b","ios":"levelo://app?vid=0e850293-9f68-4c2c-9bc1-b43bcb22921b"},"vehicle_type_id":"4","last_reported":1729372125,"current_range_meters":18000,"station_id":"ce4bhgh2rcd13ifvqfb0","pricing_plan_id":"cebpf4jnsgd1na2vs0mg"},{"bike_id":"df0764bb-73ac-46d7-903f-a26945b45d7c","system_id":"levelo_inurba_marseille","lat":43.24622,"lon":5.41608,"is_reserved":false,"is_disabled":false,"rental_uris":{"android":"levelo://app?vid=df0764bb-73ac-46d7-903f-a26945b45d7c","ios":"levelo://app?vid=df0764bb-73ac-46d7-903f-a26945b45d7c"},"vehicle_type_id":"4","last_reported":1729372125,"current_range_meters":27600,"station_id":"","pricing_plan_id":"cebpf4jnsgd1na2vs0mg"},{"bike_id":"766da900-471d-42f5-8cfa-8db494f945d7","system_id":"levelo_inurba_marseille","lat":43.28907,"lon":5.46062,"is_reserved":false,"is_disabled":false,"rental_uris":{"android":"levelo://app?vid=766da900-471d-42f5-8cfa-8db494f945d7","ios":"levelo://app?vid=766da900-471d-42f5-8cfa-8db494f945d7"},"vehicle_type_id":"4","last_reported":1729372125,"current_range_meters":27600,"station_id":"","pricing_plan_id":"cebpf4jnsgd1na2vs0mg"},{"bike_id":"e700e4d8-85f6-44d8-80b4-4749efe0ea4f","system_id":"levelo_inurba_marseille","lat":43.291964,"lon":5.393255,"is_reserved":false,"is_disabled":false,"rental_uris":{"android":"levelo://app?vid=e700e4d8-85f6-44d8-80b4-4749efe0ea4f","ios":"levelo://app?vid=e700e4d8-85f6-44d8-80b4-4749efe0ea4f"},"vehicle_type_id":"4","last_reported":1729372125,"current_range_meters":12800,"station_id":"ce4bh192rcd13ifvqdd0","pricing_plan_id":"cebpf4jnsgd1na2vs0mg"},{"bike_id":"e38cebe3-de9f-4f71-84f6-cc3bf4cdce6c","system_id":"levelo_inurba_marseille","lat":43.24169,"lon":5.36395,"is_reserved":false,"is_disabled":false,"rental_uris":{"android":"levelo://app?vid=e38cebe3-de9f-4f71-84f6-cc3bf4cdce6c","ios":"levelo://app?vid=e38cebe3-de9f-4f71-84f6-cc3bf4cdce6c"},"vehicle_type_id":"4","last_reported":1729372125,"current_range_meters":4400,"station_id":"cpo36qri1sfpv3e86is0","pricing_plan_id":"cebpf4jnsgd1na2vs0mg"},{"bike_id":"11250d95-a154-405d-a159-d37531806a1a","system_id":"levelo_inurba_marseille","lat":43.25116,"lon":5.40321,"is_reserved":false,"is_disabled":false,"rental_uris":{"android":"levelo://app?vid=11250d95-a154-405d-a159-d37531806a1a","ios":"levelo://app?vid=11250d95-a154-405d-a159-d37531806a1a"},"vehicle_type_id":"4","last_reported":1729372125,"current_range_meters":10000,"station_id":"ce4bhlh2rcd13ifvqgig","pricing_plan_id":"cebpf4jnsgd1na2vs0mg"},{"bike_id":"f7d6820f-0e1a-4435-a548-74f0e2f37202","system_id":"levelo_inurba_marseille","lat":43.28098,"lon":5.37841,"is_reserved":false,"is_disabled":false,"rental_uris":{"android":"levelo://app?vid=f7d6820f-0e1a-4435-a548-74f0e2f37202","ios":"levelo://app?vid=f7d6820f-0e1a-4435-a548-74f0e2f37202"},"vehicle_type_id":"4","last_reported":1729372125,"current_range_meters":20400,"station_id":"ce4bha12rcd13ifvqee0","pricing_plan_id":"cebpf4jnsgd1na2vs0mg"},{"bike_id":"ab3708dc-2324-4d77-ac1a-38c928b735aa","system_id":"levelo_inurba_marseille","lat":43.28104,"lon":5.37829,"is_reserved":false,"is_disabled":false,"rental_uris":{"android":"levelo://app?vid=ab3708dc-2324-4d77-ac1a-38c928b735aa","ios":"levelo://app?vid=ab3708dc-2324-4d77-ac1a-38c928b735aa"},"vehicle_type_id":"4","last_reported":1729372125,"current_range_meters":32000,"station_id":"ce4bha12rcd13ifvqee0","pricing_plan_id":"cebpf4jnsgd1na2vs0mg"},{"bike_id":"7eaa1d8f-4aeb-45a6-a3a0-641b91ef0dc1","system_id":"levelo_inurba_marseille","lat":43.27169,"lon":5.40992,"is_reserved":false,"is_disabled":false,"rental_uris":{"android":"levelo://app?vid=7eaa1d8f-4aeb-45a6-a3a0-641b91ef0dc1","ios":"levelo://app?vid=7eaa1d8f-4aeb-45a6-a3a0-641b91ef0dc1"},"vehicle_type_id":"4","last_reported":1729372125,"current_range_meters":14000,"station_id":"ce4bhl12rcd13ifvqgf0","pricing_plan_id":"cebpf4jnsgd1na2vs0mg"},{"bike_id":"53da006f-0a9a-4ff4-88f5-d0c4ba125db4","system_id":"levelo_inurba_marseille","lat":43.293697,"lon":5.378349,"is_reserved":false,"is_disabled":false,"rental_uris":{"android":"levelo://app?vid=53da006f-0a9a-4ff4-88f5-d0c4ba125db4","ios":"levelo://app?vid=53da006f-0a9a-4ff4-88f5-d0c4ba125db4"},"vehicle_type_id":"4","last_reported":1729372125,"current_range_meters":22800,"station_id":"ce4bhi12rcd13ifvqfp0","pricing_plan_id":"cebpf4jnsgd1na2vs0mg"},{"bike_id":"c7284991-1cca-471c-9b05-e66856bb47d5","system_id":"levelo_inurba_marseille","lat":43.29274,"lon":5.4012,"is_reserved":false,"is_disabled":false,"rental_uris":{"android":"levelo://app?vid=c7284991-1cca-471c-9b05-e66856bb47d5","ios":"levelo://app?vid=c7284991-1cca-471c-9b05-e66856bb47d5"},"vehicle_type_id":"4","last_reported":1729372125,"current_range_meters":39200,"station_id":"ce4bh312rcd13ifvqdk0","pricing_plan_id":"cebpf4jnsgd1na2vs0mg"},{"bike_id":"e2f46a75-dcb6-4caf-a0f8-7199330d5441","system_id":"levelo_inurba_marseille","lat":43.29676,"lon":5.37281,"is_reserved":false,"is_disabled":false,"rental_uris":{"android":"levelo://app?vid=e2f46a75-dcb6-4caf-a0f8-7199330d5441","ios":"levelo://app?vid=e2f46a75-dcb6-4caf-a0f8-7199330d5441"},"vehicle_type_id":"4","last_reported":1729372125,"current_range_meters":36000,"station_id":"ce4bgk12rcd13ifvqbj0","pricing_plan_id":"cebpf4jnsgd1na2vs0mg"},{"bike_id":"0703a609-750a-418e-8d5b-a3f6f465eed8","system_id":"levelo_inurba_marseille","lat":43.30354,"lon":5.41871,"is_reserved":false,"is_disabled":false,"rental_uris":{"android":"levelo://app?vid=0703a609-750a-418e-8d5b-a3f6f465eed8","ios":"levelo://app?vid=0703a609-750a-418e-8d5b-a3f6f465eed8"},"vehicle_type_id":"4","last_reported":1729372125,"current_range_meters":37600,"station_id":"ce4bhop2rcd13ifvqh7g","pricing_plan_id":"cebpf4jnsgd1na2vs0mg"},{"bike_id":"afabffdf-be16-4400-bcb7-fe8ab1bfa39e","system_id":"levelo_inurba_marseille","lat":43.251251,"lon":5.387798,"is_reserved":false,"is_disabled":false,"rental_uris":{"android":"levelo://app?vid=afabffdf-be16-4400-bcb7-fe8ab1bfa39e","ios":"levelo://app?vid=afabffdf-be16-4400-bcb7-fe8ab1bfa39e"},"vehicle_type_id":"4","last_reported":1729372125,"current_range_meters":7200,"station_id":"","pricing_plan_id":"cebpf4jnsgd1na2vs0mg"},{"bike_id":"4158d4ef-7d68-469c-9874-e49eaf6f57e9","system_id":"levelo_inurba_marseille","lat":43.29251,"lon":5.40911,"is_reserved":false,"is_disabled":false,"rental_uris":{"android":"levelo://app?vid=4158d4ef-7d68-469c-9874-e49eaf6f57e9","ios":"levelo://app?vid=4158d4ef-7d68-469c-9874-e49eaf6f57e9"},"vehicle_type_id":"4","last_reported":1729372125,"current_range_meters":38800,"station_id":"ce4bh192rcd13ifvqdc0","pricing_plan_id":"cebpf4jnsgd1na2vs0mg"},{"bike_id":"b9cb22c7-965c-4a00-b135-6db2b2768363","system_id":"levelo_inurba_marseille","lat":43.29211,"lon":5.39328,"is_reserved":false,"is_disabled":false,"rental_uris":{"android":"levelo://app?vid=b9cb22c7-965c-4a00-b135-6db2b2768363","ios":"levelo://app?vid=b9cb22c7-965c-4a00-b135-6db2b2768363"},"vehicle_type_id":"4","last_reported":1729372125,"current_range_meters":22400,"station_id":"ce4bh192rcd13ifvqdd0","pricing_plan_id":"cebpf4jnsgd1na2vs0mg"},{"bike_id":"46fb0839-a2fc-48f3-988a-c0bec4f0a4d5","system_id":"levelo_inurba_marseille","lat":43.29271,"lon":5.38445,"is_reserved":false,"is_disabled":false,"rental_uris":{"android":"levelo://app?vid=46fb0839-a2fc-48f3-988a-c0bec4f0a4d5","ios":"levelo://app?vid=46fb0839-a2fc-48f3-988a-c0bec4f0a4d5"},"vehicle_type_id":"4","last_reported":1729372125,"current_range_meters":4800,"station_id":"","pricing_plan_id":"cebpf4jnsgd1na2vs0mg"},{"bike_id":"2910eaad-da2f-4396-abed-6a24ceae014b","system_id":"levelo_inurba_marseille","lat":43.303997,"lon":5.372977,"is_reserved":false,"is_disabled":false,"rental_uris":{"android":"levelo://app?vid=2910eaad-da2f-4396-abed-6a24ceae014b","ios":"levelo://app?vid=2910eaad-da2f-4396-abed-6a24ceae014b"},"vehicle_type_id":"4","last_reported":1729372125,"current_range_meters":20400,"station_id":"","pricing_plan_id":"cebpf4jnsgd1na2vs0mg"},{"bike_id":"f0385724-810a-4968-ae61-cc5eeffba3f4","system_id":"levelo_inurba_marseille","lat":43.31327,"lon":5.39697,"is_reserved":false,"is_disabled":false,"rental_uris":{"android":"levelo://app?vid=f0385724-810a-4968-ae61-cc5eeffba3f4","ios":"levelo://app?vid=f0385724-810a-4968-ae61-cc5eeffba3f4"},"vehicle_type_id":"4","last_reported":1729372125,"current_range_meters":27600,"station_id":"ce4bgvp2rcd13ifvqcu0","pricing_plan_id":"cebpf4jnsgd1na2vs0mg"},{"bike_id":"6e706dcb-6e41-41b6-a172-73765c66fdaa","system_id":"levelo_inurba_marseille","lat":43.26239,"lon":5.37591,"is_reserved":false,"is_disabled":false,"rental_uris":{"android":"levelo://app?vid=6e706dcb-6e41-41b6-a172-73765c66fdaa","ios":"levelo://app?vid=6e706dcb-6e41-41b6-a172-73765c66fdaa"},"vehicle_type_id":"4","last_reported":1729372125,"current_range_meters":36800,"station_id":"ce4bhhp2rcd13ifvqfm0","pricing_plan_id":"cebpf4jnsgd1na2vs0mg"},{"bike_id":"522bb5dc-efc4-45ac-a026-aafe838b2839","system_id":"levelo_inurba_marseille","lat":43.29783,"lon":5.3709,"is_reserved":false,"is_disabled":false,"rental_uris":{"android":"levelo://app?vid=522bb5dc-efc4-45ac-a026-aafe838b2839","ios":"levelo://app?vid=522bb5dc-efc4-45ac-a026-aafe838b2839"},"vehicle_type_id":"4","last_reported":1729372125,"current_range_meters":38800,"station_id":"ce4bgop2rcd13ifvqc1g","pricing_plan_id":"cebpf4jnsgd1na2vs0mg"},{"bike_id":"1d0123a6-a46a-4f0d-aa90-d1ca1d1a44c9","system_id":"levelo_inurba_marseille","lat":43.31328,"lon":5.39699,"is_reserved":false,"is_disabled":false,"rental_uris":{"android":"levelo://app?vid=1d0123a6-a46a-4f0d-aa90-d1ca1d1a44c9","ios":"levelo://app?vid=1d0123a6-a46a-4f0d-aa90-d1ca1d1a44c9"},"vehicle_type_id":"4","last_reported":1729372125,"current_range_meters":38800,"station_id":"ce4bgvp2rcd13ifvqcu0","pricing_plan_id":"cebpf4jnsgd1na2vs0mg"},{"bike_id":"8156d18d-8f08-4b79-9c19-5f4fe7e607c7","system_id":"levelo_inurba_marseille","lat":43.32656,"lon":5.40992,"is_reserved":false,"is_disabled":false,"rental_uris":{"android":"levelo://app?vid=8156d18d-8f08-4b79-9c19-5f4fe7e607c7","ios":"levelo://app?vid=8156d18d-8f08-4b79-9c19-5f4fe7e607c7"},"vehicle_type_id":"4","last_reported":1729372125,"current_range_meters":38800,"station_id":"ce4bhpp2rcd13ifvqhgg","pricing_plan_id":"cebpf4jnsgd1na2vs0mg"},{"bike_id":"7772d39f-5e28-445c-af91-069b0cf63793","system_id":"levelo_inurba_marseille","lat":43.33765,"lon":5.37438,"is_reserved":false,"is_disabled":false,"rental_uris":{"android":"levelo://app?vid=7772d39f-5e28-445c-af91-069b0cf63793","ios":"levelo://app?vid=7772d39f-5e28-445c-af91-069b0cf63793"},"vehicle_type_id":"4","last_reported":1729372125,"current_range_meters":7200,"station_id":"","pricing_plan_id":"cebpf4jnsgd1na2vs0mg"},{"bike_id":"733eb2c5-00ab-4d49-8038-dfb888b12557","system_id":"levelo_inurba_marseille","lat":43.3199,"lon":5.38146,"is_reserved":false,"is_disabled":false,"rental_uris":{"android":"levelo://app?vid=733eb2c5-00ab-4d49-8038-dfb888b12557","ios":"levelo://app?vid=733eb2c5-00ab-4d49-8038-dfb888b12557"},"vehicle_type_id":"4","last_reported":1729372125,"current_range_meters":36800,"station_id":"ce4bhr12rcd13ifvqhpg","pricing_plan_id":"cebpf4jnsgd1na2vs0mg"},{"bike_id":"3213665e-989c-4d22-9f5a-31c8522597dd","system_id":"levelo_inurba_marseille","lat":43.296,"lon":5.36142,"is_reserved":false,"is_disabled":false,"rental_uris":{"android":"levelo://app?vid=3213665e-989c-4d22-9f5a-31c8522597dd","ios":"levelo://app?vid=3213665e-989c-4d22-9f5a-31c8522597dd"},"vehicle_type_id":"4","last_reported":1729372125,"current_range_meters":17600,"station_id":"","pricing_plan_id":"cebpf4jnsgd1na2vs0mg"},{"bike_id":"c40b40ed-e49d-4c71-96d7-c3c654219825","system_id":"levelo_inurba_marseille","lat":43.309105,"lon":5.368498,"is_reserved":false,"is_disabled":false,"rental_uris":{"android":"levelo://app?vid=c40b40ed-e49d-4c71-96d7-c3c654219825","ios":"levelo://app?vid=c40b40ed-e49d-4c71-96d7-c3c654219825"},"vehicle_type_id":"4","last_reported":1729372125,"current_range_meters":12800,"station_id":"ce4bgn92rcd13ifvqbvg","pricing_plan_id":"cebpf4jnsgd1na2vs0mg"},{"bike_id":"09a1c59c-9906-4c94-966e-411f5a9bb215","system_id":"levelo_inurba_marseille","lat":43.27954,"lon":5.41037,"is_reserved":false,"is_disabled":false,"rental_uris":{"android":"levelo://app?vid=09a1c59c-9906-4c94-966e-411f5a9bb215","ios":"levelo://app?vid=09a1c59c-9906-4c94-966e-411f5a9bb215"},"vehicle_type_id":"4","last_reported":1729372125,"current_range_meters":8000,"station_id":"ce4bhnp2rcd13ifvqh0g","pricing_plan_id":"cebpf4jnsgd1na2vs0mg"},{"bike_id":"3f3c663d-a6fd-4091-8533-6c09ca965902","system_id":"levelo_inurba_marseille","lat":43.3119,"lon":5.37715,"is_reserved":false,"is_disabled":false,"rental_uris":{"android":"levelo://app?vid=3f3c663d-a6fd-4091-8533-6c09ca965902","ios":"levelo://app?vid=3f3c663d-a6fd-4091-8533-6c09ca965902"},"vehicle_type_id":"4","last_reported":1729372125,"current_range_meters":18000,"station_id":"","pricing_plan_id":"cebpf4jnsgd1na2vs0mg"},{"bike_id":"eb63ba09-6f9d-4cf6-88df-f95385f23699","system_id":"levelo_inurba_marseille","lat":43.25886,"lon":5.3945,"is_reserved":false,"is_disabled":false,"rental_uris":{"android":"levelo://app?vid=eb63ba09-6f9d-4cf6-88df-f95385f23699","ios":"levelo://app?vid=eb63ba09-6f9d-4cf6-88df-f95385f23699"},"vehicle_type_id":"4","last_reported":1729372125,"current_range_meters":39200,"station_id":"ce4bhip2rcd13ifvqft0","pricing_plan_id":"cebpf4jnsgd1na2vs0mg"},{"bike_id":"5dd719ab-a213-4094-b2e1-609f6924f39b","system_id":"levelo_inurba_marseille","lat":43.32001,"lon":5.38162,"is_reserved":false,"is_disabled":false,"rental_uris":{"android":"levelo://app?vid=5dd719ab-a213-4094-b2e1-609f6924f39b","ios":"levelo://app?vid=5dd719ab-a213-4094-b2e1-609f6924f39b"},"vehicle_type_id":"4","last_reported":1729372125,"current_range_meters":38400,"station_id":"ce4bhr12rcd13ifvqhpg","pricing_plan_id":"cebpf4jnsgd1na2vs0mg"},{"bike_id":"dd13cdb6-b3f8-44c0-bd53-9042589aae7d","system_id":"levelo_inurba_marseille","lat":43.28435,"lon":5.39189,"is_reserved":false,"is_disabled":false,"rental_uris":{"android":"levelo://app?vid=dd13cdb6-b3f8-44c0-bd53-9042589aae7d","ios":"levelo://app?vid=dd13cdb6-b3f8-44c0-bd53-9042589aae7d"},"vehicle_type_id":"4","last_reported":1729372125,"current_range_meters":14000,"station_id":"ce4bhoh2rcd13ifvqh5g","pricing_plan_id":"cebpf4jnsgd1na2vs0mg"},{"bike_id":"8e3aae00-e224-4e62-89fd-ad80713ca34c","system_id":"levelo_inurba_marseille","lat":43.29531,"lon":5.38544,"is_reserved":false,"is_disabled":false,"rental_uris":{"android":"levelo://app?vid=8e3aae00-e224-4e62-89fd-ad80713ca34c","ios":"levelo://app?vid=8e3aae00-e224-4e62-89fd-ad80713ca34c"},"vehicle_type_id":"4","last_reported":1729372125,"current_range_meters":25600,"station_id":"ce4bgih2rcd13ifvqba0","pricing_plan_id":"cebpf4jnsgd1na2vs0mg"},{"bike_id":"5d78ae70-b0d9-4d81-bfab-36a0365b68a9","system_id":"levelo_inurba_marseille","lat":43.28616,"lon":5.35102,"is_reserved":false,"is_disabled":false,"rental_uris":{"android":"levelo://app?vid=5d78ae70-b0d9-4d81-bfab-36a0365b68a9","ios":"levelo://app?vid=5d78ae70-b0d9-4d81-bfab-36a0365b68a9"},"vehicle_type_id":"4","last_reported":1729372125,"current_range_meters":10800,"station_id":"ce4bhch2rcd13ifvqeug","pricing_plan_id":"cebpf4jnsgd1na2vs0mg"},{"bike_id":"00e7f300-5489-4a7b-806b-f9a497338933","system_id":"levelo_inurba_marseille","lat":43.251099,"lon":5.403269,"is_reserved":false,"is_disabled":false,"rental_uris":{"android":"levelo://app?vid=00e7f300-5489-4a7b-806b-f9a497338933","ios":"levelo://app?vid=00e7f300-5489-4a7b-806b-f9a497338933"},"vehicle_type_id":"4","last_reported":1729372125,"current_range_meters":19200,"station_id":"ce4bhmp2rcd13ifvqgog","pricing_plan_id":"cebpf4jnsgd1na2vs0mg"},{"bike_id":"528cfecd-4b00-42ac-aec9-c681ba5b962c","system_id":"levelo_inurba_marseille","lat":43.28616,"lon":5.35105,"is_reserved":false,"is_disabled":false,"rental_uris":{"android":"levelo://app?vid=528cfecd-4b00-42ac-aec9-c681ba5b962c","ios":"levelo://app?vid=528cfecd-4b00-42ac-aec9-c681ba5b962c"},"vehicle_type_id":"4","last_reported":1729372125,"current_range_meters":10000,"station_id":"ce4bhch2rcd13ifvqeug","pricing_plan_id":"cebpf4jnsgd1na2vs0mg"},{"bike_id":"c0c53861-3043-4619-8325-54fec77f8498","system_id":"levelo_inurba_marseille","lat":43.29262,"lon":5.38442,"is_reserved":false,"is_disabled":false,"rental_uris":{"android":"levelo://app?vid=c0c53861-3043-4619-8325-54fec77f8498","ios":"levelo://app?vid=c0c53861-3043-4619-8325-54fec77f8498"},"vehicle_type_id":"4","last_reported":1729372125,"current_range_meters":34800,"station_id":"","pricing_plan_id":"cebpf4jnsgd1na2vs0mg"},{"bike_id":"a1c7c1f1-673e-4524-91c3-759759d2b896","system_id":"levelo_inurba_marseille","lat":43.26954,"lon":5.38633,"is_reserved":false,"is_disabled":false,"rental_uris":{"android":"levelo://app?vid=a1c7c1f1-673e-4524-91c3-759759d2b896","ios":"levelo://app?vid=a1c7c1f1-673e-4524-91c3-759759d2b896"},"vehicle_type_id":"4","last_reported":1729372125,"current_range_meters":35600,"station_id":"ce4bhh92rcd13ifvqfh0","pricing_plan_id":"cebpf4jnsgd1na2vs0mg"},{"bike_id":"5f181de5-971b-4e62-8fe1-4fbba3f53f7e","system_id":"levelo_inurba_marseille","lat":43.31329,"lon":5.39703,"is_reserved":false,"is_disabled":false,"rental_uris":{"android":"levelo://app?vid=5f181de5-971b-4e62-8fe1-4fbba3f53f7e","ios":"levelo://app?vid=5f181de5-971b-4e62-8fe1-4fbba3f53f7e"},"vehicle_type_id":"4","last_reported":1729372125,"current_range_meters":28000,"station_id":"ce4bgvp2rcd13ifvqcu0","pricing_plan_id":"cebpf4jnsgd1na2vs0mg"},{"bike_id":"5708f754-1ed8-4694-9ed3-7ce31d218685","system_id":"levelo_inurba_marseille","lat":43.2762,"lon":5.36103,"is_reserved":false,"is_disabled":false,"rental_uris":{"android":"levelo://app?vid=5708f754-1ed8-4694-9ed3-7ce31d218685","ios":"levelo://app?vid=5708f754-1ed8-4694-9ed3-7ce31d218685"},"vehicle_type_id":"4","last_reported":1729372125,"current_range_meters":12000,"station_id":"ce4bgj92rcd13ifvqbe0","pricing_plan_id":"cebpf4jnsgd1na2vs0mg"},{"bike_id":"88a6c16e-2cb9-4142-9434-e66382622780","system_id":"levelo_inurba_marseille","lat":43.323159,"lon":5.406162,"is_reserved":false,"is_disabled":false,"rental_uris":{"android":"levelo://app?vid=88a6c16e-2cb9-4142-9434-e66382622780","ios":"levelo://app?vid=88a6c16e-2cb9-4142-9434-e66382622780"},"vehicle_type_id":"4","last_reported":1729372125,"current_range_meters":20000,"station_id":"ce4bhq92rcd13ifvqhjg","pricing_plan_id":"cebpf4jnsgd1na2vs0mg"},{"bike_id":"82795302-3102-4f30-900c-f73639741617","system_id":"levelo_inurba_marseille","lat":43.3061,"lon":5.37225,"is_reserved":false,"is_disabled":false,"rental_uris":{"android":"levelo://app?vid=82795302-3102-4f30-900c-f73639741617","ios":"levelo://app?vid=82795302-3102-4f30-900c-f73639741617"},"vehicle_type_id":"4","last_reported":1729372125,"current_range_meters":12800,"station_id":"ce4bgqh2rcd13ifvqc4g","pricing_plan_id":"cebpf4jnsgd1na2vs0mg"},{"bike_id":"dae53619-76ff-4788-bb18-2752e957015f","system_id":"levelo_inurba_marseille","lat":43.28798,"lon":5.3825,"is_reserved":false,"is_disabled":false,"rental_uris":{"android":"levelo://app?vid=dae53619-76ff-4788-bb18-2752e957015f","ios":"levelo://app?vid=dae53619-76ff-4788-bb18-2752e957015f"},"vehicle_type_id":"4","last_reported":1729372125,"current_range_meters":32400,"station_id":"","pricing_plan_id":"cebpf4jnsgd1na2vs0mg"},{"bike_id":"5344feda-9ff7-4b8f-bbc2-e14fedd66b6e","system_id":"levelo_inurba_marseille","lat":43.32657,"lon":5.40986,"is_reserved":false,"is_disabled":false,"rental_uris":{"android":"levelo://app?vid=5344feda-9ff7-4b8f-bbc2-e14fedd66b6e","ios":"levelo://app?vid=5344feda-9ff7-4b8f-bbc2-e14fedd66b6e"},"vehicle_type_id":"4","last_reported":1729372125,"current_range_meters":38800,"station_id":"ce4bhpp2rcd13ifvqhgg","pricing_plan_id":"cebpf4jnsgd1na2vs0mg"},{"bike_id":"a50da574-03c5-475b-b6c5-e3885a5b2ef0","system_id":"levelo_inurba_marseille","lat":43.28152,"lon":5.42635,"is_reserved":false,"is_disabled":false,"rental_uris":{"android":"levelo://app?vid=a50da574-03c5-475b-b6c5-e3885a5b2ef0","ios":"levelo://app?vid=a50da574-03c5-475b-b6c5-e3885a5b2ef0"},"vehicle_type_id":"4","last_reported":1729372125,"current_range_meters":21600,"station_id":"ce4bhnh2rcd13ifvqgug","pricing_plan_id":"cebpf4jnsgd1na2vs0mg"},{"bike_id":"fac9a3a2-2dd0-4efd-afd6-73cc4f4edd9a","system_id":"levelo_inurba_marseille","lat":43.24809,"lon":5.37459,"is_reserved":false,"is_disabled":false,"rental_uris":{"android":"levelo://app?vid=fac9a3a2-2dd0-4efd-afd6-73cc4f4edd9a","ios":"levelo://app?vid=fac9a3a2-2dd0-4efd-afd6-73cc4f4edd9a"},"vehicle_type_id":"4","last_reported":1729372125,"current_range_meters":38800,"station_id":"ce4bhgh2rcd13ifvqfb0","pricing_plan_id":"cebpf4jnsgd1na2vs0mg"},{"bike_id":"d54514aa-5ff5-4b79-9622-5a41f3564ec9","system_id":"levelo_inurba_marseille","lat":43.31169,"lon":5.38718,"is_reserved":false,"is_disabled":false,"rental_uris":{"android":"levelo://app?vid=d54514aa-5ff5-4b79-9622-5a41f3564ec9","ios":"levelo://app?vid=d54514aa-5ff5-4b79-9622-5a41f3564ec9"},"vehicle_type_id":"4","last_reported":1729372125,"current_range_meters":5600,"station_id":"ce4bgv12rcd13ifvqcp0","pricing_plan_id":"cebpf4jnsgd1na2vs0mg"},{"bike_id":"7c795450-e862-41a2-a711-f5741f091cf9","system_id":"levelo_inurba_marseille","lat":43.22937,"lon":5.35378,"is_reserved":false,"is_disabled":false,"rental_uris":{"android":"levelo://app?vid=7c795450-e862-41a2-a711-f5741f091cf9","ios":"levelo://app?vid=7c795450-e862-41a2-a711-f5741f091cf9"},"vehicle_type_id":"4","last_reported":1729372125,"current_range_meters":30000,"station_id":"cpo3532slgdg3j2ikp40","pricing_plan_id":"cebpf4jnsgd1na2vs0mg"},{"bike_id":"975a1620-0a6d-4c4e-a1d9-1cac007aef6d","system_id":"levelo_inurba_marseille","lat":43.23152,"lon":5.4372,"is_reserved":false,"is_disabled":false,"rental_uris":{"android":"levelo://app?vid=975a1620-0a6d-4c4e-a1d9-1cac007aef6d","ios":"levelo://app?vid=975a1620-0a6d-4c4e-a1d9-1cac007aef6d"},"vehicle_type_id":"4","last_reported":1729372125,"current_range_meters":38400,"station_id":"ce4bhmp2rcd13ifvqgog","pricing_plan_id":"cebpf4jnsgd1na2vs0mg"},{"bike_id":"7c0bb2a2-31fd-41e4-9868-848a825d862d","system_id":"levelo_inurba_marseille","lat":43.24386,"lon":5.37057,"is_reserved":false,"is_disabled":false,"rental_uris":{"android":"levelo://app?vid=7c0bb2a2-31fd-41e4-9868-848a825d862d","ios":"levelo://app?vid=7c0bb2a2-31fd-41e4-9868-848a825d862d"},"vehicle_type_id":"4","last_reported":1729372125,"current_range_meters":14400,"station_id":"ce4bhhh2rcd13ifvqfk0","pricing_plan_id":"cebpf4jnsgd1na2vs0mg"},{"bike_id":"9fbaf6d7-d66f-469e-ad7b-e24f4ad62bf2","system_id":"levelo_inurba_marseille","lat":43.31123,"lon":5.37763,"is_reserved":false,"is_disabled":false,"rental_uris":{"android":"levelo://app?vid=9fbaf6d7-d66f-469e-ad7b-e24f4ad62bf2","ios":"levelo://app?vid=9fbaf6d7-d66f-469e-ad7b-e24f4ad62bf2"},"vehicle_type_id":"4","last_reported":1729372125,"current_range_meters":38800,"station_id":"ce4bgt92rcd13ifvqcg0","pricing_plan_id":"cebpf4jnsgd1na2vs0mg"},{"bike_id":"ceb1603d-2c49-4a2f-971f-80e7a3348d6a","system_id":"levelo_inurba_marseille","lat":43.33022,"lon":5.39055,"is_reserved":false,"is_disabled":false,"rental_uris":{"android":"levelo://app?vid=ceb1603d-2c49-4a2f-971f-80e7a3348d6a","ios":"levelo://app?vid=ceb1603d-2c49-4a2f-971f-80e7a3348d6a"},"vehicle_type_id":"4","last_reported":1729372125,"current_range_meters":19600,"station_id":"ce4bhr92rcd13ifvqhrg","pricing_plan_id":"cebpf4jnsgd1na2vs0mg"},{"bike_id":"9d6a8f96-db60-48f7-9705-56510acc06e4","system_id":"levelo_inurba_marseille","lat":43.28842,"lon":5.35841,"is_reserved":false,"is_disabled":false,"rental_uris":{"android":"levelo://app?vid=9d6a8f96-db60-48f7-9705-56510acc06e4","ios":"levelo://app?vid=9d6a8f96-db60-48f7-9705-56510acc06e4"},"vehicle_type_id":"4","last_reported":1729372125,"current_range_meters":32800,"station_id":"ce4bhb12rcd13ifvqem0","pricing_plan_id":"cebpf4jnsgd1na2vs0mg"},{"bike_id":"8f3e897c-091e-428e-92e2-05d32fbfe4e7","system_id":"levelo_inurba_marseille","lat":43.306,"lon":5.39348,"is_reserved":false,"is_disabled":false,"rental_uris":{"android":"levelo://app?vid=8f3e897c-091e-428e-92e2-05d32fbfe4e7","ios":"levelo://app?vid=8f3e897c-091e-428e-92e2-05d32fbfe4e7"},"vehicle_type_id":"4","last_reported":1729372125,"current_range_meters":32000,"station_id":"ce4bh0p2rcd13ifvqd80","pricing_plan_id":"cebpf4jnsgd1na2vs0mg"},{"bike_id":"2712a50f-61b7-42b9-8f6e-832dd119894e","system_id":"levelo_inurba_marseille","lat":43.29565,"lon":5.39971,"is_reserved":false,"is_disabled":false,"rental_uris":{"android":"levelo://app?vid=2712a50f-61b7-42b9-8f6e-832dd119894e","ios":"levelo://app?vid=2712a50f-61b7-42b9-8f6e-832dd119894e"},"vehicle_type_id":"4","last_reported":1729372125,"current_range_meters":38800,"station_id":"ce4bh312rcd13ifvqdj0","pricing_plan_id":"cebpf4jnsgd1na2vs0mg"},{"bike_id":"c34e2acb-3afe-4aa1-8cdb-c481d100b683","system_id":"levelo_inurba_marseille","lat":43.32486,"lon":5.36559,"is_reserved":false,"is_disabled":false,"rental_uris":{"android":"levelo://app?vid=c34e2acb-3afe-4aa1-8cdb-c481d100b683","ios":"levelo://app?vid=c34e2acb-3afe-4aa1-8cdb-c481d100b683"},"vehicle_type_id":"4","last_reported":1729372125,"current_range_meters":22800,"station_id":"ce4bhs12rcd13ifvqhvg","pricing_plan_id":"cebpf4jnsgd1na2vs0mg"},{"bike_id":"19e0c7ba-a3f7-43e2-aca8-366f22e4e87d","system_id":"levelo_inurba_marseille","lat":43.33728,"lon":5.39183,"is_reserved":false,"is_disabled":false,"rental_uris":{"android":"levelo://app?vid=19e0c7ba-a3f7-43e2-aca8-366f22e4e87d","ios":"levelo://app?vid=19e0c7ba-a3f7-43e2-aca8-366f22e4e87d"},"vehicle_type_id":"4","last_reported":1729372125,"current_range_meters":38800,"station_id":"ce4bhr92rcd13ifvqhsg","pricing_plan_id":"cebpf4jnsgd1na2vs0mg"},{"bike_id":"e5bee9a2-d951-49f9-bc3e-8da64d00955b","system_id":"levelo_inurba_marseille","lat":43.29205,"lon":5.39322,"is_reserved":false,"is_disabled":false,"rental_uris":{"android":"levelo://app?vid=e5bee9a2-d951-49f9-bc3e-8da64d00955b","ios":"levelo://app?vid=e5bee9a2-d951-49f9-bc3e-8da64d00955b"},"vehicle_type_id":"4","last_reported":1729372125,"current_range_meters":38800,"station_id":"ce4bh192rcd13ifvqdd0","pricing_plan_id":"cebpf4jnsgd1na2vs0mg"},{"bike_id":"9e293a23-55a9-42bf-a511-3206a2cf782d","system_id":"levelo_inurba_marseille","lat":43.30257,"lon":5.40075,"is_reserved":false,"is_disabled":false,"rental_uris":{"android":"levelo://app?vid=9e293a23-55a9-42bf-a511-3206a2cf782d","ios":"levelo://app?vid=9e293a23-55a9-42bf-a511-3206a2cf782d"},"vehicle_type_id":"4","last_reported":1729372125,"current_range_meters":8000,"station_id":"ce4bgvh2rcd13ifvqcs0","pricing_plan_id":"cebpf4jnsgd1na2vs0mg"},{"bike_id":"0176aaf7-b3c6-4930-ad5b-7ad988515c72","system_id":"levelo_inurba_marseille","lat":43.28441,"lon":5.39199,"is_reserved":false,"is_disabled":false,"rental_uris":{"android":"levelo://app?vid=0176aaf7-b3c6-4930-ad5b-7ad988515c72","ios":"levelo://app?vid=0176aaf7-b3c6-4930-ad5b-7ad988515c72"},"vehicle_type_id":"4","last_reported":1729372125,"current_range_meters":17600,"station_id":"ce4bhoh2rcd13ifvqh5g","pricing_plan_id":"cebpf4jnsgd1na2vs0mg"},{"bike_id":"da57fedc-7e7e-49e9-b674-21ebe804bbf1","system_id":"levelo_inurba_marseille","lat":43.31121,"lon":5.3777,"is_reserved":false,"is_disabled":false,"rental_uris":{"android":"levelo://app?vid=da57fedc-7e7e-49e9-b674-21ebe804bbf1","ios":"levelo://app?vid=da57fedc-7e7e-49e9-b674-21ebe804bbf1"},"vehicle_type_id":"4","last_reported":1729372125,"current_range_meters":32400,"station_id":"ce4bgt92rcd13ifvqcg0","pricing_plan_id":"cebpf4jnsgd1na2vs0mg"},{"bike_id":"0d39b898-1373-4834-bfc0-ea0e7966de5b","system_id":"levelo_inurba_marseille","lat":43.29539,"lon":5.38542,"is_reserved":false,"is_disabled":false,"rental_uris":{"android":"levelo://app?vid=0d39b898-1373-4834-bfc0-ea0e7966de5b","ios":"levelo://app?vid=0d39b898-1373-4834-bfc0-ea0e7966de5b"},"vehicle_type_id":"4","last_reported":1729372125,"current_range_meters":39200,"station_id":"ce4bgih2rcd13ifvqba0","pricing_plan_id":"cebpf4jnsgd1na2vs0mg"},{"bike_id":"6d448208-8c49-4ad9-bff0-d2fb75182db1","system_id":"levelo_inurba_marseille","lat":43.28714,"lon":5.36089,"is_reserved":false,"is_disabled":false,"rental_uris":{"android":"levelo://app?vid=6d448208-8c49-4ad9-bff0-d2fb75182db1","ios":"levelo://app?vid=6d448208-8c49-4ad9-bff0-d2fb75182db1"},"vehicle_type_id":"4","last_reported":1729372125,"current_range_meters":2800,"station_id":"cki0cbj6b192h4jlfktg","pricing_plan_id":"cebpf4jnsgd1na2vs0mg"},{"bike_id":"c9515746-ed3d-4c0e-bcd1-aa6f785d2e54","system_id":"levelo_inurba_marseille","lat":43.25493,"lon":5.37649,"is_reserved":false,"is_disabled":false,"rental_uris":{"android":"levelo://app?vid=c9515746-ed3d-4c0e-bcd1-aa6f785d2e54","ios":"levelo://app?vid=c9515746-ed3d-4c0e-bcd1-aa6f785d2e54"},"vehicle_type_id":"4","last_reported":1729372125,"current_range_meters":17200,"station_id":"ce4bhh12rcd13ifvqff0","pricing_plan_id":"cebpf4jnsgd1na2vs0mg"},{"bike_id":"c20966b6-ffc8-4c6f-bf62-6d2a5e9ebf5e","system_id":"levelo_inurba_marseille","lat":43.28672,"lon":5.36341,"is_reserved":false,"is_disabled":false,"rental_uris":{"android":"levelo://app?vid=c20966b6-ffc8-4c6f-bf62-6d2a5e9ebf5e","ios":"levelo://app?vid=c20966b6-ffc8-4c6f-bf62-6d2a5e9ebf5e"},"vehicle_type_id":"4","last_reported":1729372125,"current_range_meters":27600,"station_id":"ce4bhah2rcd13ifvqej0","pricing_plan_id":"cebpf4jnsgd1na2vs0mg"},{"bike_id":"3275310f-13c2-4828-8d4d-15d251282b8d","system_id":"levelo_inurba_marseille","lat":43.28417,"lon":5.3751,"is_reserved":false,"is_disabled":false,"rental_uris":{"android":"levelo://app?vid=3275310f-13c2-4828-8d4d-15d251282b8d","ios":"levelo://app?vid=3275310f-13c2-4828-8d4d-15d251282b8d"},"vehicle_type_id":"4","last_reported":1729372125,"current_range_meters":28000,"station_id":"ce4bh412rcd13ifvqds0","pricing_plan_id":"cebpf4jnsgd1na2vs0mg"},{"bike_id":"b93101f8-a05a-4fc2-b02f-4d966ae07023","system_id":"levelo_inurba_marseille","lat":43.31176,"lon":5.38707,"is_reserved":false,"is_disabled":false,"rental_uris":{"android":"levelo://app?vid=b93101f8-a05a-4fc2-b02f-4d966ae07023","ios":"levelo://app?vid=b93101f8-a05a-4fc2-b02f-4d966ae07023"},"vehicle_type_id":"4","last_reported":1729372125,"current_range_meters":39200,"station_id":"ce4bgv12rcd13ifvqcp0","pricing_plan_id":"cebpf4jnsgd1na2vs0mg"},{"bike_id":"979c9729-008f-48db-b338-59c5cff0384e","system_id":"levelo_inurba_marseille","lat":43.313429,"lon":5.367208,"is_reserved":false,"is_disabled":false,"rental_uris":{"android":"levelo://app?vid=979c9729-008f-48db-b338-59c5cff0384e","ios":"levelo://app?vid=979c9729-008f-48db-b338-59c5cff0384e"},"vehicle_type_id":"4","last_reported":1729372125,"current_range_meters":38800,"station_id":"ce4bgr92rcd13ifvqc6g","pricing_plan_id":"cebpf4jnsgd1na2vs0mg"},{"bike_id":"a2c57542-fec6-4057-b9ae-fe06aaf141e2","system_id":"levelo_inurba_marseille","lat":43.28615,"lon":5.3511,"is_reserved":false,"is_disabled":false,"rental_uris":{"android":"levelo://app?vid=a2c57542-fec6-4057-b9ae-fe06aaf141e2","ios":"levelo://app?vid=a2c57542-fec6-4057-b9ae-fe06aaf141e2"},"vehicle_type_id":"4","last_reported":1729372125,"current_range_meters":6800,"station_id":"ce4bhch2rcd13ifvqeug","pricing_plan_id":"cebpf4jnsgd1na2vs0mg"},{"bike_id":"fab72885-c1f9-4374-8e57-c96125602922","system_id":"levelo_inurba_marseille","lat":43.29533,"lon":5.38534,"is_reserved":false,"is_disabled":false,"rental_uris":{"android":"levelo://app?vid=fab72885-c1f9-4374-8e57-c96125602922","ios":"levelo://app?vid=fab72885-c1f9-4374-8e57-c96125602922"},"vehicle_type_id":"4","last_reported":1729372125,"current_range_meters":5600,"station_id":"ce4bgih2rcd13ifvqba0","pricing_plan_id":"cebpf4jnsgd1na2vs0mg"},{"bike_id":"fbdac3bf-82a9-48aa-9126-a52507838ce3","system_id":"levelo_inurba_marseille","lat":43.29637,"lon":5.37356,"is_reserved":false,"is_disabled":false,"rental_uris":{"android":"levelo://app?vid=fbdac3bf-82a9-48aa-9126-a52507838ce3","ios":"levelo://app?vid=fbdac3bf-82a9-48aa-9126-a52507838ce3"},"vehicle_type_id":"4","last_reported":1729372125,"current_range_meters":4800,"station_id":"","pricing_plan_id":"cebpf4jnsgd1na2vs0mg"},{"bike_id":"251c2ece-8912-4dfb-9847-d8f9ff013dd6","system_id":"levelo_inurba_marseille","lat":43.24655,"lon":5.389,"is_reserved":false,"is_disabled":false,"rental_uris":{"android":"levelo://app?vid=251c2ece-8912-4dfb-9847-d8f9ff013dd6","ios":"levelo://app?vid=251c2ece-8912-4dfb-9847-d8f9ff013dd6"},"vehicle_type_id":"4","last_reported":1729372125,"current_range_meters":24800,"station_id":"ce4bhg12rcd13ifvqf60","pricing_plan_id":"cebpf4jnsgd1na2vs0mg"},{"bike_id":"fcf42103-4b78-4bbb-9107-fb8e6a7cab3a","system_id":"levelo_inurba_marseille","lat":43.31071,"lon":5.38351,"is_reserved":false,"is_disabled":false,"rental_uris":{"android":"levelo://app?vid=fcf42103-4b78-4bbb-9107-fb8e6a7cab3a","ios":"levelo://app?vid=fcf42103-4b78-4bbb-9107-fb8e6a7cab3a"},"vehicle_type_id":"4","last_reported":1729372125,"current_range_meters":36400,"station_id":"ce4bgv92rcd13ifvqcr0","pricing_plan_id":"cebpf4jnsgd1na2vs0mg"},{"bike_id":"831694b9-27d1-4291-a73b-97f20f1db91f","system_id":"levelo_inurba_marseille","lat":43.25084,"lon":5.39529,"is_reserved":false,"is_disabled":false,"rental_uris":{"android":"levelo://app?vid=831694b9-27d1-4291-a73b-97f20f1db91f","ios":"levelo://app?vid=831694b9-27d1-4291-a73b-97f20f1db91f"},"vehicle_type_id":"4","last_reported":1729372125,"current_range_meters":39200,"station_id":"ce4bhm12rcd13ifvqgkg","pricing_plan_id":"cebpf4jnsgd1na2vs0mg"},{"bike_id":"0c4829f6-ddc4-4463-b763-9fb4711c5979","system_id":"levelo_inurba_marseille","lat":43.2857,"lon":5.3949,"is_reserved":false,"is_disabled":false,"rental_uris":{"android":"levelo://app?vid=0c4829f6-ddc4-4463-b763-9fb4711c5979","ios":"levelo://app?vid=0c4829f6-ddc4-4463-b763-9fb4711c5979"},"vehicle_type_id":"4","last_reported":1729372125,"current_range_meters":19600,"station_id":"ce4bh292rcd13ifvqdg0","pricing_plan_id":"cebpf4jnsgd1na2vs0mg"},{"bike_id":"48cfdb9c-e73d-4b76-a21b-179a33e07bed","system_id":"levelo_inurba_marseille","lat":43.27942,"lon":5.41052,"is_reserved":false,"is_disabled":false,"rental_uris":{"android":"levelo://app?vid=48cfdb9c-e73d-4b76-a21b-179a33e07bed","ios":"levelo://app?vid=48cfdb9c-e73d-4b76-a21b-179a33e07bed"},"vehicle_type_id":"4","last_reported":1729372125,"current_range_meters":38400,"station_id":"ce4bhnp2rcd13ifvqh0g","pricing_plan_id":"cebpf4jnsgd1na2vs0mg"},{"bike_id":"1388a0fb-36a9-4053-a200-70ab19c37efb","system_id":"levelo_inurba_marseille","lat":43.29601,"lon":5.381,"is_reserved":false,"is_disabled":false,"rental_uris":{"android":"levelo://app?vid=1388a0fb-36a9-4053-a200-70ab19c37efb","ios":"levelo://app?vid=1388a0fb-36a9-4053-a200-70ab19c37efb"},"vehicle_type_id":"4","last_reported":1729372125,"current_range_meters":14000,"station_id":"ce4bgl12rcd13ifvqbo0","pricing_plan_id":"cebpf4jnsgd1na2vs0mg"},{"bike_id":"13150624-9a81-4783-86f9-f747dfbbbc2d","system_id":"levelo_inurba_marseille","lat":43.30953,"lon":5.39039,"is_reserved":false,"is_disabled":false,"rental_uris":{"android":"levelo://app?vid=13150624-9a81-4783-86f9-f747dfbbbc2d","ios":"levelo://app?vid=13150624-9a81-4783-86f9-f747dfbbbc2d"},"vehicle_type_id":"4","last_reported":1729372125,"current_range_meters":13600,"station_id":"ce4bgup2rcd13ifvqco0","pricing_plan_id":"cebpf4jnsgd1na2vs0mg"},{"bike_id":"a7aea0df-c7ce-439f-813a-b71c43ca758f","system_id":"levelo_inurba_marseille","lat":43.280381,"lon":5.369417,"is_reserved":false,"is_disabled":false,"rental_uris":{"android":"levelo://app?vid=a7aea0df-c7ce-439f-813a-b71c43ca758f","ios":"levelo://app?vid=a7aea0df-c7ce-439f-813a-b71c43ca758f"},"vehicle_type_id":"4","last_reported":1729372125,"current_range_meters":25200,"station_id":"ce4bha12rcd13ifvqef0","pricing_plan_id":"cebpf4jnsgd1na2vs0mg"},{"bike_id":"02b99d41-0727-45dd-8b05-f76d6d331f44","system_id":"levelo_inurba_marseille","lat":43.28105,"lon":5.37845,"is_reserved":false,"is_disabled":false,"rental_uris":{"android":"levelo://app?vid=02b99d41-0727-45dd-8b05-f76d6d331f44","ios":"levelo://app?vid=02b99d41-0727-45dd-8b05-f76d6d331f44"},"vehicle_type_id":"4","last_reported":1729372125,"current_range_meters":14800,"station_id":"ce4bha12rcd13ifvqee0","pricing_plan_id":"cebpf4jnsgd1na2vs0mg"},{"bike_id":"f3b18d4c-688e-4e02-9104-7f1d559134af","system_id":"levelo_inurba_marseille","lat":43.32102,"lon":5.36778,"is_reserved":false,"is_disabled":false,"rental_uris":{"android":"levelo://app?vid=f3b18d4c-688e-4e02-9104-7f1d559134af","ios":"levelo://app?vid=f3b18d4c-688e-4e02-9104-7f1d559134af"},"vehicle_type_id":"4","last_reported":1729372125,"current_range_meters":38800,"station_id":"ce4bhrh2rcd13ifvqhug","pricing_plan_id":"cebpf4jnsgd1na2vs0mg"},{"bike_id":"58b2a8af-3923-4035-8218-400aa216954a","system_id":"levelo_inurba_marseille","lat":43.25719,"lon":5.41117,"is_reserved":false,"is_disabled":false,"rental_uris":{"android":"levelo://app?vid=58b2a8af-3923-4035-8218-400aa216954a","ios":"levelo://app?vid=58b2a8af-3923-4035-8218-400aa216954a"},"vehicle_type_id":"4","last_reported":1729372125,"current_range_meters":14400,"station_id":"ce4bhkp2rcd13ifvqgd0","pricing_plan_id":"cebpf4jnsgd1na2vs0mg"},{"bike_id":"85a1831a-901f-497f-ae9a-0611d81bbbd8","system_id":"levelo_inurba_marseille","lat":43.29868,"lon":5.39729,"is_reserved":false,"is_disabled":false,"rental_uris":{"android":"levelo://app?vid=85a1831a-901f-497f-ae9a-0611d81bbbd8","ios":"levelo://app?vid=85a1831a-901f-497f-ae9a-0611d81bbbd8"},"vehicle_type_id":"4","last_reported":1729372125,"current_range_meters":5600,"station_id":"ce4bh0h2rcd13ifvqd50","pricing_plan_id":"cebpf4jnsgd1na2vs0mg"},{"bike_id":"fc9b3fc1-600b-416a-b916-9cf37562dae6","system_id":"levelo_inurba_marseille","lat":43.31324,"lon":5.39689,"is_reserved":false,"is_disabled":false,"rental_uris":{"android":"levelo://app?vid=fc9b3fc1-600b-416a-b916-9cf37562dae6","ios":"levelo://app?vid=fc9b3fc1-600b-416a-b916-9cf37562dae6"},"vehicle_type_id":"4","last_reported":1729372125,"current_range_meters":35600,"station_id":"ce4bgvp2rcd13ifvqcu0","pricing_plan_id":"cebpf4jnsgd1na2vs0mg"},{"bike_id":"8a61b0d3-96ba-49fc-af75-dd8176297036","system_id":"levelo_inurba_marseille","lat":43.23955,"lon":5.36633,"is_reserved":false,"is_disabled":false,"rental_uris":{"android":"levelo://app?vid=8a61b0d3-96ba-49fc-af75-dd8176297036","ios":"levelo://app?vid=8a61b0d3-96ba-49fc-af75-dd8176297036"},"vehicle_type_id":"4","last_reported":1729372125,"current_range_meters":12800,"station_id":"ce4bhi12rcd13ifvqfp0","pricing_plan_id":"cebpf4jnsgd1na2vs0mg"},{"bike_id":"2338db03-2140-4a5e-bee4-a182c603e1d0","system_id":"levelo_inurba_marseille","lat":43.30091,"lon":5.39075,"is_reserved":false,"is_disabled":false,"rental_uris":{"android":"levelo://app?vid=2338db03-2140-4a5e-bee4-a182c603e1d0","ios":"levelo://app?vid=2338db03-2140-4a5e-bee4-a182c603e1d0"},"vehicle_type_id":"4","last_reported":1729372125,"current_range_meters":38000,"station_id":"ce4bh192rcd13ifvqdb0","pricing_plan_id":"cebpf4jnsgd1na2vs0mg"},{"bike_id":"36043e0b-7b64-462d-a254-7031cb4a5269","system_id":"levelo_inurba_marseille","lat":43.29531,"lon":5.38534,"is_reserved":false,"is_disabled":false,"rental_uris":{"android":"levelo://app?vid=36043e0b-7b64-462d-a254-7031cb4a5269","ios":"levelo://app?vid=36043e0b-7b64-462d-a254-7031cb4a5269"},"vehicle_type_id":"4","last_reported":1729372125,"current_range_meters":38800,"station_id":"ce4bgih2rcd13ifvqba0","pricing_plan_id":"cebpf4jnsgd1na2vs0mg"},{"bike_id":"85d3ade6-3665-431a-a885-89ce0aed83ce","system_id":"levelo_inurba_marseille","lat":43.33603,"lon":5.41025,"is_reserved":false,"is_disabled":false,"rental_uris":{"android":"levelo://app?vid=85d3ade6-3665-431a-a885-89ce0aed83ce","ios":"levelo://app?vid=85d3ade6-3665-431a-a885-89ce0aed83ce"},"vehicle_type_id":"4","last_reported":1729372125,"current_range_meters":20000,"station_id":"ce4bhqh2rcd13ifvqhmg","pricing_plan_id":"cebpf4jnsgd1na2vs0mg"},{"bike_id":"b655f0e5-9f54-4337-9f8f-e40c329da075","system_id":"levelo_inurba_marseille","lat":43.29326,"lon":5.37501,"is_reserved":false,"is_disabled":false,"rental_uris":{"android":"levelo://app?vid=b655f0e5-9f54-4337-9f8f-e40c329da075","ios":"levelo://app?vid=b655f0e5-9f54-4337-9f8f-e40c329da075"},"vehicle_type_id":"4","last_reported":1729372125,"current_range_meters":5600,"station_id":"ce4bgi12rcd13ifvqb70","pricing_plan_id":"cebpf4jnsgd1na2vs0mg"},{"bike_id":"cdf4a075-8eed-49b4-b191-fd4b5f8e3f68","system_id":"levelo_inurba_marseille","lat":43.29206,"lon":5.39313,"is_reserved":false,"is_disabled":false,"rental_uris":{"android":"levelo://app?vid=cdf4a075-8eed-49b4-b191-fd4b5f8e3f68","ios":"levelo://app?vid=cdf4a075-8eed-49b4-b191-fd4b5f8e3f68"},"vehicle_type_id":"4","last_reported":1729372125,"current_range_meters":6000,"station_id":"ce4bh192rcd13ifvqdd0","pricing_plan_id":"cebpf4jnsgd1na2vs0mg"},{"bike_id":"145acf84-c52d-4513-b141-f9f9270aae43","system_id":"levelo_inurba_marseille","lat":43.27672,"lon":5.38875,"is_reserved":false,"is_disabled":false,"rental_uris":{"android":"levelo://app?vid=145acf84-c52d-4513-b141-f9f9270aae43","ios":"levelo://app?vid=145acf84-c52d-4513-b141-f9f9270aae43"},"vehicle_type_id":"4","last_reported":1729372125,"current_range_meters":2800,"station_id":"ce4bhi12rcd13ifvqfo0","pricing_plan_id":"cebpf4jnsgd1na2vs0mg"},{"bike_id":"4bf55028-1f3b-4ba4-8213-41d51ed4fd2b","system_id":"levelo_inurba_marseille","lat":43.31067,"lon":5.38345,"is_reserved":false,"is_disabled":false,"rental_uris":{"android":"levelo://app?vid=4bf55028-1f3b-4ba4-8213-41d51ed4fd2b","ios":"levelo://app?vid=4bf55028-1f3b-4ba4-8213-41d51ed4fd2b"},"vehicle_type_id":"4","last_reported":1729372125,"current_range_meters":34800,"station_id":"ce4bgv92rcd13ifvqcr0","pricing_plan_id":"cebpf4jnsgd1na2vs0mg"},{"bike_id":"3fe0d84a-1539-4a2d-b461-eabcc0e083c1","system_id":"levelo_inurba_marseille","lat":43.27192,"lon":5.40994,"is_reserved":false,"is_disabled":false,"rental_uris":{"android":"levelo://app?vid=3fe0d84a-1539-4a2d-b461-eabcc0e083c1","ios":"levelo://app?vid=3fe0d84a-1539-4a2d-b461-eabcc0e083c1"},"vehicle_type_id":"4","last_reported":1729372125,"current_range_meters":19200,"station_id":"ce4bhl12rcd13ifvqgf0","pricing_plan_id":"cebpf4jnsgd1na2vs0mg"},{"bike_id":"d471351f-a112-4ff7-b234-0d1a60bc7f51","system_id":"levelo_inurba_marseille","lat":43.290037,"lon":5.356184,"is_reserved":false,"is_disabled":false,"rental_uris":{"android":"levelo://app?vid=d471351f-a112-4ff7-b234-0d1a60bc7f51","ios":"levelo://app?vid=d471351f-a112-4ff7-b234-0d1a60bc7f51"},"vehicle_type_id":"4","last_reported":1729372125,"current_range_meters":38000,"station_id":"ce4bhb92rcd13ifvqen0","pricing_plan_id":"cebpf4jnsgd1na2vs0mg"},{"bike_id":"690c3bd3-533e-44eb-b3b3-37cae0a00352","system_id":"levelo_inurba_marseille","lat":43.30322,"lon":5.40442,"is_reserved":false,"is_disabled":false,"rental_uris":{"android":"levelo://app?vid=690c3bd3-533e-44eb-b3b3-37cae0a00352","ios":"levelo://app?vid=690c3bd3-533e-44eb-b3b3-37cae0a00352"},"vehicle_type_id":"4","last_reported":1729372125,"current_range_meters":4000,"station_id":"ce4bh012rcd13ifvqd10","pricing_plan_id":"cebpf4jnsgd1na2vs0mg"},{"bike_id":"791adc2d-ad47-495f-963f-2f85039975df","system_id":"levelo_inurba_marseille","lat":43.31233,"lon":5.36849,"is_reserved":false,"is_disabled":false,"rental_uris":{"android":"levelo://app?vid=791adc2d-ad47-495f-963f-2f85039975df","ios":"levelo://app?vid=791adc2d-ad47-495f-963f-2f85039975df"},"vehicle_type_id":"4","last_reported":1729372125,"current_range_meters":39200,"station_id":"ce4bgl92rcd13ifvqbq0","pricing_plan_id":"cebpf4jnsgd1na2vs0mg"},{"bike_id":"49b278fa-7ba3-49ad-963c-f5eff8426cf1","system_id":"levelo_inurba_marseille","lat":43.29879,"lon":5.39749,"is_reserved":false,"is_disabled":false,"rental_uris":{"android":"levelo://app?vid=49b278fa-7ba3-49ad-963c-f5eff8426cf1","ios":"levelo://app?vid=49b278fa-7ba3-49ad-963c-f5eff8426cf1"},"vehicle_type_id":"4","last_reported":1729372125,"current_range_meters":22000,"station_id":"ce4bh0h2rcd13ifvqd50","pricing_plan_id":"cebpf4jnsgd1na2vs0mg"},{"bike_id":"838948a7-5ca0-4242-8e63-880c98c2871c","system_id":"levelo_inurba_marseille","lat":43.30805,"lon":5.43524,"is_reserved":false,"is_disabled":false,"rental_uris":{"android":"levelo://app?vid=838948a7-5ca0-4242-8e63-880c98c2871c","ios":"levelo://app?vid=838948a7-5ca0-4242-8e63-880c98c2871c"},"vehicle_type_id":"4","last_reported":1729372125,"current_range_meters":38000,"station_id":"ce4bhph2rcd13ifvqheg","pricing_plan_id":"cebpf4jnsgd1na2vs0mg"},{"bike_id":"5394e624-c4df-478f-8acb-d0dfad33bd36","system_id":"levelo_inurba_marseille","lat":43.290009,"lon":5.356181,"is_reserved":false,"is_disabled":false,"rental_uris":{"android":"levelo://app?vid=5394e624-c4df-478f-8acb-d0dfad33bd36","ios":"levelo://app?vid=5394e624-c4df-478f-8acb-d0dfad33bd36"},"vehicle_type_id":"4","last_reported":1729372125,"current_range_meters":22800,"station_id":"","pricing_plan_id":"cebpf4jnsgd1na2vs0mg"},{"bike_id":"bdaf4cca-3144-4b46-87aa-d2e662c78d1a","system_id":"levelo_inurba_marseille","lat":43.30892,"lon":5.39646,"is_reserved":false,"is_disabled":false,"rental_uris":{"android":"levelo://app?vid=bdaf4cca-3144-4b46-87aa-d2e662c78d1a","ios":"levelo://app?vid=bdaf4cca-3144-4b46-87aa-d2e662c78d1a"},"vehicle_type_id":"4","last_reported":1729372125,"current_range_meters":24000,"station_id":"ce4bh012rcd13ifvqcv0","pricing_plan_id":"cebpf4jnsgd1na2vs0mg"},{"bike_id":"91f81752-8770-4b0a-9e40-955fd247e0d8","system_id":"levelo_inurba_marseille","lat":43.2586,"lon":5.39906,"is_reserved":false,"is_disabled":false,"rental_uris":{"android":"levelo://app?vid=91f81752-8770-4b0a-9e40-955fd247e0d8","ios":"levelo://app?vid=91f81752-8770-4b0a-9e40-955fd247e0d8"},"vehicle_type_id":"4","last_reported":1729372125,"current_range_meters":38800,"station_id":"ce4bhl92rcd13ifvqghg","pricing_plan_id":"cebpf4jnsgd1na2vs0mg"},{"bike_id":"35ad3b2b-aed2-40ac-9d12-ceed8d94ee92","system_id":"levelo_inurba_marseille","lat":43.290369,"lon":5.359164,"is_reserved":false,"is_disabled":false,"rental_uris":{"android":"levelo://app?vid=35ad3b2b-aed2-40ac-9d12-ceed8d94ee92","ios":"levelo://app?vid=35ad3b2b-aed2-40ac-9d12-ceed8d94ee92"},"vehicle_type_id":"4","last_reported":1729372125,"current_range_meters":4400,"station_id":"","pricing_plan_id":"cebpf4jnsgd1na2vs0mg"},{"bike_id":"4ac10904-95f2-40cf-9616-288084beebce","system_id":"levelo_inurba_marseille","lat":43.30641,"lon":5.40082,"is_reserved":false,"is_disabled":false,"rental_uris":{"android":"levelo://app?vid=4ac10904-95f2-40cf-9616-288084beebce","ios":"levelo://app?vid=4ac10904-95f2-40cf-9616-288084beebce"},"vehicle_type_id":"4","last_reported":1729372125,"current_range_meters":37600,"station_id":"ce4bh112rcd13ifvqda0","pricing_plan_id":"cebpf4jnsgd1na2vs0mg"},{"bike_id":"3c807220-758f-40c8-b4f1-96669d1b8d8b","system_id":"levelo_inurba_marseille","lat":43.23187,"lon":5.35561,"is_reserved":false,"is_disabled":false,"rental_uris":{"android":"levelo://app?vid=3c807220-758f-40c8-b4f1-96669d1b8d8b","ios":"levelo://app?vid=3c807220-758f-40c8-b4f1-96669d1b8d8b"},"vehicle_type_id":"4","last_reported":1729372125,"current_range_meters":6800,"station_id":"ce4bhu92rcd13ifvqi70","pricing_plan_id":"cebpf4jnsgd1na2vs0mg"},{"bike_id":"00966f37-cbf6-4bb2-9ac9-c42167109b86","system_id":"levelo_inurba_marseille","lat":43.2942,"lon":5.38613,"is_reserved":false,"is_disabled":false,"rental_uris":{"android":"levelo://app?vid=00966f37-cbf6-4bb2-9ac9-c42167109b86","ios":"levelo://app?vid=00966f37-cbf6-4bb2-9ac9-c42167109b86"},"vehicle_type_id":"4","last_reported":1729372125,"current_range_meters":38800,"station_id":"ce4bh2h2rcd13ifvqdh0","pricing_plan_id":"cebpf4jnsgd1na2vs0mg"},{"bike_id":"c11b0555-b997-4036-8536-79587f1a9f2e","system_id":"levelo_inurba_marseille","lat":43.27669,"lon":5.38905,"is_reserved":false,"is_disabled":false,"rental_uris":{"android":"levelo://app?vid=c11b0555-b997-4036-8536-79587f1a9f2e","ios":"levelo://app?vid=c11b0555-b997-4036-8536-79587f1a9f2e"},"vehicle_type_id":"4","last_reported":1729372125,"current_range_meters":36400,"station_id":"ce4bhi12rcd13ifvqfo0","pricing_plan_id":"cebpf4jnsgd1na2vs0mg"},{"bike_id":"79e577df-2f1c-4782-802a-c75a4bc220f3","system_id":"levelo_inurba_marseille","lat":43.31372,"lon":5.38496,"is_reserved":false,"is_disabled":false,"rental_uris":{"android":"levelo://app?vid=79e577df-2f1c-4782-802a-c75a4bc220f3","ios":"levelo://app?vid=79e577df-2f1c-4782-802a-c75a4bc220f3"},"vehicle_type_id":"4","last_reported":1729372125,"current_range_meters":36800,"station_id":"ce4bgt92rcd13ifvqcf0","pricing_plan_id":"cebpf4jnsgd1na2vs0mg"},{"bike_id":"b5c40a57-fde0-4b3a-8522-4717ef7108e9","system_id":"levelo_inurba_marseille","lat":43.310848,"lon":5.400928,"is_reserved":false,"is_disabled":false,"rental_uris":{"android":"levelo://app?vid=b5c40a57-fde0-4b3a-8522-4717ef7108e9","ios":"levelo://app?vid=b5c40a57-fde0-4b3a-8522-4717ef7108e9"},"vehicle_type_id":"4","last_reported":1729372125,"current_range_meters":6400,"station_id":"","pricing_plan_id":"cebpf4jnsgd1na2vs0mg"},{"bike_id":"8d995fcc-07be-4e4e-bd7e-c78b0bd8e9e0","system_id":"levelo_inurba_marseille","lat":43.263362,"lon":5.37738,"is_reserved":false,"is_disabled":false,"rental_uris":{"android":"levelo://app?vid=8d995fcc-07be-4e4e-bd7e-c78b0bd8e9e0","ios":"levelo://app?vid=8d995fcc-07be-4e4e-bd7e-c78b0bd8e9e0"},"vehicle_type_id":"4","last_reported":1729372125,"current_range_meters":9200,"station_id":"","pricing_plan_id":"cebpf4jnsgd1na2vs0mg"},{"bike_id":"3b30aa0d-56cf-49ee-9f2d-906572b38809","system_id":"levelo_inurba_marseille","lat":43.25726,"lon":5.41108,"is_reserved":false,"is_disabled":false,"rental_uris":{"android":"levelo://app?vid=3b30aa0d-56cf-49ee-9f2d-906572b38809","ios":"levelo://app?vid=3b30aa0d-56cf-49ee-9f2d-906572b38809"},"vehicle_type_id":"4","last_reported":1729372125,"current_range_meters":2800,"station_id":"ce4bhkp2rcd13ifvqgd0","pricing_plan_id":"cebpf4jnsgd1na2vs0mg"},{"bike_id":"6bed72ee-c698-4ede-9c3c-0992c3f4719b","system_id":"levelo_inurba_marseille","lat":43.30792,"lon":5.38155,"is_reserved":false,"is_disabled":false,"rental_uris":{"android":"levelo://app?vid=6bed72ee-c698-4ede-9c3c-0992c3f4719b","ios":"levelo://app?vid=6bed72ee-c698-4ede-9c3c-0992c3f4719b"},"vehicle_type_id":"4","last_reported":1729372125,"current_range_meters":36800,"station_id":"ce4bgt12rcd13ifvqce0","pricing_plan_id":"cebpf4jnsgd1na2vs0mg"},{"bike_id":"973ed72c-b5a5-4d11-b0b5-0e5d432ccd29","system_id":"levelo_inurba_marseille","lat":43.29538,"lon":5.38537,"is_reserved":false,"is_disabled":false,"rental_uris":{"android":"levelo://app?vid=973ed72c-b5a5-4d11-b0b5-0e5d432ccd29","ios":"levelo://app?vid=973ed72c-b5a5-4d11-b0b5-0e5d432ccd29"},"vehicle_type_id":"4","last_reported":1729372125,"current_range_meters":19600,"station_id":"ce4bgih2rcd13ifvqba0","pricing_plan_id":"cebpf4jnsgd1na2vs0mg"},{"bike_id":"f23b75bc-333d-46e3-8239-db3a92d55c54","system_id":"levelo_inurba_marseille","lat":43.2678,"lon":5.39413,"is_reserved":false,"is_disabled":false,"rental_uris":{"android":"levelo://app?vid=f23b75bc-333d-46e3-8239-db3a92d55c54","ios":"levelo://app?vid=f23b75bc-333d-46e3-8239-db3a92d55c54"},"vehicle_type_id":"4","last_reported":1729372125,"current_range_meters":2800,"station_id":"ce4bhh12rcd13ifvqfg0","pricing_plan_id":"cebpf4jnsgd1na2vs0mg"},{"bike_id":"9e6402e5-b88b-45c0-8b06-f9c7ea9fa3ea","system_id":"levelo_inurba_marseille","lat":43.28419,"lon":5.37509,"is_reserved":false,"is_disabled":false,"rental_uris":{"android":"levelo://app?vid=9e6402e5-b88b-45c0-8b06-f9c7ea9fa3ea","ios":"levelo://app?vid=9e6402e5-b88b-45c0-8b06-f9c7ea9fa3ea"},"vehicle_type_id":"4","last_reported":1729372125,"current_range_meters":28000,"station_id":"ce4bh412rcd13ifvqds0","pricing_plan_id":"cebpf4jnsgd1na2vs0mg"},{"bike_id":"db2fd001-ff8f-469c-bedd-44daac4c111b","system_id":"levelo_inurba_marseille","lat":43.28849,"lon":5.39319,"is_reserved":false,"is_disabled":false,"rental_uris":{"android":"levelo://app?vid=db2fd001-ff8f-469c-bedd-44daac4c111b","ios":"levelo://app?vid=db2fd001-ff8f-469c-bedd-44daac4c111b"},"vehicle_type_id":"4","last_reported":1729372125,"current_range_meters":10000,"station_id":"ce4bh2p2rcd13ifvqdi0","pricing_plan_id":"cebpf4jnsgd1na2vs0mg"},{"bike_id":"cbcfccfd-a876-448a-9e85-487da1c426f2","system_id":"levelo_inurba_marseille","lat":43.2926,"lon":5.38437,"is_reserved":false,"is_disabled":false,"rental_uris":{"android":"levelo://app?vid=cbcfccfd-a876-448a-9e85-487da1c426f2","ios":"levelo://app?vid=cbcfccfd-a876-448a-9e85-487da1c426f2"},"vehicle_type_id":"4","last_reported":1729372125,"current_range_meters":7200,"station_id":"","pricing_plan_id":"cebpf4jnsgd1na2vs0mg"},{"bike_id":"1fad675a-d3e8-4444-a45e-9af37e54e7eb","system_id":"levelo_inurba_marseille","lat":43.287068,"lon":5.373772,"is_reserved":false,"is_disabled":false,"rental_uris":{"android":"levelo://app?vid=1fad675a-d3e8-4444-a45e-9af37e54e7eb","ios":"levelo://app?vid=1fad675a-d3e8-4444-a45e-9af37e54e7eb"},"vehicle_type_id":"4","last_reported":1729372125,"current_range_meters":32000,"station_id":"ce4bh3p2rcd13ifvqdq0","pricing_plan_id":"cebpf4jnsgd1na2vs0mg"},{"bike_id":"06cd8a2e-8360-4d2d-98ad-80696a81ecce","system_id":"levelo_inurba_marseille","lat":43.25118,"lon":5.4032,"is_reserved":false,"is_disabled":false,"rental_uris":{"android":"levelo://app?vid=06cd8a2e-8360-4d2d-98ad-80696a81ecce","ios":"levelo://app?vid=06cd8a2e-8360-4d2d-98ad-80696a81ecce"},"vehicle_type_id":"4","last_reported":1729372125,"current_range_meters":37600,"station_id":"ce4bhlh2rcd13ifvqgig","pricing_plan_id":"cebpf4jnsgd1na2vs0mg"},{"bike_id":"3e611766-6490-4f34-a01e-bc565ce64e2e","system_id":"levelo_inurba_marseille","lat":43.31234,"lon":5.36856,"is_reserved":false,"is_disabled":false,"rental_uris":{"android":"levelo://app?vid=3e611766-6490-4f34-a01e-bc565ce64e2e","ios":"levelo://app?vid=3e611766-6490-4f34-a01e-bc565ce64e2e"},"vehicle_type_id":"4","last_reported":1729372125,"current_range_meters":8400,"station_id":"ce4bgl92rcd13ifvqbq0","pricing_plan_id":"cebpf4jnsgd1na2vs0mg"},{"bike_id":"78a55d3a-0ce2-4c91-a1b5-72771673bf58","system_id":"levelo_inurba_marseille","lat":43.27945,"lon":5.41046,"is_reserved":false,"is_disabled":false,"rental_uris":{"android":"levelo://app?vid=78a55d3a-0ce2-4c91-a1b5-72771673bf58","ios":"levelo://app?vid=78a55d3a-0ce2-4c91-a1b5-72771673bf58"},"vehicle_type_id":"4","last_reported":1729372125,"current_range_meters":7200,"station_id":"ce4bhnp2rcd13ifvqh0g","pricing_plan_id":"cebpf4jnsgd1na2vs0mg"},{"bike_id":"042a0a7b-2fbf-4df2-97b5-212a949fd177","system_id":"levelo_inurba_marseille","lat":43.32487,"lon":5.36572,"is_reserved":false,"is_disabled":false,"rental_uris":{"android":"levelo://app?vid=042a0a7b-2fbf-4df2-97b5-212a949fd177","ios":"levelo://app?vid=042a0a7b-2fbf-4df2-97b5-212a949fd177"},"vehicle_type_id":"4","last_reported":1729372125,"current_range_meters":37600,"station_id":"ce4bhs12rcd13ifvqhvg","pricing_plan_id":"cebpf4jnsgd1na2vs0mg"},{"bike_id":"2d4d859a-6a51-4e5c-a842-75354e6e4217","system_id":"levelo_inurba_marseille","lat":43.33023,"lon":5.3904,"is_reserved":false,"is_disabled":false,"rental_uris":{"android":"levelo://app?vid=2d4d859a-6a51-4e5c-a842-75354e6e4217","ios":"levelo://app?vid=2d4d859a-6a51-4e5c-a842-75354e6e4217"},"vehicle_type_id":"4","last_reported":1729372125,"current_range_meters":9600,"station_id":"ce4bhr92rcd13ifvqhrg","pricing_plan_id":"cebpf4jnsgd1na2vs0mg"},{"bike_id":"24d516c3-97e3-4bc7-ae11-0fea67de70df","system_id":"levelo_inurba_marseille","lat":43.264923,"lon":5.395374,"is_reserved":false,"is_disabled":false,"rental_uris":{"android":"levelo://app?vid=24d516c3-97e3-4bc7-ae11-0fea67de70df","ios":"levelo://app?vid=24d516c3-97e3-4bc7-ae11-0fea67de70df"},"vehicle_type_id":"4","last_reported":1729372125,"current_range_meters":16800,"station_id":"ce4bhi12rcd13ifvqfq0","pricing_plan_id":"cebpf4jnsgd1na2vs0mg"},{"bike_id":"76c49f48-4a63-478b-a851-78fe899ad246","system_id":"levelo_inurba_marseille","lat":43.28414,"lon":5.375,"is_reserved":false,"is_disabled":false,"rental_uris":{"android":"levelo://app?vid=76c49f48-4a63-478b-a851-78fe899ad246","ios":"levelo://app?vid=76c49f48-4a63-478b-a851-78fe899ad246"},"vehicle_type_id":"4","last_reported":1729372125,"current_range_meters":4000,"station_id":"ce4bh412rcd13ifvqds0","pricing_plan_id":"cebpf4jnsgd1na2vs0mg"},{"bike_id":"636a7083-32bd-48d9-a27a-7a6ebb70df79","system_id":"levelo_inurba_marseille","lat":43.28039,"lon":5.3694,"is_reserved":false,"is_disabled":false,"rental_uris":{"android":"levelo://app?vid=636a7083-32bd-48d9-a27a-7a6ebb70df79","ios":"levelo://app?vid=636a7083-32bd-48d9-a27a-7a6ebb70df79"},"vehicle_type_id":"4","last_reported":1729372125,"current_range_meters":4400,"station_id":"ce4bha12rcd13ifvqef0","pricing_plan_id":"cebpf4jnsgd1na2vs0mg"},{"bike_id":"2d9e3df1-0dca-43ea-b82c-f5159aab9faa","system_id":"levelo_inurba_marseille","lat":43.23976,"lon":5.36623,"is_reserved":false,"is_disabled":false,"rental_uris":{"android":"levelo://app?vid=2d9e3df1-0dca-43ea-b82c-f5159aab9faa","ios":"levelo://app?vid=2d9e3df1-0dca-43ea-b82c-f5159aab9faa"},"vehicle_type_id":"4","last_reported":1729372125,"current_range_meters":22800,"station_id":"ce4bhi12rcd13ifvqfp0","pricing_plan_id":"cebpf4jnsgd1na2vs0mg"},{"bike_id":"b3d5a814-7da0-4848-84cd-4491eed6bb31","system_id":"levelo_inurba_marseille","lat":43.25012,"lon":5.3891,"is_reserved":false,"is_disabled":false,"rental_uris":{"android":"levelo://app?vid=b3d5a814-7da0-4848-84cd-4491eed6bb31","ios":"levelo://app?vid=b3d5a814-7da0-4848-84cd-4491eed6bb31"},"vehicle_type_id":"4","last_reported":1729372125,"current_range_meters":27200,"station_id":"ce4bhgp2rcd13ifvqfd0","pricing_plan_id":"cebpf4jnsgd1na2vs0mg"},{"bike_id":"9d96017d-4a75-4407-b5cf-97ef6bc0c925","system_id":"levelo_inurba_marseille","lat":43.31363,"lon":5.38493,"is_reserved":false,"is_disabled":false,"rental_uris":{"android":"levelo://app?vid=9d96017d-4a75-4407-b5cf-97ef6bc0c925","ios":"levelo://app?vid=9d96017d-4a75-4407-b5cf-97ef6bc0c925"},"vehicle_type_id":"4","last_reported":1729372125,"current_range_meters":10000,"station_id":"ce4bgt92rcd13ifvqcf0","pricing_plan_id":"cebpf4jnsgd1na2vs0mg"},{"bike_id":"580e4ec5-f8a4-496a-84db-6852e5e16210","system_id":"levelo_inurba_marseille","lat":43.3136,"lon":5.38491,"is_reserved":false,"is_disabled":false,"rental_uris":{"android":"levelo://app?vid=580e4ec5-f8a4-496a-84db-6852e5e16210","ios":"levelo://app?vid=580e4ec5-f8a4-496a-84db-6852e5e16210"},"vehicle_type_id":"4","last_reported":1729372125,"current_range_meters":34000,"station_id":"ce4bgt92rcd13ifvqcf0","pricing_plan_id":"cebpf4jnsgd1na2vs0mg"},{"bike_id":"55f2e0c6-ef8f-49c7-83d0-7e3802b3438e","system_id":"levelo_inurba_marseille","lat":43.28351,"lon":5.3809,"is_reserved":false,"is_disabled":false,"rental_uris":{"android":"levelo://app?vid=55f2e0c6-ef8f-49c7-83d0-7e3802b3438e","ios":"levelo://app?vid=55f2e0c6-ef8f-49c7-83d0-7e3802b3438e"},"vehicle_type_id":"4","last_reported":1729372125,"current_range_meters":37600,"station_id":"ce4bh412rcd13ifvqdr0","pricing_plan_id":"cebpf4jnsgd1na2vs0mg"},{"bike_id":"68e7bce1-3e19-436f-a292-48dace7e5091","system_id":"levelo_inurba_marseille","lat":43.29536,"lon":5.38543,"is_reserved":false,"is_disabled":false,"rental_uris":{"android":"levelo://app?vid=68e7bce1-3e19-436f-a292-48dace7e5091","ios":"levelo://app?vid=68e7bce1-3e19-436f-a292-48dace7e5091"},"vehicle_type_id":"4","last_reported":1729372125,"current_range_meters":14000,"station_id":"ce4bgih2rcd13ifvqba0","pricing_plan_id":"cebpf4jnsgd1na2vs0mg"},{"bike_id":"ed5e6c5f-e2fc-42a1-949f-c71e9b1fd182","system_id":"levelo_inurba_marseille","lat":43.30944,"lon":5.39024,"is_reserved":false,"is_disabled":false,"rental_uris":{"android":"levelo://app?vid=ed5e6c5f-e2fc-42a1-949f-c71e9b1fd182","ios":"levelo://app?vid=ed5e6c5f-e2fc-42a1-949f-c71e9b1fd182"},"vehicle_type_id":"4","last_reported":1729372125,"current_range_meters":8400,"station_id":"ce4bgup2rcd13ifvqco0","pricing_plan_id":"cebpf4jnsgd1na2vs0mg"},{"bike_id":"9ff5b7ec-e752-4102-a441-9f5a74472039","system_id":"levelo_inurba_marseille","lat":43.25726,"lon":5.41113,"is_reserved":false,"is_disabled":false,"rental_uris":{"android":"levelo://app?vid=9ff5b7ec-e752-4102-a441-9f5a74472039","ios":"levelo://app?vid=9ff5b7ec-e752-4102-a441-9f5a74472039"},"vehicle_type_id":"4","last_reported":1729372125,"current_range_meters":6400,"station_id":"ce4bhkp2rcd13ifvqgd0","pricing_plan_id":"cebpf4jnsgd1na2vs0mg"},{"bike_id":"17f59340-8f02-4afa-9ee7-875071d35687","system_id":"levelo_inurba_marseille","lat":43.2695,"lon":5.38632,"is_reserved":false,"is_disabled":false,"rental_uris":{"android":"levelo://app?vid=17f59340-8f02-4afa-9ee7-875071d35687","ios":"levelo://app?vid=17f59340-8f02-4afa-9ee7-875071d35687"},"vehicle_type_id":"4","last_reported":1729372125,"current_range_meters":16000,"station_id":"ce4bhh92rcd13ifvqfh0","pricing_plan_id":"cebpf4jnsgd1na2vs0mg"},{"bike_id":"f1decac8-c78e-4c04-8c8f-ad12c30e2320","system_id":"levelo_inurba_marseille","lat":43.29171,"lon":5.37151,"is_reserved":false,"is_disabled":false,"rental_uris":{"android":"levelo://app?vid=f1decac8-c78e-4c04-8c8f-ad12c30e2320","ios":"levelo://app?vid=f1decac8-c78e-4c04-8c8f-ad12c30e2320"},"vehicle_type_id":"4","last_reported":1729372125,"current_range_meters":3200,"station_id":"ce4bha92rcd13ifvqeh0","pricing_plan_id":"cebpf4jnsgd1na2vs0mg"},{"bike_id":"14b73629-2e71-42ad-9348-fe7cc6d40f18","system_id":"levelo_inurba_marseille","lat":43.25111,"lon":5.40324,"is_reserved":false,"is_disabled":false,"rental_uris":{"android":"levelo://app?vid=14b73629-2e71-42ad-9348-fe7cc6d40f18","ios":"levelo://app?vid=14b73629-2e71-42ad-9348-fe7cc6d40f18"},"vehicle_type_id":"4","last_reported":1729372125,"current_range_meters":4000,"station_id":"ce4bhlh2rcd13ifvqgig","pricing_plan_id":"cebpf4jnsgd1na2vs0mg"},{"bike_id":"409fb272-c228-4193-aa25-10cbac6b993a","system_id":"levelo_inurba_marseille","lat":43.26942,"lon":5.40251,"is_reserved":false,"is_disabled":false,"rental_uris":{"android":"levelo://app?vid=409fb272-c228-4193-aa25-10cbac6b993a","ios":"levelo://app?vid=409fb272-c228-4193-aa25-10cbac6b993a"},"vehicle_type_id":"4","last_reported":1729372125,"current_range_meters":38800,"station_id":"cjm6bp8fraef2m0cb0m0","pricing_plan_id":"cebpf4jnsgd1na2vs0mg"},{"bike_id":"f402f1e6-1395-43ce-992d-7823a3d9c7bd","system_id":"levelo_inurba_marseille","lat":43.31221,"lon":5.36847,"is_reserved":false,"is_disabled":false,"rental_uris":{"android":"levelo://app?vid=f402f1e6-1395-43ce-992d-7823a3d9c7bd","ios":"levelo://app?vid=f402f1e6-1395-43ce-992d-7823a3d9c7bd"},"vehicle_type_id":"4","last_reported":1729372125,"current_range_meters":6000,"station_id":"ce4bgl92rcd13ifvqbq0","pricing_plan_id":"cebpf4jnsgd1na2vs0mg"},{"bike_id":"f576ab3e-9fcc-455c-af41-3aede202bc75","system_id":"levelo_inurba_marseille","lat":43.29536,"lon":5.38534,"is_reserved":false,"is_disabled":false,"rental_uris":{"android":"levelo://app?vid=f576ab3e-9fcc-455c-af41-3aede202bc75","ios":"levelo://app?vid=f576ab3e-9fcc-455c-af41-3aede202bc75"},"vehicle_type_id":"4","last_reported":1729372125,"current_range_meters":8000,"station_id":"ce4bgih2rcd13ifvqba0","pricing_plan_id":"cebpf4jnsgd1na2vs0mg"},{"bike_id":"a20fbb7c-801a-4bc5-9558-da03b459c3da","system_id":"levelo_inurba_marseille","lat":43.30489,"lon":5.37476,"is_reserved":false,"is_disabled":false,"rental_uris":{"android":"levelo://app?vid=a20fbb7c-801a-4bc5-9558-da03b459c3da","ios":"levelo://app?vid=a20fbb7c-801a-4bc5-9558-da03b459c3da"},"vehicle_type_id":"4","last_reported":1729372125,"current_range_meters":27600,"station_id":"","pricing_plan_id":"cebpf4jnsgd1na2vs0mg"},{"bike_id":"99995aff-8cb6-454b-81bc-9aa9560a654f","system_id":"levelo_inurba_marseille","lat":43.29206,"lon":5.39322,"is_reserved":false,"is_disabled":false,"rental_uris":{"android":"levelo://app?vid=99995aff-8cb6-454b-81bc-9aa9560a654f","ios":"levelo://app?vid=99995aff-8cb6-454b-81bc-9aa9560a654f"},"vehicle_type_id":"4","last_reported":1729372125,"current_range_meters":9200,"station_id":"ce4bh192rcd13ifvqdd0","pricing_plan_id":"cebpf4jnsgd1na2vs0mg"},{"bike_id":"023fd4ad-0b97-4192-b5e1-73d82911bd9a","system_id":"levelo_inurba_marseille","lat":43.25082,"lon":5.3952,"is_reserved":false,"is_disabled":false,"rental_uris":{"android":"levelo://app?vid=023fd4ad-0b97-4192-b5e1-73d82911bd9a","ios":"levelo://app?vid=023fd4ad-0b97-4192-b5e1-73d82911bd9a"},"vehicle_type_id":"4","last_reported":1729372125,"current_range_meters":38800,"station_id":"ce4bhm12rcd13ifvqgkg","pricing_plan_id":"cebpf4jnsgd1na2vs0mg"},{"bike_id":"33cf610a-a1b6-495e-acb9-5c8224823963","system_id":"levelo_inurba_marseille","lat":43.27844,"lon":5.39205,"is_reserved":false,"is_disabled":false,"rental_uris":{"android":"levelo://app?vid=33cf610a-a1b6-495e-acb9-5c8224823963","ios":"levelo://app?vid=33cf610a-a1b6-495e-acb9-5c8224823963"},"vehicle_type_id":"4","last_reported":1729372125,"current_range_meters":31200,"station_id":"ce4bhjp2rcd13ifvqga0","pricing_plan_id":"cebpf4jnsgd1na2vs0mg"},{"bike_id":"3a3f735d-cb0f-48cf-98e1-71d63e2bb381","system_id":"levelo_inurba_marseille","lat":43.28429,"lon":5.39184,"is_reserved":false,"is_disabled":false,"rental_uris":{"android":"levelo://app?vid=3a3f735d-cb0f-48cf-98e1-71d63e2bb381","ios":"levelo://app?vid=3a3f735d-cb0f-48cf-98e1-71d63e2bb381"},"vehicle_type_id":"4","last_reported":1729372125,"current_range_meters":38800,"station_id":"ce4bhoh2rcd13ifvqh5g","pricing_plan_id":"cebpf4jnsgd1na2vs0mg"},{"bike_id":"b0fe3af0-e96a-4fbd-a0c4-c5d5c15d8818","system_id":"levelo_inurba_marseille","lat":43.2927,"lon":5.38449,"is_reserved":false,"is_disabled":false,"rental_uris":{"android":"levelo://app?vid=b0fe3af0-e96a-4fbd-a0c4-c5d5c15d8818","ios":"levelo://app?vid=b0fe3af0-e96a-4fbd-a0c4-c5d5c15d8818"},"vehicle_type_id":"4","last_reported":1729372125,"current_range_meters":6000,"station_id":"","pricing_plan_id":"cebpf4jnsgd1na2vs0mg"},{"bike_id":"d49b78af-9cbf-4163-a072-8b42920554ab","system_id":"levelo_inurba_marseille","lat":43.301395,"lon":5.399005,"is_reserved":false,"is_disabled":false,"rental_uris":{"android":"levelo://app?vid=d49b78af-9cbf-4163-a072-8b42920554ab","ios":"levelo://app?vid=d49b78af-9cbf-4163-a072-8b42920554ab"},"vehicle_type_id":"4","last_reported":1729372125,"current_range_meters":39200,"station_id":"ce4bh0h2rcd13ifvqd40","pricing_plan_id":"cebpf4jnsgd1na2vs0mg"},{"bike_id":"1591df30-6c15-4a0c-86ea-4bf0af5f69e7","system_id":"levelo_inurba_marseille","lat":43.260646,"lon":5.39402,"is_reserved":false,"is_disabled":false,"rental_uris":{"android":"levelo://app?vid=1591df30-6c15-4a0c-86ea-4bf0af5f69e7","ios":"levelo://app?vid=1591df30-6c15-4a0c-86ea-4bf0af5f69e7"},"vehicle_type_id":"4","last_reported":1729372125,"current_range_meters":38800,"station_id":"ce4bhh92rcd13ifvqfj0","pricing_plan_id":"cebpf4jnsgd1na2vs0mg"},{"bike_id":"c61834e5-ab0c-4e12-b32f-eb9d3c1af5fe","system_id":"levelo_inurba_marseille","lat":43.23962,"lon":5.36633,"is_reserved":false,"is_disabled":false,"rental_uris":{"android":"levelo://app?vid=c61834e5-ab0c-4e12-b32f-eb9d3c1af5fe","ios":"levelo://app?vid=c61834e5-ab0c-4e12-b32f-eb9d3c1af5fe"},"vehicle_type_id":"4","last_reported":1729372125,"current_range_meters":19200,"station_id":"ce4bhi12rcd13ifvqfp0","pricing_plan_id":"cebpf4jnsgd1na2vs0mg"},{"bike_id":"603019d5-2877-4c49-b879-0101301f046d","system_id":"levelo_inurba_marseille","lat":43.29264,"lon":5.38447,"is_reserved":false,"is_disabled":false,"rental_uris":{"android":"levelo://app?vid=603019d5-2877-4c49-b879-0101301f046d","ios":"levelo://app?vid=603019d5-2877-4c49-b879-0101301f046d"},"vehicle_type_id":"4","last_reported":1729372125,"current_range_meters":10800,"station_id":"","pricing_plan_id":"cebpf4jnsgd1na2vs0mg"},{"bike_id":"4812c99f-6dff-46d8-a868-5edaccde49eb","system_id":"levelo_inurba_marseille","lat":43.30309,"lon":5.36896,"is_reserved":false,"is_disabled":false,"rental_uris":{"android":"levelo://app?vid=4812c99f-6dff-46d8-a868-5edaccde49eb","ios":"levelo://app?vid=4812c99f-6dff-46d8-a868-5edaccde49eb"},"vehicle_type_id":"4","last_reported":1729372125,"current_range_meters":16800,"station_id":"ce4bgqh2rcd13ifvqc5g","pricing_plan_id":"cebpf4jnsgd1na2vs0mg"},{"bike_id":"377abf5e-6665-4077-8419-be52a29187a3","system_id":"levelo_inurba_marseille","lat":43.27988,"lon":5.41663,"is_reserved":false,"is_disabled":false,"rental_uris":{"android":"levelo://app?vid=377abf5e-6665-4077-8419-be52a29187a3","ios":"levelo://app?vid=377abf5e-6665-4077-8419-be52a29187a3"},"vehicle_type_id":"4","last_reported":1729372125,"current_range_meters":16000,"station_id":"ce4bho12rcd13ifvqh1g","pricing_plan_id":"cebpf4jnsgd1na2vs0mg"},{"bike_id":"49c72f71-46a2-4d47-886d-3a0c01e8e730","system_id":"levelo_inurba_marseille","lat":43.276203,"lon":5.361116,"is_reserved":false,"is_disabled":false,"rental_uris":{"android":"levelo://app?vid=49c72f71-46a2-4d47-886d-3a0c01e8e730","ios":"levelo://app?vid=49c72f71-46a2-4d47-886d-3a0c01e8e730"},"vehicle_type_id":"4","last_reported":1729372125,"current_range_meters":38000,"station_id":"ce4bgj92rcd13ifvqbe0","pricing_plan_id":"cebpf4jnsgd1na2vs0mg"},{"bike_id":"065b87ca-b4a3-4800-b247-0f13e517cfcb","system_id":"levelo_inurba_marseille","lat":43.31352,"lon":5.36722,"is_reserved":false,"is_disabled":false,"rental_uris":{"android":"levelo://app?vid=065b87ca-b4a3-4800-b247-0f13e517cfcb","ios":"levelo://app?vid=065b87ca-b4a3-4800-b247-0f13e517cfcb"},"vehicle_type_id":"4","last_reported":1729372125,"current_range_meters":6800,"station_id":"ce4bgr92rcd13ifvqc6g","pricing_plan_id":"cebpf4jnsgd1na2vs0mg"},{"bike_id":"4237405c-9e6b-4a04-b9b9-8793afd0eedb","system_id":"levelo_inurba_marseille","lat":43.32108,"lon":5.36784,"is_reserved":false,"is_disabled":false,"rental_uris":{"android":"levelo://app?vid=4237405c-9e6b-4a04-b9b9-8793afd0eedb","ios":"levelo://app?vid=4237405c-9e6b-4a04-b9b9-8793afd0eedb"},"vehicle_type_id":"4","last_reported":1729372125,"current_range_meters":28800,"station_id":"ce4bhrh2rcd13ifvqhug","pricing_plan_id":"cebpf4jnsgd1na2vs0mg"},{"bike_id":"2e0f290d-7f26-490e-a919-0b1092bb3062","system_id":"levelo_inurba_marseille","lat":43.28852,"lon":5.37134,"is_reserved":false,"is_disabled":false,"rental_uris":{"android":"levelo://app?vid=2e0f290d-7f26-490e-a919-0b1092bb3062","ios":"levelo://app?vid=2e0f290d-7f26-490e-a919-0b1092bb3062"},"vehicle_type_id":"4","last_reported":1729372125,"current_range_meters":5600,"station_id":"","pricing_plan_id":"cebpf4jnsgd1na2vs0mg"},{"bike_id":"7e4aab87-88f2-4318-a981-5f11b7abe31a","system_id":"levelo_inurba_marseille","lat":43.33027,"lon":5.39044,"is_reserved":false,"is_disabled":false,"rental_uris":{"android":"levelo://app?vid=7e4aab87-88f2-4318-a981-5f11b7abe31a","ios":"levelo://app?vid=7e4aab87-88f2-4318-a981-5f11b7abe31a"},"vehicle_type_id":"4","last_reported":1729372125,"current_range_meters":24400,"station_id":"ce4bhr92rcd13ifvqhrg","pricing_plan_id":"cebpf4jnsgd1na2vs0mg"},{"bike_id":"ed7f5c83-a271-415f-96e0-fa6989f9bbe6","system_id":"levelo_inurba_marseille","lat":43.31486,"lon":5.3731,"is_reserved":false,"is_disabled":false,"rental_uris":{"android":"levelo://app?vid=ed7f5c83-a271-415f-96e0-fa6989f9bbe6","ios":"levelo://app?vid=ed7f5c83-a271-415f-96e0-fa6989f9bbe6"},"vehicle_type_id":"4","last_reported":1729372125,"current_range_meters":38000,"station_id":"ce4bgt12rcd13ifvqcd0","pricing_plan_id":"cebpf4jnsgd1na2vs0mg"},{"bike_id":"a6bd0aea-d005-4b15-aae0-ee176917ba80","system_id":"levelo_inurba_marseille","lat":43.26559,"lon":5.3901,"is_reserved":false,"is_disabled":false,"rental_uris":{"android":"levelo://app?vid=a6bd0aea-d005-4b15-aae0-ee176917ba80","ios":"levelo://app?vid=a6bd0aea-d005-4b15-aae0-ee176917ba80"},"vehicle_type_id":"4","last_reported":1729372125,"current_range_meters":38400,"station_id":"ce4bhe12rcd13ifvqf30","pricing_plan_id":"cebpf4jnsgd1na2vs0mg"},{"bike_id":"373022c6-0c5e-4ab5-a096-0f5e1d5769b4","system_id":"levelo_inurba_marseille","lat":43.25202,"lon":5.37345,"is_reserved":false,"is_disabled":false,"rental_uris":{"android":"levelo://app?vid=373022c6-0c5e-4ab5-a096-0f5e1d5769b4","ios":"levelo://app?vid=373022c6-0c5e-4ab5-a096-0f5e1d5769b4"},"vehicle_type_id":"4","last_reported":1729372125,"current_range_meters":6800,"station_id":"","pricing_plan_id":"cebpf4jnsgd1na2vs0mg"},{"bike_id":"fa016d9e-3cc2-4779-8b1b-c980403723fa","system_id":"levelo_inurba_marseille","lat":43.29236,"lon":5.3836,"is_reserved":false,"is_disabled":false,"rental_uris":{"android":"levelo://app?vid=fa016d9e-3cc2-4779-8b1b-c980403723fa","ios":"levelo://app?vid=fa016d9e-3cc2-4779-8b1b-c980403723fa"},"vehicle_type_id":"4","last_reported":1729372125,"current_range_meters":26000,"station_id":"","pricing_plan_id":"cebpf4jnsgd1na2vs0mg"},{"bike_id":"996b68ea-a3b8-48c9-9cf2-f66df1d63882","system_id":"levelo_inurba_marseille","lat":43.23202,"lon":5.35554,"is_reserved":false,"is_disabled":false,"rental_uris":{"android":"levelo://app?vid=996b68ea-a3b8-48c9-9cf2-f66df1d63882","ios":"levelo://app?vid=996b68ea-a3b8-48c9-9cf2-f66df1d63882"},"vehicle_type_id":"4","last_reported":1729372125,"current_range_meters":16400,"station_id":"ce4bhu92rcd13ifvqi70","pricing_plan_id":"cebpf4jnsgd1na2vs0mg"},{"bike_id":"585c96ed-f2a4-4a3e-8a15-2af8f4c804c0","system_id":"levelo_inurba_marseille","lat":43.29875,"lon":5.39726,"is_reserved":false,"is_disabled":false,"rental_uris":{"android":"levelo://app?vid=585c96ed-f2a4-4a3e-8a15-2af8f4c804c0","ios":"levelo://app?vid=585c96ed-f2a4-4a3e-8a15-2af8f4c804c0"},