{"last_updated":1753737038,"ttl":60,"version":"2.2","data":{"bikes":[{"bike_id":"d22b70ba-8f23-4792-b8e2-9a8a53e26264","system_id":"levelo_inurba_marseille","lat":43.30948,"lon":5.39062,"is_reserved":false,"is_disabled":false,"rental_uris":{"android":"levelo://app?vid=d22b70ba-8f23-4792-b8e2-9a8a53e26264","ios":"levelo://app?vid=d22b70ba-8f23-4792-b8e2-9a8a53e26264"},"vehicle_type_id":"4","last_reported":1753737038,"current_range_meters":3200,"station_id":"ce4bgup2rcd13ifvqco0","pricing_plan_id":"cebpf4jnsgd1na2vs0mg"},{"bike_id":"fe4042e3-0cf8-44e7-943f-8158fb239193","system_id":"levelo_inurba_marseille","lat":43.32037,"lon":5.41564,"is_reserved":false,"is_disabled":false,"rental_uris":{"android":"levelo://app?vid=fe4042e3-0cf8-44e7-943f-8158fb239193","ios":"levelo://app?vid=fe4042e3-0cf8-44e7-943f-8158fb239193"},"vehicle_type_id":"4","last_reported":1753737038,"current_range_meters":3200,"station_id":"ce4bhq92rcd13ifvqhkg","pricing_plan_id":"cebpf4jnsgd1na2vs0mg"},{"bike_id":"042a8476-d3c4-476b-9557-f32c03e9d625","system_id":"levelo_inurba_marseille","lat":43.33984,"lon":5.35712,"is_reserved":false,"is_disabled":false,"rental_uris":{"android":"levelo://app?vid=042a8476-d3c4-476b-9557-f32c03e9d625","ios":"levelo://app?vid=042a8476-d3c4-476b-9557-f32c03e9d625"},"vehicle_type_id":"4","last_reported":1753737038,"current_range_meters":3200,"station_id":"","pricing_plan_id":"cebpf4jnsgd1na2vs0mg"},{"bike_id":"b60cde8c-e388-4bcd-8996-f436b9108874","system_id":"levelo_inurba_marseille","lat":43.27975,"lon":5.38721,"is_reserved":false,"is_disabled":false,"rental_uris":{"android":"levelo://app?vid=b60cde8c-e388-4bcd-8996-f436b9108874","ios":"levelo://app?vid=b60cde8c-e388-4bcd-8996-f436b9108874"},"vehicle_type_id":"4","last_reported":1753737038,"current_range_meters":4000,"station_id":"ce4bhg12rcd13ifvqf80","pricing_plan_id":"cebpf4jnsgd1na2vs0mg"},{"bike_id":"eb30f1f9-d0ac-4eea-95d6-d8c4f4a77837","system_id":"levelo_inurba_marseille","lat":43.27212,"lon":5.3918,"is_reserved":false,"is_disabled":false,"rental_uris":{"android":"levelo://app?vid=eb30f1f9-d0ac-4eea-95d6-d8c4f4a77837","ios":"levelo://app?vid=eb30f1f9-d0ac-4eea-95d6-d8c4f4a77837"},"vehicle_type_id":"4","last_reported":1753737038,"current_range_meters":4000,"station_id":"ce4bhhp2rcd13ifvqfm0","pricing_plan_id":"cebpf4jnsgd1na2vs0mg"},{"bike_id":"078f11b0-bb56-4df0-87db-0c5d635cc500","system_id":"levelo_inurba_marseille","lat":43.22512,"lon":5.34804,"is_reserved":false,"is_disabled":false,"rental_uris":{"android":"levelo://app?vid=078f11b0-bb56-4df0-87db-0c5d635cc500","ios":"levelo://app?vid=078f11b0-bb56-4df0-87db-0c5d635cc500"},"vehicle_type_id":"4","last_reported":1753737038,"current_range_meters":5600,"station_id":"st_cvj5dfep6f1abm77gieg","pricing_plan_id":"cebpf4jnsgd1na2vs0mg"},{"bike_id":"020f681a-d288-4f97-bf7c-acaba1352611","system_id":"levelo_inurba_marseille","lat":43.298749,"lon":5.397299,"is_reserved":false,"is_disabled":true,"rental_uris":{"android":"levelo://app?vid=020f681a-d288-4f97-bf7c-acaba1352611","ios":"levelo://app?vid=020f681a-d288-4f97-bf7c-acaba1352611"},"vehicle_type_id":"4","last_reported":1753737038,"current_range_meters":6000,"station_id":"ce4bh0h2rcd13ifvqd50","pricing_plan_id":"cebpf4jnsgd1na2vs0mg"},{"bike_id":"dbb38c9b-6ee9-4a11-9717-0bd62d679eb2","system_id":"levelo_inurba_marseille","lat":43.28422,"lon":5.34985,"is_reserved":false,"is_disabled":false,"rental_uris":{"android":"levelo://app?vid=dbb38c9b-6ee9-4a11-9717-0bd62d679eb2","ios":"levelo://app?vid=dbb38c9b-6ee9-4a11-9717-0bd62d679eb2"},"vehicle_type_id":"4","last_reported":1753737038,"current_range_meters":6000,"station_id":"ce4bhbh2rcd13ifvqepg","pricing_plan_id":"cebpf4jnsgd1na2vs0mg"},{"bike_id":"ef3da9a5-8aaa-4dbd-86b7-433df5962df6","system_id":"levelo_inurba_marseille","lat":43.31989,"lon":5.38152,"is_reserved":false,"is_disabled":false,"rental_uris":{"android":"levelo://app?vid=ef3da9a5-8aaa-4dbd-86b7-433df5962df6","ios":"levelo://app?vid=ef3da9a5-8aaa-4dbd-86b7-433df5962df6"},"vehicle_type_id":"4","last_reported":1753737038,"current_range_meters":6000,"station_id":"ce4bhr12rcd13ifvqhpg","pricing_plan_id":"cebpf4jnsgd1na2vs0mg"},{"bike_id":"198a8a48-9082-408a-ac7c-20dca32fbf4e","system_id":"levelo_inurba_marseille","lat":43.32041,"lon":5.40895,"is_reserved":false,"is_disabled":false,"rental_uris":{"android":"levelo://app?vid=198a8a48-9082-408a-ac7c-20dca32fbf4e","ios":"levelo://app?vid=198a8a48-9082-408a-ac7c-20dca32fbf4e"},"vehicle_type_id":"4","last_reported":1753737038,"current_range_meters":6000,"station_id":"","pricing_plan_id":"cebpf4jnsgd1na2vs0mg"},{"bike_id":"57d2148b-4900-48dc-9253-f8ca7d2e9d8a","system_id":"levelo_inurba_marseille","lat":43.303122,"lon":5.405017,"is_reserved":false,"is_disabled":false,"rental_uris":{"android":"levelo://app?vid=57d2148b-4900-48dc-9253-f8ca7d2e9d8a","ios":"levelo://app?vid=57d2148b-4900-48dc-9253-f8ca7d2e9d8a"},"vehicle_type_id":"4","last_reported":1753737038,"current_range_meters":6400,"station_id":"","pricing_plan_id":"cebpf4jnsgd1na2vs0mg"},{"bike_id":"83a9b144-2b82-4831-b929-f9cec8d43762","system_id":"levelo_inurba_marseille","lat":43.31264,"lon":5.40162,"is_reserved":false,"is_disabled":false,"rental_uris":{"android":"levelo://app?vid=83a9b144-2b82-4831-b929-f9cec8d43762","ios":"levelo://app?vid=83a9b144-2b82-4831-b929-f9cec8d43762"},"vehicle_type_id":"4","last_reported":1753737038,"current_range_meters":6400,"station_id":"ce4bh092rcd13ifvqd30","pricing_plan_id":"cebpf4jnsgd1na2vs0mg"},{"bike_id":"11648341-5a9b-4630-b256-1b937e7ffd66","system_id":"levelo_inurba_marseille","lat":43.31127,"lon":5.37652,"is_reserved":false,"is_disabled":false,"rental_uris":{"android":"levelo://app?vid=11648341-5a9b-4630-b256-1b937e7ffd66","ios":"levelo://app?vid=11648341-5a9b-4630-b256-1b937e7ffd66"},"vehicle_type_id":"4","last_reported":1753737038,"current_range_meters":6800,"station_id":"","pricing_plan_id":"cebpf4jnsgd1na2vs0mg"},{"bike_id":"9224d44f-b3b7-49ff-8b34-4adc2f93b1b2","system_id":"levelo_inurba_marseille","lat":43.31162,"lon":5.38722,"is_reserved":false,"is_disabled":false,"rental_uris":{"android":"levelo://app?vid=9224d44f-b3b7-49ff-8b34-4adc2f93b1b2","ios":"levelo://app?vid=9224d44f-b3b7-49ff-8b34-4adc2f93b1b2"},"vehicle_type_id":"4","last_reported":1753737038,"current_range_meters":6800,"station_id":"ce4bgv12rcd13ifvqcp0","pricing_plan_id":"cebpf4jnsgd1na2vs0mg"},{"bike_id":"f11d5c36-c7b9-4fc1-92df-c7e100615396","system_id":"levelo_inurba_marseille","lat":43.29537,"lon":5.42286,"is_reserved":false,"is_disabled":false,"rental_uris":{"android":"levelo://app?vid=f11d5c36-c7b9-4fc1-92df-c7e100615396","ios":"levelo://app?vid=f11d5c36-c7b9-4fc1-92df-c7e100615396"},"vehicle_type_id":"4","last_reported":1753737038,"current_range_meters":6800,"station_id":"ce4bhph2rcd13ifvqhdg","pricing_plan_id":"cebpf4jnsgd1na2vs0mg"},{"bike_id":"4b21c740-cd94-4ad8-ae1e-53529b4111ba","system_id":"levelo_inurba_marseille","lat":43.305969,"lon":5.372344,"is_reserved":false,"is_disabled":false,"rental_uris":{"android":"levelo://app?vid=4b21c740-cd94-4ad8-ae1e-53529b4111ba","ios":"levelo://app?vid=4b21c740-cd94-4ad8-ae1e-53529b4111ba"},"vehicle_type_id":"4","last_reported":1753737038,"current_range_meters":7200,"station_id":"ce4bgqh2rcd13ifvqc4g","pricing_plan_id":"cebpf4jnsgd1na2vs0mg"},{"bike_id":"463e03fe-b9b0-4212-a764-9bd6d78e3c2e","system_id":"levelo_inurba_marseille","lat":43.31014,"lon":5.38137,"is_reserved":false,"is_disabled":false,"rental_uris":{"android":"levelo://app?vid=463e03fe-b9b0-4212-a764-9bd6d78e3c2e","ios":"levelo://app?vid=463e03fe-b9b0-4212-a764-9bd6d78e3c2e"},"vehicle_type_id":"4","last_reported":1753737038,"current_range_meters":7200,"station_id":"","pricing_plan_id":"cebpf4jnsgd1na2vs0mg"},{"bike_id":"27f4df34-5c6a-44b2-9694-87b3f7b84abc","system_id":"levelo_inurba_marseille","lat":43.29434,"lon":5.39752,"is_reserved":false,"is_disabled":false,"rental_uris":{"android":"levelo://app?vid=27f4df34-5c6a-44b2-9694-87b3f7b84abc","ios":"levelo://app?vid=27f4df34-5c6a-44b2-9694-87b3f7b84abc"},"vehicle_type_id":"4","last_reported":1753737038,"current_range_meters":6800,"station_id":"ce4bh3h2rcd13ifvqdo0","pricing_plan_id":"cebpf4jnsgd1na2vs0mg"},{"bike_id":"c59adfaa-18bc-41f6-8862-87e19e1d7b1e","system_id":"levelo_inurba_marseille","lat":43.29579,"lon":5.36744,"is_reserved":false,"is_disabled":false,"rental_uris":{"android":"levelo://app?vid=c59adfaa-18bc-41f6-8862-87e19e1d7b1e","ios":"levelo://app?vid=c59adfaa-18bc-41f6-8862-87e19e1d7b1e"},"vehicle_type_id":"4","last_reported":1753737038,"current_range_meters":6800,"station_id":"ce4bgph2rcd13ifvqc2g","pricing_plan_id":"cebpf4jnsgd1na2vs0mg"},{"bike_id":"b604414a-75d1-4caf-88ce-dc870ad2bb31","system_id":"levelo_inurba_marseille","lat":43.27969,"lon":5.38711,"is_reserved":false,"is_disabled":false,"rental_uris":{"android":"levelo://app?vid=b604414a-75d1-4caf-88ce-dc870ad2bb31","ios":"levelo://app?vid=b604414a-75d1-4caf-88ce-dc870ad2bb31"},"vehicle_type_id":"4","last_reported":1753737038,"current_range_meters":8000,"station_id":"ce4bhg12rcd13ifvqf80","pricing_plan_id":"cebpf4jnsgd1na2vs0mg"},{"bike_id":"da0dea9a-07a2-4249-aa7c-2489e28d40de","system_id":"levelo_inurba_marseille","lat":43.29621,"lon":5.36278,"is_reserved":false,"is_disabled":false,"rental_uris":{"android":"levelo://app?vid=da0dea9a-07a2-4249-aa7c-2489e28d40de","ios":"levelo://app?vid=da0dea9a-07a2-4249-aa7c-2489e28d40de"},"vehicle_type_id":"4","last_reported":1753737038,"current_range_meters":8000,"station_id":"","pricing_plan_id":"cebpf4jnsgd1na2vs0mg"},{"bike_id":"1696f9bd-928c-4d58-b205-6d87881bae18","system_id":"levelo_inurba_marseille","lat":43.29271,"lon":5.38449,"is_reserved":false,"is_disabled":false,"rental_uris":{"android":"levelo://app?vid=1696f9bd-928c-4d58-b205-6d87881bae18","ios":"levelo://app?vid=1696f9bd-928c-4d58-b205-6d87881bae18"},"vehicle_type_id":"4","last_reported":1753737038,"current_range_meters":8400,"station_id":"ce4bh692rcd13ifvqea0","pricing_plan_id":"cebpf4jnsgd1na2vs0mg"},{"bike_id":"0c2f0334-2ecd-4593-bd4d-801009b6b969","system_id":"levelo_inurba_marseille","lat":43.27979,"lon":5.4165,"is_reserved":false,"is_disabled":false,"rental_uris":{"android":"levelo://app?vid=0c2f0334-2ecd-4593-bd4d-801009b6b969","ios":"levelo://app?vid=0c2f0334-2ecd-4593-bd4d-801009b6b969"},"vehicle_type_id":"4","last_reported":1753737038,"current_range_meters":8400,"station_id":"ce4bho12rcd13ifvqh1g","pricing_plan_id":"cebpf4jnsgd1na2vs0mg"},{"bike_id":"c4b5428a-10ac-4bb9-8720-27b495adcad8","system_id":"levelo_inurba_marseille","lat":43.2862,"lon":5.35113,"is_reserved":false,"is_disabled":false,"rental_uris":{"android":"levelo://app?vid=c4b5428a-10ac-4bb9-8720-27b495adcad8","ios":"levelo://app?vid=c4b5428a-10ac-4bb9-8720-27b495adcad8"},"vehicle_type_id":"4","last_reported":1753737038,"current_range_meters":8400,"station_id":"ce4bhch2rcd13ifvqeug","pricing_plan_id":"cebpf4jnsgd1na2vs0mg"},{"bike_id":"638bc15a-1fac-42c6-b9d0-ec674c8637df","system_id":"levelo_inurba_marseille","lat":43.30871,"lon":5.37183,"is_reserved":false,"is_disabled":false,"rental_uris":{"android":"levelo://app?vid=638bc15a-1fac-42c6-b9d0-ec674c8637df","ios":"levelo://app?vid=638bc15a-1fac-42c6-b9d0-ec674c8637df"},"vehicle_type_id":"4","last_reported":1753737038,"current_range_meters":8800,"station_id":"ce4bguh2rcd13ifvqckg","pricing_plan_id":"cebpf4jnsgd1na2vs0mg"},{"bike_id":"d1ee7493-1c8a-469d-8c3c-eed7b0a6afe5","system_id":"levelo_inurba_marseille","lat":43.299683,"lon":5.386239,"is_reserved":false,"is_disabled":false,"rental_uris":{"android":"levelo://app?vid=d1ee7493-1c8a-469d-8c3c-eed7b0a6afe5","ios":"levelo://app?vid=d1ee7493-1c8a-469d-8c3c-eed7b0a6afe5"},"vehicle_type_id":"4","last_reported":1753737038,"current_range_meters":8800,"station_id":"","pricing_plan_id":"cebpf4jnsgd1na2vs0mg"},{"bike_id":"bf295fbf-1f72-4e1a-a8f1-f319bb5fd736","system_id":"levelo_inurba_marseille","lat":43.29314,"lon":5.37035,"is_reserved":false,"is_disabled":false,"rental_uris":{"android":"levelo://app?vid=bf295fbf-1f72-4e1a-a8f1-f319bb5fd736","ios":"levelo://app?vid=bf295fbf-1f72-4e1a-a8f1-f319bb5fd736"},"vehicle_type_id":"4","last_reported":1753737038,"current_range_meters":8800,"station_id":"","pricing_plan_id":"cebpf4jnsgd1na2vs0mg"},{"bike_id":"77bd0b44-ee79-4b28-9980-3e9ac108ced9","system_id":"levelo_inurba_marseille","lat":43.31704,"lon":5.43712,"is_reserved":false,"is_disabled":false,"rental_uris":{"android":"levelo://app?vid=77bd0b44-ee79-4b28-9980-3e9ac108ced9","ios":"levelo://app?vid=77bd0b44-ee79-4b28-9980-3e9ac108ced9"},"vehicle_type_id":"4","last_reported":1753737038,"current_range_meters":8800,"station_id":"ce4bhp92rcd13ifvqhcg","pricing_plan_id":"cebpf4jnsgd1na2vs0mg"},{"bike_id":"06943e41-0870-4a54-a54a-7a2b9ba02564","system_id":"levelo_inurba_marseille","lat":43.29926,"lon":5.38209,"is_reserved":false,"is_disabled":false,"rental_uris":{"android":"levelo://app?vid=06943e41-0870-4a54-a54a-7a2b9ba02564","ios":"levelo://app?vid=06943e41-0870-4a54-a54a-7a2b9ba02564"},"vehicle_type_id":"4","last_reported":1753737038,"current_range_meters":8800,"station_id":"","pricing_plan_id":"cebpf4jnsgd1na2vs0mg"},{"bike_id":"4f020d92-8765-4eac-adb3-6d0daf9ec32d","system_id":"levelo_inurba_marseille","lat":43.28416,"lon":5.34989,"is_reserved":false,"is_disabled":false,"rental_uris":{"android":"levelo://app?vid=4f020d92-8765-4eac-adb3-6d0daf9ec32d","ios":"levelo://app?vid=4f020d92-8765-4eac-adb3-6d0daf9ec32d"},"vehicle_type_id":"4","last_reported":1753737038,"current_range_meters":9200,"station_id":"ce4bhbh2rcd13ifvqepg","pricing_plan_id":"cebpf4jnsgd1na2vs0mg"},{"bike_id":"fb45cff3-08fa-4cc9-bf53-0d8295f6b8d1","system_id":"levelo_inurba_marseille","lat":43.27875,"lon":5.42818,"is_reserved":false,"is_disabled":false,"rental_uris":{"android":"levelo://app?vid=fb45cff3-08fa-4cc9-bf53-0d8295f6b8d1","ios":"levelo://app?vid=fb45cff3-08fa-4cc9-bf53-0d8295f6b8d1"},"vehicle_type_id":"4","last_reported":1753737038,"current_range_meters":9200,"station_id":"","pricing_plan_id":"cebpf4jnsgd1na2vs0mg"},{"bike_id":"eac438a9-250c-4f80-b97e-66e585adbfcf","system_id":"levelo_inurba_marseille","lat":43.22505,"lon":5.34775,"is_reserved":false,"is_disabled":false,"rental_uris":{"android":"levelo://app?vid=eac438a9-250c-4f80-b97e-66e585adbfcf","ios":"levelo://app?vid=eac438a9-250c-4f80-b97e-66e585adbfcf"},"vehicle_type_id":"4","last_reported":1753737038,"current_range_meters":9200,"station_id":"st_cvj5dfep6f1abm77gieg","pricing_plan_id":"cebpf4jnsgd1na2vs0mg"},{"bike_id":"3152576e-d602-4c3f-980e-717f41aed773","system_id":"levelo_inurba_marseille","lat":43.33737,"lon":5.37465,"is_reserved":false,"is_disabled":false,"rental_uris":{"android":"levelo://app?vid=3152576e-d602-4c3f-980e-717f41aed773","ios":"levelo://app?vid=3152576e-d602-4c3f-980e-717f41aed773"},"vehicle_type_id":"4","last_reported":1753737038,"current_range_meters":9200,"station_id":"","pricing_plan_id":"cebpf4jnsgd1na2vs0mg"},{"bike_id":"88711c8e-0d35-4243-828a-d0c18d208246","system_id":"levelo_inurba_marseille","lat":43.28159,"lon":5.42657,"is_reserved":false,"is_disabled":false,"rental_uris":{"android":"levelo://app?vid=88711c8e-0d35-4243-828a-d0c18d208246","ios":"levelo://app?vid=88711c8e-0d35-4243-828a-d0c18d208246"},"vehicle_type_id":"4","last_reported":1753737038,"current_range_meters":9600,"station_id":"ce4bhnh2rcd13ifvqgug","pricing_plan_id":"cebpf4jnsgd1na2vs0mg"},{"bike_id":"cb929fa2-213e-4bd8-9ced-d23915147159","system_id":"levelo_inurba_marseille","lat":43.32286,"lon":5.38267,"is_reserved":false,"is_disabled":false,"rental_uris":{"android":"levelo://app?vid=cb929fa2-213e-4bd8-9ced-d23915147159","ios":"levelo://app?vid=cb929fa2-213e-4bd8-9ced-d23915147159"},"vehicle_type_id":"4","last_reported":1753737038,"current_range_meters":9200,"station_id":"ce4bhr12rcd13ifvqhqg","pricing_plan_id":"cebpf4jnsgd1na2vs0mg"},{"bike_id":"92995e75-acdc-4cd4-ab92-5c3564a22d5a","system_id":"levelo_inurba_marseille","lat":43.29611,"lon":5.38106,"is_reserved":false,"is_disabled":false,"rental_uris":{"android":"levelo://app?vid=92995e75-acdc-4cd4-ab92-5c3564a22d5a","ios":"levelo://app?vid=92995e75-acdc-4cd4-ab92-5c3564a22d5a"},"vehicle_type_id":"4","last_reported":1753737038,"current_range_meters":9600,"station_id":"ce4bgl12rcd13ifvqbo0","pricing_plan_id":"cebpf4jnsgd1na2vs0mg"},{"bike_id":"f078f85b-29cc-469a-b7a1-13876bebe32b","system_id":"levelo_inurba_marseille","lat":43.29596,"lon":5.36751,"is_reserved":false,"is_disabled":false,"rental_uris":{"android":"levelo://app?vid=f078f85b-29cc-469a-b7a1-13876bebe32b","ios":"levelo://app?vid=f078f85b-29cc-469a-b7a1-13876bebe32b"},"vehicle_type_id":"4","last_reported":1753737038,"current_range_meters":9600,"station_id":"ce4bgph2rcd13ifvqc2g","pricing_plan_id":"cebpf4jnsgd1na2vs0mg"},{"bike_id":"b0ef0026-e48f-4b6c-9843-5ccc25041aab","system_id":"levelo_inurba_marseille","lat":43.31529,"lon":5.3803,"is_reserved":false,"is_disabled":false,"rental_uris":{"android":"levelo://app?vid=b0ef0026-e48f-4b6c-9843-5ccc25041aab","ios":"levelo://app?vid=b0ef0026-e48f-4b6c-9843-5ccc25041aab"},"vehicle_type_id":"4","last_reported":1753737038,"current_range_meters":9600,"station_id":"ce4bhsp2rcd13ifvqi50","pricing_plan_id":"cebpf4jnsgd1na2vs0mg"},{"bike_id":"b7aaff0a-c1ab-42d1-856e-fb10176ebe4b","system_id":"levelo_inurba_marseille","lat":43.27961,"lon":5.38766,"is_reserved":false,"is_disabled":false,"rental_uris":{"android":"levelo://app?vid=b7aaff0a-c1ab-42d1-856e-fb10176ebe4b","ios":"levelo://app?vid=b7aaff0a-c1ab-42d1-856e-fb10176ebe4b"},"vehicle_type_id":"4","last_reported":1753737038,"current_range_meters":9600,"station_id":"ce4bhg12rcd13ifvqf80","pricing_plan_id":"cebpf4jnsgd1na2vs0mg"},{"bike_id":"c9746ec4-0216-40bc-8c5b-779f7f9adcde","system_id":"levelo_inurba_marseille","lat":43.31525,"lon":5.38042,"is_reserved":false,"is_disabled":false,"rental_uris":{"android":"levelo://app?vid=c9746ec4-0216-40bc-8c5b-779f7f9adcde","ios":"levelo://app?vid=c9746ec4-0216-40bc-8c5b-779f7f9adcde"},"vehicle_type_id":"4","last_reported":1753737038,"current_range_meters":9600,"station_id":"ce4bhsp2rcd13ifvqi50","pricing_plan_id":"cebpf4jnsgd1na2vs0mg"},{"bike_id":"704a475e-b3dc-4102-a491-422475a5b7b1","system_id":"levelo_inurba_marseille","lat":43.28072,"lon":5.39657,"is_reserved":false,"is_disabled":false,"rental_uris":{"android":"levelo://app?vid=704a475e-b3dc-4102-a491-422475a5b7b1","ios":"levelo://app?vid=704a475e-b3dc-4102-a491-422475a5b7b1"},"vehicle_type_id":"4","last_reported":1753737038,"current_range_meters":10000,"station_id":"ce4bho12rcd13ifvqh2g","pricing_plan_id":"cebpf4jnsgd1na2vs0mg"},{"bike_id":"b0562e78-62b2-42dc-bb1e-2da442cdc296","system_id":"levelo_inurba_marseille","lat":43.28608,"lon":5.35103,"is_reserved":false,"is_disabled":false,"rental_uris":{"android":"levelo://app?vid=b0562e78-62b2-42dc-bb1e-2da442cdc296","ios":"levelo://app?vid=b0562e78-62b2-42dc-bb1e-2da442cdc296"},"vehicle_type_id":"4","last_reported":1753737038,"current_range_meters":10800,"station_id":"ce4bhch2rcd13ifvqeug","pricing_plan_id":"cebpf4jnsgd1na2vs0mg"},{"bike_id":"22709049-0d39-445f-b228-d9eaa5759f44","system_id":"levelo_inurba_marseille","lat":43.28404,"lon":5.34995,"is_reserved":false,"is_disabled":false,"rental_uris":{"android":"levelo://app?vid=22709049-0d39-445f-b228-d9eaa5759f44","ios":"levelo://app?vid=22709049-0d39-445f-b228-d9eaa5759f44"},"vehicle_type_id":"4","last_reported":1753737038,"current_range_meters":10800,"station_id":"ce4bhbh2rcd13ifvqepg","pricing_plan_id":"cebpf4jnsgd1na2vs0mg"},{"bike_id":"ba19fae0-44ee-437f-913a-8c915df8c368","system_id":"levelo_inurba_marseille","lat":43.28432,"lon":5.3502,"is_reserved":false,"is_disabled":false,"rental_uris":{"android":"levelo://app?vid=ba19fae0-44ee-437f-913a-8c915df8c368","ios":"levelo://app?vid=ba19fae0-44ee-437f-913a-8c915df8c368"},"vehicle_type_id":"4","last_reported":1753737038,"current_range_meters":10800,"station_id":"ce4bhbh2rcd13ifvqepg","pricing_plan_id":"cebpf4jnsgd1na2vs0mg"},{"bike_id":"2cf31370-d3b0-4cb4-bcf0-8f69a04b3bc3","system_id":"levelo_inurba_marseille","lat":43.286139,"lon":5.350945,"is_reserved":false,"is_disabled":false,"rental_uris":{"android":"levelo://app?vid=2cf31370-d3b0-4cb4-bcf0-8f69a04b3bc3","ios":"levelo://app?vid=2cf31370-d3b0-4cb4-bcf0-8f69a04b3bc3"},"vehicle_type_id":"4","last_reported":1753737038,"current_range_meters":10800,"station_id":"ce4bhch2rcd13ifvqeug","pricing_plan_id":"cebpf4jnsgd1na2vs0mg"},{"bike_id":"feb40379-0815-4a68-aadb-305942f11d04","system_id":"levelo_inurba_marseille","lat":43.24947,"lon":5.39033,"is_reserved":false,"is_disabled":true,"rental_uris":{"android":"levelo://app?vid=feb40379-0815-4a68-aadb-305942f11d04","ios":"levelo://app?vid=feb40379-0815-4a68-aadb-305942f11d04"},"vehicle_type_id":"4","last_reported":1753737038,"current_range_meters":10800,"station_id":"","pricing_plan_id":"cebpf4jnsgd1na2vs0mg"},{"bike_id":"0d079687-545f-4bf6-8076-1fab5fa9e33c","system_id":"levelo_inurba_marseille","lat":43.26194,"lon":5.37468,"is_reserved":false,"is_disabled":false,"rental_uris":{"android":"levelo://app?vid=0d079687-545f-4bf6-8076-1fab5fa9e33c","ios":"levelo://app?vid=0d079687-545f-4bf6-8076-1fab5fa9e33c"},"vehicle_type_id":"4","last_reported":1753737038,"current_range_meters":11200,"station_id":"ce4bhgp2rcd13ifvqfc0","pricing_plan_id":"cebpf4jnsgd1na2vs0mg"},{"bike_id":"9a53c405-7cae-4213-857e-35d22ee808a3","system_id":"levelo_inurba_marseille","lat":43.28427,"lon":5.35009,"is_reserved":false,"is_disabled":false,"rental_uris":{"android":"levelo://app?vid=9a53c405-7cae-4213-857e-35d22ee808a3","ios":"levelo://app?vid=9a53c405-7cae-4213-857e-35d22ee808a3"},"vehicle_type_id":"4","last_reported":1753737038,"current_range_meters":11200,"station_id":"ce4bhbh2rcd13ifvqepg","pricing_plan_id":"cebpf4jnsgd1na2vs0mg"},{"bike_id":"c490285a-ad86-41e9-a650-bc7838a33af4","system_id":"levelo_inurba_marseille","lat":43.23068,"lon":5.35488,"is_reserved":false,"is_disabled":false,"rental_uris":{"android":"levelo://app?vid=c490285a-ad86-41e9-a650-bc7838a33af4","ios":"levelo://app?vid=c490285a-ad86-41e9-a650-bc7838a33af4"},"vehicle_type_id":"4","last_reported":1753737038,"current_range_meters":11200,"station_id":"cpo3342slgdg3j2ifvpg","pricing_plan_id":"cebpf4jnsgd1na2vs0mg"},{"bike_id":"3d7bd2df-1620-4d2f-8a21-1ea51448f90e","system_id":"levelo_inurba_marseille","lat":43.28615,"lon":5.35117,"is_reserved":false,"is_disabled":false,"rental_uris":{"android":"levelo://app?vid=3d7bd2df-1620-4d2f-8a21-1ea51448f90e","ios":"levelo://app?vid=3d7bd2df-1620-4d2f-8a21-1ea51448f90e"},"vehicle_type_id":"4","last_reported":1753737038,"current_range_meters":11200,"station_id":"ce4bhch2rcd13ifvqeug","pricing_plan_id":"cebpf4jnsgd1na2vs0mg"},{"bike_id":"3efe99ad-0b45-4c18-92ca-96f6cb43a670","system_id":"levelo_inurba_marseille","lat":43.32326,"lon":5.36687,"is_reserved":false,"is_disabled":true,"rental_uris":{"android":"levelo://app?vid=3efe99ad-0b45-4c18-92ca-96f6cb43a670","ios":"levelo://app?vid=3efe99ad-0b45-4c18-92ca-96f6cb43a670"},"vehicle_type_id":"4","last_reported":1753737038,"current_range_meters":11200,"station_id":"ce4bhsh2rcd13ifvqi2g","pricing_plan_id":"cebpf4jnsgd1na2vs0mg"},{"bike_id":"28a46342-4835-4ef4-a561-63d01bab106c","system_id":"levelo_inurba_marseille","lat":43.28612,"lon":5.35117,"is_reserved":false,"is_disabled":false,"rental_uris":{"android":"levelo://app?vid=28a46342-4835-4ef4-a561-63d01bab106c","ios":"levelo://app?vid=28a46342-4835-4ef4-a561-63d01bab106c"},"vehicle_type_id":"4","last_reported":1753737038,"current_range_meters":11200,"station_id":"ce4bhch2rcd13ifvqeug","pricing_plan_id":"cebpf4jnsgd1na2vs0mg"},{"bike_id":"c85546d4-3ea8-44da-9c2d-e6b7bf575831","system_id":"levelo_inurba_marseille","lat":43.28422,"lon":5.3498,"is_reserved":false,"is_disabled":false,"rental_uris":{"android":"levelo://app?vid=c85546d4-3ea8-44da-9c2d-e6b7bf575831","ios":"levelo://app?vid=c85546d4-3ea8-44da-9c2d-e6b7bf575831"},"vehicle_type_id":"4","last_reported":1753737038,"current_range_meters":11200,"station_id":"ce4bhbh2rcd13ifvqepg","pricing_plan_id":"cebpf4jnsgd1na2vs0mg"},{"bike_id":"0710cc23-964c-41f9-b259-8bd1211f7d6e","system_id":"levelo_inurba_marseille","lat":43.28613,"lon":5.35108,"is_reserved":false,"is_disabled":false,"rental_uris":{"android":"levelo://app?vid=0710cc23-964c-41f9-b259-8bd1211f7d6e","ios":"levelo://app?vid=0710cc23-964c-41f9-b259-8bd1211f7d6e"},"vehicle_type_id":"4","last_reported":1753737038,"current_range_meters":11600,"station_id":"ce4bhch2rcd13ifvqeug","pricing_plan_id":"cebpf4jnsgd1na2vs0mg"},{"bike_id":"0dd0f68e-6e0d-4262-9ea7-fec04b7ede4d","system_id":"levelo_inurba_marseille","lat":43.27859,"lon":5.39198,"is_reserved":false,"is_disabled":false,"rental_uris":{"android":"levelo://app?vid=0dd0f68e-6e0d-4262-9ea7-fec04b7ede4d","ios":"levelo://app?vid=0dd0f68e-6e0d-4262-9ea7-fec04b7ede4d"},"vehicle_type_id":"4","last_reported":1753737038,"current_range_meters":11600,"station_id":"ce4bhjp2rcd13ifvqga0","pricing_plan_id":"cebpf4jnsgd1na2vs0mg"},{"bike_id":"8e37ef79-bd01-46c2-9d9e-3d3f7741a07a","system_id":"levelo_inurba_marseille","lat":43.297302,"lon":5.374166,"is_reserved":false,"is_disabled":false,"rental_uris":{"android":"levelo://app?vid=8e37ef79-bd01-46c2-9d9e-3d3f7741a07a","ios":"levelo://app?vid=8e37ef79-bd01-46c2-9d9e-3d3f7741a07a"},"vehicle_type_id":"4","last_reported":1753737038,"current_range_meters":11600,"station_id":"","pricing_plan_id":"cebpf4jnsgd1na2vs0mg"},{"bike_id":"3be48ac4-9d3c-486a-bd60-c64cdf4f8d54","system_id":"levelo_inurba_marseille","lat":43.28362,"lon":5.38101,"is_reserved":false,"is_disabled":false,"rental_uris":{"android":"levelo://app?vid=3be48ac4-9d3c-486a-bd60-c64cdf4f8d54","ios":"levelo://app?vid=3be48ac4-9d3c-486a-bd60-c64cdf4f8d54"},"vehicle_type_id":"4","last_reported":1753737038,"current_range_meters":11600,"station_id":"ce4bh412rcd13ifvqdr0","pricing_plan_id":"cebpf4jnsgd1na2vs0mg"},{"bike_id":"467035e7-1dac-427b-869f-c900d457faf0","system_id":"levelo_inurba_marseille","lat":43.29269,"lon":5.3846,"is_reserved":false,"is_disabled":false,"rental_uris":{"android":"levelo://app?vid=467035e7-1dac-427b-869f-c900d457faf0","ios":"levelo://app?vid=467035e7-1dac-427b-869f-c900d457faf0"},"vehicle_type_id":"4","last_reported":1753737038,"current_range_meters":11600,"station_id":"ce4bh692rcd13ifvqea0","pricing_plan_id":"cebpf4jnsgd1na2vs0mg"},{"bike_id":"4dbca519-e803-4927-bd7b-2d13ba2bbd05","system_id":"levelo_inurba_marseille","lat":43.29881,"lon":5.38903,"is_reserved":false,"is_disabled":false,"rental_uris":{"android":"levelo://app?vid=4dbca519-e803-4927-bd7b-2d13ba2bbd05","ios":"levelo://app?vid=4dbca519-e803-4927-bd7b-2d13ba2bbd05"},"vehicle_type_id":"4","last_reported":1753737038,"current_range_meters":11200,"station_id":"ce4bh392rcd13ifvqdl0","pricing_plan_id":"cebpf4jnsgd1na2vs0mg"},{"bike_id":"95dd70e4-879c-49e7-b318-a6c71b22a43e","system_id":"levelo_inurba_marseille","lat":43.2703,"lon":5.39295,"is_reserved":false,"is_disabled":false,"rental_uris":{"android":"levelo://app?vid=95dd70e4-879c-49e7-b318-a6c71b22a43e","ios":"levelo://app?vid=95dd70e4-879c-49e7-b318-a6c71b22a43e"},"vehicle_type_id":"4","last_reported":1753737038,"current_range_meters":11600,"station_id":"","pricing_plan_id":"cebpf4jnsgd1na2vs0mg"},{"bike_id":"d9d4aa90-a1f6-4de1-9709-d508dc801e5a","system_id":"levelo_inurba_marseille","lat":43.28732,"lon":5.36087,"is_reserved":false,"is_disabled":false,"rental_uris":{"android":"levelo://app?vid=d9d4aa90-a1f6-4de1-9709-d508dc801e5a","ios":"levelo://app?vid=d9d4aa90-a1f6-4de1-9709-d508dc801e5a"},"vehicle_type_id":"4","last_reported":1753737038,"current_range_meters":11600,"station_id":"cki0cbj6b192h4jlfktg","pricing_plan_id":"cebpf4jnsgd1na2vs0mg"},{"bike_id":"65e3db07-f188-422b-b687-3d06cfe2bcf8","system_id":"levelo_inurba_marseille","lat":43.28058,"lon":5.34999,"is_reserved":false,"is_disabled":false,"rental_uris":{"android":"levelo://app?vid=65e3db07-f188-422b-b687-3d06cfe2bcf8","ios":"levelo://app?vid=65e3db07-f188-422b-b687-3d06cfe2bcf8"},"vehicle_type_id":"4","last_reported":1753737038,"current_range_meters":11600,"station_id":"","pricing_plan_id":"cebpf4jnsgd1na2vs0mg"},{"bike_id":"84036e62-78c0-42e9-a5c2-ad3d3703bc8c","system_id":"levelo_inurba_marseille","lat":43.279563,"lon":5.410309,"is_reserved":false,"is_disabled":true,"rental_uris":{"android":"levelo://app?vid=84036e62-78c0-42e9-a5c2-ad3d3703bc8c","ios":"levelo://app?vid=84036e62-78c0-42e9-a5c2-ad3d3703bc8c"},"vehicle_type_id":"4","last_reported":1753737038,"current_range_meters":11600,"station_id":"ce4bhnp2rcd13ifvqh0g","pricing_plan_id":"cebpf4jnsgd1na2vs0mg"},{"bike_id":"da8a121b-dd93-4a31-8254-38a795a66238","system_id":"levelo_inurba_marseille","lat":43.24057,"lon":5.3777,"is_reserved":false,"is_disabled":false,"rental_uris":{"android":"levelo://app?vid=da8a121b-dd93-4a31-8254-38a795a66238","ios":"levelo://app?vid=da8a121b-dd93-4a31-8254-38a795a66238"},"vehicle_type_id":"4","last_reported":1753737038,"current_range_meters":11600,"station_id":"ce4bhnp2rcd13ifvqgvg","pricing_plan_id":"cebpf4jnsgd1na2vs0mg"},{"bike_id":"149fbe11-3bce-47a0-b584-c7c7bd6bb12f","system_id":"levelo_inurba_marseille","lat":43.21649,"lon":5.34465,"is_reserved":false,"is_disabled":false,"rental_uris":{"android":"levelo://app?vid=149fbe11-3bce-47a0-b584-c7c7bd6bb12f","ios":"levelo://app?vid=149fbe11-3bce-47a0-b584-c7c7bd6bb12f"},"vehicle_type_id":"4","last_reported":1753737038,"current_range_meters":11600,"station_id":"","pricing_plan_id":"cebpf4jnsgd1na2vs0mg"},{"bike_id":"0be35de7-1772-4ea3-bc5f-d2148e2213f8","system_id":"levelo_inurba_marseille","lat":43.24169,"lon":5.364,"is_reserved":false,"is_disabled":false,"rental_uris":{"android":"levelo://app?vid=0be35de7-1772-4ea3-bc5f-d2148e2213f8","ios":"levelo://app?vid=0be35de7-1772-4ea3-bc5f-d2148e2213f8"},"vehicle_type_id":"4","last_reported":1753737038,"current_range_meters":11600,"station_id":"cpo36qri1sfpv3e86is0","pricing_plan_id":"cebpf4jnsgd1na2vs0mg"},{"bike_id":"209c73e6-1f69-4d13-9fed-77cb46eecd05","system_id":"levelo_inurba_marseille","lat":43.34681,"lon":5.38065,"is_reserved":false,"is_disabled":false,"rental_uris":{"android":"levelo://app?vid=209c73e6-1f69-4d13-9fed-77cb46eecd05","ios":"levelo://app?vid=209c73e6-1f69-4d13-9fed-77cb46eecd05"},"vehicle_type_id":"4","last_reported":1753737038,"current_range_meters":11600,"station_id":"","pricing_plan_id":"cebpf4jnsgd1na2vs0mg"},{"bike_id":"108b3875-9677-473a-96fe-c1ecf75f4b39","system_id":"levelo_inurba_marseille","lat":43.25717,"lon":5.41113,"is_reserved":false,"is_disabled":false,"rental_uris":{"android":"levelo://app?vid=108b3875-9677-473a-96fe-c1ecf75f4b39","ios":"levelo://app?vid=108b3875-9677-473a-96fe-c1ecf75f4b39"},"vehicle_type_id":"4","last_reported":1753737038,"current_range_meters":12000,"station_id":"ce4bhkp2rcd13ifvqgd0","pricing_plan_id":"cebpf4jnsgd1na2vs0mg"},{"bike_id":"965f650d-b285-4585-87ee-93a09cb2f909","system_id":"levelo_inurba_marseille","lat":43.23152,"lon":5.43714,"is_reserved":false,"is_disabled":false,"rental_uris":{"android":"levelo://app?vid=965f650d-b285-4585-87ee-93a09cb2f909","ios":"levelo://app?vid=965f650d-b285-4585-87ee-93a09cb2f909"},"vehicle_type_id":"4","last_reported":1753737038,"current_range_meters":12000,"station_id":"ce4bhmp2rcd13ifvqgog","pricing_plan_id":"cebpf4jnsgd1na2vs0mg"},{"bike_id":"ebb0c905-5c52-41f0-be36-97ac127af859","system_id":"levelo_inurba_marseille","lat":43.27493,"lon":5.42453,"is_reserved":false,"is_disabled":false,"rental_uris":{"android":"levelo://app?vid=ebb0c905-5c52-41f0-be36-97ac127af859","ios":"levelo://app?vid=ebb0c905-5c52-41f0-be36-97ac127af859"},"vehicle_type_id":"4","last_reported":1753737038,"current_range_meters":12000,"station_id":"ce4bhn92rcd13ifvqgrg","pricing_plan_id":"cebpf4jnsgd1na2vs0mg"},{"bike_id":"6541f4e1-7382-4881-89d6-9d6d6932e167","system_id":"levelo_inurba_marseille","lat":43.30248,"lon":5.40097,"is_reserved":false,"is_disabled":false,"rental_uris":{"android":"levelo://app?vid=6541f4e1-7382-4881-89d6-9d6d6932e167","ios":"levelo://app?vid=6541f4e1-7382-4881-89d6-9d6d6932e167"},"vehicle_type_id":"4","last_reported":1753737038,"current_range_meters":12000,"station_id":"ce4bgvh2rcd13ifvqcs0","pricing_plan_id":"cebpf4jnsgd1na2vs0mg"},{"bike_id":"566318c0-acd9-479b-992c-08b1489d24e6","system_id":"levelo_inurba_marseille","lat":43.30589,"lon":5.39361,"is_reserved":false,"is_disabled":false,"rental_uris":{"android":"levelo://app?vid=566318c0-acd9-479b-992c-08b1489d24e6","ios":"levelo://app?vid=566318c0-acd9-479b-992c-08b1489d24e6"},"vehicle_type_id":"4","last_reported":1753737038,"current_range_meters":12400,"station_id":"ce4bh0p2rcd13ifvqd80","pricing_plan_id":"cebpf4jnsgd1na2vs0mg"},{"bike_id":"24e4fbdb-edb3-4f7d-8c37-f4ec34322a64","system_id":"levelo_inurba_marseille","lat":43.308947,"lon":5.37207,"is_reserved":false,"is_disabled":false,"rental_uris":{"android":"levelo://app?vid=24e4fbdb-edb3-4f7d-8c37-f4ec34322a64","ios":"levelo://app?vid=24e4fbdb-edb3-4f7d-8c37-f4ec34322a64"},"vehicle_type_id":"4","last_reported":1753737038,"current_range_meters":12400,"station_id":"ce4bguh2rcd13ifvqckg","pricing_plan_id":"cebpf4jnsgd1na2vs0mg"},{"bike_id":"4a3f6541-c9b0-45d8-ac3a-e7e76ed59bf5","system_id":"levelo_inurba_marseille","lat":43.24648,"lon":5.38886,"is_reserved":false,"is_disabled":false,"rental_uris":{"android":"levelo://app?vid=4a3f6541-c9b0-45d8-ac3a-e7e76ed59bf5","ios":"levelo://app?vid=4a3f6541-c9b0-45d8-ac3a-e7e76ed59bf5"},"vehicle_type_id":"4","last_reported":1753737038,"current_range_meters":12400,"station_id":"ce4bhg12rcd13ifvqf60","pricing_plan_id":"cebpf4jnsgd1na2vs0mg"},{"bike_id":"3dd2b2f9-64bc-4f1c-ad06-386f2ab19894","system_id":"levelo_inurba_marseille","lat":43.29747,"lon":5.36439,"is_reserved":false,"is_disabled":false,"rental_uris":{"android":"levelo://app?vid=3dd2b2f9-64bc-4f1c-ad06-386f2ab19894","ios":"levelo://app?vid=3dd2b2f9-64bc-4f1c-ad06-386f2ab19894"},"vehicle_type_id":"4","last_reported":1753737038,"current_range_meters":12400,"station_id":"","pricing_plan_id":"cebpf4jnsgd1na2vs0mg"},{"bike_id":"3179abad-e0fe-4492-a29d-de7e91426623","system_id":"levelo_inurba_marseille","lat":43.28266,"lon":5.3509,"is_reserved":false,"is_disabled":true,"rental_uris":{"android":"levelo://app?vid=3179abad-e0fe-4492-a29d-de7e91426623","ios":"levelo://app?vid=3179abad-e0fe-4492-a29d-de7e91426623"},"vehicle_type_id":"4","last_reported":1753737038,"current_range_meters":12400,"station_id":"ce4bhbp2rcd13ifvqerg","pricing_plan_id":"cebpf4jnsgd1na2vs0mg"},{"bike_id":"9d81c361-5b7f-44dc-b0f1-1f6fccafd051","system_id":"levelo_inurba_marseille","lat":43.27999,"lon":5.41666,"is_reserved":false,"is_disabled":false,"rental_uris":{"android":"levelo://app?vid=9d81c361-5b7f-44dc-b0f1-1f6fccafd051","ios":"levelo://app?vid=9d81c361-5b7f-44dc-b0f1-1f6fccafd051"},"vehicle_type_id":"4","last_reported":1753737038,"current_range_meters":12800,"station_id":"ce4bho12rcd13ifvqh1g","pricing_plan_id":"cebpf4jnsgd1na2vs0mg"},{"bike_id":"c5d6c16c-667e-4c61-9e09-b5efae6e86bc","system_id":"levelo_inurba_marseille","lat":43.299006,"lon":5.436612,"is_reserved":false,"is_disabled":false,"rental_uris":{"android":"levelo://app?vid=c5d6c16c-667e-4c61-9e09-b5efae6e86bc","ios":"levelo://app?vid=c5d6c16c-667e-4c61-9e09-b5efae6e86bc"},"vehicle_type_id":"4","last_reported":1753737038,"current_range_meters":12800,"station_id":"ce4bhpp2rcd13ifvqhfg","pricing_plan_id":"cebpf4jnsgd1na2vs0mg"},{"bike_id":"aafba76e-3da3-4ebb-9332-0bac111897c0","system_id":"levelo_inurba_marseille","lat":43.22923,"lon":5.35375,"is_reserved":false,"is_disabled":false,"rental_uris":{"android":"levelo://app?vid=aafba76e-3da3-4ebb-9332-0bac111897c0","ios":"levelo://app?vid=aafba76e-3da3-4ebb-9332-0bac111897c0"},"vehicle_type_id":"4","last_reported":1753737038,"current_range_meters":12800,"station_id":"cpo3532slgdg3j2ikp40","pricing_plan_id":"cebpf4jnsgd1na2vs0mg"},{"bike_id":"947cf9dd-0905-42a3-aafb-8e1c05b7ea7a","system_id":"levelo_inurba_marseille","lat":43.30708,"lon":5.3838,"is_reserved":false,"is_disabled":false,"rental_uris":{"android":"levelo://app?vid=947cf9dd-0905-42a3-aafb-8e1c05b7ea7a","ios":"levelo://app?vid=947cf9dd-0905-42a3-aafb-8e1c05b7ea7a"},"vehicle_type_id":"4","last_reported":1753737038,"current_range_meters":12800,"station_id":"","pricing_plan_id":"cebpf4jnsgd1na2vs0mg"},{"bike_id":"882bdff1-651a-41c1-9ab0-596f43205cf1","system_id":"levelo_inurba_marseille","lat":43.337444,"lon":5.374475,"is_reserved":false,"is_disabled":false,"rental_uris":{"android":"levelo://app?vid=882bdff1-651a-41c1-9ab0-596f43205cf1","ios":"levelo://app?vid=882bdff1-651a-41c1-9ab0-596f43205cf1"},"vehicle_type_id":"4","last_reported":1753737038,"current_range_meters":13600,"station_id":"ce4bgkp2rcd13ifvqbmg","pricing_plan_id":"cebpf4jnsgd1na2vs0mg"},{"bike_id":"05f434d5-b031-4c3d-9353-054c6c530f6f","system_id":"levelo_inurba_marseille","lat":43.30428,"lon":5.38892,"is_reserved":false,"is_disabled":false,"rental_uris":{"android":"levelo://app?vid=05f434d5-b031-4c3d-9353-054c6c530f6f","ios":"levelo://app?vid=05f434d5-b031-4c3d-9353-054c6c530f6f"},"vehicle_type_id":"4","last_reported":1753737038,"current_range_meters":13600,"station_id":"ce4bgk12rcd13ifvqbi0","pricing_plan_id":"cebpf4jnsgd1na2vs0mg"},{"bike_id":"4370e06d-b0a4-4742-a3c8-14fd373c61e9","system_id":"levelo_inurba_marseille","lat":43.28405,"lon":5.34989,"is_reserved":false,"is_disabled":false,"rental_uris":{"android":"levelo://app?vid=4370e06d-b0a4-4742-a3c8-14fd373c61e9","ios":"levelo://app?vid=4370e06d-b0a4-4742-a3c8-14fd373c61e9"},"vehicle_type_id":"4","last_reported":1753737038,"current_range_meters":13600,"station_id":"ce4bhbh2rcd13ifvqepg","pricing_plan_id":"cebpf4jnsgd1na2vs0mg"},{"bike_id":"7dd1a394-ac3b-45ae-8f59-195d372bf63b","system_id":"levelo_inurba_marseille","lat":43.30093,"lon":5.38048,"is_reserved":false,"is_disabled":true,"rental_uris":{"android":"levelo://app?vid=7dd1a394-ac3b-45ae-8f59-195d372bf63b","ios":"levelo://app?vid=7dd1a394-ac3b-45ae-8f59-195d372bf63b"},"vehicle_type_id":"4","last_reported":1753737038,"current_range_meters":13600,"station_id":"","pricing_plan_id":"cebpf4jnsgd1na2vs0mg"},{"bike_id":"57bcf702-bfc0-4a61-9027-cab0f4227ce5","system_id":"levelo_inurba_marseille","lat":43.2809,"lon":5.37872,"is_reserved":false,"is_disabled":false,"rental_uris":{"android":"levelo://app?vid=57bcf702-bfc0-4a61-9027-cab0f4227ce5","ios":"levelo://app?vid=57bcf702-bfc0-4a61-9027-cab0f4227ce5"},"vehicle_type_id":"4","last_reported":1753737038,"current_range_meters":13600,"station_id":"ce4bha12rcd13ifvqee0","pricing_plan_id":"cebpf4jnsgd1na2vs0mg"},{"bike_id":"b718c82c-c13f-4521-9b7e-fcc6394b6189","system_id":"levelo_inurba_marseille","lat":43.28346,"lon":5.381,"is_reserved":false,"is_disabled":false,"rental_uris":{"android":"levelo://app?vid=b718c82c-c13f-4521-9b7e-fcc6394b6189","ios":"levelo://app?vid=b718c82c-c13f-4521-9b7e-fcc6394b6189"},"vehicle_type_id":"4","last_reported":1753737038,"current_range_meters":13600,"station_id":"ce4bh412rcd13ifvqdr0","pricing_plan_id":"cebpf4jnsgd1na2vs0mg"},{"bike_id":"7674d6df-3608-454a-826b-9416c85adc9e","system_id":"levelo_inurba_marseille","lat":43.29276,"lon":5.4012,"is_reserved":false,"is_disabled":false,"rental_uris":{"android":"levelo://app?vid=7674d6df-3608-454a-826b-9416c85adc9e","ios":"levelo://app?vid=7674d6df-3608-454a-826b-9416c85adc9e"},"vehicle_type_id":"4","last_reported":1753737038,"current_range_meters":13600,"station_id":"ce4bh312rcd13ifvqdk0","pricing_plan_id":"cebpf4jnsgd1na2vs0mg"},{"bike_id":"3f496ed7-9a33-4d4a-8a33-a653e8bae2fd","system_id":"levelo_inurba_marseille","lat":43.32335,"lon":5.40618,"is_reserved":false,"is_disabled":false,"rental_uris":{"android":"levelo://app?vid=3f496ed7-9a33-4d4a-8a33-a653e8bae2fd","ios":"levelo://app?vid=3f496ed7-9a33-4d4a-8a33-a653e8bae2fd"},"vehicle_type_id":"4","last_reported":1753737038,"current_range_meters":13600,"station_id":"ce4bhq92rcd13ifvqhjg","pricing_plan_id":"cebpf4jnsgd1na2vs0mg"},{"bike_id":"e0ce0053-71c4-4b07-8b9e-379e7ce2bf22","system_id":"levelo_inurba_marseille","lat":43.30273,"lon":5.39841,"is_reserved":false,"is_disabled":false,"rental_uris":{"android":"levelo://app?vid=e0ce0053-71c4-4b07-8b9e-379e7ce2bf22","ios":"levelo://app?vid=e0ce0053-71c4-4b07-8b9e-379e7ce2bf22"},"vehicle_type_id":"4","last_reported":1753737038,"current_range_meters":13600,"station_id":"","pricing_plan_id":"cebpf4jnsgd1na2vs0mg"},{"bike_id":"2a3a9f20-00d1-4c95-a093-ba8e28724bc0","system_id":"levelo_inurba_marseille","lat":43.30651,"lon":5.37578,"is_reserved":false,"is_disabled":false,"rental_uris":{"android":"levelo://app?vid=2a3a9f20-00d1-4c95-a093-ba8e28724bc0","ios":"levelo://app?vid=2a3a9f20-00d1-4c95-a093-ba8e28724bc0"},"vehicle_type_id":"4","last_reported":1753737038,"current_range_meters":13600,"station_id":"","pricing_plan_id":"cebpf4jnsgd1na2vs0mg"},{"bike_id":"c1ed0047-371a-402e-a73a-0992f7f3ab1a","system_id":"levelo_inurba_marseille","lat":43.27178,"lon":5.41017,"is_reserved":false,"is_disabled":true,"rental_uris":{"android":"levelo://app?vid=c1ed0047-371a-402e-a73a-0992f7f3ab1a","ios":"levelo://app?vid=c1ed0047-371a-402e-a73a-0992f7f3ab1a"},"vehicle_type_id":"4","last_reported":1753737038,"current_range_meters":14000,"station_id":"ce4bhl12rcd13ifvqgf0","pricing_plan_id":"cebpf4jnsgd1na2vs0mg"},{"bike_id":"75f407c5-eee0-44a7-b1d2-a830949cea16","system_id":"levelo_inurba_marseille","lat":43.32287,"lon":5.3828,"is_reserved":false,"is_disabled":false,"rental_uris":{"android":"levelo://app?vid=75f407c5-eee0-44a7-b1d2-a830949cea16","ios":"levelo://app?vid=75f407c5-eee0-44a7-b1d2-a830949cea16"},"vehicle_type_id":"4","last_reported":1753737038,"current_range_meters":13600,"station_id":"ce4bhr12rcd13ifvqhqg","pricing_plan_id":"cebpf4jnsgd1na2vs0mg"},{"bike_id":"c13ce413-660f-4ff8-9547-d17d0704485e","system_id":"levelo_inurba_marseille","lat":43.21209,"lon":5.35095,"is_reserved":false,"is_disabled":false,"rental_uris":{"android":"levelo://app?vid=c13ce413-660f-4ff8-9547-d17d0704485e","ios":"levelo://app?vid=c13ce413-660f-4ff8-9547-d17d0704485e"},"vehicle_type_id":"4","last_reported":1753737038,"current_range_meters":14000,"station_id":"","pricing_plan_id":"cebpf4jnsgd1na2vs0mg"},{"bike_id":"a0757552-cef1-4156-a44e-da8e0ad06a62","system_id":"levelo_inurba_marseille","lat":43.22931,"lon":5.35375,"is_reserved":false,"is_disabled":false,"rental_uris":{"android":"levelo://app?vid=a0757552-cef1-4156-a44e-da8e0ad06a62","ios":"levelo://app?vid=a0757552-cef1-4156-a44e-da8e0ad06a62"},"vehicle_type_id":"4","last_reported":1753737038,"current_range_meters":14000,"station_id":"cpo3532slgdg3j2ikp40","pricing_plan_id":"cebpf4jnsgd1na2vs0mg"},{"bike_id":"39d47f17-7e3b-4eef-ade8-4066c80100f2","system_id":"levelo_inurba_marseille","lat":43.28938,"lon":5.36635,"is_reserved":false,"is_disabled":false,"rental_uris":{"android":"levelo://app?vid=39d47f17-7e3b-4eef-ade8-4066c80100f2","ios":"levelo://app?vid=39d47f17-7e3b-4eef-ade8-4066c80100f2"},"vehicle_type_id":"4","last_reported":1753737038,"current_range_meters":14000,"station_id":"ce4bhap2rcd13ifvqek0","pricing_plan_id":"cebpf4jnsgd1na2vs0mg"},{"bike_id":"978af847-6d99-4854-a15b-46de05aa92a8","system_id":"levelo_inurba_marseille","lat":43.30303,"lon":5.39199,"is_reserved":false,"is_disabled":false,"rental_uris":{"android":"levelo://app?vid=978af847-6d99-4854-a15b-46de05aa92a8","ios":"levelo://app?vid=978af847-6d99-4854-a15b-46de05aa92a8"},"vehicle_type_id":"4","last_reported":1753737038,"current_range_meters":14000,"station_id":"ce4bgkh2rcd13ifvqbk0","pricing_plan_id":"cebpf4jnsgd1na2vs0mg"},{"bike_id":"f297ecb0-f504-4ce2-a698-235b8f25b26b","system_id":"levelo_inurba_marseille","lat":43.24169,"lon":5.36401,"is_reserved":false,"is_disabled":false,"rental_uris":{"android":"levelo://app?vid=f297ecb0-f504-4ce2-a698-235b8f25b26b","ios":"levelo://app?vid=f297ecb0-f504-4ce2-a698-235b8f25b26b"},"vehicle_type_id":"4","last_reported":1753737038,"current_range_meters":14000,"station_id":"cpo36qri1sfpv3e86is0","pricing_plan_id":"cebpf4jnsgd1na2vs0mg"},{"bike_id":"c955bc82-f8e4-4ebb-86a7-104c0532602d","system_id":"levelo_inurba_marseille","lat":43.27172,"lon":5.40994,"is_reserved":false,"is_disabled":false,"rental_uris":{"android":"levelo://app?vid=c955bc82-f8e4-4ebb-86a7-104c0532602d","ios":"levelo://app?vid=c955bc82-f8e4-4ebb-86a7-104c0532602d"},"vehicle_type_id":"4","last_reported":1753737038,"current_range_meters":14400,"station_id":"ce4bhl12rcd13ifvqgf0","pricing_plan_id":"cebpf4jnsgd1na2vs0mg"},{"bike_id":"b47394be-66b0-49b3-9fa5-ad23c5559521","system_id":"levelo_inurba_marseille","lat":43.29303,"lon":5.372,"is_reserved":false,"is_disabled":false,"rental_uris":{"android":"levelo://app?vid=b47394be-66b0-49b3-9fa5-ad23c5559521","ios":"levelo://app?vid=b47394be-66b0-49b3-9fa5-ad23c5559521"},"vehicle_type_id":"4","last_reported":1753737038,"current_range_meters":14400,"station_id":"ce4bgh92rcd13ifvqb40","pricing_plan_id":"cebpf4jnsgd1na2vs0mg"},{"bike_id":"8badb92e-fd8c-440b-8a00-e2b92cae4802","system_id":"levelo_inurba_marseille","lat":43.24802,"lon":5.37457,"is_reserved":false,"is_disabled":false,"rental_uris":{"android":"levelo://app?vid=8badb92e-fd8c-440b-8a00-e2b92cae4802","ios":"levelo://app?vid=8badb92e-fd8c-440b-8a00-e2b92cae4802"},"vehicle_type_id":"4","last_reported":1753737038,"current_range_meters":14400,"station_id":"ce4bhgh2rcd13ifvqfb0","pricing_plan_id":"cebpf4jnsgd1na2vs0mg"},{"bike_id":"62352c01-8fb4-4193-baea-87d4bf79c6cc","system_id":"levelo_inurba_marseille","lat":43.28465,"lon":5.359011,"is_reserved":false,"is_disabled":false,"rental_uris":{"android":"levelo://app?vid=62352c01-8fb4-4193-baea-87d4bf79c6cc","ios":"levelo://app?vid=62352c01-8fb4-4193-baea-87d4bf79c6cc"},"vehicle_type_id":"4","last_reported":1753737038,"current_range_meters":14400,"station_id":"ce4bhah2rcd13ifvqei0","pricing_plan_id":"cebpf4jnsgd1na2vs0mg"},{"bike_id":"d4b0442d-37e3-4887-8827-87b59f4e9086","system_id":"levelo_inurba_marseille","lat":43.2977,"lon":5.38108,"is_reserved":false,"is_disabled":false,"rental_uris":{"android":"levelo://app?vid=d4b0442d-37e3-4887-8827-87b59f4e9086","ios":"levelo://app?vid=d4b0442d-37e3-4887-8827-87b59f4e9086"},"vehicle_type_id":"4","last_reported":1753737038,"current_range_meters":14400,"station_id":"","pricing_plan_id":"cebpf4jnsgd1na2vs0mg"},{"bike_id":"3c6d990b-d853-4774-9e68-ab11c54c28bf","system_id":"levelo_inurba_marseille","lat":43.28416,"lon":5.35,"is_reserved":false,"is_disabled":false,"rental_uris":{"android":"levelo://app?vid=3c6d990b-d853-4774-9e68-ab11c54c28bf","ios":"levelo://app?vid=3c6d990b-d853-4774-9e68-ab11c54c28bf"},"vehicle_type_id":"4","last_reported":1753737038,"current_range_meters":14400,"station_id":"ce4bhbh2rcd13ifvqepg","pricing_plan_id":"cebpf4jnsgd1na2vs0mg"},{"bike_id":"32826f34-8228-4d4b-815c-cc490d99eb72","system_id":"levelo_inurba_marseille","lat":43.22503,"lon":5.34784,"is_reserved":false,"is_disabled":false,"rental_uris":{"android":"levelo://app?vid=32826f34-8228-4d4b-815c-cc490d99eb72","ios":"levelo://app?vid=32826f34-8228-4d4b-815c-cc490d99eb72"},"vehicle_type_id":"4","last_reported":1753737038,"current_range_meters":14400,"station_id":"st_cvj5dfep6f1abm77gieg","pricing_plan_id":"cebpf4jnsgd1na2vs0mg"},{"bike_id":"2c05888a-7ae8-44a4-a376-fc4db5630c25","system_id":"levelo_inurba_marseille","lat":43.28588,"lon":5.3512,"is_reserved":false,"is_disabled":false,"rental_uris":{"android":"levelo://app?vid=2c05888a-7ae8-44a4-a376-fc4db5630c25","ios":"levelo://app?vid=2c05888a-7ae8-44a4-a376-fc4db5630c25"},"vehicle_type_id":"4","last_reported":1753737038,"current_range_meters":14400,"station_id":"ce4bhch2rcd13ifvqeug","pricing_plan_id":"cebpf4jnsgd1na2vs0mg"},{"bike_id":"a1b97484-32f0-47ed-8a3b-b44c9a0d45d8","system_id":"levelo_inurba_marseille","lat":43.297879,"lon":5.393379,"is_reserved":false,"is_disabled":false,"rental_uris":{"android":"levelo://app?vid=a1b97484-32f0-47ed-8a3b-b44c9a0d45d8","ios":"levelo://app?vid=a1b97484-32f0-47ed-8a3b-b44c9a0d45d8"},"vehicle_type_id":"4","last_reported":1753737038,"current_range_meters":14400,"station_id":"chh1huq6cuj3fo74tm60","pricing_plan_id":"cebpf4jnsgd1na2vs0mg"},{"bike_id":"52fa2f88-6678-4b0d-bdeb-77d5e9331688","system_id":"levelo_inurba_marseille","lat":43.2119,"lon":5.35075,"is_reserved":false,"is_disabled":false,"rental_uris":{"android":"levelo://app?vid=52fa2f88-6678-4b0d-bdeb-77d5e9331688","ios":"levelo://app?vid=52fa2f88-6678-4b0d-bdeb-77d5e9331688"},"vehicle_type_id":"4","last_reported":1753737038,"current_range_meters":14400,"station_id":"st_cvj6sg6p6f1abm77japg","pricing_plan_id":"cebpf4jnsgd1na2vs0mg"},{"bike_id":"0938e41e-f961-425a-8c0f-36baf4215fb9","system_id":"levelo_inurba_marseille","lat":43.27072,"lon":5.42275,"is_reserved":false,"is_disabled":false,"rental_uris":{"android":"levelo://app?vid=0938e41e-f961-425a-8c0f-36baf4215fb9","ios":"levelo://app?vid=0938e41e-f961-425a-8c0f-36baf4215fb9"},"vehicle_type_id":"4","last_reported":1753737038,"current_range_meters":14400,"station_id":"ce4bhk92rcd13ifvqgb0","pricing_plan_id":"cebpf4jnsgd1na2vs0mg"},{"bike_id":"309b5b3b-7926-4d76-8311-4cd8fb12a9b7","system_id":"levelo_inurba_marseille","lat":43.26553,"lon":5.37287,"is_reserved":false,"is_disabled":false,"rental_uris":{"android":"levelo://app?vid=309b5b3b-7926-4d76-8311-4cd8fb12a9b7","ios":"levelo://app?vid=309b5b3b-7926-4d76-8311-4cd8fb12a9b7"},"vehicle_type_id":"4","last_reported":1753737038,"current_range_meters":14800,"station_id":"ce4bhg12rcd13ifvqf70","pricing_plan_id":"cebpf4jnsgd1na2vs0mg"},{"bike_id":"a627f6a2-5d66-4596-8946-e15c15639b0b","system_id":"levelo_inurba_marseille","lat":43.24684,"lon":5.38157,"is_reserved":false,"is_disabled":false,"rental_uris":{"android":"levelo://app?vid=a627f6a2-5d66-4596-8946-e15c15639b0b","ios":"levelo://app?vid=a627f6a2-5d66-4596-8946-e15c15639b0b"},"vehicle_type_id":"4","last_reported":1753737038,"current_range_meters":14800,"station_id":"ce4bhih2rcd13ifvqfr0","pricing_plan_id":"cebpf4jnsgd1na2vs0mg"},{"bike_id":"f300057d-7ab5-4146-a741-d20b49532b99","system_id":"levelo_inurba_marseille","lat":43.2998,"lon":5.37173,"is_reserved":false,"is_disabled":true,"rental_uris":{"android":"levelo://app?vid=f300057d-7ab5-4146-a741-d20b49532b99","ios":"levelo://app?vid=f300057d-7ab5-4146-a741-d20b49532b99"},"vehicle_type_id":"4","last_reported":1753737038,"current_range_meters":14800,"station_id":"ce4bgr92rcd13ifvqc7g","pricing_plan_id":"cebpf4jnsgd1na2vs0mg"},{"bike_id":"4b9e1580-c76b-445a-ab22-747fd45a77f5","system_id":"levelo_inurba_marseille","lat":43.28073,"lon":5.39659,"is_reserved":false,"is_disabled":false,"rental_uris":{"android":"levelo://app?vid=4b9e1580-c76b-445a-ab22-747fd45a77f5","ios":"levelo://app?vid=4b9e1580-c76b-445a-ab22-747fd45a77f5"},"vehicle_type_id":"4","last_reported":1753737038,"current_range_meters":14800,"station_id":"ce4bho12rcd13ifvqh2g","pricing_plan_id":"cebpf4jnsgd1na2vs0mg"},{"bike_id":"b97ffecd-6455-4c53-ac00-08f3870ed1f7","system_id":"levelo_inurba_marseille","lat":43.30008,"lon":5.37638,"is_reserved":false,"is_disabled":false,"rental_uris":{"android":"levelo://app?vid=b97ffecd-6455-4c53-ac00-08f3870ed1f7","ios":"levelo://app?vid=b97ffecd-6455-4c53-ac00-08f3870ed1f7"},"vehicle_type_id":"4","last_reported":1753737038,"current_range_meters":14800,"station_id":"","pricing_plan_id":"cebpf4jnsgd1na2vs0mg"},{"bike_id":"445f851e-96bf-4667-8e68-d8931fc77a99","system_id":"levelo_inurba_marseille","lat":43.26804,"lon":5.39469,"is_reserved":false,"is_disabled":false,"rental_uris":{"android":"levelo://app?vid=445f851e-96bf-4667-8e68-d8931fc77a99","ios":"levelo://app?vid=445f851e-96bf-4667-8e68-d8931fc77a99"},"vehicle_type_id":"4","last_reported":1753737038,"current_range_meters":14800,"station_id":"","pricing_plan_id":"cebpf4jnsgd1na2vs0mg"},{"bike_id":"7a5d2481-8c44-4055-b246-8bc5e1cc489a","system_id":"levelo_inurba_marseille","lat":43.26229,"lon":5.40434,"is_reserved":false,"is_disabled":false,"rental_uris":{"android":"levelo://app?vid=7a5d2481-8c44-4055-b246-8bc5e1cc489a","ios":"levelo://app?vid=7a5d2481-8c44-4055-b246-8bc5e1cc489a"},"vehicle_type_id":"4","last_reported":1753737038,"current_range_meters":15200,"station_id":"ce4bhmh2rcd13ifvqgmg","pricing_plan_id":"cebpf4jnsgd1na2vs0mg"},{"bike_id":"1d599ca9-96fe-4939-8af9-7954ed58ad38","system_id":"levelo_inurba_marseille","lat":43.23558,"lon":5.36017,"is_reserved":false,"is_disabled":false,"rental_uris":{"android":"levelo://app?vid=1d599ca9-96fe-4939-8af9-7954ed58ad38","ios":"levelo://app?vid=1d599ca9-96fe-4939-8af9-7954ed58ad38"},"vehicle_type_id":"4","last_reported":1753737038,"current_range_meters":15200,"station_id":"","pricing_plan_id":"cebpf4jnsgd1na2vs0mg"},{"bike_id":"3c552e5c-02ca-4d60-893f-b4238415c9e4","system_id":"levelo_inurba_marseille","lat":43.27966,"lon":5.38738,"is_reserved":false,"is_disabled":false,"rental_uris":{"android":"levelo://app?vid=3c552e5c-02ca-4d60-893f-b4238415c9e4","ios":"levelo://app?vid=3c552e5c-02ca-4d60-893f-b4238415c9e4"},"vehicle_type_id":"4","last_reported":1753737038,"current_range_meters":15200,"station_id":"ce4bhg12rcd13ifvqf80","pricing_plan_id":"cebpf4jnsgd1na2vs0mg"},{"bike_id":"f935bdfe-ce07-40e9-9f05-f13806b2bee8","system_id":"levelo_inurba_marseille","lat":43.22508,"lon":5.3479,"is_reserved":false,"is_disabled":false,"rental_uris":{"android":"levelo://app?vid=f935bdfe-ce07-40e9-9f05-f13806b2bee8","ios":"levelo://app?vid=f935bdfe-ce07-40e9-9f05-f13806b2bee8"},"vehicle_type_id":"4","last_reported":1753737038,"current_range_meters":15200,"station_id":"st_cvj5dfep6f1abm77gieg","pricing_plan_id":"cebpf4jnsgd1na2vs0mg"},{"bike_id":"72e03784-0704-41e0-b1f1-3eacc06d2c0c","system_id":"levelo_inurba_marseille","lat":43.30904,"lon":5.37225,"is_reserved":false,"is_disabled":false,"rental_uris":{"android":"levelo://app?vid=72e03784-0704-41e0-b1f1-3eacc06d2c0c","ios":"levelo://app?vid=72e03784-0704-41e0-b1f1-3eacc06d2c0c"},"vehicle_type_id":"4","last_reported":1753737038,"current_range_meters":15200,"station_id":"ce4bguh2rcd13ifvqckg","pricing_plan_id":"cebpf4jnsgd1na2vs0mg"},{"bike_id":"27d848df-f131-4497-8f5e-cbf7e9c267de","system_id":"levelo_inurba_marseille","lat":43.286621,"lon":5.386685,"is_reserved":false,"is_disabled":false,"rental_uris":{"android":"levelo://app?vid=27d848df-f131-4497-8f5e-cbf7e9c267de","ios":"levelo://app?vid=27d848df-f131-4497-8f5e-cbf7e9c267de"},"vehicle_type_id":"4","last_reported":1753737038,"current_range_meters":15200,"station_id":"ce4bh492rcd13ifvqdug","pricing_plan_id":"cebpf4jnsgd1na2vs0mg"},{"bike_id":"a60cfa8f-4852-4dbe-8636-c427ddb59196","system_id":"levelo_inurba_marseille","lat":43.29585,"lon":5.36736,"is_reserved":false,"is_disabled":false,"rental_uris":{"android":"levelo://app?vid=a60cfa8f-4852-4dbe-8636-c427ddb59196","ios":"levelo://app?vid=a60cfa8f-4852-4dbe-8636-c427ddb59196"},"vehicle_type_id":"4","last_reported":1753737038,"current_range_meters":15200,"station_id":"ce4bgph2rcd13ifvqc2g","pricing_plan_id":"cebpf4jnsgd1na2vs0mg"},{"bike_id":"450571a0-b1c1-4af8-9a7f-7a2798f9511a","system_id":"levelo_inurba_marseille","lat":43.28912,"lon":5.36648,"is_reserved":false,"is_disabled":false,"rental_uris":{"android":"levelo://app?vid=450571a0-b1c1-4af8-9a7f-7a2798f9511a","ios":"levelo://app?vid=450571a0-b1c1-4af8-9a7f-7a2798f9511a"},"vehicle_type_id":"4","last_reported":1753737038,"current_range_meters":15200,"station_id":"ce4bhap2rcd13ifvqek0","pricing_plan_id":"cebpf4jnsgd1na2vs0mg"},{"bike_id":"4bfaa48f-84dd-4da8-8f81-81b4a794ffc8","system_id":"levelo_inurba_marseille","lat":43.24396,"lon":5.37055,"is_reserved":false,"is_disabled":false,"rental_uris":{"android":"levelo://app?vid=4bfaa48f-84dd-4da8-8f81-81b4a794ffc8","ios":"levelo://app?vid=4bfaa48f-84dd-4da8-8f81-81b4a794ffc8"},"vehicle_type_id":"4","last_reported":1753737038,"current_range_meters":15200,"station_id":"ce4bhhh2rcd13ifvqfk0","pricing_plan_id":"cebpf4jnsgd1na2vs0mg"},{"bike_id":"1af54ec7-7987-40e2-8160-f11a2ffcfd58","system_id":"levelo_inurba_marseille","lat":43.27998,"lon":5.41667,"is_reserved":false,"is_disabled":false,"rental_uris":{"android":"levelo://app?vid=1af54ec7-7987-40e2-8160-f11a2ffcfd58","ios":"levelo://app?vid=1af54ec7-7987-40e2-8160-f11a2ffcfd58"},"vehicle_type_id":"4","last_reported":1753737038,"current_range_meters":15200,"station_id":"ce4bho12rcd13ifvqh1g","pricing_plan_id":"cebpf4jnsgd1na2vs0mg"},{"bike_id":"7d0bc366-7472-4dec-a2f3-a1ab117a465c","system_id":"levelo_inurba_marseille","lat":43.32281,"lon":5.38276,"is_reserved":false,"is_disabled":false,"rental_uris":{"android":"levelo://app?vid=7d0bc366-7472-4dec-a2f3-a1ab117a465c","ios":"levelo://app?vid=7d0bc366-7472-4dec-a2f3-a1ab117a465c"},"vehicle_type_id":"4","last_reported":1753737038,"current_range_meters":15200,"station_id":"ce4bhr12rcd13ifvqhqg","pricing_plan_id":"cebpf4jnsgd1na2vs0mg"},{"bike_id":"9c520c9a-490c-4fe8-b147-1ee2cf16db7e","system_id":"levelo_inurba_marseille","lat":43.28669,"lon":5.38659,"is_reserved":false,"is_disabled":false,"rental_uris":{"android":"levelo://app?vid=9c520c9a-490c-4fe8-b147-1ee2cf16db7e","ios":"levelo://app?vid=9c520c9a-490c-4fe8-b147-1ee2cf16db7e"},"vehicle_type_id":"4","last_reported":1753737038,"current_range_meters":15200,"station_id":"ce4bh492rcd13ifvqdug","pricing_plan_id":"cebpf4jnsgd1na2vs0mg"},{"bike_id":"83b5d6ec-c7a0-4c0c-b05e-7b5562e83c98","system_id":"levelo_inurba_marseille","lat":43.30929,"lon":5.40149,"is_reserved":false,"is_disabled":false,"rental_uris":{"android":"levelo://app?vid=83b5d6ec-c7a0-4c0c-b05e-7b5562e83c98","ios":"levelo://app?vid=83b5d6ec-c7a0-4c0c-b05e-7b5562e83c98"},"vehicle_type_id":"4","last_reported":1753737038,"current_range_meters":16000,"station_id":"ce4bgvp2rcd13ifvqct0","pricing_plan_id":"cebpf4jnsgd1na2vs0mg"},{"bike_id":"905576ef-66ce-426e-9600-566828c3b671","system_id":"levelo_inurba_marseille","lat":43.21756,"lon":5.34602,"is_reserved":false,"is_disabled":true,"rental_uris":{"android":"levelo://app?vid=905576ef-66ce-426e-9600-566828c3b671","ios":"levelo://app?vid=905576ef-66ce-426e-9600-566828c3b671"},"vehicle_type_id":"4","last_reported":1753737038,"current_range_meters":16000,"station_id":"","pricing_plan_id":"cebpf4jnsgd1na2vs0mg"},{"bike_id":"40523d3c-3186-4c9d-bf57-cc5e90987418","system_id":"levelo_inurba_marseille","lat":43.24677,"lon":5.38186,"is_reserved":false,"is_disabled":false,"rental_uris":{"android":"levelo://app?vid=40523d3c-3186-4c9d-bf57-cc5e90987418","ios":"levelo://app?vid=40523d3c-3186-4c9d-bf57-cc5e90987418"},"vehicle_type_id":"4","last_reported":1753737038,"current_range_meters":16000,"station_id":"ce4bhih2rcd13ifvqfr0","pricing_plan_id":"cebpf4jnsgd1na2vs0mg"},{"bike_id":"0501f0ff-1c0a-466b-a07a-eb3ed5d2ee0c","system_id":"levelo_inurba_marseille","lat":43.27173,"lon":5.40997,"is_reserved":false,"is_disabled":false,"rental_uris":{"android":"levelo://app?vid=0501f0ff-1c0a-466b-a07a-eb3ed5d2ee0c","ios":"levelo://app?vid=0501f0ff-1c0a-466b-a07a-eb3ed5d2ee0c"},"vehicle_type_id":"4","last_reported":1753737038,"current_range_meters":16000,"station_id":"ce4bhl12rcd13ifvqgf0","pricing_plan_id":"cebpf4jnsgd1na2vs0mg"},{"bike_id":"e609f502-6eb4-44f6-84e6-e23523a2fefb","system_id":"levelo_inurba_marseille","lat":43.2902,"lon":5.38647,"is_reserved":false,"is_disabled":false,"rental_uris":{"android":"levelo://app?vid=e609f502-6eb4-44f6-84e6-e23523a2fefb","ios":"levelo://app?vid=e609f502-6eb4-44f6-84e6-e23523a2fefb"},"vehicle_type_id":"4","last_reported":1753737038,"current_range_meters":16000,"station_id":"","pricing_plan_id":"cebpf4jnsgd1na2vs0mg"},{"bike_id":"54c52b06-ff8a-4c6a-9124-b0f6a393dfb7","system_id":"levelo_inurba_marseille","lat":43.31164,"lon":5.38711,"is_reserved":false,"is_disabled":false,"rental_uris":{"android":"levelo://app?vid=54c52b06-ff8a-4c6a-9124-b0f6a393dfb7","ios":"levelo://app?vid=54c52b06-ff8a-4c6a-9124-b0f6a393dfb7"},"vehicle_type_id":"4","last_reported":1753737038,"current_range_meters":16000,"station_id":"ce4bgv12rcd13ifvqcp0","pricing_plan_id":"cebpf4jnsgd1na2vs0mg"},{"bike_id":"6dc7452b-0807-4862-b6b1-dea04f7a861f","system_id":"levelo_inurba_marseille","lat":43.26182,"lon":5.37455,"is_reserved":false,"is_disabled":false,"rental_uris":{"android":"levelo://app?vid=6dc7452b-0807-4862-b6b1-dea04f7a861f","ios":"levelo://app?vid=6dc7452b-0807-4862-b6b1-dea04f7a861f"},"vehicle_type_id":"4","last_reported":1753737038,"current_range_meters":16000,"station_id":"ce4bhgp2rcd13ifvqfc0","pricing_plan_id":"cebpf4jnsgd1na2vs0mg"},{"bike_id":"4f0d56f5-e54c-465b-a15e-32b747ab0912","system_id":"levelo_inurba_marseille","lat":43.31692,"lon":5.4049,"is_reserved":false,"is_disabled":true,"rental_uris":{"android":"levelo://app?vid=4f0d56f5-e54c-465b-a15e-32b747ab0912","ios":"levelo://app?vid=4f0d56f5-e54c-465b-a15e-32b747ab0912"},"vehicle_type_id":"4","last_reported":1753737038,"current_range_meters":16000,"station_id":"ce4bh012rcd13ifvqd00","pricing_plan_id":"cebpf4jnsgd1na2vs0mg"},{"bike_id":"01a8e307-f9de-4eb5-a307-55559ca42c36","system_id":"levelo_inurba_marseille","lat":43.22501,"lon":5.34785,"is_reserved":false,"is_disabled":false,"rental_uris":{"android":"levelo://app?vid=01a8e307-f9de-4eb5-a307-55559ca42c36","ios":"levelo://app?vid=01a8e307-f9de-4eb5-a307-55559ca42c36"},"vehicle_type_id":"4","last_reported":1753737038,"current_range_meters":16000,"station_id":"st_cvj5dfep6f1abm77gieg","pricing_plan_id":"cebpf4jnsgd1na2vs0mg"},{"bike_id":"fe1e01f8-d4ce-40a3-9bef-dc35d4f0ebf5","system_id":"levelo_inurba_marseille","lat":43.28429,"lon":5.34981,"is_reserved":false,"is_disabled":true,"rental_uris":{"android":"levelo://app?vid=fe1e01f8-d4ce-40a3-9bef-dc35d4f0ebf5","ios":"levelo://app?vid=fe1e01f8-d4ce-40a3-9bef-dc35d4f0ebf5"},"vehicle_type_id":"4","last_reported":1753737038,"current_range_meters":16000,"station_id":"ce4bhbh2rcd13ifvqepg","pricing_plan_id":"cebpf4jnsgd1na2vs0mg"},{"bike_id":"d74a53f2-a358-4ccb-8d9f-ff313ea2ec34","system_id":"levelo_inurba_marseille","lat":43.21197,"lon":5.35083,"is_reserved":false,"is_disabled":false,"rental_uris":{"android":"levelo://app?vid=d74a53f2-a358-4ccb-8d9f-ff313ea2ec34","ios":"levelo://app?vid=d74a53f2-a358-4ccb-8d9f-ff313ea2ec34"},"vehicle_type_id":"4","last_reported":1753737038,"current_range_meters":16000,"station_id":"st_cvj6sg6p6f1abm77japg","pricing_plan_id":"cebpf4jnsgd1na2vs0mg"},{"bike_id":"88255ee3-5bdb-4dfb-bc09-6ade39a110e2","system_id":"levelo_inurba_marseille","lat":43.23963,"lon":5.36618,"is_reserved":false,"is_disabled":false,"rental_uris":{"android":"levelo://app?vid=88255ee3-5bdb-4dfb-bc09-6ade39a110e2","ios":"levelo://app?vid=88255ee3-5bdb-4dfb-bc09-6ade39a110e2"},"vehicle_type_id":"4","last_reported":1753737038,"current_range_meters":16000,"station_id":"ce4bhi12rcd13ifvqfp0","pricing_plan_id":"cebpf4jnsgd1na2vs0mg"},{"bike_id":"57a14804-707e-4743-8fdc-ee255b7e6e88","system_id":"levelo_inurba_marseille","lat":43.2861,"lon":5.35104,"is_reserved":false,"is_disabled":false,"rental_uris":{"android":"levelo://app?vid=57a14804-707e-4743-8fdc-ee255b7e6e88","ios":"levelo://app?vid=57a14804-707e-4743-8fdc-ee255b7e6e88"},"vehicle_type_id":"4","last_reported":1753737038,"current_range_meters":16400,"station_id":"ce4bhch2rcd13ifvqeug","pricing_plan_id":"cebpf4jnsgd1na2vs0mg"},{"bike_id":"f7d60fad-0a86-490c-b830-28669403cd61","system_id":"levelo_inurba_marseille","lat":43.29529,"lon":5.38515,"is_reserved":false,"is_disabled":false,"rental_uris":{"android":"levelo://app?vid=f7d60fad-0a86-490c-b830-28669403cd61","ios":"levelo://app?vid=f7d60fad-0a86-490c-b830-28669403cd61"},"vehicle_type_id":"4","last_reported":1753737038,"current_range_meters":16400,"station_id":"ce4bgih2rcd13ifvqba0","pricing_plan_id":"cebpf4jnsgd1na2vs0mg"},{"bike_id":"daa8944e-8398-400c-a0a3-6b2f4b34676a","system_id":"levelo_inurba_marseille","lat":43.3073,"lon":5.42452,"is_reserved":false,"is_disabled":false,"rental_uris":{"android":"levelo://app?vid=daa8944e-8398-400c-a0a3-6b2f4b34676a","ios":"levelo://app?vid=daa8944e-8398-400c-a0a3-6b2f4b34676a"},"vehicle_type_id":"4","last_reported":1753737038,"current_range_meters":16400,"station_id":"st_cvj6ca6bvosntc0bfgr0","pricing_plan_id":"cebpf4jnsgd1na2vs0mg"},{"bike_id":"c939c7b3-8cfc-457b-a246-72657e7f8588","system_id":"levelo_inurba_marseille","lat":43.26025,"lon":5.37554,"is_reserved":false,"is_disabled":false,"rental_uris":{"android":"levelo://app?vid=c939c7b3-8cfc-457b-a246-72657e7f8588","ios":"levelo://app?vid=c939c7b3-8cfc-457b-a246-72657e7f8588"},"vehicle_type_id":"4","last_reported":1753737038,"current_range_meters":16400,"station_id":"ce4bhgh2rcd13ifvqfa0","pricing_plan_id":"cebpf4jnsgd1na2vs0mg"},{"bike_id":"8f346c07-df4f-459b-ac59-d111eb9f0783","system_id":"levelo_inurba_marseille","lat":43.22467,"lon":5.34789,"is_reserved":false,"is_disabled":false,"rental_uris":{"android":"levelo://app?vid=8f346c07-df4f-459b-ac59-d111eb9f0783","ios":"levelo://app?vid=8f346c07-df4f-459b-ac59-d111eb9f0783"},"vehicle_type_id":"4","last_reported":1753737038,"current_range_meters":16400,"station_id":"st_cvj5dfep6f1abm77gieg","pricing_plan_id":"cebpf4jnsgd1na2vs0mg"},{"bike_id":"d52bd79a-479d-43b4-ad86-786143dffe7c","system_id":"levelo_inurba_marseille","lat":43.31071,"lon":5.42404,"is_reserved":false,"is_disabled":false,"rental_uris":{"android":"levelo://app?vid=d52bd79a-479d-43b4-ad86-786143dffe7c","ios":"levelo://app?vid=d52bd79a-479d-43b4-ad86-786143dffe7c"},"vehicle_type_id":"4","last_reported":1753737038,"current_range_meters":16400,"station_id":"ce4bhp92rcd13ifvqhag","pricing_plan_id":"cebpf4jnsgd1na2vs0mg"},{"bike_id":"e613d38f-cbd2-4047-b272-c54153f199de","system_id":"levelo_inurba_marseille","lat":43.2781,"lon":5.40718,"is_reserved":false,"is_disabled":false,"rental_uris":{"android":"levelo://app?vid=e613d38f-cbd2-4047-b272-c54153f199de","ios":"levelo://app?vid=e613d38f-cbd2-4047-b272-c54153f199de"},"vehicle_type_id":"4","last_reported":1753737038,"current_range_meters":16400,"station_id":"ce4bhnh2rcd13ifvqgtg","pricing_plan_id":"cebpf4jnsgd1na2vs0mg"},{"bike_id":"8b77599b-5442-4b67-add8-7df14084baf2","system_id":"levelo_inurba_marseille","lat":43.279994,"lon":5.400131,"is_reserved":false,"is_disabled":false,"rental_uris":{"android":"levelo://app?vid=8b77599b-5442-4b67-add8-7df14084baf2","ios":"levelo://app?vid=8b77599b-5442-4b67-add8-7df14084baf2"},"vehicle_type_id":"4","last_reported":1753737038,"current_range_meters":16400,"station_id":"ce4bho92rcd13ifvqh4g","pricing_plan_id":"cebpf4jnsgd1na2vs0mg"},{"bike_id":"839cb358-c777-49a7-9b10-9da2596c35a1","system_id":"levelo_inurba_marseille","lat":43.33764,"lon":5.37485,"is_reserved":false,"is_disabled":false,"rental_uris":{"android":"levelo://app?vid=839cb358-c777-49a7-9b10-9da2596c35a1","ios":"levelo://app?vid=839cb358-c777-49a7-9b10-9da2596c35a1"},"vehicle_type_id":"4","last_reported":1753737038,"current_range_meters":16400,"station_id":"","pricing_plan_id":"cebpf4jnsgd1na2vs0mg"},{"bike_id":"18d9d1bb-3481-4fe6-8e41-40913fa9f69c","system_id":"levelo_inurba_marseille","lat":43.24803,"lon":5.37463,"is_reserved":false,"is_disabled":false,"rental_uris":{"android":"levelo://app?vid=18d9d1bb-3481-4fe6-8e41-40913fa9f69c","ios":"levelo://app?vid=18d9d1bb-3481-4fe6-8e41-40913fa9f69c"},"vehicle_type_id":"4","last_reported":1753737038,"current_range_meters":16400,"station_id":"ce4bhgh2rcd13ifvqfb0","pricing_plan_id":"cebpf4jnsgd1na2vs0mg"},{"bike_id":"10d081c1-273e-4901-9c1f-64e9f8f6e8dc","system_id":"levelo_inurba_marseille","lat":43.29904,"lon":5.38568,"is_reserved":false,"is_disabled":false,"rental_uris":{"android":"levelo://app?vid=10d081c1-273e-4901-9c1f-64e9f8f6e8dc","ios":"levelo://app?vid=10d081c1-273e-4901-9c1f-64e9f8f6e8dc"},"vehicle_type_id":"4","last_reported":1753737038,"current_range_meters":16400,"station_id":"","pricing_plan_id":"cebpf4jnsgd1na2vs0mg"},{"bike_id":"4a789262-50b7-4dff-96a3-d59dd4ab1de0","system_id":"levelo_inurba_marseille","lat":43.28848,"lon":5.35835,"is_reserved":false,"is_disabled":false,"rental_uris":{"android":"levelo://app?vid=4a789262-50b7-4dff-96a3-d59dd4ab1de0","ios":"levelo://app?vid=4a789262-50b7-4dff-96a3-d59dd4ab1de0"},"vehicle_type_id":"4","last_reported":1753737038,"current_range_meters":16800,"station_id":"ce4bhb12rcd13ifvqem0","pricing_plan_id":"cebpf4jnsgd1na2vs0mg"},{"bike_id":"50ddb991-132a-407b-b3f1-2adbe5e9db55","system_id":"levelo_inurba_marseille","lat":43.30912,"lon":5.40171,"is_reserved":false,"is_disabled":true,"rental_uris":{"android":"levelo://app?vid=50ddb991-132a-407b-b3f1-2adbe5e9db55","ios":"levelo://app?vid=50ddb991-132a-407b-b3f1-2adbe5e9db55"},"vehicle_type_id":"4","last_reported":1753737038,"current_range_meters":16800,"station_id":"ce4bgvp2rcd13ifvqct0","pricing_plan_id":"cebpf4jnsgd1na2vs0mg"},{"bike_id":"4b20980e-40d0-4d93-ba52-7affe413455c","system_id":"levelo_inurba_marseille","lat":43.28667,"lon":5.36349,"is_reserved":false,"is_disabled":false,"rental_uris":{"android":"levelo://app?vid=4b20980e-40d0-4d93-ba52-7affe413455c","ios":"levelo://app?vid=4b20980e-40d0-4d93-ba52-7affe413455c"},"vehicle_type_id":"4","last_reported":1753737038,"current_range_meters":16800,"station_id":"ce4bhah2rcd13ifvqej0","pricing_plan_id":"cebpf4jnsgd1na2vs0mg"},{"bike_id":"8e7c08eb-2b1e-40fe-b7c7-aa81862873a9","system_id":"levelo_inurba_marseille","lat":43.2995,"lon":5.38563,"is_reserved":false,"is_disabled":false,"rental_uris":{"android":"levelo://app?vid=8e7c08eb-2b1e-40fe-b7c7-aa81862873a9","ios":"levelo://app?vid=8e7c08eb-2b1e-40fe-b7c7-aa81862873a9"},"vehicle_type_id":"4","last_reported":1753737038,"current_range_meters":16800,"station_id":"","pricing_plan_id":"cebpf4jnsgd1na2vs0mg"},{"bike_id":"3bc47fe9-f2bb-40b4-a64d-f16b5a9e7396","system_id":"levelo_inurba_marseille","lat":43.2658,"lon":5.39038,"is_reserved":false,"is_disabled":false,"rental_uris":{"android":"levelo://app?vid=3bc47fe9-f2bb-40b4-a64d-f16b5a9e7396","ios":"levelo://app?vid=3bc47fe9-f2bb-40b4-a64d-f16b5a9e7396"},"vehicle_type_id":"4","last_reported":1753737038,"current_range_meters":16800,"station_id":"ce4bhe12rcd13ifvqf30","pricing_plan_id":"cebpf4jnsgd1na2vs0mg"},{"bike_id":"de7a02f5-fdaf-4fd7-90bc-8f34669b86bf","system_id":"levelo_inurba_marseille","lat":43.280815,"lon":5.396626,"is_reserved":false,"is_disabled":false,"rental_uris":{"android":"levelo://app?vid=de7a02f5-fdaf-4fd7-90bc-8f34669b86bf","ios":"levelo://app?vid=de7a02f5-fdaf-4fd7-90bc-8f34669b86bf"},"vehicle_type_id":"4","last_reported":1753737038,"current_range_meters":16800,"station_id":"","pricing_plan_id":"cebpf4jnsgd1na2vs0mg"},{"bike_id":"fffb8926-f81a-47ad-9534-d2f1f5cc9f93","system_id":"levelo_inurba_marseille","lat":43.29712,"lon":5.3663,"is_reserved":false,"is_disabled":false,"rental_uris":{"android":"levelo://app?vid=fffb8926-f81a-47ad-9534-d2f1f5cc9f93","ios":"levelo://app?vid=fffb8926-f81a-47ad-9534-d2f1f5cc9f93"},"vehicle_type_id":"4","last_reported":1753737038,"current_range_meters":16800,"station_id":"ce4bgn12rcd13ifvqbt0","pricing_plan_id":"cebpf4jnsgd1na2vs0mg"},{"bike_id":"3b48ba16-ab0b-4729-a066-df71ea8ccf50","system_id":"levelo_inurba_marseille","lat":43.29543,"lon":5.42302,"is_reserved":false,"is_disabled":false,"rental_uris":{"android":"levelo://app?vid=3b48ba16-ab0b-4729-a066-df71ea8ccf50","ios":"levelo://app?vid=3b48ba16-ab0b-4729-a066-df71ea8ccf50"},"vehicle_type_id":"4","last_reported":1753737038,"current_range_meters":16800,"station_id":"ce4bhph2rcd13ifvqhdg","pricing_plan_id":"cebpf4jnsgd1na2vs0mg"},{"bike_id":"50678583-3aab-4d54-b7b2-e6d15fab5f80","system_id":"levelo_inurba_marseille","lat":43.31165,"lon":5.38725,"is_reserved":false,"is_disabled":false,"rental_uris":{"android":"levelo://app?vid=50678583-3aab-4d54-b7b2-e6d15fab5f80","ios":"levelo://app?vid=50678583-3aab-4d54-b7b2-e6d15fab5f80"},"vehicle_type_id":"4","last_reported":1753737038,"current_range_meters":16800,"station_id":"ce4bgv12rcd13ifvqcp0","pricing_plan_id":"cebpf4jnsgd1na2vs0mg"},{"bike_id":"3d9f2061-7fb9-4387-9262-8d2451911c2b","system_id":"levelo_inurba_marseille","lat":43.22927,"lon":5.35388,"is_reserved":false,"is_disabled":false,"rental_uris":{"android":"levelo://app?vid=3d9f2061-7fb9-4387-9262-8d2451911c2b","ios":"levelo://app?vid=3d9f2061-7fb9-4387-9262-8d2451911c2b"},"vehicle_type_id":"4","last_reported":1753737038,"current_range_meters":16800,"station_id":"cpo3532slgdg3j2ikp40","pricing_plan_id":"cebpf4jnsgd1na2vs0mg"},{"bike_id":"a9c710fa-5651-4baf-979a-137ffd6f6c63","system_id":"levelo_inurba_marseille","lat":43.2737,"lon":5.36258,"is_reserved":false,"is_disabled":false,"rental_uris":{"android":"levelo://app?vid=a9c710fa-5651-4baf-979a-137ffd6f6c63","ios":"levelo://app?vid=a9c710fa-5651-4baf-979a-137ffd6f6c63"},"vehicle_type_id":"4","last_reported":1753737038,"current_range_meters":16800,"station_id":"ce4bhbh2rcd13ifvqeo0","pricing_plan_id":"cebpf4jnsgd1na2vs0mg"},{"bike_id":"978250d6-89e4-43d2-82a2-187bf4c07df4","system_id":"levelo_inurba_marseille","lat":43.26552,"lon":5.37284,"is_reserved":false,"is_disabled":false,"rental_uris":{"android":"levelo://app?vid=978250d6-89e4-43d2-82a2-187bf4c07df4","ios":"levelo://app?vid=978250d6-89e4-43d2-82a2-187bf4c07df4"},"vehicle_type_id":"4","last_reported":1753737038,"current_range_meters":16800,"station_id":"ce4bhg12rcd13ifvqf70","pricing_plan_id":"cebpf4jnsgd1na2vs0mg"},{"bike_id":"dcc699f2-ce0a-4fbb-80be-16487c32f6b9","system_id":"levelo_inurba_marseille","lat":43.28928,"lon":5.38405,"is_reserved":false,"is_disabled":false,"rental_uris":{"android":"levelo://app?vid=dcc699f2-ce0a-4fbb-80be-16487c32f6b9","ios":"levelo://app?vid=dcc699f2-ce0a-4fbb-80be-16487c32f6b9"},"vehicle_type_id":"4","last_reported":1753737038,"current_range_meters":16800,"station_id":"ce4bh612rcd13ifvqe6g","pricing_plan_id":"cebpf4jnsgd1na2vs0mg"},{"bike_id":"f26efa5e-65eb-49c1-ac45-4876b46677f5","system_id":"levelo_inurba_marseille","lat":43.271793,"lon":5.409871,"is_reserved":false,"is_disabled":false,"rental_uris":{"android":"levelo://app?vid=f26efa5e-65eb-49c1-ac45-4876b46677f5","ios":"levelo://app?vid=f26efa5e-65eb-49c1-ac45-4876b46677f5"},"vehicle_type_id":"4","last_reported":1753737038,"current_range_meters":16800,"station_id":"ce4bhl12rcd13ifvqgf0","pricing_plan_id":"cebpf4jnsgd1na2vs0mg"},{"bike_id":"35c04ed3-3f32-4bf9-8a1e-9f2898086490","system_id":"levelo_inurba_marseille","lat":43.33781,"lon":5.37427,"is_reserved":false,"is_disabled":false,"rental_uris":{"android":"levelo://app?vid=35c04ed3-3f32-4bf9-8a1e-9f2898086490","ios":"levelo://app?vid=35c04ed3-3f32-4bf9-8a1e-9f2898086490"},"vehicle_type_id":"4","last_reported":1753737038,"current_range_meters":17200,"station_id":"","pricing_plan_id":"cebpf4jnsgd1na2vs0mg"},{"bike_id":"57927d23-89e7-4ddd-a64f-277b3ded0af3","system_id":"levelo_inurba_marseille","lat":43.24065,"lon":5.37712,"is_reserved":false,"is_disabled":false,"rental_uris":{"android":"levelo://app?vid=57927d23-89e7-4ddd-a64f-277b3ded0af3","ios":"levelo://app?vid=57927d23-89e7-4ddd-a64f-277b3ded0af3"},"vehicle_type_id":"4","last_reported":1753737038,"current_range_meters":17200,"station_id":"ce4bhnp2rcd13ifvqgvg","pricing_plan_id":"cebpf4jnsgd1na2vs0mg"},{"bike_id":"a9ccc0b3-8291-4b36-a7cd-00d126d954df","system_id":"levelo_inurba_marseille","lat":43.26194,"lon":5.37451,"is_reserved":false,"is_disabled":false,"rental_uris":{"android":"levelo://app?vid=a9ccc0b3-8291-4b36-a7cd-00d126d954df","ios":"levelo://app?vid=a9ccc0b3-8291-4b36-a7cd-00d126d954df"},"vehicle_type_id":"4","last_reported":1753737038,"current_range_meters":17200,"station_id":"ce4bhgp2rcd13ifvqfc0","pricing_plan_id":"cebpf4jnsgd1na2vs0mg"},{"bike_id":"6f7ccb69-bf92-486d-92b3-1d25f0d6e17f","system_id":"levelo_inurba_marseille","lat":43.26222,"lon":5.37452,"is_reserved":false,"is_disabled":false,"rental_uris":{"android":"levelo://app?vid=6f7ccb69-bf92-486d-92b3-1d25f0d6e17f","ios":"levelo://app?vid=6f7ccb69-bf92-486d-92b3-1d25f0d6e17f"},"vehicle_type_id":"4","last_reported":1753737038,"current_range_meters":17200,"station_id":"ce4bhgp2rcd13ifvqfc0","pricing_plan_id":"cebpf4jnsgd1na2vs0mg"},{"bike_id":"5dfabdc2-b806-44aa-94b4-47dba92b8204","system_id":"levelo_inurba_marseille","lat":43.22949,"lon":5.35389,"is_reserved":false,"is_disabled":false,"rental_uris":{"android":"levelo://app?vid=5dfabdc2-b806-44aa-94b4-47dba92b8204","ios":"levelo://app?vid=5dfabdc2-b806-44aa-94b4-47dba92b8204"},"vehicle_type_id":"4","last_reported":1753737038,"current_range_meters":17200,"station_id":"cpo3532slgdg3j2ikp40","pricing_plan_id":"cebpf4jnsgd1na2vs0mg"},{"bike_id":"d88d41f3-24cf-4b48-aa41-e19407016e6a","system_id":"levelo_inurba_marseille","lat":43.31083,"lon":5.42433,"is_reserved":false,"is_disabled":false,"rental_uris":{"android":"levelo://app?vid=d88d41f3-24cf-4b48-aa41-e19407016e6a","ios":"levelo://app?vid=d88d41f3-24cf-4b48-aa41-e19407016e6a"},"vehicle_type_id":"4","last_reported":1753737038,"current_range_meters":17200,"station_id":"ce4bhp92rcd13ifvqhag","pricing_plan_id":"cebpf4jnsgd1na2vs0mg"},{"bike_id":"8ee059f1-5e91-4064-8ea3-9888e78f5f97","system_id":"levelo_inurba_marseille","lat":43.28078,"lon":5.39667,"is_reserved":false,"is_disabled":false,"rental_uris":{"android":"levelo://app?vid=8ee059f1-5e91-4064-8ea3-9888e78f5f97","ios":"levelo://app?vid=8ee059f1-5e91-4064-8ea3-9888e78f5f97"},"vehicle_type_id":"4","last_reported":1753737038,"current_range_meters":17200,"station_id":"ce4bho12rcd13ifvqh2g","pricing_plan_id":"cebpf4jnsgd1na2vs0mg"},{"bike_id":"84381d51-d8bf-4e0c-b58a-542cf5fe160c","system_id":"levelo_inurba_marseille","lat":43.30228,"lon":5.400579,"is_reserved":false,"is_disabled":false,"rental_uris":{"android":"levelo://app?vid=84381d51-d8bf-4e0c-b58a-542cf5fe160c","ios":"levelo://app?vid=84381d51-d8bf-4e0c-b58a-542cf5fe160c"},"vehicle_type_id":"4","last_reported":1753737038,"current_range_meters":17200,"station_id":"","pricing_plan_id":"cebpf4jnsgd1na2vs0mg"},{"bike_id":"af88012c-476f-4f79-91cc-a83dfea30034","system_id":"levelo_inurba_marseille","lat":43.2835,"lon":5.38105,"is_reserved":false,"is_disabled":false,"rental_uris":{"android":"levelo://app?vid=af88012c-476f-4f79-91cc-a83dfea30034","ios":"levelo://app?vid=af88012c-476f-4f79-91cc-a83dfea30034"},"vehicle_type_id":"4","last_reported":1753737038,"current_range_meters":17200,"station_id":"ce4bh412rcd13ifvqdr0","pricing_plan_id":"cebpf4jnsgd1na2vs0mg"},{"bike_id":"0cd49d3b-c362-4e51-9734-3096c507e308","system_id":"levelo_inurba_marseille","lat":43.25107,"lon":5.40331,"is_reserved":false,"is_disabled":false,"rental_uris":{"android":"levelo://app?vid=0cd49d3b-c362-4e51-9734-3096c507e308","ios":"levelo://app?vid=0cd49d3b-c362-4e51-9734-3096c507e308"},"vehicle_type_id":"4","last_reported":1753737038,"current_range_meters":17200,"station_id":"ce4bhlh2rcd13ifvqgig","pricing_plan_id":"cebpf4jnsgd1na2vs0mg"},{"bike_id":"49491b9e-bc95-484f-b8e1-371ec4848922","system_id":"levelo_inurba_marseille","lat":43.229218,"lon":5.353708,"is_reserved":false,"is_disabled":false,"rental_uris":{"android":"levelo://app?vid=49491b9e-bc95-484f-b8e1-371ec4848922","ios":"levelo://app?vid=49491b9e-bc95-484f-b8e1-371ec4848922"},"vehicle_type_id":"4","last_reported":1753737038,"current_range_meters":17200,"station_id":"cpo3532slgdg3j2ikp40","pricing_plan_id":"cebpf4jnsgd1na2vs0mg"},{"bike_id":"c49463dd-1217-4ce4-b76d-fa451fa00ef8","system_id":"levelo_inurba_marseille","lat":43.28614,"lon":5.35121,"is_reserved":false,"is_disabled":false,"rental_uris":{"android":"levelo://app?vid=c49463dd-1217-4ce4-b76d-fa451fa00ef8","ios":"levelo://app?vid=c49463dd-1217-4ce4-b76d-fa451fa00ef8"},"vehicle_type_id":"4","last_reported":1753737038,"current_range_meters":17200,"station_id":"ce4bhch2rcd13ifvqeug","pricing_plan_id":"cebpf4jnsgd1na2vs0mg"},{"bike_id":"62e54455-0cad-476e-836b-6efe5dee6c34","system_id":"levelo_inurba_marseille","lat":43.22506,"lon":5.3479,"is_reserved":false,"is_disabled":false,"rental_uris":{"android":"levelo://app?vid=62e54455-0cad-476e-836b-6efe5dee6c34","ios":"levelo://app?vid=62e54455-0cad-476e-836b-6efe5dee6c34"},"vehicle_type_id":"4","last_reported":1753737038,"current_range_meters":17200,"station_id":"st_cvj5dfep6f1abm77gieg","pricing_plan_id":"cebpf4jnsgd1na2vs0mg"},{"bike_id":"62f5da51-1009-4002-b725-5765ccaaf3ec","system_id":"levelo_inurba_marseille","lat":43.29435,"lon":5.43222,"is_reserved":false,"is_disabled":false,"rental_uris":{"android":"levelo://app?vid=62f5da51-1009-4002-b725-5765ccaaf3ec","ios":"levelo://app?vid=62f5da51-1009-4002-b725-5765ccaaf3ec"},"vehicle_type_id":"4","last_reported":1753737038,"current_range_meters":17200,"station_id":"","pricing_plan_id":"cebpf4jnsgd1na2vs0mg"},{"bike_id":"c11f4789-7d37-4722-9529-2b6d43a6d56c","system_id":"levelo_inurba_marseille","lat":43.28153,"lon":5.42649,"is_reserved":false,"is_disabled":true,"rental_uris":{"android":"levelo://app?vid=c11f4789-7d37-4722-9529-2b6d43a6d56c","ios":"levelo://app?vid=c11f4789-7d37-4722-9529-2b6d43a6d56c"},"vehicle_type_id":"4","last_reported":1753737038,"current_range_meters":17200,"station_id":"ce4bhnh2rcd13ifvqgug","pricing_plan_id":"cebpf4jnsgd1na2vs0mg"},{"bike_id":"75c073ec-9535-4d35-886a-7cda86424558","system_id":"levelo_inurba_marseille","lat":43.30102,"lon":5.39095,"is_reserved":false,"is_disabled":false,"rental_uris":{"android":"levelo://app?vid=75c073ec-9535-4d35-886a-7cda86424558","ios":"levelo://app?vid=75c073ec-9535-4d35-886a-7cda86424558"},"vehicle_type_id":"4","last_reported":1753737038,"current_range_meters":17200,"station_id":"ce4bh192rcd13ifvqdb0","pricing_plan_id":"cebpf4jnsgd1na2vs0mg"},{"bike_id":"90d7df2a-251b-43b9-9339-5d650e173049","system_id":"levelo_inurba_marseille","lat":43.229333,"lon":5.353824,"is_reserved":false,"is_disabled":false,"rental_uris":{"android":"levelo://app?vid=90d7df2a-251b-43b9-9339-5d650e173049","ios":"levelo://app?vid=90d7df2a-251b-43b9-9339-5d650e173049"},"vehicle_type_id":"4","last_reported":1753737038,"current_range_meters":17200,"station_id":"cpo3532slgdg3j2ikp40","pricing_plan_id":"cebpf4jnsgd1na2vs0mg"},{"bike_id":"4ffc9d79-d56a-482d-b7d9-a5892348f435","system_id":"levelo_inurba_marseille","lat":43.28402,"lon":5.35018,"is_reserved":false,"is_disabled":false,"rental_uris":{"android":"levelo://app?vid=4ffc9d79-d56a-482d-b7d9-a5892348f435","ios":"levelo://app?vid=4ffc9d79-d56a-482d-b7d9-a5892348f435"},"vehicle_type_id":"4","last_reported":1753737038,"current_range_meters":17600,"station_id":"ce4bhbh2rcd13ifvqepg","pricing_plan_id":"cebpf4jnsgd1na2vs0mg"},{"bike_id":"eb899311-9461-4d06-8287-47c6d7fd9b65","system_id":"levelo_inurba_marseille","lat":43.28453,"lon":5.38467,"is_reserved":false,"is_disabled":true,"rental_uris":{"android":"levelo://app?vid=eb899311-9461-4d06-8287-47c6d7fd9b65","ios":"levelo://app?vid=eb899311-9461-4d06-8287-47c6d7fd9b65"},"vehicle_type_id":"4","last_reported":1753737038,"current_range_meters":17600,"station_id":"","pricing_plan_id":"cebpf4jnsgd1na2vs0mg"},{"bike_id":"3d382e20-9388-408f-b631-687e118dffe9","system_id":"levelo_inurba_marseille","lat":43.28713,"lon":5.37942,"is_reserved":false,"is_disabled":false,"rental_uris":{"android":"levelo://app?vid=3d382e20-9388-408f-b631-687e118dffe9","ios":"levelo://app?vid=3d382e20-9388-408f-b631-687e118dffe9"},"vehicle_type_id":"4","last_reported":1753737038,"current_range_meters":17600,"station_id":"ce4bh9p2rcd13ifvqec0","pricing_plan_id":"cebpf4jnsgd1na2vs0mg"},{"bike_id":"8d456a32-f5e7-4d9d-ae9d-a2a9a58546f8","system_id":"levelo_inurba_marseille","lat":43.295261,"lon":5.385424,"is_reserved":false,"is_disabled":false,"rental_uris":{"android":"levelo://app?vid=8d456a32-f5e7-4d9d-ae9d-a2a9a58546f8","ios":"levelo://app?vid=8d456a32-f5e7-4d9d-ae9d-a2a9a58546f8"},"vehicle_type_id":"4","last_reported":1753737038,"current_range_meters":17600,"station_id":"ce4bgih2rcd13ifvqba0","pricing_plan_id":"cebpf4jnsgd1na2vs0mg"},{"bike_id":"8284de97-55d6-4765-acee-77fef5cd108c","system_id":"levelo_inurba_marseille","lat":43.30376,"lon":5.42488,"is_reserved":false,"is_disabled":false,"rental_uris":{"android":"levelo://app?vid=8284de97-55d6-4765-acee-77fef5cd108c","ios":"levelo://app?vid=8284de97-55d6-4765-acee-77fef5cd108c"},"vehicle_type_id":"4","last_reported":1753737038,"current_range_meters":17600,"station_id":"ce4bhoh2rcd13ifvqh6g","pricing_plan_id":"cebpf4jnsgd1na2vs0mg"},{"bike_id":"75aa074a-8804-4fec-88d9-260a8abf5ca1","system_id":"levelo_inurba_marseille","lat":43.26548,"lon":5.37308,"is_reserved":false,"is_disabled":false,"rental_uris":{"android":"levelo://app?vid=75aa074a-8804-4fec-88d9-260a8abf5ca1","ios":"levelo://app?vid=75aa074a-8804-4fec-88d9-260a8abf5ca1"},"vehicle_type_id":"4","last_reported":1753737038,"current_range_meters":17600,"station_id":"ce4bhg12rcd13ifvqf70","pricing_plan_id":"cebpf4jnsgd1na2vs0mg"},{"bike_id":"f1135650-4eea-43f9-8595-185c29787a73","system_id":"levelo_inurba_marseille","lat":43.31157,"lon":5.38726,"is_reserved":false,"is_disabled":false,"rental_uris":{"android":"levelo://app?vid=f1135650-4eea-43f9-8595-185c29787a73","ios":"levelo://app?vid=f1135650-4eea-43f9-8595-185c29787a73"},"vehicle_type_id":"4","last_reported":1753737038,"current_range_meters":17600,"station_id":"ce4bgv12rcd13ifvqcp0","pricing_plan_id":"cebpf4jnsgd1na2vs0mg"},{"bike_id":"0284b153-ed18-4aff-854a-398618bd67fc","system_id":"levelo_inurba_marseille","lat":43.28428,"lon":5.35008,"is_reserved":false,"is_disabled":false,"rental_uris":{"android":"levelo://app?vid=0284b153-ed18-4aff-854a-398618bd67fc","ios":"levelo://app?vid=0284b153-ed18-4aff-854a-398618bd67fc"},"vehicle_type_id":"4","last_reported":1753737038,"current_range_meters":17600,"station_id":"ce4bhbh2rcd13ifvqepg","pricing_plan_id":"cebpf4jnsgd1na2vs0mg"},{"bike_id":"97af957f-550a-4cba-b391-21054a2c63fe","system_id":"levelo_inurba_marseille","lat":43.2416,"lon":5.36392,"is_reserved":false,"is_disabled":false,"rental_uris":{"android":"levelo://app?vid=97af957f-550a-4cba-b391-21054a2c63fe","ios":"levelo://app?vid=97af957f-550a-4cba-b391-21054a2c63fe"},"vehicle_type_id":"4","last_reported":1753737038,"current_range_meters":17600,"station_id":"cpo36qri1sfpv3e86is0","pricing_plan_id":"cebpf4jnsgd1na2vs0mg"},{"bike_id":"39080695-4aff-4fdf-b171-11c07b4b0950","system_id":"levelo_inurba_marseille","lat":43.24704,"lon":5.38128,"is_reserved":false,"is_disabled":false,"rental_uris":{"android":"levelo://app?vid=39080695-4aff-4fdf-b171-11c07b4b0950","ios":"levelo://app?vid=39080695-4aff-4fdf-b171-11c07b4b0950"},"vehicle_type_id":"4","last_reported":1753737038,"current_range_meters":17600,"station_id":"","pricing_plan_id":"cebpf4jnsgd1na2vs0mg"},{"bike_id":"df59e2f2-ebcb-4b5d-884c-2c743fa57461","system_id":"levelo_inurba_marseille","lat":43.28645,"lon":5.35097,"is_reserved":false,"is_disabled":false,"rental_uris":{"android":"levelo://app?vid=df59e2f2-ebcb-4b5d-884c-2c743fa57461","ios":"levelo://app?vid=df59e2f2-ebcb-4b5d-884c-2c743fa57461"},"vehicle_type_id":"4","last_reported":1753737038,"current_range_meters":18000,"station_id":"ce4bhch2rcd13ifvqeug","pricing_plan_id":"cebpf4jnsgd1na2vs0mg"},{"bike_id":"57c25787-5337-4fe9-8a83-3851365c86d4","system_id":"levelo_inurba_marseille","lat":43.28624,"lon":5.35108,"is_reserved":false,"is_disabled":false,"rental_uris":{"android":"levelo://app?vid=57c25787-5337-4fe9-8a83-3851365c86d4","ios":"levelo://app?vid=57c25787-5337-4fe9-8a83-3851365c86d4"},"vehicle_type_id":"4","last_reported":1753737038,"current_range_meters":18000,"station_id":"ce4bhch2rcd13ifvqeug","pricing_plan_id":"cebpf4jnsgd1na2vs0mg"},{"bike_id":"32e6df16-5bff-4437-9b14-3309463fe00c","system_id":"levelo_inurba_marseille","lat":43.29286,"lon":5.40165,"is_reserved":false,"is_disabled":false,"rental_uris":{"android":"levelo://app?vid=32e6df16-5bff-4437-9b14-3309463fe00c","ios":"levelo://app?vid=32e6df16-5bff-4437-9b14-3309463fe00c"},"vehicle_type_id":"4","last_reported":1753737038,"current_range_meters":18000,"station_id":"ce4bh312rcd13ifvqdk0","pricing_plan_id":"cebpf4jnsgd1na2vs0mg"},{"bike_id":"b7234136-bf62-4ef1-9964-a9c43529d354","system_id":"levelo_inurba_marseille","lat":43.31809,"lon":5.39456,"is_reserved":false,"is_disabled":false,"rental_uris":{"android":"levelo://app?vid=b7234136-bf62-4ef1-9964-a9c43529d354","ios":"levelo://app?vid=b7234136-bf62-4ef1-9964-a9c43529d354"},"vehicle_type_id":"4","last_reported":1753737038,"current_range_meters":18000,"station_id":"","pricing_plan_id":"cebpf4jnsgd1na2vs0mg"},{"bike_id":"7595f3a8-779c-42ce-96ab-969d94e379de","system_id":"levelo_inurba_marseille","lat":43.33604,"lon":5.41036,"is_reserved":false,"is_disabled":false,"rental_uris":{"android":"levelo://app?vid=7595f3a8-779c-42ce-96ab-969d94e379de","ios":"levelo://app?vid=7595f3a8-779c-42ce-96ab-969d94e379de"},"vehicle_type_id":"4","last_reported":1753737038,"current_range_meters":17600,"station_id":"ce4bhqh2rcd13ifvqhmg","pricing_plan_id":"cebpf4jnsgd1na2vs0mg"},{"bike_id":"8600117f-2868-4874-a87b-44da40a3eccd","system_id":"levelo_inurba_marseille","lat":43.22928,"lon":5.35382,"is_reserved":false,"is_disabled":false,"rental_uris":{"android":"levelo://app?vid=8600117f-2868-4874-a87b-44da40a3eccd","ios":"levelo://app?vid=8600117f-2868-4874-a87b-44da40a3eccd"},"vehicle_type_id":"4","last_reported":1753737038,"current_range_meters":18000,"station_id":"cpo3532slgdg3j2ikp40","pricing_plan_id":"cebpf4jnsgd1na2vs0mg"},{"bike_id":"d8e6094c-0de7-412e-bab8-3969f4a35524","system_id":"levelo_inurba_marseille","lat":43.29847,"lon":5.37574,"is_reserved":false,"is_disabled":false,"rental_uris":{"android":"levelo://app?vid=d8e6094c-0de7-412e-bab8-3969f4a35524","ios":"levelo://app?vid=d8e6094c-0de7-412e-bab8-3969f4a35524"},"vehicle_type_id":"4","last_reported":1753737038,"current_range_meters":18000,"station_id":"","pricing_plan_id":"cebpf4jnsgd1na2vs0mg"},{"bike_id":"40547155-d82f-458b-a043-9ef85aeb712c","system_id":"levelo_inurba_marseille","lat":43.31167,"lon":5.38714,"is_reserved":false,"is_disabled":false,"rental_uris":{"android":"levelo://app?vid=40547155-d82f-458b-a043-9ef85aeb712c","ios":"levelo://app?vid=40547155-d82f-458b-a043-9ef85aeb712c"},"vehicle_type_id":"4","last_reported":1753737038,"current_range_meters":18000,"station_id":"ce4bgv12rcd13ifvqcp0","pricing_plan_id":"cebpf4jnsgd1na2vs0mg"},{"bike_id":"6a572c23-a95b-4f4a-8a53-33876eff2ac0","system_id":"levelo_inurba_marseille","lat":43.27176,"lon":5.40988,"is_reserved":false,"is_disabled":false,"rental_uris":{"android":"levelo://app?vid=6a572c23-a95b-4f4a-8a53-33876eff2ac0","ios":"levelo://app?vid=6a572c23-a95b-4f4a-8a53-33876eff2ac0"},"vehicle_type_id":"4","last_reported":1753737038,"current_range_meters":18000,"station_id":"ce4bhl12rcd13ifvqgf0","pricing_plan_id":"cebpf4jnsgd1na2vs0mg"},{"bike_id":"d04f5f6f-9894-42ef-a48e-c7223c9346d9","system_id":"levelo_inurba_marseille","lat":43.31374,"lon":5.38574,"is_reserved":false,"is_disabled":true,"rental_uris":{"android":"levelo://app?vid=d04f5f6f-9894-42ef-a48e-c7223c9346d9","ios":"levelo://app?vid=d04f5f6f-9894-42ef-a48e-c7223c9346d9"},"vehicle_type_id":"4","last_reported":1753737038,"current_range_meters":18000,"station_id":"ce4bgt92rcd13ifvqcf0","pricing_plan_id":"cebpf4jnsgd1na2vs0mg"},{"bike_id":"28e1feab-57f4-42d8-9d6f-6d74e7fcfdee","system_id":"levelo_inurba_marseille","lat":43.24387,"lon":5.37059,"is_reserved":false,"is_disabled":false,"rental_uris":{"android":"levelo://app?vid=28e1feab-57f4-42d8-9d6f-6d74e7fcfdee","ios":"levelo://app?vid=28e1feab-57f4-42d8-9d6f-6d74e7fcfdee"},"vehicle_type_id":"4","last_reported":1753737038,"current_range_meters":18000,"station_id":"ce4bhhh2rcd13ifvqfk0","pricing_plan_id":"cebpf4jnsgd1na2vs0mg"},{"bike_id":"ab9c577b-9cc3-4d9b-9e71-2ee231744295","system_id":"levelo_inurba_marseille","lat":43.28106,"lon":5.38334,"is_reserved":false,"is_disabled":false,"rental_uris":{"android":"levelo://app?vid=ab9c577b-9cc3-4d9b-9e71-2ee231744295","ios":"levelo://app?vid=ab9c577b-9cc3-4d9b-9e71-2ee231744295"},"vehicle_type_id":"4","last_reported":1753737038,"current_range_meters":18800,"station_id":"","pricing_plan_id":"cebpf4jnsgd1na2vs0mg"},{"bike_id":"de191d43-e1cd-480c-9885-39a4da9c1caa","system_id":"levelo_inurba_marseille","lat":43.2467,"lon":5.38138,"is_reserved":false,"is_disabled":false,"rental_uris":{"android":"levelo://app?vid=de191d43-e1cd-480c-9885-39a4da9c1caa","ios":"levelo://app?vid=de191d43-e1cd-480c-9885-39a4da9c1caa"},"vehicle_type_id":"4","last_reported":1753737038,"current_range_meters":18800,"station_id":"ce4bhih2rcd13ifvqfr0","pricing_plan_id":"cebpf4jnsgd1na2vs0mg"},{"bike_id":"8d21f864-333f-4c9b-ac99-6ae0d4279161","system_id":"levelo_inurba_marseille","lat":43.29569,"lon":5.39978,"is_reserved":false,"is_disabled":false,"rental_uris":{"android":"levelo://app?vid=8d21f864-333f-4c9b-ac99-6ae0d4279161","ios":"levelo://app?vid=8d21f864-333f-4c9b-ac99-6ae0d4279161"},"vehicle_type_id":"4","last_reported":1753737038,"current_range_meters":18800,"station_id":"ce4bh312rcd13ifvqdj0","pricing_plan_id":"cebpf4jnsgd1na2vs0mg"},{"bike_id":"34765211-2ebc-4022-87cc-18acc3f5bbb4","system_id":"levelo_inurba_marseille","lat":43.29633,"lon":5.40603,"is_reserved":false,"is_disabled":false,"rental_uris":{"android":"levelo://app?vid=34765211-2ebc-4022-87cc-18acc3f5bbb4","ios":"levelo://app?vid=34765211-2ebc-4022-87cc-18acc3f5bbb4"},"vehicle_type_id":"4","last_reported":1753737038,"current_range_meters":18800,"station_id":"ce4bh0h2rcd13ifvqd60","pricing_plan_id":"cebpf4jnsgd1na2vs0mg"},{"bike_id":"eb32b40a-eba1-491f-9c31-f4f65458dab1","system_id":"levelo_inurba_marseille","lat":43.29261,"lon":5.37629,"is_reserved":false,"is_disabled":false,"rental_uris":{"android":"levelo://app?vid=eb32b40a-eba1-491f-9c31-f4f65458dab1","ios":"levelo://app?vid=eb32b40a-eba1-491f-9c31-f4f65458dab1"},"vehicle_type_id":"4","last_reported":1753737038,"current_range_meters":18800,"station_id":"ce4bgi12rcd13ifvqb80","pricing_plan_id":"cebpf4jnsgd1na2vs0mg"},{"bike_id":"ad736a16-2922-4d70-ad7b-1cc9b960fedd","system_id":"levelo_inurba_marseille","lat":43.29013,"lon":5.3866,"is_reserved":false,"is_disabled":false,"rental_uris":{"android":"levelo://app?vid=ad736a16-2922-4d70-ad7b-1cc9b960fedd","ios":"levelo://app?vid=ad736a16-2922-4d70-ad7b-1cc9b960fedd"},"vehicle_type_id":"4","last_reported":1753737038,"current_range_meters":18800,"station_id":"ce4bh4p2rcd13ifvqe0g","pricing_plan_id":"cebpf4jnsgd1na2vs0mg"},{"bike_id":"e6485ac6-3ab0-4361-bc74-1262b4685e83","system_id":"levelo_inurba_marseille","lat":43.28074,"lon":5.39652,"is_reserved":false,"is_disabled":false,"rental_uris":{"android":"levelo://app?vid=e6485ac6-3ab0-4361-bc74-1262b4685e83","ios":"levelo://app?vid=e6485ac6-3ab0-4361-bc74-1262b4685e83"},"vehicle_type_id":"4","last_reported":1753737038,"current_range_meters":18800,"station_id":"ce4bho12rcd13ifvqh2g","pricing_plan_id":"cebpf4jnsgd1na2vs0mg"},{"bike_id":"c855658b-1920-42da-aa22-c89ebd52f835","system_id":"levelo_inurba_marseille","lat":43.31324,"lon":5.39712,"is_reserved":false,"is_disabled":false,"rental_uris":{"android":"levelo://app?vid=c855658b-1920-42da-aa22-c89ebd52f835","ios":"levelo://app?vid=c855658b-1920-42da-aa22-c89ebd52f835"},"vehicle_type_id":"4","last_reported":1753737038,"current_range_meters":18800,"station_id":"ce4bgvp2rcd13ifvqcu0","pricing_plan_id":"cebpf4jnsgd1na2vs0mg"},{"bike_id":"a5d21f19-a2f8-4c79-9341-84f97b97beb0","system_id":"levelo_inurba_marseille","lat":43.33422,"lon":5.40078,"is_reserved":false,"is_disabled":false,"rental_uris":{"android":"levelo://app?vid=a5d21f19-a2f8-4c79-9341-84f97b97beb0","ios":"levelo://app?vid=a5d21f19-a2f8-4c79-9341-84f97b97beb0"},"vehicle_type_id":"4","last_reported":1753737038,"current_range_meters":18800,"station_id":"","pricing_plan_id":"cebpf4jnsgd1na2vs0mg"},{"bike_id":"671cc172-5a9b-4f00-8be1-54df74582db7","system_id":"levelo_inurba_marseille","lat":43.262011,"lon":5.374563,"is_reserved":false,"is_disabled":false,"rental_uris":{"android":"levelo://app?vid=671cc172-5a9b-4f00-8be1-54df74582db7","ios":"levelo://app?vid=671cc172-5a9b-4f00-8be1-54df74582db7"},"vehicle_type_id":"4","last_reported":1753737038,"current_range_meters":18800,"station_id":"ce4bhgp2rcd13ifvqfc0","pricing_plan_id":"cebpf4jnsgd1na2vs0mg"},{"bike_id":"ef65f066-de96-432a-a3bf-b1b3ad0e62a1","system_id":"levelo_inurba_marseille","lat":43.32123,"lon":5.36777,"is_reserved":false,"is_disabled":false,"rental_uris":{"android":"levelo://app?vid=ef65f066-de96-432a-a3bf-b1b3ad0e62a1","ios":"levelo://app?vid=ef65f066-de96-432a-a3bf-b1b3ad0e62a1"},"vehicle_type_id":"4","last_reported":1753737038,"current_range_meters":18800,"station_id":"ce4bhrh2rcd13ifvqhug","pricing_plan_id":"cebpf4jnsgd1na2vs0mg"},{"bike_id":"73032c1c-fcaa-4940-8b70-e46960e191a9","system_id":"levelo_inurba_marseille","lat":43.2996,"lon":5.38519,"is_reserved":false,"is_disabled":false,"rental_uris":{"android":"levelo://app?vid=73032c1c-fcaa-4940-8b70-e46960e191a9","ios":"levelo://app?vid=73032c1c-fcaa-4940-8b70-e46960e191a9"},"vehicle_type_id":"4","last_reported":1753737038,"current_range_meters":18800,"station_id":"ce4bgj92rcd13ifvqbd0","pricing_plan_id":"cebpf4jnsgd1na2vs0mg"},{"bike_id":"c63467a6-4f82-4361-a0c7-75e5c073bad6","system_id":"levelo_inurba_marseille","lat":43.3091,"lon":5.36852,"is_reserved":false,"is_disabled":false,"rental_uris":{"android":"levelo://app?vid=c63467a6-4f82-4361-a0c7-75e5c073bad6","ios":"levelo://app?vid=c63467a6-4f82-4361-a0c7-75e5c073bad6"},"vehicle_type_id":"4","last_reported":1753737038,"current_range_meters":18800,"station_id":"ce4bgn92rcd13ifvqbvg","pricing_plan_id":"cebpf4jnsgd1na2vs0mg"},{"bike_id":"0f68d53e-64c9-4951-ab8c-fa4722897173","system_id":"levelo_inurba_marseille","lat":43.30133,"lon":5.38772,"is_reserved":false,"is_disabled":false,"rental_uris":{"android":"levelo://app?vid=0f68d53e-64c9-4951-ab8c-fa4722897173","ios":"levelo://app?vid=0f68d53e-64c9-4951-ab8c-fa4722897173"},"vehicle_type_id":"4","last_reported":1753737038,"current_range_meters":18800,"station_id":"ce4bghh2rcd13ifvqb60","pricing_plan_id":"cebpf4jnsgd1na2vs0mg"},{"bike_id":"a4f2aaa9-2276-4bad-8f3c-97ce00d95922","system_id":"levelo_inurba_marseille","lat":43.31703,"lon":5.4371,"is_reserved":false,"is_disabled":false,"rental_uris":{"android":"levelo://app?vid=a4f2aaa9-2276-4bad-8f3c-97ce00d95922","ios":"levelo://app?vid=a4f2aaa9-2276-4bad-8f3c-97ce00d95922"},"vehicle_type_id":"4","last_reported":1753737038,"current_range_meters":18000,"station_id":"ce4bhp92rcd13ifvqhcg","pricing_plan_id":"cebpf4jnsgd1na2vs0mg"},{"bike_id":"234b5607-275d-464d-b9ac-142f4d6e3f7d","system_id":"levelo_inurba_marseille","lat":43.27997,"lon":5.40011,"is_reserved":false,"is_disabled":false,"rental_uris":{"android":"levelo://app?vid=234b5607-275d-464d-b9ac-142f4d6e3f7d","ios":"levelo://app?vid=234b5607-275d-464d-b9ac-142f4d6e3f7d"},"vehicle_type_id":"4","last_reported":1753737038,"current_range_meters":19200,"station_id":"ce4bho92rcd13ifvqh4g","pricing_plan_id":"cebpf4jnsgd1na2vs0mg"},{"bike_id":"7337d8d0-f21e-4478-8d39-cc36906c202d","system_id":"levelo_inurba_marseille","lat":43.27068,"lon":5.42277,"is_reserved":false,"is_disabled":false,"rental_uris":{"android":"levelo://app?vid=7337d8d0-f21e-4478-8d39-cc36906c202d","ios":"levelo://app?vid=7337d8d0-f21e-4478-8d39-cc36906c202d"},"vehicle_type_id":"4","last_reported":1753737038,"current_range_meters":19200,"station_id":"ce4bhk92rcd13ifvqgb0","pricing_plan_id":"cebpf4jnsgd1na2vs0mg"},{"bike_id":"551434f8-6296-43b8-aab0-405975650720","system_id":"levelo_inurba_marseille","lat":43.28619,"lon":5.3512,"is_reserved":false,"is_disabled":false,"rental_uris":{"android":"levelo://app?vid=551434f8-6296-43b8-aab0-405975650720","ios":"levelo://app?vid=551434f8-6296-43b8-aab0-405975650720"},"vehicle_type_id":"4","last_reported":1753737038,"current_range_meters":19200,"station_id":"ce4bhch2rcd13ifvqeug","pricing_plan_id":"cebpf4jnsgd1na2vs0mg"},{"bike_id":"d70bf9c0-da41-431d-880e-74fa0d381f0f","system_id":"levelo_inurba_marseille","lat":43.295276,"lon":5.390356,"is_reserved":false,"is_disabled":false,"rental_uris":{"android":"levelo://app?vid=d70bf9c0-da41-431d-880e-74fa0d381f0f","ios":"levelo://app?vid=d70bf9c0-da41-431d-880e-74fa0d381f0f"},"vehicle_type_id":"4","last_reported":1753737038,"current_range_meters":19200,"station_id":"ce4bh3p2rcd13ifvqdp0","pricing_plan_id":"cebpf4jnsgd1na2vs0mg"},