{"last_updated":1692291963,"ttl":30,"version":"2.2","data":{"bikes":[{"bike_id":"2a39be7f-ce70-405e-ab9f-aca8c768e102","system_id":"levelo_inurba_marseille","lat":43.309076,"lon":5.368465,"is_reserved":false,"is_disabled":false,"rental_uris":{"android":"levelo://app?vid=2a39be7f-ce70-405e-ab9f-aca8c768e102","ios":"levelo://app?vid=2a39be7f-ce70-405e-ab9f-aca8c768e102"},"vehicle_type_id":"4","last_reported":1692291964,"current_range_meters":4000,"station_id":"ce4bgn92rcd13ifvqbvg","pricing_plan_id":"free"},{"bike_id":"5fdbba5f-f0a7-412e-8b98-a81989f50066","system_id":"levelo_inurba_marseille","lat":43.314811,"lon":5.373104,"is_reserved":false,"is_disabled":false,"rental_uris":{"android":"levelo://app?vid=5fdbba5f-f0a7-412e-8b98-a81989f50066","ios":"levelo://app?vid=5fdbba5f-f0a7-412e-8b98-a81989f50066"},"vehicle_type_id":"4","last_reported":1692291964,"current_range_meters":28000,"station_id":"ce4bgt12rcd13ifvqcd0","pricing_plan_id":"free"},{"bike_id":"4a9cf96a-10e8-4ea6-b507-27db54166e72","system_id":"levelo_inurba_marseille","lat":43.309039,"lon":5.371797,"is_reserved":false,"is_disabled":false,"rental_uris":{"android":"levelo://app?vid=4a9cf96a-10e8-4ea6-b507-27db54166e72","ios":"levelo://app?vid=4a9cf96a-10e8-4ea6-b507-27db54166e72"},"vehicle_type_id":"4","last_reported":1692291964,"current_range_meters":25200,"station_id":"ce4bguh2rcd13ifvqckg","pricing_plan_id":"free"},{"bike_id":"b52394ae-cb9b-4afa-9698-bdc3474888d3","system_id":"levelo_inurba_marseille","lat":43.309039,"lon":5.371797,"is_reserved":false,"is_disabled":false,"rental_uris":{"android":"levelo://app?vid=b52394ae-cb9b-4afa-9698-bdc3474888d3","ios":"levelo://app?vid=b52394ae-cb9b-4afa-9698-bdc3474888d3"},"vehicle_type_id":"4","last_reported":1692291964,"current_range_meters":7200,"station_id":"ce4bguh2rcd13ifvqckg","pricing_plan_id":"free"},{"bike_id":"a904af8e-e60f-4783-a85b-8eca0b69ce63","system_id":"levelo_inurba_marseille","lat":43.30587,"lon":5.36532,"is_reserved":false,"is_disabled":false,"rental_uris":{"android":"levelo://app?vid=a904af8e-e60f-4783-a85b-8eca0b69ce63","ios":"levelo://app?vid=a904af8e-e60f-4783-a85b-8eca0b69ce63"},"vehicle_type_id":"4","last_reported":1692291964,"current_range_meters":2800,"station_id":"","pricing_plan_id":"free"},{"bike_id":"98b1c92c-0015-49ee-a8ff-b09f58d45224","system_id":"levelo_inurba_marseille","lat":43.30538,"lon":5.36547,"is_reserved":false,"is_disabled":false,"rental_uris":{"android":"levelo://app?vid=98b1c92c-0015-49ee-a8ff-b09f58d45224","ios":"levelo://app?vid=98b1c92c-0015-49ee-a8ff-b09f58d45224"},"vehicle_type_id":"4","last_reported":1692291964,"current_range_meters":0,"station_id":"","pricing_plan_id":"free"},{"bike_id":"9fbe6e18-d192-44c2-98b5-cafb68b41aa4","system_id":"levelo_inurba_marseille","lat":43.3054,"lon":5.36527,"is_reserved":false,"is_disabled":false,"rental_uris":{"android":"levelo://app?vid=9fbe6e18-d192-44c2-98b5-cafb68b41aa4","ios":"levelo://app?vid=9fbe6e18-d192-44c2-98b5-cafb68b41aa4"},"vehicle_type_id":"4","last_reported":1692291964,"current_range_meters":20000,"station_id":"ce4bgs12rcd13ifvqcag","pricing_plan_id":"free"},{"bike_id":"386ed8e3-b71e-4f68-86af-202c5b76503e","system_id":"levelo_inurba_marseille","lat":43.305989,"lon":5.37225,"is_reserved":false,"is_disabled":false,"rental_uris":{"android":"levelo://app?vid=386ed8e3-b71e-4f68-86af-202c5b76503e","ios":"levelo://app?vid=386ed8e3-b71e-4f68-86af-202c5b76503e"},"vehicle_type_id":"4","last_reported":1692291964,"current_range_meters":31200,"station_id":"ce4bgqh2rcd13ifvqc4g","pricing_plan_id":"free"},{"bike_id":"0e0ad583-e9c9-40e7-b524-3ed4f40938a2","system_id":"levelo_inurba_marseille","lat":43.312239,"lon":5.368562,"is_reserved":false,"is_disabled":false,"rental_uris":{"android":"levelo://app?vid=0e0ad583-e9c9-40e7-b524-3ed4f40938a2","ios":"levelo://app?vid=0e0ad583-e9c9-40e7-b524-3ed4f40938a2"},"vehicle_type_id":"4","last_reported":1692291964,"current_range_meters":24800,"station_id":"ce4bgl92rcd13ifvqbq0","pricing_plan_id":"free"},{"bike_id":"a4ea0fac-f9e3-4c41-ab7c-aecbf3ccd389","system_id":"levelo_inurba_marseille","lat":43.317075,"lon":5.377367,"is_reserved":false,"is_disabled":false,"rental_uris":{"android":"levelo://app?vid=a4ea0fac-f9e3-4c41-ab7c-aecbf3ccd389","ios":"levelo://app?vid=a4ea0fac-f9e3-4c41-ab7c-aecbf3ccd389"},"vehicle_type_id":"4","last_reported":1692291964,"current_range_meters":28800,"station_id":"ce4bgth2rcd13ifvqch0","pricing_plan_id":"free"},{"bike_id":"1d0f0a43-76ce-4375-a3aa-29bf47521cec","system_id":"levelo_inurba_marseille","lat":43.317075,"lon":5.377367,"is_reserved":false,"is_disabled":false,"rental_uris":{"android":"levelo://app?vid=1d0f0a43-76ce-4375-a3aa-29bf47521cec","ios":"levelo://app?vid=1d0f0a43-76ce-4375-a3aa-29bf47521cec"},"vehicle_type_id":"4","last_reported":1692291964,"current_range_meters":20400,"station_id":"ce4bgth2rcd13ifvqch0","pricing_plan_id":"free"},{"bike_id":"abe02008-48b9-4a39-a492-745d55fbe8f7","system_id":"levelo_inurba_marseille","lat":43.3171,"lon":5.37749,"is_reserved":false,"is_disabled":false,"rental_uris":{"android":"levelo://app?vid=abe02008-48b9-4a39-a492-745d55fbe8f7","ios":"levelo://app?vid=abe02008-48b9-4a39-a492-745d55fbe8f7"},"vehicle_type_id":"4","last_reported":1692291964,"current_range_meters":19600,"station_id":"ce4bgth2rcd13ifvqch0","pricing_plan_id":"free"},{"bike_id":"34c6ce6a-827d-4c0c-8a40-63fe158f0dc4","system_id":"levelo_inurba_marseille","lat":43.315293,"lon":5.380349,"is_reserved":false,"is_disabled":false,"rental_uris":{"android":"levelo://app?vid=34c6ce6a-827d-4c0c-8a40-63fe158f0dc4","ios":"levelo://app?vid=34c6ce6a-827d-4c0c-8a40-63fe158f0dc4"},"vehicle_type_id":"4","last_reported":1692291964,"current_range_meters":7200,"station_id":"ce4bhsp2rcd13ifvqi50","pricing_plan_id":"free"},{"bike_id":"0b9d39af-a586-41e6-9875-992368bab1e5","system_id":"levelo_inurba_marseille","lat":43.315293,"lon":5.380349,"is_reserved":false,"is_disabled":false,"rental_uris":{"android":"levelo://app?vid=0b9d39af-a586-41e6-9875-992368bab1e5","ios":"levelo://app?vid=0b9d39af-a586-41e6-9875-992368bab1e5"},"vehicle_type_id":"4","last_reported":1692291964,"current_range_meters":29600,"station_id":"ce4bhsp2rcd13ifvqi50","pricing_plan_id":"free"},{"bike_id":"b0d24aa5-9183-4394-b9e6-529e7d21441c","system_id":"levelo_inurba_marseille","lat":43.31534,"lon":5.38036,"is_reserved":false,"is_disabled":false,"rental_uris":{"android":"levelo://app?vid=b0d24aa5-9183-4394-b9e6-529e7d21441c","ios":"levelo://app?vid=b0d24aa5-9183-4394-b9e6-529e7d21441c"},"vehicle_type_id":"4","last_reported":1692291964,"current_range_meters":0,"station_id":"ce4bhsp2rcd13ifvqi50","pricing_plan_id":"free"},{"bike_id":"e4c256d2-24ad-40b6-9bcc-5f9c6697b938","system_id":"levelo_inurba_marseille","lat":43.304606,"lon":5.379026,"is_reserved":false,"is_disabled":false,"rental_uris":{"android":"levelo://app?vid=e4c256d2-24ad-40b6-9bcc-5f9c6697b938","ios":"levelo://app?vid=e4c256d2-24ad-40b6-9bcc-5f9c6697b938"},"vehicle_type_id":"4","last_reported":1692291964,"current_range_meters":29200,"station_id":"ce4bgup2rcd13ifvqcn0","pricing_plan_id":"free"},{"bike_id":"6a016054-0c0f-45f8-9674-bbfd12fbf66c","system_id":"levelo_inurba_marseille","lat":43.304606,"lon":5.379026,"is_reserved":false,"is_disabled":false,"rental_uris":{"android":"levelo://app?vid=6a016054-0c0f-45f8-9674-bbfd12fbf66c","ios":"levelo://app?vid=6a016054-0c0f-45f8-9674-bbfd12fbf66c"},"vehicle_type_id":"4","last_reported":1692291964,"current_range_meters":9200,"station_id":"ce4bgup2rcd13ifvqcn0","pricing_plan_id":"free"},{"bike_id":"145eeb57-9a98-4805-9418-02fd7b363844","system_id":"levelo_inurba_marseille","lat":43.302784,"lon":5.377158,"is_reserved":false,"is_disabled":false,"rental_uris":{"android":"levelo://app?vid=145eeb57-9a98-4805-9418-02fd7b363844","ios":"levelo://app?vid=145eeb57-9a98-4805-9418-02fd7b363844"},"vehicle_type_id":"4","last_reported":1692291964,"current_range_meters":27200,"station_id":"ce4bguh2rcd13ifvqcj0","pricing_plan_id":"free"},{"bike_id":"2bc3d7f8-9f07-403a-9e85-acfe2bc19416","system_id":"levelo_inurba_marseille","lat":43.302784,"lon":5.377158,"is_reserved":false,"is_disabled":false,"rental_uris":{"android":"levelo://app?vid=2bc3d7f8-9f07-403a-9e85-acfe2bc19416","ios":"levelo://app?vid=2bc3d7f8-9f07-403a-9e85-acfe2bc19416"},"vehicle_type_id":"4","last_reported":1692291964,"current_range_meters":14800,"station_id":"ce4bguh2rcd13ifvqcj0","pricing_plan_id":"free"},{"bike_id":"8edc98e9-ff68-4abb-9aed-439fc370eb1d","system_id":"levelo_inurba_marseille","lat":43.31995,"lon":5.38147,"is_reserved":false,"is_disabled":false,"rental_uris":{"android":"levelo://app?vid=8edc98e9-ff68-4abb-9aed-439fc370eb1d","ios":"levelo://app?vid=8edc98e9-ff68-4abb-9aed-439fc370eb1d"},"vehicle_type_id":"4","last_reported":1692291964,"current_range_meters":11200,"station_id":"ce4bhr12rcd13ifvqhpg","pricing_plan_id":"free"},{"bike_id":"b328d323-4e49-4e11-8d47-6f47f1998c64","system_id":"levelo_inurba_marseille","lat":43.319935,"lon":5.381699,"is_reserved":false,"is_disabled":false,"rental_uris":{"android":"levelo://app?vid=b328d323-4e49-4e11-8d47-6f47f1998c64","ios":"levelo://app?vid=b328d323-4e49-4e11-8d47-6f47f1998c64"},"vehicle_type_id":"4","last_reported":1692291964,"current_range_meters":26400,"station_id":"ce4bhr12rcd13ifvqhpg","pricing_plan_id":"free"},{"bike_id":"0199fadd-d0a9-4074-adc4-86b80fffb7d6","system_id":"levelo_inurba_marseille","lat":43.319935,"lon":5.381699,"is_reserved":false,"is_disabled":false,"rental_uris":{"android":"levelo://app?vid=0199fadd-d0a9-4074-adc4-86b80fffb7d6","ios":"levelo://app?vid=0199fadd-d0a9-4074-adc4-86b80fffb7d6"},"vehicle_type_id":"4","last_reported":1692291964,"current_range_meters":30400,"station_id":"ce4bhr12rcd13ifvqhpg","pricing_plan_id":"free"},{"bike_id":"cb0d8bc8-9d16-44c6-8210-f7cf8e546669","system_id":"levelo_inurba_marseille","lat":43.313571,"lon":5.384829,"is_reserved":false,"is_disabled":false,"rental_uris":{"android":"levelo://app?vid=cb0d8bc8-9d16-44c6-8210-f7cf8e546669","ios":"levelo://app?vid=cb0d8bc8-9d16-44c6-8210-f7cf8e546669"},"vehicle_type_id":"4","last_reported":1692291964,"current_range_meters":8400,"station_id":"ce4bgt92rcd13ifvqcf0","pricing_plan_id":"free"},{"bike_id":"3e545a29-e278-4f50-ab06-a4a4413fedc8","system_id":"levelo_inurba_marseille","lat":43.311722,"lon":5.387247,"is_reserved":false,"is_disabled":false,"rental_uris":{"android":"levelo://app?vid=3e545a29-e278-4f50-ab06-a4a4413fedc8","ios":"levelo://app?vid=3e545a29-e278-4f50-ab06-a4a4413fedc8"},"vehicle_type_id":"4","last_reported":1692291964,"current_range_meters":20000,"station_id":"ce4bgv12rcd13ifvqcp0","pricing_plan_id":"free"},{"bike_id":"5b5c8cae-b425-4976-9ba8-5ae205664d6b","system_id":"levelo_inurba_marseille","lat":43.322872,"lon":5.382756,"is_reserved":false,"is_disabled":false,"rental_uris":{"android":"levelo://app?vid=5b5c8cae-b425-4976-9ba8-5ae205664d6b","ios":"levelo://app?vid=5b5c8cae-b425-4976-9ba8-5ae205664d6b"},"vehicle_type_id":"4","last_reported":1692291964,"current_range_meters":28400,"station_id":"ce4bhr12rcd13ifvqhqg","pricing_plan_id":"free"},{"bike_id":"67c43f86-fcb6-41cc-8957-c0d7033c94b6","system_id":"levelo_inurba_marseille","lat":43.32299,"lon":5.38243,"is_reserved":false,"is_disabled":false,"rental_uris":{"android":"levelo://app?vid=67c43f86-fcb6-41cc-8957-c0d7033c94b6","ios":"levelo://app?vid=67c43f86-fcb6-41cc-8957-c0d7033c94b6"},"vehicle_type_id":"4","last_reported":1692291964,"current_range_meters":27200,"station_id":"ce4bhr12rcd13ifvqhqg","pricing_plan_id":"free"},{"bike_id":"673200d6-9c00-4797-bd65-06254571f6fe","system_id":"levelo_inurba_marseille","lat":43.3229,"lon":5.38262,"is_reserved":false,"is_disabled":false,"rental_uris":{"android":"levelo://app?vid=673200d6-9c00-4797-bd65-06254571f6fe","ios":"levelo://app?vid=673200d6-9c00-4797-bd65-06254571f6fe"},"vehicle_type_id":"4","last_reported":1692291964,"current_range_meters":31200,"station_id":"ce4bhr12rcd13ifvqhqg","pricing_plan_id":"free"},{"bike_id":"2655ed25-ff91-44e2-9350-639e39275cf7","system_id":"levelo_inurba_marseille","lat":43.32287,"lon":5.38268,"is_reserved":false,"is_disabled":false,"rental_uris":{"android":"levelo://app?vid=2655ed25-ff91-44e2-9350-639e39275cf7","ios":"levelo://app?vid=2655ed25-ff91-44e2-9350-639e39275cf7"},"vehicle_type_id":"4","last_reported":1692291964,"current_range_meters":30400,"station_id":"ce4bhr12rcd13ifvqhqg","pricing_plan_id":"free"},{"bike_id":"4ea834d1-267f-41ec-b789-6c09255ff5cc","system_id":"levelo_inurba_marseille","lat":43.322872,"lon":5.382756,"is_reserved":false,"is_disabled":false,"rental_uris":{"android":"levelo://app?vid=4ea834d1-267f-41ec-b789-6c09255ff5cc","ios":"levelo://app?vid=4ea834d1-267f-41ec-b789-6c09255ff5cc"},"vehicle_type_id":"4","last_reported":1692291964,"current_range_meters":28800,"station_id":"ce4bhr12rcd13ifvqhqg","pricing_plan_id":"free"},{"bike_id":"5f91fc7d-0833-4a7c-a0d8-21ec0ad5455a","system_id":"levelo_inurba_marseille","lat":43.32294,"lon":5.38262,"is_reserved":false,"is_disabled":false,"rental_uris":{"android":"levelo://app?vid=5f91fc7d-0833-4a7c-a0d8-21ec0ad5455a","ios":"levelo://app?vid=5f91fc7d-0833-4a7c-a0d8-21ec0ad5455a"},"vehicle_type_id":"4","last_reported":1692291964,"current_range_meters":30000,"station_id":"ce4bhr12rcd13ifvqhqg","pricing_plan_id":"free"},{"bike_id":"20066552-063e-4d3e-9e10-e0e8a6d2c838","system_id":"levelo_inurba_marseille","lat":43.32289,"lon":5.3827,"is_reserved":false,"is_disabled":false,"rental_uris":{"android":"levelo://app?vid=20066552-063e-4d3e-9e10-e0e8a6d2c838","ios":"levelo://app?vid=20066552-063e-4d3e-9e10-e0e8a6d2c838"},"vehicle_type_id":"4","last_reported":1692291964,"current_range_meters":10800,"station_id":"ce4bhr12rcd13ifvqhqg","pricing_plan_id":"free"},{"bike_id":"2b488fa5-6690-49f1-8674-7d2969f31eb4","system_id":"levelo_inurba_marseille","lat":43.322872,"lon":5.382756,"is_reserved":false,"is_disabled":false,"rental_uris":{"android":"levelo://app?vid=2b488fa5-6690-49f1-8674-7d2969f31eb4","ios":"levelo://app?vid=2b488fa5-6690-49f1-8674-7d2969f31eb4"},"vehicle_type_id":"4","last_reported":1692291964,"current_range_meters":21200,"station_id":"ce4bhr12rcd13ifvqhqg","pricing_plan_id":"free"},{"bike_id":"b9784bc4-a1f4-4e7b-a996-3746dcc4c656","system_id":"levelo_inurba_marseille","lat":43.32286,"lon":5.38276,"is_reserved":false,"is_disabled":false,"rental_uris":{"android":"levelo://app?vid=b9784bc4-a1f4-4e7b-a996-3746dcc4c656","ios":"levelo://app?vid=b9784bc4-a1f4-4e7b-a996-3746dcc4c656"},"vehicle_type_id":"4","last_reported":1692291964,"current_range_meters":19200,"station_id":"ce4bhr12rcd13ifvqhqg","pricing_plan_id":"free"},{"bike_id":"a1f7b084-f437-4e0c-8b20-334f54c48d59","system_id":"levelo_inurba_marseille","lat":43.322872,"lon":5.382756,"is_reserved":false,"is_disabled":false,"rental_uris":{"android":"levelo://app?vid=a1f7b084-f437-4e0c-8b20-334f54c48d59","ios":"levelo://app?vid=a1f7b084-f437-4e0c-8b20-334f54c48d59"},"vehicle_type_id":"4","last_reported":1692291964,"current_range_meters":27600,"station_id":"ce4bhr12rcd13ifvqhqg","pricing_plan_id":"free"},{"bike_id":"3801b001-12f4-4501-a087-fcce78764ccb","system_id":"levelo_inurba_marseille","lat":43.297774,"lon":5.370875,"is_reserved":false,"is_disabled":false,"rental_uris":{"android":"levelo://app?vid=3801b001-12f4-4501-a087-fcce78764ccb","ios":"levelo://app?vid=3801b001-12f4-4501-a087-fcce78764ccb"},"vehicle_type_id":"4","last_reported":1692291964,"current_range_meters":21200,"station_id":"ce4bgop2rcd13ifvqc1g","pricing_plan_id":"free"},{"bike_id":"15120a69-1dc0-488d-b5dc-3813b3f3db2b","system_id":"levelo_inurba_marseille","lat":43.3229,"lon":5.38274,"is_reserved":false,"is_disabled":false,"rental_uris":{"android":"levelo://app?vid=15120a69-1dc0-488d-b5dc-3813b3f3db2b","ios":"levelo://app?vid=15120a69-1dc0-488d-b5dc-3813b3f3db2b"},"vehicle_type_id":"4","last_reported":1692291964,"current_range_meters":6800,"station_id":"ce4bhr12rcd13ifvqhqg","pricing_plan_id":"free"},{"bike_id":"71ebd10a-ba59-46f1-8364-4c1d1ca6dbfe","system_id":"levelo_inurba_marseille","lat":43.328371,"lon":5.366909,"is_reserved":false,"is_disabled":false,"rental_uris":{"android":"levelo://app?vid=71ebd10a-ba59-46f1-8364-4c1d1ca6dbfe","ios":"levelo://app?vid=71ebd10a-ba59-46f1-8364-4c1d1ca6dbfe"},"vehicle_type_id":"4","last_reported":1692291964,"current_range_meters":9200,"station_id":"ce4bhs92rcd13ifvqi0g","pricing_plan_id":"free"},{"bike_id":"2cacf4ba-30f0-4f40-92af-cee799fe4c0c","system_id":"levelo_inurba_marseille","lat":43.328371,"lon":5.366909,"is_reserved":false,"is_disabled":false,"rental_uris":{"android":"levelo://app?vid=2cacf4ba-30f0-4f40-92af-cee799fe4c0c","ios":"levelo://app?vid=2cacf4ba-30f0-4f40-92af-cee799fe4c0c"},"vehicle_type_id":"4","last_reported":1692291964,"current_range_meters":22000,"station_id":"ce4bhs92rcd13ifvqi0g","pricing_plan_id":"free"},{"bike_id":"3dc8ddfd-e386-4774-938c-dc3a7b25274a","system_id":"levelo_inurba_marseille","lat":43.32828,"lon":5.36679,"is_reserved":false,"is_disabled":false,"rental_uris":{"android":"levelo://app?vid=3dc8ddfd-e386-4774-938c-dc3a7b25274a","ios":"levelo://app?vid=3dc8ddfd-e386-4774-938c-dc3a7b25274a"},"vehicle_type_id":"4","last_reported":1692291964,"current_range_meters":13200,"station_id":"ce4bhs92rcd13ifvqi0g","pricing_plan_id":"free"},{"bike_id":"4ed96fad-2e51-49a2-879d-e8c05ef80263","system_id":"levelo_inurba_marseille","lat":43.328371,"lon":5.366909,"is_reserved":false,"is_disabled":false,"rental_uris":{"android":"levelo://app?vid=4ed96fad-2e51-49a2-879d-e8c05ef80263","ios":"levelo://app?vid=4ed96fad-2e51-49a2-879d-e8c05ef80263"},"vehicle_type_id":"4","last_reported":1692291964,"current_range_meters":10000,"station_id":"ce4bhs92rcd13ifvqi0g","pricing_plan_id":"free"},{"bike_id":"56504123-b8fe-479c-b20d-811167e44a23","system_id":"levelo_inurba_marseille","lat":43.328371,"lon":5.366909,"is_reserved":false,"is_disabled":false,"rental_uris":{"android":"levelo://app?vid=56504123-b8fe-479c-b20d-811167e44a23","ios":"levelo://app?vid=56504123-b8fe-479c-b20d-811167e44a23"},"vehicle_type_id":"4","last_reported":1692291964,"current_range_meters":14400,"station_id":"ce4bhs92rcd13ifvqi0g","pricing_plan_id":"free"},{"bike_id":"dd789220-e7b5-42c1-b9dc-dc4243148021","system_id":"levelo_inurba_marseille","lat":43.297163,"lon":5.365866,"is_reserved":false,"is_disabled":false,"rental_uris":{"android":"levelo://app?vid=dd789220-e7b5-42c1-b9dc-dc4243148021","ios":"levelo://app?vid=dd789220-e7b5-42c1-b9dc-dc4243148021"},"vehicle_type_id":"4","last_reported":1692291964,"current_range_meters":31200,"station_id":"ce4bgn12rcd13ifvqbt0","pricing_plan_id":"free"},{"bike_id":"5f8a6ca0-5dfe-4c06-929a-c1030bd48d99","system_id":"levelo_inurba_marseille","lat":43.32838,"lon":5.36683,"is_reserved":false,"is_disabled":false,"rental_uris":{"android":"levelo://app?vid=5f8a6ca0-5dfe-4c06-929a-c1030bd48d99","ios":"levelo://app?vid=5f8a6ca0-5dfe-4c06-929a-c1030bd48d99"},"vehicle_type_id":"4","last_reported":1692291964,"current_range_meters":10000,"station_id":"ce4bhs92rcd13ifvqi0g","pricing_plan_id":"free"},{"bike_id":"555b833d-df26-457b-b177-aeeca20ef249","system_id":"levelo_inurba_marseille","lat":43.297163,"lon":5.365866,"is_reserved":false,"is_disabled":false,"rental_uris":{"android":"levelo://app?vid=555b833d-df26-457b-b177-aeeca20ef249","ios":"levelo://app?vid=555b833d-df26-457b-b177-aeeca20ef249"},"vehicle_type_id":"4","last_reported":1692291964,"current_range_meters":15600,"station_id":"ce4bgn12rcd13ifvqbt0","pricing_plan_id":"free"},{"bike_id":"d3139180-8ba9-4c91-b6e4-8baae3c22113","system_id":"levelo_inurba_marseille","lat":43.296131,"lon":5.370773,"is_reserved":false,"is_disabled":false,"rental_uris":{"android":"levelo://app?vid=d3139180-8ba9-4c91-b6e4-8baae3c22113","ios":"levelo://app?vid=d3139180-8ba9-4c91-b6e4-8baae3c22113"},"vehicle_type_id":"4","last_reported":1692291964,"current_range_meters":31200,"station_id":"ce4bgnh2rcd13ifvqc0g","pricing_plan_id":"free"},{"bike_id":"bb155e93-116e-494a-9911-2df351c7dae8","system_id":"levelo_inurba_marseille","lat":43.296131,"lon":5.370791,"is_reserved":false,"is_disabled":false,"rental_uris":{"android":"levelo://app?vid=bb155e93-116e-494a-9911-2df351c7dae8","ios":"levelo://app?vid=bb155e93-116e-494a-9911-2df351c7dae8"},"vehicle_type_id":"4","last_reported":1692291964,"current_range_meters":30800,"station_id":"ce4bgnh2rcd13ifvqc0g","pricing_plan_id":"free"},{"bike_id":"5167667d-8aa5-480e-a2c0-23bd3ac58f2c","system_id":"levelo_inurba_marseille","lat":43.296129,"lon":5.370777,"is_reserved":false,"is_disabled":false,"rental_uris":{"android":"levelo://app?vid=5167667d-8aa5-480e-a2c0-23bd3ac58f2c","ios":"levelo://app?vid=5167667d-8aa5-480e-a2c0-23bd3ac58f2c"},"vehicle_type_id":"4","last_reported":1692291964,"current_range_meters":20800,"station_id":"ce4bgnh2rcd13ifvqc0g","pricing_plan_id":"free"},{"bike_id":"1dcf4850-b7a7-4dcd-9298-afa42cfa2486","system_id":"levelo_inurba_marseille","lat":43.296935,"lon":5.376544,"is_reserved":false,"is_disabled":false,"rental_uris":{"android":"levelo://app?vid=1dcf4850-b7a7-4dcd-9298-afa42cfa2486","ios":"levelo://app?vid=1dcf4850-b7a7-4dcd-9298-afa42cfa2486"},"vehicle_type_id":"4","last_reported":1692291964,"current_range_meters":4000,"station_id":"ce4bgkh2rcd13ifvqbl0","pricing_plan_id":"free"},{"bike_id":"e0387223-3fba-40cb-8b31-875e4298529b","system_id":"levelo_inurba_marseille","lat":43.299028,"lon":5.381509,"is_reserved":false,"is_disabled":false,"rental_uris":{"android":"levelo://app?vid=e0387223-3fba-40cb-8b31-875e4298529b","ios":"levelo://app?vid=e0387223-3fba-40cb-8b31-875e4298529b"},"vehicle_type_id":"4","last_reported":1692291964,"current_range_meters":26400,"station_id":"ce4bgj12rcd13ifvqbc0","pricing_plan_id":"free"},{"bike_id":"be472a66-12d7-4b1c-a801-1b9205d156df","system_id":"levelo_inurba_marseille","lat":43.317557,"lon":5.390173,"is_reserved":false,"is_disabled":false,"rental_uris":{"android":"levelo://app?vid=be472a66-12d7-4b1c-a801-1b9205d156df","ios":"levelo://app?vid=be472a66-12d7-4b1c-a801-1b9205d156df"},"vehicle_type_id":"4","last_reported":1692291964,"current_range_meters":29200,"station_id":"ce4bhqp2rcd13ifvqhng","pricing_plan_id":"free"},{"bike_id":"b9a855a0-d9d8-4782-943a-840cbcde0bb8","system_id":"levelo_inurba_marseille","lat":43.31764,"lon":5.39017,"is_reserved":false,"is_disabled":false,"rental_uris":{"android":"levelo://app?vid=b9a855a0-d9d8-4782-943a-840cbcde0bb8","ios":"levelo://app?vid=b9a855a0-d9d8-4782-943a-840cbcde0bb8"},"vehicle_type_id":"4","last_reported":1692291964,"current_range_meters":17600,"station_id":"ce4bhqp2rcd13ifvqhng","pricing_plan_id":"free"},{"bike_id":"a4df99ce-0488-49dd-a888-94686f562e88","system_id":"levelo_inurba_marseille","lat":43.29575,"lon":5.37508,"is_reserved":false,"is_disabled":false,"rental_uris":{"android":"levelo://app?vid=a4df99ce-0488-49dd-a888-94686f562e88","ios":"levelo://app?vid=a4df99ce-0488-49dd-a888-94686f562e88"},"vehicle_type_id":"4","last_reported":1692291964,"current_range_meters":27200,"station_id":"ce4bgh92rcd13ifvqb50","pricing_plan_id":"free"},{"bike_id":"713c3c6d-a7f1-44be-b8e6-0f542e98d26e","system_id":"levelo_inurba_marseille","lat":43.29629,"lon":5.37701,"is_reserved":false,"is_disabled":false,"rental_uris":{"android":"levelo://app?vid=713c3c6d-a7f1-44be-b8e6-0f542e98d26e","ios":"levelo://app?vid=713c3c6d-a7f1-44be-b8e6-0f542e98d26e"},"vehicle_type_id":"4","last_reported":1692291964,"current_range_meters":400,"station_id":"","pricing_plan_id":"free"},{"bike_id":"1974cf36-6e3c-44f0-b80e-18788f1ccb2e","system_id":"levelo_inurba_marseille","lat":43.2957,"lon":5.37515,"is_reserved":false,"is_disabled":false,"rental_uris":{"android":"levelo://app?vid=1974cf36-6e3c-44f0-b80e-18788f1ccb2e","ios":"levelo://app?vid=1974cf36-6e3c-44f0-b80e-18788f1ccb2e"},"vehicle_type_id":"4","last_reported":1692291964,"current_range_meters":9600,"station_id":"","pricing_plan_id":"free"},{"bike_id":"881d901d-2a89-493e-8db2-12fc80fdc5c2","system_id":"levelo_inurba_marseille","lat":43.29792,"lon":5.38115,"is_reserved":false,"is_disabled":false,"rental_uris":{"android":"levelo://app?vid=881d901d-2a89-493e-8db2-12fc80fdc5c2","ios":"levelo://app?vid=881d901d-2a89-493e-8db2-12fc80fdc5c2"},"vehicle_type_id":"4","last_reported":1692291964,"current_range_meters":28400,"station_id":"ce4bgip2rcd13ifvqbb0","pricing_plan_id":"free"},{"bike_id":"68470394-7663-4829-9f53-1a45542cdb40","system_id":"levelo_inurba_marseille","lat":43.299707,"lon":5.384859,"is_reserved":false,"is_disabled":false,"rental_uris":{"android":"levelo://app?vid=68470394-7663-4829-9f53-1a45542cdb40","ios":"levelo://app?vid=68470394-7663-4829-9f53-1a45542cdb40"},"vehicle_type_id":"4","last_reported":1692291964,"current_range_meters":13200,"station_id":"ce4bgj92rcd13ifvqbd0","pricing_plan_id":"free"},{"bike_id":"41211202-068a-447a-a6f2-53fd34d5e66b","system_id":"levelo_inurba_marseille","lat":43.30103,"lon":5.38748,"is_reserved":false,"is_disabled":false,"rental_uris":{"android":"levelo://app?vid=41211202-068a-447a-a6f2-53fd34d5e66b","ios":"levelo://app?vid=41211202-068a-447a-a6f2-53fd34d5e66b"},"vehicle_type_id":"4","last_reported":1692291964,"current_range_meters":2800,"station_id":"","pricing_plan_id":"free"},{"bike_id":"450b6384-3b45-4695-a86b-848539f6da31","system_id":"levelo_inurba_marseille","lat":43.32362,"lon":5.3888,"is_reserved":false,"is_disabled":false,"rental_uris":{"android":"levelo://app?vid=450b6384-3b45-4695-a86b-848539f6da31","ios":"levelo://app?vid=450b6384-3b45-4695-a86b-848539f6da31"},"vehicle_type_id":"4","last_reported":1692291964,"current_range_meters":18000,"station_id":"ce4bhqp2rcd13ifvqhog","pricing_plan_id":"free"},{"bike_id":"95514392-84bd-4ad0-8d9a-b606fc2167ce","system_id":"levelo_inurba_marseille","lat":43.32371,"lon":5.38873,"is_reserved":false,"is_disabled":false,"rental_uris":{"android":"levelo://app?vid=95514392-84bd-4ad0-8d9a-b606fc2167ce","ios":"levelo://app?vid=95514392-84bd-4ad0-8d9a-b606fc2167ce"},"vehicle_type_id":"4","last_reported":1692291964,"current_range_meters":14800,"station_id":"ce4bhqp2rcd13ifvqhog","pricing_plan_id":"free"},{"bike_id":"1c6f1d13-f1af-4035-bd43-ec40eddb996e","system_id":"levelo_inurba_marseille","lat":43.32365,"lon":5.38879,"is_reserved":false,"is_disabled":false,"rental_uris":{"android":"levelo://app?vid=1c6f1d13-f1af-4035-bd43-ec40eddb996e","ios":"levelo://app?vid=1c6f1d13-f1af-4035-bd43-ec40eddb996e"},"vehicle_type_id":"4","last_reported":1692291964,"current_range_meters":7600,"station_id":"ce4bhqp2rcd13ifvqhog","pricing_plan_id":"free"},{"bike_id":"1b5c2691-bd33-46db-b85d-232fc0684773","system_id":"levelo_inurba_marseille","lat":43.32365,"lon":5.38881,"is_reserved":false,"is_disabled":false,"rental_uris":{"android":"levelo://app?vid=1b5c2691-bd33-46db-b85d-232fc0684773","ios":"levelo://app?vid=1b5c2691-bd33-46db-b85d-232fc0684773"},"vehicle_type_id":"4","last_reported":1692291964,"current_range_meters":27600,"station_id":"ce4bhqp2rcd13ifvqhog","pricing_plan_id":"free"},{"bike_id":"6b6cba89-d2b8-44bb-8454-5df08cf65f67","system_id":"levelo_inurba_marseille","lat":43.32367,"lon":5.388836,"is_reserved":false,"is_disabled":false,"rental_uris":{"android":"levelo://app?vid=6b6cba89-d2b8-44bb-8454-5df08cf65f67","ios":"levelo://app?vid=6b6cba89-d2b8-44bb-8454-5df08cf65f67"},"vehicle_type_id":"4","last_reported":1692291964,"current_range_meters":22000,"station_id":"ce4bhqp2rcd13ifvqhog","pricing_plan_id":"free"},{"bike_id":"5deca036-ea7a-461b-9966-cca000531f2a","system_id":"levelo_inurba_marseille","lat":43.32366,"lon":5.38882,"is_reserved":false,"is_disabled":false,"rental_uris":{"android":"levelo://app?vid=5deca036-ea7a-461b-9966-cca000531f2a","ios":"levelo://app?vid=5deca036-ea7a-461b-9966-cca000531f2a"},"vehicle_type_id":"4","last_reported":1692291964,"current_range_meters":24400,"station_id":"ce4bhqp2rcd13ifvqhog","pricing_plan_id":"free"},{"bike_id":"55f08f4d-333e-4077-9882-16e72e12ddbf","system_id":"levelo_inurba_marseille","lat":43.32362,"lon":5.38887,"is_reserved":false,"is_disabled":false,"rental_uris":{"android":"levelo://app?vid=55f08f4d-333e-4077-9882-16e72e12ddbf","ios":"levelo://app?vid=55f08f4d-333e-4077-9882-16e72e12ddbf"},"vehicle_type_id":"4","last_reported":1692291964,"current_range_meters":14400,"station_id":"ce4bhqp2rcd13ifvqhog","pricing_plan_id":"free"},{"bike_id":"cbffe489-c68c-4e68-b63d-cbf52cd3cc48","system_id":"levelo_inurba_marseille","lat":43.32365,"lon":5.38886,"is_reserved":false,"is_disabled":false,"rental_uris":{"android":"levelo://app?vid=cbffe489-c68c-4e68-b63d-cbf52cd3cc48","ios":"levelo://app?vid=cbffe489-c68c-4e68-b63d-cbf52cd3cc48"},"vehicle_type_id":"4","last_reported":1692291964,"current_range_meters":29200,"station_id":"ce4bhqp2rcd13ifvqhog","pricing_plan_id":"free"},{"bike_id":"810e5c4e-cfbd-4fb4-b6d8-02289cde4c80","system_id":"levelo_inurba_marseille","lat":43.32365,"lon":5.38886,"is_reserved":false,"is_disabled":false,"rental_uris":{"android":"levelo://app?vid=810e5c4e-cfbd-4fb4-b6d8-02289cde4c80","ios":"levelo://app?vid=810e5c4e-cfbd-4fb4-b6d8-02289cde4c80"},"vehicle_type_id":"4","last_reported":1692291964,"current_range_meters":22000,"station_id":"ce4bhqp2rcd13ifvqhog","pricing_plan_id":"free"},{"bike_id":"202a0fe0-667e-4c2a-9495-6f4398b52c02","system_id":"levelo_inurba_marseille","lat":43.29358,"lon":5.37175,"is_reserved":false,"is_disabled":false,"rental_uris":{"android":"levelo://app?vid=202a0fe0-667e-4c2a-9495-6f4398b52c02","ios":"levelo://app?vid=202a0fe0-667e-4c2a-9495-6f4398b52c02"},"vehicle_type_id":"4","last_reported":1692291964,"current_range_meters":17600,"station_id":"","pricing_plan_id":"free"},{"bike_id":"c047ebdb-4bdf-4334-9421-8d7d32b8d891","system_id":"levelo_inurba_marseille","lat":43.29602,"lon":5.381084,"is_reserved":false,"is_disabled":false,"rental_uris":{"android":"levelo://app?vid=c047ebdb-4bdf-4334-9421-8d7d32b8d891","ios":"levelo://app?vid=c047ebdb-4bdf-4334-9421-8d7d32b8d891"},"vehicle_type_id":"4","last_reported":1692291964,"current_range_meters":28000,"station_id":"ce4bgl12rcd13ifvqbo0","pricing_plan_id":"free"},{"bike_id":"0382e7a2-2b10-4abc-99d0-e0b76dc9631e","system_id":"levelo_inurba_marseille","lat":43.298037,"lon":5.381066,"is_reserved":false,"is_disabled":false,"rental_uris":{"android":"levelo://app?vid=0382e7a2-2b10-4abc-99d0-e0b76dc9631e","ios":"levelo://app?vid=0382e7a2-2b10-4abc-99d0-e0b76dc9631e"},"vehicle_type_id":"4","last_reported":1692291964,"current_range_meters":3200,"station_id":"ce4bgip2rcd13ifvqbb0","pricing_plan_id":"free"},{"bike_id":"4db28da1-a8b2-4a54-8ff5-313547539f8a","system_id":"levelo_inurba_marseille","lat":43.293,"lon":5.37462,"is_reserved":false,"is_disabled":false,"rental_uris":{"android":"levelo://app?vid=4db28da1-a8b2-4a54-8ff5-313547539f8a","ios":"levelo://app?vid=4db28da1-a8b2-4a54-8ff5-313547539f8a"},"vehicle_type_id":"4","last_reported":1692291964,"current_range_meters":4000,"station_id":"ce4bgi12rcd13ifvqb70","pricing_plan_id":"free"},{"bike_id":"38fef587-7cc5-4800-b069-87b8f296a10a","system_id":"levelo_inurba_marseille","lat":43.293009,"lon":5.374584,"is_reserved":false,"is_disabled":false,"rental_uris":{"android":"levelo://app?vid=38fef587-7cc5-4800-b069-87b8f296a10a","ios":"levelo://app?vid=38fef587-7cc5-4800-b069-87b8f296a10a"},"vehicle_type_id":"4","last_reported":1692291964,"current_range_meters":31600,"station_id":"ce4bgi12rcd13ifvqb70","pricing_plan_id":"free"},{"bike_id":"b49105b2-7373-4b4e-89cb-bde267346a40","system_id":"levelo_inurba_marseille","lat":43.300852,"lon":5.390859,"is_reserved":false,"is_disabled":false,"rental_uris":{"android":"levelo://app?vid=b49105b2-7373-4b4e-89cb-bde267346a40","ios":"levelo://app?vid=b49105b2-7373-4b4e-89cb-bde267346a40"},"vehicle_type_id":"4","last_reported":1692291964,"current_range_meters":1600,"station_id":"ce4bh192rcd13ifvqdb0","pricing_plan_id":"free"},{"bike_id":"7ba22ea0-4480-44c1-af84-d3081fdb1f0d","system_id":"levelo_inurba_marseille","lat":43.291675,"lon":5.371583,"is_reserved":false,"is_disabled":false,"rental_uris":{"android":"levelo://app?vid=7ba22ea0-4480-44c1-af84-d3081fdb1f0d","ios":"levelo://app?vid=7ba22ea0-4480-44c1-af84-d3081fdb1f0d"},"vehicle_type_id":"4","last_reported":1692291964,"current_range_meters":10000,"station_id":"ce4bha92rcd13ifvqeh0","pricing_plan_id":"free"},{"bike_id":"755b693a-0c7c-47ea-afae-a0f7fd278e1e","system_id":"levelo_inurba_marseille","lat":43.298764,"lon":5.388973,"is_reserved":false,"is_disabled":false,"rental_uris":{"android":"levelo://app?vid=755b693a-0c7c-47ea-afae-a0f7fd278e1e","ios":"levelo://app?vid=755b693a-0c7c-47ea-afae-a0f7fd278e1e"},"vehicle_type_id":"4","last_reported":1692291964,"current_range_meters":26800,"station_id":"ce4bh392rcd13ifvqdl0","pricing_plan_id":"free"},{"bike_id":"30017bb3-7c61-4963-a5e5-d10babcd7d9a","system_id":"levelo_inurba_marseille","lat":43.29529,"lon":5.385581,"is_reserved":false,"is_disabled":false,"rental_uris":{"android":"levelo://app?vid=30017bb3-7c61-4963-a5e5-d10babcd7d9a","ios":"levelo://app?vid=30017bb3-7c61-4963-a5e5-d10babcd7d9a"},"vehicle_type_id":"4","last_reported":1692291964,"current_range_meters":21600,"station_id":"ce4bgih2rcd13ifvqba0","pricing_plan_id":"free"},{"bike_id":"900b6997-511d-4e48-a0c8-682ed4f1d255","system_id":"levelo_inurba_marseille","lat":43.29529,"lon":5.385581,"is_reserved":false,"is_disabled":false,"rental_uris":{"android":"levelo://app?vid=900b6997-511d-4e48-a0c8-682ed4f1d255","ios":"levelo://app?vid=900b6997-511d-4e48-a0c8-682ed4f1d255"},"vehicle_type_id":"4","last_reported":1692291964,"current_range_meters":12800,"station_id":"ce4bgih2rcd13ifvqba0","pricing_plan_id":"free"},{"bike_id":"ff9d9792-1ea3-41e1-8dff-55320c40ada6","system_id":"levelo_inurba_marseille","lat":43.29419,"lon":5.3862,"is_reserved":false,"is_disabled":false,"rental_uris":{"android":"levelo://app?vid=ff9d9792-1ea3-41e1-8dff-55320c40ada6","ios":"levelo://app?vid=ff9d9792-1ea3-41e1-8dff-55320c40ada6"},"vehicle_type_id":"4","last_reported":1692291964,"current_range_meters":14800,"station_id":"","pricing_plan_id":"free"},{"bike_id":"b36a46df-ea3b-4007-b83b-54c998aa82e8","system_id":"levelo_inurba_marseille","lat":43.29418,"lon":5.38622,"is_reserved":false,"is_disabled":false,"rental_uris":{"android":"levelo://app?vid=b36a46df-ea3b-4007-b83b-54c998aa82e8","ios":"levelo://app?vid=b36a46df-ea3b-4007-b83b-54c998aa82e8"},"vehicle_type_id":"4","last_reported":1692291964,"current_range_meters":4400,"station_id":"ce4bh2h2rcd13ifvqdh0","pricing_plan_id":"free"},{"bike_id":"c7ac0081-7fac-4880-82e8-b80faf787611","system_id":"levelo_inurba_marseille","lat":43.289184,"lon":5.366408,"is_reserved":false,"is_disabled":false,"rental_uris":{"android":"levelo://app?vid=c7ac0081-7fac-4880-82e8-b80faf787611","ios":"levelo://app?vid=c7ac0081-7fac-4880-82e8-b80faf787611"},"vehicle_type_id":"4","last_reported":1692291964,"current_range_meters":0,"station_id":"ce4bhap2rcd13ifvqek0","pricing_plan_id":"free"},{"bike_id":"4954c4a3-e301-4501-a57b-f80d81ed0cc7","system_id":"levelo_inurba_marseille","lat":43.28938,"lon":5.36637,"is_reserved":false,"is_disabled":false,"rental_uris":{"android":"levelo://app?vid=4954c4a3-e301-4501-a57b-f80d81ed0cc7","ios":"levelo://app?vid=4954c4a3-e301-4501-a57b-f80d81ed0cc7"},"vehicle_type_id":"4","last_reported":1692291964,"current_range_meters":14800,"station_id":"","pricing_plan_id":"free"},{"bike_id":"c80b15a0-a9bf-40b6-8d39-371427e0d6eb","system_id":"levelo_inurba_marseille","lat":43.28927,"lon":5.36637,"is_reserved":false,"is_disabled":false,"rental_uris":{"android":"levelo://app?vid=c80b15a0-a9bf-40b6-8d39-371427e0d6eb","ios":"levelo://app?vid=c80b15a0-a9bf-40b6-8d39-371427e0d6eb"},"vehicle_type_id":"4","last_reported":1692291964,"current_range_meters":4800,"station_id":"","pricing_plan_id":"free"},{"bike_id":"be005e4f-d207-40fd-bd99-241d744b2797","system_id":"levelo_inurba_marseille","lat":43.33039,"lon":5.38915,"is_reserved":false,"is_disabled":false,"rental_uris":{"android":"levelo://app?vid=be005e4f-d207-40fd-bd99-241d744b2797","ios":"levelo://app?vid=be005e4f-d207-40fd-bd99-241d744b2797"},"vehicle_type_id":"4","last_reported":1692291964,"current_range_meters":11200,"station_id":"ce4bhr92rcd13ifvqhrg","pricing_plan_id":"free"},{"bike_id":"859ece1b-eaf2-4429-915d-1d151e169e7f","system_id":"levelo_inurba_marseille","lat":43.33037,"lon":5.3892,"is_reserved":false,"is_disabled":false,"rental_uris":{"android":"levelo://app?vid=859ece1b-eaf2-4429-915d-1d151e169e7f","ios":"levelo://app?vid=859ece1b-eaf2-4429-915d-1d151e169e7f"},"vehicle_type_id":"4","last_reported":1692291964,"current_range_meters":13600,"station_id":"ce4bhr92rcd13ifvqhrg","pricing_plan_id":"free"},{"bike_id":"d4ad8918-8ab6-4278-b772-6948b5c39e1d","system_id":"levelo_inurba_marseille","lat":43.330442,"lon":5.389148,"is_reserved":false,"is_disabled":false,"rental_uris":{"android":"levelo://app?vid=d4ad8918-8ab6-4278-b772-6948b5c39e1d","ios":"levelo://app?vid=d4ad8918-8ab6-4278-b772-6948b5c39e1d"},"vehicle_type_id":"4","last_reported":1692291964,"current_range_meters":16400,"station_id":"ce4bhr92rcd13ifvqhrg","pricing_plan_id":"free"},{"bike_id":"78f1a325-e5b4-4a72-bb0e-b29d3285ba24","system_id":"levelo_inurba_marseille","lat":43.290104,"lon":5.356111,"is_reserved":false,"is_disabled":false,"rental_uris":{"android":"levelo://app?vid=78f1a325-e5b4-4a72-bb0e-b29d3285ba24","ios":"levelo://app?vid=78f1a325-e5b4-4a72-bb0e-b29d3285ba24"},"vehicle_type_id":"4","last_reported":1692291964,"current_range_meters":31200,"station_id":"ce4bhb92rcd13ifvqen0","pricing_plan_id":"free"},{"bike_id":"6af087b0-510c-46e1-bc03-dbade140f1ed","system_id":"levelo_inurba_marseille","lat":43.33044,"lon":5.38921,"is_reserved":false,"is_disabled":false,"rental_uris":{"android":"levelo://app?vid=6af087b0-510c-46e1-bc03-dbade140f1ed","ios":"levelo://app?vid=6af087b0-510c-46e1-bc03-dbade140f1ed"},"vehicle_type_id":"4","last_reported":1692291964,"current_range_meters":20800,"station_id":"ce4bhr92rcd13ifvqhrg","pricing_plan_id":"free"},{"bike_id":"b4f579a2-662c-4aa0-92f0-13af89ac4ae9","system_id":"levelo_inurba_marseille","lat":43.29005,"lon":5.35612,"is_reserved":false,"is_disabled":false,"rental_uris":{"android":"levelo://app?vid=b4f579a2-662c-4aa0-92f0-13af89ac4ae9","ios":"levelo://app?vid=b4f579a2-662c-4aa0-92f0-13af89ac4ae9"},"vehicle_type_id":"4","last_reported":1692291964,"current_range_meters":24400,"station_id":"ce4bhb92rcd13ifvqen0","pricing_plan_id":"free"},{"bike_id":"8dba0ce9-ba39-4cc5-895b-85a8be8fe923","system_id":"levelo_inurba_marseille","lat":43.291029,"lon":5.381334,"is_reserved":false,"is_disabled":false,"rental_uris":{"android":"levelo://app?vid=8dba0ce9-ba39-4cc5-895b-85a8be8fe923","ios":"levelo://app?vid=8dba0ce9-ba39-4cc5-895b-85a8be8fe923"},"vehicle_type_id":"4","last_reported":1692291964,"current_range_meters":800,"station_id":"","pricing_plan_id":"free"},{"bike_id":"d04b7a94-036d-4895-b7c8-bde16afc2fdd","system_id":"levelo_inurba_marseille","lat":43.290995,"lon":5.381361,"is_reserved":false,"is_disabled":false,"rental_uris":{"android":"levelo://app?vid=d04b7a94-036d-4895-b7c8-bde16afc2fdd","ios":"levelo://app?vid=d04b7a94-036d-4895-b7c8-bde16afc2fdd"},"vehicle_type_id":"4","last_reported":1692291964,"current_range_meters":0,"station_id":"ce4bh512rcd13ifvqe2g","pricing_plan_id":"free"},{"bike_id":"e3e1639f-ef09-468c-bf97-0f7e641f3baf","system_id":"levelo_inurba_marseille","lat":43.2979,"lon":5.3934,"is_reserved":false,"is_disabled":false,"rental_uris":{"android":"levelo://app?vid=e3e1639f-ef09-468c-bf97-0f7e641f3baf","ios":"levelo://app?vid=e3e1639f-ef09-468c-bf97-0f7e641f3baf"},"vehicle_type_id":"4","last_reported":1692291964,"current_range_meters":31200,"station_id":"chh1huq6cuj3fo74tm60","pricing_plan_id":"free"},{"bike_id":"bbc1028e-76fd-4d39-a2d9-d23f57e8f322","system_id":"levelo_inurba_marseille","lat":43.29784,"lon":5.39336,"is_reserved":false,"is_disabled":false,"rental_uris":{"android":"levelo://app?vid=bbc1028e-76fd-4d39-a2d9-d23f57e8f322","ios":"levelo://app?vid=bbc1028e-76fd-4d39-a2d9-d23f57e8f322"},"vehicle_type_id":"4","last_reported":1692291964,"current_range_meters":400,"station_id":"chh1huq6cuj3fo74tm60","pricing_plan_id":"free"},{"bike_id":"330ed908-d05e-45fc-b74f-55068f443d89","system_id":"levelo_inurba_marseille","lat":43.29788,"lon":5.39343,"is_reserved":false,"is_disabled":false,"rental_uris":{"android":"levelo://app?vid=330ed908-d05e-45fc-b74f-55068f443d89","ios":"levelo://app?vid=330ed908-d05e-45fc-b74f-55068f443d89"},"vehicle_type_id":"4","last_reported":1692291964,"current_range_meters":19600,"station_id":"chh1huq6cuj3fo74tm60","pricing_plan_id":"free"},{"bike_id":"08474781-abaf-4f38-adce-70fcbf0939b7","system_id":"levelo_inurba_marseille","lat":43.295169,"lon":5.390426,"is_reserved":false,"is_disabled":false,"rental_uris":{"android":"levelo://app?vid=08474781-abaf-4f38-adce-70fcbf0939b7","ios":"levelo://app?vid=08474781-abaf-4f38-adce-70fcbf0939b7"},"vehicle_type_id":"4","last_reported":1692291964,"current_range_meters":17200,"station_id":"ce4bh3p2rcd13ifvqdp0","pricing_plan_id":"free"},{"bike_id":"a69bf1f3-6b86-4aad-832e-91903990eca1","system_id":"levelo_inurba_marseille","lat":43.28979,"lon":5.37824,"is_reserved":false,"is_disabled":false,"rental_uris":{"android":"levelo://app?vid=a69bf1f3-6b86-4aad-832e-91903990eca1","ios":"levelo://app?vid=a69bf1f3-6b86-4aad-832e-91903990eca1"},"vehicle_type_id":"4","last_reported":1692291964,"current_range_meters":20400,"station_id":"","pricing_plan_id":"free"},{"bike_id":"86b1c357-8b13-4217-a8cb-559265c177ff","system_id":"levelo_inurba_marseille","lat":43.33734,"lon":5.3747,"is_reserved":false,"is_disabled":false,"rental_uris":{"android":"levelo://app?vid=86b1c357-8b13-4217-a8cb-559265c177ff","ios":"levelo://app?vid=86b1c357-8b13-4217-a8cb-559265c177ff"},"vehicle_type_id":"4","last_reported":1692291964,"current_range_meters":28000,"station_id":"","pricing_plan_id":"free"},{"bike_id":"87534a1b-22e7-43b3-9953-4922c7d3b060","system_id":"levelo_inurba_marseille","lat":43.31269,"lon":5.40166,"is_reserved":false,"is_disabled":false,"rental_uris":{"android":"levelo://app?vid=87534a1b-22e7-43b3-9953-4922c7d3b060","ios":"levelo://app?vid=87534a1b-22e7-43b3-9953-4922c7d3b060"},"vehicle_type_id":"4","last_reported":1692291964,"current_range_meters":21600,"station_id":"ce4bh092rcd13ifvqd30","pricing_plan_id":"free"},{"bike_id":"d8358aaa-6e98-4a61-80e9-c895241770d1","system_id":"levelo_inurba_marseille","lat":43.312609,"lon":5.401662,"is_reserved":false,"is_disabled":false,"rental_uris":{"android":"levelo://app?vid=d8358aaa-6e98-4a61-80e9-c895241770d1","ios":"levelo://app?vid=d8358aaa-6e98-4a61-80e9-c895241770d1"},"vehicle_type_id":"4","last_reported":1692291964,"current_range_meters":29200,"station_id":"ce4bh092rcd13ifvqd30","pricing_plan_id":"free"},{"bike_id":"18d2adc2-55b1-454b-a141-ea1ecce47190","system_id":"levelo_inurba_marseille","lat":43.30642,"lon":5.401031,"is_reserved":false,"is_disabled":false,"rental_uris":{"android":"levelo://app?vid=18d2adc2-55b1-454b-a141-ea1ecce47190","ios":"levelo://app?vid=18d2adc2-55b1-454b-a141-ea1ecce47190"},"vehicle_type_id":"4","last_reported":1692291964,"current_range_meters":21600,"station_id":"ce4bh112rcd13ifvqda0","pricing_plan_id":"free"},{"bike_id":"af780357-a8f8-4cbd-a818-396599dd4299","system_id":"levelo_inurba_marseille","lat":43.33757,"lon":5.37439,"is_reserved":false,"is_disabled":false,"rental_uris":{"android":"levelo://app?vid=af780357-a8f8-4cbd-a818-396599dd4299","ios":"levelo://app?vid=af780357-a8f8-4cbd-a818-396599dd4299"},"vehicle_type_id":"4","last_reported":1692291964,"current_range_meters":20800,"station_id":"","pricing_plan_id":"free"},{"bike_id":"f1a999d0-6cce-4b52-97e7-5d117e4a0a20","system_id":"levelo_inurba_marseille","lat":43.33759,"lon":5.37428,"is_reserved":false,"is_disabled":false,"rental_uris":{"android":"levelo://app?vid=f1a999d0-6cce-4b52-97e7-5d117e4a0a20","ios":"levelo://app?vid=f1a999d0-6cce-4b52-97e7-5d117e4a0a20"},"vehicle_type_id":"4","last_reported":1692291964,"current_range_meters":30000,"station_id":"","pricing_plan_id":"free"},{"bike_id":"22b5539f-dcb8-4b17-8359-287d7929e017","system_id":"levelo_inurba_marseille","lat":43.30639,"lon":5.40093,"is_reserved":false,"is_disabled":false,"rental_uris":{"android":"levelo://app?vid=22b5539f-dcb8-4b17-8359-287d7929e017","ios":"levelo://app?vid=22b5539f-dcb8-4b17-8359-287d7929e017"},"vehicle_type_id":"4","last_reported":1692291964,"current_range_meters":13600,"station_id":"ce4bh112rcd13ifvqda0","pricing_plan_id":"free"},{"bike_id":"c8e36187-835d-4ae5-a596-75160776a381","system_id":"levelo_inurba_marseille","lat":43.33766,"lon":5.37494,"is_reserved":false,"is_disabled":false,"rental_uris":{"android":"levelo://app?vid=c8e36187-835d-4ae5-a596-75160776a381","ios":"levelo://app?vid=c8e36187-835d-4ae5-a596-75160776a381"},"vehicle_type_id":"4","last_reported":1692291964,"current_range_meters":29200,"station_id":"","pricing_plan_id":"free"},{"bike_id":"4e223b6f-3c25-48b2-bf29-64fb04ae9c60","system_id":"levelo_inurba_marseille","lat":43.33784,"lon":5.37419,"is_reserved":false,"is_disabled":false,"rental_uris":{"android":"levelo://app?vid=4e223b6f-3c25-48b2-bf29-64fb04ae9c60","ios":"levelo://app?vid=4e223b6f-3c25-48b2-bf29-64fb04ae9c60"},"vehicle_type_id":"4","last_reported":1692291964,"current_range_meters":29600,"station_id":"","pricing_plan_id":"free"},{"bike_id":"6ffe6f7c-3ec2-48c4-9b46-4c1f20b89146","system_id":"levelo_inurba_marseille","lat":43.30137,"lon":5.39858,"is_reserved":false,"is_disabled":false,"rental_uris":{"android":"levelo://app?vid=6ffe6f7c-3ec2-48c4-9b46-4c1f20b89146","ios":"levelo://app?vid=6ffe6f7c-3ec2-48c4-9b46-4c1f20b89146"},"vehicle_type_id":"4","last_reported":1692291964,"current_range_meters":16000,"station_id":"ce4bh0h2rcd13ifvqd40","pricing_plan_id":"free"},{"bike_id":"1d058630-dbef-4644-8804-070c5a23af1e","system_id":"levelo_inurba_marseille","lat":43.286591,"lon":5.363346,"is_reserved":false,"is_disabled":false,"rental_uris":{"android":"levelo://app?vid=1d058630-dbef-4644-8804-070c5a23af1e","ios":"levelo://app?vid=1d058630-dbef-4644-8804-070c5a23af1e"},"vehicle_type_id":"4","last_reported":1692291964,"current_range_meters":4800,"station_id":"ce4bhah2rcd13ifvqej0","pricing_plan_id":"free"},{"bike_id":"b45b27dd-e5a1-423a-b02c-cc6a4bd4d2ba","system_id":"levelo_inurba_marseille","lat":43.286961,"lon":5.373785,"is_reserved":false,"is_disabled":false,"rental_uris":{"android":"levelo://app?vid=b45b27dd-e5a1-423a-b02c-cc6a4bd4d2ba","ios":"levelo://app?vid=b45b27dd-e5a1-423a-b02c-cc6a4bd4d2ba"},"vehicle_type_id":"4","last_reported":1692291964,"current_range_meters":30400,"station_id":"ce4bh3p2rcd13ifvqdq0","pricing_plan_id":"free"},{"bike_id":"aa18735b-a009-493a-a8ad-923628302ac4","system_id":"levelo_inurba_marseille","lat":43.286961,"lon":5.373785,"is_reserved":false,"is_disabled":false,"rental_uris":{"android":"levelo://app?vid=aa18735b-a009-493a-a8ad-923628302ac4","ios":"levelo://app?vid=aa18735b-a009-493a-a8ad-923628302ac4"},"vehicle_type_id":"4","last_reported":1692291964,"current_range_meters":19600,"station_id":"ce4bh3p2rcd13ifvqdq0","pricing_plan_id":"free"},{"bike_id":"120486cf-1730-48d7-8c5d-00b4e9ac4fc7","system_id":"levelo_inurba_marseille","lat":43.295196,"lon":5.39397,"is_reserved":false,"is_disabled":false,"rental_uris":{"android":"levelo://app?vid=120486cf-1730-48d7-8c5d-00b4e9ac4fc7","ios":"levelo://app?vid=120486cf-1730-48d7-8c5d-00b4e9ac4fc7"},"vehicle_type_id":"4","last_reported":1692291964,"current_range_meters":2000,"station_id":"ce4bh292rcd13ifvqdf0","pricing_plan_id":"free"},{"bike_id":"b6f870f7-8bb6-419f-99e0-1b288f81cab0","system_id":"levelo_inurba_marseille","lat":43.286961,"lon":5.373785,"is_reserved":false,"is_disabled":false,"rental_uris":{"android":"levelo://app?vid=b6f870f7-8bb6-419f-99e0-1b288f81cab0","ios":"levelo://app?vid=b6f870f7-8bb6-419f-99e0-1b288f81cab0"},"vehicle_type_id":"4","last_reported":1692291964,"current_range_meters":17600,"station_id":"ce4bh3p2rcd13ifvqdq0","pricing_plan_id":"free"},{"bike_id":"54bfc866-5391-4b29-b46c-23f8de906cd7","system_id":"levelo_inurba_marseille","lat":43.28663,"lon":5.36353,"is_reserved":false,"is_disabled":false,"rental_uris":{"android":"levelo://app?vid=54bfc866-5391-4b29-b46c-23f8de906cd7","ios":"levelo://app?vid=54bfc866-5391-4b29-b46c-23f8de906cd7"},"vehicle_type_id":"4","last_reported":1692291964,"current_range_meters":28800,"station_id":"","pricing_plan_id":"free"},{"bike_id":"7f3158c1-c298-4710-9fcf-aef5d26f561f","system_id":"levelo_inurba_marseille","lat":43.286961,"lon":5.373785,"is_reserved":false,"is_disabled":false,"rental_uris":{"android":"levelo://app?vid=7f3158c1-c298-4710-9fcf-aef5d26f561f","ios":"levelo://app?vid=7f3158c1-c298-4710-9fcf-aef5d26f561f"},"vehicle_type_id":"4","last_reported":1692291964,"current_range_meters":1200,"station_id":"ce4bh3p2rcd13ifvqdq0","pricing_plan_id":"free"},{"bike_id":"75199276-b705-4ad7-b6a9-49aeaa84628a","system_id":"levelo_inurba_marseille","lat":43.286591,"lon":5.363346,"is_reserved":false,"is_disabled":false,"rental_uris":{"android":"levelo://app?vid=75199276-b705-4ad7-b6a9-49aeaa84628a","ios":"levelo://app?vid=75199276-b705-4ad7-b6a9-49aeaa84628a"},"vehicle_type_id":"4","last_reported":1692291964,"current_range_meters":31200,"station_id":"ce4bhah2rcd13ifvqej0","pricing_plan_id":"free"},{"bike_id":"85c3cc22-7131-4105-aa9e-9d929284cb1c","system_id":"levelo_inurba_marseille","lat":43.276179,"lon":5.361009,"is_reserved":false,"is_disabled":false,"rental_uris":{"android":"levelo://app?vid=85c3cc22-7131-4105-aa9e-9d929284cb1c","ios":"levelo://app?vid=85c3cc22-7131-4105-aa9e-9d929284cb1c"},"vehicle_type_id":"4","last_reported":1692291964,"current_range_meters":14800,"station_id":"ce4bgj92rcd13ifvqbe0","pricing_plan_id":"free"},{"bike_id":"2c42c531-17f1-4eb9-9dcb-0adf0663d7a2","system_id":"levelo_inurba_marseille","lat":43.28696,"lon":5.37403,"is_reserved":false,"is_disabled":false,"rental_uris":{"android":"levelo://app?vid=2c42c531-17f1-4eb9-9dcb-0adf0663d7a2","ios":"levelo://app?vid=2c42c531-17f1-4eb9-9dcb-0adf0663d7a2"},"vehicle_type_id":"4","last_reported":1692291964,"current_range_meters":26400,"station_id":"","pricing_plan_id":"free"},{"bike_id":"5d623aae-8414-47cf-89f1-5e097da77a9d","system_id":"levelo_inurba_marseille","lat":43.290345,"lon":5.38646,"is_reserved":false,"is_disabled":false,"rental_uris":{"android":"levelo://app?vid=5d623aae-8414-47cf-89f1-5e097da77a9d","ios":"levelo://app?vid=5d623aae-8414-47cf-89f1-5e097da77a9d"},"vehicle_type_id":"4","last_reported":1692291964,"current_range_meters":17200,"station_id":"ce4bh4p2rcd13ifvqe0g","pricing_plan_id":"free"},{"bike_id":"9d5f559c-721e-4004-93d7-25efef67aed6","system_id":"levelo_inurba_marseille","lat":43.30252,"lon":5.40078,"is_reserved":false,"is_disabled":false,"rental_uris":{"android":"levelo://app?vid=9d5f559c-721e-4004-93d7-25efef67aed6","ios":"levelo://app?vid=9d5f559c-721e-4004-93d7-25efef67aed6"},"vehicle_type_id":"4","last_reported":1692291964,"current_range_meters":13600,"station_id":"ce4bgvh2rcd13ifvqcs0","pricing_plan_id":"free"},{"bike_id":"6acc9b32-0af8-41a2-a5d1-a9f8480fc48b","system_id":"levelo_inurba_marseille","lat":43.3025,"lon":5.40077,"is_reserved":false,"is_disabled":false,"rental_uris":{"android":"levelo://app?vid=6acc9b32-0af8-41a2-a5d1-a9f8480fc48b","ios":"levelo://app?vid=6acc9b32-0af8-41a2-a5d1-a9f8480fc48b"},"vehicle_type_id":"4","last_reported":1692291964,"current_range_meters":21200,"station_id":"ce4bgvh2rcd13ifvqcs0","pricing_plan_id":"free"},{"bike_id":"ea776f94-6777-408a-ad38-ca550efda407","system_id":"levelo_inurba_marseille","lat":43.30248,"lon":5.40083,"is_reserved":false,"is_disabled":false,"rental_uris":{"android":"levelo://app?vid=ea776f94-6777-408a-ad38-ca550efda407","ios":"levelo://app?vid=ea776f94-6777-408a-ad38-ca550efda407"},"vehicle_type_id":"4","last_reported":1692291964,"current_range_meters":27200,"station_id":"ce4bgvh2rcd13ifvqcs0","pricing_plan_id":"free"},{"bike_id":"912f8d4c-9efe-4fa0-8449-87a7e3ffff47","system_id":"levelo_inurba_marseille","lat":43.286039,"lon":5.370681,"is_reserved":false,"is_disabled":false,"rental_uris":{"android":"levelo://app?vid=912f8d4c-9efe-4fa0-8449-87a7e3ffff47","ios":"levelo://app?vid=912f8d4c-9efe-4fa0-8449-87a7e3ffff47"},"vehicle_type_id":"4","last_reported":1692291964,"current_range_meters":0,"station_id":"ce4bht12rcd13ifvqi60","pricing_plan_id":"free"},{"bike_id":"117bca5f-0147-42b0-8452-07eeabd8a6be","system_id":"levelo_inurba_marseille","lat":43.287184,"lon":5.37937,"is_reserved":false,"is_disabled":false,"rental_uris":{"android":"levelo://app?vid=117bca5f-0147-42b0-8452-07eeabd8a6be","ios":"levelo://app?vid=117bca5f-0147-42b0-8452-07eeabd8a6be"},"vehicle_type_id":"4","last_reported":1692291964,"current_range_meters":23200,"station_id":"ce4bh9p2rcd13ifvqec0","pricing_plan_id":"free"},{"bike_id":"ce5d2858-abe2-40a9-9e20-dda97ac38f81","system_id":"levelo_inurba_marseille","lat":43.31645,"lon":5.40431,"is_reserved":false,"is_disabled":false,"rental_uris":{"android":"levelo://app?vid=ce5d2858-abe2-40a9-9e20-dda97ac38f81","ios":"levelo://app?vid=ce5d2858-abe2-40a9-9e20-dda97ac38f81"},"vehicle_type_id":"4","last_reported":1692291964,"current_range_meters":20400,"station_id":"ce4bh012rcd13ifvqd00","pricing_plan_id":"free"},{"bike_id":"7da9e437-1e79-4b5f-9ab0-65254ac17dd7","system_id":"levelo_inurba_marseille","lat":43.31646,"lon":5.4044,"is_reserved":false,"is_disabled":false,"rental_uris":{"android":"levelo://app?vid=7da9e437-1e79-4b5f-9ab0-65254ac17dd7","ios":"levelo://app?vid=7da9e437-1e79-4b5f-9ab0-65254ac17dd7"},"vehicle_type_id":"4","last_reported":1692291964,"current_range_meters":9600,"station_id":"ce4bh012rcd13ifvqd00","pricing_plan_id":"free"},{"bike_id":"cadbb20f-9055-4bd0-bf48-cc0b55f2d485","system_id":"levelo_inurba_marseille","lat":43.284538,"lon":5.358657,"is_reserved":false,"is_disabled":false,"rental_uris":{"android":"levelo://app?vid=cadbb20f-9055-4bd0-bf48-cc0b55f2d485","ios":"levelo://app?vid=cadbb20f-9055-4bd0-bf48-cc0b55f2d485"},"vehicle_type_id":"4","last_reported":1692291964,"current_range_meters":26400,"station_id":"ce4bhah2rcd13ifvqei0","pricing_plan_id":"free"},{"bike_id":"87eb3bdc-a70e-46d1-8fac-a2401f6d5412","system_id":"levelo_inurba_marseille","lat":43.284534,"lon":5.358662,"is_reserved":false,"is_disabled":false,"rental_uris":{"android":"levelo://app?vid=87eb3bdc-a70e-46d1-8fac-a2401f6d5412","ios":"levelo://app?vid=87eb3bdc-a70e-46d1-8fac-a2401f6d5412"},"vehicle_type_id":"4","last_reported":1692291964,"current_range_meters":3200,"station_id":"ce4bhah2rcd13ifvqei0","pricing_plan_id":"free"},{"bike_id":"e3551d0d-4a14-4835-8b43-b14f8de5d832","system_id":"levelo_inurba_marseille","lat":43.284534,"lon":5.358662,"is_reserved":false,"is_disabled":false,"rental_uris":{"android":"levelo://app?vid=e3551d0d-4a14-4835-8b43-b14f8de5d832","ios":"levelo://app?vid=e3551d0d-4a14-4835-8b43-b14f8de5d832"},"vehicle_type_id":"4","last_reported":1692291964,"current_range_meters":20400,"station_id":"ce4bhah2rcd13ifvqei0","pricing_plan_id":"free"},{"bike_id":"2443d613-7341-4e92-9262-1bb7d629bbc8","system_id":"levelo_inurba_marseille","lat":43.284534,"lon":5.358662,"is_reserved":false,"is_disabled":false,"rental_uris":{"android":"levelo://app?vid=2443d613-7341-4e92-9262-1bb7d629bbc8","ios":"levelo://app?vid=2443d613-7341-4e92-9262-1bb7d629bbc8"},"vehicle_type_id":"4","last_reported":1692291964,"current_range_meters":31600,"station_id":"ce4bhah2rcd13ifvqei0","pricing_plan_id":"free"},{"bike_id":"90d6bd8e-59d8-42d2-b89b-110fc264b1b6","system_id":"levelo_inurba_marseille","lat":43.284538,"lon":5.358657,"is_reserved":false,"is_disabled":false,"rental_uris":{"android":"levelo://app?vid=90d6bd8e-59d8-42d2-b89b-110fc264b1b6","ios":"levelo://app?vid=90d6bd8e-59d8-42d2-b89b-110fc264b1b6"},"vehicle_type_id":"4","last_reported":1692291964,"current_range_meters":30800,"station_id":"ce4bhah2rcd13ifvqei0","pricing_plan_id":"free"},{"bike_id":"2b659443-e76d-45b0-a3a0-966ee1a8a4f7","system_id":"levelo_inurba_marseille","lat":43.294314,"lon":5.397498,"is_reserved":false,"is_disabled":false,"rental_uris":{"android":"levelo://app?vid=2b659443-e76d-45b0-a3a0-966ee1a8a4f7","ios":"levelo://app?vid=2b659443-e76d-45b0-a3a0-966ee1a8a4f7"},"vehicle_type_id":"4","last_reported":1692291964,"current_range_meters":800,"station_id":"ce4bh3h2rcd13ifvqdo0","pricing_plan_id":"free"},{"bike_id":"bbf70aab-fcab-4d58-bb22-d8533e8697e7","system_id":"levelo_inurba_marseille","lat":43.28618,"lon":5.35113,"is_reserved":false,"is_disabled":false,"rental_uris":{"android":"levelo://app?vid=bbf70aab-fcab-4d58-bb22-d8533e8697e7","ios":"levelo://app?vid=bbf70aab-fcab-4d58-bb22-d8533e8697e7"},"vehicle_type_id":"4","last_reported":1692291964,"current_range_meters":17600,"station_id":"ce4bhch2rcd13ifvqeug","pricing_plan_id":"free"},{"bike_id":"67a974dd-d7d3-45de-900b-03b6987af358","system_id":"levelo_inurba_marseille","lat":43.285856,"lon":5.350771,"is_reserved":false,"is_disabled":false,"rental_uris":{"android":"levelo://app?vid=67a974dd-d7d3-45de-900b-03b6987af358","ios":"levelo://app?vid=67a974dd-d7d3-45de-900b-03b6987af358"},"vehicle_type_id":"4","last_reported":1692291964,"current_range_meters":17200,"station_id":"ce4bhch2rcd13ifvqeug","pricing_plan_id":"free"},{"bike_id":"1943ce88-9c2b-4a9d-8b91-d6ba433f771a","system_id":"levelo_inurba_marseille","lat":43.2862,"lon":5.35103,"is_reserved":false,"is_disabled":false,"rental_uris":{"android":"levelo://app?vid=1943ce88-9c2b-4a9d-8b91-d6ba433f771a","ios":"levelo://app?vid=1943ce88-9c2b-4a9d-8b91-d6ba433f771a"},"vehicle_type_id":"4","last_reported":1692291964,"current_range_meters":18400,"station_id":"ce4bhch2rcd13ifvqeug","pricing_plan_id":"free"},{"bike_id":"75cd341d-113d-4e22-b5aa-5828da1eb595","system_id":"levelo_inurba_marseille","lat":43.286183,"lon":5.351053,"is_reserved":false,"is_disabled":false,"rental_uris":{"android":"levelo://app?vid=75cd341d-113d-4e22-b5aa-5828da1eb595","ios":"levelo://app?vid=75cd341d-113d-4e22-b5aa-5828da1eb595"},"vehicle_type_id":"4","last_reported":1692291964,"current_range_meters":26800,"station_id":"ce4bhch2rcd13ifvqeug","pricing_plan_id":"free"},{"bike_id":"a5768cac-0681-4eec-8bd9-1510c5d592cc","system_id":"levelo_inurba_marseille","lat":43.285856,"lon":5.350771,"is_reserved":false,"is_disabled":false,"rental_uris":{"android":"levelo://app?vid=a5768cac-0681-4eec-8bd9-1510c5d592cc","ios":"levelo://app?vid=a5768cac-0681-4eec-8bd9-1510c5d592cc"},"vehicle_type_id":"4","last_reported":1692291964,"current_range_meters":2400,"station_id":"ce4bhch2rcd13ifvqeug","pricing_plan_id":"free"},{"bike_id":"e3faabc5-a0fd-4482-ac8e-046a321e81d0","system_id":"levelo_inurba_marseille","lat":43.28617,"lon":5.35101,"is_reserved":false,"is_disabled":false,"rental_uris":{"android":"levelo://app?vid=e3faabc5-a0fd-4482-ac8e-046a321e81d0","ios":"levelo://app?vid=e3faabc5-a0fd-4482-ac8e-046a321e81d0"},"vehicle_type_id":"4","last_reported":1692291964,"current_range_meters":7600,"station_id":"ce4bhch2rcd13ifvqeug","pricing_plan_id":"free"},{"bike_id":"f87b421a-d277-46d7-97df-70d6dadca7cb","system_id":"levelo_inurba_marseille","lat":43.286148,"lon":5.351074,"is_reserved":false,"is_disabled":false,"rental_uris":{"android":"levelo://app?vid=f87b421a-d277-46d7-97df-70d6dadca7cb","ios":"levelo://app?vid=f87b421a-d277-46d7-97df-70d6dadca7cb"},"vehicle_type_id":"4","last_reported":1692291964,"current_range_meters":28400,"station_id":"ce4bhch2rcd13ifvqeug","pricing_plan_id":"free"},{"bike_id":"2e9f6eb0-adac-4727-8737-c626b1842872","system_id":"levelo_inurba_marseille","lat":43.28616,"lon":5.35099,"is_reserved":false,"is_disabled":false,"rental_uris":{"android":"levelo://app?vid=2e9f6eb0-adac-4727-8737-c626b1842872","ios":"levelo://app?vid=2e9f6eb0-adac-4727-8737-c626b1842872"},"vehicle_type_id":"4","last_reported":1692291964,"current_range_meters":19600,"station_id":"ce4bhch2rcd13ifvqeug","pricing_plan_id":"free"},{"bike_id":"3da9383c-5183-4890-a3e6-3854bcd39f8c","system_id":"levelo_inurba_marseille","lat":43.28613,"lon":5.35104,"is_reserved":false,"is_disabled":false,"rental_uris":{"android":"levelo://app?vid=3da9383c-5183-4890-a3e6-3854bcd39f8c","ios":"levelo://app?vid=3da9383c-5183-4890-a3e6-3854bcd39f8c"},"vehicle_type_id":"4","last_reported":1692291964,"current_range_meters":2400,"station_id":"ce4bhch2rcd13ifvqeug","pricing_plan_id":"free"},{"bike_id":"35eec3a1-aa54-4990-8eb4-78e6c0dd24d0","system_id":"levelo_inurba_marseille","lat":43.28612,"lon":5.35098,"is_reserved":false,"is_disabled":false,"rental_uris":{"android":"levelo://app?vid=35eec3a1-aa54-4990-8eb4-78e6c0dd24d0","ios":"levelo://app?vid=35eec3a1-aa54-4990-8eb4-78e6c0dd24d0"},"vehicle_type_id":"4","last_reported":1692291964,"current_range_meters":14000,"station_id":"ce4bhch2rcd13ifvqeug","pricing_plan_id":"free"},{"bike_id":"2a2968f8-0134-4dc5-944a-cd48eaf959db","system_id":"levelo_inurba_marseille","lat":43.28425,"lon":5.37512,"is_reserved":false,"is_disabled":false,"rental_uris":{"android":"levelo://app?vid=2a2968f8-0134-4dc5-944a-cd48eaf959db","ios":"levelo://app?vid=2a2968f8-0134-4dc5-944a-cd48eaf959db"},"vehicle_type_id":"4","last_reported":1692291964,"current_range_meters":5200,"station_id":"ce4bh412rcd13ifvqds0","pricing_plan_id":"free"},{"bike_id":"f459c8ce-4d71-4821-981e-dc1831fa16da","system_id":"levelo_inurba_marseille","lat":43.283998,"lon":5.375062,"is_reserved":false,"is_disabled":false,"rental_uris":{"android":"levelo://app?vid=f459c8ce-4d71-4821-981e-dc1831fa16da","ios":"levelo://app?vid=f459c8ce-4d71-4821-981e-dc1831fa16da"},"vehicle_type_id":"4","last_reported":1692291964,"current_range_meters":20000,"station_id":"ce4bh412rcd13ifvqds0","pricing_plan_id":"free"},{"bike_id":"56ebd9c6-e5af-4fc7-9570-db27de1f53c2","system_id":"levelo_inurba_marseille","lat":43.283995,"lon":5.37522,"is_reserved":false,"is_disabled":false,"rental_uris":{"android":"levelo://app?vid=56ebd9c6-e5af-4fc7-9570-db27de1f53c2","ios":"levelo://app?vid=56ebd9c6-e5af-4fc7-9570-db27de1f53c2"},"vehicle_type_id":"4","last_reported":1692291964,"current_range_meters":18000,"station_id":"","pricing_plan_id":"free"},{"bike_id":"e5731b82-4e4f-428f-8358-7f9f4f61a04b","system_id":"levelo_inurba_marseille","lat":43.319179,"lon":5.407725,"is_reserved":false,"is_disabled":false,"rental_uris":{"android":"levelo://app?vid=e5731b82-4e4f-428f-8358-7f9f4f61a04b","ios":"levelo://app?vid=e5731b82-4e4f-428f-8358-7f9f4f61a04b"},"vehicle_type_id":"4","last_reported":1692291964,"current_range_meters":18800,"station_id":"ce4bhq12rcd13ifvqhig","pricing_plan_id":"free"},{"bike_id":"c7f55b38-f91b-41fb-a480-21b4dec7e541","system_id":"levelo_inurba_marseille","lat":43.337168,"lon":5.391825,"is_reserved":false,"is_disabled":false,"rental_uris":{"android":"levelo://app?vid=c7f55b38-f91b-41fb-a480-21b4dec7e541","ios":"levelo://app?vid=c7f55b38-f91b-41fb-a480-21b4dec7e541"},"vehicle_type_id":"4","last_reported":1692291964,"current_range_meters":15600,"station_id":"ce4bhr92rcd13ifvqhsg","pricing_plan_id":"free"},{"bike_id":"89086dc9-0ce2-4ae4-a0b1-2294601012d7","system_id":"levelo_inurba_marseille","lat":43.33726,"lon":5.3918,"is_reserved":false,"is_disabled":false,"rental_uris":{"android":"levelo://app?vid=89086dc9-0ce2-4ae4-a0b1-2294601012d7","ios":"levelo://app?vid=89086dc9-0ce2-4ae4-a0b1-2294601012d7"},"vehicle_type_id":"4","last_reported":1692291964,"current_range_meters":5600,"station_id":"ce4bhr92rcd13ifvqhsg","pricing_plan_id":"free"},{"bike_id":"5998f81c-1eca-456a-a4d5-b95c154b11b7","system_id":"levelo_inurba_marseille","lat":43.337168,"lon":5.391825,"is_reserved":false,"is_disabled":false,"rental_uris":{"android":"levelo://app?vid=5998f81c-1eca-456a-a4d5-b95c154b11b7","ios":"levelo://app?vid=5998f81c-1eca-456a-a4d5-b95c154b11b7"},"vehicle_type_id":"4","last_reported":1692291964,"current_range_meters":19600,"station_id":"ce4bhr92rcd13ifvqhsg","pricing_plan_id":"free"},{"bike_id":"ea40413c-7c2f-4273-aab4-6a724e79b1ba","system_id":"levelo_inurba_marseille","lat":43.33717,"lon":5.391857,"is_reserved":false,"is_disabled":false,"rental_uris":{"android":"levelo://app?vid=ea40413c-7c2f-4273-aab4-6a724e79b1ba","ios":"levelo://app?vid=ea40413c-7c2f-4273-aab4-6a724e79b1ba"},"vehicle_type_id":"4","last_reported":1692291964,"current_range_meters":31200,"station_id":"ce4bhr92rcd13ifvqhsg","pricing_plan_id":"free"},{"bike_id":"63452722-4262-4d11-badc-56692eba7623","system_id":"levelo_inurba_marseille","lat":43.33726,"lon":5.39185,"is_reserved":false,"is_disabled":false,"rental_uris":{"android":"levelo://app?vid=63452722-4262-4d11-badc-56692eba7623","ios":"levelo://app?vid=63452722-4262-4d11-badc-56692eba7623"},"vehicle_type_id":"4","last_reported":1692291964,"current_range_meters":20400,"station_id":"ce4bhr92rcd13ifvqhsg","pricing_plan_id":"free"},{"bike_id":"85edd6fb-c834-4dae-9ec1-95d5b7abaecd","system_id":"levelo_inurba_marseille","lat":43.33727,"lon":5.39184,"is_reserved":false,"is_disabled":false,"rental_uris":{"android":"levelo://app?vid=85edd6fb-c834-4dae-9ec1-95d5b7abaecd","ios":"levelo://app?vid=85edd6fb-c834-4dae-9ec1-95d5b7abaecd"},"vehicle_type_id":"4","last_reported":1692291964,"current_range_meters":28400,"station_id":"ce4bhr92rcd13ifvqhsg","pricing_plan_id":"free"},{"bike_id":"f6375ec0-4f1d-47c6-91ac-8f9e093e062b","system_id":"levelo_inurba_marseille","lat":43.33728,"lon":5.39192,"is_reserved":false,"is_disabled":false,"rental_uris":{"android":"levelo://app?vid=f6375ec0-4f1d-47c6-91ac-8f9e093e062b","ios":"levelo://app?vid=f6375ec0-4f1d-47c6-91ac-8f9e093e062b"},"vehicle_type_id":"4","last_reported":1692291964,"current_range_meters":11200,"station_id":"ce4bhr92rcd13ifvqhsg","pricing_plan_id":"free"},{"bike_id":"476cd7b5-612d-4b02-be80-aeb0d05297f3","system_id":"levelo_inurba_marseille","lat":43.33734,"lon":5.39187,"is_reserved":false,"is_disabled":false,"rental_uris":{"android":"levelo://app?vid=476cd7b5-612d-4b02-be80-aeb0d05297f3","ios":"levelo://app?vid=476cd7b5-612d-4b02-be80-aeb0d05297f3"},"vehicle_type_id":"4","last_reported":1692291964,"current_range_meters":7200,"station_id":"ce4bhr92rcd13ifvqhsg","pricing_plan_id":"free"},{"bike_id":"e82e2e4b-eeba-459d-9089-7a1fe57b1565","system_id":"levelo_inurba_marseille","lat":43.337316,"lon":5.391936,"is_reserved":false,"is_disabled":false,"rental_uris":{"android":"levelo://app?vid=e82e2e4b-eeba-459d-9089-7a1fe57b1565","ios":"levelo://app?vid=e82e2e4b-eeba-459d-9089-7a1fe57b1565"},"vehicle_type_id":"4","last_reported":1692291964,"current_range_meters":400,"station_id":"ce4bhr92rcd13ifvqhsg","pricing_plan_id":"free"},{"bike_id":"29dccaeb-a18d-4276-aaf4-ca17a339f27a","system_id":"levelo_inurba_marseille","lat":43.284787,"lon":5.384116,"is_reserved":false,"is_disabled":false,"rental_uris":{"android":"levelo://app?vid=29dccaeb-a18d-4276-aaf4-ca17a339f27a","ios":"levelo://app?vid=29dccaeb-a18d-4276-aaf4-ca17a339f27a"},"vehicle_type_id":"4","last_reported":1692291964,"current_range_meters":12400,"station_id":"ce4bh512rcd13ifvqe3g","pricing_plan_id":"free"},{"bike_id":"2714b93f-0540-4023-a7bf-184daa0fbd51","system_id":"levelo_inurba_marseille","lat":43.284787,"lon":5.384116,"is_reserved":false,"is_disabled":false,"rental_uris":{"android":"levelo://app?vid=2714b93f-0540-4023-a7bf-184daa0fbd51","ios":"levelo://app?vid=2714b93f-0540-4023-a7bf-184daa0fbd51"},"vehicle_type_id":"4","last_reported":1692291964,"current_range_meters":0,"station_id":"ce4bh512rcd13ifvqe3g","pricing_plan_id":"free"},{"bike_id":"23f5f11c-1631-4826-9b70-90ab56e6e026","system_id":"levelo_inurba_marseille","lat":43.32386,"lon":5.40642,"is_reserved":false,"is_disabled":false,"rental_uris":{"android":"levelo://app?vid=23f5f11c-1631-4826-9b70-90ab56e6e026","ios":"levelo://app?vid=23f5f11c-1631-4826-9b70-90ab56e6e026"},"vehicle_type_id":"4","last_reported":1692291964,"current_range_meters":12400,"station_id":"ce4bhq92rcd13ifvqhjg","pricing_plan_id":"free"},{"bike_id":"331019f0-8d9b-4495-902e-e17800881071","system_id":"levelo_inurba_marseille","lat":43.28424,"lon":5.34984,"is_reserved":false,"is_disabled":false,"rental_uris":{"android":"levelo://app?vid=331019f0-8d9b-4495-902e-e17800881071","ios":"levelo://app?vid=331019f0-8d9b-4495-902e-e17800881071"},"vehicle_type_id":"4","last_reported":1692291964,"current_range_meters":31200,"station_id":"ce4bhbh2rcd13ifvqepg","pricing_plan_id":"free"},{"bike_id":"9e827104-1433-4619-9fdf-f9ec3677451a","system_id":"levelo_inurba_marseille","lat":43.284219,"lon":5.3497,"is_reserved":false,"is_disabled":false,"rental_uris":{"android":"levelo://app?vid=9e827104-1433-4619-9fdf-f9ec3677451a","ios":"levelo://app?vid=9e827104-1433-4619-9fdf-f9ec3677451a"},"vehicle_type_id":"4","last_reported":1692291964,"current_range_meters":30400,"station_id":"ce4bhbh2rcd13ifvqepg","pricing_plan_id":"free"},{"bike_id":"a068a3b2-4025-46a6-97bd-e05025ae8b27","system_id":"levelo_inurba_marseille","lat":43.284219,"lon":5.3497,"is_reserved":false,"is_disabled":false,"rental_uris":{"android":"levelo://app?vid=a068a3b2-4025-46a6-97bd-e05025ae8b27","ios":"levelo://app?vid=a068a3b2-4025-46a6-97bd-e05025ae8b27"},"vehicle_type_id":"4","last_reported":1692291964,"current_range_meters":31200,"station_id":"ce4bhbh2rcd13ifvqepg","pricing_plan_id":"free"},{"bike_id":"1045e0e2-0503-4135-bf28-8044724adb0b","system_id":"levelo_inurba_marseille","lat":43.284219,"lon":5.3497,"is_reserved":false,"is_disabled":false,"rental_uris":{"android":"levelo://app?vid=1045e0e2-0503-4135-bf28-8044724adb0b","ios":"levelo://app?vid=1045e0e2-0503-4135-bf28-8044724adb0b"},"vehicle_type_id":"4","last_reported":1692291964,"current_range_meters":31200,"station_id":"ce4bhbh2rcd13ifvqepg","pricing_plan_id":"free"},{"bike_id":"6ca679fc-a036-4ca9-854b-5a03b6dab690","system_id":"levelo_inurba_marseille","lat":43.284219,"lon":5.3497,"is_reserved":false,"is_disabled":false,"rental_uris":{"android":"levelo://app?vid=6ca679fc-a036-4ca9-854b-5a03b6dab690","ios":"levelo://app?vid=6ca679fc-a036-4ca9-854b-5a03b6dab690"},"vehicle_type_id":"4","last_reported":1692291964,"current_range_meters":31200,"station_id":"ce4bhbh2rcd13ifvqepg","pricing_plan_id":"free"},{"bike_id":"28d8286a-2dbe-4448-8aae-98542901a526","system_id":"levelo_inurba_marseille","lat":43.284219,"lon":5.3497,"is_reserved":false,"is_disabled":false,"rental_uris":{"android":"levelo://app?vid=28d8286a-2dbe-4448-8aae-98542901a526","ios":"levelo://app?vid=28d8286a-2dbe-4448-8aae-98542901a526"},"vehicle_type_id":"4","last_reported":1692291964,"current_range_meters":31200,"station_id":"ce4bhbh2rcd13ifvqepg","pricing_plan_id":"free"},{"bike_id":"51d3d8c9-2b93-4113-9809-7a450da6ad5a","system_id":"levelo_inurba_marseille","lat":43.284219,"lon":5.3497,"is_reserved":false,"is_disabled":false,"rental_uris":{"android":"levelo://app?vid=51d3d8c9-2b93-4113-9809-7a450da6ad5a","ios":"levelo://app?vid=51d3d8c9-2b93-4113-9809-7a450da6ad5a"},"vehicle_type_id":"4","last_reported":1692291964,"current_range_meters":31200,"station_id":"ce4bhbh2rcd13ifvqepg","pricing_plan_id":"free"},{"bike_id":"0d3cc702-25e8-413d-996e-74acdf4ab436","system_id":"levelo_inurba_marseille","lat":43.284219,"lon":5.3497,"is_reserved":false,"is_disabled":false,"rental_uris":{"android":"levelo://app?vid=0d3cc702-25e8-413d-996e-74acdf4ab436","ios":"levelo://app?vid=0d3cc702-25e8-413d-996e-74acdf4ab436"},"vehicle_type_id":"4","last_reported":1692291964,"current_range_meters":31200,"station_id":"ce4bhbh2rcd13ifvqepg","pricing_plan_id":"free"},{"bike_id":"c9eea355-9833-418c-a65b-89b270aaa968","system_id":"levelo_inurba_marseille","lat":43.284217,"lon":5.349697,"is_reserved":false,"is_disabled":false,"rental_uris":{"android":"levelo://app?vid=c9eea355-9833-418c-a65b-89b270aaa968","ios":"levelo://app?vid=c9eea355-9833-418c-a65b-89b270aaa968"},"vehicle_type_id":"4","last_reported":1692291964,"current_range_meters":31200,"station_id":"ce4bhbh2rcd13ifvqepg","pricing_plan_id":"free"},{"bike_id":"2fbccaaa-9eed-473d-acba-27f6c631478b","system_id":"levelo_inurba_marseille","lat":43.28412,"lon":5.34984,"is_reserved":false,"is_disabled":false,"rental_uris":{"android":"levelo://app?vid=2fbccaaa-9eed-473d-acba-27f6c631478b","ios":"levelo://app?vid=2fbccaaa-9eed-473d-acba-27f6c631478b"},"vehicle_type_id":"4","last_reported":1692291964,"current_range_meters":18000,"station_id":"ce4bhbh2rcd13ifvqepg","pricing_plan_id":"free"},{"bike_id":"74f6984b-c752-4c59-8e28-827e96af1562","system_id":"levelo_inurba_marseille","lat":43.284217,"lon":5.349697,"is_reserved":false,"is_disabled":false,"rental_uris":{"android":"levelo://app?vid=74f6984b-c752-4c59-8e28-827e96af1562","ios":"levelo://app?vid=74f6984b-c752-4c59-8e28-827e96af1562"},"vehicle_type_id":"4","last_reported":1692291964,"current_range_meters":25600,"station_id":"ce4bhbh2rcd13ifvqepg","pricing_plan_id":"free"},{"bike_id":"6fb36002-bc24-427c-a16e-585470e55deb","system_id":"levelo_inurba_marseille","lat":43.32455,"lon":5.40715,"is_reserved":false,"is_disabled":false,"rental_uris":{"android":"levelo://app?vid=6fb36002-bc24-427c-a16e-585470e55deb","ios":"levelo://app?vid=6fb36002-bc24-427c-a16e-585470e55deb"},"vehicle_type_id":"4","last_reported":1692291964,"current_range_meters":21600,"station_id":"","pricing_plan_id":"free"},{"bike_id":"9000ce1a-8890-4ecd-90c9-d52e4df686db","system_id":"levelo_inurba_marseille","lat":43.289338,"lon":5.396258,"is_reserved":false,"is_disabled":false,"rental_uris":{"android":"levelo://app?vid=9000ce1a-8890-4ecd-90c9-d52e4df686db","ios":"levelo://app?vid=9000ce1a-8890-4ecd-90c9-d52e4df686db"},"vehicle_type_id":"4","last_reported":1692291964,"current_range_meters":26800,"station_id":"ce4bh3h2rcd13ifvqdn0","pricing_plan_id":"free"},{"bike_id":"e6d1f7cd-a87d-4f13-b422-e79fe275cad3","system_id":"levelo_inurba_marseille","lat":43.292724,"lon":5.401131,"is_reserved":false,"is_disabled":false,"rental_uris":{"android":"levelo://app?vid=e6d1f7cd-a87d-4f13-b422-e79fe275cad3","ios":"levelo://app?vid=e6d1f7cd-a87d-4f13-b422-e79fe275cad3"},"vehicle_type_id":"4","last_reported":1692291964,"current_range_meters":1600,"station_id":"ce4bh312rcd13ifvqdk0","pricing_plan_id":"free"},{"bike_id":"5cec26ac-344f-432b-af34-450b75305b9b","system_id":"levelo_inurba_marseille","lat":43.29268,"lon":5.40124,"is_reserved":false,"is_disabled":false,"rental_uris":{"android":"levelo://app?vid=5cec26ac-344f-432b-af34-450b75305b9b","ios":"levelo://app?vid=5cec26ac-344f-432b-af34-450b75305b9b"},"vehicle_type_id":"4","last_reported":1692291964,"current_range_meters":31200,"station_id":"ce4bh312rcd13ifvqdk0","pricing_plan_id":"free"},{"bike_id":"e70f65e8-8223-40f7-b8b3-c571d2fec61d","system_id":"levelo_inurba_marseille","lat":43.28282,"lon":5.35068,"is_reserved":false,"is_disabled":false,"rental_uris":{"android":"levelo://app?vid=e70f65e8-8223-40f7-b8b3-c571d2fec61d","ios":"levelo://app?vid=e70f65e8-8223-40f7-b8b3-c571d2fec61d"},"vehicle_type_id":"4","last_reported":1692291964,"current_range_meters":18800,"station_id":"ce4bhbp2rcd13ifvqerg","pricing_plan_id":"free"},{"bike_id":"3a2f98ae-aecb-43b1-9cef-b46af4c694e1","system_id":"levelo_inurba_marseille","lat":43.28279,"lon":5.35068,"is_reserved":false,"is_disabled":false,"rental_uris":{"android":"levelo://app?vid=3a2f98ae-aecb-43b1-9cef-b46af4c694e1","ios":"levelo://app?vid=3a2f98ae-aecb-43b1-9cef-b46af4c694e1"},"vehicle_type_id":"4","last_reported":1692291964,"current_range_meters":16000,"station_id":"ce4bhbp2rcd13ifvqerg","pricing_plan_id":"free"},{"bike_id":"00211301-9c4f-48e9-a568-34b9b95a1c3a","system_id":"levelo_inurba_marseille","lat":43.28276,"lon":5.35069,"is_reserved":false,"is_disabled":false,"rental_uris":{"android":"levelo://app?vid=00211301-9c4f-48e9-a568-34b9b95a1c3a","ios":"levelo://app?vid=00211301-9c4f-48e9-a568-34b9b95a1c3a"},"vehicle_type_id":"4","last_reported":1692291964,"current_range_meters":11600,"station_id":"ce4bhbp2rcd13ifvqerg","pricing_plan_id":"free"},{"bike_id":"9f73d849-55f6-4c79-8ef3-03a6e7f6cee2","system_id":"levelo_inurba_marseille","lat":43.28277,"lon":5.35063,"is_reserved":false,"is_disabled":false,"rental_uris":{"android":"levelo://app?vid=9f73d849-55f6-4c79-8ef3-03a6e7f6cee2","ios":"levelo://app?vid=9f73d849-55f6-4c79-8ef3-03a6e7f6cee2"},"vehicle_type_id":"4","last_reported":1692291964,"current_range_meters":18400,"station_id":"ce4bhbp2rcd13ifvqerg","pricing_plan_id":"free"},{"bike_id":"32763ef5-1fe8-43f6-ac0c-410ec1e73111","system_id":"levelo_inurba_marseille","lat":43.28273,"lon":5.35072,"is_reserved":false,"is_disabled":false,"rental_uris":{"android":"levelo://app?vid=32763ef5-1fe8-43f6-ac0c-410ec1e73111","ios":"levelo://app?vid=32763ef5-1fe8-43f6-ac0c-410ec1e73111"},"vehicle_type_id":"4","last_reported":1692291964,"current_range_meters":19200,"station_id":"ce4bhbp2rcd13ifvqerg","pricing_plan_id":"free"},{"bike_id":"e53c6206-e147-4f44-823d-f68f0f273d95","system_id":"levelo_inurba_marseille","lat":43.28274,"lon":5.35067,"is_reserved":false,"is_disabled":false,"rental_uris":{"android":"levelo://app?vid=e53c6206-e147-4f44-823d-f68f0f273d95","ios":"levelo://app?vid=e53c6206-e147-4f44-823d-f68f0f273d95"},"vehicle_type_id":"4","last_reported":1692291964,"current_range_meters":27600,"station_id":"ce4bhbp2rcd13ifvqerg","pricing_plan_id":"free"},{"bike_id":"2e270d51-3db7-43c5-9ebc-0d3b16ef836c","system_id":"levelo_inurba_marseille","lat":43.2827,"lon":5.35076,"is_reserved":false,"is_disabled":false,"rental_uris":{"android":"levelo://app?vid=2e270d51-3db7-43c5-9ebc-0d3b16ef836c","ios":"levelo://app?vid=2e270d51-3db7-43c5-9ebc-0d3b16ef836c"},"vehicle_type_id":"4","last_reported":1692291964,"current_range_meters":31200,"station_id":"ce4bhbp2rcd13ifvqerg","pricing_plan_id":"free"},{"bike_id":"c2fd13d1-7e63-4df4-8817-36bd6eb2b077","system_id":"levelo_inurba_marseille","lat":43.282744,"lon":5.350533,"is_reserved":false,"is_disabled":false,"rental_uris":{"android":"levelo://app?vid=c2fd13d1-7e63-4df4-8817-36bd6eb2b077","ios":"levelo://app?vid=c2fd13d1-7e63-4df4-8817-36bd6eb2b077"},"vehicle_type_id":"4","last_reported":1692291964,"current_range_meters":24400,"station_id":"ce4bhbp2rcd13ifvqerg","pricing_plan_id":"free"},{"bike_id":"9065a5be-cb37-4958-8722-1673ab1deb6c","system_id":"levelo_inurba_marseille","lat":43.28274,"lon":5.35057,"is_reserved":false,"is_disabled":false,"rental_uris":{"android":"levelo://app?vid=9065a5be-cb37-4958-8722-1673ab1deb6c","ios":"levelo://app?vid=9065a5be-cb37-4958-8722-1673ab1deb6c"},"vehicle_type_id":"4","last_reported":1692291964,"current_range_meters":7200,"station_id":"ce4bhbp2rcd13ifvqerg","pricing_plan_id":"free"},{"bike_id":"3c57dfd5-b476-47aa-9a4d-4ed9405a1c24","system_id":"levelo_inurba_marseille","lat":43.28271,"lon":5.35067,"is_reserved":false,"is_disabled":false,"rental_uris":{"android":"levelo://app?vid=3c57dfd5-b476-47aa-9a4d-4ed9405a1c24","ios":"levelo://app?vid=3c57dfd5-b476-47aa-9a4d-4ed9405a1c24"},"vehicle_type_id":"4","last_reported":1692291964,"current_range_meters":16000,"station_id":"ce4bhbp2rcd13ifvqerg","pricing_plan_id":"free"},{"bike_id":"5f3d19bb-80bd-4596-ab74-f7c9ee1c8c08","system_id":"levelo_inurba_marseille","lat":43.282744,"lon":5.350533,"is_reserved":false,"is_disabled":false,"rental_uris":{"android":"levelo://app?vid=5f3d19bb-80bd-4596-ab74-f7c9ee1c8c08","ios":"levelo://app?vid=5f3d19bb-80bd-4596-ab74-f7c9ee1c8c08"},"vehicle_type_id":"4","last_reported":1692291964,"current_range_meters":11600,"station_id":"ce4bhbp2rcd13ifvqerg","pricing_plan_id":"free"},{"bike_id":"88940920-727e-47f8-bee6-24feedff1167","system_id":"levelo_inurba_marseille","lat":43.282754,"lon":5.350519,"is_reserved":false,"is_disabled":false,"rental_uris":{"android":"levelo://app?vid=88940920-727e-47f8-bee6-24feedff1167","ios":"levelo://app?vid=88940920-727e-47f8-bee6-24feedff1167"},"vehicle_type_id":"4","last_reported":1692291964,"current_range_meters":30400,"station_id":"ce4bhbp2rcd13ifvqerg","pricing_plan_id":"free"},{"bike_id":"d18b5d06-a500-45c8-a4a0-c028e7711b94","system_id":"levelo_inurba_marseille","lat":43.282744,"lon":5.350533,"is_reserved":false,"is_disabled":false,"rental_uris":{"android":"levelo://app?vid=d18b5d06-a500-45c8-a4a0-c028e7711b94","ios":"levelo://app?vid=d18b5d06-a500-45c8-a4a0-c028e7711b94"},"vehicle_type_id":"4","last_reported":1692291964,"current_range_meters":24000,"station_id":"ce4bhbp2rcd13ifvqerg","pricing_plan_id":"free"},{"bike_id":"03744c88-0a58-4b8b-943e-5a2f483cefb7","system_id":"levelo_inurba_marseille","lat":43.282754,"lon":5.350519,"is_reserved":false,"is_disabled":false,"rental_uris":{"android":"levelo://app?vid=03744c88-0a58-4b8b-943e-5a2f483cefb7","ios":"levelo://app?vid=03744c88-0a58-4b8b-943e-5a2f483cefb7"},"vehicle_type_id":"4","last_reported":1692291964,"current_range_meters":1600,"station_id":"ce4bhbp2rcd13ifvqerg","pricing_plan_id":"free"},{"bike_id":"88550a83-979c-4afd-baef-38ce4fc4b0e1","system_id":"levelo_inurba_marseille","lat":43.282744,"lon":5.350533,"is_reserved":false,"is_disabled":false,"rental_uris":{"android":"levelo://app?vid=88550a83-979c-4afd-baef-38ce4fc4b0e1","ios":"levelo://app?vid=88550a83-979c-4afd-baef-38ce4fc4b0e1"},"vehicle_type_id":"4","last_reported":1692291964,"current_range_meters":31200,"station_id":"ce4bhbp2rcd13ifvqerg","pricing_plan_id":"free"},{"bike_id":"41e62759-22c9-4924-8085-614c80f44dab","system_id":"levelo_inurba_marseille","lat":43.282744,"lon":5.350533,"is_reserved":false,"is_disabled":false,"rental_uris":{"android":"levelo://app?vid=41e62759-22c9-4924-8085-614c80f44dab","ios":"levelo://app?vid=41e62759-22c9-4924-8085-614c80f44dab"},"vehicle_type_id":"4","last_reported":1692291964,"current_range_meters":29600,"station_id":"ce4bhbp2rcd13ifvqerg","pricing_plan_id":"free"},{"bike_id":"f16167c2-dd82-4014-bcf5-5646d0f0bd40","system_id":"levelo_inurba_marseille","lat":43.28043,"lon":5.36936,"is_reserved":false,"is_disabled":false,"rental_uris":{"android":"levelo://app?vid=f16167c2-dd82-4014-bcf5-5646d0f0bd40","ios":"levelo://app?vid=f16167c2-dd82-4014-bcf5-5646d0f0bd40"},"vehicle_type_id":"4","last_reported":1692291964,"current_range_meters":2800,"station_id":"ce4bha12rcd13ifvqef0","pricing_plan_id":"free"},{"bike_id":"dd671001-4f9b-45ef-9499-d5e5314ad37e","system_id":"levelo_inurba_marseille","lat":43.28041,"lon":5.36939,"is_reserved":false,"is_disabled":false,"rental_uris":{"android":"levelo://app?vid=dd671001-4f9b-45ef-9499-d5e5314ad37e","ios":"levelo://app?vid=dd671001-4f9b-45ef-9499-d5e5314ad37e"},"vehicle_type_id":"4","last_reported":1692291964,"current_range_meters":26000,"station_id":"ce4bha12rcd13ifvqef0","pricing_plan_id":"free"},{"bike_id":"1769560b-32f4-4936-bd12-05881d738867","system_id":"levelo_inurba_marseille","lat":43.28029,"lon":5.36946,"is_reserved":false,"is_disabled":false,"rental_uris":{"android":"levelo://app?vid=1769560b-32f4-4936-bd12-05881d738867","ios":"levelo://app?vid=1769560b-32f4-4936-bd12-05881d738867"},"vehicle_type_id":"4","last_reported":1692291964,"current_range_meters":22800,"station_id":"ce4bha12rcd13ifvqef0","pricing_plan_id":"free"},{"bike_id":"8a2829f1-cef4-4dfb-b35f-e736a7ad20a2","system_id":"levelo_inurba_marseille","lat":43.280382,"lon":5.369291,"is_reserved":false,"is_disabled":false,"rental_uris":{"android":"levelo://app?vid=8a2829f1-cef4-4dfb-b35f-e736a7ad20a2","ios":"levelo://app?vid=8a2829f1-cef4-4dfb-b35f-e736a7ad20a2"},"vehicle_type_id":"4","last_reported":1692291964,"current_range_meters":26800,"station_id":"ce4bha12rcd13ifvqef0","pricing_plan_id":"free"},{"bike_id":"8b88208c-4b6e-47ad-8d76-99a753a2dd3f","system_id":"levelo_inurba_marseille","lat":43.296263,"lon":5.40601,"is_reserved":false,"is_disabled":false,"rental_uris":{"android":"levelo://app?vid=8b88208c-4b6e-47ad-8d76-99a753a2dd3f","ios":"levelo://app?vid=8b88208c-4b6e-47ad-8d76-99a753a2dd3f"},"vehicle_type_id":"4","last_reported":1692291964,"current_range_meters":25200,"station_id":"ce4bh0h2rcd13ifvqd60","pricing_plan_id":"free"},{"bike_id":"eb8e4c4f-5fc5-4007-ab2b-231fad0dc17c","system_id":"levelo_inurba_marseille","lat":43.290412,"lon":5.399633,"is_reserved":false,"is_disabled":false,"rental_uris":{"android":"levelo://app?vid=eb8e4c4f-5fc5-4007-ab2b-231fad0dc17c","ios":"levelo://app?vid=eb8e4c4f-5fc5-4007-ab2b-231fad0dc17c"},"vehicle_type_id":"4","last_reported":1692291964,"current_range_meters":31200,"station_id":"ce4bh392rcd13ifvqdm0","pricing_plan_id":"free"},{"bike_id":"40264c4a-5125-406b-9115-0d1acf1ff4d9","system_id":"levelo_inurba_marseille","lat":43.296263,"lon":5.40601,"is_reserved":false,"is_disabled":false,"rental_uris":{"android":"levelo://app?vid=40264c4a-5125-406b-9115-0d1acf1ff4d9","ios":"levelo://app?vid=40264c4a-5125-406b-9115-0d1acf1ff4d9"},"vehicle_type_id":"4","last_reported":1692291964,"current_range_meters":23200,"station_id":"ce4bh0h2rcd13ifvqd60","pricing_plan_id":"free"},{"bike_id":"9d6e395f-25bd-4fe8-b820-b25c3f775f61","system_id":"levelo_inurba_marseille","lat":43.296263,"lon":5.40601,"is_reserved":false,"is_disabled":false,"rental_uris":{"android":"levelo://app?vid=9d6e395f-25bd-4fe8-b820-b25c3f775f61","ios":"levelo://app?vid=9d6e395f-25bd-4fe8-b820-b25c3f775f61"},"vehicle_type_id":"4","last_reported":1692291964,"current_range_meters":26000,"station_id":"ce4bh0h2rcd13ifvqd60","pricing_plan_id":"free"},{"bike_id":"665d84b0-8556-4f45-8ce9-2002b70a3ce9","system_id":"levelo_inurba_marseille","lat":43.28101,"lon":5.37841,"is_reserved":false,"is_disabled":false,"rental_uris":{"android":"levelo://app?vid=665d84b0-8556-4f45-8ce9-2002b70a3ce9","ios":"levelo://app?vid=665d84b0-8556-4f45-8ce9-2002b70a3ce9"},"vehicle_type_id":"4","last_reported":1692291964,"current_range_meters":24000,"station_id":"ce4bha12rcd13ifvqee0","pricing_plan_id":"free"},{"bike_id":"074c867f-6577-4581-bb6f-c3c6a7bcf74c","system_id":"levelo_inurba_marseille","lat":43.28446,"lon":5.39199,"is_reserved":false,"is_disabled":false,"rental_uris":{"android":"levelo://app?vid=074c867f-6577-4581-bb6f-c3c6a7bcf74c","ios":"levelo://app?vid=074c867f-6577-4581-bb6f-c3c6a7bcf74c"},"vehicle_type_id":"4","last_reported":1692291964,"current_range_meters":400,"station_id":"ce4bhoh2rcd13ifvqh5g","pricing_plan_id":"free"},{"bike_id":"7f0c38d0-63db-4297-a7b4-2c1fdccbfd87","system_id":"levelo_inurba_marseille","lat":43.32656,"lon":5.40957,"is_reserved":false,"is_disabled":false,"rental_uris":{"android":"levelo://app?vid=7f0c38d0-63db-4297-a7b4-2c1fdccbfd87","ios":"levelo://app?vid=7f0c38d0-63db-4297-a7b4-2c1fdccbfd87"},"vehicle_type_id":"4","last_reported":1692291964,"current_range_meters":1200,"station_id":"ce4bhpp2rcd13ifvqhgg","pricing_plan_id":"free"},{"bike_id":"d62ee2a0-a6e5-4ab4-b891-22976d49f044","system_id":"levelo_inurba_marseille","lat":43.32661,"lon":5.40986,"is_reserved":false,"is_disabled":false,"rental_uris":{"android":"levelo://app?vid=d62ee2a0-a6e5-4ab4-b891-22976d49f044","ios":"levelo://app?vid=d62ee2a0-a6e5-4ab4-b891-22976d49f044"},"vehicle_type_id":"4","last_reported":1692291964,"current_range_meters":29200,"station_id":"ce4bhpp2rcd13ifvqhgg","pricing_plan_id":"free"},{"bike_id":"2286f568-900f-41eb-833c-aa0b4582699d","system_id":"levelo_inurba_marseille","lat":43.326605,"lon":5.409903,"is_reserved":false,"is_disabled":false,"rental_uris":{"android":"levelo://app?vid=2286f568-900f-41eb-833c-aa0b4582699d","ios":"levelo://app?vid=2286f568-900f-41eb-833c-aa0b4582699d"},"vehicle_type_id":"4","last_reported":1692291964,"current_range_meters":13200,"station_id":"ce4bhpp2rcd13ifvqhgg","pricing_plan_id":"free"},{"bike_id":"7afdd38a-3f3b-4278-b4fd-a86234087abd","system_id":"levelo_inurba_marseille","lat":43.32663,"lon":5.40991,"is_reserved":false,"is_disabled":false,"rental_uris":{"android":"levelo://app?vid=7afdd38a-3f3b-4278-b4fd-a86234087abd","ios":"levelo://app?vid=7afdd38a-3f3b-4278-b4fd-a86234087abd"},"vehicle_type_id":"4","last_reported":1692291964,"current_range_meters":12000,"station_id":"ce4bhpp2rcd13ifvqhgg","pricing_plan_id":"free"},{"bike_id":"1407a0f8-a7a8-4cd2-beac-ab58c875583a","system_id":"levelo_inurba_marseille","lat":43.32663,"lon":5.40993,"is_reserved":false,"is_disabled":false,"rental_uris":{"android":"levelo://app?vid=1407a0f8-a7a8-4cd2-beac-ab58c875583a","ios":"levelo://app?vid=1407a0f8-a7a8-4cd2-beac-ab58c875583a"},"vehicle_type_id":"4","last_reported":1692291964,"current_range_meters":18400,"station_id":"ce4bhpp2rcd13ifvqhgg","pricing_plan_id":"free"},{"bike_id":"40140421-a73b-4875-9f83-0e76aab8146f","system_id":"levelo_inurba_marseille","lat":43.287154,"lon":5.399979,"is_reserved":false,"is_disabled":false,"rental_uris":{"android":"levelo://app?vid=40140421-a73b-4875-9f83-0e76aab8146f","ios":"levelo://app?vid=40140421-a73b-4875-9f83-0e76aab8146f"},"vehicle_type_id":"4","last_reported":1692291964,"current_range_meters":3200,"station_id":"ce4bho92rcd13ifvqh3g","pricing_plan_id":"free"},{"bike_id":"7c3c8161-2f2f-42e4-a71e-6877734812cf","system_id":"levelo_inurba_marseille","lat":43.2871,"lon":5.39986,"is_reserved":false,"is_disabled":false,"rental_uris":{"android":"levelo://app?vid=7c3c8161-2f2f-42e4-a71e-6877734812cf","ios":"levelo://app?vid=7c3c8161-2f2f-42e4-a71e-6877734812cf"},"vehicle_type_id":"4","last_reported":1692291964,"current_range_meters":2400,"station_id":"ce4bho92rcd13ifvqh3g","pricing_plan_id":"free"},{"bike_id":"21228a3a-70f5-4785-ab1b-43c2fb1b8e79","system_id":"levelo_inurba_marseille","lat":43.287154,"lon":5.399979,"is_reserved":false,"is_disabled":false,"rental_uris":{"android":"levelo://app?vid=21228a3a-70f5-4785-ab1b-43c2fb1b8e79","ios":"levelo://app?vid=21228a3a-70f5-4785-ab1b-43c2fb1b8e79"},"vehicle_type_id":"4","last_reported":1692291964,"current_range_meters":800,"station_id":"ce4bho92rcd13ifvqh3g","pricing_plan_id":"free"},{"bike_id":"5ee44e97-b02a-43f9-bc1e-8732e4ae19a0","system_id":"levelo_inurba_marseille","lat":43.287154,"lon":5.399979,"is_reserved":false,"is_disabled":false,"rental_uris":{"android":"levelo://app?vid=5ee44e97-b02a-43f9-bc1e-8732e4ae19a0","ios":"levelo://app?vid=5ee44e97-b02a-43f9-bc1e-8732e4ae19a0"},"vehicle_type_id":"4","last_reported":1692291964,"current_range_meters":8800,"station_id":"ce4bho92rcd13ifvqh3g","pricing_plan_id":"free"},{"bike_id":"30143a3f-ecd5-4828-a2f3-1b2d7e14ee04","system_id":"levelo_inurba_marseille","lat":43.287154,"lon":5.399979,"is_reserved":false,"is_disabled":false,"rental_uris":{"android":"levelo://app?vid=30143a3f-ecd5-4828-a2f3-1b2d7e14ee04","ios":"levelo://app?vid=30143a3f-ecd5-4828-a2f3-1b2d7e14ee04"},"vehicle_type_id":"4","last_reported":1692291964,"current_range_meters":3200,"station_id":"ce4bho92rcd13ifvqh3g","pricing_plan_id":"free"},{"bike_id":"3f4e5ca0-0ef5-419e-b573-94cd2da33d45","system_id":"levelo_inurba_marseille","lat":43.287154,"lon":5.399979,"is_reserved":false,"is_disabled":false,"rental_uris":{"android":"levelo://app?vid=3f4e5ca0-0ef5-419e-b573-94cd2da33d45","ios":"levelo://app?vid=3f4e5ca0-0ef5-419e-b573-94cd2da33d45"},"vehicle_type_id":"4","last_reported":1692291964,"current_range_meters":2800,"station_id":"ce4bho92rcd13ifvqh3g","pricing_plan_id":"free"},{"bike_id":"4e1a29ac-32b9-4563-ab10-a038acab403b","system_id":"levelo_inurba_marseille","lat":43.287154,"lon":5.399979,"is_reserved":false,"is_disabled":false,"rental_uris":{"android":"levelo://app?vid=4e1a29ac-32b9-4563-ab10-a038acab403b","ios":"levelo://app?vid=4e1a29ac-32b9-4563-ab10-a038acab403b"},"vehicle_type_id":"4","last_reported":1692291964,"current_range_meters":6400,"station_id":"ce4bho92rcd13ifvqh3g","pricing_plan_id":"free"},{"bike_id":"f0962b2f-5d07-43bb-a2a1-02976dfab9a3","system_id":"levelo_inurba_marseille","lat":43.279742,"lon":5.38744,"is_reserved":false,"is_disabled":false,"rental_uris":{"android":"levelo://app?vid=f0962b2f-5d07-43bb-a2a1-02976dfab9a3","ios":"levelo://app?vid=f0962b2f-5d07-43bb-a2a1-02976dfab9a3"},"vehicle_type_id":"4","last_reported":1692291964,"current_range_meters":24000,"station_id":"ce4bhg12rcd13ifvqf80","pricing_plan_id":"free"},{"bike_id":"b7b0e562-a070-4306-b22e-173b7813af6e","system_id":"levelo_inurba_marseille","lat":43.279742,"lon":5.38744,"is_reserved":false,"is_disabled":false,"rental_uris":{"android":"levelo://app?vid=b7b0e562-a070-4306-b22e-173b7813af6e","ios":"levelo://app?vid=b7b0e562-a070-4306-b22e-173b7813af6e"},"vehicle_type_id":"4","last_reported":1692291964,"current_range_meters":22800,"station_id":"ce4bhg12rcd13ifvqf80","pricing_plan_id":"free"},{"bike_id":"c327718a-8fe6-4791-a349-aba0f8f94e82","system_id":"levelo_inurba_marseille","lat":43.279742,"lon":5.38744,"is_reserved":false,"is_disabled":false,"rental_uris":{"android":"levelo://app?vid=c327718a-8fe6-4791-a349-aba0f8f94e82","ios":"levelo://app?vid=c327718a-8fe6-4791-a349-aba0f8f94e82"},"vehicle_type_id":"4","last_reported":1692291964,"current_range_meters":27600,"station_id":"ce4bhg12rcd13ifvqf80","pricing_plan_id":"free"},{"bike_id":"d98a125d-3229-444a-b8ec-01d7f02a6d9f","system_id":"levelo_inurba_marseille","lat":43.292569,"lon":5.409107,"is_reserved":false,"is_disabled":false,"rental_uris":{"android":"levelo://app?vid=d98a125d-3229-444a-b8ec-01d7f02a6d9f","ios":"levelo://app?vid=d98a125d-3229-444a-b8ec-01d7f02a6d9f"},"vehicle_type_id":"4","last_reported":1692291964,"current_range_meters":24000,"station_id":"ce4bh192rcd13ifvqdc0","pricing_plan_id":"free"},{"bike_id":"454b0b4f-dc87-4e03-ac2a-cf0617f16bff","system_id":"levelo_inurba_marseille","lat":43.325233,"lon":5.414318,"is_reserved":false,"is_disabled":false,"rental_uris":{"android":"levelo://app?vid=454b0b4f-dc87-4e03-ac2a-cf0617f16bff","ios":"levelo://app?vid=454b0b4f-dc87-4e03-ac2a-cf0617f16bff"},"vehicle_type_id":"4","last_reported":1692291964,"current_range_meters":31600,"station_id":"ce4bhq12rcd13ifvqhhg","pricing_plan_id":"free"},{"bike_id":"3b8c757e-9232-4e3f-bc2f-412bd8854aec","system_id":"levelo_inurba_marseille","lat":43.325233,"lon":5.414318,"is_reserved":false,"is_disabled":false,"rental_uris":{"android":"levelo://app?vid=3b8c757e-9232-4e3f-bc2f-412bd8854aec","ios":"levelo://app?vid=3b8c757e-9232-4e3f-bc2f-412bd8854aec"},"vehicle_type_id":"4","last_reported":1692291964,"current_range_meters":28400,"station_id":"ce4bhq12rcd13ifvqhhg","pricing_plan_id":"free"},{"bike_id":"66afd706-2d4e-42b0-9357-c91b4131676b","system_id":"levelo_inurba_marseille","lat":43.276179,"lon":5.361009,"is_reserved":false,"is_disabled":false,"rental_uris":{"android":"levelo://app?vid=66afd706-2d4e-42b0-9357-c91b4131676b","ios":"levelo://app?vid=66afd706-2d4e-42b0-9357-c91b4131676b"},"vehicle_type_id":"4","last_reported":1692291964,"current_range_meters":26800,"station_id":"ce4bgj92rcd13ifvqbe0","pricing_plan_id":"free"},{"bike_id":"75001701-ed95-4c4f-ae0f-256296c20192","system_id":"levelo_inurba_marseille","lat":43.32545,"lon":5.41437,"is_reserved":false,"is_disabled":false,"rental_uris":{"android":"levelo://app?vid=75001701-ed95-4c4f-ae0f-256296c20192","ios":"levelo://app?vid=75001701-ed95-4c4f-ae0f-256296c20192"},"vehicle_type_id":"4","last_reported":1692291964,"current_range_meters":27200,"station_id":"ce4bhq12rcd13ifvqhhg","pricing_plan_id":"free"},{"bike_id":"2f0a0ac7-6e1a-4328-a504-4e02f95ee392","system_id":"levelo_inurba_marseille","lat":43.325233,"lon":5.414318,"is_reserved":false,"is_disabled":false,"rental_uris":{"android":"levelo://app?vid=2f0a0ac7-6e1a-4328-a504-4e02f95ee392","ios":"levelo://app?vid=2f0a0ac7-6e1a-4328-a504-4e02f95ee392"},"vehicle_type_id":"4","last_reported":1692291964,"current_range_meters":26400,"station_id":"ce4bhq12rcd13ifvqhhg","pricing_plan_id":"free"},{"bike_id":"f7894b0c-3972-4e6c-b9f2-f407c235c466","system_id":"levelo_inurba_marseille","lat":43.3254,"lon":5.41444,"is_reserved":false,"is_disabled":false,"rental_uris":{"android":"levelo://app?vid=f7894b0c-3972-4e6c-b9f2-f407c235c466","ios":"levelo://app?vid=f7894b0c-3972-4e6c-b9f2-f407c235c466"},"vehicle_type_id":"4","last_reported":1692291964,"current_range_meters":12400,"station_id":"ce4bhq12rcd13ifvqhhg","pricing_plan_id":"free"},{"bike_id":"930d2f4e-6811-4142-b56d-8bf64f3d5a49","system_id":"levelo_inurba_marseille","lat":43.276179,"lon":5.361009,"is_reserved":false,"is_disabled":false,"rental_uris":{"android":"levelo://app?vid=930d2f4e-6811-4142-b56d-8bf64f3d5a49","ios":"levelo://app?vid=930d2f4e-6811-4142-b56d-8bf64f3d5a49"},"vehicle_type_id":"4","last_reported":1692291964,"current_range_meters":21200,"station_id":"ce4bgj92rcd13ifvqbe0","pricing_plan_id":"free"},{"bike_id":"fb75b0dc-b7ef-4c5d-9fff-ba63e9728994","system_id":"levelo_inurba_marseille","lat":43.325233,"lon":5.414318,"is_reserved":false,"is_disabled":false,"rental_uris":{"android":"levelo://app?vid=fb75b0dc-b7ef-4c5d-9fff-ba63e9728994","ios":"levelo://app?vid=fb75b0dc-b7ef-4c5d-9fff-ba63e9728994"},"vehicle_type_id":"4","last_reported":1692291964,"current_range_meters":24000,"station_id":"ce4bhq12rcd13ifvqhhg","pricing_plan_id":"free"},{"bike_id":"a63739e2-74ba-4241-b03b-75000fbc4a0c","system_id":"levelo_inurba_marseille","lat":43.276179,"lon":5.361009,"is_reserved":false,"is_disabled":false,"rental_uris":{"android":"levelo://app?vid=a63739e2-74ba-4241-b03b-75000fbc4a0c","ios":"levelo://app?vid=a63739e2-74ba-4241-b03b-75000fbc4a0c"},"vehicle_type_id":"4","last_reported":1692291964,"current_range_meters":29200,"station_id":"ce4bgj92rcd13ifvqbe0","pricing_plan_id":"free"},{"bike_id":"e981660e-dee5-445f-8b41-c7bab5adbf55","system_id":"levelo_inurba_marseille","lat":43.32543,"lon":5.41448,"is_reserved":false,"is_disabled":false,"rental_uris":{"android":"levelo://app?vid=e981660e-dee5-445f-8b41-c7bab5adbf55","ios":"levelo://app?vid=e981660e-dee5-445f-8b41-c7bab5adbf55"},"vehicle_type_id":"4","last_reported":1692291964,"current_range_meters":13200,"station_id":"ce4bhq12rcd13ifvqhhg","pricing_plan_id":"free"},{"bike_id":"888653f4-1048-483d-8c94-d16dc2c6a332","system_id":"levelo_inurba_marseille","lat":43.27611,"lon":5.3611,"is_reserved":false,"is_disabled":false,"rental_uris":{"android":"levelo://app?vid=888653f4-1048-483d-8c94-d16dc2c6a332","ios":"levelo://app?vid=888653f4-1048-483d-8c94-d16dc2c6a332"},"vehicle_type_id":"4","last_reported":1692291964,"current_range_meters":7200,"station_id":"ce4bgj92rcd13ifvqbe0","pricing_plan_id":"free"},{"bike_id":"4b177b59-1eee-43d0-9f70-2f1637d12582","system_id":"levelo_inurba_marseille","lat":43.276179,"lon":5.361009,"is_reserved":false,"is_disabled":false,"rental_uris":{"android":"levelo://app?vid=4b177b59-1eee-43d0-9f70-2f1637d12582","ios":"levelo://app?vid=4b177b59-1eee-43d0-9f70-2f1637d12582"},"vehicle_type_id":"4","last_reported":1692291964,"current_range_meters":29200,"station_id":"ce4bgj92rcd13ifvqbe0","pricing_plan_id":"free"},{"bike_id":"21b2bbdf-b060-4fc6-b4d3-bf1514c54a30","system_id":"levelo_inurba_marseille","lat":43.280784,"lon":5.396622,"is_reserved":false,"is_disabled":false,"rental_uris":{"android":"levelo://app?vid=21b2bbdf-b060-4fc6-b4d3-bf1514c54a30","ios":"levelo://app?vid=21b2bbdf-b060-4fc6-b4d3-bf1514c54a30"},"vehicle_type_id":"4","last_reported":1692291964,"current_range_meters":30000,"station_id":"ce4bho12rcd13ifvqh2g","pricing_plan_id":"free"},{"bike_id":"61358481-9ccb-492a-b611-2450c97d1ecd","system_id":"levelo_inurba_marseille","lat":43.280784,"lon":5.396622,"is_reserved":false,"is_disabled":false,"rental_uris":{"android":"levelo://app?vid=61358481-9ccb-492a-b611-2450c97d1ecd","ios":"levelo://app?vid=61358481-9ccb-492a-b611-2450c97d1ecd"},"vehicle_type_id":"4","last_reported":1692291964,"current_range_meters":5200,"station_id":"ce4bho12rcd13ifvqh2g","pricing_plan_id":"free"},{"bike_id":"30f7e8f9-12e3-48d0-8fa4-c66f90cd56e6","system_id":"levelo_inurba_marseille","lat":43.280784,"lon":5.396622,"is_reserved":false,"is_disabled":false,"rental_uris":{"android":"levelo://app?vid=30f7e8f9-12e3-48d0-8fa4-c66f90cd56e6","ios":"levelo://app?vid=30f7e8f9-12e3-48d0-8fa4-c66f90cd56e6"},"vehicle_type_id":"4","last_reported":1692291964,"current_range_meters":11200,"station_id":"ce4bho12rcd13ifvqh2g","pricing_plan_id":"free"},{"bike_id":"82ce2105-2485-4c59-bcb2-e1d0e5ceafb6","system_id":"levelo_inurba_marseille","lat":43.28076,"lon":5.39656,"is_reserved":false,"is_disabled":false,"rental_uris":{"android":"levelo://app?vid=82ce2105-2485-4c59-bcb2-e1d0e5ceafb6","ios":"levelo://app?vid=82ce2105-2485-4c59-bcb2-e1d0e5ceafb6"},"vehicle_type_id":"4","last_reported":1692291964,"current_range_meters":31200,"station_id":"","pricing_plan_id":"free"},