{"last_updated":1747249679,"ttl":60,"version":"2.2","data":{"bikes":[{"bike_id":"c0b9fd4f-e181-46ce-b0bf-f5119973334f","system_id":"levelo_inurba_marseille","lat":43.33771,"lon":5.37424,"is_reserved":false,"is_disabled":false,"rental_uris":{"android":"levelo://app?vid=c0b9fd4f-e181-46ce-b0bf-f5119973334f","ios":"levelo://app?vid=c0b9fd4f-e181-46ce-b0bf-f5119973334f"},"vehicle_type_id":"4","last_reported":1747249679,"current_range_meters":17600,"station_id":"","pricing_plan_id":"cebpf4jnsgd1na2vs0mg"},{"bike_id":"3fae8334-a9d0-4ed3-aa20-0276813b60f6","system_id":"levelo_inurba_marseille","lat":43.26835,"lon":5.38463,"is_reserved":false,"is_disabled":true,"rental_uris":{"android":"levelo://app?vid=3fae8334-a9d0-4ed3-aa20-0276813b60f6","ios":"levelo://app?vid=3fae8334-a9d0-4ed3-aa20-0276813b60f6"},"vehicle_type_id":"4","last_reported":1747249679,"current_range_meters":0,"station_id":"","pricing_plan_id":"cebpf4jnsgd1na2vs0mg"},{"bike_id":"173fb44d-9730-4a64-8c00-f4ad4ef399d3","system_id":"levelo_inurba_marseille","lat":43.31799,"lon":5.38584,"is_reserved":false,"is_disabled":true,"rental_uris":{"android":"levelo://app?vid=173fb44d-9730-4a64-8c00-f4ad4ef399d3","ios":"levelo://app?vid=173fb44d-9730-4a64-8c00-f4ad4ef399d3"},"vehicle_type_id":"4","last_reported":1747249679,"current_range_meters":0,"station_id":"","pricing_plan_id":"cebpf4jnsgd1na2vs0mg"},{"bike_id":"fc2577e7-1497-425b-9d4f-ab8d7dc843c6","system_id":"levelo_inurba_marseille","lat":43.33771,"lon":5.37485,"is_reserved":false,"is_disabled":true,"rental_uris":{"android":"levelo://app?vid=fc2577e7-1497-425b-9d4f-ab8d7dc843c6","ios":"levelo://app?vid=fc2577e7-1497-425b-9d4f-ab8d7dc843c6"},"vehicle_type_id":"4","last_reported":1747249679,"current_range_meters":0,"station_id":"","pricing_plan_id":"cebpf4jnsgd1na2vs0mg"},{"bike_id":"0fedde00-40eb-40d2-8fc2-e61ecce46b7b","system_id":"levelo_inurba_marseille","lat":43.28311,"lon":5.4328,"is_reserved":false,"is_disabled":true,"rental_uris":{"android":"levelo://app?vid=0fedde00-40eb-40d2-8fc2-e61ecce46b7b","ios":"levelo://app?vid=0fedde00-40eb-40d2-8fc2-e61ecce46b7b"},"vehicle_type_id":"4","last_reported":1747249679,"current_range_meters":0,"station_id":"","pricing_plan_id":"cebpf4jnsgd1na2vs0mg"},{"bike_id":"16e98c4e-da7f-4160-a41d-37f546e0efaa","system_id":"levelo_inurba_marseille","lat":43.29567,"lon":5.3621,"is_reserved":false,"is_disabled":true,"rental_uris":{"android":"levelo://app?vid=16e98c4e-da7f-4160-a41d-37f546e0efaa","ios":"levelo://app?vid=16e98c4e-da7f-4160-a41d-37f546e0efaa"},"vehicle_type_id":"4","last_reported":1747249679,"current_range_meters":0,"station_id":"","pricing_plan_id":"cebpf4jnsgd1na2vs0mg"},{"bike_id":"fcc4ef96-c15e-4bef-9606-819e508051db","system_id":"levelo_inurba_marseille","lat":43.2624,"lon":5.42125,"is_reserved":false,"is_disabled":true,"rental_uris":{"android":"levelo://app?vid=fcc4ef96-c15e-4bef-9606-819e508051db","ios":"levelo://app?vid=fcc4ef96-c15e-4bef-9606-819e508051db"},"vehicle_type_id":"4","last_reported":1747249679,"current_range_meters":0,"station_id":"","pricing_plan_id":"cebpf4jnsgd1na2vs0mg"},{"bike_id":"792567c6-0442-4011-aff0-9c05e25deb48","system_id":"levelo_inurba_marseille","lat":43.28071,"lon":5.44168,"is_reserved":false,"is_disabled":true,"rental_uris":{"android":"levelo://app?vid=792567c6-0442-4011-aff0-9c05e25deb48","ios":"levelo://app?vid=792567c6-0442-4011-aff0-9c05e25deb48"},"vehicle_type_id":"4","last_reported":1747249679,"current_range_meters":0,"station_id":"","pricing_plan_id":"cebpf4jnsgd1na2vs0mg"},{"bike_id":"fcdbe861-6bcf-4e6b-8876-f6e0b484c901","system_id":"levelo_inurba_marseille","lat":43.3089,"lon":5.39658,"is_reserved":false,"is_disabled":true,"rental_uris":{"android":"levelo://app?vid=fcdbe861-6bcf-4e6b-8876-f6e0b484c901","ios":"levelo://app?vid=fcdbe861-6bcf-4e6b-8876-f6e0b484c901"},"vehicle_type_id":"4","last_reported":1747249679,"current_range_meters":0,"station_id":"ce4bh012rcd13ifvqcv0","pricing_plan_id":"cebpf4jnsgd1na2vs0mg"},{"bike_id":"9569ab38-c763-418e-bbd1-fb28d142a5fb","system_id":"levelo_inurba_marseille","lat":43.28485,"lon":5.38414,"is_reserved":false,"is_disabled":true,"rental_uris":{"android":"levelo://app?vid=9569ab38-c763-418e-bbd1-fb28d142a5fb","ios":"levelo://app?vid=9569ab38-c763-418e-bbd1-fb28d142a5fb"},"vehicle_type_id":"4","last_reported":1747249679,"current_range_meters":0,"station_id":"ce4bh512rcd13ifvqe3g","pricing_plan_id":"cebpf4jnsgd1na2vs0mg"},{"bike_id":"cefada89-dceb-4f95-a6e1-57bc526c172c","system_id":"levelo_inurba_marseille","lat":43.273784,"lon":5.362558,"is_reserved":false,"is_disabled":true,"rental_uris":{"android":"levelo://app?vid=cefada89-dceb-4f95-a6e1-57bc526c172c","ios":"levelo://app?vid=cefada89-dceb-4f95-a6e1-57bc526c172c"},"vehicle_type_id":"4","last_reported":1747249679,"current_range_meters":0,"station_id":"ce4bhbh2rcd13ifvqeo0","pricing_plan_id":"cebpf4jnsgd1na2vs0mg"},{"bike_id":"170c9e70-5ce6-4211-a1be-1bc95f421660","system_id":"levelo_inurba_marseille","lat":43.269096,"lon":5.389084,"is_reserved":false,"is_disabled":true,"rental_uris":{"android":"levelo://app?vid=170c9e70-5ce6-4211-a1be-1bc95f421660","ios":"levelo://app?vid=170c9e70-5ce6-4211-a1be-1bc95f421660"},"vehicle_type_id":"4","last_reported":1747249679,"current_range_meters":0,"station_id":"ce4bhhh2rcd13ifvqfl0","pricing_plan_id":"cebpf4jnsgd1na2vs0mg"},{"bike_id":"a70ebef5-8857-46a3-a373-d8f10a11e4a0","system_id":"levelo_inurba_marseille","lat":43.21192,"lon":5.35071,"is_reserved":false,"is_disabled":true,"rental_uris":{"android":"levelo://app?vid=a70ebef5-8857-46a3-a373-d8f10a11e4a0","ios":"levelo://app?vid=a70ebef5-8857-46a3-a373-d8f10a11e4a0"},"vehicle_type_id":"4","last_reported":1747249679,"current_range_meters":0,"station_id":"st_cvj6sg6p6f1abm77japg","pricing_plan_id":"cebpf4jnsgd1na2vs0mg"},{"bike_id":"cb453174-555d-4687-87e8-0d81464676cb","system_id":"levelo_inurba_marseille","lat":43.28443,"lon":5.392,"is_reserved":false,"is_disabled":true,"rental_uris":{"android":"levelo://app?vid=cb453174-555d-4687-87e8-0d81464676cb","ios":"levelo://app?vid=cb453174-555d-4687-87e8-0d81464676cb"},"vehicle_type_id":"4","last_reported":1747249679,"current_range_meters":400,"station_id":"ce4bhoh2rcd13ifvqh5g","pricing_plan_id":"cebpf4jnsgd1na2vs0mg"},{"bike_id":"74a7f466-f2f3-4927-838f-4b81a6d7d9f4","system_id":"levelo_inurba_marseille","lat":43.31078,"lon":5.38364,"is_reserved":false,"is_disabled":true,"rental_uris":{"android":"levelo://app?vid=74a7f466-f2f3-4927-838f-4b81a6d7d9f4","ios":"levelo://app?vid=74a7f466-f2f3-4927-838f-4b81a6d7d9f4"},"vehicle_type_id":"4","last_reported":1747249679,"current_range_meters":800,"station_id":"ce4bgv92rcd13ifvqcr0","pricing_plan_id":"cebpf4jnsgd1na2vs0mg"},{"bike_id":"2b0157b1-77d3-4095-9cdc-b4ba45fe0a70","system_id":"levelo_inurba_marseille","lat":43.30332,"lon":5.40424,"is_reserved":false,"is_disabled":true,"rental_uris":{"android":"levelo://app?vid=2b0157b1-77d3-4095-9cdc-b4ba45fe0a70","ios":"levelo://app?vid=2b0157b1-77d3-4095-9cdc-b4ba45fe0a70"},"vehicle_type_id":"4","last_reported":1747249679,"current_range_meters":800,"station_id":"ce4bh012rcd13ifvqd10","pricing_plan_id":"cebpf4jnsgd1na2vs0mg"},{"bike_id":"641f2eb0-f475-4afe-9f1d-99c44ad80ba0","system_id":"levelo_inurba_marseille","lat":43.27041,"lon":5.40259,"is_reserved":false,"is_disabled":true,"rental_uris":{"android":"levelo://app?vid=641f2eb0-f475-4afe-9f1d-99c44ad80ba0","ios":"levelo://app?vid=641f2eb0-f475-4afe-9f1d-99c44ad80ba0"},"vehicle_type_id":"4","last_reported":1747249679,"current_range_meters":800,"station_id":"ce4bhk92rcd13ifvqgc0","pricing_plan_id":"cebpf4jnsgd1na2vs0mg"},{"bike_id":"dcab5676-aa6b-478b-84df-5d2f3031a778","system_id":"levelo_inurba_marseille","lat":43.27808,"lon":5.40704,"is_reserved":false,"is_disabled":true,"rental_uris":{"android":"levelo://app?vid=dcab5676-aa6b-478b-84df-5d2f3031a778","ios":"levelo://app?vid=dcab5676-aa6b-478b-84df-5d2f3031a778"},"vehicle_type_id":"4","last_reported":1747249679,"current_range_meters":1200,"station_id":"ce4bhnh2rcd13ifvqgtg","pricing_plan_id":"cebpf4jnsgd1na2vs0mg"},{"bike_id":"57ddeb2b-38aa-457b-9ea6-1c47cf7c50f9","system_id":"levelo_inurba_marseille","lat":43.28806,"lon":5.38259,"is_reserved":false,"is_disabled":true,"rental_uris":{"android":"levelo://app?vid=57ddeb2b-38aa-457b-9ea6-1c47cf7c50f9","ios":"levelo://app?vid=57ddeb2b-38aa-457b-9ea6-1c47cf7c50f9"},"vehicle_type_id":"4","last_reported":1747249679,"current_range_meters":1600,"station_id":"","pricing_plan_id":"cebpf4jnsgd1na2vs0mg"},{"bike_id":"eea0f883-fe18-406f-993d-c2f35434d08c","system_id":"levelo_inurba_marseille","lat":43.297388,"lon":5.367683,"is_reserved":false,"is_disabled":true,"rental_uris":{"android":"levelo://app?vid=eea0f883-fe18-406f-993d-c2f35434d08c","ios":"levelo://app?vid=eea0f883-fe18-406f-993d-c2f35434d08c"},"vehicle_type_id":"4","last_reported":1747249679,"current_range_meters":2000,"station_id":"","pricing_plan_id":"cebpf4jnsgd1na2vs0mg"},{"bike_id":"28cb543b-fedb-4b7e-8c2a-c5732a88214a","system_id":"levelo_inurba_marseille","lat":43.299757,"lon":5.384882,"is_reserved":false,"is_disabled":true,"rental_uris":{"android":"levelo://app?vid=28cb543b-fedb-4b7e-8c2a-c5732a88214a","ios":"levelo://app?vid=28cb543b-fedb-4b7e-8c2a-c5732a88214a"},"vehicle_type_id":"4","last_reported":1747249679,"current_range_meters":2000,"station_id":"ce4bgj92rcd13ifvqbd0","pricing_plan_id":"cebpf4jnsgd1na2vs0mg"},{"bike_id":"38b9e595-75ce-4e81-8933-74aa75a71758","system_id":"levelo_inurba_marseille","lat":43.31123,"lon":5.37777,"is_reserved":false,"is_disabled":true,"rental_uris":{"android":"levelo://app?vid=38b9e595-75ce-4e81-8933-74aa75a71758","ios":"levelo://app?vid=38b9e595-75ce-4e81-8933-74aa75a71758"},"vehicle_type_id":"4","last_reported":1747249679,"current_range_meters":2000,"station_id":"ce4bgt92rcd13ifvqcg0","pricing_plan_id":"cebpf4jnsgd1na2vs0mg"},{"bike_id":"99531be6-456b-45cd-9a41-8e6bd9243203","system_id":"levelo_inurba_marseille","lat":43.30906,"lon":5.37072,"is_reserved":false,"is_disabled":false,"rental_uris":{"android":"levelo://app?vid=99531be6-456b-45cd-9a41-8e6bd9243203","ios":"levelo://app?vid=99531be6-456b-45cd-9a41-8e6bd9243203"},"vehicle_type_id":"4","last_reported":1747249679,"current_range_meters":2800,"station_id":"","pricing_plan_id":"cebpf4jnsgd1na2vs0mg"},{"bike_id":"edf260c1-dbb9-4d41-bc3a-000e4b2ca16e","system_id":"levelo_inurba_marseille","lat":43.31308,"lon":5.39715,"is_reserved":false,"is_disabled":false,"rental_uris":{"android":"levelo://app?vid=edf260c1-dbb9-4d41-bc3a-000e4b2ca16e","ios":"levelo://app?vid=edf260c1-dbb9-4d41-bc3a-000e4b2ca16e"},"vehicle_type_id":"4","last_reported":1747249679,"current_range_meters":2800,"station_id":"ce4bgvp2rcd13ifvqcu0","pricing_plan_id":"cebpf4jnsgd1na2vs0mg"},{"bike_id":"ddc086b6-cf3b-4f36-8784-35a5617a75e2","system_id":"levelo_inurba_marseille","lat":43.29278,"lon":5.36851,"is_reserved":false,"is_disabled":false,"rental_uris":{"android":"levelo://app?vid=ddc086b6-cf3b-4f36-8784-35a5617a75e2","ios":"levelo://app?vid=ddc086b6-cf3b-4f36-8784-35a5617a75e2"},"vehicle_type_id":"4","last_reported":1747249679,"current_range_meters":2800,"station_id":"ce4bhbp2rcd13ifvqesg","pricing_plan_id":"cebpf4jnsgd1na2vs0mg"},{"bike_id":"c3dbf5d6-9355-4fa7-b815-33194d64ea25","system_id":"levelo_inurba_marseille","lat":43.27981,"lon":5.4167,"is_reserved":false,"is_disabled":false,"rental_uris":{"android":"levelo://app?vid=c3dbf5d6-9355-4fa7-b815-33194d64ea25","ios":"levelo://app?vid=c3dbf5d6-9355-4fa7-b815-33194d64ea25"},"vehicle_type_id":"4","last_reported":1747249679,"current_range_meters":2800,"station_id":"ce4bho12rcd13ifvqh1g","pricing_plan_id":"cebpf4jnsgd1na2vs0mg"},{"bike_id":"9dc09e1b-f5e3-48cb-a97d-7ca851d5e8b1","system_id":"levelo_inurba_marseille","lat":43.29809,"lon":5.38085,"is_reserved":false,"is_disabled":false,"rental_uris":{"android":"levelo://app?vid=9dc09e1b-f5e3-48cb-a97d-7ca851d5e8b1","ios":"levelo://app?vid=9dc09e1b-f5e3-48cb-a97d-7ca851d5e8b1"},"vehicle_type_id":"4","last_reported":1747249679,"current_range_meters":3200,"station_id":"ce4bgip2rcd13ifvqbb0","pricing_plan_id":"cebpf4jnsgd1na2vs0mg"},{"bike_id":"4581eb97-5a7e-42f8-827e-ab0cca20d012","system_id":"levelo_inurba_marseille","lat":43.2928,"lon":5.36843,"is_reserved":false,"is_disabled":false,"rental_uris":{"android":"levelo://app?vid=4581eb97-5a7e-42f8-827e-ab0cca20d012","ios":"levelo://app?vid=4581eb97-5a7e-42f8-827e-ab0cca20d012"},"vehicle_type_id":"4","last_reported":1747249679,"current_range_meters":3200,"station_id":"ce4bhbp2rcd13ifvqesg","pricing_plan_id":"cebpf4jnsgd1na2vs0mg"},{"bike_id":"6ea3ae3a-2149-43e1-a077-c95dcc818eb3","system_id":"levelo_inurba_marseille","lat":43.2578,"lon":5.41026,"is_reserved":false,"is_disabled":false,"rental_uris":{"android":"levelo://app?vid=6ea3ae3a-2149-43e1-a077-c95dcc818eb3","ios":"levelo://app?vid=6ea3ae3a-2149-43e1-a077-c95dcc818eb3"},"vehicle_type_id":"4","last_reported":1747249679,"current_range_meters":4000,"station_id":"","pricing_plan_id":"cebpf4jnsgd1na2vs0mg"},{"bike_id":"6a91bc97-0df0-4066-bd1b-78a10830d5ac","system_id":"levelo_inurba_marseille","lat":43.29934,"lon":5.3654,"is_reserved":false,"is_disabled":false,"rental_uris":{"android":"levelo://app?vid=6a91bc97-0df0-4066-bd1b-78a10830d5ac","ios":"levelo://app?vid=6a91bc97-0df0-4066-bd1b-78a10830d5ac"},"vehicle_type_id":"4","last_reported":1747249679,"current_range_meters":4000,"station_id":"ce4bgm92rcd13ifvqbr0","pricing_plan_id":"cebpf4jnsgd1na2vs0mg"},{"bike_id":"6ef36206-2406-4ca6-ba0d-dcf0958a88f4","system_id":"levelo_inurba_marseille","lat":43.29192,"lon":5.35787,"is_reserved":false,"is_disabled":false,"rental_uris":{"android":"levelo://app?vid=6ef36206-2406-4ca6-ba0d-dcf0958a88f4","ios":"levelo://app?vid=6ef36206-2406-4ca6-ba0d-dcf0958a88f4"},"vehicle_type_id":"4","last_reported":1747249679,"current_range_meters":4000,"station_id":"ce4bhb12rcd13ifvqel0","pricing_plan_id":"cebpf4jnsgd1na2vs0mg"},{"bike_id":"95b9651b-24ca-40ef-a319-3d06e507e536","system_id":"levelo_inurba_marseille","lat":43.3121,"lon":5.38961,"is_reserved":false,"is_disabled":false,"rental_uris":{"android":"levelo://app?vid=95b9651b-24ca-40ef-a319-3d06e507e536","ios":"levelo://app?vid=95b9651b-24ca-40ef-a319-3d06e507e536"},"vehicle_type_id":"4","last_reported":1747249679,"current_range_meters":4400,"station_id":"","pricing_plan_id":"cebpf4jnsgd1na2vs0mg"},{"bike_id":"5fd28df5-68cf-41e1-b2bb-8301d8b40764","system_id":"levelo_inurba_marseille","lat":43.264973,"lon":5.39557,"is_reserved":false,"is_disabled":false,"rental_uris":{"android":"levelo://app?vid=5fd28df5-68cf-41e1-b2bb-8301d8b40764","ios":"levelo://app?vid=5fd28df5-68cf-41e1-b2bb-8301d8b40764"},"vehicle_type_id":"4","last_reported":1747249679,"current_range_meters":4400,"station_id":"ce4bhi12rcd13ifvqfq0","pricing_plan_id":"cebpf4jnsgd1na2vs0mg"},{"bike_id":"8a24d84e-ec1e-4a7c-aa35-00fa560e7032","system_id":"levelo_inurba_marseille","lat":43.31335,"lon":5.39694,"is_reserved":false,"is_disabled":false,"rental_uris":{"android":"levelo://app?vid=8a24d84e-ec1e-4a7c-aa35-00fa560e7032","ios":"levelo://app?vid=8a24d84e-ec1e-4a7c-aa35-00fa560e7032"},"vehicle_type_id":"4","last_reported":1747249679,"current_range_meters":4800,"station_id":"ce4bgvp2rcd13ifvqcu0","pricing_plan_id":"cebpf4jnsgd1na2vs0mg"},{"bike_id":"c67f1141-c314-47ac-9d83-4aa57f0c13a3","system_id":"levelo_inurba_marseille","lat":43.29425,"lon":5.38621,"is_reserved":false,"is_disabled":false,"rental_uris":{"android":"levelo://app?vid=c67f1141-c314-47ac-9d83-4aa57f0c13a3","ios":"levelo://app?vid=c67f1141-c314-47ac-9d83-4aa57f0c13a3"},"vehicle_type_id":"4","last_reported":1747249679,"current_range_meters":4800,"station_id":"ce4bh2h2rcd13ifvqdh0","pricing_plan_id":"cebpf4jnsgd1na2vs0mg"},{"bike_id":"908c2c94-a226-4038-b6ac-5501d970bc47","system_id":"levelo_inurba_marseille","lat":43.28929,"lon":5.36629,"is_reserved":false,"is_disabled":false,"rental_uris":{"android":"levelo://app?vid=908c2c94-a226-4038-b6ac-5501d970bc47","ios":"levelo://app?vid=908c2c94-a226-4038-b6ac-5501d970bc47"},"vehicle_type_id":"4","last_reported":1747249679,"current_range_meters":4800,"station_id":"ce4bhap2rcd13ifvqek0","pricing_plan_id":"cebpf4jnsgd1na2vs0mg"},{"bike_id":"cd5e9cd1-fdde-4a4b-91da-23b3dbca4add","system_id":"levelo_inurba_marseille","lat":43.282696,"lon":5.350662,"is_reserved":false,"is_disabled":false,"rental_uris":{"android":"levelo://app?vid=cd5e9cd1-fdde-4a4b-91da-23b3dbca4add","ios":"levelo://app?vid=cd5e9cd1-fdde-4a4b-91da-23b3dbca4add"},"vehicle_type_id":"4","last_reported":1747249679,"current_range_meters":4800,"station_id":"ce4bhbp2rcd13ifvqerg","pricing_plan_id":"cebpf4jnsgd1na2vs0mg"},{"bike_id":"6de6867c-e41c-431b-9ec6-2ccde72cdc9a","system_id":"levelo_inurba_marseille","lat":43.28709,"lon":5.40004,"is_reserved":false,"is_disabled":false,"rental_uris":{"android":"levelo://app?vid=6de6867c-e41c-431b-9ec6-2ccde72cdc9a","ios":"levelo://app?vid=6de6867c-e41c-431b-9ec6-2ccde72cdc9a"},"vehicle_type_id":"4","last_reported":1747249679,"current_range_meters":4800,"station_id":"ce4bho92rcd13ifvqh3g","pricing_plan_id":"cebpf4jnsgd1na2vs0mg"},{"bike_id":"ce4325af-2448-4172-bdec-81d552ee0b62","system_id":"levelo_inurba_marseille","lat":43.261616,"lon":5.420174,"is_reserved":false,"is_disabled":false,"rental_uris":{"android":"levelo://app?vid=ce4325af-2448-4172-bdec-81d552ee0b62","ios":"levelo://app?vid=ce4325af-2448-4172-bdec-81d552ee0b62"},"vehicle_type_id":"4","last_reported":1747249679,"current_range_meters":5600,"station_id":"","pricing_plan_id":"cebpf4jnsgd1na2vs0mg"},{"bike_id":"15590095-687f-4e33-9e4a-d086dd0e1980","system_id":"levelo_inurba_marseille","lat":43.29265,"lon":5.38441,"is_reserved":false,"is_disabled":false,"rental_uris":{"android":"levelo://app?vid=15590095-687f-4e33-9e4a-d086dd0e1980","ios":"levelo://app?vid=15590095-687f-4e33-9e4a-d086dd0e1980"},"vehicle_type_id":"4","last_reported":1747249679,"current_range_meters":5600,"station_id":"ce4bh692rcd13ifvqea0","pricing_plan_id":"cebpf4jnsgd1na2vs0mg"},{"bike_id":"b6089a2b-dc15-42d8-9f03-c16ad6ebeca3","system_id":"levelo_inurba_marseille","lat":43.24157,"lon":5.364,"is_reserved":false,"is_disabled":false,"rental_uris":{"android":"levelo://app?vid=b6089a2b-dc15-42d8-9f03-c16ad6ebeca3","ios":"levelo://app?vid=b6089a2b-dc15-42d8-9f03-c16ad6ebeca3"},"vehicle_type_id":"4","last_reported":1747249679,"current_range_meters":5600,"station_id":"cpo36qri1sfpv3e86is0","pricing_plan_id":"cebpf4jnsgd1na2vs0mg"},{"bike_id":"f315d6cf-6915-48e4-aac3-01417ade675f","system_id":"levelo_inurba_marseille","lat":43.29166,"lon":5.37164,"is_reserved":false,"is_disabled":false,"rental_uris":{"android":"levelo://app?vid=f315d6cf-6915-48e4-aac3-01417ade675f","ios":"levelo://app?vid=f315d6cf-6915-48e4-aac3-01417ade675f"},"vehicle_type_id":"4","last_reported":1747249679,"current_range_meters":6000,"station_id":"ce4bha92rcd13ifvqeh0","pricing_plan_id":"cebpf4jnsgd1na2vs0mg"},{"bike_id":"5c95ce0c-847b-4b7b-9950-64fda5cb8694","system_id":"levelo_inurba_marseille","lat":43.28933,"lon":5.36653,"is_reserved":false,"is_disabled":false,"rental_uris":{"android":"levelo://app?vid=5c95ce0c-847b-4b7b-9950-64fda5cb8694","ios":"levelo://app?vid=5c95ce0c-847b-4b7b-9950-64fda5cb8694"},"vehicle_type_id":"4","last_reported":1747249679,"current_range_meters":6000,"station_id":"ce4bhap2rcd13ifvqek0","pricing_plan_id":"cebpf4jnsgd1na2vs0mg"},{"bike_id":"18723a66-c97e-4014-a07c-7d79a785c1b9","system_id":"levelo_inurba_marseille","lat":43.31783,"lon":5.3906,"is_reserved":false,"is_disabled":false,"rental_uris":{"android":"levelo://app?vid=18723a66-c97e-4014-a07c-7d79a785c1b9","ios":"levelo://app?vid=18723a66-c97e-4014-a07c-7d79a785c1b9"},"vehicle_type_id":"4","last_reported":1747249679,"current_range_meters":6000,"station_id":"ce4bhqp2rcd13ifvqhng","pricing_plan_id":"cebpf4jnsgd1na2vs0mg"},{"bike_id":"6953ca09-b1d0-473e-8b94-d568eb1a7f43","system_id":"levelo_inurba_marseille","lat":43.28854,"lon":5.37158,"is_reserved":false,"is_disabled":false,"rental_uris":{"android":"levelo://app?vid=6953ca09-b1d0-473e-8b94-d568eb1a7f43","ios":"levelo://app?vid=6953ca09-b1d0-473e-8b94-d568eb1a7f43"},"vehicle_type_id":"4","last_reported":1747249679,"current_range_meters":6400,"station_id":"","pricing_plan_id":"cebpf4jnsgd1na2vs0mg"},{"bike_id":"06c929b7-f516-40fa-bfb5-c89c51932179","system_id":"levelo_inurba_marseille","lat":43.31343,"lon":5.39732,"is_reserved":false,"is_disabled":false,"rental_uris":{"android":"levelo://app?vid=06c929b7-f516-40fa-bfb5-c89c51932179","ios":"levelo://app?vid=06c929b7-f516-40fa-bfb5-c89c51932179"},"vehicle_type_id":"4","last_reported":1747249679,"current_range_meters":6400,"station_id":"ce4bgvp2rcd13ifvqcu0","pricing_plan_id":"cebpf4jnsgd1na2vs0mg"},{"bike_id":"75696c83-d0f0-4383-b672-b0c92ab728ab","system_id":"levelo_inurba_marseille","lat":43.29191,"lon":5.39312,"is_reserved":false,"is_disabled":false,"rental_uris":{"android":"levelo://app?vid=75696c83-d0f0-4383-b672-b0c92ab728ab","ios":"levelo://app?vid=75696c83-d0f0-4383-b672-b0c92ab728ab"},"vehicle_type_id":"4","last_reported":1747249679,"current_range_meters":6400,"station_id":"ce4bh192rcd13ifvqdd0","pricing_plan_id":"cebpf4jnsgd1na2vs0mg"},{"bike_id":"253e4b78-4947-4b21-9463-55f9d197a50a","system_id":"levelo_inurba_marseille","lat":43.24804,"lon":5.3746,"is_reserved":false,"is_disabled":false,"rental_uris":{"android":"levelo://app?vid=253e4b78-4947-4b21-9463-55f9d197a50a","ios":"levelo://app?vid=253e4b78-4947-4b21-9463-55f9d197a50a"},"vehicle_type_id":"4","last_reported":1747249679,"current_range_meters":6400,"station_id":"ce4bhgh2rcd13ifvqfb0","pricing_plan_id":"cebpf4jnsgd1na2vs0mg"},{"bike_id":"14ede0a1-5d5a-4e11-a4f9-b2366a590652","system_id":"levelo_inurba_marseille","lat":43.26788,"lon":5.39417,"is_reserved":false,"is_disabled":false,"rental_uris":{"android":"levelo://app?vid=14ede0a1-5d5a-4e11-a4f9-b2366a590652","ios":"levelo://app?vid=14ede0a1-5d5a-4e11-a4f9-b2366a590652"},"vehicle_type_id":"4","last_reported":1747249679,"current_range_meters":6400,"station_id":"ce4bhh12rcd13ifvqfg0","pricing_plan_id":"cebpf4jnsgd1na2vs0mg"},{"bike_id":"f37b7848-b34f-4203-8cd6-ee4ac88ff930","system_id":"levelo_inurba_marseille","lat":43.2395,"lon":5.36642,"is_reserved":false,"is_disabled":false,"rental_uris":{"android":"levelo://app?vid=f37b7848-b34f-4203-8cd6-ee4ac88ff930","ios":"levelo://app?vid=f37b7848-b34f-4203-8cd6-ee4ac88ff930"},"vehicle_type_id":"4","last_reported":1747249679,"current_range_meters":6400,"station_id":"ce4bhi12rcd13ifvqfp0","pricing_plan_id":"cebpf4jnsgd1na2vs0mg"},{"bike_id":"b8d489cc-d285-4a5f-a678-39d1161b45af","system_id":"levelo_inurba_marseille","lat":43.2844,"lon":5.39188,"is_reserved":false,"is_disabled":false,"rental_uris":{"android":"levelo://app?vid=b8d489cc-d285-4a5f-a678-39d1161b45af","ios":"levelo://app?vid=b8d489cc-d285-4a5f-a678-39d1161b45af"},"vehicle_type_id":"4","last_reported":1747249679,"current_range_meters":6400,"station_id":"ce4bhoh2rcd13ifvqh5g","pricing_plan_id":"cebpf4jnsgd1na2vs0mg"},{"bike_id":"5de1e8df-cec1-47cf-b554-41f6e726d337","system_id":"levelo_inurba_marseille","lat":43.27419,"lon":5.40594,"is_reserved":false,"is_disabled":false,"rental_uris":{"android":"levelo://app?vid=5de1e8df-cec1-47cf-b554-41f6e726d337","ios":"levelo://app?vid=5de1e8df-cec1-47cf-b554-41f6e726d337"},"vehicle_type_id":"4","last_reported":1747249679,"current_range_meters":6800,"station_id":"","pricing_plan_id":"cebpf4jnsgd1na2vs0mg"},{"bike_id":"fd800bd8-9463-4e75-9142-b8e58711c1b0","system_id":"levelo_inurba_marseille","lat":43.31701,"lon":5.40473,"is_reserved":false,"is_disabled":false,"rental_uris":{"android":"levelo://app?vid=fd800bd8-9463-4e75-9142-b8e58711c1b0","ios":"levelo://app?vid=fd800bd8-9463-4e75-9142-b8e58711c1b0"},"vehicle_type_id":"4","last_reported":1747249679,"current_range_meters":6800,"station_id":"ce4bh012rcd13ifvqd00","pricing_plan_id":"cebpf4jnsgd1na2vs0mg"},{"bike_id":"0786f947-1387-43c1-8d60-229140e67e3d","system_id":"levelo_inurba_marseille","lat":43.25132,"lon":5.40334,"is_reserved":false,"is_disabled":false,"rental_uris":{"android":"levelo://app?vid=0786f947-1387-43c1-8d60-229140e67e3d","ios":"levelo://app?vid=0786f947-1387-43c1-8d60-229140e67e3d"},"vehicle_type_id":"4","last_reported":1747249679,"current_range_meters":6800,"station_id":"ce4bhlh2rcd13ifvqgig","pricing_plan_id":"cebpf4jnsgd1na2vs0mg"},{"bike_id":"cea4658b-833f-4943-a4d5-44c9e8275376","system_id":"levelo_inurba_marseille","lat":43.29414,"lon":5.38624,"is_reserved":false,"is_disabled":false,"rental_uris":{"android":"levelo://app?vid=cea4658b-833f-4943-a4d5-44c9e8275376","ios":"levelo://app?vid=cea4658b-833f-4943-a4d5-44c9e8275376"},"vehicle_type_id":"4","last_reported":1747249679,"current_range_meters":7200,"station_id":"ce4bh2h2rcd13ifvqdh0","pricing_plan_id":"cebpf4jnsgd1na2vs0mg"},{"bike_id":"17cfc6df-6106-4dbc-9789-c5090af4b0f4","system_id":"levelo_inurba_marseille","lat":43.29417,"lon":5.38618,"is_reserved":false,"is_disabled":false,"rental_uris":{"android":"levelo://app?vid=17cfc6df-6106-4dbc-9789-c5090af4b0f4","ios":"levelo://app?vid=17cfc6df-6106-4dbc-9789-c5090af4b0f4"},"vehicle_type_id":"4","last_reported":1747249679,"current_range_meters":7200,"station_id":"ce4bh2h2rcd13ifvqdh0","pricing_plan_id":"cebpf4jnsgd1na2vs0mg"},{"bike_id":"d6b04ef9-09f4-488b-b4c7-0adecd567909","system_id":"levelo_inurba_marseille","lat":43.2942,"lon":5.38625,"is_reserved":false,"is_disabled":false,"rental_uris":{"android":"levelo://app?vid=d6b04ef9-09f4-488b-b4c7-0adecd567909","ios":"levelo://app?vid=d6b04ef9-09f4-488b-b4c7-0adecd567909"},"vehicle_type_id":"4","last_reported":1747249679,"current_range_meters":7200,"station_id":"ce4bh2h2rcd13ifvqdh0","pricing_plan_id":"cebpf4jnsgd1na2vs0mg"},{"bike_id":"eca4b7de-d654-45fc-9897-074a829c0f3e","system_id":"levelo_inurba_marseille","lat":43.26491,"lon":5.39542,"is_reserved":false,"is_disabled":false,"rental_uris":{"android":"levelo://app?vid=eca4b7de-d654-45fc-9897-074a829c0f3e","ios":"levelo://app?vid=eca4b7de-d654-45fc-9897-074a829c0f3e"},"vehicle_type_id":"4","last_reported":1747249679,"current_range_meters":7200,"station_id":"ce4bhi12rcd13ifvqfq0","pricing_plan_id":"cebpf4jnsgd1na2vs0mg"},{"bike_id":"3e7e3d15-0359-4081-9559-3797a49fe531","system_id":"levelo_inurba_marseille","lat":43.29261,"lon":5.40909,"is_reserved":false,"is_disabled":false,"rental_uris":{"android":"levelo://app?vid=3e7e3d15-0359-4081-9559-3797a49fe531","ios":"levelo://app?vid=3e7e3d15-0359-4081-9559-3797a49fe531"},"vehicle_type_id":"4","last_reported":1747249679,"current_range_meters":8000,"station_id":"ce4bh192rcd13ifvqdc0","pricing_plan_id":"cebpf4jnsgd1na2vs0mg"},{"bike_id":"81e113f3-87f8-449b-8676-3344bdb8f266","system_id":"levelo_inurba_marseille","lat":43.29018,"lon":5.38129,"is_reserved":false,"is_disabled":false,"rental_uris":{"android":"levelo://app?vid=81e113f3-87f8-449b-8676-3344bdb8f266","ios":"levelo://app?vid=81e113f3-87f8-449b-8676-3344bdb8f266"},"vehicle_type_id":"4","last_reported":1747249679,"current_range_meters":8000,"station_id":"ce4bh4p2rcd13ifvqe1g","pricing_plan_id":"cebpf4jnsgd1na2vs0mg"},{"bike_id":"8ed6ad64-8987-43ea-98d1-81044a82137f","system_id":"levelo_inurba_marseille","lat":43.284,"lon":5.34991,"is_reserved":false,"is_disabled":false,"rental_uris":{"android":"levelo://app?vid=8ed6ad64-8987-43ea-98d1-81044a82137f","ios":"levelo://app?vid=8ed6ad64-8987-43ea-98d1-81044a82137f"},"vehicle_type_id":"4","last_reported":1747249679,"current_range_meters":8000,"station_id":"ce4bhbh2rcd13ifvqepg","pricing_plan_id":"cebpf4jnsgd1na2vs0mg"},{"bike_id":"ffa6ba17-7731-448e-97e6-bf9479b4cef1","system_id":"levelo_inurba_marseille","lat":43.286057,"lon":5.351083,"is_reserved":false,"is_disabled":false,"rental_uris":{"android":"levelo://app?vid=ffa6ba17-7731-448e-97e6-bf9479b4cef1","ios":"levelo://app?vid=ffa6ba17-7731-448e-97e6-bf9479b4cef1"},"vehicle_type_id":"4","last_reported":1747249679,"current_range_meters":8000,"station_id":"ce4bhch2rcd13ifvqeug","pricing_plan_id":"cebpf4jnsgd1na2vs0mg"},{"bike_id":"b3cbb104-f3f8-400a-95e2-f5019d370312","system_id":"levelo_inurba_marseille","lat":43.24997,"lon":5.38933,"is_reserved":false,"is_disabled":false,"rental_uris":{"android":"levelo://app?vid=b3cbb104-f3f8-400a-95e2-f5019d370312","ios":"levelo://app?vid=b3cbb104-f3f8-400a-95e2-f5019d370312"},"vehicle_type_id":"4","last_reported":1747249679,"current_range_meters":8000,"station_id":"ce4bhgp2rcd13ifvqfd0","pricing_plan_id":"cebpf4jnsgd1na2vs0mg"},{"bike_id":"b0e44f07-78a2-4af9-bb27-310c70ed8cbe","system_id":"levelo_inurba_marseille","lat":43.32103,"lon":5.367683,"is_reserved":false,"is_disabled":false,"rental_uris":{"android":"levelo://app?vid=b0e44f07-78a2-4af9-bb27-310c70ed8cbe","ios":"levelo://app?vid=b0e44f07-78a2-4af9-bb27-310c70ed8cbe"},"vehicle_type_id":"4","last_reported":1747249679,"current_range_meters":8000,"station_id":"ce4bhrh2rcd13ifvqhug","pricing_plan_id":"cebpf4jnsgd1na2vs0mg"},{"bike_id":"472dc04a-65b4-495b-a04d-0e53111fbf97","system_id":"levelo_inurba_marseille","lat":43.30739,"lon":5.42445,"is_reserved":false,"is_disabled":false,"rental_uris":{"android":"levelo://app?vid=472dc04a-65b4-495b-a04d-0e53111fbf97","ios":"levelo://app?vid=472dc04a-65b4-495b-a04d-0e53111fbf97"},"vehicle_type_id":"4","last_reported":1747249679,"current_range_meters":8000,"station_id":"st_cvj6ca6bvosntc0bfgr0","pricing_plan_id":"cebpf4jnsgd1na2vs0mg"},{"bike_id":"6c5e2750-bf55-4812-bb81-a9df60873a61","system_id":"levelo_inurba_marseille","lat":43.29639,"lon":5.36185,"is_reserved":false,"is_disabled":false,"rental_uris":{"android":"levelo://app?vid=6c5e2750-bf55-4812-bb81-a9df60873a61","ios":"levelo://app?vid=6c5e2750-bf55-4812-bb81-a9df60873a61"},"vehicle_type_id":"4","last_reported":1747249679,"current_range_meters":8400,"station_id":"","pricing_plan_id":"cebpf4jnsgd1na2vs0mg"},{"bike_id":"68d33b2b-bc3a-41ca-9b0e-d642174b74f3","system_id":"levelo_inurba_marseille","lat":43.28937,"lon":5.36619,"is_reserved":false,"is_disabled":false,"rental_uris":{"android":"levelo://app?vid=68d33b2b-bc3a-41ca-9b0e-d642174b74f3","ios":"levelo://app?vid=68d33b2b-bc3a-41ca-9b0e-d642174b74f3"},"vehicle_type_id":"4","last_reported":1747249679,"current_range_meters":8400,"station_id":"ce4bhap2rcd13ifvqek0","pricing_plan_id":"cebpf4jnsgd1na2vs0mg"},{"bike_id":"ab6416e0-05de-42f5-ba18-cc4e08556a2b","system_id":"levelo_inurba_marseille","lat":43.27374,"lon":5.36259,"is_reserved":false,"is_disabled":false,"rental_uris":{"android":"levelo://app?vid=ab6416e0-05de-42f5-ba18-cc4e08556a2b","ios":"levelo://app?vid=ab6416e0-05de-42f5-ba18-cc4e08556a2b"},"vehicle_type_id":"4","last_reported":1747249679,"current_range_meters":8400,"station_id":"ce4bhbh2rcd13ifvqeo0","pricing_plan_id":"cebpf4jnsgd1na2vs0mg"},{"bike_id":"10c9d4f6-b55e-480f-b770-c05d7971351d","system_id":"levelo_inurba_marseille","lat":43.26554,"lon":5.39018,"is_reserved":false,"is_disabled":false,"rental_uris":{"android":"levelo://app?vid=10c9d4f6-b55e-480f-b770-c05d7971351d","ios":"levelo://app?vid=10c9d4f6-b55e-480f-b770-c05d7971351d"},"vehicle_type_id":"4","last_reported":1747249679,"current_range_meters":8400,"station_id":"ce4bhe12rcd13ifvqf30","pricing_plan_id":"cebpf4jnsgd1na2vs0mg"},{"bike_id":"926171bd-9bc9-42f0-9a8e-71ea9f448fe8","system_id":"levelo_inurba_marseille","lat":43.26679,"lon":5.38274,"is_reserved":false,"is_disabled":false,"rental_uris":{"android":"levelo://app?vid=926171bd-9bc9-42f0-9a8e-71ea9f448fe8","ios":"levelo://app?vid=926171bd-9bc9-42f0-9a8e-71ea9f448fe8"},"vehicle_type_id":"4","last_reported":1747249679,"current_range_meters":8400,"station_id":"ce4bhg92rcd13ifvqf90","pricing_plan_id":"cebpf4jnsgd1na2vs0mg"},{"bike_id":"7ddd34a0-d984-4dc0-a019-37962a1ca7c6","system_id":"levelo_inurba_marseille","lat":43.25105,"lon":5.40378,"is_reserved":false,"is_disabled":false,"rental_uris":{"android":"levelo://app?vid=7ddd34a0-d984-4dc0-a019-37962a1ca7c6","ios":"levelo://app?vid=7ddd34a0-d984-4dc0-a019-37962a1ca7c6"},"vehicle_type_id":"4","last_reported":1747249679,"current_range_meters":8400,"station_id":"ce4bhlh2rcd13ifvqgig","pricing_plan_id":"cebpf4jnsgd1na2vs0mg"},{"bike_id":"d2c1d47c-b855-441f-803c-abd860de7f62","system_id":"levelo_inurba_marseille","lat":43.28093,"lon":5.39681,"is_reserved":false,"is_disabled":false,"rental_uris":{"android":"levelo://app?vid=d2c1d47c-b855-441f-803c-abd860de7f62","ios":"levelo://app?vid=d2c1d47c-b855-441f-803c-abd860de7f62"},"vehicle_type_id":"4","last_reported":1747249679,"current_range_meters":8400,"station_id":"ce4bho12rcd13ifvqh2g","pricing_plan_id":"cebpf4jnsgd1na2vs0mg"},{"bike_id":"f516bdec-657c-46f1-abec-ebfac75025ea","system_id":"levelo_inurba_marseille","lat":43.22933,"lon":5.35387,"is_reserved":false,"is_disabled":false,"rental_uris":{"android":"levelo://app?vid=f516bdec-657c-46f1-abec-ebfac75025ea","ios":"levelo://app?vid=f516bdec-657c-46f1-abec-ebfac75025ea"},"vehicle_type_id":"4","last_reported":1747249679,"current_range_meters":8400,"station_id":"cpo3532slgdg3j2ikp40","pricing_plan_id":"cebpf4jnsgd1na2vs0mg"},{"bike_id":"1668fff6-b0ac-4bf0-9a6b-0393032efc9f","system_id":"levelo_inurba_marseille","lat":43.2654,"lon":5.39025,"is_reserved":false,"is_disabled":false,"rental_uris":{"android":"levelo://app?vid=1668fff6-b0ac-4bf0-9a6b-0393032efc9f","ios":"levelo://app?vid=1668fff6-b0ac-4bf0-9a6b-0393032efc9f"},"vehicle_type_id":"4","last_reported":1747249679,"current_range_meters":8800,"station_id":"ce4bhe12rcd13ifvqf30","pricing_plan_id":"cebpf4jnsgd1na2vs0mg"},{"bike_id":"1e19cb12-c9bd-4f4b-b2ae-3533dff4a52e","system_id":"levelo_inurba_marseille","lat":43.29431,"lon":5.38622,"is_reserved":false,"is_disabled":false,"rental_uris":{"android":"levelo://app?vid=1e19cb12-c9bd-4f4b-b2ae-3533dff4a52e","ios":"levelo://app?vid=1e19cb12-c9bd-4f4b-b2ae-3533dff4a52e"},"vehicle_type_id":"4","last_reported":1747249679,"current_range_meters":9200,"station_id":"ce4bh2h2rcd13ifvqdh0","pricing_plan_id":"cebpf4jnsgd1na2vs0mg"},{"bike_id":"ecca135e-b998-4673-ab43-fe4f0d7ec9fc","system_id":"levelo_inurba_marseille","lat":43.28448,"lon":5.35908,"is_reserved":false,"is_disabled":false,"rental_uris":{"android":"levelo://app?vid=ecca135e-b998-4673-ab43-fe4f0d7ec9fc","ios":"levelo://app?vid=ecca135e-b998-4673-ab43-fe4f0d7ec9fc"},"vehicle_type_id":"4","last_reported":1747249679,"current_range_meters":9200,"station_id":"ce4bhah2rcd13ifvqei0","pricing_plan_id":"cebpf4jnsgd1na2vs0mg"},{"bike_id":"3743baa4-3115-4b6f-875f-5b6665b39c1b","system_id":"levelo_inurba_marseille","lat":43.2656,"lon":5.39022,"is_reserved":false,"is_disabled":false,"rental_uris":{"android":"levelo://app?vid=3743baa4-3115-4b6f-875f-5b6665b39c1b","ios":"levelo://app?vid=3743baa4-3115-4b6f-875f-5b6665b39c1b"},"vehicle_type_id":"4","last_reported":1747249679,"current_range_meters":9200,"station_id":"ce4bhe12rcd13ifvqf30","pricing_plan_id":"cebpf4jnsgd1na2vs0mg"},{"bike_id":"ddaa0f99-41ff-4bfc-8fbc-0ab556a43c75","system_id":"levelo_inurba_marseille","lat":43.28455,"lon":5.35892,"is_reserved":false,"is_disabled":false,"rental_uris":{"android":"levelo://app?vid=ddaa0f99-41ff-4bfc-8fbc-0ab556a43c75","ios":"levelo://app?vid=ddaa0f99-41ff-4bfc-8fbc-0ab556a43c75"},"vehicle_type_id":"4","last_reported":1747249679,"current_range_meters":9600,"station_id":"ce4bhah2rcd13ifvqei0","pricing_plan_id":"cebpf4jnsgd1na2vs0mg"},{"bike_id":"22df9d24-71cd-493b-bd1b-3e49a1287f80","system_id":"levelo_inurba_marseille","lat":43.286163,"lon":5.351024,"is_reserved":false,"is_disabled":false,"rental_uris":{"android":"levelo://app?vid=22df9d24-71cd-493b-bd1b-3e49a1287f80","ios":"levelo://app?vid=22df9d24-71cd-493b-bd1b-3e49a1287f80"},"vehicle_type_id":"4","last_reported":1747249679,"current_range_meters":9600,"station_id":"ce4bhch2rcd13ifvqeug","pricing_plan_id":"cebpf4jnsgd1na2vs0mg"},{"bike_id":"8b75db3e-29cf-405b-89d6-d057821d94f9","system_id":"levelo_inurba_marseille","lat":43.28609,"lon":5.35106,"is_reserved":false,"is_disabled":false,"rental_uris":{"android":"levelo://app?vid=8b75db3e-29cf-405b-89d6-d057821d94f9","ios":"levelo://app?vid=8b75db3e-29cf-405b-89d6-d057821d94f9"},"vehicle_type_id":"4","last_reported":1747249679,"current_range_meters":9600,"station_id":"ce4bhch2rcd13ifvqeug","pricing_plan_id":"cebpf4jnsgd1na2vs0mg"},{"bike_id":"fa9b6064-d7ee-4e04-97c3-44edb72451c2","system_id":"levelo_inurba_marseille","lat":43.25149,"lon":5.40397,"is_reserved":false,"is_disabled":false,"rental_uris":{"android":"levelo://app?vid=fa9b6064-d7ee-4e04-97c3-44edb72451c2","ios":"levelo://app?vid=fa9b6064-d7ee-4e04-97c3-44edb72451c2"},"vehicle_type_id":"4","last_reported":1747249679,"current_range_meters":9600,"station_id":"ce4bhlh2rcd13ifvqgig","pricing_plan_id":"cebpf4jnsgd1na2vs0mg"},{"bike_id":"7334a686-a803-4359-8857-10dc09939f33","system_id":"levelo_inurba_marseille","lat":43.26233,"lon":5.40465,"is_reserved":false,"is_disabled":false,"rental_uris":{"android":"levelo://app?vid=7334a686-a803-4359-8857-10dc09939f33","ios":"levelo://app?vid=7334a686-a803-4359-8857-10dc09939f33"},"vehicle_type_id":"4","last_reported":1747249679,"current_range_meters":9600,"station_id":"ce4bhmh2rcd13ifvqgmg","pricing_plan_id":"cebpf4jnsgd1na2vs0mg"},{"bike_id":"21f371c1-0746-4b26-9d0c-7d2db01cf7fa","system_id":"levelo_inurba_marseille","lat":43.23177,"lon":5.39989,"is_reserved":false,"is_disabled":false,"rental_uris":{"android":"levelo://app?vid=21f371c1-0746-4b26-9d0c-7d2db01cf7fa","ios":"levelo://app?vid=21f371c1-0746-4b26-9d0c-7d2db01cf7fa"},"vehicle_type_id":"4","last_reported":1747249679,"current_range_meters":9600,"station_id":"ce4bhn12rcd13ifvqgqg","pricing_plan_id":"cebpf4jnsgd1na2vs0mg"},{"bike_id":"3faf053c-e846-4d83-83ee-8fd51efc38bb","system_id":"levelo_inurba_marseille","lat":43.321085,"lon":5.36787,"is_reserved":false,"is_disabled":false,"rental_uris":{"android":"levelo://app?vid=3faf053c-e846-4d83-83ee-8fd51efc38bb","ios":"levelo://app?vid=3faf053c-e846-4d83-83ee-8fd51efc38bb"},"vehicle_type_id":"4","last_reported":1747249679,"current_range_meters":9600,"station_id":"ce4bhrh2rcd13ifvqhug","pricing_plan_id":"cebpf4jnsgd1na2vs0mg"},{"bike_id":"d61d27c0-de07-4389-ab9c-e7bf6b27d363","system_id":"levelo_inurba_marseille","lat":43.29223,"lon":5.36246,"is_reserved":false,"is_disabled":false,"rental_uris":{"android":"levelo://app?vid=d61d27c0-de07-4389-ab9c-e7bf6b27d363","ios":"levelo://app?vid=d61d27c0-de07-4389-ab9c-e7bf6b27d363"},"vehicle_type_id":"4","last_reported":1747249679,"current_range_meters":10000,"station_id":"","pricing_plan_id":"cebpf4jnsgd1na2vs0mg"},{"bike_id":"c12fe749-8569-4196-8168-8d8baf3b0a18","system_id":"levelo_inurba_marseille","lat":43.31499,"lon":5.37306,"is_reserved":false,"is_disabled":false,"rental_uris":{"android":"levelo://app?vid=c12fe749-8569-4196-8168-8d8baf3b0a18","ios":"levelo://app?vid=c12fe749-8569-4196-8168-8d8baf3b0a18"},"vehicle_type_id":"4","last_reported":1747249679,"current_range_meters":10000,"station_id":"ce4bgt12rcd13ifvqcd0","pricing_plan_id":"cebpf4jnsgd1na2vs0mg"},{"bike_id":"c4370c3f-260d-49c5-911d-102d0c3d1da8","system_id":"levelo_inurba_marseille","lat":43.31072,"lon":5.38352,"is_reserved":false,"is_disabled":false,"rental_uris":{"android":"levelo://app?vid=c4370c3f-260d-49c5-911d-102d0c3d1da8","ios":"levelo://app?vid=c4370c3f-260d-49c5-911d-102d0c3d1da8"},"vehicle_type_id":"4","last_reported":1747249679,"current_range_meters":10000,"station_id":"ce4bgv92rcd13ifvqcr0","pricing_plan_id":"cebpf4jnsgd1na2vs0mg"},{"bike_id":"f3619ba7-2b97-45b6-8975-4890133541c7","system_id":"levelo_inurba_marseille","lat":43.30591,"lon":5.3936,"is_reserved":false,"is_disabled":false,"rental_uris":{"android":"levelo://app?vid=f3619ba7-2b97-45b6-8975-4890133541c7","ios":"levelo://app?vid=f3619ba7-2b97-45b6-8975-4890133541c7"},"vehicle_type_id":"4","last_reported":1747249679,"current_range_meters":10000,"station_id":"ce4bh0p2rcd13ifvqd80","pricing_plan_id":"cebpf4jnsgd1na2vs0mg"},{"bike_id":"83a6cc86-621d-4d6b-a60f-872a5c09131b","system_id":"levelo_inurba_marseille","lat":43.2902,"lon":5.38146,"is_reserved":false,"is_disabled":false,"rental_uris":{"android":"levelo://app?vid=83a6cc86-621d-4d6b-a60f-872a5c09131b","ios":"levelo://app?vid=83a6cc86-621d-4d6b-a60f-872a5c09131b"},"vehicle_type_id":"4","last_reported":1747249679,"current_range_meters":10000,"station_id":"ce4bh4p2rcd13ifvqe1g","pricing_plan_id":"cebpf4jnsgd1na2vs0mg"},{"bike_id":"82258d17-2326-4fc9-8e26-2aaa9d0eaf3b","system_id":"levelo_inurba_marseille","lat":43.28412,"lon":5.35001,"is_reserved":false,"is_disabled":false,"rental_uris":{"android":"levelo://app?vid=82258d17-2326-4fc9-8e26-2aaa9d0eaf3b","ios":"levelo://app?vid=82258d17-2326-4fc9-8e26-2aaa9d0eaf3b"},"vehicle_type_id":"4","last_reported":1747249679,"current_range_meters":10000,"station_id":"ce4bhbh2rcd13ifvqepg","pricing_plan_id":"cebpf4jnsgd1na2vs0mg"},{"bike_id":"5a8cfce5-86a3-42d0-8577-b9db1b061200","system_id":"levelo_inurba_marseille","lat":43.2842,"lon":5.34994,"is_reserved":false,"is_disabled":false,"rental_uris":{"android":"levelo://app?vid=5a8cfce5-86a3-42d0-8577-b9db1b061200","ios":"levelo://app?vid=5a8cfce5-86a3-42d0-8577-b9db1b061200"},"vehicle_type_id":"4","last_reported":1747249679,"current_range_meters":10000,"station_id":"ce4bhbh2rcd13ifvqepg","pricing_plan_id":"cebpf4jnsgd1na2vs0mg"},{"bike_id":"c45d7196-c0eb-4a6a-bc6a-877f7a0a00cf","system_id":"levelo_inurba_marseille","lat":43.28415,"lon":5.34981,"is_reserved":false,"is_disabled":false,"rental_uris":{"android":"levelo://app?vid=c45d7196-c0eb-4a6a-bc6a-877f7a0a00cf","ios":"levelo://app?vid=c45d7196-c0eb-4a6a-bc6a-877f7a0a00cf"},"vehicle_type_id":"4","last_reported":1747249679,"current_range_meters":10000,"station_id":"ce4bhbh2rcd13ifvqepg","pricing_plan_id":"cebpf4jnsgd1na2vs0mg"},{"bike_id":"a02fc0ff-4e3d-4e75-9a66-b99c395c819b","system_id":"levelo_inurba_marseille","lat":43.2928,"lon":5.3684,"is_reserved":false,"is_disabled":false,"rental_uris":{"android":"levelo://app?vid=a02fc0ff-4e3d-4e75-9a66-b99c395c819b","ios":"levelo://app?vid=a02fc0ff-4e3d-4e75-9a66-b99c395c819b"},"vehicle_type_id":"4","last_reported":1747249679,"current_range_meters":10000,"station_id":"ce4bhbp2rcd13ifvqesg","pricing_plan_id":"cebpf4jnsgd1na2vs0mg"},{"bike_id":"ebfedfe6-dee9-4129-9a75-1c0038169595","system_id":"levelo_inurba_marseille","lat":43.28621,"lon":5.35098,"is_reserved":false,"is_disabled":false,"rental_uris":{"android":"levelo://app?vid=ebfedfe6-dee9-4129-9a75-1c0038169595","ios":"levelo://app?vid=ebfedfe6-dee9-4129-9a75-1c0038169595"},"vehicle_type_id":"4","last_reported":1747249679,"current_range_meters":10000,"station_id":"ce4bhch2rcd13ifvqeug","pricing_plan_id":"cebpf4jnsgd1na2vs0mg"},{"bike_id":"e90a74cb-ca07-4dd5-a51c-688ee8d22eef","system_id":"levelo_inurba_marseille","lat":43.243886,"lon":5.37061,"is_reserved":false,"is_disabled":false,"rental_uris":{"android":"levelo://app?vid=e90a74cb-ca07-4dd5-a51c-688ee8d22eef","ios":"levelo://app?vid=e90a74cb-ca07-4dd5-a51c-688ee8d22eef"},"vehicle_type_id":"4","last_reported":1747249679,"current_range_meters":10000,"station_id":"ce4bhhh2rcd13ifvqfk0","pricing_plan_id":"cebpf4jnsgd1na2vs0mg"},{"bike_id":"614b7a4c-ac25-4f83-a968-a99bc8185a87","system_id":"levelo_inurba_marseille","lat":43.27173,"lon":5.40996,"is_reserved":false,"is_disabled":false,"rental_uris":{"android":"levelo://app?vid=614b7a4c-ac25-4f83-a968-a99bc8185a87","ios":"levelo://app?vid=614b7a4c-ac25-4f83-a968-a99bc8185a87"},"vehicle_type_id":"4","last_reported":1747249679,"current_range_meters":10000,"station_id":"ce4bhl12rcd13ifvqgf0","pricing_plan_id":"cebpf4jnsgd1na2vs0mg"},{"bike_id":"31d91c88-22a2-4d7a-b03a-10d375fa00b2","system_id":"levelo_inurba_marseille","lat":43.24078,"lon":5.37755,"is_reserved":false,"is_disabled":false,"rental_uris":{"android":"levelo://app?vid=31d91c88-22a2-4d7a-b03a-10d375fa00b2","ios":"levelo://app?vid=31d91c88-22a2-4d7a-b03a-10d375fa00b2"},"vehicle_type_id":"4","last_reported":1747249679,"current_range_meters":10000,"station_id":"ce4bhnp2rcd13ifvqgvg","pricing_plan_id":"cebpf4jnsgd1na2vs0mg"},{"bike_id":"97163a3d-c249-4c8c-ba82-63ec13b44948","system_id":"levelo_inurba_marseille","lat":43.24058,"lon":5.37762,"is_reserved":false,"is_disabled":false,"rental_uris":{"android":"levelo://app?vid=97163a3d-c249-4c8c-ba82-63ec13b44948","ios":"levelo://app?vid=97163a3d-c249-4c8c-ba82-63ec13b44948"},"vehicle_type_id":"4","last_reported":1747249679,"current_range_meters":10000,"station_id":"ce4bhnp2rcd13ifvqgvg","pricing_plan_id":"cebpf4jnsgd1na2vs0mg"},{"bike_id":"e3faef6f-635a-4b6b-b2b3-c0b918604df6","system_id":"levelo_inurba_marseille","lat":43.29927,"lon":5.436648,"is_reserved":false,"is_disabled":false,"rental_uris":{"android":"levelo://app?vid=e3faef6f-635a-4b6b-b2b3-c0b918604df6","ios":"levelo://app?vid=e3faef6f-635a-4b6b-b2b3-c0b918604df6"},"vehicle_type_id":"4","last_reported":1747249679,"current_range_meters":10000,"station_id":"ce4bhpp2rcd13ifvqhfg","pricing_plan_id":"cebpf4jnsgd1na2vs0mg"},{"bike_id":"1372ca4d-11a6-4032-86af-01293ad24125","system_id":"levelo_inurba_marseille","lat":43.31998,"lon":5.38154,"is_reserved":false,"is_disabled":false,"rental_uris":{"android":"levelo://app?vid=1372ca4d-11a6-4032-86af-01293ad24125","ios":"levelo://app?vid=1372ca4d-11a6-4032-86af-01293ad24125"},"vehicle_type_id":"4","last_reported":1747249679,"current_range_meters":10000,"station_id":"ce4bhr12rcd13ifvqhpg","pricing_plan_id":"cebpf4jnsgd1na2vs0mg"},{"bike_id":"6a94c510-06e9-4819-80f4-2a1f66907200","system_id":"levelo_inurba_marseille","lat":43.24332,"lon":5.37996,"is_reserved":false,"is_disabled":false,"rental_uris":{"android":"levelo://app?vid=6a94c510-06e9-4819-80f4-2a1f66907200","ios":"levelo://app?vid=6a94c510-06e9-4819-80f4-2a1f66907200"},"vehicle_type_id":"4","last_reported":1747249679,"current_range_meters":10800,"station_id":"","pricing_plan_id":"cebpf4jnsgd1na2vs0mg"},{"bike_id":"d116b1c8-5500-4ca8-9d15-947f446f13da","system_id":"levelo_inurba_marseille","lat":43.31399,"lon":5.38586,"is_reserved":false,"is_disabled":false,"rental_uris":{"android":"levelo://app?vid=d116b1c8-5500-4ca8-9d15-947f446f13da","ios":"levelo://app?vid=d116b1c8-5500-4ca8-9d15-947f446f13da"},"vehicle_type_id":"4","last_reported":1747249679,"current_range_meters":10800,"station_id":"","pricing_plan_id":"cebpf4jnsgd1na2vs0mg"},{"bike_id":"64fb0fea-fd54-456a-9ac9-17fca6428329","system_id":"levelo_inurba_marseille","lat":43.28979,"lon":5.37838,"is_reserved":false,"is_disabled":false,"rental_uris":{"android":"levelo://app?vid=64fb0fea-fd54-456a-9ac9-17fca6428329","ios":"levelo://app?vid=64fb0fea-fd54-456a-9ac9-17fca6428329"},"vehicle_type_id":"4","last_reported":1747249679,"current_range_meters":10800,"station_id":"ce4bh9p2rcd13ifvqed0","pricing_plan_id":"cebpf4jnsgd1na2vs0mg"},{"bike_id":"f97c1d73-3292-4c23-8dd9-67703dd18af1","system_id":"levelo_inurba_marseille","lat":43.2904,"lon":5.35924,"is_reserved":false,"is_disabled":false,"rental_uris":{"android":"levelo://app?vid=f97c1d73-3292-4c23-8dd9-67703dd18af1","ios":"levelo://app?vid=f97c1d73-3292-4c23-8dd9-67703dd18af1"},"vehicle_type_id":"4","last_reported":1747249679,"current_range_meters":10800,"station_id":"ce4bha92rcd13ifvqeg0","pricing_plan_id":"cebpf4jnsgd1na2vs0mg"},{"bike_id":"86c033af-706e-4069-beba-6756cdd575c0","system_id":"levelo_inurba_marseille","lat":43.2892,"lon":5.36394,"is_reserved":false,"is_disabled":false,"rental_uris":{"android":"levelo://app?vid=86c033af-706e-4069-beba-6756cdd575c0","ios":"levelo://app?vid=86c033af-706e-4069-beba-6756cdd575c0"},"vehicle_type_id":"4","last_reported":1747249679,"current_range_meters":10800,"station_id":"ce4bhc92rcd13ifvqetg","pricing_plan_id":"cebpf4jnsgd1na2vs0mg"},{"bike_id":"0f2b2eed-5fba-4568-970a-e84c70a345f6","system_id":"levelo_inurba_marseille","lat":43.25582,"lon":5.38231,"is_reserved":false,"is_disabled":false,"rental_uris":{"android":"levelo://app?vid=0f2b2eed-5fba-4568-970a-e84c70a345f6","ios":"levelo://app?vid=0f2b2eed-5fba-4568-970a-e84c70a345f6"},"vehicle_type_id":"4","last_reported":1747249679,"current_range_meters":10800,"station_id":"ce4bhih2rcd13ifvqfs0","pricing_plan_id":"cebpf4jnsgd1na2vs0mg"},{"bike_id":"7bd521b5-756d-405c-9438-d2db26f23023","system_id":"levelo_inurba_marseille","lat":43.25115,"lon":5.40315,"is_reserved":false,"is_disabled":false,"rental_uris":{"android":"levelo://app?vid=7bd521b5-756d-405c-9438-d2db26f23023","ios":"levelo://app?vid=7bd521b5-756d-405c-9438-d2db26f23023"},"vehicle_type_id":"4","last_reported":1747249679,"current_range_meters":10800,"station_id":"ce4bhlh2rcd13ifvqgig","pricing_plan_id":"cebpf4jnsgd1na2vs0mg"},{"bike_id":"b66b454e-94a3-4ad2-8cbe-795ac765acdd","system_id":"levelo_inurba_marseille","lat":43.323689,"lon":5.388952,"is_reserved":false,"is_disabled":false,"rental_uris":{"android":"levelo://app?vid=b66b454e-94a3-4ad2-8cbe-795ac765acdd","ios":"levelo://app?vid=b66b454e-94a3-4ad2-8cbe-795ac765acdd"},"vehicle_type_id":"4","last_reported":1747249679,"current_range_meters":10800,"station_id":"ce4bhqp2rcd13ifvqhog","pricing_plan_id":"cebpf4jnsgd1na2vs0mg"},{"bike_id":"d3c3d8fd-847e-486d-b4bb-d549572408c2","system_id":"levelo_inurba_marseille","lat":43.29242,"lon":5.36386,"is_reserved":false,"is_disabled":false,"rental_uris":{"android":"levelo://app?vid=d3c3d8fd-847e-486d-b4bb-d549572408c2","ios":"levelo://app?vid=d3c3d8fd-847e-486d-b4bb-d549572408c2"},"vehicle_type_id":"4","last_reported":1747249679,"current_range_meters":11200,"station_id":"","pricing_plan_id":"cebpf4jnsgd1na2vs0mg"},{"bike_id":"52b6a0e7-2574-4c51-a372-de1c0113bdf3","system_id":"levelo_inurba_marseille","lat":43.27373,"lon":5.36264,"is_reserved":false,"is_disabled":false,"rental_uris":{"android":"levelo://app?vid=52b6a0e7-2574-4c51-a372-de1c0113bdf3","ios":"levelo://app?vid=52b6a0e7-2574-4c51-a372-de1c0113bdf3"},"vehicle_type_id":"4","last_reported":1747249679,"current_range_meters":11200,"station_id":"ce4bhbh2rcd13ifvqeo0","pricing_plan_id":"cebpf4jnsgd1na2vs0mg"},{"bike_id":"5a397cf7-65bf-4a3f-9658-6e7414774df2","system_id":"levelo_inurba_marseille","lat":43.27383,"lon":5.36255,"is_reserved":false,"is_disabled":false,"rental_uris":{"android":"levelo://app?vid=5a397cf7-65bf-4a3f-9658-6e7414774df2","ios":"levelo://app?vid=5a397cf7-65bf-4a3f-9658-6e7414774df2"},"vehicle_type_id":"4","last_reported":1747249679,"current_range_meters":11200,"station_id":"ce4bhbh2rcd13ifvqeo0","pricing_plan_id":"cebpf4jnsgd1na2vs0mg"},{"bike_id":"e678ceba-753e-4f08-a88f-299142192130","system_id":"levelo_inurba_marseille","lat":43.248,"lon":5.37455,"is_reserved":false,"is_disabled":false,"rental_uris":{"android":"levelo://app?vid=e678ceba-753e-4f08-a88f-299142192130","ios":"levelo://app?vid=e678ceba-753e-4f08-a88f-299142192130"},"vehicle_type_id":"4","last_reported":1747249679,"current_range_meters":11200,"station_id":"ce4bhgh2rcd13ifvqfb0","pricing_plan_id":"cebpf4jnsgd1na2vs0mg"},{"bike_id":"0879c7af-989f-4e68-9fd6-d134be2b3e7f","system_id":"levelo_inurba_marseille","lat":43.2589,"lon":5.40849,"is_reserved":false,"is_disabled":false,"rental_uris":{"android":"levelo://app?vid=0879c7af-989f-4e68-9fd6-d134be2b3e7f","ios":"levelo://app?vid=0879c7af-989f-4e68-9fd6-d134be2b3e7f"},"vehicle_type_id":"4","last_reported":1747249679,"current_range_meters":11200,"station_id":"ce4bhm92rcd13ifvqglg","pricing_plan_id":"cebpf4jnsgd1na2vs0mg"},{"bike_id":"3bb01f8f-50f7-474f-883f-948400a36ea5","system_id":"levelo_inurba_marseille","lat":43.32598,"lon":5.43041,"is_reserved":false,"is_disabled":false,"rental_uris":{"android":"levelo://app?vid=3bb01f8f-50f7-474f-883f-948400a36ea5","ios":"levelo://app?vid=3bb01f8f-50f7-474f-883f-948400a36ea5"},"vehicle_type_id":"4","last_reported":1747249679,"current_range_meters":11600,"station_id":"","pricing_plan_id":"cebpf4jnsgd1na2vs0mg"},{"bike_id":"3253633f-1eff-46f8-b659-1eb3cc99745f","system_id":"levelo_inurba_marseille","lat":43.28419,"lon":5.34992,"is_reserved":false,"is_disabled":false,"rental_uris":{"android":"levelo://app?vid=3253633f-1eff-46f8-b659-1eb3cc99745f","ios":"levelo://app?vid=3253633f-1eff-46f8-b659-1eb3cc99745f"},"vehicle_type_id":"4","last_reported":1747249679,"current_range_meters":11600,"station_id":"ce4bhbh2rcd13ifvqepg","pricing_plan_id":"cebpf4jnsgd1na2vs0mg"},{"bike_id":"67323d6f-fcac-4514-9363-d27a08855f07","system_id":"levelo_inurba_marseille","lat":43.28618,"lon":5.351,"is_reserved":false,"is_disabled":false,"rental_uris":{"android":"levelo://app?vid=67323d6f-fcac-4514-9363-d27a08855f07","ios":"levelo://app?vid=67323d6f-fcac-4514-9363-d27a08855f07"},"vehicle_type_id":"4","last_reported":1747249679,"current_range_meters":11600,"station_id":"ce4bhch2rcd13ifvqeug","pricing_plan_id":"cebpf4jnsgd1na2vs0mg"},{"bike_id":"03dee313-c361-4419-9adb-f1e59dff4939","system_id":"levelo_inurba_marseille","lat":43.23167,"lon":5.39992,"is_reserved":false,"is_disabled":false,"rental_uris":{"android":"levelo://app?vid=03dee313-c361-4419-9adb-f1e59dff4939","ios":"levelo://app?vid=03dee313-c361-4419-9adb-f1e59dff4939"},"vehicle_type_id":"4","last_reported":1747249679,"current_range_meters":11600,"station_id":"ce4bhn12rcd13ifvqgqg","pricing_plan_id":"cebpf4jnsgd1na2vs0mg"},{"bike_id":"17afb980-ae3b-41da-9902-685bec908861","system_id":"levelo_inurba_marseille","lat":43.32352,"lon":5.38912,"is_reserved":false,"is_disabled":false,"rental_uris":{"android":"levelo://app?vid=17afb980-ae3b-41da-9902-685bec908861","ios":"levelo://app?vid=17afb980-ae3b-41da-9902-685bec908861"},"vehicle_type_id":"4","last_reported":1747249679,"current_range_meters":11600,"station_id":"ce4bhqp2rcd13ifvqhog","pricing_plan_id":"cebpf4jnsgd1na2vs0mg"},{"bike_id":"4d83a49d-a4f7-4140-bff3-bb3633e6dccc","system_id":"levelo_inurba_marseille","lat":43.32381,"lon":5.38881,"is_reserved":false,"is_disabled":false,"rental_uris":{"android":"levelo://app?vid=4d83a49d-a4f7-4140-bff3-bb3633e6dccc","ios":"levelo://app?vid=4d83a49d-a4f7-4140-bff3-bb3633e6dccc"},"vehicle_type_id":"4","last_reported":1747249679,"current_range_meters":11600,"station_id":"ce4bhqp2rcd13ifvqhog","pricing_plan_id":"cebpf4jnsgd1na2vs0mg"},{"bike_id":"7322fe79-957b-496e-84b5-5ed8f35fc367","system_id":"levelo_inurba_marseille","lat":43.29669,"lon":5.36543,"is_reserved":false,"is_disabled":false,"rental_uris":{"android":"levelo://app?vid=7322fe79-957b-496e-84b5-5ed8f35fc367","ios":"levelo://app?vid=7322fe79-957b-496e-84b5-5ed8f35fc367"},"vehicle_type_id":"4","last_reported":1747249679,"current_range_meters":12000,"station_id":"ce4bgn12rcd13ifvqbt0","pricing_plan_id":"cebpf4jnsgd1na2vs0mg"},{"bike_id":"2560ced1-3aa0-4b19-b9ca-c868822cb11c","system_id":"levelo_inurba_marseille","lat":43.31324,"lon":5.3969,"is_reserved":false,"is_disabled":false,"rental_uris":{"android":"levelo://app?vid=2560ced1-3aa0-4b19-b9ca-c868822cb11c","ios":"levelo://app?vid=2560ced1-3aa0-4b19-b9ca-c868822cb11c"},"vehicle_type_id":"4","last_reported":1747249679,"current_range_meters":12000,"station_id":"ce4bgvp2rcd13ifvqcu0","pricing_plan_id":"cebpf4jnsgd1na2vs0mg"},{"bike_id":"f8200506-f822-47c0-b993-0fb7d37330de","system_id":"levelo_inurba_marseille","lat":43.24803,"lon":5.37454,"is_reserved":false,"is_disabled":false,"rental_uris":{"android":"levelo://app?vid=f8200506-f822-47c0-b993-0fb7d37330de","ios":"levelo://app?vid=f8200506-f822-47c0-b993-0fb7d37330de"},"vehicle_type_id":"4","last_reported":1747249679,"current_range_meters":12000,"station_id":"ce4bhgh2rcd13ifvqfb0","pricing_plan_id":"cebpf4jnsgd1na2vs0mg"},{"bike_id":"d4abc0f4-75e6-4c24-ab00-0660a88a0c8c","system_id":"levelo_inurba_marseille","lat":43.25115,"lon":5.40316,"is_reserved":false,"is_disabled":false,"rental_uris":{"android":"levelo://app?vid=d4abc0f4-75e6-4c24-ab00-0660a88a0c8c","ios":"levelo://app?vid=d4abc0f4-75e6-4c24-ab00-0660a88a0c8c"},"vehicle_type_id":"4","last_reported":1747249679,"current_range_meters":12000,"station_id":"ce4bhlh2rcd13ifvqgig","pricing_plan_id":"cebpf4jnsgd1na2vs0mg"},{"bike_id":"793ac350-3651-4f6c-8437-efb52dfb2f81","system_id":"levelo_inurba_marseille","lat":43.31487,"lon":5.37301,"is_reserved":false,"is_disabled":false,"rental_uris":{"android":"levelo://app?vid=793ac350-3651-4f6c-8437-efb52dfb2f81","ios":"levelo://app?vid=793ac350-3651-4f6c-8437-efb52dfb2f81"},"vehicle_type_id":"4","last_reported":1747249679,"current_range_meters":12400,"station_id":"ce4bgt12rcd13ifvqcd0","pricing_plan_id":"cebpf4jnsgd1na2vs0mg"},{"bike_id":"778d6a9a-4fdb-433e-bba7-ee97ffe2a3ab","system_id":"levelo_inurba_marseille","lat":43.29068,"lon":5.37165,"is_reserved":false,"is_disabled":false,"rental_uris":{"android":"levelo://app?vid=778d6a9a-4fdb-433e-bba7-ee97ffe2a3ab","ios":"levelo://app?vid=778d6a9a-4fdb-433e-bba7-ee97ffe2a3ab"},"vehicle_type_id":"4","last_reported":1747249679,"current_range_meters":12400,"station_id":"ce4bh5p2rcd13ifvqe4g","pricing_plan_id":"cebpf4jnsgd1na2vs0mg"},{"bike_id":"ee613623-31e1-44c0-961e-7df0445326d3","system_id":"levelo_inurba_marseille","lat":43.28462,"lon":5.3588,"is_reserved":false,"is_disabled":false,"rental_uris":{"android":"levelo://app?vid=ee613623-31e1-44c0-961e-7df0445326d3","ios":"levelo://app?vid=ee613623-31e1-44c0-961e-7df0445326d3"},"vehicle_type_id":"4","last_reported":1747249679,"current_range_meters":12400,"station_id":"ce4bhah2rcd13ifvqei0","pricing_plan_id":"cebpf4jnsgd1na2vs0mg"},{"bike_id":"cf0fd6e4-1e61-411c-9c15-00d77f918f1d","system_id":"levelo_inurba_marseille","lat":43.26196,"lon":5.37934,"is_reserved":false,"is_disabled":false,"rental_uris":{"android":"levelo://app?vid=cf0fd6e4-1e61-411c-9c15-00d77f918f1d","ios":"levelo://app?vid=cf0fd6e4-1e61-411c-9c15-00d77f918f1d"},"vehicle_type_id":"4","last_reported":1747249679,"current_range_meters":12400,"station_id":"ce4bhjp2rcd13ifvqg90","pricing_plan_id":"cebpf4jnsgd1na2vs0mg"},{"bike_id":"e4b3229f-c99e-4082-a51f-99cbcc0ea895","system_id":"levelo_inurba_marseille","lat":43.27487,"lon":5.42448,"is_reserved":false,"is_disabled":false,"rental_uris":{"android":"levelo://app?vid=e4b3229f-c99e-4082-a51f-99cbcc0ea895","ios":"levelo://app?vid=e4b3229f-c99e-4082-a51f-99cbcc0ea895"},"vehicle_type_id":"4","last_reported":1747249679,"current_range_meters":12400,"station_id":"ce4bhn92rcd13ifvqgrg","pricing_plan_id":"cebpf4jnsgd1na2vs0mg"},{"bike_id":"2a4dcb89-c0ba-4c27-8318-f99cc92166a7","system_id":"levelo_inurba_marseille","lat":43.295637,"lon":5.422932,"is_reserved":false,"is_disabled":false,"rental_uris":{"android":"levelo://app?vid=2a4dcb89-c0ba-4c27-8318-f99cc92166a7","ios":"levelo://app?vid=2a4dcb89-c0ba-4c27-8318-f99cc92166a7"},"vehicle_type_id":"4","last_reported":1747249679,"current_range_meters":12800,"station_id":"ce4bhgp2rcd13ifvqfc0","pricing_plan_id":"cebpf4jnsgd1na2vs0mg"},{"bike_id":"727bd1ca-abe8-4eca-a8da-422f4f0fe12c","system_id":"levelo_inurba_marseille","lat":43.27662,"lon":5.38926,"is_reserved":false,"is_disabled":false,"rental_uris":{"android":"levelo://app?vid=727bd1ca-abe8-4eca-a8da-422f4f0fe12c","ios":"levelo://app?vid=727bd1ca-abe8-4eca-a8da-422f4f0fe12c"},"vehicle_type_id":"4","last_reported":1747249679,"current_range_meters":12800,"station_id":"ce4bhi12rcd13ifvqfo0","pricing_plan_id":"cebpf4jnsgd1na2vs0mg"},{"bike_id":"4a1605c8-9596-4ecb-94b7-2b583c66ecdd","system_id":"levelo_inurba_marseille","lat":43.246623,"lon":5.38166,"is_reserved":false,"is_disabled":false,"rental_uris":{"android":"levelo://app?vid=4a1605c8-9596-4ecb-94b7-2b583c66ecdd","ios":"levelo://app?vid=4a1605c8-9596-4ecb-94b7-2b583c66ecdd"},"vehicle_type_id":"4","last_reported":1747249679,"current_range_meters":12800,"station_id":"ce4bhih2rcd13ifvqfr0","pricing_plan_id":"cebpf4jnsgd1na2vs0mg"},{"bike_id":"17d57f58-ffb0-4d77-bbe5-7f462887ac74","system_id":"levelo_inurba_marseille","lat":43.24197,"lon":5.39699,"is_reserved":false,"is_disabled":false,"rental_uris":{"android":"levelo://app?vid=17d57f58-ffb0-4d77-bbe5-7f462887ac74","ios":"levelo://app?vid=17d57f58-ffb0-4d77-bbe5-7f462887ac74"},"vehicle_type_id":"4","last_reported":1747249679,"current_range_meters":12800,"station_id":"ce4bhn12rcd13ifvqgpg","pricing_plan_id":"cebpf4jnsgd1na2vs0mg"},{"bike_id":"32122cc2-1955-4fa7-b923-e772e4a9638a","system_id":"levelo_inurba_marseille","lat":43.29555,"lon":5.42293,"is_reserved":false,"is_disabled":false,"rental_uris":{"android":"levelo://app?vid=32122cc2-1955-4fa7-b923-e772e4a9638a","ios":"levelo://app?vid=32122cc2-1955-4fa7-b923-e772e4a9638a"},"vehicle_type_id":"4","last_reported":1747249679,"current_range_meters":12800,"station_id":"ce4bhph2rcd13ifvqhdg","pricing_plan_id":"cebpf4jnsgd1na2vs0mg"},{"bike_id":"d7050558-65ac-4a68-a76c-6a37942a4b17","system_id":"levelo_inurba_marseille","lat":43.30431,"lon":5.38895,"is_reserved":false,"is_disabled":false,"rental_uris":{"android":"levelo://app?vid=d7050558-65ac-4a68-a76c-6a37942a4b17","ios":"levelo://app?vid=d7050558-65ac-4a68-a76c-6a37942a4b17"},"vehicle_type_id":"4","last_reported":1747249679,"current_range_meters":13600,"station_id":"ce4bgk12rcd13ifvqbi0","pricing_plan_id":"cebpf4jnsgd1na2vs0mg"},{"bike_id":"5293d4aa-0549-458e-ad35-9aeeb53bca11","system_id":"levelo_inurba_marseille","lat":43.29195,"lon":5.39318,"is_reserved":false,"is_disabled":false,"rental_uris":{"android":"levelo://app?vid=5293d4aa-0549-458e-ad35-9aeeb53bca11","ios":"levelo://app?vid=5293d4aa-0549-458e-ad35-9aeeb53bca11"},"vehicle_type_id":"4","last_reported":1747249679,"current_range_meters":13600,"station_id":"ce4bh192rcd13ifvqdd0","pricing_plan_id":"cebpf4jnsgd1na2vs0mg"},{"bike_id":"5abc2be0-fe06-42cb-b7be-f3234fd7c9b6","system_id":"levelo_inurba_marseille","lat":43.28402,"lon":5.3751,"is_reserved":false,"is_disabled":false,"rental_uris":{"android":"levelo://app?vid=5abc2be0-fe06-42cb-b7be-f3234fd7c9b6","ios":"levelo://app?vid=5abc2be0-fe06-42cb-b7be-f3234fd7c9b6"},"vehicle_type_id":"4","last_reported":1747249679,"current_range_meters":13600,"station_id":"ce4bh412rcd13ifvqds0","pricing_plan_id":"cebpf4jnsgd1na2vs0mg"},{"bike_id":"cb449aeb-63bf-4e11-a01d-928c7eea1054","system_id":"levelo_inurba_marseille","lat":43.28606,"lon":5.35103,"is_reserved":false,"is_disabled":false,"rental_uris":{"android":"levelo://app?vid=cb449aeb-63bf-4e11-a01d-928c7eea1054","ios":"levelo://app?vid=cb449aeb-63bf-4e11-a01d-928c7eea1054"},"vehicle_type_id":"4","last_reported":1747249679,"current_range_meters":13600,"station_id":"ce4bhch2rcd13ifvqeug","pricing_plan_id":"cebpf4jnsgd1na2vs0mg"},{"bike_id":"e1da3f3f-564b-4f2e-bcca-116efc451f83","system_id":"levelo_inurba_marseille","lat":43.24822,"lon":5.37448,"is_reserved":false,"is_disabled":false,"rental_uris":{"android":"levelo://app?vid=e1da3f3f-564b-4f2e-bcca-116efc451f83","ios":"levelo://app?vid=e1da3f3f-564b-4f2e-bcca-116efc451f83"},"vehicle_type_id":"4","last_reported":1747249679,"current_range_meters":13600,"station_id":"ce4bhgh2rcd13ifvqfb0","pricing_plan_id":"cebpf4jnsgd1na2vs0mg"},{"bike_id":"83c9ad85-31b5-4f18-a8e5-10e0ecbf0d4d","system_id":"levelo_inurba_marseille","lat":43.24823,"lon":5.37452,"is_reserved":false,"is_disabled":false,"rental_uris":{"android":"levelo://app?vid=83c9ad85-31b5-4f18-a8e5-10e0ecbf0d4d","ios":"levelo://app?vid=83c9ad85-31b5-4f18-a8e5-10e0ecbf0d4d"},"vehicle_type_id":"4","last_reported":1747249679,"current_range_meters":13600,"station_id":"ce4bhgh2rcd13ifvqfb0","pricing_plan_id":"cebpf4jnsgd1na2vs0mg"},{"bike_id":"97b73c11-1cd2-4324-91c0-11c754c5a1b4","system_id":"levelo_inurba_marseille","lat":43.27061,"lon":5.40261,"is_reserved":false,"is_disabled":false,"rental_uris":{"android":"levelo://app?vid=97b73c11-1cd2-4324-91c0-11c754c5a1b4","ios":"levelo://app?vid=97b73c11-1cd2-4324-91c0-11c754c5a1b4"},"vehicle_type_id":"4","last_reported":1747249679,"current_range_meters":13600,"station_id":"ce4bhk92rcd13ifvqgc0","pricing_plan_id":"cebpf4jnsgd1na2vs0mg"},{"bike_id":"cff07eda-0d35-48d7-ae3d-eafcd93e64af","system_id":"levelo_inurba_marseille","lat":43.3175,"lon":5.390201,"is_reserved":false,"is_disabled":false,"rental_uris":{"android":"levelo://app?vid=cff07eda-0d35-48d7-ae3d-eafcd93e64af","ios":"levelo://app?vid=cff07eda-0d35-48d7-ae3d-eafcd93e64af"},"vehicle_type_id":"4","last_reported":1747249679,"current_range_meters":14000,"station_id":"","pricing_plan_id":"cebpf4jnsgd1na2vs0mg"},{"bike_id":"66234066-b2ab-4bcb-8bce-6f0573c61ac0","system_id":"levelo_inurba_marseille","lat":43.31111,"lon":5.37786,"is_reserved":false,"is_disabled":false,"rental_uris":{"android":"levelo://app?vid=66234066-b2ab-4bcb-8bce-6f0573c61ac0","ios":"levelo://app?vid=66234066-b2ab-4bcb-8bce-6f0573c61ac0"},"vehicle_type_id":"4","last_reported":1747249679,"current_range_meters":14000,"station_id":"ce4bgt92rcd13ifvqcg0","pricing_plan_id":"cebpf4jnsgd1na2vs0mg"},{"bike_id":"6c82e120-2d59-4e09-a0c5-262fa3670a6a","system_id":"levelo_inurba_marseille","lat":43.278076,"lon":5.354961,"is_reserved":false,"is_disabled":false,"rental_uris":{"android":"levelo://app?vid=6c82e120-2d59-4e09-a0c5-262fa3670a6a","ios":"levelo://app?vid=6c82e120-2d59-4e09-a0c5-262fa3670a6a"},"vehicle_type_id":"4","last_reported":1747249679,"current_range_meters":14000,"station_id":"ce4bh0p2rcd13ifvqd70","pricing_plan_id":"cebpf4jnsgd1na2vs0mg"},{"bike_id":"2edaef87-225f-46cb-8b2a-dff5bdeda8f7","system_id":"levelo_inurba_marseille","lat":43.289459,"lon":5.363876,"is_reserved":false,"is_disabled":false,"rental_uris":{"android":"levelo://app?vid=2edaef87-225f-46cb-8b2a-dff5bdeda8f7","ios":"levelo://app?vid=2edaef87-225f-46cb-8b2a-dff5bdeda8f7"},"vehicle_type_id":"4","last_reported":1747249679,"current_range_meters":14000,"station_id":"ce4bhc92rcd13ifvqetg","pricing_plan_id":"cebpf4jnsgd1na2vs0mg"},{"bike_id":"58597414-1ea1-440b-849e-e93a532dadef","system_id":"levelo_inurba_marseille","lat":43.24549,"lon":5.39523,"is_reserved":false,"is_disabled":false,"rental_uris":{"android":"levelo://app?vid=58597414-1ea1-440b-849e-e93a532dadef","ios":"levelo://app?vid=58597414-1ea1-440b-849e-e93a532dadef"},"vehicle_type_id":"4","last_reported":1747249679,"current_range_meters":14000,"station_id":"ce4bhlp2rcd13ifvqgjg","pricing_plan_id":"cebpf4jnsgd1na2vs0mg"},{"bike_id":"251e065c-d743-4244-8459-843930713d33","system_id":"levelo_inurba_marseille","lat":43.24821,"lon":5.37443,"is_reserved":false,"is_disabled":false,"rental_uris":{"android":"levelo://app?vid=251e065c-d743-4244-8459-843930713d33","ios":"levelo://app?vid=251e065c-d743-4244-8459-843930713d33"},"vehicle_type_id":"4","last_reported":1747249679,"current_range_meters":14400,"station_id":"ce4bhgh2rcd13ifvqfb0","pricing_plan_id":"cebpf4jnsgd1na2vs0mg"},{"bike_id":"f2fa3917-52e2-462b-8250-01097feb44e5","system_id":"levelo_inurba_marseille","lat":43.24195,"lon":5.39732,"is_reserved":false,"is_disabled":false,"rental_uris":{"android":"levelo://app?vid=f2fa3917-52e2-462b-8250-01097feb44e5","ios":"levelo://app?vid=f2fa3917-52e2-462b-8250-01097feb44e5"},"vehicle_type_id":"4","last_reported":1747249679,"current_range_meters":14400,"station_id":"ce4bhn12rcd13ifvqgpg","pricing_plan_id":"cebpf4jnsgd1na2vs0mg"},{"bike_id":"c89c9448-d3db-479d-8e88-5e8139ae844f","system_id":"levelo_inurba_marseille","lat":43.29298,"lon":5.37469,"is_reserved":false,"is_disabled":false,"rental_uris":{"android":"levelo://app?vid=c89c9448-d3db-479d-8e88-5e8139ae844f","ios":"levelo://app?vid=c89c9448-d3db-479d-8e88-5e8139ae844f"},"vehicle_type_id":"4","last_reported":1747249679,"current_range_meters":14800,"station_id":"ce4bgi12rcd13ifvqb70","pricing_plan_id":"cebpf4jnsgd1na2vs0mg"},{"bike_id":"426dbe77-0120-4f1b-8d4c-f16f4b200948","system_id":"levelo_inurba_marseille","lat":43.29526,"lon":5.38527,"is_reserved":false,"is_disabled":false,"rental_uris":{"android":"levelo://app?vid=426dbe77-0120-4f1b-8d4c-f16f4b200948","ios":"levelo://app?vid=426dbe77-0120-4f1b-8d4c-f16f4b200948"},"vehicle_type_id":"4","last_reported":1747249679,"current_range_meters":14800,"station_id":"ce4bgih2rcd13ifvqba0","pricing_plan_id":"cebpf4jnsgd1na2vs0mg"},{"bike_id":"c3957783-23c2-4225-8ba8-45d25bf9f611","system_id":"levelo_inurba_marseille","lat":43.28254,"lon":5.35084,"is_reserved":false,"is_disabled":false,"rental_uris":{"android":"levelo://app?vid=c3957783-23c2-4225-8ba8-45d25bf9f611","ios":"levelo://app?vid=c3957783-23c2-4225-8ba8-45d25bf9f611"},"vehicle_type_id":"4","last_reported":1747249679,"current_range_meters":14800,"station_id":"ce4bhbp2rcd13ifvqerg","pricing_plan_id":"cebpf4jnsgd1na2vs0mg"},{"bike_id":"3ac3022a-ef99-4f01-9983-a76b5925bb2b","system_id":"levelo_inurba_marseille","lat":43.26679,"lon":5.38268,"is_reserved":false,"is_disabled":false,"rental_uris":{"android":"levelo://app?vid=3ac3022a-ef99-4f01-9983-a76b5925bb2b","ios":"levelo://app?vid=3ac3022a-ef99-4f01-9983-a76b5925bb2b"},"vehicle_type_id":"4","last_reported":1747249679,"current_range_meters":14800,"station_id":"ce4bhg92rcd13ifvqf90","pricing_plan_id":"cebpf4jnsgd1na2vs0mg"},{"bike_id":"8c7308bf-84fd-4edb-9b86-07fbeaf5e51b","system_id":"levelo_inurba_marseille","lat":43.31717,"lon":5.42403,"is_reserved":false,"is_disabled":false,"rental_uris":{"android":"levelo://app?vid=8c7308bf-84fd-4edb-9b86-07fbeaf5e51b","ios":"levelo://app?vid=8c7308bf-84fd-4edb-9b86-07fbeaf5e51b"},"vehicle_type_id":"4","last_reported":1747249679,"current_range_meters":14800,"station_id":"ce4bhp92rcd13ifvqhbg","pricing_plan_id":"cebpf4jnsgd1na2vs0mg"},{"bike_id":"cf04a449-8245-40e5-866f-abb00b28cc6f","system_id":"levelo_inurba_marseille","lat":43.2293,"lon":5.3538,"is_reserved":false,"is_disabled":false,"rental_uris":{"android":"levelo://app?vid=cf04a449-8245-40e5-866f-abb00b28cc6f","ios":"levelo://app?vid=cf04a449-8245-40e5-866f-abb00b28cc6f"},"vehicle_type_id":"4","last_reported":1747249679,"current_range_meters":14800,"station_id":"cpo3532slgdg3j2ikp40","pricing_plan_id":"cebpf4jnsgd1na2vs0mg"},{"bike_id":"9f68f46a-7224-4b67-a96e-400f99b074a9","system_id":"levelo_inurba_marseille","lat":43.30274,"lon":5.37697,"is_reserved":false,"is_disabled":false,"rental_uris":{"android":"levelo://app?vid=9f68f46a-7224-4b67-a96e-400f99b074a9","ios":"levelo://app?vid=9f68f46a-7224-4b67-a96e-400f99b074a9"},"vehicle_type_id":"4","last_reported":1747249679,"current_range_meters":15200,"station_id":"ce4bguh2rcd13ifvqcj0","pricing_plan_id":"cebpf4jnsgd1na2vs0mg"},{"bike_id":"6dce2f39-68e5-4497-8a9c-1a21098860ab","system_id":"levelo_inurba_marseille","lat":43.31162,"lon":5.3873,"is_reserved":false,"is_disabled":false,"rental_uris":{"android":"levelo://app?vid=6dce2f39-68e5-4497-8a9c-1a21098860ab","ios":"levelo://app?vid=6dce2f39-68e5-4497-8a9c-1a21098860ab"},"vehicle_type_id":"4","last_reported":1747249679,"current_range_meters":15200,"station_id":"ce4bgv12rcd13ifvqcp0","pricing_plan_id":"cebpf4jnsgd1na2vs0mg"},{"bike_id":"7abf91aa-6928-4fb5-870a-8d0845adf5cb","system_id":"levelo_inurba_marseille","lat":43.30882,"lon":5.39627,"is_reserved":false,"is_disabled":false,"rental_uris":{"android":"levelo://app?vid=7abf91aa-6928-4fb5-870a-8d0845adf5cb","ios":"levelo://app?vid=7abf91aa-6928-4fb5-870a-8d0845adf5cb"},"vehicle_type_id":"4","last_reported":1747249679,"current_range_meters":16000,"station_id":"ce4bh012rcd13ifvqcv0","pricing_plan_id":"cebpf4jnsgd1na2vs0mg"},{"bike_id":"028f0675-b235-4f15-9ed8-5c12b8737bb9","system_id":"levelo_inurba_marseille","lat":43.29424,"lon":5.38624,"is_reserved":false,"is_disabled":false,"rental_uris":{"android":"levelo://app?vid=028f0675-b235-4f15-9ed8-5c12b8737bb9","ios":"levelo://app?vid=028f0675-b235-4f15-9ed8-5c12b8737bb9"},"vehicle_type_id":"4","last_reported":1747249679,"current_range_meters":16000,"station_id":"ce4bh2h2rcd13ifvqdh0","pricing_plan_id":"cebpf4jnsgd1na2vs0mg"},{"bike_id":"1726a8e6-6c6e-4ddb-a69e-fc15b4e0400f","system_id":"levelo_inurba_marseille","lat":43.2737,"lon":5.36251,"is_reserved":false,"is_disabled":false,"rental_uris":{"android":"levelo://app?vid=1726a8e6-6c6e-4ddb-a69e-fc15b4e0400f","ios":"levelo://app?vid=1726a8e6-6c6e-4ddb-a69e-fc15b4e0400f"},"vehicle_type_id":"4","last_reported":1747249679,"current_range_meters":16000,"station_id":"ce4bhbh2rcd13ifvqeo0","pricing_plan_id":"cebpf4jnsgd1na2vs0mg"},{"bike_id":"c45983a3-ad0d-4811-86e5-351b83680efc","system_id":"levelo_inurba_marseille","lat":43.24806,"lon":5.37461,"is_reserved":false,"is_disabled":false,"rental_uris":{"android":"levelo://app?vid=c45983a3-ad0d-4811-86e5-351b83680efc","ios":"levelo://app?vid=c45983a3-ad0d-4811-86e5-351b83680efc"},"vehicle_type_id":"4","last_reported":1747249679,"current_range_meters":16000,"station_id":"ce4bhgh2rcd13ifvqfb0","pricing_plan_id":"cebpf4jnsgd1na2vs0mg"},{"bike_id":"94425245-09df-4108-9a30-610dbcaf2585","system_id":"levelo_inurba_marseille","lat":43.31721,"lon":5.42403,"is_reserved":false,"is_disabled":false,"rental_uris":{"android":"levelo://app?vid=94425245-09df-4108-9a30-610dbcaf2585","ios":"levelo://app?vid=94425245-09df-4108-9a30-610dbcaf2585"},"vehicle_type_id":"4","last_reported":1747249679,"current_range_meters":16000,"station_id":"ce4bhp92rcd13ifvqhbg","pricing_plan_id":"cebpf4jnsgd1na2vs0mg"},{"bike_id":"af40c955-e94a-48fe-9c92-ea659136a3bb","system_id":"levelo_inurba_marseille","lat":43.30268,"lon":5.40052,"is_reserved":false,"is_disabled":false,"rental_uris":{"android":"levelo://app?vid=af40c955-e94a-48fe-9c92-ea659136a3bb","ios":"levelo://app?vid=af40c955-e94a-48fe-9c92-ea659136a3bb"},"vehicle_type_id":"4","last_reported":1747249679,"current_range_meters":16400,"station_id":"ce4bgvh2rcd13ifvqcs0","pricing_plan_id":"cebpf4jnsgd1na2vs0mg"},{"bike_id":"4d3095d3-cd16-497e-9592-0a3b02ba85dc","system_id":"levelo_inurba_marseille","lat":43.30938,"lon":5.40143,"is_reserved":false,"is_disabled":false,"rental_uris":{"android":"levelo://app?vid=4d3095d3-cd16-497e-9592-0a3b02ba85dc","ios":"levelo://app?vid=4d3095d3-cd16-497e-9592-0a3b02ba85dc"},"vehicle_type_id":"4","last_reported":1747249679,"current_range_meters":16400,"station_id":"ce4bgvp2rcd13ifvqct0","pricing_plan_id":"cebpf4jnsgd1na2vs0mg"},{"bike_id":"1608f3fd-ba57-4d2d-a6dc-e843f320bc0f","system_id":"levelo_inurba_marseille","lat":43.28403,"lon":5.34979,"is_reserved":false,"is_disabled":false,"rental_uris":{"android":"levelo://app?vid=1608f3fd-ba57-4d2d-a6dc-e843f320bc0f","ios":"levelo://app?vid=1608f3fd-ba57-4d2d-a6dc-e843f320bc0f"},"vehicle_type_id":"4","last_reported":1747249679,"current_range_meters":16400,"station_id":"ce4bhbh2rcd13ifvqepg","pricing_plan_id":"cebpf4jnsgd1na2vs0mg"},{"bike_id":"77a29338-5556-4205-9db9-a624ab9d00e5","system_id":"levelo_inurba_marseille","lat":43.2453,"lon":5.39554,"is_reserved":false,"is_disabled":false,"rental_uris":{"android":"levelo://app?vid=77a29338-5556-4205-9db9-a624ab9d00e5","ios":"levelo://app?vid=77a29338-5556-4205-9db9-a624ab9d00e5"},"vehicle_type_id":"4","last_reported":1747249679,"current_range_meters":16400,"station_id":"ce4bhlp2rcd13ifvqgjg","pricing_plan_id":"cebpf4jnsgd1na2vs0mg"},{"bike_id":"2af0df00-84df-494b-94f3-3f5b86286540","system_id":"levelo_inurba_marseille","lat":43.3089,"lon":5.37075,"is_reserved":false,"is_disabled":false,"rental_uris":{"android":"levelo://app?vid=2af0df00-84df-494b-94f3-3f5b86286540","ios":"levelo://app?vid=2af0df00-84df-494b-94f3-3f5b86286540"},"vehicle_type_id":"4","last_reported":1747249679,"current_range_meters":16800,"station_id":"","pricing_plan_id":"cebpf4jnsgd1na2vs0mg"},{"bike_id":"201598a9-d6f8-476b-96ae-500e2fa4b2f9","system_id":"levelo_inurba_marseille","lat":43.29047,"lon":5.35942,"is_reserved":false,"is_disabled":false,"rental_uris":{"android":"levelo://app?vid=201598a9-d6f8-476b-96ae-500e2fa4b2f9","ios":"levelo://app?vid=201598a9-d6f8-476b-96ae-500e2fa4b2f9"},"vehicle_type_id":"4","last_reported":1747249679,"current_range_meters":16800,"station_id":"ce4bha92rcd13ifvqeg0","pricing_plan_id":"cebpf4jnsgd1na2vs0mg"},{"bike_id":"25577b4b-1e5a-4ce6-9781-7fd14a008277","system_id":"levelo_inurba_marseille","lat":43.28424,"lon":5.34983,"is_reserved":false,"is_disabled":false,"rental_uris":{"android":"levelo://app?vid=25577b4b-1e5a-4ce6-9781-7fd14a008277","ios":"levelo://app?vid=25577b4b-1e5a-4ce6-9781-7fd14a008277"},"vehicle_type_id":"4","last_reported":1747249679,"current_range_meters":16800,"station_id":"ce4bhbh2rcd13ifvqepg","pricing_plan_id":"cebpf4jnsgd1na2vs0mg"},{"bike_id":"e08deac9-c0e2-4a9f-ad64-9f24a6265818","system_id":"levelo_inurba_marseille","lat":43.2826,"lon":5.35075,"is_reserved":false,"is_disabled":false,"rental_uris":{"android":"levelo://app?vid=e08deac9-c0e2-4a9f-ad64-9f24a6265818","ios":"levelo://app?vid=e08deac9-c0e2-4a9f-ad64-9f24a6265818"},"vehicle_type_id":"4","last_reported":1747249679,"current_range_meters":16800,"station_id":"ce4bhbp2rcd13ifvqerg","pricing_plan_id":"cebpf4jnsgd1na2vs0mg"},{"bike_id":"faac790c-285b-4e73-ad07-d3dc84f9c931","system_id":"levelo_inurba_marseille","lat":43.296265,"lon":5.390036,"is_reserved":false,"is_disabled":false,"rental_uris":{"android":"levelo://app?vid=faac790c-285b-4e73-ad07-d3dc84f9c931","ios":"levelo://app?vid=faac790c-285b-4e73-ad07-d3dc84f9c931"},"vehicle_type_id":"4","last_reported":1747249679,"current_range_meters":16800,"station_id":"ce4bhbp2rcd13ifvqerg","pricing_plan_id":"cebpf4jnsgd1na2vs0mg"},{"bike_id":"b3ba308a-bcb3-4c24-950c-46df6f51c108","system_id":"levelo_inurba_marseille","lat":43.27891,"lon":5.37991,"is_reserved":false,"is_disabled":false,"rental_uris":{"android":"levelo://app?vid=b3ba308a-bcb3-4c24-950c-46df6f51c108","ios":"levelo://app?vid=b3ba308a-bcb3-4c24-950c-46df6f51c108"},"vehicle_type_id":"4","last_reported":1747249679,"current_range_meters":16800,"station_id":"ce4bhf92rcd13ifvqf50","pricing_plan_id":"cebpf4jnsgd1na2vs0mg"},{"bike_id":"d3f05add-2399-4930-96be-802df569fbe4","system_id":"levelo_inurba_marseille","lat":43.27553,"lon":5.38441,"is_reserved":false,"is_disabled":false,"rental_uris":{"android":"levelo://app?vid=d3f05add-2399-4930-96be-802df569fbe4","ios":"levelo://app?vid=d3f05add-2399-4930-96be-802df569fbe4"},"vehicle_type_id":"4","last_reported":1747249679,"current_range_meters":16800,"station_id":"ce4bhh92rcd13ifvqfi0","pricing_plan_id":"cebpf4jnsgd1na2vs0mg"},{"bike_id":"21f5a1a4-43c5-4049-8a8d-3146c5c35157","system_id":"levelo_inurba_marseille","lat":43.22954,"lon":5.35421,"is_reserved":false,"is_disabled":false,"rental_uris":{"android":"levelo://app?vid=21f5a1a4-43c5-4049-8a8d-3146c5c35157","ios":"levelo://app?vid=21f5a1a4-43c5-4049-8a8d-3146c5c35157"},"vehicle_type_id":"4","last_reported":1747249679,"current_range_meters":16800,"station_id":"cpo3532slgdg3j2ikp40","pricing_plan_id":"cebpf4jnsgd1na2vs0mg"},{"bike_id":"d74dda0c-2ae8-4a20-aee3-80ba3b692d64","system_id":"levelo_inurba_marseille","lat":43.30467,"lon":5.37179,"is_reserved":false,"is_disabled":false,"rental_uris":{"android":"levelo://app?vid=d74dda0c-2ae8-4a20-aee3-80ba3b692d64","ios":"levelo://app?vid=d74dda0c-2ae8-4a20-aee3-80ba3b692d64"},"vehicle_type_id":"4","last_reported":1747249679,"current_range_meters":17200,"station_id":"","pricing_plan_id":"cebpf4jnsgd1na2vs0mg"},{"bike_id":"414d9fcc-e89d-4921-adff-1c7843e65cf3","system_id":"levelo_inurba_marseille","lat":43.29782,"lon":5.371,"is_reserved":false,"is_disabled":false,"rental_uris":{"android":"levelo://app?vid=414d9fcc-e89d-4921-adff-1c7843e65cf3","ios":"levelo://app?vid=414d9fcc-e89d-4921-adff-1c7843e65cf3"},"vehicle_type_id":"4","last_reported":1747249679,"current_range_meters":17200,"station_id":"ce4bgop2rcd13ifvqc1g","pricing_plan_id":"cebpf4jnsgd1na2vs0mg"},{"bike_id":"cc377332-c824-4cf8-bc9d-97d1852f3692","system_id":"levelo_inurba_marseille","lat":43.31155,"lon":5.38735,"is_reserved":false,"is_disabled":false,"rental_uris":{"android":"levelo://app?vid=cc377332-c824-4cf8-bc9d-97d1852f3692","ios":"levelo://app?vid=cc377332-c824-4cf8-bc9d-97d1852f3692"},"vehicle_type_id":"4","last_reported":1747249679,"current_range_meters":17200,"station_id":"ce4bgv12rcd13ifvqcp0","pricing_plan_id":"cebpf4jnsgd1na2vs0mg"},{"bike_id":"b3dc7ba8-3371-4496-b4ad-370034e7b805","system_id":"levelo_inurba_marseille","lat":43.30936,"lon":5.40148,"is_reserved":false,"is_disabled":false,"rental_uris":{"android":"levelo://app?vid=b3dc7ba8-3371-4496-b4ad-370034e7b805","ios":"levelo://app?vid=b3dc7ba8-3371-4496-b4ad-370034e7b805"},"vehicle_type_id":"4","last_reported":1747249679,"current_range_meters":17200,"station_id":"ce4bgvp2rcd13ifvqct0","pricing_plan_id":"cebpf4jnsgd1na2vs0mg"},{"bike_id":"fac8af84-5c8a-4163-8f9a-045ed34fc2ca","system_id":"levelo_inurba_marseille","lat":43.30088,"lon":5.39086,"is_reserved":false,"is_disabled":false,"rental_uris":{"android":"levelo://app?vid=fac8af84-5c8a-4163-8f9a-045ed34fc2ca","ios":"levelo://app?vid=fac8af84-5c8a-4163-8f9a-045ed34fc2ca"},"vehicle_type_id":"4","last_reported":1747249679,"current_range_meters":17200,"station_id":"ce4bh192rcd13ifvqdb0","pricing_plan_id":"cebpf4jnsgd1na2vs0mg"},{"bike_id":"17ad68ec-e48f-4323-be2e-71b8aecc1f9b","system_id":"levelo_inurba_marseille","lat":43.30088,"lon":5.39084,"is_reserved":false,"is_disabled":false,"rental_uris":{"android":"levelo://app?vid=17ad68ec-e48f-4323-be2e-71b8aecc1f9b","ios":"levelo://app?vid=17ad68ec-e48f-4323-be2e-71b8aecc1f9b"},"vehicle_type_id":"4","last_reported":1747249679,"current_range_meters":17200,"station_id":"ce4bh192rcd13ifvqdb0","pricing_plan_id":"cebpf4jnsgd1na2vs0mg"},{"bike_id":"c9b3cd33-2f77-4d8c-bb70-d4fb7c5d0d25","system_id":"levelo_inurba_marseille","lat":43.28927,"lon":5.38386,"is_reserved":false,"is_disabled":false,"rental_uris":{"android":"levelo://app?vid=c9b3cd33-2f77-4d8c-bb70-d4fb7c5d0d25","ios":"levelo://app?vid=c9b3cd33-2f77-4d8c-bb70-d4fb7c5d0d25"},"vehicle_type_id":"4","last_reported":1747249679,"current_range_meters":17200,"station_id":"ce4bh612rcd13ifvqe6g","pricing_plan_id":"cebpf4jnsgd1na2vs0mg"},{"bike_id":"fa4befad-9e1d-4f2a-8cac-8fccb960e5af","system_id":"levelo_inurba_marseille","lat":43.28936,"lon":5.3664,"is_reserved":false,"is_disabled":false,"rental_uris":{"android":"levelo://app?vid=fa4befad-9e1d-4f2a-8cac-8fccb960e5af","ios":"levelo://app?vid=fa4befad-9e1d-4f2a-8cac-8fccb960e5af"},"vehicle_type_id":"4","last_reported":1747249679,"current_range_meters":17200,"station_id":"ce4bhap2rcd13ifvqek0","pricing_plan_id":"cebpf4jnsgd1na2vs0mg"},{"bike_id":"699f68ff-4565-47a1-bd6b-e4dd8038aab5","system_id":"levelo_inurba_marseille","lat":43.29196,"lon":5.35814,"is_reserved":false,"is_disabled":false,"rental_uris":{"android":"levelo://app?vid=699f68ff-4565-47a1-bd6b-e4dd8038aab5","ios":"levelo://app?vid=699f68ff-4565-47a1-bd6b-e4dd8038aab5"},"vehicle_type_id":"4","last_reported":1747249679,"current_range_meters":17200,"station_id":"ce4bhb12rcd13ifvqel0","pricing_plan_id":"cebpf4jnsgd1na2vs0mg"},{"bike_id":"4a464b53-b6f1-406f-977c-852b5d022713","system_id":"levelo_inurba_marseille","lat":43.24397,"lon":5.37046,"is_reserved":false,"is_disabled":false,"rental_uris":{"android":"levelo://app?vid=4a464b53-b6f1-406f-977c-852b5d022713","ios":"levelo://app?vid=4a464b53-b6f1-406f-977c-852b5d022713"},"vehicle_type_id":"4","last_reported":1747249679,"current_range_meters":17200,"station_id":"ce4bhhh2rcd13ifvqfk0","pricing_plan_id":"cebpf4jnsgd1na2vs0mg"},{"bike_id":"b65a13c9-6211-4b05-a0cd-7427fadea2bd","system_id":"levelo_inurba_marseille","lat":43.254516,"lon":5.378497,"is_reserved":false,"is_disabled":false,"rental_uris":{"android":"levelo://app?vid=b65a13c9-6211-4b05-a0cd-7427fadea2bd","ios":"levelo://app?vid=b65a13c9-6211-4b05-a0cd-7427fadea2bd"},"vehicle_type_id":"4","last_reported":1747249679,"current_range_meters":17200,"station_id":"ce4bhih2rcd13ifvqfr0","pricing_plan_id":"cebpf4jnsgd1na2vs0mg"},{"bike_id":"85229f75-99f9-447a-a3ed-86236028f5a5","system_id":"levelo_inurba_marseille","lat":43.25118,"lon":5.40347,"is_reserved":false,"is_disabled":false,"rental_uris":{"android":"levelo://app?vid=85229f75-99f9-447a-a3ed-86236028f5a5","ios":"levelo://app?vid=85229f75-99f9-447a-a3ed-86236028f5a5"},"vehicle_type_id":"4","last_reported":1747249679,"current_range_meters":17200,"station_id":"ce4bhlh2rcd13ifvqgig","pricing_plan_id":"cebpf4jnsgd1na2vs0mg"},{"bike_id":"d0bd9f58-7f05-4bad-bc13-cfce4dec78b3","system_id":"levelo_inurba_marseille","lat":43.31762,"lon":5.39015,"is_reserved":false,"is_disabled":false,"rental_uris":{"android":"levelo://app?vid=d0bd9f58-7f05-4bad-bc13-cfce4dec78b3","ios":"levelo://app?vid=d0bd9f58-7f05-4bad-bc13-cfce4dec78b3"},"vehicle_type_id":"4","last_reported":1747249679,"current_range_meters":17200,"station_id":"ce4bhqp2rcd13ifvqhng","pricing_plan_id":"cebpf4jnsgd1na2vs0mg"},{"bike_id":"0a5e6cc4-0328-4fd7-9db5-c5029f1cf2d9","system_id":"levelo_inurba_marseille","lat":43.32395,"lon":5.38872,"is_reserved":false,"is_disabled":false,"rental_uris":{"android":"levelo://app?vid=0a5e6cc4-0328-4fd7-9db5-c5029f1cf2d9","ios":"levelo://app?vid=0a5e6cc4-0328-4fd7-9db5-c5029f1cf2d9"},"vehicle_type_id":"4","last_reported":1747249679,"current_range_meters":17200,"station_id":"ce4bhqp2rcd13ifvqhog","pricing_plan_id":"cebpf4jnsgd1na2vs0mg"},{"bike_id":"60af0a7f-4cfd-4f77-8f2f-31f09c58ccf0","system_id":"levelo_inurba_marseille","lat":43.217481,"lon":5.346097,"is_reserved":false,"is_disabled":true,"rental_uris":{"android":"levelo://app?vid=60af0a7f-4cfd-4f77-8f2f-31f09c58ccf0","ios":"levelo://app?vid=60af0a7f-4cfd-4f77-8f2f-31f09c58ccf0"},"vehicle_type_id":"4","last_reported":1747249679,"current_range_meters":17200,"station_id":"st_cvj6r9ubvosntc0bgbag","pricing_plan_id":"cebpf4jnsgd1na2vs0mg"},{"bike_id":"4ca5c04b-83fc-47f0-ba12-ec385416b528","system_id":"levelo_inurba_marseille","lat":43.31434,"lon":5.36973,"is_reserved":false,"is_disabled":false,"rental_uris":{"android":"levelo://app?vid=4ca5c04b-83fc-47f0-ba12-ec385416b528","ios":"levelo://app?vid=4ca5c04b-83fc-47f0-ba12-ec385416b528"},"vehicle_type_id":"4","last_reported":1747249679,"current_range_meters":17600,"station_id":"","pricing_plan_id":"cebpf4jnsgd1na2vs0mg"},{"bike_id":"616dd170-97e6-4bd1-8061-f955652ebf3d","system_id":"levelo_inurba_marseille","lat":43.28028,"lon":5.36953,"is_reserved":false,"is_disabled":false,"rental_uris":{"android":"levelo://app?vid=616dd170-97e6-4bd1-8061-f955652ebf3d","ios":"levelo://app?vid=616dd170-97e6-4bd1-8061-f955652ebf3d"},"vehicle_type_id":"4","last_reported":1747249679,"current_range_meters":17600,"station_id":"ce4bha12rcd13ifvqef0","pricing_plan_id":"cebpf4jnsgd1na2vs0mg"},{"bike_id":"a5d447ec-8527-42f5-8305-c903ff4042dd","system_id":"levelo_inurba_marseille","lat":43.28837,"lon":5.35893,"is_reserved":false,"is_disabled":false,"rental_uris":{"android":"levelo://app?vid=a5d447ec-8527-42f5-8305-c903ff4042dd","ios":"levelo://app?vid=a5d447ec-8527-42f5-8305-c903ff4042dd"},"vehicle_type_id":"4","last_reported":1747249679,"current_range_meters":17600,"station_id":"ce4bhb12rcd13ifvqem0","pricing_plan_id":"cebpf4jnsgd1na2vs0mg"},{"bike_id":"88bbba9e-7184-4058-8824-c96a1cc5be7e","system_id":"levelo_inurba_marseille","lat":43.26223,"lon":5.40452,"is_reserved":false,"is_disabled":false,"rental_uris":{"android":"levelo://app?vid=88bbba9e-7184-4058-8824-c96a1cc5be7e","ios":"levelo://app?vid=88bbba9e-7184-4058-8824-c96a1cc5be7e"},"vehicle_type_id":"4","last_reported":1747249679,"current_range_meters":17600,"station_id":"ce4bhmh2rcd13ifvqgmg","pricing_plan_id":"cebpf4jnsgd1na2vs0mg"},{"bike_id":"c682a571-1b8e-42c7-82ff-72c8d128bd01","system_id":"levelo_inurba_marseille","lat":43.29896,"lon":5.38329,"is_reserved":false,"is_disabled":false,"rental_uris":{"android":"levelo://app?vid=c682a571-1b8e-42c7-82ff-72c8d128bd01","ios":"levelo://app?vid=c682a571-1b8e-42c7-82ff-72c8d128bd01"},"vehicle_type_id":"4","last_reported":1747249679,"current_range_meters":18000,"station_id":"","pricing_plan_id":"cebpf4jnsgd1na2vs0mg"},{"bike_id":"1def4d9e-ba54-4554-8279-72b57c0de750","system_id":"levelo_inurba_marseille","lat":43.337444,"lon":5.374475,"is_reserved":false,"is_disabled":false,"rental_uris":{"android":"levelo://app?vid=1def4d9e-ba54-4554-8279-72b57c0de750","ios":"levelo://app?vid=1def4d9e-ba54-4554-8279-72b57c0de750"},"vehicle_type_id":"4","last_reported":1747249679,"current_range_meters":18000,"station_id":"","pricing_plan_id":"cebpf4jnsgd1na2vs0mg"},{"bike_id":"c729e973-b3f4-4373-9002-44fdb05c1361","system_id":"levelo_inurba_marseille","lat":43.30282,"lon":5.38298,"is_reserved":false,"is_disabled":false,"rental_uris":{"android":"levelo://app?vid=c729e973-b3f4-4373-9002-44fdb05c1361","ios":"levelo://app?vid=c729e973-b3f4-4373-9002-44fdb05c1361"},"vehicle_type_id":"4","last_reported":1747249679,"current_range_meters":18000,"station_id":"","pricing_plan_id":"cebpf4jnsgd1na2vs0mg"},{"bike_id":"d454d72a-e82b-4441-8ecb-8379618bf60c","system_id":"levelo_inurba_marseille","lat":43.28973,"lon":5.37822,"is_reserved":false,"is_disabled":false,"rental_uris":{"android":"levelo://app?vid=d454d72a-e82b-4441-8ecb-8379618bf60c","ios":"levelo://app?vid=d454d72a-e82b-4441-8ecb-8379618bf60c"},"vehicle_type_id":"4","last_reported":1747249679,"current_range_meters":18000,"station_id":"ce4bh9p2rcd13ifvqed0","pricing_plan_id":"cebpf4jnsgd1na2vs0mg"},{"bike_id":"c2871eb7-bb83-4da8-bd9e-21c07b2319d9","system_id":"levelo_inurba_marseille","lat":43.28937,"lon":5.36632,"is_reserved":false,"is_disabled":false,"rental_uris":{"android":"levelo://app?vid=c2871eb7-bb83-4da8-bd9e-21c07b2319d9","ios":"levelo://app?vid=c2871eb7-bb83-4da8-bd9e-21c07b2319d9"},"vehicle_type_id":"4","last_reported":1747249679,"current_range_meters":18000,"station_id":"ce4bhap2rcd13ifvqek0","pricing_plan_id":"cebpf4jnsgd1na2vs0mg"},{"bike_id":"b064664a-37e6-4027-8d08-cb54eda1e955","system_id":"levelo_inurba_marseille","lat":43.3268,"lon":5.42971,"is_reserved":false,"is_disabled":false,"rental_uris":{"android":"levelo://app?vid=b064664a-37e6-4027-8d08-cb54eda1e955","ios":"levelo://app?vid=b064664a-37e6-4027-8d08-cb54eda1e955"},"vehicle_type_id":"4","last_reported":1747249679,"current_range_meters":18800,"station_id":"","pricing_plan_id":"cebpf4jnsgd1na2vs0mg"},{"bike_id":"93fe40f4-044e-4a5e-9541-dd993c5f4376","system_id":"levelo_inurba_marseille","lat":43.3027,"lon":5.377,"is_reserved":false,"is_disabled":false,"rental_uris":{"android":"levelo://app?vid=93fe40f4-044e-4a5e-9541-dd993c5f4376","ios":"levelo://app?vid=93fe40f4-044e-4a5e-9541-dd993c5f4376"},"vehicle_type_id":"4","last_reported":1747249679,"current_range_meters":18800,"station_id":"ce4bguh2rcd13ifvqcj0","pricing_plan_id":"cebpf4jnsgd1na2vs0mg"},{"bike_id":"c4fd9a8f-4619-40fe-8aca-043556f61886","system_id":"levelo_inurba_marseille","lat":43.28356,"lon":5.3865,"is_reserved":false,"is_disabled":false,"rental_uris":{"android":"levelo://app?vid=c4fd9a8f-4619-40fe-8aca-043556f61886","ios":"levelo://app?vid=c4fd9a8f-4619-40fe-8aca-043556f61886"},"vehicle_type_id":"4","last_reported":1747249679,"current_range_meters":18800,"station_id":"ce4bh492rcd13ifvqdvg","pricing_plan_id":"cebpf4jnsgd1na2vs0mg"},{"bike_id":"c0023606-0d7a-4e87-a1a7-c3d1e1479b8f","system_id":"levelo_inurba_marseille","lat":43.24812,"lon":5.37437,"is_reserved":false,"is_disabled":false,"rental_uris":{"android":"levelo://app?vid=c0023606-0d7a-4e87-a1a7-c3d1e1479b8f","ios":"levelo://app?vid=c0023606-0d7a-4e87-a1a7-c3d1e1479b8f"},"vehicle_type_id":"4","last_reported":1747249679,"current_range_meters":18800,"station_id":"ce4bhgh2rcd13ifvqfb0","pricing_plan_id":"cebpf4jnsgd1na2vs0mg"},{"bike_id":"a97e7f2f-a4bd-43dc-a4a3-f47c4b150cbd","system_id":"levelo_inurba_marseille","lat":43.24176,"lon":5.39732,"is_reserved":false,"is_disabled":false,"rental_uris":{"android":"levelo://app?vid=a97e7f2f-a4bd-43dc-a4a3-f47c4b150cbd","ios":"levelo://app?vid=a97e7f2f-a4bd-43dc-a4a3-f47c4b150cbd"},"vehicle_type_id":"4","last_reported":1747249679,"current_range_meters":18800,"station_id":"ce4bhn12rcd13ifvqgpg","pricing_plan_id":"cebpf4jnsgd1na2vs0mg"},{"bike_id":"164773f1-f89b-4540-88f4-55c8984b5cf1","system_id":"levelo_inurba_marseille","lat":43.2862,"lon":5.37059,"is_reserved":false,"is_disabled":false,"rental_uris":{"android":"levelo://app?vid=164773f1-f89b-4540-88f4-55c8984b5cf1","ios":"levelo://app?vid=164773f1-f89b-4540-88f4-55c8984b5cf1"},"vehicle_type_id":"4","last_reported":1747249679,"current_range_meters":18800,"station_id":"ce4bht12rcd13ifvqi60","pricing_plan_id":"cebpf4jnsgd1na2vs0mg"},{"bike_id":"a7a8af99-9213-4a5c-bf7f-aa8c8243cd3c","system_id":"levelo_inurba_marseille","lat":43.30144,"lon":5.37417,"is_reserved":false,"is_disabled":false,"rental_uris":{"android":"levelo://app?vid=a7a8af99-9213-4a5c-bf7f-aa8c8243cd3c","ios":"levelo://app?vid=a7a8af99-9213-4a5c-bf7f-aa8c8243cd3c"},"vehicle_type_id":"4","last_reported":1747249679,"current_range_meters":19200,"station_id":"ce4bgs92rcd13ifvqcc0","pricing_plan_id":"cebpf4jnsgd1na2vs0mg"},{"bike_id":"3510939f-7cd9-4aa4-b8cb-9520e70f17e7","system_id":"levelo_inurba_marseille","lat":43.28413,"lon":5.34994,"is_reserved":false,"is_disabled":false,"rental_uris":{"android":"levelo://app?vid=3510939f-7cd9-4aa4-b8cb-9520e70f17e7","ios":"levelo://app?vid=3510939f-7cd9-4aa4-b8cb-9520e70f17e7"},"vehicle_type_id":"4","last_reported":1747249679,"current_range_meters":19200,"station_id":"ce4bhbh2rcd13ifvqepg","pricing_plan_id":"cebpf4jnsgd1na2vs0mg"},{"bike_id":"15341cbe-2bac-471f-bb24-62982496f258","system_id":"levelo_inurba_marseille","lat":43.26567,"lon":5.38991,"is_reserved":false,"is_disabled":false,"rental_uris":{"android":"levelo://app?vid=15341cbe-2bac-471f-bb24-62982496f258","ios":"levelo://app?vid=15341cbe-2bac-471f-bb24-62982496f258"},"vehicle_type_id":"4","last_reported":1747249679,"current_range_meters":19200,"station_id":"ce4bhe12rcd13ifvqf30","pricing_plan_id":"cebpf4jnsgd1na2vs0mg"},{"bike_id":"f2446d72-bb3f-4b4d-b03f-a4a3658534ff","system_id":"levelo_inurba_marseille","lat":43.258968,"lon":5.398808,"is_reserved":false,"is_disabled":false,"rental_uris":{"android":"levelo://app?vid=f2446d72-bb3f-4b4d-b03f-a4a3658534ff","ios":"levelo://app?vid=f2446d72-bb3f-4b4d-b03f-a4a3658534ff"},"vehicle_type_id":"4","last_reported":1747249679,"current_range_meters":19200,"station_id":"ce4bhl92rcd13ifvqghg","pricing_plan_id":"cebpf4jnsgd1na2vs0mg"},{"bike_id":"8d86e549-799d-463f-8f82-420b4a042f18","system_id":"levelo_inurba_marseille","lat":43.29547,"lon":5.42317,"is_reserved":false,"is_disabled":false,"rental_uris":{"android":"levelo://app?vid=8d86e549-799d-463f-8f82-420b4a042f18","ios":"levelo://app?vid=8d86e549-799d-463f-8f82-420b4a042f18"},"vehicle_type_id":"4","last_reported":1747249679,"current_range_meters":19200,"station_id":"ce4bhph2rcd13ifvqhdg","pricing_plan_id":"cebpf4jnsgd1na2vs0mg"},{"bike_id":"936efc86-bbab-4b1a-8183-d02e90aef320","system_id":"levelo_inurba_marseille","lat":43.29555,"lon":5.42297,"is_reserved":false,"is_disabled":false,"rental_uris":{"android":"levelo://app?vid=936efc86-bbab-4b1a-8183-d02e90aef320","ios":"levelo://app?vid=936efc86-bbab-4b1a-8183-d02e90aef320"},"vehicle_type_id":"4","last_reported":1747249679,"current_range_meters":19200,"station_id":"ce4bhph2rcd13ifvqhdg","pricing_plan_id":"cebpf4jnsgd1na2vs0mg"},{"bike_id":"5b4d94d5-d1fb-4594-8ced-01262346e7e4","system_id":"levelo_inurba_marseille","lat":43.2864,"lon":5.37053,"is_reserved":false,"is_disabled":false,"rental_uris":{"android":"levelo://app?vid=5b4d94d5-d1fb-4594-8ced-01262346e7e4","ios":"levelo://app?vid=5b4d94d5-d1fb-4594-8ced-01262346e7e4"},"vehicle_type_id":"4","last_reported":1747249679,"current_range_meters":19200,"station_id":"ce4bht12rcd13ifvqi60","pricing_plan_id":"cebpf4jnsgd1na2vs0mg"},{"bike_id":"2c48c5a7-0331-448d-9666-066cdbc9adc2","system_id":"levelo_inurba_marseille","lat":43.21757,"lon":5.34607,"is_reserved":false,"is_disabled":false,"rental_uris":{"android":"levelo://app?vid=2c48c5a7-0331-448d-9666-066cdbc9adc2","ios":"levelo://app?vid=2c48c5a7-0331-448d-9666-066cdbc9adc2"},"vehicle_type_id":"4","last_reported":1747249679,"current_range_meters":19200,"station_id":"st_cvj6r9ubvosntc0bgbag","pricing_plan_id":"cebpf4jnsgd1na2vs0mg"},{"bike_id":"9a402898-f116-408b-8709-c62dd77d2b5d","system_id":"levelo_inurba_marseille","lat":43.2937,"lon":5.42834,"is_reserved":false,"is_disabled":false,"rental_uris":{"android":"levelo://app?vid=9a402898-f116-408b-8709-c62dd77d2b5d","ios":"levelo://app?vid=9a402898-f116-408b-8709-c62dd77d2b5d"},"vehicle_type_id":"4","last_reported":1747249679,"current_range_meters":19600,"station_id":"","pricing_plan_id":"cebpf4jnsgd1na2vs0mg"},{"bike_id":"a2191d44-801d-42ac-b52c-c6171a3dc4e5","system_id":"levelo_inurba_marseille","lat":43.29685,"lon":5.37272,"is_reserved":false,"is_disabled":false,"rental_uris":{"android":"levelo://app?vid=a2191d44-801d-42ac-b52c-c6171a3dc4e5","ios":"levelo://app?vid=a2191d44-801d-42ac-b52c-c6171a3dc4e5"},"vehicle_type_id":"4","last_reported":1747249679,"current_range_meters":19600,"station_id":"ce4bgk12rcd13ifvqbj0","pricing_plan_id":"cebpf4jnsgd1na2vs0mg"},{"bike_id":"627c6c83-ace7-449d-b211-32ae796b9e1b","system_id":"levelo_inurba_marseille","lat":43.31685,"lon":5.40472,"is_reserved":false,"is_disabled":false,"rental_uris":{"android":"levelo://app?vid=627c6c83-ace7-449d-b211-32ae796b9e1b","ios":"levelo://app?vid=627c6c83-ace7-449d-b211-32ae796b9e1b"},"vehicle_type_id":"4","last_reported":1747249679,"current_range_meters":19600,"station_id":"ce4bh012rcd13ifvqd00","pricing_plan_id":"cebpf4jnsgd1na2vs0mg"},{"bike_id":"b0080b22-3b2f-4525-a1a5-d581eefca6b8","system_id":"levelo_inurba_marseille","lat":43.24387,"lon":5.37057,"is_reserved":false,"is_disabled":false,"rental_uris":{"android":"levelo://app?vid=b0080b22-3b2f-4525-a1a5-d581eefca6b8","ios":"levelo://app?vid=b0080b22-3b2f-4525-a1a5-d581eefca6b8"},"vehicle_type_id":"4","last_reported":1747249679,"current_range_meters":19600,"station_id":"ce4bhhh2rcd13ifvqfk0","pricing_plan_id":"cebpf4jnsgd1na2vs0mg"},{"bike_id":"839899bd-e07f-486a-9972-9ce6397a4fef","system_id":"levelo_inurba_marseille","lat":43.31714,"lon":5.43718,"is_reserved":false,"is_disabled":false,"rental_uris":{"android":"levelo://app?vid=839899bd-e07f-486a-9972-9ce6397a4fef","ios":"levelo://app?vid=839899bd-e07f-486a-9972-9ce6397a4fef"},"vehicle_type_id":"4","last_reported":1747249679,"current_range_meters":19600,"station_id":"ce4bhp92rcd13ifvqhcg","pricing_plan_id":"cebpf4jnsgd1na2vs0mg"},{"bike_id":"a08eee52-d78f-4d9f-91bd-1df5b309642d","system_id":"levelo_inurba_marseille","lat":43.23206,"lon":5.35545,"is_reserved":false,"is_disabled":false,"rental_uris":{"android":"levelo://app?vid=a08eee52-d78f-4d9f-91bd-1df5b309642d","ios":"levelo://app?vid=a08eee52-d78f-4d9f-91bd-1df5b309642d"},"vehicle_type_id":"4","last_reported":1747249679,"current_range_meters":19600,"station_id":"ce4bhu92rcd13ifvqi70","pricing_plan_id":"cebpf4jnsgd1na2vs0mg"},{"bike_id":"7922656e-2239-47c0-af52-f0f323542cc6","system_id":"levelo_inurba_marseille","lat":43.24165,"lon":5.36407,"is_reserved":false,"is_disabled":false,"rental_uris":{"android":"levelo://app?vid=7922656e-2239-47c0-af52-f0f323542cc6","ios":"levelo://app?vid=7922656e-2239-47c0-af52-f0f323542cc6"},"vehicle_type_id":"4","last_reported":1747249679,"current_range_meters":19600,"station_id":"cpo36qri1sfpv3e86is0","pricing_plan_id":"cebpf4jnsgd1na2vs0mg"},{"bike_id":"cec32bab-5894-4ac2-97eb-b76126dea5dd","system_id":"levelo_inurba_marseille","lat":43.323327,"lon":5.382943,"is_reserved":false,"is_disabled":false,"rental_uris":{"android":"levelo://app?vid=cec32bab-5894-4ac2-97eb-b76126dea5dd","ios":"levelo://app?vid=cec32bab-5894-4ac2-97eb-b76126dea5dd"},"vehicle_type_id":"4","last_reported":1747249679,"current_range_meters":20000,"station_id":"","pricing_plan_id":"cebpf4jnsgd1na2vs0mg"},{"bike_id":"e99cf78c-3557-435c-ac5f-00bca7fb7b43","system_id":"levelo_inurba_marseille","lat":43.31487,"lon":5.37309,"is_reserved":false,"is_disabled":false,"rental_uris":{"android":"levelo://app?vid=e99cf78c-3557-435c-ac5f-00bca7fb7b43","ios":"levelo://app?vid=e99cf78c-3557-435c-ac5f-00bca7fb7b43"},"vehicle_type_id":"4","last_reported":1747249679,"current_range_meters":20000,"station_id":"ce4bgt12rcd13ifvqcd0","pricing_plan_id":"cebpf4jnsgd1na2vs0mg"},{"bike_id":"4216b875-d471-49eb-9a98-067ebe370051","system_id":"levelo_inurba_marseille","lat":43.294137,"lon":5.386276,"is_reserved":false,"is_disabled":false,"rental_uris":{"android":"levelo://app?vid=4216b875-d471-49eb-9a98-067ebe370051","ios":"levelo://app?vid=4216b875-d471-49eb-9a98-067ebe370051"},"vehicle_type_id":"4","last_reported":1747249679,"current_range_meters":20000,"station_id":"ce4bh2h2rcd13ifvqdh0","pricing_plan_id":"cebpf4jnsgd1na2vs0mg"},