{"last_updated":1732302482,"ttl":60,"version":"2.2","data":{"bikes":[{"bike_id":"39d10901-8d3d-400f-9f38-382d4a90a845","system_id":"levelo_inurba_marseille","lat":43.30609,"lon":5.37218,"is_reserved":false,"is_disabled":false,"rental_uris":{"android":"levelo://app?vid=39d10901-8d3d-400f-9f38-382d4a90a845","ios":"levelo://app?vid=39d10901-8d3d-400f-9f38-382d4a90a845"},"vehicle_type_id":"4","last_reported":1732302482,"current_range_meters":38800,"station_id":"ce4bgqh2rcd13ifvqc4g","pricing_plan_id":"cebpf4jnsgd1na2vs0mg"},{"bike_id":"1bad90ef-5210-48b5-bb4a-ff836e9bb7cb","system_id":"levelo_inurba_marseille","lat":43.28034,"lon":5.36946,"is_reserved":false,"is_disabled":false,"rental_uris":{"android":"levelo://app?vid=1bad90ef-5210-48b5-bb4a-ff836e9bb7cb","ios":"levelo://app?vid=1bad90ef-5210-48b5-bb4a-ff836e9bb7cb"},"vehicle_type_id":"4","last_reported":1732302482,"current_range_meters":23200,"station_id":"ce4bha12rcd13ifvqef0","pricing_plan_id":"cebpf4jnsgd1na2vs0mg"},{"bike_id":"e23b6c4c-d27e-407e-a72b-e3ea9129fcf8","system_id":"levelo_inurba_marseille","lat":43.32363,"lon":5.38884,"is_reserved":false,"is_disabled":false,"rental_uris":{"android":"levelo://app?vid=e23b6c4c-d27e-407e-a72b-e3ea9129fcf8","ios":"levelo://app?vid=e23b6c4c-d27e-407e-a72b-e3ea9129fcf8"},"vehicle_type_id":"4","last_reported":1732302482,"current_range_meters":33200,"station_id":"ce4bhqp2rcd13ifvqhog","pricing_plan_id":"cebpf4jnsgd1na2vs0mg"},{"bike_id":"216bffcf-1b87-4e7e-9ea8-7ffd8995fe38","system_id":"levelo_inurba_marseille","lat":43.28921,"lon":5.3839,"is_reserved":false,"is_disabled":true,"rental_uris":{"android":"levelo://app?vid=216bffcf-1b87-4e7e-9ea8-7ffd8995fe38","ios":"levelo://app?vid=216bffcf-1b87-4e7e-9ea8-7ffd8995fe38"},"vehicle_type_id":"4","last_reported":1732302482,"current_range_meters":17200,"station_id":"ce4bh612rcd13ifvqe6g","pricing_plan_id":"cebpf4jnsgd1na2vs0mg"},{"bike_id":"f6fde6fa-6792-48d8-8961-cd3bf217e949","system_id":"levelo_inurba_marseille","lat":43.29202,"lon":5.3934,"is_reserved":false,"is_disabled":false,"rental_uris":{"android":"levelo://app?vid=f6fde6fa-6792-48d8-8961-cd3bf217e949","ios":"levelo://app?vid=f6fde6fa-6792-48d8-8961-cd3bf217e949"},"vehicle_type_id":"4","last_reported":1732302482,"current_range_meters":38800,"station_id":"ce4bh192rcd13ifvqdd0","pricing_plan_id":"cebpf4jnsgd1na2vs0mg"},{"bike_id":"08f392b7-fb0b-40fb-b32a-822f164ec237","system_id":"levelo_inurba_marseille","lat":43.26938,"lon":5.40256,"is_reserved":false,"is_disabled":false,"rental_uris":{"android":"levelo://app?vid=08f392b7-fb0b-40fb-b32a-822f164ec237","ios":"levelo://app?vid=08f392b7-fb0b-40fb-b32a-822f164ec237"},"vehicle_type_id":"4","last_reported":1732302482,"current_range_meters":10000,"station_id":"cjm6bp8fraef2m0cb0m0","pricing_plan_id":"cebpf4jnsgd1na2vs0mg"},{"bike_id":"c32d2c2e-ee96-4cbd-a4a2-a0bed22c36e8","system_id":"levelo_inurba_marseille","lat":43.24068,"lon":5.37762,"is_reserved":false,"is_disabled":false,"rental_uris":{"android":"levelo://app?vid=c32d2c2e-ee96-4cbd-a4a2-a0bed22c36e8","ios":"levelo://app?vid=c32d2c2e-ee96-4cbd-a4a2-a0bed22c36e8"},"vehicle_type_id":"4","last_reported":1732302482,"current_range_meters":6800,"station_id":"ce4bhnp2rcd13ifvqgvg","pricing_plan_id":"cebpf4jnsgd1na2vs0mg"},{"bike_id":"81cbecd7-365c-4a9c-9de6-a98cb001a78f","system_id":"levelo_inurba_marseille","lat":43.3107,"lon":5.38341,"is_reserved":false,"is_disabled":true,"rental_uris":{"android":"levelo://app?vid=81cbecd7-365c-4a9c-9de6-a98cb001a78f","ios":"levelo://app?vid=81cbecd7-365c-4a9c-9de6-a98cb001a78f"},"vehicle_type_id":"4","last_reported":1732302482,"current_range_meters":1200,"station_id":"ce4bgv92rcd13ifvqcr0","pricing_plan_id":"cebpf4jnsgd1na2vs0mg"},{"bike_id":"1a3ef370-3225-4ca5-bf86-18b6c730a112","system_id":"levelo_inurba_marseille","lat":43.29558,"lon":5.42291,"is_reserved":false,"is_disabled":false,"rental_uris":{"android":"levelo://app?vid=1a3ef370-3225-4ca5-bf86-18b6c730a112","ios":"levelo://app?vid=1a3ef370-3225-4ca5-bf86-18b6c730a112"},"vehicle_type_id":"4","last_reported":1732302482,"current_range_meters":24800,"station_id":"ce4bhph2rcd13ifvqhdg","pricing_plan_id":"cebpf4jnsgd1na2vs0mg"},{"bike_id":"11114092-3108-4d5a-be35-06e9090d2527","system_id":"levelo_inurba_marseille","lat":43.26833,"lon":5.41116,"is_reserved":false,"is_disabled":false,"rental_uris":{"android":"levelo://app?vid=11114092-3108-4d5a-be35-06e9090d2527","ios":"levelo://app?vid=11114092-3108-4d5a-be35-06e9090d2527"},"vehicle_type_id":"4","last_reported":1732302482,"current_range_meters":27600,"station_id":"","pricing_plan_id":"cebpf4jnsgd1na2vs0mg"},{"bike_id":"cc45001e-86ba-42cc-9993-ed5261abbfe0","system_id":"levelo_inurba_marseille","lat":43.32365,"lon":5.38883,"is_reserved":false,"is_disabled":false,"rental_uris":{"android":"levelo://app?vid=cc45001e-86ba-42cc-9993-ed5261abbfe0","ios":"levelo://app?vid=cc45001e-86ba-42cc-9993-ed5261abbfe0"},"vehicle_type_id":"4","last_reported":1732302482,"current_range_meters":12000,"station_id":"ce4bhqp2rcd13ifvqhog","pricing_plan_id":"cebpf4jnsgd1na2vs0mg"},{"bike_id":"76681a5e-d4d3-48cc-8e13-8277bff12ebc","system_id":"levelo_inurba_marseille","lat":43.27844,"lon":5.39207,"is_reserved":false,"is_disabled":false,"rental_uris":{"android":"levelo://app?vid=76681a5e-d4d3-48cc-8e13-8277bff12ebc","ios":"levelo://app?vid=76681a5e-d4d3-48cc-8e13-8277bff12ebc"},"vehicle_type_id":"4","last_reported":1732302482,"current_range_meters":36800,"station_id":"ce4bhjp2rcd13ifvqga0","pricing_plan_id":"cebpf4jnsgd1na2vs0mg"},{"bike_id":"b9276403-dd49-4178-ac3a-8fb925e6526c","system_id":"levelo_inurba_marseille","lat":43.24671,"lon":5.38163,"is_reserved":false,"is_disabled":false,"rental_uris":{"android":"levelo://app?vid=b9276403-dd49-4178-ac3a-8fb925e6526c","ios":"levelo://app?vid=b9276403-dd49-4178-ac3a-8fb925e6526c"},"vehicle_type_id":"4","last_reported":1732302482,"current_range_meters":38800,"station_id":"ce4bhih2rcd13ifvqfr0","pricing_plan_id":"cebpf4jnsgd1na2vs0mg"},{"bike_id":"c0755ad7-8353-40d1-98a4-bba43ca0e3ab","system_id":"levelo_inurba_marseille","lat":43.33721,"lon":5.39181,"is_reserved":false,"is_disabled":false,"rental_uris":{"android":"levelo://app?vid=c0755ad7-8353-40d1-98a4-bba43ca0e3ab","ios":"levelo://app?vid=c0755ad7-8353-40d1-98a4-bba43ca0e3ab"},"vehicle_type_id":"4","last_reported":1732302482,"current_range_meters":10800,"station_id":"ce4bhr92rcd13ifvqhsg","pricing_plan_id":"cebpf4jnsgd1na2vs0mg"},{"bike_id":"88eba2c0-6497-4d44-9139-2e81e8ca0ff2","system_id":"levelo_inurba_marseille","lat":43.25826,"lon":5.39425,"is_reserved":false,"is_disabled":false,"rental_uris":{"android":"levelo://app?vid=88eba2c0-6497-4d44-9139-2e81e8ca0ff2","ios":"levelo://app?vid=88eba2c0-6497-4d44-9139-2e81e8ca0ff2"},"vehicle_type_id":"4","last_reported":1732302482,"current_range_meters":38800,"station_id":"ce4bhip2rcd13ifvqft0","pricing_plan_id":"cebpf4jnsgd1na2vs0mg"},{"bike_id":"40d884d6-458f-4eee-b84d-a8be4030f4ef","system_id":"levelo_inurba_marseille","lat":43.29292,"lon":5.38485,"is_reserved":false,"is_disabled":false,"rental_uris":{"android":"levelo://app?vid=40d884d6-458f-4eee-b84d-a8be4030f4ef","ios":"levelo://app?vid=40d884d6-458f-4eee-b84d-a8be4030f4ef"},"vehicle_type_id":"4","last_reported":1732302482,"current_range_meters":9200,"station_id":"ce4bh692rcd13ifvqea0","pricing_plan_id":"cebpf4jnsgd1na2vs0mg"},{"bike_id":"253d2ce6-caed-4854-89df-bb73cab6c29b","system_id":"levelo_inurba_marseille","lat":43.2768,"lon":5.38903,"is_reserved":false,"is_disabled":true,"rental_uris":{"android":"levelo://app?vid=253d2ce6-caed-4854-89df-bb73cab6c29b","ios":"levelo://app?vid=253d2ce6-caed-4854-89df-bb73cab6c29b"},"vehicle_type_id":"4","last_reported":1732302482,"current_range_meters":0,"station_id":"ce4bhi12rcd13ifvqfo0","pricing_plan_id":"cebpf4jnsgd1na2vs0mg"},{"bike_id":"648fea4c-d15a-4229-9feb-bafe88cbbe70","system_id":"levelo_inurba_marseille","lat":43.27957,"lon":5.41749,"is_reserved":false,"is_disabled":true,"rental_uris":{"android":"levelo://app?vid=648fea4c-d15a-4229-9feb-bafe88cbbe70","ios":"levelo://app?vid=648fea4c-d15a-4229-9feb-bafe88cbbe70"},"vehicle_type_id":"4","last_reported":1732302482,"current_range_meters":0,"station_id":"","pricing_plan_id":"cebpf4jnsgd1na2vs0mg"},{"bike_id":"af3c8494-64b4-4e10-a870-f592daa022bf","system_id":"levelo_inurba_marseille","lat":43.28692,"lon":5.37394,"is_reserved":false,"is_disabled":true,"rental_uris":{"android":"levelo://app?vid=af3c8494-64b4-4e10-a870-f592daa022bf","ios":"levelo://app?vid=af3c8494-64b4-4e10-a870-f592daa022bf"},"vehicle_type_id":"4","last_reported":1732302482,"current_range_meters":1200,"station_id":"ce4bh3p2rcd13ifvqdq0","pricing_plan_id":"cebpf4jnsgd1na2vs0mg"},{"bike_id":"a3dfa29f-d880-4cbe-b909-b4e217158e03","system_id":"levelo_inurba_marseille","lat":43.27178,"lon":5.40994,"is_reserved":false,"is_disabled":true,"rental_uris":{"android":"levelo://app?vid=a3dfa29f-d880-4cbe-b909-b4e217158e03","ios":"levelo://app?vid=a3dfa29f-d880-4cbe-b909-b4e217158e03"},"vehicle_type_id":"4","last_reported":1732302482,"current_range_meters":34000,"station_id":"ce4bhl12rcd13ifvqgf0","pricing_plan_id":"cebpf4jnsgd1na2vs0mg"},{"bike_id":"d2321b4c-ae3a-4b43-8bcd-12cb7984481d","system_id":"levelo_inurba_marseille","lat":43.30742,"lon":5.37016,"is_reserved":false,"is_disabled":true,"rental_uris":{"android":"levelo://app?vid=d2321b4c-ae3a-4b43-8bcd-12cb7984481d","ios":"levelo://app?vid=d2321b4c-ae3a-4b43-8bcd-12cb7984481d"},"vehicle_type_id":"4","last_reported":1732302482,"current_range_meters":16000,"station_id":"","pricing_plan_id":"cebpf4jnsgd1na2vs0mg"},{"bike_id":"e0dcc654-e936-473c-9424-f16546e3bed3","system_id":"levelo_inurba_marseille","lat":43.29307,"lon":5.37173,"is_reserved":false,"is_disabled":false,"rental_uris":{"android":"levelo://app?vid=e0dcc654-e936-473c-9424-f16546e3bed3","ios":"levelo://app?vid=e0dcc654-e936-473c-9424-f16546e3bed3"},"vehicle_type_id":"4","last_reported":1732302482,"current_range_meters":23200,"station_id":"ce4bgh92rcd13ifvqb40","pricing_plan_id":"cebpf4jnsgd1na2vs0mg"},{"bike_id":"a37d0170-640a-4925-80ba-0b9b695f04f5","system_id":"levelo_inurba_marseille","lat":43.3095,"lon":5.39023,"is_reserved":false,"is_disabled":false,"rental_uris":{"android":"levelo://app?vid=a37d0170-640a-4925-80ba-0b9b695f04f5","ios":"levelo://app?vid=a37d0170-640a-4925-80ba-0b9b695f04f5"},"vehicle_type_id":"4","last_reported":1732302482,"current_range_meters":24000,"station_id":"ce4bgup2rcd13ifvqco0","pricing_plan_id":"cebpf4jnsgd1na2vs0mg"},{"bike_id":"28cab644-6939-410a-baab-c1bdc4224832","system_id":"levelo_inurba_marseille","lat":43.32362,"lon":5.38879,"is_reserved":false,"is_disabled":false,"rental_uris":{"android":"levelo://app?vid=28cab644-6939-410a-baab-c1bdc4224832","ios":"levelo://app?vid=28cab644-6939-410a-baab-c1bdc4224832"},"vehicle_type_id":"4","last_reported":1732302482,"current_range_meters":33600,"station_id":"ce4bhqp2rcd13ifvqhog","pricing_plan_id":"cebpf4jnsgd1na2vs0mg"},{"bike_id":"4020849c-b029-4a46-adc4-ef5b07e25b81","system_id":"levelo_inurba_marseille","lat":43.29262,"lon":5.38442,"is_reserved":false,"is_disabled":false,"rental_uris":{"android":"levelo://app?vid=4020849c-b029-4a46-adc4-ef5b07e25b81","ios":"levelo://app?vid=4020849c-b029-4a46-adc4-ef5b07e25b81"},"vehicle_type_id":"4","last_reported":1732302482,"current_range_meters":20800,"station_id":"ce4bh692rcd13ifvqea0","pricing_plan_id":"cebpf4jnsgd1na2vs0mg"},{"bike_id":"5c3000a0-a190-4007-a723-aa2707fd1ce3","system_id":"levelo_inurba_marseille","lat":43.22935,"lon":5.35372,"is_reserved":false,"is_disabled":false,"rental_uris":{"android":"levelo://app?vid=5c3000a0-a190-4007-a723-aa2707fd1ce3","ios":"levelo://app?vid=5c3000a0-a190-4007-a723-aa2707fd1ce3"},"vehicle_type_id":"4","last_reported":1732302482,"current_range_meters":38800,"station_id":"cpo3532slgdg3j2ikp40","pricing_plan_id":"cebpf4jnsgd1na2vs0mg"},{"bike_id":"1c5fdcc2-ba84-4c46-bf38-3d224d434b52","system_id":"levelo_inurba_marseille","lat":43.32346,"lon":5.4062,"is_reserved":false,"is_disabled":false,"rental_uris":{"android":"levelo://app?vid=1c5fdcc2-ba84-4c46-bf38-3d224d434b52","ios":"levelo://app?vid=1c5fdcc2-ba84-4c46-bf38-3d224d434b52"},"vehicle_type_id":"4","last_reported":1732302482,"current_range_meters":38800,"station_id":"ce4bhq92rcd13ifvqhjg","pricing_plan_id":"cebpf4jnsgd1na2vs0mg"},{"bike_id":"d1621cb8-7d74-4672-aa7a-33f9a28499d3","system_id":"levelo_inurba_marseille","lat":43.29526,"lon":5.39404,"is_reserved":false,"is_disabled":false,"rental_uris":{"android":"levelo://app?vid=d1621cb8-7d74-4672-aa7a-33f9a28499d3","ios":"levelo://app?vid=d1621cb8-7d74-4672-aa7a-33f9a28499d3"},"vehicle_type_id":"4","last_reported":1732302482,"current_range_meters":2000,"station_id":"ce4bh292rcd13ifvqdf0","pricing_plan_id":"cebpf4jnsgd1na2vs0mg"},{"bike_id":"12a5d556-e4f7-43fe-817b-4bb859344d34","system_id":"levelo_inurba_marseille","lat":43.27918,"lon":5.39586,"is_reserved":false,"is_disabled":true,"rental_uris":{"android":"levelo://app?vid=12a5d556-e4f7-43fe-817b-4bb859344d34","ios":"levelo://app?vid=12a5d556-e4f7-43fe-817b-4bb859344d34"},"vehicle_type_id":"4","last_reported":1732302482,"current_range_meters":800,"station_id":"ce4bhf92rcd13ifvqf40","pricing_plan_id":"cebpf4jnsgd1na2vs0mg"},{"bike_id":"1f71c2f7-653f-46e6-9904-1c2a214963bc","system_id":"levelo_inurba_marseille","lat":43.304953,"lon":5.37306,"is_reserved":false,"is_disabled":false,"rental_uris":{"android":"levelo://app?vid=1f71c2f7-653f-46e6-9904-1c2a214963bc","ios":"levelo://app?vid=1f71c2f7-653f-46e6-9904-1c2a214963bc"},"vehicle_type_id":"4","last_reported":1732302482,"current_range_meters":6800,"station_id":"","pricing_plan_id":"cebpf4jnsgd1na2vs0mg"},{"bike_id":"68bfc082-ffc5-4dfe-bd89-c37bc083765a","system_id":"levelo_inurba_marseille","lat":43.29265,"lon":5.38444,"is_reserved":false,"is_disabled":false,"rental_uris":{"android":"levelo://app?vid=68bfc082-ffc5-4dfe-bd89-c37bc083765a","ios":"levelo://app?vid=68bfc082-ffc5-4dfe-bd89-c37bc083765a"},"vehicle_type_id":"4","last_reported":1732302482,"current_range_meters":36800,"station_id":"ce4bh692rcd13ifvqea0","pricing_plan_id":"cebpf4jnsgd1na2vs0mg"},{"bike_id":"3f4b586a-f19b-437c-a62a-b21b76562db2","system_id":"levelo_inurba_marseille","lat":43.23187,"lon":5.39981,"is_reserved":false,"is_disabled":false,"rental_uris":{"android":"levelo://app?vid=3f4b586a-f19b-437c-a62a-b21b76562db2","ios":"levelo://app?vid=3f4b586a-f19b-437c-a62a-b21b76562db2"},"vehicle_type_id":"4","last_reported":1732302482,"current_range_meters":38800,"station_id":"ce4bhn12rcd13ifvqgqg","pricing_plan_id":"cebpf4jnsgd1na2vs0mg"},{"bike_id":"54b55319-a404-49d7-82d1-b1f8c1380249","system_id":"levelo_inurba_marseille","lat":43.290281,"lon":5.386499,"is_reserved":false,"is_disabled":false,"rental_uris":{"android":"levelo://app?vid=54b55319-a404-49d7-82d1-b1f8c1380249","ios":"levelo://app?vid=54b55319-a404-49d7-82d1-b1f8c1380249"},"vehicle_type_id":"4","last_reported":1732302482,"current_range_meters":33200,"station_id":"ce4bh4p2rcd13ifvqe0g","pricing_plan_id":"cebpf4jnsgd1na2vs0mg"},{"bike_id":"0510ebcb-0f92-4bec-9e33-119b63d61a99","system_id":"levelo_inurba_marseille","lat":43.28408,"lon":5.375,"is_reserved":false,"is_disabled":false,"rental_uris":{"android":"levelo://app?vid=0510ebcb-0f92-4bec-9e33-119b63d61a99","ios":"levelo://app?vid=0510ebcb-0f92-4bec-9e33-119b63d61a99"},"vehicle_type_id":"4","last_reported":1732302482,"current_range_meters":28800,"station_id":"ce4bh412rcd13ifvqds0","pricing_plan_id":"cebpf4jnsgd1na2vs0mg"},{"bike_id":"74b5463a-01d7-428c-a87f-824daf27cde1","system_id":"levelo_inurba_marseille","lat":43.33022,"lon":5.39045,"is_reserved":false,"is_disabled":false,"rental_uris":{"android":"levelo://app?vid=74b5463a-01d7-428c-a87f-824daf27cde1","ios":"levelo://app?vid=74b5463a-01d7-428c-a87f-824daf27cde1"},"vehicle_type_id":"4","last_reported":1732302482,"current_range_meters":22400,"station_id":"ce4bhr92rcd13ifvqhrg","pricing_plan_id":"cebpf4jnsgd1na2vs0mg"},{"bike_id":"b34e8955-ce41-4d89-82da-db09af9f764b","system_id":"levelo_inurba_marseille","lat":43.28268,"lon":5.35058,"is_reserved":false,"is_disabled":false,"rental_uris":{"android":"levelo://app?vid=b34e8955-ce41-4d89-82da-db09af9f764b","ios":"levelo://app?vid=b34e8955-ce41-4d89-82da-db09af9f764b"},"vehicle_type_id":"4","last_reported":1732302482,"current_range_meters":13600,"station_id":"ce4bhbp2rcd13ifvqerg","pricing_plan_id":"cebpf4jnsgd1na2vs0mg"},{"bike_id":"db096ee3-a548-4661-a18a-686fcedc57f8","system_id":"levelo_inurba_marseille","lat":43.32622,"lon":5.41016,"is_reserved":false,"is_disabled":false,"rental_uris":{"android":"levelo://app?vid=db096ee3-a548-4661-a18a-686fcedc57f8","ios":"levelo://app?vid=db096ee3-a548-4661-a18a-686fcedc57f8"},"vehicle_type_id":"4","last_reported":1732302482,"current_range_meters":8000,"station_id":"ce4bhpp2rcd13ifvqhgg","pricing_plan_id":"cebpf4jnsgd1na2vs0mg"},{"bike_id":"1cd0daee-d68a-4e66-9883-fbe67fd8260f","system_id":"levelo_inurba_marseille","lat":43.305794,"lon":5.370686,"is_reserved":false,"is_disabled":true,"rental_uris":{"android":"levelo://app?vid=1cd0daee-d68a-4e66-9883-fbe67fd8260f","ios":"levelo://app?vid=1cd0daee-d68a-4e66-9883-fbe67fd8260f"},"vehicle_type_id":"4","last_reported":1732302482,"current_range_meters":0,"station_id":"","pricing_plan_id":"cebpf4jnsgd1na2vs0mg"},{"bike_id":"3ecd968f-1f7e-4bd4-968d-4e3b4005d51b","system_id":"levelo_inurba_marseille","lat":43.31048,"lon":5.37883,"is_reserved":false,"is_disabled":true,"rental_uris":{"android":"levelo://app?vid=3ecd968f-1f7e-4bd4-968d-4e3b4005d51b","ios":"levelo://app?vid=3ecd968f-1f7e-4bd4-968d-4e3b4005d51b"},"vehicle_type_id":"4","last_reported":1732302482,"current_range_meters":2000,"station_id":"","pricing_plan_id":"cebpf4jnsgd1na2vs0mg"},{"bike_id":"6eace99b-2a10-4c4f-a547-7b23be4fef3f","system_id":"levelo_inurba_marseille","lat":43.29266,"lon":5.38442,"is_reserved":false,"is_disabled":false,"rental_uris":{"android":"levelo://app?vid=6eace99b-2a10-4c4f-a547-7b23be4fef3f","ios":"levelo://app?vid=6eace99b-2a10-4c4f-a547-7b23be4fef3f"},"vehicle_type_id":"4","last_reported":1732302482,"current_range_meters":30400,"station_id":"ce4bh692rcd13ifvqea0","pricing_plan_id":"cebpf4jnsgd1na2vs0mg"},{"bike_id":"0ddfa46a-4055-4654-8da1-794fa513a354","system_id":"levelo_inurba_marseille","lat":43.26191,"lon":5.37923,"is_reserved":false,"is_disabled":false,"rental_uris":{"android":"levelo://app?vid=0ddfa46a-4055-4654-8da1-794fa513a354","ios":"levelo://app?vid=0ddfa46a-4055-4654-8da1-794fa513a354"},"vehicle_type_id":"4","last_reported":1732302482,"current_range_meters":9600,"station_id":"ce4bhjp2rcd13ifvqg90","pricing_plan_id":"cebpf4jnsgd1na2vs0mg"},{"bike_id":"ac39d077-6f20-4f7c-a28d-134261e93ccd","system_id":"levelo_inurba_marseille","lat":43.2804,"lon":5.36948,"is_reserved":false,"is_disabled":false,"rental_uris":{"android":"levelo://app?vid=ac39d077-6f20-4f7c-a28d-134261e93ccd","ios":"levelo://app?vid=ac39d077-6f20-4f7c-a28d-134261e93ccd"},"vehicle_type_id":"4","last_reported":1732302482,"current_range_meters":36000,"station_id":"ce4bha12rcd13ifvqef0","pricing_plan_id":"cebpf4jnsgd1na2vs0mg"},{"bike_id":"0a888c1c-922f-4973-9872-7cf0fdfa8c4f","system_id":"levelo_inurba_marseille","lat":43.30141,"lon":5.39882,"is_reserved":false,"is_disabled":false,"rental_uris":{"android":"levelo://app?vid=0a888c1c-922f-4973-9872-7cf0fdfa8c4f","ios":"levelo://app?vid=0a888c1c-922f-4973-9872-7cf0fdfa8c4f"},"vehicle_type_id":"4","last_reported":1732302482,"current_range_meters":37600,"station_id":"ce4bh0h2rcd13ifvqd40","pricing_plan_id":"cebpf4jnsgd1na2vs0mg"},{"bike_id":"8bcee671-b2d2-40ef-8b6f-a2e937d907f6","system_id":"levelo_inurba_marseille","lat":43.29269,"lon":5.38436,"is_reserved":false,"is_disabled":false,"rental_uris":{"android":"levelo://app?vid=8bcee671-b2d2-40ef-8b6f-a2e937d907f6","ios":"levelo://app?vid=8bcee671-b2d2-40ef-8b6f-a2e937d907f6"},"vehicle_type_id":"4","last_reported":1732302482,"current_range_meters":38000,"station_id":"ce4bh692rcd13ifvqea0","pricing_plan_id":"cebpf4jnsgd1na2vs0mg"},{"bike_id":"7a8db3dc-7ed9-4c06-814c-f1b4ad393ca2","system_id":"levelo_inurba_marseille","lat":43.32003,"lon":5.38283,"is_reserved":false,"is_disabled":false,"rental_uris":{"android":"levelo://app?vid=7a8db3dc-7ed9-4c06-814c-f1b4ad393ca2","ios":"levelo://app?vid=7a8db3dc-7ed9-4c06-814c-f1b4ad393ca2"},"vehicle_type_id":"4","last_reported":1732302482,"current_range_meters":32400,"station_id":"","pricing_plan_id":"cebpf4jnsgd1na2vs0mg"},{"bike_id":"ac1b3788-b03a-4376-bf72-320fd033ea51","system_id":"levelo_inurba_marseille","lat":43.27674,"lon":5.38899,"is_reserved":false,"is_disabled":true,"rental_uris":{"android":"levelo://app?vid=ac1b3788-b03a-4376-bf72-320fd033ea51","ios":"levelo://app?vid=ac1b3788-b03a-4376-bf72-320fd033ea51"},"vehicle_type_id":"4","last_reported":1732302482,"current_range_meters":7200,"station_id":"ce4bhi12rcd13ifvqfo0","pricing_plan_id":"cebpf4jnsgd1na2vs0mg"},{"bike_id":"d9daeadf-8773-4027-91eb-b4134ba7ee7d","system_id":"levelo_inurba_marseille","lat":43.29582,"lon":5.36729,"is_reserved":false,"is_disabled":false,"rental_uris":{"android":"levelo://app?vid=d9daeadf-8773-4027-91eb-b4134ba7ee7d","ios":"levelo://app?vid=d9daeadf-8773-4027-91eb-b4134ba7ee7d"},"vehicle_type_id":"4","last_reported":1732302482,"current_range_meters":36800,"station_id":"ce4bgph2rcd13ifvqc2g","pricing_plan_id":"cebpf4jnsgd1na2vs0mg"},{"bike_id":"34ad52a7-4175-49a3-9260-634909856063","system_id":"levelo_inurba_marseille","lat":43.29529,"lon":5.39033,"is_reserved":false,"is_disabled":false,"rental_uris":{"android":"levelo://app?vid=34ad52a7-4175-49a3-9260-634909856063","ios":"levelo://app?vid=34ad52a7-4175-49a3-9260-634909856063"},"vehicle_type_id":"4","last_reported":1732302482,"current_range_meters":17600,"station_id":"ce4bh3p2rcd13ifvqdp0","pricing_plan_id":"cebpf4jnsgd1na2vs0mg"},{"bike_id":"ebe2b43b-e5bb-4158-835b-e46b2ce0d167","system_id":"levelo_inurba_marseille","lat":43.22928,"lon":5.35372,"is_reserved":false,"is_disabled":false,"rental_uris":{"android":"levelo://app?vid=ebe2b43b-e5bb-4158-835b-e46b2ce0d167","ios":"levelo://app?vid=ebe2b43b-e5bb-4158-835b-e46b2ce0d167"},"vehicle_type_id":"4","last_reported":1732302482,"current_range_meters":32800,"station_id":"cpo3532slgdg3j2ikp40","pricing_plan_id":"cebpf4jnsgd1na2vs0mg"},{"bike_id":"830db305-47e1-4206-8f68-075e00446ad4","system_id":"levelo_inurba_marseille","lat":43.23152,"lon":5.43726,"is_reserved":false,"is_disabled":false,"rental_uris":{"android":"levelo://app?vid=830db305-47e1-4206-8f68-075e00446ad4","ios":"levelo://app?vid=830db305-47e1-4206-8f68-075e00446ad4"},"vehicle_type_id":"4","last_reported":1732302482,"current_range_meters":38800,"station_id":"ce4bhmp2rcd13ifvqgog","pricing_plan_id":"cebpf4jnsgd1na2vs0mg"},{"bike_id":"f4c54dd0-a013-4d39-8669-766de3dd4167","system_id":"levelo_inurba_marseille","lat":43.32373,"lon":5.38883,"is_reserved":false,"is_disabled":false,"rental_uris":{"android":"levelo://app?vid=f4c54dd0-a013-4d39-8669-766de3dd4167","ios":"levelo://app?vid=f4c54dd0-a013-4d39-8669-766de3dd4167"},"vehicle_type_id":"4","last_reported":1732302482,"current_range_meters":4400,"station_id":"ce4bhqp2rcd13ifvqhog","pricing_plan_id":"cebpf4jnsgd1na2vs0mg"},{"bike_id":"d2488813-6160-475b-98ff-560c235a9ddd","system_id":"levelo_inurba_marseille","lat":43.29265,"lon":5.3844,"is_reserved":false,"is_disabled":false,"rental_uris":{"android":"levelo://app?vid=d2488813-6160-475b-98ff-560c235a9ddd","ios":"levelo://app?vid=d2488813-6160-475b-98ff-560c235a9ddd"},"vehicle_type_id":"4","last_reported":1732302482,"current_range_meters":19200,"station_id":"ce4bh692rcd13ifvqea0","pricing_plan_id":"cebpf4jnsgd1na2vs0mg"},{"bike_id":"b4d198fc-1112-40c1-99af-01def53977f8","system_id":"levelo_inurba_marseille","lat":43.3248,"lon":5.36558,"is_reserved":false,"is_disabled":false,"rental_uris":{"android":"levelo://app?vid=b4d198fc-1112-40c1-99af-01def53977f8","ios":"levelo://app?vid=b4d198fc-1112-40c1-99af-01def53977f8"},"vehicle_type_id":"4","last_reported":1732302482,"current_range_meters":32000,"station_id":"ce4bhs12rcd13ifvqhvg","pricing_plan_id":"cebpf4jnsgd1na2vs0mg"},{"bike_id":"09513ad7-433b-4f3d-8dde-384d3770a130","system_id":"levelo_inurba_marseille","lat":43.26209,"lon":5.37441,"is_reserved":false,"is_disabled":false,"rental_uris":{"android":"levelo://app?vid=09513ad7-433b-4f3d-8dde-384d3770a130","ios":"levelo://app?vid=09513ad7-433b-4f3d-8dde-384d3770a130"},"vehicle_type_id":"4","last_reported":1732302482,"current_range_meters":24000,"station_id":"ce4bhgp2rcd13ifvqfc0","pricing_plan_id":"cebpf4jnsgd1na2vs0mg"},{"bike_id":"860c7cbc-b2e8-4472-a730-1f48e6444f46","system_id":"levelo_inurba_marseille","lat":43.27175,"lon":5.40993,"is_reserved":false,"is_disabled":false,"rental_uris":{"android":"levelo://app?vid=860c7cbc-b2e8-4472-a730-1f48e6444f46","ios":"levelo://app?vid=860c7cbc-b2e8-4472-a730-1f48e6444f46"},"vehicle_type_id":"4","last_reported":1732302482,"current_range_meters":30000,"station_id":"ce4bhl12rcd13ifvqgf0","pricing_plan_id":"cebpf4jnsgd1na2vs0mg"},{"bike_id":"eae234a9-de6a-47c3-a9b2-849d2efbe6ba","system_id":"levelo_inurba_marseille","lat":43.2846,"lon":5.35887,"is_reserved":false,"is_disabled":false,"rental_uris":{"android":"levelo://app?vid=eae234a9-de6a-47c3-a9b2-849d2efbe6ba","ios":"levelo://app?vid=eae234a9-de6a-47c3-a9b2-849d2efbe6ba"},"vehicle_type_id":"4","last_reported":1732302482,"current_range_meters":28400,"station_id":"ce4bhah2rcd13ifvqei0","pricing_plan_id":"cebpf4jnsgd1na2vs0mg"},{"bike_id":"ce224dd3-6e01-4dab-8962-28f849f60c70","system_id":"levelo_inurba_marseille","lat":43.23968,"lon":5.36626,"is_reserved":false,"is_disabled":false,"rental_uris":{"android":"levelo://app?vid=ce224dd3-6e01-4dab-8962-28f849f60c70","ios":"levelo://app?vid=ce224dd3-6e01-4dab-8962-28f849f60c70"},"vehicle_type_id":"4","last_reported":1732302482,"current_range_meters":34800,"station_id":"ce4bhi12rcd13ifvqfp0","pricing_plan_id":"cebpf4jnsgd1na2vs0mg"},{"bike_id":"fdbff9e5-5581-4300-9847-6aae3126a1b7","system_id":"levelo_inurba_marseille","lat":43.26199,"lon":5.37929,"is_reserved":false,"is_disabled":false,"rental_uris":{"android":"levelo://app?vid=fdbff9e5-5581-4300-9847-6aae3126a1b7","ios":"levelo://app?vid=fdbff9e5-5581-4300-9847-6aae3126a1b7"},"vehicle_type_id":"4","last_reported":1732302482,"current_range_meters":36000,"station_id":"ce4bhjp2rcd13ifvqg90","pricing_plan_id":"cebpf4jnsgd1na2vs0mg"},{"bike_id":"4614c3ce-fa32-4b49-800d-cf02516d6ab9","system_id":"levelo_inurba_marseille","lat":43.3237,"lon":5.38886,"is_reserved":false,"is_disabled":false,"rental_uris":{"android":"levelo://app?vid=4614c3ce-fa32-4b49-800d-cf02516d6ab9","ios":"levelo://app?vid=4614c3ce-fa32-4b49-800d-cf02516d6ab9"},"vehicle_type_id":"4","last_reported":1732302482,"current_range_meters":32000,"station_id":"ce4bhqp2rcd13ifvqhog","pricing_plan_id":"cebpf4jnsgd1na2vs0mg"},{"bike_id":"fc2ccc2d-7c41-4816-a8b0-161351ec887b","system_id":"levelo_inurba_marseille","lat":43.29621,"lon":5.37169,"is_reserved":false,"is_disabled":true,"rental_uris":{"android":"levelo://app?vid=fc2ccc2d-7c41-4816-a8b0-161351ec887b","ios":"levelo://app?vid=fc2ccc2d-7c41-4816-a8b0-161351ec887b"},"vehicle_type_id":"4","last_reported":1732302482,"current_range_meters":4400,"station_id":"ce4bgnh2rcd13ifvqc0g","pricing_plan_id":"cebpf4jnsgd1na2vs0mg"},{"bike_id":"86516b1e-3544-4c3e-8975-d29dc11340a0","system_id":"levelo_inurba_marseille","lat":43.31905,"lon":5.38196,"is_reserved":false,"is_disabled":false,"rental_uris":{"android":"levelo://app?vid=86516b1e-3544-4c3e-8975-d29dc11340a0","ios":"levelo://app?vid=86516b1e-3544-4c3e-8975-d29dc11340a0"},"vehicle_type_id":"4","last_reported":1732302482,"current_range_meters":25200,"station_id":"","pricing_plan_id":"cebpf4jnsgd1na2vs0mg"},{"bike_id":"c89ab050-913e-4e6b-9fcd-d7f32c0d860b","system_id":"levelo_inurba_marseille","lat":43.29557,"lon":5.42291,"is_reserved":false,"is_disabled":false,"rental_uris":{"android":"levelo://app?vid=c89ab050-913e-4e6b-9fcd-d7f32c0d860b","ios":"levelo://app?vid=c89ab050-913e-4e6b-9fcd-d7f32c0d860b"},"vehicle_type_id":"4","last_reported":1732302482,"current_range_meters":36400,"station_id":"ce4bhph2rcd13ifvqhdg","pricing_plan_id":"cebpf4jnsgd1na2vs0mg"},{"bike_id":"091cc9eb-8580-435f-ab25-55aa0962542e","system_id":"levelo_inurba_marseille","lat":43.26026,"lon":5.37552,"is_reserved":false,"is_disabled":false,"rental_uris":{"android":"levelo://app?vid=091cc9eb-8580-435f-ab25-55aa0962542e","ios":"levelo://app?vid=091cc9eb-8580-435f-ab25-55aa0962542e"},"vehicle_type_id":"4","last_reported":1732302482,"current_range_meters":30400,"station_id":"ce4bhgh2rcd13ifvqfa0","pricing_plan_id":"cebpf4jnsgd1na2vs0mg"},{"bike_id":"ca3a082f-6cf2-410e-9e1b-d17c5a6eea8c","system_id":"levelo_inurba_marseille","lat":43.26065,"lon":5.39396,"is_reserved":false,"is_disabled":false,"rental_uris":{"android":"levelo://app?vid=ca3a082f-6cf2-410e-9e1b-d17c5a6eea8c","ios":"levelo://app?vid=ca3a082f-6cf2-410e-9e1b-d17c5a6eea8c"},"vehicle_type_id":"4","last_reported":1732302482,"current_range_meters":23200,"station_id":"ce4bhh92rcd13ifvqfj0","pricing_plan_id":"cebpf4jnsgd1na2vs0mg"},{"bike_id":"38c9b486-00d0-4829-876e-418f2a6304ad","system_id":"levelo_inurba_marseille","lat":43.29251,"lon":5.38435,"is_reserved":false,"is_disabled":false,"rental_uris":{"android":"levelo://app?vid=38c9b486-00d0-4829-876e-418f2a6304ad","ios":"levelo://app?vid=38c9b486-00d0-4829-876e-418f2a6304ad"},"vehicle_type_id":"4","last_reported":1732302482,"current_range_meters":20800,"station_id":"ce4bh692rcd13ifvqea0","pricing_plan_id":"cebpf4jnsgd1na2vs0mg"},{"bike_id":"734f7059-f2db-4575-bbbe-3157e1edc8df","system_id":"levelo_inurba_marseille","lat":43.27989,"lon":5.41664,"is_reserved":false,"is_disabled":true,"rental_uris":{"android":"levelo://app?vid=734f7059-f2db-4575-bbbe-3157e1edc8df","ios":"levelo://app?vid=734f7059-f2db-4575-bbbe-3157e1edc8df"},"vehicle_type_id":"4","last_reported":1732302482,"current_range_meters":0,"station_id":"ce4bho12rcd13ifvqh1g","pricing_plan_id":"cebpf4jnsgd1na2vs0mg"},{"bike_id":"610cb638-0e70-46b0-b602-05542579f00f","system_id":"levelo_inurba_marseille","lat":43.3136,"lon":5.3849,"is_reserved":false,"is_disabled":false,"rental_uris":{"android":"levelo://app?vid=610cb638-0e70-46b0-b602-05542579f00f","ios":"levelo://app?vid=610cb638-0e70-46b0-b602-05542579f00f"},"vehicle_type_id":"4","last_reported":1732302482,"current_range_meters":29600,"station_id":"ce4bgt92rcd13ifvqcf0","pricing_plan_id":"cebpf4jnsgd1na2vs0mg"},{"bike_id":"f9e35db8-2f7a-4f43-8c70-83778761d42d","system_id":"levelo_inurba_marseille","lat":43.23189,"lon":5.35551,"is_reserved":false,"is_disabled":true,"rental_uris":{"android":"levelo://app?vid=f9e35db8-2f7a-4f43-8c70-83778761d42d","ios":"levelo://app?vid=f9e35db8-2f7a-4f43-8c70-83778761d42d"},"vehicle_type_id":"4","last_reported":1732302482,"current_range_meters":36000,"station_id":"ce4bhu92rcd13ifvqi70","pricing_plan_id":"cebpf4jnsgd1na2vs0mg"},{"bike_id":"bc7d54aa-865b-4e2e-81a1-05ff90b82eb8","system_id":"levelo_inurba_marseille","lat":43.30921,"lon":5.36851,"is_reserved":false,"is_disabled":false,"rental_uris":{"android":"levelo://app?vid=bc7d54aa-865b-4e2e-81a1-05ff90b82eb8","ios":"levelo://app?vid=bc7d54aa-865b-4e2e-81a1-05ff90b82eb8"},"vehicle_type_id":"4","last_reported":1732302482,"current_range_meters":32400,"station_id":"ce4bgn92rcd13ifvqbvg","pricing_plan_id":"cebpf4jnsgd1na2vs0mg"},{"bike_id":"4923c322-eb4a-4095-bc0c-aa6b225ff01a","system_id":"levelo_inurba_marseille","lat":43.31356,"lon":5.38494,"is_reserved":false,"is_disabled":true,"rental_uris":{"android":"levelo://app?vid=4923c322-eb4a-4095-bc0c-aa6b225ff01a","ios":"levelo://app?vid=4923c322-eb4a-4095-bc0c-aa6b225ff01a"},"vehicle_type_id":"4","last_reported":1732302482,"current_range_meters":29600,"station_id":"ce4bgt92rcd13ifvqcf0","pricing_plan_id":"cebpf4jnsgd1na2vs0mg"},{"bike_id":"1108659d-c798-48fb-a758-9ac015354e35","system_id":"levelo_inurba_marseille","lat":43.26204,"lon":5.37926,"is_reserved":false,"is_disabled":false,"rental_uris":{"android":"levelo://app?vid=1108659d-c798-48fb-a758-9ac015354e35","ios":"levelo://app?vid=1108659d-c798-48fb-a758-9ac015354e35"},"vehicle_type_id":"4","last_reported":1732302482,"current_range_meters":26000,"station_id":"ce4bhjp2rcd13ifvqg90","pricing_plan_id":"cebpf4jnsgd1na2vs0mg"},{"bike_id":"af6570c7-3160-46b3-9a4c-b0a02076a209","system_id":"levelo_inurba_marseille","lat":43.2694,"lon":5.40246,"is_reserved":false,"is_disabled":false,"rental_uris":{"android":"levelo://app?vid=af6570c7-3160-46b3-9a4c-b0a02076a209","ios":"levelo://app?vid=af6570c7-3160-46b3-9a4c-b0a02076a209"},"vehicle_type_id":"4","last_reported":1732302482,"current_range_meters":38800,"station_id":"cjm6bp8fraef2m0cb0m0","pricing_plan_id":"cebpf4jnsgd1na2vs0mg"},{"bike_id":"f8697fe7-c234-437e-97a9-d54fc89ce3fa","system_id":"levelo_inurba_marseille","lat":43.32359,"lon":5.38881,"is_reserved":false,"is_disabled":false,"rental_uris":{"android":"levelo://app?vid=f8697fe7-c234-437e-97a9-d54fc89ce3fa","ios":"levelo://app?vid=f8697fe7-c234-437e-97a9-d54fc89ce3fa"},"vehicle_type_id":"4","last_reported":1732302482,"current_range_meters":9200,"station_id":"ce4bhqp2rcd13ifvqhog","pricing_plan_id":"cebpf4jnsgd1na2vs0mg"},{"bike_id":"b43bebe3-2ce1-48bf-a7ff-c7b7beb7610c","system_id":"levelo_inurba_marseille","lat":43.2978,"lon":5.37102,"is_reserved":false,"is_disabled":false,"rental_uris":{"android":"levelo://app?vid=b43bebe3-2ce1-48bf-a7ff-c7b7beb7610c","ios":"levelo://app?vid=b43bebe3-2ce1-48bf-a7ff-c7b7beb7610c"},"vehicle_type_id":"4","last_reported":1732302482,"current_range_meters":12400,"station_id":"ce4bgop2rcd13ifvqc1g","pricing_plan_id":"cebpf4jnsgd1na2vs0mg"},{"bike_id":"1682773e-4b36-44ab-b13e-cd89f257bad0","system_id":"levelo_inurba_marseille","lat":43.29786,"lon":5.39336,"is_reserved":false,"is_disabled":false,"rental_uris":{"android":"levelo://app?vid=1682773e-4b36-44ab-b13e-cd89f257bad0","ios":"levelo://app?vid=1682773e-4b36-44ab-b13e-cd89f257bad0"},"vehicle_type_id":"4","last_reported":1732302482,"current_range_meters":36400,"station_id":"chh1huq6cuj3fo74tm60","pricing_plan_id":"cebpf4jnsgd1na2vs0mg"},{"bike_id":"c365728b-0a42-404b-bc3d-9ed271892e69","system_id":"levelo_inurba_marseille","lat":43.269566,"lon":5.386494,"is_reserved":false,"is_disabled":false,"rental_uris":{"android":"levelo://app?vid=c365728b-0a42-404b-bc3d-9ed271892e69","ios":"levelo://app?vid=c365728b-0a42-404b-bc3d-9ed271892e69"},"vehicle_type_id":"4","last_reported":1732302482,"current_range_meters":32400,"station_id":"ce4bhh92rcd13ifvqfh0","pricing_plan_id":"cebpf4jnsgd1na2vs0mg"},{"bike_id":"70c74594-4963-4ad0-91bf-4f20fe02e74f","system_id":"levelo_inurba_marseille","lat":43.23182,"lon":5.39984,"is_reserved":false,"is_disabled":false,"rental_uris":{"android":"levelo://app?vid=70c74594-4963-4ad0-91bf-4f20fe02e74f","ios":"levelo://app?vid=70c74594-4963-4ad0-91bf-4f20fe02e74f"},"vehicle_type_id":"4","last_reported":1732302482,"current_range_meters":20000,"station_id":"ce4bhn12rcd13ifvqgqg","pricing_plan_id":"cebpf4jnsgd1na2vs0mg"},{"bike_id":"5d43e703-693c-4ea3-9aee-7475afec79ce","system_id":"levelo_inurba_marseille","lat":43.3091,"lon":5.36846,"is_reserved":false,"is_disabled":false,"rental_uris":{"android":"levelo://app?vid=5d43e703-693c-4ea3-9aee-7475afec79ce","ios":"levelo://app?vid=5d43e703-693c-4ea3-9aee-7475afec79ce"},"vehicle_type_id":"4","last_reported":1732302482,"current_range_meters":24400,"station_id":"ce4bgn92rcd13ifvqbvg","pricing_plan_id":"cebpf4jnsgd1na2vs0mg"},{"bike_id":"c54eb8d7-a98a-4ea1-9520-b82c17caf0ff","system_id":"levelo_inurba_marseille","lat":43.28414,"lon":5.37511,"is_reserved":false,"is_disabled":false,"rental_uris":{"android":"levelo://app?vid=c54eb8d7-a98a-4ea1-9520-b82c17caf0ff","ios":"levelo://app?vid=c54eb8d7-a98a-4ea1-9520-b82c17caf0ff"},"vehicle_type_id":"4","last_reported":1732302482,"current_range_meters":7200,"station_id":"ce4bh412rcd13ifvqds0","pricing_plan_id":"cebpf4jnsgd1na2vs0mg"},{"bike_id":"20c90e68-c6af-4e47-81ff-371d93d51ad7","system_id":"levelo_inurba_marseille","lat":43.27317,"lon":5.39075,"is_reserved":false,"is_disabled":true,"rental_uris":{"android":"levelo://app?vid=20c90e68-c6af-4e47-81ff-371d93d51ad7","ios":"levelo://app?vid=20c90e68-c6af-4e47-81ff-371d93d51ad7"},"vehicle_type_id":"4","last_reported":1732302482,"current_range_meters":0,"station_id":"ce4bhgp2rcd13ifvqfe0","pricing_plan_id":"cebpf4jnsgd1na2vs0mg"},{"bike_id":"ff474302-046a-43ab-9883-c30610cb938a","system_id":"levelo_inurba_marseille","lat":43.27998,"lon":5.40007,"is_reserved":false,"is_disabled":false,"rental_uris":{"android":"levelo://app?vid=ff474302-046a-43ab-9883-c30610cb938a","ios":"levelo://app?vid=ff474302-046a-43ab-9883-c30610cb938a"},"vehicle_type_id":"4","last_reported":1732302482,"current_range_meters":10800,"station_id":"ce4bho92rcd13ifvqh4g","pricing_plan_id":"cebpf4jnsgd1na2vs0mg"},{"bike_id":"72726f44-37d1-4a88-88ea-ef0e740efe31","system_id":"levelo_inurba_marseille","lat":43.28981,"lon":5.37835,"is_reserved":false,"is_disabled":false,"rental_uris":{"android":"levelo://app?vid=72726f44-37d1-4a88-88ea-ef0e740efe31","ios":"levelo://app?vid=72726f44-37d1-4a88-88ea-ef0e740efe31"},"vehicle_type_id":"4","last_reported":1732302482,"current_range_meters":30400,"station_id":"ce4bh9p2rcd13ifvqed0","pricing_plan_id":"cebpf4jnsgd1na2vs0mg"},{"bike_id":"7eaa0e97-b9ad-4888-8625-5af49ff01b92","system_id":"levelo_inurba_marseille","lat":43.24389,"lon":5.37059,"is_reserved":false,"is_disabled":false,"rental_uris":{"android":"levelo://app?vid=7eaa0e97-b9ad-4888-8625-5af49ff01b92","ios":"levelo://app?vid=7eaa0e97-b9ad-4888-8625-5af49ff01b92"},"vehicle_type_id":"4","last_reported":1732302482,"current_range_meters":26800,"station_id":"ce4bhhh2rcd13ifvqfk0","pricing_plan_id":"cebpf4jnsgd1na2vs0mg"},{"bike_id":"80f6b2e8-c757-4d49-befc-0506c32a2fb5","system_id":"levelo_inurba_marseille","lat":43.30153,"lon":5.38091,"is_reserved":false,"is_disabled":false,"rental_uris":{"android":"levelo://app?vid=80f6b2e8-c757-4d49-befc-0506c32a2fb5","ios":"levelo://app?vid=80f6b2e8-c757-4d49-befc-0506c32a2fb5"},"vehicle_type_id":"4","last_reported":1732302482,"current_range_meters":26000,"station_id":"ce4bgjp2rcd13ifvqbh0","pricing_plan_id":"cebpf4jnsgd1na2vs0mg"},{"bike_id":"65971df2-2e95-4d57-a5e9-400001de64ac","system_id":"levelo_inurba_marseille","lat":43.27996,"lon":5.40009,"is_reserved":false,"is_disabled":false,"rental_uris":{"android":"levelo://app?vid=65971df2-2e95-4d57-a5e9-400001de64ac","ios":"levelo://app?vid=65971df2-2e95-4d57-a5e9-400001de64ac"},"vehicle_type_id":"4","last_reported":1732302482,"current_range_meters":38800,"station_id":"ce4bho92rcd13ifvqh4g","pricing_plan_id":"cebpf4jnsgd1na2vs0mg"},{"bike_id":"99d5eeb3-6513-46db-81bf-de6e43866527","system_id":"levelo_inurba_marseille","lat":43.32366,"lon":5.38883,"is_reserved":false,"is_disabled":false,"rental_uris":{"android":"levelo://app?vid=99d5eeb3-6513-46db-81bf-de6e43866527","ios":"levelo://app?vid=99d5eeb3-6513-46db-81bf-de6e43866527"},"vehicle_type_id":"4","last_reported":1732302482,"current_range_meters":36800,"station_id":"ce4bhqp2rcd13ifvqhog","pricing_plan_id":"cebpf4jnsgd1na2vs0mg"},{"bike_id":"911b0a13-d3b3-4cdf-a44d-381c04264f12","system_id":"levelo_inurba_marseille","lat":43.2951,"lon":5.36392,"is_reserved":false,"is_disabled":false,"rental_uris":{"android":"levelo://app?vid=911b0a13-d3b3-4cdf-a44d-381c04264f12","ios":"levelo://app?vid=911b0a13-d3b3-4cdf-a44d-381c04264f12"},"vehicle_type_id":"4","last_reported":1732302482,"current_range_meters":14800,"station_id":"ce4bgnh2rcd13ifvqc0g","pricing_plan_id":"cebpf4jnsgd1na2vs0mg"},{"bike_id":"155e9a30-207a-43fb-a132-7a4221c11bdb","system_id":"levelo_inurba_marseille","lat":43.27992,"lon":5.40018,"is_reserved":false,"is_disabled":false,"rental_uris":{"android":"levelo://app?vid=155e9a30-207a-43fb-a132-7a4221c11bdb","ios":"levelo://app?vid=155e9a30-207a-43fb-a132-7a4221c11bdb"},"vehicle_type_id":"4","last_reported":1732302482,"current_range_meters":28800,"station_id":"ce4bho92rcd13ifvqh4g","pricing_plan_id":"cebpf4jnsgd1na2vs0mg"},{"bike_id":"c2500530-dba4-46d4-8bd1-16512ac5be03","system_id":"levelo_inurba_marseille","lat":43.31373,"lon":5.3849,"is_reserved":false,"is_disabled":false,"rental_uris":{"android":"levelo://app?vid=c2500530-dba4-46d4-8bd1-16512ac5be03","ios":"levelo://app?vid=c2500530-dba4-46d4-8bd1-16512ac5be03"},"vehicle_type_id":"4","last_reported":1732302482,"current_range_meters":33600,"station_id":"ce4bgt92rcd13ifvqcf0","pricing_plan_id":"cebpf4jnsgd1na2vs0mg"},{"bike_id":"277f0f66-b864-41db-b0a5-ab895b1613e5","system_id":"levelo_inurba_marseille","lat":43.29303,"lon":5.37186,"is_reserved":false,"is_disabled":false,"rental_uris":{"android":"levelo://app?vid=277f0f66-b864-41db-b0a5-ab895b1613e5","ios":"levelo://app?vid=277f0f66-b864-41db-b0a5-ab895b1613e5"},"vehicle_type_id":"4","last_reported":1732302482,"current_range_meters":32800,"station_id":"ce4bgh92rcd13ifvqb40","pricing_plan_id":"cebpf4jnsgd1na2vs0mg"},{"bike_id":"d7b6f087-a4ee-4886-9515-de27c79e1bf9","system_id":"levelo_inurba_marseille","lat":43.29587,"lon":5.36736,"is_reserved":false,"is_disabled":false,"rental_uris":{"android":"levelo://app?vid=d7b6f087-a4ee-4886-9515-de27c79e1bf9","ios":"levelo://app?vid=d7b6f087-a4ee-4886-9515-de27c79e1bf9"},"vehicle_type_id":"4","last_reported":1732302482,"current_range_meters":35200,"station_id":"ce4bgph2rcd13ifvqc2g","pricing_plan_id":"cebpf4jnsgd1na2vs0mg"},{"bike_id":"a76b0499-18a9-4cab-8de9-9364156c12e9","system_id":"levelo_inurba_marseille","lat":43.27995,"lon":5.40014,"is_reserved":false,"is_disabled":false,"rental_uris":{"android":"levelo://app?vid=a76b0499-18a9-4cab-8de9-9364156c12e9","ios":"levelo://app?vid=a76b0499-18a9-4cab-8de9-9364156c12e9"},"vehicle_type_id":"4","last_reported":1732302482,"current_range_meters":38800,"station_id":"ce4bho92rcd13ifvqh4g","pricing_plan_id":"cebpf4jnsgd1na2vs0mg"},{"bike_id":"f950215e-acc6-44ca-ac46-d5ea0b0bfabc","system_id":"levelo_inurba_marseille","lat":43.23189,"lon":5.39971,"is_reserved":false,"is_disabled":false,"rental_uris":{"android":"levelo://app?vid=f950215e-acc6-44ca-ac46-d5ea0b0bfabc","ios":"levelo://app?vid=f950215e-acc6-44ca-ac46-d5ea0b0bfabc"},"vehicle_type_id":"4","last_reported":1732302482,"current_range_meters":38800,"station_id":"ce4bhn12rcd13ifvqgqg","pricing_plan_id":"cebpf4jnsgd1na2vs0mg"},{"bike_id":"b7b11407-7402-40ba-ac5e-a8b37da9e642","system_id":"levelo_inurba_marseille","lat":43.29265,"lon":5.38438,"is_reserved":false,"is_disabled":false,"rental_uris":{"android":"levelo://app?vid=b7b11407-7402-40ba-ac5e-a8b37da9e642","ios":"levelo://app?vid=b7b11407-7402-40ba-ac5e-a8b37da9e642"},"vehicle_type_id":"4","last_reported":1732302482,"current_range_meters":12000,"station_id":"ce4bh692rcd13ifvqea0","pricing_plan_id":"cebpf4jnsgd1na2vs0mg"},{"bike_id":"dda70c14-561c-4751-939b-83f27427bdc1","system_id":"levelo_inurba_marseille","lat":43.29259,"lon":5.38437,"is_reserved":false,"is_disabled":false,"rental_uris":{"android":"levelo://app?vid=dda70c14-561c-4751-939b-83f27427bdc1","ios":"levelo://app?vid=dda70c14-561c-4751-939b-83f27427bdc1"},"vehicle_type_id":"4","last_reported":1732302482,"current_range_meters":25600,"station_id":"ce4bh692rcd13ifvqea0","pricing_plan_id":"cebpf4jnsgd1na2vs0mg"},{"bike_id":"cd78312a-142a-42d0-92e1-dbc654bf8bb4","system_id":"levelo_inurba_marseille","lat":43.24186,"lon":5.39718,"is_reserved":false,"is_disabled":true,"rental_uris":{"android":"levelo://app?vid=cd78312a-142a-42d0-92e1-dbc654bf8bb4","ios":"levelo://app?vid=cd78312a-142a-42d0-92e1-dbc654bf8bb4"},"vehicle_type_id":"4","last_reported":1732302482,"current_range_meters":19200,"station_id":"ce4bhn12rcd13ifvqgpg","pricing_plan_id":"cebpf4jnsgd1na2vs0mg"},{"bike_id":"82d6b457-d05e-4b6a-9473-8ca45db43596","system_id":"levelo_inurba_marseille","lat":43.24546,"lon":5.3952,"is_reserved":false,"is_disabled":false,"rental_uris":{"android":"levelo://app?vid=82d6b457-d05e-4b6a-9473-8ca45db43596","ios":"levelo://app?vid=82d6b457-d05e-4b6a-9473-8ca45db43596"},"vehicle_type_id":"4","last_reported":1732302482,"current_range_meters":2000,"station_id":"ce4bhlp2rcd13ifvqgjg","pricing_plan_id":"cebpf4jnsgd1na2vs0mg"},{"bike_id":"11c5ed7c-dad2-4605-8db8-4918d0818190","system_id":"levelo_inurba_marseille","lat":43.31727,"lon":5.424,"is_reserved":false,"is_disabled":false,"rental_uris":{"android":"levelo://app?vid=11c5ed7c-dad2-4605-8db8-4918d0818190","ios":"levelo://app?vid=11c5ed7c-dad2-4605-8db8-4918d0818190"},"vehicle_type_id":"4","last_reported":1732302482,"current_range_meters":38800,"station_id":"ce4bhp92rcd13ifvqhbg","pricing_plan_id":"cebpf4jnsgd1na2vs0mg"},{"bike_id":"3dedd3a3-3784-47e0-bd52-94265bd44a24","system_id":"levelo_inurba_marseille","lat":43.24547,"lon":5.37324,"is_reserved":false,"is_disabled":true,"rental_uris":{"android":"levelo://app?vid=3dedd3a3-3784-47e0-bd52-94265bd44a24","ios":"levelo://app?vid=3dedd3a3-3784-47e0-bd52-94265bd44a24"},"vehicle_type_id":"4","last_reported":1732302482,"current_range_meters":0,"station_id":"","pricing_plan_id":"cebpf4jnsgd1na2vs0mg"},{"bike_id":"b36f03e6-494c-4bd2-a2d3-5eb3c5a56aee","system_id":"levelo_inurba_marseille","lat":43.30806,"lon":5.38144,"is_reserved":false,"is_disabled":false,"rental_uris":{"android":"levelo://app?vid=b36f03e6-494c-4bd2-a2d3-5eb3c5a56aee","ios":"levelo://app?vid=b36f03e6-494c-4bd2-a2d3-5eb3c5a56aee"},"vehicle_type_id":"4","last_reported":1732302482,"current_range_meters":33200,"station_id":"ce4bgt12rcd13ifvqce0","pricing_plan_id":"cebpf4jnsgd1na2vs0mg"},{"bike_id":"bcf5a7ef-45e7-40a2-a25a-d01db7f9684d","system_id":"levelo_inurba_marseille","lat":43.25309,"lon":5.40218,"is_reserved":false,"is_disabled":true,"rental_uris":{"android":"levelo://app?vid=bcf5a7ef-45e7-40a2-a25a-d01db7f9684d","ios":"levelo://app?vid=bcf5a7ef-45e7-40a2-a25a-d01db7f9684d"},"vehicle_type_id":"4","last_reported":1732302482,"current_range_meters":0,"station_id":"","pricing_plan_id":"cebpf4jnsgd1na2vs0mg"},{"bike_id":"3193222d-584b-4642-a1d8-0c04b2309736","system_id":"levelo_inurba_marseille","lat":43.33728,"lon":5.3919,"is_reserved":false,"is_disabled":false,"rental_uris":{"android":"levelo://app?vid=3193222d-584b-4642-a1d8-0c04b2309736","ios":"levelo://app?vid=3193222d-584b-4642-a1d8-0c04b2309736"},"vehicle_type_id":"4","last_reported":1732302482,"current_range_meters":36400,"station_id":"ce4bhr92rcd13ifvqhsg","pricing_plan_id":"cebpf4jnsgd1na2vs0mg"},{"bike_id":"7c2f19f3-5373-4c2a-87bb-e1fd3ef39822","system_id":"levelo_inurba_marseille","lat":43.26565,"lon":5.39007,"is_reserved":false,"is_disabled":true,"rental_uris":{"android":"levelo://app?vid=7c2f19f3-5373-4c2a-87bb-e1fd3ef39822","ios":"levelo://app?vid=7c2f19f3-5373-4c2a-87bb-e1fd3ef39822"},"vehicle_type_id":"4","last_reported":1732302482,"current_range_meters":28800,"station_id":"ce4bhe12rcd13ifvqf30","pricing_plan_id":"cebpf4jnsgd1na2vs0mg"},{"bike_id":"e0f8e8fe-1c8d-47f7-a953-225632c38715","system_id":"levelo_inurba_marseille","lat":43.33027,"lon":5.39045,"is_reserved":false,"is_disabled":false,"rental_uris":{"android":"levelo://app?vid=e0f8e8fe-1c8d-47f7-a953-225632c38715","ios":"levelo://app?vid=e0f8e8fe-1c8d-47f7-a953-225632c38715"},"vehicle_type_id":"4","last_reported":1732302482,"current_range_meters":38800,"station_id":"ce4bhr92rcd13ifvqhrg","pricing_plan_id":"cebpf4jnsgd1na2vs0mg"},{"bike_id":"870e3d5d-3eaf-4dde-960b-7b3e2630f331","system_id":"levelo_inurba_marseille","lat":43.29537,"lon":5.38544,"is_reserved":false,"is_disabled":false,"rental_uris":{"android":"levelo://app?vid=870e3d5d-3eaf-4dde-960b-7b3e2630f331","ios":"levelo://app?vid=870e3d5d-3eaf-4dde-960b-7b3e2630f331"},"vehicle_type_id":"4","last_reported":1732302482,"current_range_meters":36400,"station_id":"ce4bgih2rcd13ifvqba0","pricing_plan_id":"cebpf4jnsgd1na2vs0mg"},{"bike_id":"1021e69b-7bf7-4c3d-99c5-7dbbd4dbf0b4","system_id":"levelo_inurba_marseille","lat":43.30801,"lon":5.38146,"is_reserved":false,"is_disabled":false,"rental_uris":{"android":"levelo://app?vid=1021e69b-7bf7-4c3d-99c5-7dbbd4dbf0b4","ios":"levelo://app?vid=1021e69b-7bf7-4c3d-99c5-7dbbd4dbf0b4"},"vehicle_type_id":"4","last_reported":1732302482,"current_range_meters":33600,"station_id":"ce4bgt12rcd13ifvqce0","pricing_plan_id":"cebpf4jnsgd1na2vs0mg"},{"bike_id":"1fe36207-a189-42b7-a2ae-a1bed57e3dd0","system_id":"levelo_inurba_marseille","lat":43.2603,"lon":5.37555,"is_reserved":false,"is_disabled":false,"rental_uris":{"android":"levelo://app?vid=1fe36207-a189-42b7-a2ae-a1bed57e3dd0","ios":"levelo://app?vid=1fe36207-a189-42b7-a2ae-a1bed57e3dd0"},"vehicle_type_id":"4","last_reported":1732302482,"current_range_meters":17600,"station_id":"ce4bhgh2rcd13ifvqfa0","pricing_plan_id":"cebpf4jnsgd1na2vs0mg"},{"bike_id":"4ecdaf55-87e7-42ea-ac0e-a41de2a6b49d","system_id":"levelo_inurba_marseille","lat":43.31993,"lon":5.3815,"is_reserved":false,"is_disabled":false,"rental_uris":{"android":"levelo://app?vid=4ecdaf55-87e7-42ea-ac0e-a41de2a6b49d","ios":"levelo://app?vid=4ecdaf55-87e7-42ea-ac0e-a41de2a6b49d"},"vehicle_type_id":"4","last_reported":1732302482,"current_range_meters":26800,"station_id":"ce4bhr12rcd13ifvqhpg","pricing_plan_id":"cebpf4jnsgd1na2vs0mg"},{"bike_id":"51ce6112-ca51-4a26-8335-063dea88ee84","system_id":"levelo_inurba_marseille","lat":43.25993,"lon":5.39408,"is_reserved":false,"is_disabled":false,"rental_uris":{"android":"levelo://app?vid=51ce6112-ca51-4a26-8335-063dea88ee84","ios":"levelo://app?vid=51ce6112-ca51-4a26-8335-063dea88ee84"},"vehicle_type_id":"4","last_reported":1732302482,"current_range_meters":9600,"station_id":"","pricing_plan_id":"cebpf4jnsgd1na2vs0mg"},{"bike_id":"453c879b-6673-4007-89b9-8eb0267e14f9","system_id":"levelo_inurba_marseille","lat":43.31108,"lon":5.37751,"is_reserved":false,"is_disabled":false,"rental_uris":{"android":"levelo://app?vid=453c879b-6673-4007-89b9-8eb0267e14f9","ios":"levelo://app?vid=453c879b-6673-4007-89b9-8eb0267e14f9"},"vehicle_type_id":"4","last_reported":1732302482,"current_range_meters":10000,"station_id":"ce4bgt92rcd13ifvqcg0","pricing_plan_id":"cebpf4jnsgd1na2vs0mg"},{"bike_id":"fc0b1b0c-9a21-495d-be52-0d91f5503bfa","system_id":"levelo_inurba_marseille","lat":43.22928,"lon":5.3538,"is_reserved":false,"is_disabled":false,"rental_uris":{"android":"levelo://app?vid=fc0b1b0c-9a21-495d-be52-0d91f5503bfa","ios":"levelo://app?vid=fc0b1b0c-9a21-495d-be52-0d91f5503bfa"},"vehicle_type_id":"4","last_reported":1732302482,"current_range_meters":25200,"station_id":"cpo3532slgdg3j2ikp40","pricing_plan_id":"cebpf4jnsgd1na2vs0mg"},{"bike_id":"936b6ffa-763c-4e6f-91d6-be27c47b3f46","system_id":"levelo_inurba_marseille","lat":43.24807,"lon":5.37458,"is_reserved":false,"is_disabled":false,"rental_uris":{"android":"levelo://app?vid=936b6ffa-763c-4e6f-91d6-be27c47b3f46","ios":"levelo://app?vid=936b6ffa-763c-4e6f-91d6-be27c47b3f46"},"vehicle_type_id":"4","last_reported":1732302482,"current_range_meters":22400,"station_id":"ce4bhgh2rcd13ifvqfb0","pricing_plan_id":"cebpf4jnsgd1na2vs0mg"},{"bike_id":"ffa3c9fa-b25b-476f-a457-4598667747f1","system_id":"levelo_inurba_marseille","lat":43.292233,"lon":5.360681,"is_reserved":false,"is_disabled":false,"rental_uris":{"android":"levelo://app?vid=ffa3c9fa-b25b-476f-a457-4598667747f1","ios":"levelo://app?vid=ffa3c9fa-b25b-476f-a457-4598667747f1"},"vehicle_type_id":"4","last_reported":1732302482,"current_range_meters":32000,"station_id":"ce4bhbh2rcd13ifvqeqg","pricing_plan_id":"cebpf4jnsgd1na2vs0mg"},{"bike_id":"c120b682-2e80-422a-a85b-3a77e8414d06","system_id":"levelo_inurba_marseille","lat":43.267372,"lon":5.382447,"is_reserved":false,"is_disabled":false,"rental_uris":{"android":"levelo://app?vid=c120b682-2e80-422a-a85b-3a77e8414d06","ios":"levelo://app?vid=c120b682-2e80-422a-a85b-3a77e8414d06"},"vehicle_type_id":"4","last_reported":1732302482,"current_range_meters":38800,"station_id":"ce4bhg92rcd13ifvqf90","pricing_plan_id":"cebpf4jnsgd1na2vs0mg"},{"bike_id":"7ca20c0a-0b0c-492b-b712-fdc0187051bf","system_id":"levelo_inurba_marseille","lat":43.29258,"lon":5.38434,"is_reserved":false,"is_disabled":false,"rental_uris":{"android":"levelo://app?vid=7ca20c0a-0b0c-492b-b712-fdc0187051bf","ios":"levelo://app?vid=7ca20c0a-0b0c-492b-b712-fdc0187051bf"},"vehicle_type_id":"4","last_reported":1732302482,"current_range_meters":39200,"station_id":"ce4bh692rcd13ifvqea0","pricing_plan_id":"cebpf4jnsgd1na2vs0mg"},{"bike_id":"f6e2050b-4c29-467a-ad0a-68a596d99e70","system_id":"levelo_inurba_marseille","lat":43.28705,"lon":5.37392,"is_reserved":false,"is_disabled":false,"rental_uris":{"android":"levelo://app?vid=f6e2050b-4c29-467a-ad0a-68a596d99e70","ios":"levelo://app?vid=f6e2050b-4c29-467a-ad0a-68a596d99e70"},"vehicle_type_id":"4","last_reported":1732302482,"current_range_meters":10800,"station_id":"ce4bh3p2rcd13ifvqdq0","pricing_plan_id":"cebpf4jnsgd1na2vs0mg"},{"bike_id":"68f9bc67-7a46-4c54-8555-1eed96ca8ef0","system_id":"levelo_inurba_marseille","lat":43.32107,"lon":5.36773,"is_reserved":false,"is_disabled":false,"rental_uris":{"android":"levelo://app?vid=68f9bc67-7a46-4c54-8555-1eed96ca8ef0","ios":"levelo://app?vid=68f9bc67-7a46-4c54-8555-1eed96ca8ef0"},"vehicle_type_id":"4","last_reported":1732302482,"current_range_meters":38800,"station_id":"ce4bhrh2rcd13ifvqhug","pricing_plan_id":"cebpf4jnsgd1na2vs0mg"},{"bike_id":"8f1f672c-59ef-4841-a3f8-decb93b0c00c","system_id":"levelo_inurba_marseille","lat":43.24084,"lon":5.37752,"is_reserved":false,"is_disabled":false,"rental_uris":{"android":"levelo://app?vid=8f1f672c-59ef-4841-a3f8-decb93b0c00c","ios":"levelo://app?vid=8f1f672c-59ef-4841-a3f8-decb93b0c00c"},"vehicle_type_id":"4","last_reported":1732302482,"current_range_meters":38000,"station_id":"ce4bhnp2rcd13ifvqgvg","pricing_plan_id":"cebpf4jnsgd1na2vs0mg"},{"bike_id":"77abf286-22bd-4d26-8be8-155b38c2ea19","system_id":"levelo_inurba_marseille","lat":43.24179,"lon":5.39736,"is_reserved":false,"is_disabled":false,"rental_uris":{"android":"levelo://app?vid=77abf286-22bd-4d26-8be8-155b38c2ea19","ios":"levelo://app?vid=77abf286-22bd-4d26-8be8-155b38c2ea19"},"vehicle_type_id":"4","last_reported":1732302482,"current_range_meters":12400,"station_id":"ce4bhn12rcd13ifvqgpg","pricing_plan_id":"cebpf4jnsgd1na2vs0mg"},{"bike_id":"7251622e-73a9-419f-947b-70fd7086d2b8","system_id":"levelo_inurba_marseille","lat":43.2962,"lon":5.36276,"is_reserved":false,"is_disabled":false,"rental_uris":{"android":"levelo://app?vid=7251622e-73a9-419f-947b-70fd7086d2b8","ios":"levelo://app?vid=7251622e-73a9-419f-947b-70fd7086d2b8"},"vehicle_type_id":"4","last_reported":1732302482,"current_range_meters":10000,"station_id":"","pricing_plan_id":"cebpf4jnsgd1na2vs0mg"},{"bike_id":"329e9a01-f59d-4513-abaa-67aa05399372","system_id":"levelo_inurba_marseille","lat":43.28725,"lon":5.37934,"is_reserved":false,"is_disabled":false,"rental_uris":{"android":"levelo://app?vid=329e9a01-f59d-4513-abaa-67aa05399372","ios":"levelo://app?vid=329e9a01-f59d-4513-abaa-67aa05399372"},"vehicle_type_id":"4","last_reported":1732302482,"current_range_meters":21600,"station_id":"ce4bh9p2rcd13ifvqec0","pricing_plan_id":"cebpf4jnsgd1na2vs0mg"},{"bike_id":"6aea02e2-9174-4635-b6f1-99bc3d9f09c2","system_id":"levelo_inurba_marseille","lat":43.28857,"lon":5.3822,"is_reserved":false,"is_disabled":true,"rental_uris":{"android":"levelo://app?vid=6aea02e2-9174-4635-b6f1-99bc3d9f09c2","ios":"levelo://app?vid=6aea02e2-9174-4635-b6f1-99bc3d9f09c2"},"vehicle_type_id":"4","last_reported":1732302482,"current_range_meters":0,"station_id":"","pricing_plan_id":"cebpf4jnsgd1na2vs0mg"},{"bike_id":"d60edd73-4923-4330-b16d-caf6d1490a7d","system_id":"levelo_inurba_marseille","lat":43.3154,"lon":5.38031,"is_reserved":false,"is_disabled":false,"rental_uris":{"android":"levelo://app?vid=d60edd73-4923-4330-b16d-caf6d1490a7d","ios":"levelo://app?vid=d60edd73-4923-4330-b16d-caf6d1490a7d"},"vehicle_type_id":"4","last_reported":1732302482,"current_range_meters":15200,"station_id":"ce4bhsp2rcd13ifvqi50","pricing_plan_id":"cebpf4jnsgd1na2vs0mg"},{"bike_id":"d02cc784-6316-47df-81b0-22d82b4a344f","system_id":"levelo_inurba_marseille","lat":43.28004,"lon":5.40022,"is_reserved":false,"is_disabled":false,"rental_uris":{"android":"levelo://app?vid=d02cc784-6316-47df-81b0-22d82b4a344f","ios":"levelo://app?vid=d02cc784-6316-47df-81b0-22d82b4a344f"},"vehicle_type_id":"4","last_reported":1732302482,"current_range_meters":24400,"station_id":"ce4bho92rcd13ifvqh4g","pricing_plan_id":"cebpf4jnsgd1na2vs0mg"},{"bike_id":"03561c7c-3c83-4715-ae8c-c5b449f32065","system_id":"levelo_inurba_marseille","lat":43.2572,"lon":5.41112,"is_reserved":false,"is_disabled":false,"rental_uris":{"android":"levelo://app?vid=03561c7c-3c83-4715-ae8c-c5b449f32065","ios":"levelo://app?vid=03561c7c-3c83-4715-ae8c-c5b449f32065"},"vehicle_type_id":"4","last_reported":1732302482,"current_range_meters":9600,"station_id":"ce4bhkp2rcd13ifvqgd0","pricing_plan_id":"cebpf4jnsgd1na2vs0mg"},{"bike_id":"2ce56eac-607f-4aee-97f1-1efe9a148076","system_id":"levelo_inurba_marseille","lat":43.22928,"lon":5.35378,"is_reserved":false,"is_disabled":false,"rental_uris":{"android":"levelo://app?vid=2ce56eac-607f-4aee-97f1-1efe9a148076","ios":"levelo://app?vid=2ce56eac-607f-4aee-97f1-1efe9a148076"},"vehicle_type_id":"4","last_reported":1732302482,"current_range_meters":13600,"station_id":"cpo3532slgdg3j2ikp40","pricing_plan_id":"cebpf4jnsgd1na2vs0mg"},{"bike_id":"3c5d0254-2542-44e0-aa08-1a8753e937a8","system_id":"levelo_inurba_marseille","lat":43.2669,"lon":5.38279,"is_reserved":false,"is_disabled":false,"rental_uris":{"android":"levelo://app?vid=3c5d0254-2542-44e0-aa08-1a8753e937a8","ios":"levelo://app?vid=3c5d0254-2542-44e0-aa08-1a8753e937a8"},"vehicle_type_id":"4","last_reported":1732302482,"current_range_meters":38400,"station_id":"ce4bhg92rcd13ifvqf90","pricing_plan_id":"cebpf4jnsgd1na2vs0mg"},{"bike_id":"b7f22744-0ca2-47c8-a3fd-f50fbb66246d","system_id":"levelo_inurba_marseille","lat":43.29267,"lon":5.38433,"is_reserved":false,"is_disabled":false,"rental_uris":{"android":"levelo://app?vid=b7f22744-0ca2-47c8-a3fd-f50fbb66246d","ios":"levelo://app?vid=b7f22744-0ca2-47c8-a3fd-f50fbb66246d"},"vehicle_type_id":"4","last_reported":1732302482,"current_range_meters":33200,"station_id":"ce4bh692rcd13ifvqea0","pricing_plan_id":"cebpf4jnsgd1na2vs0mg"},{"bike_id":"c74abcec-f83d-46ae-b5a9-0a57cc1c1c41","system_id":"levelo_inurba_marseille","lat":43.23195,"lon":5.35559,"is_reserved":false,"is_disabled":false,"rental_uris":{"android":"levelo://app?vid=c74abcec-f83d-46ae-b5a9-0a57cc1c1c41","ios":"levelo://app?vid=c74abcec-f83d-46ae-b5a9-0a57cc1c1c41"},"vehicle_type_id":"4","last_reported":1732302482,"current_range_meters":37600,"station_id":"ce4bhu92rcd13ifvqi70","pricing_plan_id":"cebpf4jnsgd1na2vs0mg"},{"bike_id":"60a4e053-6afd-4cb8-b4f3-08d9be360b93","system_id":"levelo_inurba_marseille","lat":43.25718,"lon":5.41114,"is_reserved":false,"is_disabled":false,"rental_uris":{"android":"levelo://app?vid=60a4e053-6afd-4cb8-b4f3-08d9be360b93","ios":"levelo://app?vid=60a4e053-6afd-4cb8-b4f3-08d9be360b93"},"vehicle_type_id":"4","last_reported":1732302482,"current_range_meters":16000,"station_id":"ce4bhkp2rcd13ifvqgd0","pricing_plan_id":"cebpf4jnsgd1na2vs0mg"},{"bike_id":"1f95b7bf-cda9-49b3-8eea-8d60d5718c7c","system_id":"levelo_inurba_marseille","lat":43.29042,"lon":5.37561,"is_reserved":false,"is_disabled":true,"rental_uris":{"android":"levelo://app?vid=1f95b7bf-cda9-49b3-8eea-8d60d5718c7c","ios":"levelo://app?vid=1f95b7bf-cda9-49b3-8eea-8d60d5718c7c"},"vehicle_type_id":"4","last_reported":1732302482,"current_range_meters":6000,"station_id":"ce4bh692rcd13ifvqe90","pricing_plan_id":"cebpf4jnsgd1na2vs0mg"},{"bike_id":"252b0cd2-2a1c-45e7-8990-fc19450cd0d5","system_id":"levelo_inurba_marseille","lat":43.29175,"lon":5.37151,"is_reserved":false,"is_disabled":false,"rental_uris":{"android":"levelo://app?vid=252b0cd2-2a1c-45e7-8990-fc19450cd0d5","ios":"levelo://app?vid=252b0cd2-2a1c-45e7-8990-fc19450cd0d5"},"vehicle_type_id":"4","last_reported":1732302482,"current_range_meters":19200,"station_id":"ce4bha92rcd13ifvqeh0","pricing_plan_id":"cebpf4jnsgd1na2vs0mg"},{"bike_id":"1eff5ce5-2d56-4465-a12c-60db9ec2175a","system_id":"levelo_inurba_marseille","lat":43.22933,"lon":5.35375,"is_reserved":false,"is_disabled":false,"rental_uris":{"android":"levelo://app?vid=1eff5ce5-2d56-4465-a12c-60db9ec2175a","ios":"levelo://app?vid=1eff5ce5-2d56-4465-a12c-60db9ec2175a"},"vehicle_type_id":"4","last_reported":1732302482,"current_range_meters":38800,"station_id":"cpo3532slgdg3j2ikp40","pricing_plan_id":"cebpf4jnsgd1na2vs0mg"},{"bike_id":"dc815649-e3e3-48aa-b0fd-022cdb8ac58a","system_id":"levelo_inurba_marseille","lat":43.32366,"lon":5.38891,"is_reserved":false,"is_disabled":false,"rental_uris":{"android":"levelo://app?vid=dc815649-e3e3-48aa-b0fd-022cdb8ac58a","ios":"levelo://app?vid=dc815649-e3e3-48aa-b0fd-022cdb8ac58a"},"vehicle_type_id":"4","last_reported":1732302482,"current_range_meters":35600,"station_id":"ce4bhqp2rcd13ifvqhog","pricing_plan_id":"cebpf4jnsgd1na2vs0mg"},{"bike_id":"234ad942-13ad-43d3-b740-3e9f0bc28c87","system_id":"levelo_inurba_marseille","lat":43.30457,"lon":5.40183,"is_reserved":false,"is_disabled":false,"rental_uris":{"android":"levelo://app?vid=234ad942-13ad-43d3-b740-3e9f0bc28c87","ios":"levelo://app?vid=234ad942-13ad-43d3-b740-3e9f0bc28c87"},"vehicle_type_id":"4","last_reported":1732302482,"current_range_meters":16400,"station_id":"","pricing_plan_id":"cebpf4jnsgd1na2vs0mg"},{"bike_id":"30c385db-8302-45c7-b06c-df52324d42f0","system_id":"levelo_inurba_marseille","lat":43.29171,"lon":5.37153,"is_reserved":false,"is_disabled":false,"rental_uris":{"android":"levelo://app?vid=30c385db-8302-45c7-b06c-df52324d42f0","ios":"levelo://app?vid=30c385db-8302-45c7-b06c-df52324d42f0"},"vehicle_type_id":"4","last_reported":1732302482,"current_range_meters":20800,"station_id":"ce4bha92rcd13ifvqeh0","pricing_plan_id":"cebpf4jnsgd1na2vs0mg"},{"bike_id":"17a43134-b8eb-4256-a418-b3c2d37b0696","system_id":"levelo_inurba_marseille","lat":43.32338,"lon":5.40634,"is_reserved":false,"is_disabled":false,"rental_uris":{"android":"levelo://app?vid=17a43134-b8eb-4256-a418-b3c2d37b0696","ios":"levelo://app?vid=17a43134-b8eb-4256-a418-b3c2d37b0696"},"vehicle_type_id":"4","last_reported":1732302482,"current_range_meters":17600,"station_id":"ce4bhq92rcd13ifvqhjg","pricing_plan_id":"cebpf4jnsgd1na2vs0mg"},{"bike_id":"b75a51bd-96cf-40ff-97cc-35f21dfaec7d","system_id":"levelo_inurba_marseille","lat":43.2922,"lon":5.36082,"is_reserved":false,"is_disabled":false,"rental_uris":{"android":"levelo://app?vid=b75a51bd-96cf-40ff-97cc-35f21dfaec7d","ios":"levelo://app?vid=b75a51bd-96cf-40ff-97cc-35f21dfaec7d"},"vehicle_type_id":"4","last_reported":1732302482,"current_range_meters":26800,"station_id":"ce4bhbh2rcd13ifvqeqg","pricing_plan_id":"cebpf4jnsgd1na2vs0mg"},{"bike_id":"18b31652-ca2a-4d83-ad6b-b9ef2d79db0d","system_id":"levelo_inurba_marseille","lat":43.30928,"lon":5.40138,"is_reserved":false,"is_disabled":false,"rental_uris":{"android":"levelo://app?vid=18b31652-ca2a-4d83-ad6b-b9ef2d79db0d","ios":"levelo://app?vid=18b31652-ca2a-4d83-ad6b-b9ef2d79db0d"},"vehicle_type_id":"4","last_reported":1732302482,"current_range_meters":20000,"station_id":"ce4bgvp2rcd13ifvqct0","pricing_plan_id":"cebpf4jnsgd1na2vs0mg"},{"bike_id":"19909d83-8afe-4bf3-bca0-6f2f5bdc1de2","system_id":"levelo_inurba_marseille","lat":43.26214,"lon":5.37442,"is_reserved":false,"is_disabled":false,"rental_uris":{"android":"levelo://app?vid=19909d83-8afe-4bf3-bca0-6f2f5bdc1de2","ios":"levelo://app?vid=19909d83-8afe-4bf3-bca0-6f2f5bdc1de2"},"vehicle_type_id":"4","last_reported":1732302482,"current_range_meters":38800,"station_id":"ce4bhgp2rcd13ifvqfc0","pricing_plan_id":"cebpf4jnsgd1na2vs0mg"},{"bike_id":"ec3d4681-e519-47ef-8aea-573852db7675","system_id":"levelo_inurba_marseille","lat":43.27994,"lon":5.40009,"is_reserved":false,"is_disabled":false,"rental_uris":{"android":"levelo://app?vid=ec3d4681-e519-47ef-8aea-573852db7675","ios":"levelo://app?vid=ec3d4681-e519-47ef-8aea-573852db7675"},"vehicle_type_id":"4","last_reported":1732302482,"current_range_meters":38800,"station_id":"ce4bho92rcd13ifvqh4g","pricing_plan_id":"cebpf4jnsgd1na2vs0mg"},{"bike_id":"fb46633f-9e00-469c-bbd0-67b423838002","system_id":"levelo_inurba_marseille","lat":43.26809,"lon":5.40263,"is_reserved":false,"is_disabled":false,"rental_uris":{"android":"levelo://app?vid=fb46633f-9e00-469c-bbd0-67b423838002","ios":"levelo://app?vid=fb46633f-9e00-469c-bbd0-67b423838002"},"vehicle_type_id":"4","last_reported":1732302482,"current_range_meters":38800,"station_id":"ce501612rcd8frsf0b60","pricing_plan_id":"cebpf4jnsgd1na2vs0mg"},{"bike_id":"f796b412-9140-415f-9f98-4b489dc2b14e","system_id":"levelo_inurba_marseille","lat":43.26944,"lon":5.40248,"is_reserved":false,"is_disabled":false,"rental_uris":{"android":"levelo://app?vid=f796b412-9140-415f-9f98-4b489dc2b14e","ios":"levelo://app?vid=f796b412-9140-415f-9f98-4b489dc2b14e"},"vehicle_type_id":"4","last_reported":1732302482,"current_range_meters":38400,"station_id":"cjm6bp8fraef2m0cb0m0","pricing_plan_id":"cebpf4jnsgd1na2vs0mg"},{"bike_id":"75160751-1069-43f1-908c-f8a163732076","system_id":"levelo_inurba_marseille","lat":43.31713,"lon":5.43706,"is_reserved":false,"is_disabled":false,"rental_uris":{"android":"levelo://app?vid=75160751-1069-43f1-908c-f8a163732076","ios":"levelo://app?vid=75160751-1069-43f1-908c-f8a163732076"},"vehicle_type_id":"4","last_reported":1732302482,"current_range_meters":38800,"station_id":"ce4bhp92rcd13ifvqhcg","pricing_plan_id":"cebpf4jnsgd1na2vs0mg"},{"bike_id":"9ecacee3-34a3-423e-a14d-553e7d6641b0","system_id":"levelo_inurba_marseille","lat":43.30462,"lon":5.37901,"is_reserved":false,"is_disabled":true,"rental_uris":{"android":"levelo://app?vid=9ecacee3-34a3-423e-a14d-553e7d6641b0","ios":"levelo://app?vid=9ecacee3-34a3-423e-a14d-553e7d6641b0"},"vehicle_type_id":"4","last_reported":1732302482,"current_range_meters":400,"station_id":"ce4bgup2rcd13ifvqcn0","pricing_plan_id":"cebpf4jnsgd1na2vs0mg"},{"bike_id":"a6485be6-bbfb-451b-9d33-b9a7bcff43c8","system_id":"levelo_inurba_marseille","lat":43.29832,"lon":5.3624,"is_reserved":false,"is_disabled":false,"rental_uris":{"android":"levelo://app?vid=a6485be6-bbfb-451b-9d33-b9a7bcff43c8","ios":"levelo://app?vid=a6485be6-bbfb-451b-9d33-b9a7bcff43c8"},"vehicle_type_id":"4","last_reported":1732302482,"current_range_meters":38800,"station_id":"ce4bgpp2rcd13ifvqc3g","pricing_plan_id":"cebpf4jnsgd1na2vs0mg"},{"bike_id":"1752c724-2da7-45b5-8b48-74d9be0dc05d","system_id":"levelo_inurba_marseille","lat":43.27996,"lon":5.40005,"is_reserved":false,"is_disabled":true,"rental_uris":{"android":"levelo://app?vid=1752c724-2da7-45b5-8b48-74d9be0dc05d","ios":"levelo://app?vid=1752c724-2da7-45b5-8b48-74d9be0dc05d"},"vehicle_type_id":"4","last_reported":1732302482,"current_range_meters":1600,"station_id":"ce4bho92rcd13ifvqh4g","pricing_plan_id":"cebpf4jnsgd1na2vs0mg"},{"bike_id":"2ac19635-bc51-4aca-99f4-e35252bb63aa","system_id":"levelo_inurba_marseille","lat":43.29913,"lon":5.37467,"is_reserved":false,"is_disabled":false,"rental_uris":{"android":"levelo://app?vid=2ac19635-bc51-4aca-99f4-e35252bb63aa","ios":"levelo://app?vid=2ac19635-bc51-4aca-99f4-e35252bb63aa"},"vehicle_type_id":"4","last_reported":1732302482,"current_range_meters":34800,"station_id":"ce4bgjh2rcd13ifvqbg0","pricing_plan_id":"cebpf4jnsgd1na2vs0mg"},{"bike_id":"d46051fa-0c8b-4957-8892-71ecc39e3507","system_id":"levelo_inurba_marseille","lat":43.31272,"lon":5.4017,"is_reserved":false,"is_disabled":false,"rental_uris":{"android":"levelo://app?vid=d46051fa-0c8b-4957-8892-71ecc39e3507","ios":"levelo://app?vid=d46051fa-0c8b-4957-8892-71ecc39e3507"},"vehicle_type_id":"4","last_reported":1732302482,"current_range_meters":28400,"station_id":"ce4bh092rcd13ifvqd30","pricing_plan_id":"cebpf4jnsgd1na2vs0mg"},{"bike_id":"abafd35c-dea0-4d86-a508-09d9ae9819ae","system_id":"levelo_inurba_marseille","lat":43.29279,"lon":5.40113,"is_reserved":false,"is_disabled":false,"rental_uris":{"android":"levelo://app?vid=abafd35c-dea0-4d86-a508-09d9ae9819ae","ios":"levelo://app?vid=abafd35c-dea0-4d86-a508-09d9ae9819ae"},"vehicle_type_id":"4","last_reported":1732302482,"current_range_meters":3200,"station_id":"ce4bh312rcd13ifvqdk0","pricing_plan_id":"cebpf4jnsgd1na2vs0mg"},{"bike_id":"dd4544df-eb9d-4c40-8b48-01c6ba03ca19","system_id":"levelo_inurba_marseille","lat":43.3199,"lon":5.38163,"is_reserved":false,"is_disabled":false,"rental_uris":{"android":"levelo://app?vid=dd4544df-eb9d-4c40-8b48-01c6ba03ca19","ios":"levelo://app?vid=dd4544df-eb9d-4c40-8b48-01c6ba03ca19"},"vehicle_type_id":"4","last_reported":1732302482,"current_range_meters":38800,"station_id":"ce4bhr12rcd13ifvqhpg","pricing_plan_id":"cebpf4jnsgd1na2vs0mg"},{"bike_id":"1efde903-a3f2-416b-b364-9993b0d0c7cd","system_id":"levelo_inurba_marseille","lat":43.30538,"lon":5.38416,"is_reserved":false,"is_disabled":true,"rental_uris":{"android":"levelo://app?vid=1efde903-a3f2-416b-b364-9993b0d0c7cd","ios":"levelo://app?vid=1efde903-a3f2-416b-b364-9993b0d0c7cd"},"vehicle_type_id":"4","last_reported":1732302482,"current_range_meters":0,"station_id":"ce4bgg92rcd13ifvqb30","pricing_plan_id":"cebpf4jnsgd1na2vs0mg"},{"bike_id":"555d58d5-47bb-4449-bc39-2dfeacac4a16","system_id":"levelo_inurba_marseille","lat":43.25503,"lon":5.37649,"is_reserved":false,"is_disabled":false,"rental_uris":{"android":"levelo://app?vid=555d58d5-47bb-4449-bc39-2dfeacac4a16","ios":"levelo://app?vid=555d58d5-47bb-4449-bc39-2dfeacac4a16"},"vehicle_type_id":"4","last_reported":1732302482,"current_range_meters":38800,"station_id":"ce4bhh12rcd13ifvqff0","pricing_plan_id":"cebpf4jnsgd1na2vs0mg"},{"bike_id":"d99d745a-edcb-4d3d-bf9d-7fa79bc2aaf5","system_id":"levelo_inurba_marseille","lat":43.31995,"lon":5.38147,"is_reserved":false,"is_disabled":false,"rental_uris":{"android":"levelo://app?vid=d99d745a-edcb-4d3d-bf9d-7fa79bc2aaf5","ios":"levelo://app?vid=d99d745a-edcb-4d3d-bf9d-7fa79bc2aaf5"},"vehicle_type_id":"4","last_reported":1732302482,"current_range_meters":16400,"station_id":"ce4bhr12rcd13ifvqhpg","pricing_plan_id":"cebpf4jnsgd1na2vs0mg"},{"bike_id":"ff2abe57-66a8-4959-a847-3b48e6828e9c","system_id":"levelo_inurba_marseille","lat":43.29255,"lon":5.40909,"is_reserved":false,"is_disabled":false,"rental_uris":{"android":"levelo://app?vid=ff2abe57-66a8-4959-a847-3b48e6828e9c","ios":"levelo://app?vid=ff2abe57-66a8-4959-a847-3b48e6828e9c"},"vehicle_type_id":"4","last_reported":1732302482,"current_range_meters":36800,"station_id":"ce4bh192rcd13ifvqdc0","pricing_plan_id":"cebpf4jnsgd1na2vs0mg"},{"bike_id":"8db640b0-0205-49aa-a1c2-12e4b645a9fb","system_id":"levelo_inurba_marseille","lat":43.25091,"lon":5.39514,"is_reserved":false,"is_disabled":false,"rental_uris":{"android":"levelo://app?vid=8db640b0-0205-49aa-a1c2-12e4b645a9fb","ios":"levelo://app?vid=8db640b0-0205-49aa-a1c2-12e4b645a9fb"},"vehicle_type_id":"4","last_reported":1732302482,"current_range_meters":38800,"station_id":"ce4bhm12rcd13ifvqgkg","pricing_plan_id":"cebpf4jnsgd1na2vs0mg"},{"bike_id":"d0f83cac-0ce9-4d41-bb8d-09935f6eded7","system_id":"levelo_inurba_marseille","lat":43.27996,"lon":5.40008,"is_reserved":false,"is_disabled":false,"rental_uris":{"android":"levelo://app?vid=d0f83cac-0ce9-4d41-bb8d-09935f6eded7","ios":"levelo://app?vid=d0f83cac-0ce9-4d41-bb8d-09935f6eded7"},"vehicle_type_id":"4","last_reported":1732302482,"current_range_meters":38800,"station_id":"ce4bho92rcd13ifvqh4g","pricing_plan_id":"cebpf4jnsgd1na2vs0mg"},{"bike_id":"552ae1f9-34eb-4d70-a19b-3616d3661778","system_id":"levelo_inurba_marseille","lat":43.33718,"lon":5.39182,"is_reserved":false,"is_disabled":false,"rental_uris":{"android":"levelo://app?vid=552ae1f9-34eb-4d70-a19b-3616d3661778","ios":"levelo://app?vid=552ae1f9-34eb-4d70-a19b-3616d3661778"},"vehicle_type_id":"4","last_reported":1732302482,"current_range_meters":24400,"station_id":"ce4bhr92rcd13ifvqhsg","pricing_plan_id":"cebpf4jnsgd1na2vs0mg"},{"bike_id":"eeec3fc8-a0a0-4857-8a17-ec21acac2d3d","system_id":"levelo_inurba_marseille","lat":43.29569,"lon":5.39978,"is_reserved":false,"is_disabled":false,"rental_uris":{"android":"levelo://app?vid=eeec3fc8-a0a0-4857-8a17-ec21acac2d3d","ios":"levelo://app?vid=eeec3fc8-a0a0-4857-8a17-ec21acac2d3d"},"vehicle_type_id":"4","last_reported":1732302482,"current_range_meters":36800,"station_id":"ce4bh312rcd13ifvqdj0","pricing_plan_id":"cebpf4jnsgd1na2vs0mg"},{"bike_id":"f7f3756c-1ec7-4782-9c87-6273f87b6774","system_id":"levelo_inurba_marseille","lat":43.337444,"lon":5.374475,"is_reserved":false,"is_disabled":false,"rental_uris":{"android":"levelo://app?vid=f7f3756c-1ec7-4782-9c87-6273f87b6774","ios":"levelo://app?vid=f7f3756c-1ec7-4782-9c87-6273f87b6774"},"vehicle_type_id":"4","last_reported":1732302482,"current_range_meters":36400,"station_id":"","pricing_plan_id":"cebpf4jnsgd1na2vs0mg"},{"bike_id":"bdca9a5b-dace-4172-b957-73aa4aa4eeb4","system_id":"levelo_inurba_marseille","lat":43.26564,"lon":5.38996,"is_reserved":false,"is_disabled":true,"rental_uris":{"android":"levelo://app?vid=bdca9a5b-dace-4172-b957-73aa4aa4eeb4","ios":"levelo://app?vid=bdca9a5b-dace-4172-b957-73aa4aa4eeb4"},"vehicle_type_id":"4","last_reported":1732302482,"current_range_meters":38800,"station_id":"ce4bhe12rcd13ifvqf30","pricing_plan_id":"cebpf4jnsgd1na2vs0mg"},{"bike_id":"846ca805-bfd6-4412-80f0-410b7e560ec1","system_id":"levelo_inurba_marseille","lat":43.31484,"lon":5.37307,"is_reserved":false,"is_disabled":false,"rental_uris":{"android":"levelo://app?vid=846ca805-bfd6-4412-80f0-410b7e560ec1","ios":"levelo://app?vid=846ca805-bfd6-4412-80f0-410b7e560ec1"},"vehicle_type_id":"4","last_reported":1732302482,"current_range_meters":32000,"station_id":"ce4bgt12rcd13ifvqcd0","pricing_plan_id":"cebpf4jnsgd1na2vs0mg"},{"bike_id":"028e5427-36e2-49e1-b3db-260058fffb58","system_id":"levelo_inurba_marseille","lat":43.25581,"lon":5.38225,"is_reserved":false,"is_disabled":false,"rental_uris":{"android":"levelo://app?vid=028e5427-36e2-49e1-b3db-260058fffb58","ios":"levelo://app?vid=028e5427-36e2-49e1-b3db-260058fffb58"},"vehicle_type_id":"4","last_reported":1732302482,"current_range_meters":16000,"station_id":"ce4bhih2rcd13ifvqfs0","pricing_plan_id":"cebpf4jnsgd1na2vs0mg"},{"bike_id":"1572014c-9bc2-4922-8058-69d7a722af4a","system_id":"levelo_inurba_marseille","lat":43.27955,"lon":5.41042,"is_reserved":false,"is_disabled":false,"rental_uris":{"android":"levelo://app?vid=1572014c-9bc2-4922-8058-69d7a722af4a","ios":"levelo://app?vid=1572014c-9bc2-4922-8058-69d7a722af4a"},"vehicle_type_id":"4","last_reported":1732302482,"current_range_meters":8000,"station_id":"ce4bhnp2rcd13ifvqh0g","pricing_plan_id":"cebpf4jnsgd1na2vs0mg"},{"bike_id":"7321aabf-b088-45e0-9d91-8e497e6d692a","system_id":"levelo_inurba_marseille","lat":43.31763,"lon":5.39009,"is_reserved":false,"is_disabled":false,"rental_uris":{"android":"levelo://app?vid=7321aabf-b088-45e0-9d91-8e497e6d692a","ios":"levelo://app?vid=7321aabf-b088-45e0-9d91-8e497e6d692a"},"vehicle_type_id":"4","last_reported":1732302482,"current_range_meters":29600,"station_id":"ce4bhqp2rcd13ifvqhng","pricing_plan_id":"cebpf4jnsgd1na2vs0mg"},{"bike_id":"b9f1536f-0b16-49a6-9dbc-74aa6b8db172","system_id":"levelo_inurba_marseille","lat":43.29425,"lon":5.38617,"is_reserved":false,"is_disabled":false,"rental_uris":{"android":"levelo://app?vid=b9f1536f-0b16-49a6-9dbc-74aa6b8db172","ios":"levelo://app?vid=b9f1536f-0b16-49a6-9dbc-74aa6b8db172"},"vehicle_type_id":"4","last_reported":1732302482,"current_range_meters":38800,"station_id":"ce4bh2h2rcd13ifvqdh0","pricing_plan_id":"cebpf4jnsgd1na2vs0mg"},{"bike_id":"0d5efe48-32bd-461f-be09-c1d5e2d6ef37","system_id":"levelo_inurba_marseille","lat":43.32368,"lon":5.38889,"is_reserved":false,"is_disabled":false,"rental_uris":{"android":"levelo://app?vid=0d5efe48-32bd-461f-be09-c1d5e2d6ef37","ios":"levelo://app?vid=0d5efe48-32bd-461f-be09-c1d5e2d6ef37"},"vehicle_type_id":"4","last_reported":1732302482,"current_range_meters":32000,"station_id":"ce4bhqp2rcd13ifvqhog","pricing_plan_id":"cebpf4jnsgd1na2vs0mg"},{"bike_id":"ccb2ce1b-8d06-4902-b64d-d09fa7b67804","system_id":"levelo_inurba_marseille","lat":43.29195,"lon":5.35813,"is_reserved":false,"is_disabled":false,"rental_uris":{"android":"levelo://app?vid=ccb2ce1b-8d06-4902-b64d-d09fa7b67804","ios":"levelo://app?vid=ccb2ce1b-8d06-4902-b64d-d09fa7b67804"},"vehicle_type_id":"4","last_reported":1732302482,"current_range_meters":14000,"station_id":"ce4bhb12rcd13ifvqel0","pricing_plan_id":"cebpf4jnsgd1na2vs0mg"},{"bike_id":"6f6b362f-afc0-49c0-bf8d-98f738a8025a","system_id":"levelo_inurba_marseille","lat":43.2894,"lon":5.36649,"is_reserved":false,"is_disabled":false,"rental_uris":{"android":"levelo://app?vid=6f6b362f-afc0-49c0-bf8d-98f738a8025a","ios":"levelo://app?vid=6f6b362f-afc0-49c0-bf8d-98f738a8025a"},"vehicle_type_id":"4","last_reported":1732302482,"current_range_meters":18800,"station_id":"ce4bhap2rcd13ifvqek0","pricing_plan_id":"cebpf4jnsgd1na2vs0mg"},{"bike_id":"dc034b65-7f4c-4b53-a292-034928e7866e","system_id":"levelo_inurba_marseille","lat":43.316264,"lon":5.372646,"is_reserved":false,"is_disabled":false,"rental_uris":{"android":"levelo://app?vid=dc034b65-7f4c-4b53-a292-034928e7866e","ios":"levelo://app?vid=dc034b65-7f4c-4b53-a292-034928e7866e"},"vehicle_type_id":"4","last_reported":1732302482,"current_range_meters":9200,"station_id":"","pricing_plan_id":"cebpf4jnsgd1na2vs0mg"},{"bike_id":"a2c58c6c-a2f6-40b4-994d-3b31e7787b44","system_id":"levelo_inurba_marseille","lat":43.28415,"lon":5.34987,"is_reserved":false,"is_disabled":false,"rental_uris":{"android":"levelo://app?vid=a2c58c6c-a2f6-40b4-994d-3b31e7787b44","ios":"levelo://app?vid=a2c58c6c-a2f6-40b4-994d-3b31e7787b44"},"vehicle_type_id":"4","last_reported":1732302482,"current_range_meters":30800,"station_id":"ce4bhbh2rcd13ifvqepg","pricing_plan_id":"cebpf4jnsgd1na2vs0mg"},{"bike_id":"c2a59ab3-d6b8-4918-82c9-bfcce921601e","system_id":"levelo_inurba_marseille","lat":43.32484,"lon":5.3657,"is_reserved":false,"is_disabled":false,"rental_uris":{"android":"levelo://app?vid=c2a59ab3-d6b8-4918-82c9-bfcce921601e","ios":"levelo://app?vid=c2a59ab3-d6b8-4918-82c9-bfcce921601e"},"vehicle_type_id":"4","last_reported":1732302482,"current_range_meters":16400,"station_id":"ce4bhs12rcd13ifvqhvg","pricing_plan_id":"cebpf4jnsgd1na2vs0mg"},{"bike_id":"58c180dc-c06a-46fe-9701-0fd5163c8626","system_id":"levelo_inurba_marseille","lat":43.29584,"lon":5.42308,"is_reserved":false,"is_disabled":true,"rental_uris":{"android":"levelo://app?vid=58c180dc-c06a-46fe-9701-0fd5163c8626","ios":"levelo://app?vid=58c180dc-c06a-46fe-9701-0fd5163c8626"},"vehicle_type_id":"4","last_reported":1732302482,"current_range_meters":0,"station_id":"ce4bhph2rcd13ifvqhdg","pricing_plan_id":"cebpf4jnsgd1na2vs0mg"},{"bike_id":"991cf007-84b0-4f2a-bf30-e184a0eeee5f","system_id":"levelo_inurba_marseille","lat":43.30278,"lon":5.37706,"is_reserved":false,"is_disabled":false,"rental_uris":{"android":"levelo://app?vid=991cf007-84b0-4f2a-bf30-e184a0eeee5f","ios":"levelo://app?vid=991cf007-84b0-4f2a-bf30-e184a0eeee5f"},"vehicle_type_id":"4","last_reported":1732302482,"current_range_meters":9200,"station_id":"ce4bguh2rcd13ifvqcj0","pricing_plan_id":"cebpf4jnsgd1na2vs0mg"},{"bike_id":"87b05b6e-9334-47d9-b73f-b0242af512ec","system_id":"levelo_inurba_marseille","lat":43.28567,"lon":5.39493,"is_reserved":false,"is_disabled":false,"rental_uris":{"android":"levelo://app?vid=87b05b6e-9334-47d9-b73f-b0242af512ec","ios":"levelo://app?vid=87b05b6e-9334-47d9-b73f-b0242af512ec"},"vehicle_type_id":"4","last_reported":1732302482,"current_range_meters":8000,"station_id":"ce4bh292rcd13ifvqdg0","pricing_plan_id":"cebpf4jnsgd1na2vs0mg"},{"bike_id":"f6545e94-c35d-4f31-85b6-4ac79ab44d7f","system_id":"levelo_inurba_marseille","lat":43.29265,"lon":5.38436,"is_reserved":false,"is_disabled":false,"rental_uris":{"android":"levelo://app?vid=f6545e94-c35d-4f31-85b6-4ac79ab44d7f","ios":"levelo://app?vid=f6545e94-c35d-4f31-85b6-4ac79ab44d7f"},"vehicle_type_id":"4","last_reported":1732302482,"current_range_meters":29600,"station_id":"ce4bh692rcd13ifvqea0","pricing_plan_id":"cebpf4jnsgd1na2vs0mg"},{"bike_id":"b60466ef-8514-4f53-ab0a-ebf1071dc205","system_id":"levelo_inurba_marseille","lat":43.32365,"lon":5.38884,"is_reserved":false,"is_disabled":false,"rental_uris":{"android":"levelo://app?vid=b60466ef-8514-4f53-ab0a-ebf1071dc205","ios":"levelo://app?vid=b60466ef-8514-4f53-ab0a-ebf1071dc205"},"vehicle_type_id":"4","last_reported":1732302482,"current_range_meters":33600,"station_id":"ce4bhqp2rcd13ifvqhog","pricing_plan_id":"cebpf4jnsgd1na2vs0mg"},{"bike_id":"8015ddef-e58f-4e35-9347-029abdd79464","system_id":"levelo_inurba_marseille","lat":43.26955,"lon":5.3863,"is_reserved":false,"is_disabled":false,"rental_uris":{"android":"levelo://app?vid=8015ddef-e58f-4e35-9347-029abdd79464","ios":"levelo://app?vid=8015ddef-e58f-4e35-9347-029abdd79464"},"vehicle_type_id":"4","last_reported":1732302482,"current_range_meters":38800,"station_id":"ce4bhh92rcd13ifvqfh0","pricing_plan_id":"cebpf4jnsgd1na2vs0mg"},{"bike_id":"20db0e6b-7fc1-4f13-aeb2-811ab390dd13","system_id":"levelo_inurba_marseille","lat":43.32489,"lon":5.36562,"is_reserved":false,"is_disabled":false,"rental_uris":{"android":"levelo://app?vid=20db0e6b-7fc1-4f13-aeb2-811ab390dd13","ios":"levelo://app?vid=20db0e6b-7fc1-4f13-aeb2-811ab390dd13"},"vehicle_type_id":"4","last_reported":1732302482,"current_range_meters":6800,"station_id":"ce4bhs12rcd13ifvqhvg","pricing_plan_id":"cebpf4jnsgd1na2vs0mg"},{"bike_id":"13b751d7-077d-4f29-8350-fc32ddaecb6a","system_id":"levelo_inurba_marseille","lat":43.26549,"lon":5.37289,"is_reserved":false,"is_disabled":false,"rental_uris":{"android":"levelo://app?vid=13b751d7-077d-4f29-8350-fc32ddaecb6a","ios":"levelo://app?vid=13b751d7-077d-4f29-8350-fc32ddaecb6a"},"vehicle_type_id":"4","last_reported":1732302482,"current_range_meters":37600,"station_id":"ce4bhg12rcd13ifvqf70","pricing_plan_id":"cebpf4jnsgd1na2vs0mg"},{"bike_id":"e5951ee3-4a5a-4ebb-b469-096c5188dfa3","system_id":"levelo_inurba_marseille","lat":43.23187,"lon":5.35555,"is_reserved":false,"is_disabled":false,"rental_uris":{"android":"levelo://app?vid=e5951ee3-4a5a-4ebb-b469-096c5188dfa3","ios":"levelo://app?vid=e5951ee3-4a5a-4ebb-b469-096c5188dfa3"},"vehicle_type_id":"4","last_reported":1732302482,"current_range_meters":27600,"station_id":"ce4bhu92rcd13ifvqi70","pricing_plan_id":"cebpf4jnsgd1na2vs0mg"},{"bike_id":"62e98bee-8da9-4bfb-8081-a40932637f33","system_id":"levelo_inurba_marseille","lat":43.28157,"lon":5.42641,"is_reserved":false,"is_disabled":true,"rental_uris":{"android":"levelo://app?vid=62e98bee-8da9-4bfb-8081-a40932637f33","ios":"levelo://app?vid=62e98bee-8da9-4bfb-8081-a40932637f33"},"vehicle_type_id":"4","last_reported":1732302482,"current_range_meters":0,"station_id":"ce4bhnh2rcd13ifvqgug","pricing_plan_id":"cebpf4jnsgd1na2vs0mg"},{"bike_id":"a35c5a7c-976f-409c-a680-d6b3303fe502","system_id":"levelo_inurba_marseille","lat":43.26936,"lon":5.40257,"is_reserved":false,"is_disabled":false,"rental_uris":{"android":"levelo://app?vid=a35c5a7c-976f-409c-a680-d6b3303fe502","ios":"levelo://app?vid=a35c5a7c-976f-409c-a680-d6b3303fe502"},"vehicle_type_id":"4","last_reported":1732302482,"current_range_meters":28800,"station_id":"cjm6bp8fraef2m0cb0m0","pricing_plan_id":"cebpf4jnsgd1na2vs0mg"},{"bike_id":"245e76bf-af3d-4669-a49d-ff0260f672b0","system_id":"levelo_inurba_marseille","lat":43.28281,"lon":5.3508,"is_reserved":false,"is_disabled":false,"rental_uris":{"android":"levelo://app?vid=245e76bf-af3d-4669-a49d-ff0260f672b0","ios":"levelo://app?vid=245e76bf-af3d-4669-a49d-ff0260f672b0"},"vehicle_type_id":"4","last_reported":1732302482,"current_range_meters":38800,"station_id":"ce4bhbp2rcd13ifvqerg","pricing_plan_id":"cebpf4jnsgd1na2vs0mg"},{"bike_id":"598543c3-4504-4ea3-976e-b45e767de5ed","system_id":"levelo_inurba_marseille","lat":43.32364,"lon":5.38887,"is_reserved":false,"is_disabled":false,"rental_uris":{"android":"levelo://app?vid=598543c3-4504-4ea3-976e-b45e767de5ed","ios":"levelo://app?vid=598543c3-4504-4ea3-976e-b45e767de5ed"},"vehicle_type_id":"4","last_reported":1732302482,"current_range_meters":35200,"station_id":"ce4bhqp2rcd13ifvqhog","pricing_plan_id":"cebpf4jnsgd1na2vs0mg"},{"bike_id":"4a20d43c-f976-4db4-a2ff-86c90df749f5","system_id":"levelo_inurba_marseille","lat":43.28925,"lon":5.39625,"is_reserved":false,"is_disabled":false,"rental_uris":{"android":"levelo://app?vid=4a20d43c-f976-4db4-a2ff-86c90df749f5","ios":"levelo://app?vid=4a20d43c-f976-4db4-a2ff-86c90df749f5"},"vehicle_type_id":"4","last_reported":1732302482,"current_range_meters":11200,"station_id":"ce4bh3h2rcd13ifvqdn0","pricing_plan_id":"cebpf4jnsgd1na2vs0mg"},{"bike_id":"44abef4f-7bb3-417f-9f17-632a234b6e5d","system_id":"levelo_inurba_marseille","lat":43.32109,"lon":5.3678,"is_reserved":false,"is_disabled":false,"rental_uris":{"android":"levelo://app?vid=44abef4f-7bb3-417f-9f17-632a234b6e5d","ios":"levelo://app?vid=44abef4f-7bb3-417f-9f17-632a234b6e5d"},"vehicle_type_id":"4","last_reported":1732302482,"current_range_meters":21600,"station_id":"ce4bhrh2rcd13ifvqhug","pricing_plan_id":"cebpf4jnsgd1na2vs0mg"},{"bike_id":"830ab6f1-9f97-4b81-a374-96032fba99d2","system_id":"levelo_inurba_marseille","lat":43.24476,"lon":5.36924,"is_reserved":false,"is_disabled":true,"rental_uris":{"android":"levelo://app?vid=830ab6f1-9f97-4b81-a374-96032fba99d2","ios":"levelo://app?vid=830ab6f1-9f97-4b81-a374-96032fba99d2"},"vehicle_type_id":"4","last_reported":1732302482,"current_range_meters":25200,"station_id":"","pricing_plan_id":"cebpf4jnsgd1na2vs0mg"},{"bike_id":"6c948e9c-d5b3-4fe5-a918-1bd2f7c83b02","system_id":"levelo_inurba_marseille","lat":43.32108,"lon":5.36768,"is_reserved":false,"is_disabled":false,"rental_uris":{"android":"levelo://app?vid=6c948e9c-d5b3-4fe5-a918-1bd2f7c83b02","ios":"levelo://app?vid=6c948e9c-d5b3-4fe5-a918-1bd2f7c83b02"},"vehicle_type_id":"4","last_reported":1732302482,"current_range_meters":36800,"station_id":"ce4bhrh2rcd13ifvqhug","pricing_plan_id":"cebpf4jnsgd1na2vs0mg"},{"bike_id":"9e620abf-d324-4f99-84fc-d67e71109f2a","system_id":"levelo_inurba_marseille","lat":43.31078,"lon":5.42428,"is_reserved":false,"is_disabled":true,"rental_uris":{"android":"levelo://app?vid=9e620abf-d324-4f99-84fc-d67e71109f2a","ios":"levelo://app?vid=9e620abf-d324-4f99-84fc-d67e71109f2a"},"vehicle_type_id":"4","last_reported":1732302482,"current_range_meters":2800,"station_id":"ce4bhp92rcd13ifvqhag","pricing_plan_id":"cebpf4jnsgd1na2vs0mg"},{"bike_id":"9388a7ff-9c5c-4c26-9899-39b2408cf7e3","system_id":"levelo_inurba_marseille","lat":43.31025,"lon":5.38342,"is_reserved":false,"is_disabled":true,"rental_uris":{"android":"levelo://app?vid=9388a7ff-9c5c-4c26-9899-39b2408cf7e3","ios":"levelo://app?vid=9388a7ff-9c5c-4c26-9899-39b2408cf7e3"},"vehicle_type_id":"4","last_reported":1732302482,"current_range_meters":0,"station_id":"","pricing_plan_id":"cebpf4jnsgd1na2vs0mg"},{"bike_id":"ce5236a3-4c5b-4d41-b09e-756483ca2d35","system_id":"levelo_inurba_marseille","lat":43.30599,"lon":5.39359,"is_reserved":false,"is_disabled":true,"rental_uris":{"android":"levelo://app?vid=ce5236a3-4c5b-4d41-b09e-756483ca2d35","ios":"levelo://app?vid=ce5236a3-4c5b-4d41-b09e-756483ca2d35"},"vehicle_type_id":"4","last_reported":1732302482,"current_range_meters":0,"station_id":"ce4bh0p2rcd13ifvqd80","pricing_plan_id":"cebpf4jnsgd1na2vs0mg"},{"bike_id":"2f0c18fb-141e-45f3-959e-9c9c4756745b","system_id":"levelo_inurba_marseille","lat":43.28714,"lon":5.37924,"is_reserved":false,"is_disabled":false,"rental_uris":{"android":"levelo://app?vid=2f0c18fb-141e-45f3-959e-9c9c4756745b","ios":"levelo://app?vid=2f0c18fb-141e-45f3-959e-9c9c4756745b"},"vehicle_type_id":"4","last_reported":1732302482,"current_range_meters":24400,"station_id":"ce4bh9p2rcd13ifvqec0","pricing_plan_id":"cebpf4jnsgd1na2vs0mg"},{"bike_id":"164d8ecf-9ef9-4eba-a6de-29c17c03ee13","system_id":"levelo_inurba_marseille","lat":43.26029,"lon":5.37553,"is_reserved":false,"is_disabled":false,"rental_uris":{"android":"levelo://app?vid=164d8ecf-9ef9-4eba-a6de-29c17c03ee13","ios":"levelo://app?vid=164d8ecf-9ef9-4eba-a6de-29c17c03ee13"},"vehicle_type_id":"4","last_reported":1732302482,"current_range_meters":14400,"station_id":"ce4bhgh2rcd13ifvqfa0","pricing_plan_id":"cebpf4jnsgd1na2vs0mg"},{"bike_id":"eb2c920a-6ca8-48e9-a740-70a802a2f6f4","system_id":"levelo_inurba_marseille","lat":43.3013,"lon":5.39866,"is_reserved":false,"is_disabled":false,"rental_uris":{"android":"levelo://app?vid=eb2c920a-6ca8-48e9-a740-70a802a2f6f4","ios":"levelo://app?vid=eb2c920a-6ca8-48e9-a740-70a802a2f6f4"},"vehicle_type_id":"4","last_reported":1732302482,"current_range_meters":21600,"station_id":"ce4bh0h2rcd13ifvqd40","pricing_plan_id":"cebpf4jnsgd1na2vs0mg"},{"bike_id":"5c53cfbd-2547-413a-b79a-f8cc3b1ca992","system_id":"levelo_inurba_marseille","lat":43.32113,"lon":5.36769,"is_reserved":false,"is_disabled":false,"rental_uris":{"android":"levelo://app?vid=5c53cfbd-2547-413a-b79a-f8cc3b1ca992","ios":"levelo://app?vid=5c53cfbd-2547-413a-b79a-f8cc3b1ca992"},"vehicle_type_id":"4","last_reported":1732302482,"current_range_meters":14800,"station_id":"ce4bhrh2rcd13ifvqhug","pricing_plan_id":"cebpf4jnsgd1na2vs0mg"},{"bike_id":"343334dd-ae5a-440b-9b9e-2671706cd242","system_id":"levelo_inurba_marseille","lat":43.3089,"lon":5.39656,"is_reserved":false,"is_disabled":false,"rental_uris":{"android":"levelo://app?vid=343334dd-ae5a-440b-9b9e-2671706cd242","ios":"levelo://app?vid=343334dd-ae5a-440b-9b9e-2671706cd242"},"vehicle_type_id":"4","last_reported":1732302482,"current_range_meters":14000,"station_id":"ce4bh012rcd13ifvqcv0","pricing_plan_id":"cebpf4jnsgd1na2vs0mg"},{"bike_id":"85c01c0b-dd5c-4809-bf61-68287b12d903","system_id":"levelo_inurba_marseille","lat":43.32367,"lon":5.3889,"is_reserved":false,"is_disabled":false,"rental_uris":{"android":"levelo://app?vid=85c01c0b-dd5c-4809-bf61-68287b12d903","ios":"levelo://app?vid=85c01c0b-dd5c-4809-bf61-68287b12d903"},"vehicle_type_id":"4","last_reported":1732302482,"current_range_meters":35200,"station_id":"ce4bhqp2rcd13ifvqhog","pricing_plan_id":"cebpf4jnsgd1na2vs0mg"},{"bike_id":"ea188596-8a15-4c67-9fbb-ab7ba9487b25","system_id":"levelo_inurba_marseille","lat":43.27566,"lon":5.38428,"is_reserved":false,"is_disabled":true,"rental_uris":{"android":"levelo://app?vid=ea188596-8a15-4c67-9fbb-ab7ba9487b25","ios":"levelo://app?vid=ea188596-8a15-4c67-9fbb-ab7ba9487b25"},"vehicle_type_id":"4","last_reported":1732302482,"current_range_meters":0,"station_id":"ce4bhh92rcd13ifvqfi0","pricing_plan_id":"cebpf4jnsgd1na2vs0mg"},{"bike_id":"94dd60b7-bf71-448c-8918-47183ed39394","system_id":"levelo_inurba_marseille","lat":43.27999,"lon":5.4,"is_reserved":false,"is_disabled":false,"rental_uris":{"android":"levelo://app?vid=94dd60b7-bf71-448c-8918-47183ed39394","ios":"levelo://app?vid=94dd60b7-bf71-448c-8918-47183ed39394"},"vehicle_type_id":"4","last_reported":1732302482,"current_range_meters":10000,"station_id":"ce4bho92rcd13ifvqh4g","pricing_plan_id":"cebpf4jnsgd1na2vs0mg"},{"bike_id":"adb10b19-f9c1-4b57-aabf-3a9392b9ad4b","system_id":"levelo_inurba_marseille","lat":43.27996,"lon":5.40008,"is_reserved":false,"is_disabled":false,"rental_uris":{"android":"levelo://app?vid=adb10b19-f9c1-4b57-aabf-3a9392b9ad4b","ios":"levelo://app?vid=adb10b19-f9c1-4b57-aabf-3a9392b9ad4b"},"vehicle_type_id":"4","last_reported":1732302482,"current_range_meters":17600,"station_id":"ce4bho92rcd13ifvqh4g","pricing_plan_id":"cebpf4jnsgd1na2vs0mg"},{"bike_id":"90280d78-8fcf-4c28-baf6-765158832113","system_id":"levelo_inurba_marseille","lat":43.29265,"lon":5.38431,"is_reserved":false,"is_disabled":true,"rental_uris":{"android":"levelo://app?vid=90280d78-8fcf-4c28-baf6-765158832113","ios":"levelo://app?vid=90280d78-8fcf-4c28-baf6-765158832113"},"vehicle_type_id":"4","last_reported":1732302482,"current_range_meters":9600,"station_id":"ce4bh692rcd13ifvqea0","pricing_plan_id":"cebpf4jnsgd1na2vs0mg"},{"bike_id":"9efab7bb-b9af-4dfb-bd79-748c30966d28","system_id":"levelo_inurba_marseille","lat":43.31753,"lon":5.39015,"is_reserved":false,"is_disabled":false,"rental_uris":{"android":"levelo://app?vid=9efab7bb-b9af-4dfb-bd79-748c30966d28","ios":"levelo://app?vid=9efab7bb-b9af-4dfb-bd79-748c30966d28"},"vehicle_type_id":"4","last_reported":1732302482,"current_range_meters":38800,"station_id":"ce4bhqp2rcd13ifvqhng","pricing_plan_id":"cebpf4jnsgd1na2vs0mg"},{"bike_id":"b389af88-c419-4869-afbf-0c33ed4fe6c8","system_id":"levelo_inurba_marseille","lat":43.25824,"lon":5.3943,"is_reserved":false,"is_disabled":false,"rental_uris":{"android":"levelo://app?vid=b389af88-c419-4869-afbf-0c33ed4fe6c8","ios":"levelo://app?vid=b389af88-c419-4869-afbf-0c33ed4fe6c8"},"vehicle_type_id":"4","last_reported":1732302482,"current_range_meters":39200,"station_id":"ce4bhip2rcd13ifvqft0","pricing_plan_id":"cebpf4jnsgd1na2vs0mg"},{"bike_id":"83337326-f5c3-42c2-859d-557e46247110","system_id":"levelo_inurba_marseille","lat":43.3237,"lon":5.38879,"is_reserved":false,"is_disabled":false,"rental_uris":{"android":"levelo://app?vid=83337326-f5c3-42c2-859d-557e46247110","ios":"levelo://app?vid=83337326-f5c3-42c2-859d-557e46247110"},"vehicle_type_id":"4","last_reported":1732302482,"current_range_meters":7200,"station_id":"ce4bhqp2rcd13ifvqhog","pricing_plan_id":"cebpf4jnsgd1na2vs0mg"},{"bike_id":"9478cb43-9f95-4c71-9f7e-f793a180865a","system_id":"levelo_inurba_marseille","lat":43.29003,"lon":5.35616,"is_reserved":false,"is_disabled":false,"rental_uris":{"android":"levelo://app?vid=9478cb43-9f95-4c71-9f7e-f793a180865a","ios":"levelo://app?vid=9478cb43-9f95-4c71-9f7e-f793a180865a"},"vehicle_type_id":"4","last_reported":1732302482,"current_range_meters":18800,"station_id":"ce4bhb92rcd13ifvqen0","pricing_plan_id":"cebpf4jnsgd1na2vs0mg"},{"bike_id":"0275f36d-3fb5-451d-9a40-4d0a008abdfc","system_id":"levelo_inurba_marseille","lat":43.29779,"lon":5.37099,"is_reserved":false,"is_disabled":false,"rental_uris":{"android":"levelo://app?vid=0275f36d-3fb5-451d-9a40-4d0a008abdfc","ios":"levelo://app?vid=0275f36d-3fb5-451d-9a40-4d0a008abdfc"},"vehicle_type_id":"4","last_reported":1732302482,"current_range_meters":14400,"station_id":"ce4bgop2rcd13ifvqc1g","pricing_plan_id":"cebpf4jnsgd1na2vs0mg"},{"bike_id":"89429ed2-f839-4749-bcb9-3e5230fe3bfb","system_id":"levelo_inurba_marseille","lat":43.33724,"lon":5.39176,"is_reserved":false,"is_disabled":false,"rental_uris":{"android":"levelo://app?vid=89429ed2-f839-4749-bcb9-3e5230fe3bfb","ios":"levelo://app?vid=89429ed2-f839-4749-bcb9-3e5230fe3bfb"},"vehicle_type_id":"4","last_reported":1732302482,"current_range_meters":36800,"station_id":"ce4bhr92rcd13ifvqhsg","pricing_plan_id":"cebpf4jnsgd1na2vs0mg"},{"bike_id":"927005f5-b200-4e92-9d36-9f94c76ba2dd","system_id":"levelo_inurba_marseille","lat":43.30796,"lon":5.4353,"is_reserved":false,"is_disabled":true,"rental_uris":{"android":"levelo://app?vid=927005f5-b200-4e92-9d36-9f94c76ba2dd","ios":"levelo://app?vid=927005f5-b200-4e92-9d36-9f94c76ba2dd"},"vehicle_type_id":"4","last_reported":1732302482,"current_range_meters":0,"station_id":"ce4bhph2rcd13ifvqheg","pricing_plan_id":"cebpf4jnsgd1na2vs0mg"},{"bike_id":"d025ef5c-f65f-45fe-af01-50b18a9fe250","system_id":"levelo_inurba_marseille","lat":43.26935,"lon":5.40248,"is_reserved":false,"is_disabled":false,"rental_uris":{"android":"levelo://app?vid=d025ef5c-f65f-45fe-af01-50b18a9fe250","ios":"levelo://app?vid=d025ef5c-f65f-45fe-af01-50b18a9fe250"},"vehicle_type_id":"4","last_reported":1732302482,"current_range_meters":6000,"station_id":"cjm6bp8fraef2m0cb0m0","pricing_plan_id":"cebpf4jnsgd1na2vs0mg"},{"bike_id":"35de914b-9c3a-4d35-84a1-f614669fd771","system_id":"levelo_inurba_marseille","lat":43.28004,"lon":5.40011,"is_reserved":false,"is_disabled":false,"rental_uris":{"android":"levelo://app?vid=35de914b-9c3a-4d35-84a1-f614669fd771","ios":"levelo://app?vid=35de914b-9c3a-4d35-84a1-f614669fd771"},"vehicle_type_id":"4","last_reported":1732302482,"current_range_meters":38800,"station_id":"ce4bho92rcd13ifvqh4g","pricing_plan_id":"cebpf4jnsgd1na2vs0mg"},{"bike_id":"8b23aa1b-131c-46d2-a443-c55f21123011","system_id":"levelo_inurba_marseille","lat":43.29267,"lon":5.38437,"is_reserved":false,"is_disabled":false,"rental_uris":{"android":"levelo://app?vid=8b23aa1b-131c-46d2-a443-c55f21123011","ios":"levelo://app?vid=8b23aa1b-131c-46d2-a443-c55f21123011"},"vehicle_type_id":"4","last_reported":1732302482,"current_range_meters":24800,"station_id":"ce4bh692rcd13ifvqea0","pricing_plan_id":"cebpf4jnsgd1na2vs0mg"},{"bike_id":"050ff910-f189-4012-80f4-5bdec5f34eb2","system_id":"levelo_inurba_marseille","lat":43.29802,"lon":5.42658,"is_reserved":false,"is_disabled":true,"rental_uris":{"android":"levelo://app?vid=050ff910-f189-4012-80f4-5bdec5f34eb2","ios":"levelo://app?vid=050ff910-f189-4012-80f4-5bdec5f34eb2"},"vehicle_type_id":"4","last_reported":1732302482,"current_range_meters":1200,"station_id":"","pricing_plan_id":"cebpf4jnsgd1na2vs0mg"},{"bike_id":"aff07642-27e3-4d97-bf2e-48ee672f2a1f","system_id":"levelo_inurba_marseille","lat":43.26203,"lon":5.37921,"is_reserved":false,"is_disabled":false,"rental_uris":{"android":"levelo://app?vid=aff07642-27e3-4d97-bf2e-48ee672f2a1f","ios":"levelo://app?vid=aff07642-27e3-4d97-bf2e-48ee672f2a1f"},"vehicle_type_id":"4","last_reported":1732302482,"current_range_meters":24400,"station_id":"ce4bhjp2rcd13ifvqg90","pricing_plan_id":"cebpf4jnsgd1na2vs0mg"},{"bike_id":"610d0338-283f-4ad6-8a26-2be0fc893173","system_id":"levelo_inurba_marseille","lat":43.28987,"lon":5.37837,"is_reserved":false,"is_disabled":false,"rental_uris":{"android":"levelo://app?vid=610d0338-283f-4ad6-8a26-2be0fc893173","ios":"levelo://app?vid=610d0338-283f-4ad6-8a26-2be0fc893173"},"vehicle_type_id":"4","last_reported":1732302482,"current_range_meters":28000,"station_id":"ce4bh9p2rcd13ifvqed0","pricing_plan_id":"cebpf4jnsgd1na2vs0mg"},{"bike_id":"7770b1cc-2a54-4d08-8255-6bed2fc397aa","system_id":"levelo_inurba_marseille","lat":43.23194,"lon":5.35546,"is_reserved":false,"is_disabled":false,"rental_uris":{"android":"levelo://app?vid=7770b1cc-2a54-4d08-8255-6bed2fc397aa","ios":"levelo://app?vid=7770b1cc-2a54-4d08-8255-6bed2fc397aa"},"vehicle_type_id":"4","last_reported":1732302482,"current_range_meters":9200,"station_id":"ce4bhu92rcd13ifvqi70","pricing_plan_id":"cebpf4jnsgd1na2vs0mg"},{"bike_id":"282bda1e-2b30-4c66-b346-13ee23aec35b","system_id":"levelo_inurba_marseille","lat":43.28107,"lon":5.37844,"is_reserved":false,"is_disabled":false,"rental_uris":{"android":"levelo://app?vid=282bda1e-2b30-4c66-b346-13ee23aec35b","ios":"levelo://app?vid=282bda1e-2b30-4c66-b346-13ee23aec35b"},"vehicle_type_id":"4","last_reported":1732302482,"current_range_meters":37600,"station_id":"ce4bha12rcd13ifvqee0","pricing_plan_id":"cebpf4jnsgd1na2vs0mg"},{"bike_id":"82ed58d3-2eb6-48e6-9a4f-4b32a661977e","system_id":"levelo_inurba_marseille","lat":43.26956,"lon":5.3863,"is_reserved":false,"is_disabled":false,"rental_uris":{"android":"levelo://app?vid=82ed58d3-2eb6-48e6-9a4f-4b32a661977e","ios":"levelo://app?vid=82ed58d3-2eb6-48e6-9a4f-4b32a661977e"},"vehicle_type_id":"4","last_reported":1732302482,"current_range_meters":16400,"station_id":"ce4bhh92rcd13ifvqfh0","pricing_plan_id":"cebpf4jnsgd1na2vs0mg"},{"bike_id":"12cb0f69-24fd-4ef7-b05e-26d9405af088","system_id":"levelo_inurba_marseille","lat":43.29603,"lon":5.38097,"is_reserved":false,"is_disabled":false,"rental_uris":{"android":"levelo://app?vid=12cb0f69-24fd-4ef7-b05e-26d9405af088","ios":"levelo://app?vid=12cb0f69-24fd-4ef7-b05e-26d9405af088"},"vehicle_type_id":"4","last_reported":1732302482,"current_range_meters":22800,"station_id":"ce4bgl12rcd13ifvqbo0","pricing_plan_id":"cebpf4jnsgd1na2vs0mg"},{"bike_id":"fdaf890b-328d-4c6c-b370-bc14721c2873","system_id":"levelo_inurba_marseille","lat":43.25825,"lon":5.39426,"is_reserved":false,"is_disabled":true,"rental_uris":{"android":"levelo://app?vid=fdaf890b-328d-4c6c-b370-bc14721c2873","ios":"levelo://app?vid=fdaf890b-328d-4c6c-b370-bc14721c2873"},