{"last_updated":1737461851,"ttl":60,"version":"2.2","data":{"bikes":[{"bike_id":"b74b855a-0a8e-44e1-aa63-99dc34613857","system_id":"levelo_inurba_marseille","lat":43.2989,"lon":5.43665,"is_reserved":false,"is_disabled":false,"rental_uris":{"android":"levelo://app?vid=b74b855a-0a8e-44e1-aa63-99dc34613857","ios":"levelo://app?vid=b74b855a-0a8e-44e1-aa63-99dc34613857"},"vehicle_type_id":"4","last_reported":1737461852,"current_range_meters":28800,"station_id":"ce4bhpp2rcd13ifvqhfg","pricing_plan_id":"cebpf4jnsgd1na2vs0mg"},{"bike_id":"689dda7a-7032-4dcd-8149-6c95173bb231","system_id":"levelo_inurba_marseille","lat":43.30531,"lon":5.36547,"is_reserved":false,"is_disabled":false,"rental_uris":{"android":"levelo://app?vid=689dda7a-7032-4dcd-8149-6c95173bb231","ios":"levelo://app?vid=689dda7a-7032-4dcd-8149-6c95173bb231"},"vehicle_type_id":"4","last_reported":1737461852,"current_range_meters":38400,"station_id":"ce4bgs12rcd13ifvqcag","pricing_plan_id":"cebpf4jnsgd1na2vs0mg"},{"bike_id":"09321f67-cf27-418c-af77-a7bb9615c767","system_id":"levelo_inurba_marseille","lat":43.29553,"lon":5.38157,"is_reserved":false,"is_disabled":false,"rental_uris":{"android":"levelo://app?vid=09321f67-cf27-418c-af77-a7bb9615c767","ios":"levelo://app?vid=09321f67-cf27-418c-af77-a7bb9615c767"},"vehicle_type_id":"4","last_reported":1737461852,"current_range_meters":38800,"station_id":"ce4bgl12rcd13ifvqbo0","pricing_plan_id":"cebpf4jnsgd1na2vs0mg"},{"bike_id":"1e30a0d2-03c8-474f-ae43-90eb864a9fc9","system_id":"levelo_inurba_marseille","lat":43.29609,"lon":5.37722,"is_reserved":false,"is_disabled":true,"rental_uris":{"android":"levelo://app?vid=1e30a0d2-03c8-474f-ae43-90eb864a9fc9","ios":"levelo://app?vid=1e30a0d2-03c8-474f-ae43-90eb864a9fc9"},"vehicle_type_id":"4","last_reported":1737461852,"current_range_meters":38800,"station_id":"ce4bgi92rcd13ifvqb90","pricing_plan_id":"cebpf4jnsgd1na2vs0mg"},{"bike_id":"7760d970-1182-495f-8d2c-90ea2db662e3","system_id":"levelo_inurba_marseille","lat":43.28043,"lon":5.36944,"is_reserved":false,"is_disabled":false,"rental_uris":{"android":"levelo://app?vid=7760d970-1182-495f-8d2c-90ea2db662e3","ios":"levelo://app?vid=7760d970-1182-495f-8d2c-90ea2db662e3"},"vehicle_type_id":"4","last_reported":1737461852,"current_range_meters":38400,"station_id":"ce4bha12rcd13ifvqef0","pricing_plan_id":"cebpf4jnsgd1na2vs0mg"},{"bike_id":"b3441528-b46d-47b6-b76c-3fd84aa20027","system_id":"levelo_inurba_marseille","lat":43.30446,"lon":5.38914,"is_reserved":false,"is_disabled":false,"rental_uris":{"android":"levelo://app?vid=b3441528-b46d-47b6-b76c-3fd84aa20027","ios":"levelo://app?vid=b3441528-b46d-47b6-b76c-3fd84aa20027"},"vehicle_type_id":"4","last_reported":1737461852,"current_range_meters":38800,"station_id":"ce4bgk12rcd13ifvqbi0","pricing_plan_id":"cebpf4jnsgd1na2vs0mg"},{"bike_id":"dbfc6bbb-0554-4b09-9ba3-6a0d99a97020","system_id":"levelo_inurba_marseille","lat":43.30553,"lon":5.38438,"is_reserved":false,"is_disabled":false,"rental_uris":{"android":"levelo://app?vid=dbfc6bbb-0554-4b09-9ba3-6a0d99a97020","ios":"levelo://app?vid=dbfc6bbb-0554-4b09-9ba3-6a0d99a97020"},"vehicle_type_id":"4","last_reported":1737461852,"current_range_meters":38400,"station_id":"ce4bgg92rcd13ifvqb30","pricing_plan_id":"cebpf4jnsgd1na2vs0mg"},{"bike_id":"ea6ea4ff-2648-4640-a7aa-e0dd6d4f4d4c","system_id":"levelo_inurba_marseille","lat":43.26805,"lon":5.40272,"is_reserved":false,"is_disabled":false,"rental_uris":{"android":"levelo://app?vid=ea6ea4ff-2648-4640-a7aa-e0dd6d4f4d4c","ios":"levelo://app?vid=ea6ea4ff-2648-4640-a7aa-e0dd6d4f4d4c"},"vehicle_type_id":"4","last_reported":1737461852,"current_range_meters":38800,"station_id":"ce501612rcd8frsf0b60","pricing_plan_id":"cebpf4jnsgd1na2vs0mg"},{"bike_id":"0efcb19d-a5d5-4cbb-a0ba-146fb16ac38e","system_id":"levelo_inurba_marseille","lat":43.30568,"lon":5.36533,"is_reserved":false,"is_disabled":false,"rental_uris":{"android":"levelo://app?vid=0efcb19d-a5d5-4cbb-a0ba-146fb16ac38e","ios":"levelo://app?vid=0efcb19d-a5d5-4cbb-a0ba-146fb16ac38e"},"vehicle_type_id":"4","last_reported":1737461852,"current_range_meters":38800,"station_id":"ce4bgs12rcd13ifvqcag","pricing_plan_id":"cebpf4jnsgd1na2vs0mg"},{"bike_id":"b23b3532-b0af-4c9d-9c50-5a844e2a5f9c","system_id":"levelo_inurba_marseille","lat":43.31184,"lon":5.38711,"is_reserved":false,"is_disabled":false,"rental_uris":{"android":"levelo://app?vid=b23b3532-b0af-4c9d-9c50-5a844e2a5f9c","ios":"levelo://app?vid=b23b3532-b0af-4c9d-9c50-5a844e2a5f9c"},"vehicle_type_id":"4","last_reported":1737461852,"current_range_meters":32800,"station_id":"ce4bgv12rcd13ifvqcp0","pricing_plan_id":"cebpf4jnsgd1na2vs0mg"},{"bike_id":"162678c5-46f2-44c7-8d96-be345259ab83","system_id":"levelo_inurba_marseille","lat":43.33715,"lon":5.37426,"is_reserved":false,"is_disabled":false,"rental_uris":{"android":"levelo://app?vid=162678c5-46f2-44c7-8d96-be345259ab83","ios":"levelo://app?vid=162678c5-46f2-44c7-8d96-be345259ab83"},"vehicle_type_id":"4","last_reported":1737461852,"current_range_meters":36400,"station_id":"","pricing_plan_id":"cebpf4jnsgd1na2vs0mg"},{"bike_id":"dc7e4c1e-bf26-4fd1-81c0-a708362e7b60","system_id":"levelo_inurba_marseille","lat":43.28849,"lon":5.39319,"is_reserved":false,"is_disabled":false,"rental_uris":{"android":"levelo://app?vid=dc7e4c1e-bf26-4fd1-81c0-a708362e7b60","ios":"levelo://app?vid=dc7e4c1e-bf26-4fd1-81c0-a708362e7b60"},"vehicle_type_id":"4","last_reported":1737461852,"current_range_meters":38000,"station_id":"ce4bh2p2rcd13ifvqdi0","pricing_plan_id":"cebpf4jnsgd1na2vs0mg"},{"bike_id":"73169cd6-f9a0-45a0-a1c3-b786228af92a","system_id":"levelo_inurba_marseille","lat":43.30465,"lon":5.37917,"is_reserved":false,"is_disabled":false,"rental_uris":{"android":"levelo://app?vid=73169cd6-f9a0-45a0-a1c3-b786228af92a","ios":"levelo://app?vid=73169cd6-f9a0-45a0-a1c3-b786228af92a"},"vehicle_type_id":"4","last_reported":1737461852,"current_range_meters":34800,"station_id":"ce4bgup2rcd13ifvqcn0","pricing_plan_id":"cebpf4jnsgd1na2vs0mg"},{"bike_id":"48a4db89-2f72-4ee8-b0ea-b0bc6e5aab84","system_id":"levelo_inurba_marseille","lat":43.26056,"lon":5.39376,"is_reserved":false,"is_disabled":false,"rental_uris":{"android":"levelo://app?vid=48a4db89-2f72-4ee8-b0ea-b0bc6e5aab84","ios":"levelo://app?vid=48a4db89-2f72-4ee8-b0ea-b0bc6e5aab84"},"vehicle_type_id":"4","last_reported":1737461852,"current_range_meters":38800,"station_id":"ce4bhh92rcd13ifvqfj0","pricing_plan_id":"cebpf4jnsgd1na2vs0mg"},{"bike_id":"06cfd958-c471-4dfe-8613-29275f91d3d2","system_id":"levelo_inurba_marseille","lat":43.29052,"lon":5.37154,"is_reserved":false,"is_disabled":false,"rental_uris":{"android":"levelo://app?vid=06cfd958-c471-4dfe-8613-29275f91d3d2","ios":"levelo://app?vid=06cfd958-c471-4dfe-8613-29275f91d3d2"},"vehicle_type_id":"4","last_reported":1737461852,"current_range_meters":7200,"station_id":"ce4bh5p2rcd13ifvqe4g","pricing_plan_id":"cebpf4jnsgd1na2vs0mg"},{"bike_id":"f64eb19b-2c3f-4c54-84bb-9c571ae63866","system_id":"levelo_inurba_marseille","lat":43.25132,"lon":5.40353,"is_reserved":false,"is_disabled":false,"rental_uris":{"android":"levelo://app?vid=f64eb19b-2c3f-4c54-84bb-9c571ae63866","ios":"levelo://app?vid=f64eb19b-2c3f-4c54-84bb-9c571ae63866"},"vehicle_type_id":"4","last_reported":1737461852,"current_range_meters":32800,"station_id":"ce4bhlh2rcd13ifvqgig","pricing_plan_id":"cebpf4jnsgd1na2vs0mg"},{"bike_id":"54e47bbf-d358-4fc6-9623-23d2eb6b92a9","system_id":"levelo_inurba_marseille","lat":43.276747,"lon":5.388474,"is_reserved":false,"is_disabled":true,"rental_uris":{"android":"levelo://app?vid=54e47bbf-d358-4fc6-9623-23d2eb6b92a9","ios":"levelo://app?vid=54e47bbf-d358-4fc6-9623-23d2eb6b92a9"},"vehicle_type_id":"4","last_reported":1737461852,"current_range_meters":12400,"station_id":"","pricing_plan_id":"cebpf4jnsgd1na2vs0mg"},{"bike_id":"a2771881-b956-4a9a-9bc9-a89642d437c9","system_id":"levelo_inurba_marseille","lat":43.23202,"lon":5.35557,"is_reserved":false,"is_disabled":false,"rental_uris":{"android":"levelo://app?vid=a2771881-b956-4a9a-9bc9-a89642d437c9","ios":"levelo://app?vid=a2771881-b956-4a9a-9bc9-a89642d437c9"},"vehicle_type_id":"4","last_reported":1737461852,"current_range_meters":38800,"station_id":"ce4bhu92rcd13ifvqi70","pricing_plan_id":"cebpf4jnsgd1na2vs0mg"},{"bike_id":"3b26ab37-3b51-49df-bcb5-b23c8b5b2a76","system_id":"levelo_inurba_marseille","lat":43.32104,"lon":5.36787,"is_reserved":false,"is_disabled":false,"rental_uris":{"android":"levelo://app?vid=3b26ab37-3b51-49df-bcb5-b23c8b5b2a76","ios":"levelo://app?vid=3b26ab37-3b51-49df-bcb5-b23c8b5b2a76"},"vehicle_type_id":"4","last_reported":1737461852,"current_range_meters":13600,"station_id":"ce4bhrh2rcd13ifvqhug","pricing_plan_id":"cebpf4jnsgd1na2vs0mg"},{"bike_id":"15f7d8dc-3899-4f1b-96c2-8405621d2315","system_id":"levelo_inurba_marseille","lat":43.26809,"lon":5.40265,"is_reserved":false,"is_disabled":false,"rental_uris":{"android":"levelo://app?vid=15f7d8dc-3899-4f1b-96c2-8405621d2315","ios":"levelo://app?vid=15f7d8dc-3899-4f1b-96c2-8405621d2315"},"vehicle_type_id":"4","last_reported":1737461852,"current_range_meters":28400,"station_id":"ce501612rcd8frsf0b60","pricing_plan_id":"cebpf4jnsgd1na2vs0mg"},{"bike_id":"dbdbeba6-ff9d-438c-8a2e-8861f015e800","system_id":"levelo_inurba_marseille","lat":43.26673,"lon":5.38281,"is_reserved":false,"is_disabled":false,"rental_uris":{"android":"levelo://app?vid=dbdbeba6-ff9d-438c-8a2e-8861f015e800","ios":"levelo://app?vid=dbdbeba6-ff9d-438c-8a2e-8861f015e800"},"vehicle_type_id":"4","last_reported":1737461852,"current_range_meters":38800,"station_id":"ce4bhg92rcd13ifvqf90","pricing_plan_id":"cebpf4jnsgd1na2vs0mg"},{"bike_id":"6a6af908-f5f0-4d05-8749-037756cfe284","system_id":"levelo_inurba_marseille","lat":43.28849,"lon":5.35851,"is_reserved":false,"is_disabled":false,"rental_uris":{"android":"levelo://app?vid=6a6af908-f5f0-4d05-8749-037756cfe284","ios":"levelo://app?vid=6a6af908-f5f0-4d05-8749-037756cfe284"},"vehicle_type_id":"4","last_reported":1737461852,"current_range_meters":10000,"station_id":"ce4bhb12rcd13ifvqem0","pricing_plan_id":"cebpf4jnsgd1na2vs0mg"},{"bike_id":"ab7b1d7a-8ae0-4c4a-9611-7e663b41825a","system_id":"levelo_inurba_marseille","lat":43.32266,"lon":5.38229,"is_reserved":false,"is_disabled":false,"rental_uris":{"android":"levelo://app?vid=ab7b1d7a-8ae0-4c4a-9611-7e663b41825a","ios":"levelo://app?vid=ab7b1d7a-8ae0-4c4a-9611-7e663b41825a"},"vehicle_type_id":"4","last_reported":1737461852,"current_range_meters":38800,"station_id":"ce4bhr12rcd13ifvqhqg","pricing_plan_id":"cebpf4jnsgd1na2vs0mg"},{"bike_id":"d4a18e16-6eb1-455f-9f8d-52c212244e83","system_id":"levelo_inurba_marseille","lat":43.27801,"lon":5.40499,"is_reserved":false,"is_disabled":true,"rental_uris":{"android":"levelo://app?vid=d4a18e16-6eb1-455f-9f8d-52c212244e83","ios":"levelo://app?vid=d4a18e16-6eb1-455f-9f8d-52c212244e83"},"vehicle_type_id":"4","last_reported":1737461852,"current_range_meters":0,"station_id":"","pricing_plan_id":"cebpf4jnsgd1na2vs0mg"},{"bike_id":"bbdfbdab-3289-473e-9dc7-37106f83f4a5","system_id":"levelo_inurba_marseille","lat":43.3054,"lon":5.3655,"is_reserved":false,"is_disabled":false,"rental_uris":{"android":"levelo://app?vid=bbdfbdab-3289-473e-9dc7-37106f83f4a5","ios":"levelo://app?vid=bbdfbdab-3289-473e-9dc7-37106f83f4a5"},"vehicle_type_id":"4","last_reported":1737461852,"current_range_meters":30800,"station_id":"ce4bgs12rcd13ifvqcag","pricing_plan_id":"cebpf4jnsgd1na2vs0mg"},{"bike_id":"9a46fc70-7cd3-48e2-808e-3b382fbb61cd","system_id":"levelo_inurba_marseille","lat":43.23159,"lon":5.43736,"is_reserved":false,"is_disabled":false,"rental_uris":{"android":"levelo://app?vid=9a46fc70-7cd3-48e2-808e-3b382fbb61cd","ios":"levelo://app?vid=9a46fc70-7cd3-48e2-808e-3b382fbb61cd"},"vehicle_type_id":"4","last_reported":1737461852,"current_range_meters":14400,"station_id":"ce4bhmp2rcd13ifvqgog","pricing_plan_id":"cebpf4jnsgd1na2vs0mg"},{"bike_id":"4a31d953-a351-4e4b-a04e-ac11058ef623","system_id":"levelo_inurba_marseille","lat":43.278039,"lon":5.407152,"is_reserved":false,"is_disabled":false,"rental_uris":{"android":"levelo://app?vid=4a31d953-a351-4e4b-a04e-ac11058ef623","ios":"levelo://app?vid=4a31d953-a351-4e4b-a04e-ac11058ef623"},"vehicle_type_id":"4","last_reported":1737461852,"current_range_meters":27200,"station_id":"ce4bhnh2rcd13ifvqgtg","pricing_plan_id":"cebpf4jnsgd1na2vs0mg"},{"bike_id":"227d4ac6-e6e3-42e5-b7a5-8c29ce937191","system_id":"levelo_inurba_marseille","lat":43.27961,"lon":5.38729,"is_reserved":false,"is_disabled":false,"rental_uris":{"android":"levelo://app?vid=227d4ac6-e6e3-42e5-b7a5-8c29ce937191","ios":"levelo://app?vid=227d4ac6-e6e3-42e5-b7a5-8c29ce937191"},"vehicle_type_id":"4","last_reported":1737461852,"current_range_meters":28400,"station_id":"ce4bhg12rcd13ifvqf80","pricing_plan_id":"cebpf4jnsgd1na2vs0mg"},{"bike_id":"9659f4e3-c865-4063-abda-ac29e04ca6ab","system_id":"levelo_inurba_marseille","lat":43.294104,"lon":5.38639,"is_reserved":false,"is_disabled":false,"rental_uris":{"android":"levelo://app?vid=9659f4e3-c865-4063-abda-ac29e04ca6ab","ios":"levelo://app?vid=9659f4e3-c865-4063-abda-ac29e04ca6ab"},"vehicle_type_id":"4","last_reported":1737461852,"current_range_meters":22000,"station_id":"ce4bh2h2rcd13ifvqdh0","pricing_plan_id":"cebpf4jnsgd1na2vs0mg"},{"bike_id":"d91be513-c350-4df2-80c9-9eac41eaf470","system_id":"levelo_inurba_marseille","lat":43.27992,"lon":5.3874,"is_reserved":false,"is_disabled":true,"rental_uris":{"android":"levelo://app?vid=d91be513-c350-4df2-80c9-9eac41eaf470","ios":"levelo://app?vid=d91be513-c350-4df2-80c9-9eac41eaf470"},"vehicle_type_id":"4","last_reported":1737461852,"current_range_meters":0,"station_id":"ce4bhg12rcd13ifvqf80","pricing_plan_id":"cebpf4jnsgd1na2vs0mg"},{"bike_id":"93135679-5633-4f33-9309-1ebc90afef8b","system_id":"levelo_inurba_marseille","lat":43.25589,"lon":5.38234,"is_reserved":false,"is_disabled":false,"rental_uris":{"android":"levelo://app?vid=93135679-5633-4f33-9309-1ebc90afef8b","ios":"levelo://app?vid=93135679-5633-4f33-9309-1ebc90afef8b"},"vehicle_type_id":"4","last_reported":1737461852,"current_range_meters":24800,"station_id":"ce4bhih2rcd13ifvqfs0","pricing_plan_id":"cebpf4jnsgd1na2vs0mg"},{"bike_id":"2880d1a0-5728-4545-81de-02cb0753c87b","system_id":"levelo_inurba_marseille","lat":43.2871,"lon":5.39993,"is_reserved":false,"is_disabled":false,"rental_uris":{"android":"levelo://app?vid=2880d1a0-5728-4545-81de-02cb0753c87b","ios":"levelo://app?vid=2880d1a0-5728-4545-81de-02cb0753c87b"},"vehicle_type_id":"4","last_reported":1737461852,"current_range_meters":27200,"station_id":"ce4bho92rcd13ifvqh3g","pricing_plan_id":"cebpf4jnsgd1na2vs0mg"},{"bike_id":"aede0d6e-6d04-4009-ab60-286c7c24530c","system_id":"levelo_inurba_marseille","lat":43.30165,"lon":5.38079,"is_reserved":false,"is_disabled":false,"rental_uris":{"android":"levelo://app?vid=aede0d6e-6d04-4009-ab60-286c7c24530c","ios":"levelo://app?vid=aede0d6e-6d04-4009-ab60-286c7c24530c"},"vehicle_type_id":"4","last_reported":1737461852,"current_range_meters":30000,"station_id":"ce4bgjp2rcd13ifvqbh0","pricing_plan_id":"cebpf4jnsgd1na2vs0mg"},{"bike_id":"c35f2a56-0945-408c-ab7b-059d91aadb6e","system_id":"levelo_inurba_marseille","lat":43.25941,"lon":5.40915,"is_reserved":false,"is_disabled":false,"rental_uris":{"android":"levelo://app?vid=c35f2a56-0945-408c-ab7b-059d91aadb6e","ios":"levelo://app?vid=c35f2a56-0945-408c-ab7b-059d91aadb6e"},"vehicle_type_id":"4","last_reported":1737461852,"current_range_meters":22000,"station_id":"ce4bhm92rcd13ifvqglg","pricing_plan_id":"cebpf4jnsgd1na2vs0mg"},{"bike_id":"85506400-251d-42ce-aa8f-a81cb6b691eb","system_id":"levelo_inurba_marseille","lat":43.31073,"lon":5.38362,"is_reserved":false,"is_disabled":false,"rental_uris":{"android":"levelo://app?vid=85506400-251d-42ce-aa8f-a81cb6b691eb","ios":"levelo://app?vid=85506400-251d-42ce-aa8f-a81cb6b691eb"},"vehicle_type_id":"4","last_reported":1737461852,"current_range_meters":38400,"station_id":"ce4bgv92rcd13ifvqcr0","pricing_plan_id":"cebpf4jnsgd1na2vs0mg"},{"bike_id":"53e56092-bf59-4d37-8073-3e35714bc05d","system_id":"levelo_inurba_marseille","lat":43.23159,"lon":5.43735,"is_reserved":false,"is_disabled":false,"rental_uris":{"android":"levelo://app?vid=53e56092-bf59-4d37-8073-3e35714bc05d","ios":"levelo://app?vid=53e56092-bf59-4d37-8073-3e35714bc05d"},"vehicle_type_id":"4","last_reported":1737461852,"current_range_meters":17600,"station_id":"ce4bhmp2rcd13ifvqgog","pricing_plan_id":"cebpf4jnsgd1na2vs0mg"},{"bike_id":"89e5d999-b64a-4894-b233-fbd2ca840386","system_id":"levelo_inurba_marseille","lat":43.30896,"lon":5.36865,"is_reserved":false,"is_disabled":false,"rental_uris":{"android":"levelo://app?vid=89e5d999-b64a-4894-b233-fbd2ca840386","ios":"levelo://app?vid=89e5d999-b64a-4894-b233-fbd2ca840386"},"vehicle_type_id":"4","last_reported":1737461852,"current_range_meters":33200,"station_id":"ce4bgn92rcd13ifvqbvg","pricing_plan_id":"cebpf4jnsgd1na2vs0mg"},{"bike_id":"7f865fb1-a21b-4393-a12d-712b54b8725b","system_id":"levelo_inurba_marseille","lat":43.266857,"lon":5.382743,"is_reserved":false,"is_disabled":false,"rental_uris":{"android":"levelo://app?vid=7f865fb1-a21b-4393-a12d-712b54b8725b","ios":"levelo://app?vid=7f865fb1-a21b-4393-a12d-712b54b8725b"},"vehicle_type_id":"4","last_reported":1737461852,"current_range_meters":32000,"station_id":"ce4bhg92rcd13ifvqf90","pricing_plan_id":"cebpf4jnsgd1na2vs0mg"},{"bike_id":"0fd51d96-0ee3-488b-bb9e-74d14f71431c","system_id":"levelo_inurba_marseille","lat":43.29208,"lon":5.39338,"is_reserved":false,"is_disabled":false,"rental_uris":{"android":"levelo://app?vid=0fd51d96-0ee3-488b-bb9e-74d14f71431c","ios":"levelo://app?vid=0fd51d96-0ee3-488b-bb9e-74d14f71431c"},"vehicle_type_id":"4","last_reported":1737461852,"current_range_meters":39200,"station_id":"ce4bh192rcd13ifvqdd0","pricing_plan_id":"cebpf4jnsgd1na2vs0mg"},{"bike_id":"af6bcfd1-3b19-4008-8265-bf18e02e30ae","system_id":"levelo_inurba_marseille","lat":43.31324,"lon":5.39734,"is_reserved":false,"is_disabled":false,"rental_uris":{"android":"levelo://app?vid=af6bcfd1-3b19-4008-8265-bf18e02e30ae","ios":"levelo://app?vid=af6bcfd1-3b19-4008-8265-bf18e02e30ae"},"vehicle_type_id":"4","last_reported":1737461852,"current_range_meters":38800,"station_id":"ce4bgvp2rcd13ifvqcu0","pricing_plan_id":"cebpf4jnsgd1na2vs0mg"},{"bike_id":"7c31f747-50bf-49b6-964a-dd7836fc5b83","system_id":"levelo_inurba_marseille","lat":43.27838,"lon":5.39209,"is_reserved":false,"is_disabled":false,"rental_uris":{"android":"levelo://app?vid=7c31f747-50bf-49b6-964a-dd7836fc5b83","ios":"levelo://app?vid=7c31f747-50bf-49b6-964a-dd7836fc5b83"},"vehicle_type_id":"4","last_reported":1737461852,"current_range_meters":38000,"station_id":"ce4bhjp2rcd13ifvqga0","pricing_plan_id":"cebpf4jnsgd1na2vs0mg"},{"bike_id":"45126e89-00f5-461e-9c0a-b038172e335b","system_id":"levelo_inurba_marseille","lat":43.29287,"lon":5.40148,"is_reserved":false,"is_disabled":false,"rental_uris":{"android":"levelo://app?vid=45126e89-00f5-461e-9c0a-b038172e335b","ios":"levelo://app?vid=45126e89-00f5-461e-9c0a-b038172e335b"},"vehicle_type_id":"4","last_reported":1737461852,"current_range_meters":39200,"station_id":"ce4bh312rcd13ifvqdk0","pricing_plan_id":"cebpf4jnsgd1na2vs0mg"},{"bike_id":"c6aec08a-95b2-468e-b6ba-3552b798296e","system_id":"levelo_inurba_marseille","lat":43.33596,"lon":5.4102,"is_reserved":false,"is_disabled":false,"rental_uris":{"android":"levelo://app?vid=c6aec08a-95b2-468e-b6ba-3552b798296e","ios":"levelo://app?vid=c6aec08a-95b2-468e-b6ba-3552b798296e"},"vehicle_type_id":"4","last_reported":1737461852,"current_range_meters":28400,"station_id":"ce4bhqh2rcd13ifvqhmg","pricing_plan_id":"cebpf4jnsgd1na2vs0mg"},{"bike_id":"bf02409a-4331-429e-bcbf-1b13ccb14949","system_id":"levelo_inurba_marseille","lat":43.29368,"lon":5.37855,"is_reserved":false,"is_disabled":false,"rental_uris":{"android":"levelo://app?vid=bf02409a-4331-429e-bcbf-1b13ccb14949","ios":"levelo://app?vid=bf02409a-4331-429e-bcbf-1b13ccb14949"},"vehicle_type_id":"4","last_reported":1737461852,"current_range_meters":38800,"station_id":"ce4bgjh2rcd13ifvqbf0","pricing_plan_id":"cebpf4jnsgd1na2vs0mg"},{"bike_id":"345bf41a-3ca1-4a74-bee2-bdbd455ed834","system_id":"levelo_inurba_marseille","lat":43.26785,"lon":5.39415,"is_reserved":false,"is_disabled":false,"rental_uris":{"android":"levelo://app?vid=345bf41a-3ca1-4a74-bee2-bdbd455ed834","ios":"levelo://app?vid=345bf41a-3ca1-4a74-bee2-bdbd455ed834"},"vehicle_type_id":"4","last_reported":1737461852,"current_range_meters":24800,"station_id":"ce4bhh12rcd13ifvqfg0","pricing_plan_id":"cebpf4jnsgd1na2vs0mg"},{"bike_id":"57089681-4dfb-4ed4-9d3a-5124dafb4159","system_id":"levelo_inurba_marseille","lat":43.27074,"lon":5.42279,"is_reserved":false,"is_disabled":false,"rental_uris":{"android":"levelo://app?vid=57089681-4dfb-4ed4-9d3a-5124dafb4159","ios":"levelo://app?vid=57089681-4dfb-4ed4-9d3a-5124dafb4159"},"vehicle_type_id":"4","last_reported":1737461852,"current_range_meters":39200,"station_id":"ce4bhk92rcd13ifvqgb0","pricing_plan_id":"cebpf4jnsgd1na2vs0mg"},{"bike_id":"f5d3e72d-eb2a-455d-867e-3eee8cf361a9","system_id":"levelo_inurba_marseille","lat":43.299854,"lon":5.384763,"is_reserved":false,"is_disabled":false,"rental_uris":{"android":"levelo://app?vid=f5d3e72d-eb2a-455d-867e-3eee8cf361a9","ios":"levelo://app?vid=f5d3e72d-eb2a-455d-867e-3eee8cf361a9"},"vehicle_type_id":"4","last_reported":1737461852,"current_range_meters":24400,"station_id":"ce4bgj92rcd13ifvqbd0","pricing_plan_id":"cebpf4jnsgd1na2vs0mg"},{"bike_id":"640c1925-7259-425a-b1ab-a7227ca6884a","system_id":"levelo_inurba_marseille","lat":43.31075,"lon":5.38362,"is_reserved":false,"is_disabled":false,"rental_uris":{"android":"levelo://app?vid=640c1925-7259-425a-b1ab-a7227ca6884a","ios":"levelo://app?vid=640c1925-7259-425a-b1ab-a7227ca6884a"},"vehicle_type_id":"4","last_reported":1737461852,"current_range_meters":17600,"station_id":"ce4bgv92rcd13ifvqcr0","pricing_plan_id":"cebpf4jnsgd1na2vs0mg"},{"bike_id":"580fd682-a63d-4470-bd40-a527c3d7e682","system_id":"levelo_inurba_marseille","lat":43.25025,"lon":5.38944,"is_reserved":false,"is_disabled":false,"rental_uris":{"android":"levelo://app?vid=580fd682-a63d-4470-bd40-a527c3d7e682","ios":"levelo://app?vid=580fd682-a63d-4470-bd40-a527c3d7e682"},"vehicle_type_id":"4","last_reported":1737461852,"current_range_meters":38800,"station_id":"ce4bhgp2rcd13ifvqfd0","pricing_plan_id":"cebpf4jnsgd1na2vs0mg"},{"bike_id":"30d1922a-076e-46b2-a94e-06f395326f0a","system_id":"levelo_inurba_marseille","lat":43.27039,"lon":5.40279,"is_reserved":false,"is_disabled":false,"rental_uris":{"android":"levelo://app?vid=30d1922a-076e-46b2-a94e-06f395326f0a","ios":"levelo://app?vid=30d1922a-076e-46b2-a94e-06f395326f0a"},"vehicle_type_id":"4","last_reported":1737461852,"current_range_meters":24000,"station_id":"ce4bhk92rcd13ifvqgc0","pricing_plan_id":"cebpf4jnsgd1na2vs0mg"},{"bike_id":"0608f212-38db-48ff-ad1d-af5724ac90a3","system_id":"levelo_inurba_marseille","lat":43.27204,"lon":5.39181,"is_reserved":false,"is_disabled":false,"rental_uris":{"android":"levelo://app?vid=0608f212-38db-48ff-ad1d-af5724ac90a3","ios":"levelo://app?vid=0608f212-38db-48ff-ad1d-af5724ac90a3"},"vehicle_type_id":"4","last_reported":1737461852,"current_range_meters":35200,"station_id":"ce4bhhp2rcd13ifvqfm0","pricing_plan_id":"cebpf4jnsgd1na2vs0mg"},{"bike_id":"89246613-701f-4c68-9d92-02bfec38ebf0","system_id":"levelo_inurba_marseille","lat":43.2681,"lon":5.40263,"is_reserved":false,"is_disabled":false,"rental_uris":{"android":"levelo://app?vid=89246613-701f-4c68-9d92-02bfec38ebf0","ios":"levelo://app?vid=89246613-701f-4c68-9d92-02bfec38ebf0"},"vehicle_type_id":"4","last_reported":1737461852,"current_range_meters":39200,"station_id":"ce501612rcd8frsf0b60","pricing_plan_id":"cebpf4jnsgd1na2vs0mg"},{"bike_id":"ea4936bb-a020-48d0-ad34-8742c0d8a98c","system_id":"levelo_inurba_marseille","lat":43.30901,"lon":5.36866,"is_reserved":false,"is_disabled":false,"rental_uris":{"android":"levelo://app?vid=ea4936bb-a020-48d0-ad34-8742c0d8a98c","ios":"levelo://app?vid=ea4936bb-a020-48d0-ad34-8742c0d8a98c"},"vehicle_type_id":"4","last_reported":1737461852,"current_range_meters":30800,"station_id":"ce4bgn92rcd13ifvqbvg","pricing_plan_id":"cebpf4jnsgd1na2vs0mg"},{"bike_id":"31257c94-14b2-42e2-9664-77ef70ea51d9","system_id":"levelo_inurba_marseille","lat":43.32474,"lon":5.36585,"is_reserved":false,"is_disabled":false,"rental_uris":{"android":"levelo://app?vid=31257c94-14b2-42e2-9664-77ef70ea51d9","ios":"levelo://app?vid=31257c94-14b2-42e2-9664-77ef70ea51d9"},"vehicle_type_id":"4","last_reported":1737461852,"current_range_meters":38800,"station_id":"ce4bhs12rcd13ifvqhvg","pricing_plan_id":"cebpf4jnsgd1na2vs0mg"},{"bike_id":"bc44b838-5e20-4546-8ae8-e1fd2cf0cd3c","system_id":"levelo_inurba_marseille","lat":43.27564,"lon":5.38429,"is_reserved":false,"is_disabled":false,"rental_uris":{"android":"levelo://app?vid=bc44b838-5e20-4546-8ae8-e1fd2cf0cd3c","ios":"levelo://app?vid=bc44b838-5e20-4546-8ae8-e1fd2cf0cd3c"},"vehicle_type_id":"4","last_reported":1737461852,"current_range_meters":38400,"station_id":"ce4bhh92rcd13ifvqfi0","pricing_plan_id":"cebpf4jnsgd1na2vs0mg"},{"bike_id":"7b8668d1-4921-45a1-a1a9-cf2028fa2b7c","system_id":"levelo_inurba_marseille","lat":43.27176,"lon":5.40998,"is_reserved":false,"is_disabled":false,"rental_uris":{"android":"levelo://app?vid=7b8668d1-4921-45a1-a1a9-cf2028fa2b7c","ios":"levelo://app?vid=7b8668d1-4921-45a1-a1a9-cf2028fa2b7c"},"vehicle_type_id":"4","last_reported":1737461852,"current_range_meters":36400,"station_id":"ce4bhl12rcd13ifvqgf0","pricing_plan_id":"cebpf4jnsgd1na2vs0mg"},{"bike_id":"b6cc31be-151e-4d56-8839-e71a9cd45b18","system_id":"levelo_inurba_marseille","lat":43.23208,"lon":5.3555,"is_reserved":false,"is_disabled":false,"rental_uris":{"android":"levelo://app?vid=b6cc31be-151e-4d56-8839-e71a9cd45b18","ios":"levelo://app?vid=b6cc31be-151e-4d56-8839-e71a9cd45b18"},"vehicle_type_id":"4","last_reported":1737461852,"current_range_meters":36800,"station_id":"ce4bhu92rcd13ifvqi70","pricing_plan_id":"cebpf4jnsgd1na2vs0mg"},{"bike_id":"1a0a2514-1dbf-4be6-9e23-d2b90daf2f22","system_id":"levelo_inurba_marseille","lat":43.2316,"lon":5.43732,"is_reserved":false,"is_disabled":false,"rental_uris":{"android":"levelo://app?vid=1a0a2514-1dbf-4be6-9e23-d2b90daf2f22","ios":"levelo://app?vid=1a0a2514-1dbf-4be6-9e23-d2b90daf2f22"},"vehicle_type_id":"4","last_reported":1737461852,"current_range_meters":20800,"station_id":"ce4bhmp2rcd13ifvqgog","pricing_plan_id":"cebpf4jnsgd1na2vs0mg"},{"bike_id":"28201ba4-e578-471a-844b-6e5aba6eabab","system_id":"levelo_inurba_marseille","lat":43.31163,"lon":5.3871,"is_reserved":false,"is_disabled":false,"rental_uris":{"android":"levelo://app?vid=28201ba4-e578-471a-844b-6e5aba6eabab","ios":"levelo://app?vid=28201ba4-e578-471a-844b-6e5aba6eabab"},"vehicle_type_id":"4","last_reported":1737461852,"current_range_meters":38800,"station_id":"ce4bgv12rcd13ifvqcp0","pricing_plan_id":"cebpf4jnsgd1na2vs0mg"},{"bike_id":"1e2d0724-4724-4845-bb8e-655813ce19e9","system_id":"levelo_inurba_marseille","lat":43.29103,"lon":5.3813,"is_reserved":false,"is_disabled":false,"rental_uris":{"android":"levelo://app?vid=1e2d0724-4724-4845-bb8e-655813ce19e9","ios":"levelo://app?vid=1e2d0724-4724-4845-bb8e-655813ce19e9"},"vehicle_type_id":"4","last_reported":1737461852,"current_range_meters":36400,"station_id":"ce4bh512rcd13ifvqe2g","pricing_plan_id":"cebpf4jnsgd1na2vs0mg"},{"bike_id":"e769477c-b503-4bb8-b7d3-b7f7ff9ddf2d","system_id":"levelo_inurba_marseille","lat":43.29228,"lon":5.36911,"is_reserved":false,"is_disabled":false,"rental_uris":{"android":"levelo://app?vid=e769477c-b503-4bb8-b7d3-b7f7ff9ddf2d","ios":"levelo://app?vid=e769477c-b503-4bb8-b7d3-b7f7ff9ddf2d"},"vehicle_type_id":"4","last_reported":1737461852,"current_range_meters":10000,"station_id":"","pricing_plan_id":"cebpf4jnsgd1na2vs0mg"},{"bike_id":"503f4e76-2279-4cdf-a5a2-2531a91f3a3a","system_id":"levelo_inurba_marseille","lat":43.26551,"lon":5.37301,"is_reserved":false,"is_disabled":false,"rental_uris":{"android":"levelo://app?vid=503f4e76-2279-4cdf-a5a2-2531a91f3a3a","ios":"levelo://app?vid=503f4e76-2279-4cdf-a5a2-2531a91f3a3a"},"vehicle_type_id":"4","last_reported":1737461852,"current_range_meters":36400,"station_id":"ce4bhg12rcd13ifvqf70","pricing_plan_id":"cebpf4jnsgd1na2vs0mg"},{"bike_id":"28ef1c1e-dd89-43e8-817b-9b489831397b","system_id":"levelo_inurba_marseille","lat":43.27109,"lon":5.39593,"is_reserved":false,"is_disabled":true,"rental_uris":{"android":"levelo://app?vid=28ef1c1e-dd89-43e8-817b-9b489831397b","ios":"levelo://app?vid=28ef1c1e-dd89-43e8-817b-9b489831397b"},"vehicle_type_id":"4","last_reported":1737461852,"current_range_meters":0,"station_id":"","pricing_plan_id":"cebpf4jnsgd1na2vs0mg"},{"bike_id":"bf04cb94-1bb7-4539-a87b-98c1f139ab50","system_id":"levelo_inurba_marseille","lat":43.29919,"lon":5.3748,"is_reserved":false,"is_disabled":false,"rental_uris":{"android":"levelo://app?vid=bf04cb94-1bb7-4539-a87b-98c1f139ab50","ios":"levelo://app?vid=bf04cb94-1bb7-4539-a87b-98c1f139ab50"},"vehicle_type_id":"4","last_reported":1737461852,"current_range_meters":24800,"station_id":"ce4bgjh2rcd13ifvqbg0","pricing_plan_id":"cebpf4jnsgd1na2vs0mg"},{"bike_id":"973357c8-dead-42ca-92e9-500225bc994c","system_id":"levelo_inurba_marseille","lat":43.32998,"lon":5.39075,"is_reserved":false,"is_disabled":false,"rental_uris":{"android":"levelo://app?vid=973357c8-dead-42ca-92e9-500225bc994c","ios":"levelo://app?vid=973357c8-dead-42ca-92e9-500225bc994c"},"vehicle_type_id":"4","last_reported":1737461852,"current_range_meters":38800,"station_id":"ce4bhr92rcd13ifvqhrg","pricing_plan_id":"cebpf4jnsgd1na2vs0mg"},{"bike_id":"5b9b7e8f-0b32-4350-a920-c03cfe2724cc","system_id":"levelo_inurba_marseille","lat":43.29564,"lon":5.37528,"is_reserved":false,"is_disabled":false,"rental_uris":{"android":"levelo://app?vid=5b9b7e8f-0b32-4350-a920-c03cfe2724cc","ios":"levelo://app?vid=5b9b7e8f-0b32-4350-a920-c03cfe2724cc"},"vehicle_type_id":"4","last_reported":1737461852,"current_range_meters":7200,"station_id":"ce4bgh92rcd13ifvqb50","pricing_plan_id":"cebpf4jnsgd1na2vs0mg"},{"bike_id":"e1b86826-a513-4fa0-8111-6fab965861d5","system_id":"levelo_inurba_marseille","lat":43.3171,"lon":5.43709,"is_reserved":false,"is_disabled":false,"rental_uris":{"android":"levelo://app?vid=e1b86826-a513-4fa0-8111-6fab965861d5","ios":"levelo://app?vid=e1b86826-a513-4fa0-8111-6fab965861d5"},"vehicle_type_id":"4","last_reported":1737461852,"current_range_meters":16000,"station_id":"ce4bhp92rcd13ifvqhcg","pricing_plan_id":"cebpf4jnsgd1na2vs0mg"},{"bike_id":"584a2a6a-e927-4176-a83e-1ee67ef5c40a","system_id":"levelo_inurba_marseille","lat":43.30184,"lon":5.380683,"is_reserved":false,"is_disabled":false,"rental_uris":{"android":"levelo://app?vid=584a2a6a-e927-4176-a83e-1ee67ef5c40a","ios":"levelo://app?vid=584a2a6a-e927-4176-a83e-1ee67ef5c40a"},"vehicle_type_id":"4","last_reported":1737461852,"current_range_meters":24000,"station_id":"ce4bgjp2rcd13ifvqbh0","pricing_plan_id":"cebpf4jnsgd1na2vs0mg"},{"bike_id":"a9667386-5370-4b94-b202-eea81d19e9ae","system_id":"levelo_inurba_marseille","lat":43.30151,"lon":5.38769,"is_reserved":false,"is_disabled":false,"rental_uris":{"android":"levelo://app?vid=a9667386-5370-4b94-b202-eea81d19e9ae","ios":"levelo://app?vid=a9667386-5370-4b94-b202-eea81d19e9ae"},"vehicle_type_id":"4","last_reported":1737461852,"current_range_meters":30800,"station_id":"ce4bghh2rcd13ifvqb60","pricing_plan_id":"cebpf4jnsgd1na2vs0mg"},{"bike_id":"6d170c43-ed25-40d3-b88a-cefadd58002d","system_id":"levelo_inurba_marseille","lat":43.33588,"lon":5.4105,"is_reserved":false,"is_disabled":false,"rental_uris":{"android":"levelo://app?vid=6d170c43-ed25-40d3-b88a-cefadd58002d","ios":"levelo://app?vid=6d170c43-ed25-40d3-b88a-cefadd58002d"},"vehicle_type_id":"4","last_reported":1737461852,"current_range_meters":25200,"station_id":"ce4bhqh2rcd13ifvqhmg","pricing_plan_id":"cebpf4jnsgd1na2vs0mg"},{"bike_id":"1bc4f972-1eb6-4a1e-8920-bbde83f7ed86","system_id":"levelo_inurba_marseille","lat":43.30901,"lon":5.36846,"is_reserved":false,"is_disabled":false,"rental_uris":{"android":"levelo://app?vid=1bc4f972-1eb6-4a1e-8920-bbde83f7ed86","ios":"levelo://app?vid=1bc4f972-1eb6-4a1e-8920-bbde83f7ed86"},"vehicle_type_id":"4","last_reported":1737461852,"current_range_meters":38800,"station_id":"ce4bgn92rcd13ifvqbvg","pricing_plan_id":"cebpf4jnsgd1na2vs0mg"},{"bike_id":"1f5cb474-798b-4357-9d76-fbb42e648fb5","system_id":"levelo_inurba_marseille","lat":43.28634,"lon":5.35104,"is_reserved":false,"is_disabled":false,"rental_uris":{"android":"levelo://app?vid=1f5cb474-798b-4357-9d76-fbb42e648fb5","ios":"levelo://app?vid=1f5cb474-798b-4357-9d76-fbb42e648fb5"},"vehicle_type_id":"4","last_reported":1737461852,"current_range_meters":16000,"station_id":"ce4bhch2rcd13ifvqeug","pricing_plan_id":"cebpf4jnsgd1na2vs0mg"},{"bike_id":"01d474fa-2688-401d-9257-07a06c86ad5d","system_id":"levelo_inurba_marseille","lat":43.23067,"lon":5.35493,"is_reserved":false,"is_disabled":false,"rental_uris":{"android":"levelo://app?vid=01d474fa-2688-401d-9257-07a06c86ad5d","ios":"levelo://app?vid=01d474fa-2688-401d-9257-07a06c86ad5d"},"vehicle_type_id":"4","last_reported":1737461852,"current_range_meters":30400,"station_id":"cpo3342slgdg3j2ifvpg","pricing_plan_id":"cebpf4jnsgd1na2vs0mg"},{"bike_id":"14d59d68-0961-486f-873c-aabbdb9ca44f","system_id":"levelo_inurba_marseille","lat":43.28275,"lon":5.35073,"is_reserved":false,"is_disabled":true,"rental_uris":{"android":"levelo://app?vid=14d59d68-0961-486f-873c-aabbdb9ca44f","ios":"levelo://app?vid=14d59d68-0961-486f-873c-aabbdb9ca44f"},"vehicle_type_id":"4","last_reported":1737461852,"current_range_meters":0,"station_id":"ce4bhbp2rcd13ifvqerg","pricing_plan_id":"cebpf4jnsgd1na2vs0mg"},{"bike_id":"b9a085cb-bb5b-4cc1-84ad-d76baa6c959d","system_id":"levelo_inurba_marseille","lat":43.30162,"lon":5.381007,"is_reserved":false,"is_disabled":true,"rental_uris":{"android":"levelo://app?vid=b9a085cb-bb5b-4cc1-84ad-d76baa6c959d","ios":"levelo://app?vid=b9a085cb-bb5b-4cc1-84ad-d76baa6c959d"},"vehicle_type_id":"4","last_reported":1737461852,"current_range_meters":36000,"station_id":"ce4bgjp2rcd13ifvqbh0","pricing_plan_id":"cebpf4jnsgd1na2vs0mg"},{"bike_id":"11c7c02c-d0f3-4744-ae00-776b2f00515e","system_id":"levelo_inurba_marseille","lat":43.2681,"lon":5.40268,"is_reserved":false,"is_disabled":false,"rental_uris":{"android":"levelo://app?vid=11c7c02c-d0f3-4744-ae00-776b2f00515e","ios":"levelo://app?vid=11c7c02c-d0f3-4744-ae00-776b2f00515e"},"vehicle_type_id":"4","last_reported":1737461852,"current_range_meters":39200,"station_id":"ce501612rcd8frsf0b60","pricing_plan_id":"cebpf4jnsgd1na2vs0mg"},{"bike_id":"b1e7c0e3-f276-47c4-8832-08cec6a6eeae","system_id":"levelo_inurba_marseille","lat":43.3052,"lon":5.36725,"is_reserved":false,"is_disabled":false,"rental_uris":{"android":"levelo://app?vid=b1e7c0e3-f276-47c4-8832-08cec6a6eeae","ios":"levelo://app?vid=b1e7c0e3-f276-47c4-8832-08cec6a6eeae"},"vehicle_type_id":"4","last_reported":1737461852,"current_range_meters":38400,"station_id":"ce4bgrp2rcd13ifvqc9g","pricing_plan_id":"cebpf4jnsgd1na2vs0mg"},{"bike_id":"69c5f992-b640-46d6-bd55-6c4390105b36","system_id":"levelo_inurba_marseille","lat":43.29911,"lon":5.36234,"is_reserved":false,"is_disabled":false,"rental_uris":{"android":"levelo://app?vid=69c5f992-b640-46d6-bd55-6c4390105b36","ios":"levelo://app?vid=69c5f992-b640-46d6-bd55-6c4390105b36"},"vehicle_type_id":"4","last_reported":1737461852,"current_range_meters":24400,"station_id":"ce4bgpp2rcd13ifvqc3g","pricing_plan_id":"cebpf4jnsgd1na2vs0mg"},{"bike_id":"509bbee4-460e-4603-8910-7f3e2911f88c","system_id":"levelo_inurba_marseille","lat":43.308,"lon":5.38158,"is_reserved":false,"is_disabled":false,"rental_uris":{"android":"levelo://app?vid=509bbee4-460e-4603-8910-7f3e2911f88c","ios":"levelo://app?vid=509bbee4-460e-4603-8910-7f3e2911f88c"},"vehicle_type_id":"4","last_reported":1737461852,"current_range_meters":38400,"station_id":"ce4bgt12rcd13ifvqce0","pricing_plan_id":"cebpf4jnsgd1na2vs0mg"},{"bike_id":"64b66824-f064-4903-8358-094ea3275fbf","system_id":"levelo_inurba_marseille","lat":43.30247,"lon":5.37728,"is_reserved":false,"is_disabled":false,"rental_uris":{"android":"levelo://app?vid=64b66824-f064-4903-8358-094ea3275fbf","ios":"levelo://app?vid=64b66824-f064-4903-8358-094ea3275fbf"},"vehicle_type_id":"4","last_reported":1737461852,"current_range_meters":39200,"station_id":"ce4bguh2rcd13ifvqcj0","pricing_plan_id":"cebpf4jnsgd1na2vs0mg"},{"bike_id":"f49b82ce-fafb-478c-8aa9-8d33496ba257","system_id":"levelo_inurba_marseille","lat":43.25114,"lon":5.40334,"is_reserved":false,"is_disabled":false,"rental_uris":{"android":"levelo://app?vid=f49b82ce-fafb-478c-8aa9-8d33496ba257","ios":"levelo://app?vid=f49b82ce-fafb-478c-8aa9-8d33496ba257"},"vehicle_type_id":"4","last_reported":1737461852,"current_range_meters":20400,"station_id":"ce4bhlh2rcd13ifvqgig","pricing_plan_id":"cebpf4jnsgd1na2vs0mg"},{"bike_id":"1b1acf8d-54ac-4efe-96ff-66c901f3aba1","system_id":"levelo_inurba_marseille","lat":43.30522,"lon":5.36532,"is_reserved":false,"is_disabled":false,"rental_uris":{"android":"levelo://app?vid=1b1acf8d-54ac-4efe-96ff-66c901f3aba1","ios":"levelo://app?vid=1b1acf8d-54ac-4efe-96ff-66c901f3aba1"},"vehicle_type_id":"4","last_reported":1737461852,"current_range_meters":38800,"station_id":"","pricing_plan_id":"cebpf4jnsgd1na2vs0mg"},{"bike_id":"7e3448d7-e848-4498-ad6e-1e45efec6aab","system_id":"levelo_inurba_marseille","lat":43.30305,"lon":5.39222,"is_reserved":false,"is_disabled":false,"rental_uris":{"android":"levelo://app?vid=7e3448d7-e848-4498-ad6e-1e45efec6aab","ios":"levelo://app?vid=7e3448d7-e848-4498-ad6e-1e45efec6aab"},"vehicle_type_id":"4","last_reported":1737461852,"current_range_meters":38000,"station_id":"ce4bgkh2rcd13ifvqbk0","pricing_plan_id":"cebpf4jnsgd1na2vs0mg"},{"bike_id":"28cb4c2d-387a-41d3-ab8b-b351efbd2d00","system_id":"levelo_inurba_marseille","lat":43.29392,"lon":5.37843,"is_reserved":false,"is_disabled":false,"rental_uris":{"android":"levelo://app?vid=28cb4c2d-387a-41d3-ab8b-b351efbd2d00","ios":"levelo://app?vid=28cb4c2d-387a-41d3-ab8b-b351efbd2d00"},"vehicle_type_id":"4","last_reported":1737461852,"current_range_meters":30000,"station_id":"ce4bgjh2rcd13ifvqbf0","pricing_plan_id":"cebpf4jnsgd1na2vs0mg"},{"bike_id":"a2c00364-7a28-4f8d-a181-db3ffbb6afde","system_id":"levelo_inurba_marseille","lat":43.29187,"lon":5.35806,"is_reserved":false,"is_disabled":false,"rental_uris":{"android":"levelo://app?vid=a2c00364-7a28-4f8d-a181-db3ffbb6afde","ios":"levelo://app?vid=a2c00364-7a28-4f8d-a181-db3ffbb6afde"},"vehicle_type_id":"4","last_reported":1737461852,"current_range_meters":38800,"station_id":"ce4bhb12rcd13ifvqel0","pricing_plan_id":"cebpf4jnsgd1na2vs0mg"},{"bike_id":"2089036c-5db7-48b8-83e7-b7fbc7dff2e5","system_id":"levelo_inurba_marseille","lat":43.26689,"lon":5.38259,"is_reserved":false,"is_disabled":false,"rental_uris":{"android":"levelo://app?vid=2089036c-5db7-48b8-83e7-b7fbc7dff2e5","ios":"levelo://app?vid=2089036c-5db7-48b8-83e7-b7fbc7dff2e5"},"vehicle_type_id":"4","last_reported":1737461852,"current_range_meters":38000,"station_id":"ce4bhg92rcd13ifvqf90","pricing_plan_id":"cebpf4jnsgd1na2vs0mg"},{"bike_id":"d9192e79-a447-4178-aa2b-2920089fd1ad","system_id":"levelo_inurba_marseille","lat":43.30596,"lon":5.39367,"is_reserved":false,"is_disabled":true,"rental_uris":{"android":"levelo://app?vid=d9192e79-a447-4178-aa2b-2920089fd1ad","ios":"levelo://app?vid=d9192e79-a447-4178-aa2b-2920089fd1ad"},"vehicle_type_id":"4","last_reported":1737461852,"current_range_meters":2000,"station_id":"ce4bh0p2rcd13ifvqd80","pricing_plan_id":"cebpf4jnsgd1na2vs0mg"},{"bike_id":"a28f19b5-d5b3-4099-825a-f05b050fc798","system_id":"levelo_inurba_marseille","lat":43.26278,"lon":5.37433,"is_reserved":false,"is_disabled":false,"rental_uris":{"android":"levelo://app?vid=a28f19b5-d5b3-4099-825a-f05b050fc798","ios":"levelo://app?vid=a28f19b5-d5b3-4099-825a-f05b050fc798"},"vehicle_type_id":"4","last_reported":1737461852,"current_range_meters":22400,"station_id":"ce4bhah2rcd13ifvqei0","pricing_plan_id":"cebpf4jnsgd1na2vs0mg"},{"bike_id":"af6d5d8d-79e6-4aa3-b664-b8e2ded40f3b","system_id":"levelo_inurba_marseille","lat":43.28457,"lon":5.35907,"is_reserved":false,"is_disabled":false,"rental_uris":{"android":"levelo://app?vid=af6d5d8d-79e6-4aa3-b664-b8e2ded40f3b","ios":"levelo://app?vid=af6d5d8d-79e6-4aa3-b664-b8e2ded40f3b"},"vehicle_type_id":"4","last_reported":1737461852,"current_range_meters":12000,"station_id":"ce4bhah2rcd13ifvqei0","pricing_plan_id":"cebpf4jnsgd1na2vs0mg"},{"bike_id":"80bcc3e7-77de-44a5-8965-f19acb6d7452","system_id":"levelo_inurba_marseille","lat":43.33022,"lon":5.39076,"is_reserved":false,"is_disabled":false,"rental_uris":{"android":"levelo://app?vid=80bcc3e7-77de-44a5-8965-f19acb6d7452","ios":"levelo://app?vid=80bcc3e7-77de-44a5-8965-f19acb6d7452"},"vehicle_type_id":"4","last_reported":1737461852,"current_range_meters":38800,"station_id":"ce4bhr92rcd13ifvqhrg","pricing_plan_id":"cebpf4jnsgd1na2vs0mg"},{"bike_id":"b8e67c99-6b85-48bc-9187-dec9ed848b5c","system_id":"levelo_inurba_marseille","lat":43.26201,"lon":5.37926,"is_reserved":false,"is_disabled":false,"rental_uris":{"android":"levelo://app?vid=b8e67c99-6b85-48bc-9187-dec9ed848b5c","ios":"levelo://app?vid=b8e67c99-6b85-48bc-9187-dec9ed848b5c"},"vehicle_type_id":"4","last_reported":1737461852,"current_range_meters":26000,"station_id":"ce4bhjp2rcd13ifvqg90","pricing_plan_id":"cebpf4jnsgd1na2vs0mg"},{"bike_id":"9ca4de9a-cfca-4937-bf4d-f360d7c8f7f5","system_id":"levelo_inurba_marseille","lat":43.305366,"lon":5.3652,"is_reserved":false,"is_disabled":false,"rental_uris":{"android":"levelo://app?vid=9ca4de9a-cfca-4937-bf4d-f360d7c8f7f5","ios":"levelo://app?vid=9ca4de9a-cfca-4937-bf4d-f360d7c8f7f5"},"vehicle_type_id":"4","last_reported":1737461852,"current_range_meters":38000,"station_id":"ce4bgs12rcd13ifvqcag","pricing_plan_id":"cebpf4jnsgd1na2vs0mg"},{"bike_id":"8a19e8d0-db29-4b83-bc42-395183f46034","system_id":"levelo_inurba_marseille","lat":43.29166,"lon":5.37156,"is_reserved":false,"is_disabled":false,"rental_uris":{"android":"levelo://app?vid=8a19e8d0-db29-4b83-bc42-395183f46034","ios":"levelo://app?vid=8a19e8d0-db29-4b83-bc42-395183f46034"},"vehicle_type_id":"4","last_reported":1737461852,"current_range_meters":17600,"station_id":"ce4bha92rcd13ifvqeh0","pricing_plan_id":"cebpf4jnsgd1na2vs0mg"},{"bike_id":"4ae77394-b85b-441a-aadd-f0883c70ec0d","system_id":"levelo_inurba_marseille","lat":43.2837,"lon":5.38101,"is_reserved":false,"is_disabled":false,"rental_uris":{"android":"levelo://app?vid=4ae77394-b85b-441a-aadd-f0883c70ec0d","ios":"levelo://app?vid=4ae77394-b85b-441a-aadd-f0883c70ec0d"},"vehicle_type_id":"4","last_reported":1737461852,"current_range_meters":7200,"station_id":"ce4bh412rcd13ifvqdr0","pricing_plan_id":"cebpf4jnsgd1na2vs0mg"},{"bike_id":"ee9f75ff-30d6-4da3-8595-6156f69d6dcb","system_id":"levelo_inurba_marseille","lat":43.29246,"lon":5.38449,"is_reserved":false,"is_disabled":false,"rental_uris":{"android":"levelo://app?vid=ee9f75ff-30d6-4da3-8595-6156f69d6dcb","ios":"levelo://app?vid=ee9f75ff-30d6-4da3-8595-6156f69d6dcb"},"vehicle_type_id":"4","last_reported":1737461852,"current_range_meters":14800,"station_id":"ce4bh692rcd13ifvqea0","pricing_plan_id":"cebpf4jnsgd1na2vs0mg"},{"bike_id":"38fedafe-549e-4d5b-8abc-34e39e4aebe4","system_id":"levelo_inurba_marseille","lat":43.31119,"lon":5.37779,"is_reserved":false,"is_disabled":true,"rental_uris":{"android":"levelo://app?vid=38fedafe-549e-4d5b-8abc-34e39e4aebe4","ios":"levelo://app?vid=38fedafe-549e-4d5b-8abc-34e39e4aebe4"},"vehicle_type_id":"4","last_reported":1737461852,"current_range_meters":0,"station_id":"ce4bgt92rcd13ifvqcg0","pricing_plan_id":"cebpf4jnsgd1na2vs0mg"},{"bike_id":"ca5ebe5c-d696-4d10-94b0-99fa9093db2a","system_id":"levelo_inurba_marseille","lat":43.32443,"lon":5.36579,"is_reserved":false,"is_disabled":false,"rental_uris":{"android":"levelo://app?vid=ca5ebe5c-d696-4d10-94b0-99fa9093db2a","ios":"levelo://app?vid=ca5ebe5c-d696-4d10-94b0-99fa9093db2a"},"vehicle_type_id":"4","last_reported":1737461852,"current_range_meters":25600,"station_id":"ce4bhs12rcd13ifvqhvg","pricing_plan_id":"cebpf4jnsgd1na2vs0mg"},{"bike_id":"3e53452b-7433-4671-a253-c6904f08a6ef","system_id":"levelo_inurba_marseille","lat":43.26556,"lon":5.37315,"is_reserved":false,"is_disabled":false,"rental_uris":{"android":"levelo://app?vid=3e53452b-7433-4671-a253-c6904f08a6ef","ios":"levelo://app?vid=3e53452b-7433-4671-a253-c6904f08a6ef"},"vehicle_type_id":"4","last_reported":1737461852,"current_range_meters":38800,"station_id":"ce4bhg12rcd13ifvqf70","pricing_plan_id":"cebpf4jnsgd1na2vs0mg"},{"bike_id":"751968b9-3f67-45de-aadc-83a067946788","system_id":"levelo_inurba_marseille","lat":43.33599,"lon":5.41033,"is_reserved":false,"is_disabled":false,"rental_uris":{"android":"levelo://app?vid=751968b9-3f67-45de-aadc-83a067946788","ios":"levelo://app?vid=751968b9-3f67-45de-aadc-83a067946788"},"vehicle_type_id":"4","last_reported":1737461852,"current_range_meters":30800,"station_id":"ce4bhqh2rcd13ifvqhmg","pricing_plan_id":"cebpf4jnsgd1na2vs0mg"},{"bike_id":"db9233a0-541f-470e-96f3-96db6f81cf0f","system_id":"levelo_inurba_marseille","lat":43.27811,"lon":5.40719,"is_reserved":false,"is_disabled":false,"rental_uris":{"android":"levelo://app?vid=db9233a0-541f-470e-96f3-96db6f81cf0f","ios":"levelo://app?vid=db9233a0-541f-470e-96f3-96db6f81cf0f"},"vehicle_type_id":"4","last_reported":1737461852,"current_range_meters":21600,"station_id":"ce4bhnh2rcd13ifvqgtg","pricing_plan_id":"cebpf4jnsgd1na2vs0mg"},{"bike_id":"dd4093f3-d492-4eee-a856-8abbd88e3f59","system_id":"levelo_inurba_marseille","lat":43.29288,"lon":5.40099,"is_reserved":false,"is_disabled":false,"rental_uris":{"android":"levelo://app?vid=dd4093f3-d492-4eee-a856-8abbd88e3f59","ios":"levelo://app?vid=dd4093f3-d492-4eee-a856-8abbd88e3f59"},"vehicle_type_id":"4","last_reported":1737461852,"current_range_meters":15200,"station_id":"ce4bh312rcd13ifvqdk0","pricing_plan_id":"cebpf4jnsgd1na2vs0mg"},{"bike_id":"6e6b2e53-40ad-421a-bbc7-7acf36d59749","system_id":"levelo_inurba_marseille","lat":43.30155,"lon":5.38078,"is_reserved":false,"is_disabled":false,"rental_uris":{"android":"levelo://app?vid=6e6b2e53-40ad-421a-bbc7-7acf36d59749","ios":"levelo://app?vid=6e6b2e53-40ad-421a-bbc7-7acf36d59749"},"vehicle_type_id":"4","last_reported":1737461852,"current_range_meters":26800,"station_id":"ce4bgjp2rcd13ifvqbh0","pricing_plan_id":"cebpf4jnsgd1na2vs0mg"},{"bike_id":"fe4cc1b6-0f35-46e5-89bd-ad0b82c8ae04","system_id":"levelo_inurba_marseille","lat":43.31157,"lon":5.38724,"is_reserved":false,"is_disabled":false,"rental_uris":{"android":"levelo://app?vid=fe4cc1b6-0f35-46e5-89bd-ad0b82c8ae04","ios":"levelo://app?vid=fe4cc1b6-0f35-46e5-89bd-ad0b82c8ae04"},"vehicle_type_id":"4","last_reported":1737461852,"current_range_meters":12800,"station_id":"ce4bgv12rcd13ifvqcp0","pricing_plan_id":"cebpf4jnsgd1na2vs0mg"},{"bike_id":"8e37d5a1-5a26-42a5-8fbe-c99733a808dd","system_id":"levelo_inurba_marseille","lat":43.26052,"lon":5.39398,"is_reserved":false,"is_disabled":false,"rental_uris":{"android":"levelo://app?vid=8e37d5a1-5a26-42a5-8fbe-c99733a808dd","ios":"levelo://app?vid=8e37d5a1-5a26-42a5-8fbe-c99733a808dd"},"vehicle_type_id":"4","last_reported":1737461852,"current_range_meters":38800,"station_id":"ce4bhh92rcd13ifvqfj0","pricing_plan_id":"cebpf4jnsgd1na2vs0mg"},{"bike_id":"8f1bbc58-26e8-49fc-bb78-9690f6d99ccb","system_id":"levelo_inurba_marseille","lat":43.29097,"lon":5.38137,"is_reserved":false,"is_disabled":false,"rental_uris":{"android":"levelo://app?vid=8f1bbc58-26e8-49fc-bb78-9690f6d99ccb","ios":"levelo://app?vid=8f1bbc58-26e8-49fc-bb78-9690f6d99ccb"},"vehicle_type_id":"4","last_reported":1737461852,"current_range_meters":39200,"station_id":"ce4bh512rcd13ifvqe2g","pricing_plan_id":"cebpf4jnsgd1na2vs0mg"},{"bike_id":"08eaf505-9ffd-4750-92ed-05518415859e","system_id":"levelo_inurba_marseille","lat":43.30219,"lon":5.39481,"is_reserved":false,"is_disabled":false,"rental_uris":{"android":"levelo://app?vid=08eaf505-9ffd-4750-92ed-05518415859e","ios":"levelo://app?vid=08eaf505-9ffd-4750-92ed-05518415859e"},"vehicle_type_id":"4","last_reported":1737461852,"current_range_meters":38800,"station_id":"ce4bh0p2rcd13ifvqd70","pricing_plan_id":"cebpf4jnsgd1na2vs0mg"},{"bike_id":"22c3b3f3-6835-405e-9c28-a86f29f70685","system_id":"levelo_inurba_marseille","lat":43.25015,"lon":5.38931,"is_reserved":false,"is_disabled":false,"rental_uris":{"android":"levelo://app?vid=22c3b3f3-6835-405e-9c28-a86f29f70685","ios":"levelo://app?vid=22c3b3f3-6835-405e-9c28-a86f29f70685"},"vehicle_type_id":"4","last_reported":1737461852,"current_range_meters":22400,"station_id":"ce4bhgp2rcd13ifvqfd0","pricing_plan_id":"cebpf4jnsgd1na2vs0mg"},{"bike_id":"b61d20cd-c79c-4b41-8496-a3dca87a21d1","system_id":"levelo_inurba_marseille","lat":43.26496,"lon":5.3955,"is_reserved":false,"is_disabled":false,"rental_uris":{"android":"levelo://app?vid=b61d20cd-c79c-4b41-8496-a3dca87a21d1","ios":"levelo://app?vid=b61d20cd-c79c-4b41-8496-a3dca87a21d1"},"vehicle_type_id":"4","last_reported":1737461852,"current_range_meters":28400,"station_id":"ce4bhi12rcd13ifvqfq0","pricing_plan_id":"cebpf4jnsgd1na2vs0mg"},{"bike_id":"64dd059b-ecf7-48ee-8d07-a03165f684e7","system_id":"levelo_inurba_marseille","lat":43.29951,"lon":5.37501,"is_reserved":false,"is_disabled":false,"rental_uris":{"android":"levelo://app?vid=64dd059b-ecf7-48ee-8d07-a03165f684e7","ios":"levelo://app?vid=64dd059b-ecf7-48ee-8d07-a03165f684e7"},"vehicle_type_id":"4","last_reported":1737461852,"current_range_meters":38800,"station_id":"ce4bgjh2rcd13ifvqbg0","pricing_plan_id":"cebpf4jnsgd1na2vs0mg"},{"bike_id":"2614593e-8537-44d3-bec5-673a7dba0684","system_id":"levelo_inurba_marseille","lat":43.29252,"lon":5.40916,"is_reserved":false,"is_disabled":false,"rental_uris":{"android":"levelo://app?vid=2614593e-8537-44d3-bec5-673a7dba0684","ios":"levelo://app?vid=2614593e-8537-44d3-bec5-673a7dba0684"},"vehicle_type_id":"4","last_reported":1737461852,"current_range_meters":27200,"station_id":"ce4bh192rcd13ifvqdc0","pricing_plan_id":"cebpf4jnsgd1na2vs0mg"},{"bike_id":"9504b7e0-2f20-49ea-814e-e380f0d8ec79","system_id":"levelo_inurba_marseille","lat":43.321002,"lon":5.36793,"is_reserved":false,"is_disabled":false,"rental_uris":{"android":"levelo://app?vid=9504b7e0-2f20-49ea-814e-e380f0d8ec79","ios":"levelo://app?vid=9504b7e0-2f20-49ea-814e-e380f0d8ec79"},"vehicle_type_id":"4","last_reported":1737461852,"current_range_meters":38000,"station_id":"ce4bhrh2rcd13ifvqhug","pricing_plan_id":"cebpf4jnsgd1na2vs0mg"},{"bike_id":"9b779df0-f990-4274-89eb-84c78f861947","system_id":"levelo_inurba_marseille","lat":43.25105,"lon":5.40322,"is_reserved":false,"is_disabled":false,"rental_uris":{"android":"levelo://app?vid=9b779df0-f990-4274-89eb-84c78f861947","ios":"levelo://app?vid=9b779df0-f990-4274-89eb-84c78f861947"},"vehicle_type_id":"4","last_reported":1737461852,"current_range_meters":37600,"station_id":"ce4bhlh2rcd13ifvqgig","pricing_plan_id":"cebpf4jnsgd1na2vs0mg"},{"bike_id":"57fdbf3d-1599-4d8b-877d-fd8c510341a7","system_id":"levelo_inurba_marseille","lat":43.28368,"lon":5.38103,"is_reserved":false,"is_disabled":false,"rental_uris":{"android":"levelo://app?vid=57fdbf3d-1599-4d8b-877d-fd8c510341a7","ios":"levelo://app?vid=57fdbf3d-1599-4d8b-877d-fd8c510341a7"},"vehicle_type_id":"4","last_reported":1737461852,"current_range_meters":26000,"station_id":"ce4bh412rcd13ifvqdr0","pricing_plan_id":"cebpf4jnsgd1na2vs0mg"},{"bike_id":"2e391245-990a-489f-b7cc-387a1c7f1479","system_id":"levelo_inurba_marseille","lat":43.305257,"lon":5.367392,"is_reserved":false,"is_disabled":false,"rental_uris":{"android":"levelo://app?vid=2e391245-990a-489f-b7cc-387a1c7f1479","ios":"levelo://app?vid=2e391245-990a-489f-b7cc-387a1c7f1479"},"vehicle_type_id":"4","last_reported":1737461852,"current_range_meters":26000,"station_id":"ce4bgrp2rcd13ifvqc9g","pricing_plan_id":"cebpf4jnsgd1na2vs0mg"},{"bike_id":"9be61b6d-5785-4dd0-b770-c3d3c9b22d70","system_id":"levelo_inurba_marseille","lat":43.28102,"lon":5.37833,"is_reserved":false,"is_disabled":false,"rental_uris":{"android":"levelo://app?vid=9be61b6d-5785-4dd0-b770-c3d3c9b22d70","ios":"levelo://app?vid=9be61b6d-5785-4dd0-b770-c3d3c9b22d70"},"vehicle_type_id":"4","last_reported":1737461852,"current_range_meters":28000,"station_id":"ce4bha12rcd13ifvqee0","pricing_plan_id":"cebpf4jnsgd1na2vs0mg"},{"bike_id":"13eb1080-0165-43df-ba68-3da74a387126","system_id":"levelo_inurba_marseille","lat":43.3125,"lon":5.36857,"is_reserved":false,"is_disabled":false,"rental_uris":{"android":"levelo://app?vid=13eb1080-0165-43df-ba68-3da74a387126","ios":"levelo://app?vid=13eb1080-0165-43df-ba68-3da74a387126"},"vehicle_type_id":"4","last_reported":1737461852,"current_range_meters":39200,"station_id":"ce4bgl92rcd13ifvqbq0","pricing_plan_id":"cebpf4jnsgd1na2vs0mg"},{"bike_id":"06f9398d-e006-4557-bd03-71cc21447599","system_id":"levelo_inurba_marseille","lat":43.29266,"lon":5.38455,"is_reserved":false,"is_disabled":false,"rental_uris":{"android":"levelo://app?vid=06f9398d-e006-4557-bd03-71cc21447599","ios":"levelo://app?vid=06f9398d-e006-4557-bd03-71cc21447599"},"vehicle_type_id":"4","last_reported":1737461852,"current_range_meters":30400,"station_id":"ce4bh692rcd13ifvqea0","pricing_plan_id":"cebpf4jnsgd1na2vs0mg"},{"bike_id":"55e9e33f-65d7-4114-a3b6-94916cdab4b2","system_id":"levelo_inurba_marseille","lat":43.26493,"lon":5.39589,"is_reserved":false,"is_disabled":false,"rental_uris":{"android":"levelo://app?vid=55e9e33f-65d7-4114-a3b6-94916cdab4b2","ios":"levelo://app?vid=55e9e33f-65d7-4114-a3b6-94916cdab4b2"},"vehicle_type_id":"4","last_reported":1737461852,"current_range_meters":28000,"station_id":"ce4bhi12rcd13ifvqfq0","pricing_plan_id":"cebpf4jnsgd1na2vs0mg"},{"bike_id":"6e32a172-90e4-4d86-8f8a-689baae2f4e9","system_id":"levelo_inurba_marseille","lat":43.24389,"lon":5.37055,"is_reserved":false,"is_disabled":false,"rental_uris":{"android":"levelo://app?vid=6e32a172-90e4-4d86-8f8a-689baae2f4e9","ios":"levelo://app?vid=6e32a172-90e4-4d86-8f8a-689baae2f4e9"},"vehicle_type_id":"4","last_reported":1737461852,"current_range_meters":33600,"station_id":"ce4bhhh2rcd13ifvqfk0","pricing_plan_id":"cebpf4jnsgd1na2vs0mg"},{"bike_id":"7aa9710a-b7e3-4890-81ca-654444a2204c","system_id":"levelo_inurba_marseille","lat":43.25928,"lon":5.40898,"is_reserved":false,"is_disabled":false,"rental_uris":{"android":"levelo://app?vid=7aa9710a-b7e3-4890-81ca-654444a2204c","ios":"levelo://app?vid=7aa9710a-b7e3-4890-81ca-654444a2204c"},"vehicle_type_id":"4","last_reported":1737461852,"current_range_meters":16800,"station_id":"ce4bhm92rcd13ifvqglg","pricing_plan_id":"cebpf4jnsgd1na2vs0mg"},{"bike_id":"8e1141bd-bdad-4136-8abe-7bf145e2fd68","system_id":"levelo_inurba_marseille","lat":43.29928,"lon":5.37483,"is_reserved":false,"is_disabled":false,"rental_uris":{"android":"levelo://app?vid=8e1141bd-bdad-4136-8abe-7bf145e2fd68","ios":"levelo://app?vid=8e1141bd-bdad-4136-8abe-7bf145e2fd68"},"vehicle_type_id":"4","last_reported":1737461852,"current_range_meters":7200,"station_id":"ce4bgjh2rcd13ifvqbg0","pricing_plan_id":"cebpf4jnsgd1na2vs0mg"},{"bike_id":"edac63db-50b8-45a5-a51b-3bdab0501df4","system_id":"levelo_inurba_marseille","lat":43.31075,"lon":5.38365,"is_reserved":false,"is_disabled":false,"rental_uris":{"android":"levelo://app?vid=edac63db-50b8-45a5-a51b-3bdab0501df4","ios":"levelo://app?vid=edac63db-50b8-45a5-a51b-3bdab0501df4"},"vehicle_type_id":"4","last_reported":1737461852,"current_range_meters":30400,"station_id":"ce4bgv92rcd13ifvqcr0","pricing_plan_id":"cebpf4jnsgd1na2vs0mg"},{"bike_id":"14bf62af-c950-435b-82dd-0bca67231add","system_id":"levelo_inurba_marseille","lat":43.25721,"lon":5.41123,"is_reserved":false,"is_disabled":false,"rental_uris":{"android":"levelo://app?vid=14bf62af-c950-435b-82dd-0bca67231add","ios":"levelo://app?vid=14bf62af-c950-435b-82dd-0bca67231add"},"vehicle_type_id":"4","last_reported":1737461852,"current_range_meters":38400,"station_id":"ce4bhkp2rcd13ifvqgd0","pricing_plan_id":"cebpf4jnsgd1na2vs0mg"},{"bike_id":"febf0a32-a126-438c-803d-59d5e7c6d4c2","system_id":"levelo_inurba_marseille","lat":43.24187,"lon":5.37648,"is_reserved":false,"is_disabled":false,"rental_uris":{"android":"levelo://app?vid=febf0a32-a126-438c-803d-59d5e7c6d4c2","ios":"levelo://app?vid=febf0a32-a126-438c-803d-59d5e7c6d4c2"},"vehicle_type_id":"4","last_reported":1737461852,"current_range_meters":13600,"station_id":"ce4bhnp2rcd13ifvqgvg","pricing_plan_id":"cebpf4jnsgd1na2vs0mg"},{"bike_id":"bb2aa27c-d314-433f-a134-98756fdc47bc","system_id":"levelo_inurba_marseille","lat":43.31352,"lon":5.36759,"is_reserved":false,"is_disabled":false,"rental_uris":{"android":"levelo://app?vid=bb2aa27c-d314-433f-a134-98756fdc47bc","ios":"levelo://app?vid=bb2aa27c-d314-433f-a134-98756fdc47bc"},"vehicle_type_id":"4","last_reported":1737461852,"current_range_meters":38800,"station_id":"ce4bgr92rcd13ifvqc6g","pricing_plan_id":"cebpf4jnsgd1na2vs0mg"},{"bike_id":"4a851776-66ca-44c4-913e-4d800fe78d14","system_id":"levelo_inurba_marseille","lat":43.30474,"lon":5.3791,"is_reserved":false,"is_disabled":false,"rental_uris":{"android":"levelo://app?vid=4a851776-66ca-44c4-913e-4d800fe78d14","ios":"levelo://app?vid=4a851776-66ca-44c4-913e-4d800fe78d14"},"vehicle_type_id":"4","last_reported":1737461852,"current_range_meters":13600,"station_id":"ce4bgup2rcd13ifvqcn0","pricing_plan_id":"cebpf4jnsgd1na2vs0mg"},{"bike_id":"50ad8637-9d09-4333-ac6f-0f8e11f62ce4","system_id":"levelo_inurba_marseille","lat":43.26214,"lon":5.37443,"is_reserved":false,"is_disabled":false,"rental_uris":{"android":"levelo://app?vid=50ad8637-9d09-4333-ac6f-0f8e11f62ce4","ios":"levelo://app?vid=50ad8637-9d09-4333-ac6f-0f8e11f62ce4"},"vehicle_type_id":"4","last_reported":1737461852,"current_range_meters":33200,"station_id":"ce4bhgp2rcd13ifvqfc0","pricing_plan_id":"cebpf4jnsgd1na2vs0mg"},{"bike_id":"7c4b9d70-e01e-49f4-bcc2-da404f462a85","system_id":"levelo_inurba_marseille","lat":43.2931,"lon":5.37172,"is_reserved":false,"is_disabled":false,"rental_uris":{"android":"levelo://app?vid=7c4b9d70-e01e-49f4-bcc2-da404f462a85","ios":"levelo://app?vid=7c4b9d70-e01e-49f4-bcc2-da404f462a85"},"vehicle_type_id":"4","last_reported":1737461852,"current_range_meters":39200,"station_id":"ce4bgh92rcd13ifvqb40","pricing_plan_id":"cebpf4jnsgd1na2vs0mg"},{"bike_id":"8c071b1b-846e-4de8-b971-0bda4c6b8fdc","system_id":"levelo_inurba_marseille","lat":43.33605,"lon":5.41042,"is_reserved":false,"is_disabled":false,"rental_uris":{"android":"levelo://app?vid=8c071b1b-846e-4de8-b971-0bda4c6b8fdc","ios":"levelo://app?vid=8c071b1b-846e-4de8-b971-0bda4c6b8fdc"},"vehicle_type_id":"4","last_reported":1737461852,"current_range_meters":14000,"station_id":"ce4bhqh2rcd13ifvqhmg","pricing_plan_id":"cebpf4jnsgd1na2vs0mg"},{"bike_id":"1a3b29b3-17e8-4775-8d86-74e3b8c314ae","system_id":"levelo_inurba_marseille","lat":43.30576,"lon":5.36708,"is_reserved":false,"is_disabled":false,"rental_uris":{"android":"levelo://app?vid=1a3b29b3-17e8-4775-8d86-74e3b8c314ae","ios":"levelo://app?vid=1a3b29b3-17e8-4775-8d86-74e3b8c314ae"},"vehicle_type_id":"4","last_reported":1737461852,"current_range_meters":38800,"station_id":"ce4bgrp2rcd13ifvqc9g","pricing_plan_id":"cebpf4jnsgd1na2vs0mg"},{"bike_id":"ca74e526-580c-493e-b181-17fe0bc8eae8","system_id":"levelo_inurba_marseille","lat":43.25941,"lon":5.40915,"is_reserved":false,"is_disabled":false,"rental_uris":{"android":"levelo://app?vid=ca74e526-580c-493e-b181-17fe0bc8eae8","ios":"levelo://app?vid=ca74e526-580c-493e-b181-17fe0bc8eae8"},"vehicle_type_id":"4","last_reported":1737461852,"current_range_meters":38800,"station_id":"ce4bhm92rcd13ifvqglg","pricing_plan_id":"cebpf4jnsgd1na2vs0mg"},{"bike_id":"ce348ecb-e6da-4256-ae38-a3cca0ccf065","system_id":"levelo_inurba_marseille","lat":43.30544,"lon":5.36696,"is_reserved":false,"is_disabled":false,"rental_uris":{"android":"levelo://app?vid=ce348ecb-e6da-4256-ae38-a3cca0ccf065","ios":"levelo://app?vid=ce348ecb-e6da-4256-ae38-a3cca0ccf065"},"vehicle_type_id":"4","last_reported":1737461852,"current_range_meters":38800,"station_id":"ce4bgrp2rcd13ifvqc9g","pricing_plan_id":"cebpf4jnsgd1na2vs0mg"},{"bike_id":"33b33249-8d21-4a0b-8b94-1e312c23cb91","system_id":"levelo_inurba_marseille","lat":43.29618,"lon":5.37722,"is_reserved":false,"is_disabled":false,"rental_uris":{"android":"levelo://app?vid=33b33249-8d21-4a0b-8b94-1e312c23cb91","ios":"levelo://app?vid=33b33249-8d21-4a0b-8b94-1e312c23cb91"},"vehicle_type_id":"4","last_reported":1737461852,"current_range_meters":35600,"station_id":"ce4bgi92rcd13ifvqb90","pricing_plan_id":"cebpf4jnsgd1na2vs0mg"},{"bike_id":"2b09a4d4-f2b3-4115-bece-60244956f638","system_id":"levelo_inurba_marseille","lat":43.28861,"lon":5.35847,"is_reserved":false,"is_disabled":false,"rental_uris":{"android":"levelo://app?vid=2b09a4d4-f2b3-4115-bece-60244956f638","ios":"levelo://app?vid=2b09a4d4-f2b3-4115-bece-60244956f638"},"vehicle_type_id":"4","last_reported":1737461852,"current_range_meters":22800,"station_id":"ce4bhb12rcd13ifvqem0","pricing_plan_id":"cebpf4jnsgd1na2vs0mg"},{"bike_id":"54f17643-86bb-494f-8b67-4a9bf8a4e466","system_id":"levelo_inurba_marseille","lat":43.26687,"lon":5.38274,"is_reserved":false,"is_disabled":false,"rental_uris":{"android":"levelo://app?vid=54f17643-86bb-494f-8b67-4a9bf8a4e466","ios":"levelo://app?vid=54f17643-86bb-494f-8b67-4a9bf8a4e466"},"vehicle_type_id":"4","last_reported":1737461852,"current_range_meters":27200,"station_id":"ce4bhg92rcd13ifvqf90","pricing_plan_id":"cebpf4jnsgd1na2vs0mg"},{"bike_id":"26794a30-74b8-4da4-bf62-0aec2c99c20c","system_id":"levelo_inurba_marseille","lat":43.29931,"lon":5.36546,"is_reserved":false,"is_disabled":false,"rental_uris":{"android":"levelo://app?vid=26794a30-74b8-4da4-bf62-0aec2c99c20c","ios":"levelo://app?vid=26794a30-74b8-4da4-bf62-0aec2c99c20c"},"vehicle_type_id":"4","last_reported":1737461852,"current_range_meters":8400,"station_id":"ce4bgm92rcd13ifvqbr0","pricing_plan_id":"cebpf4jnsgd1na2vs0mg"},{"bike_id":"40e5a64d-65b5-4754-b8f6-3564af0d8c58","system_id":"levelo_inurba_marseille","lat":43.23151,"lon":5.437247,"is_reserved":false,"is_disabled":false,"rental_uris":{"android":"levelo://app?vid=40e5a64d-65b5-4754-b8f6-3564af0d8c58","ios":"levelo://app?vid=40e5a64d-65b5-4754-b8f6-3564af0d8c58"},"vehicle_type_id":"4","last_reported":1737461852,"current_range_meters":6000,"station_id":"ce4bhmp2rcd13ifvqgog","pricing_plan_id":"cebpf4jnsgd1na2vs0mg"},{"bike_id":"e0794682-419e-4903-a5af-73adcc8335ae","system_id":"levelo_inurba_marseille","lat":43.29982,"lon":5.37184,"is_reserved":false,"is_disabled":false,"rental_uris":{"android":"levelo://app?vid=e0794682-419e-4903-a5af-73adcc8335ae","ios":"levelo://app?vid=e0794682-419e-4903-a5af-73adcc8335ae"},"vehicle_type_id":"4","last_reported":1737461852,"current_range_meters":16000,"station_id":"ce4bgr92rcd13ifvqc7g","pricing_plan_id":"cebpf4jnsgd1na2vs0mg"},{"bike_id":"2eeb9544-f50a-4f44-8eaa-63b01b7ac06e","system_id":"levelo_inurba_marseille","lat":43.27204,"lon":5.39191,"is_reserved":false,"is_disabled":false,"rental_uris":{"android":"levelo://app?vid=2eeb9544-f50a-4f44-8eaa-63b01b7ac06e","ios":"levelo://app?vid=2eeb9544-f50a-4f44-8eaa-63b01b7ac06e"},"vehicle_type_id":"4","last_reported":1737461852,"current_range_meters":38400,"station_id":"ce4bhhp2rcd13ifvqfm0","pricing_plan_id":"cebpf4jnsgd1na2vs0mg"},{"bike_id":"23379a95-72b4-449c-abbd-5871cdaaa4bd","system_id":"levelo_inurba_marseille","lat":43.30515,"lon":5.36708,"is_reserved":false,"is_disabled":false,"rental_uris":{"android":"levelo://app?vid=23379a95-72b4-449c-abbd-5871cdaaa4bd","ios":"levelo://app?vid=23379a95-72b4-449c-abbd-5871cdaaa4bd"},"vehicle_type_id":"4","last_reported":1737461852,"current_range_meters":37600,"station_id":"ce4bgrp2rcd13ifvqc9g","pricing_plan_id":"cebpf4jnsgd1na2vs0mg"},{"bike_id":"009e4e21-eaff-4df3-a6cd-96d6c5c81fda","system_id":"levelo_inurba_marseille","lat":43.30554,"lon":5.36537,"is_reserved":false,"is_disabled":false,"rental_uris":{"android":"levelo://app?vid=009e4e21-eaff-4df3-a6cd-96d6c5c81fda","ios":"levelo://app?vid=009e4e21-eaff-4df3-a6cd-96d6c5c81fda"},"vehicle_type_id":"4","last_reported":1737461852,"current_range_meters":24000,"station_id":"ce4bgs12rcd13ifvqcag","pricing_plan_id":"cebpf4jnsgd1na2vs0mg"},{"bike_id":"136e1272-721c-4388-af2e-ad0cc1c3ddda","system_id":"levelo_inurba_marseille","lat":43.30132,"lon":5.39853,"is_reserved":false,"is_disabled":false,"rental_uris":{"android":"levelo://app?vid=136e1272-721c-4388-af2e-ad0cc1c3ddda","ios":"levelo://app?vid=136e1272-721c-4388-af2e-ad0cc1c3ddda"},"vehicle_type_id":"4","last_reported":1737461852,"current_range_meters":27200,"station_id":"ce4bh0h2rcd13ifvqd40","pricing_plan_id":"cebpf4jnsgd1na2vs0mg"},{"bike_id":"9ea35a92-1564-493c-991c-f92a347b776b","system_id":"levelo_inurba_marseille","lat":43.3055,"lon":5.36545,"is_reserved":false,"is_disabled":false,"rental_uris":{"android":"levelo://app?vid=9ea35a92-1564-493c-991c-f92a347b776b","ios":"levelo://app?vid=9ea35a92-1564-493c-991c-f92a347b776b"},"vehicle_type_id":"4","last_reported":1737461852,"current_range_meters":25200,"station_id":"ce4bgs12rcd13ifvqcag","pricing_plan_id":"cebpf4jnsgd1na2vs0mg"},{"bike_id":"e70ef129-9269-4977-88ab-de087f1ca58a","system_id":"levelo_inurba_marseille","lat":43.28464,"lon":5.35902,"is_reserved":false,"is_disabled":false,"rental_uris":{"android":"levelo://app?vid=e70ef129-9269-4977-88ab-de087f1ca58a","ios":"levelo://app?vid=e70ef129-9269-4977-88ab-de087f1ca58a"},"vehicle_type_id":"4","last_reported":1737461852,"current_range_meters":9600,"station_id":"ce4bhah2rcd13ifvqei0","pricing_plan_id":"cebpf4jnsgd1na2vs0mg"},{"bike_id":"b98d1ee6-d9b6-4436-8256-e6796817c6db","system_id":"levelo_inurba_marseille","lat":43.27212,"lon":5.39196,"is_reserved":false,"is_disabled":false,"rental_uris":{"android":"levelo://app?vid=b98d1ee6-d9b6-4436-8256-e6796817c6db","ios":"levelo://app?vid=b98d1ee6-d9b6-4436-8256-e6796817c6db"},"vehicle_type_id":"4","last_reported":1737461852,"current_range_meters":19600,"station_id":"ce4bhhp2rcd13ifvqfm0","pricing_plan_id":"cebpf4jnsgd1na2vs0mg"},{"bike_id":"97d5aac9-87b1-4616-9df2-9f463d30d8d5","system_id":"levelo_inurba_marseille","lat":43.23192,"lon":5.35555,"is_reserved":false,"is_disabled":false,"rental_uris":{"android":"levelo://app?vid=97d5aac9-87b1-4616-9df2-9f463d30d8d5","ios":"levelo://app?vid=97d5aac9-87b1-4616-9df2-9f463d30d8d5"},"vehicle_type_id":"4","last_reported":1737461852,"current_range_meters":37600,"station_id":"ce4bhu92rcd13ifvqi70","pricing_plan_id":"cebpf4jnsgd1na2vs0mg"},{"bike_id":"d2c21587-f945-4a69-a385-789209e3880a","system_id":"levelo_inurba_marseille","lat":43.30472,"lon":5.37916,"is_reserved":false,"is_disabled":false,"rental_uris":{"android":"levelo://app?vid=d2c21587-f945-4a69-a385-789209e3880a","ios":"levelo://app?vid=d2c21587-f945-4a69-a385-789209e3880a"},"vehicle_type_id":"4","last_reported":1737461852,"current_range_meters":1600,"station_id":"ce4bgup2rcd13ifvqcn0","pricing_plan_id":"cebpf4jnsgd1na2vs0mg"},{"bike_id":"10d27098-69e9-48b1-9d26-115b0af1cc68","system_id":"levelo_inurba_marseille","lat":43.30555,"lon":5.36539,"is_reserved":false,"is_disabled":false,"rental_uris":{"android":"levelo://app?vid=10d27098-69e9-48b1-9d26-115b0af1cc68","ios":"levelo://app?vid=10d27098-69e9-48b1-9d26-115b0af1cc68"},"vehicle_type_id":"4","last_reported":1737461852,"current_range_meters":32000,"station_id":"ce4bgs12rcd13ifvqcag","pricing_plan_id":"cebpf4jnsgd1na2vs0mg"},{"bike_id":"327b4d3f-3783-4cf4-aa46-64f155d930c3","system_id":"levelo_inurba_marseille","lat":43.2997,"lon":5.38491,"is_reserved":false,"is_disabled":false,"rental_uris":{"android":"levelo://app?vid=327b4d3f-3783-4cf4-aa46-64f155d930c3","ios":"levelo://app?vid=327b4d3f-3783-4cf4-aa46-64f155d930c3"},"vehicle_type_id":"4","last_reported":1737461852,"current_range_meters":38400,"station_id":"ce4bgj92rcd13ifvqbd0","pricing_plan_id":"cebpf4jnsgd1na2vs0mg"},{"bike_id":"54508afa-1223-42ec-9b12-9f6b702c9a1e","system_id":"levelo_inurba_marseille","lat":43.29771,"lon":5.37103,"is_reserved":false,"is_disabled":false,"rental_uris":{"android":"levelo://app?vid=54508afa-1223-42ec-9b12-9f6b702c9a1e","ios":"levelo://app?vid=54508afa-1223-42ec-9b12-9f6b702c9a1e"},"vehicle_type_id":"4","last_reported":1737461852,"current_range_meters":7200,"station_id":"ce4bgop2rcd13ifvqc1g","pricing_plan_id":"cebpf4jnsgd1na2vs0mg"},{"bike_id":"4e36db74-06bf-477a-bee9-51805eb8c5d1","system_id":"levelo_inurba_marseille","lat":43.27674,"lon":5.38909,"is_reserved":false,"is_disabled":false,"rental_uris":{"android":"levelo://app?vid=4e36db74-06bf-477a-bee9-51805eb8c5d1","ios":"levelo://app?vid=4e36db74-06bf-477a-bee9-51805eb8c5d1"},"vehicle_type_id":"4","last_reported":1737461852,"current_range_meters":29600,"station_id":"ce4bhi12rcd13ifvqfo0","pricing_plan_id":"cebpf4jnsgd1na2vs0mg"},{"bike_id":"222ccc1e-2d9e-4e75-a4cb-ae68315e3e65","system_id":"levelo_inurba_marseille","lat":43.30617,"lon":5.39372,"is_reserved":false,"is_disabled":false,"rental_uris":{"android":"levelo://app?vid=222ccc1e-2d9e-4e75-a4cb-ae68315e3e65","ios":"levelo://app?vid=222ccc1e-2d9e-4e75-a4cb-ae68315e3e65"},"vehicle_type_id":"4","last_reported":1737461852,"current_range_meters":33200,"station_id":"ce4bh0p2rcd13ifvqd80","pricing_plan_id":"cebpf4jnsgd1na2vs0mg"},{"bike_id":"43f34c3f-e0b7-414e-a960-d4b9b253f575","system_id":"levelo_inurba_marseille","lat":43.31495,"lon":5.37313,"is_reserved":false,"is_disabled":false,"rental_uris":{"android":"levelo://app?vid=43f34c3f-e0b7-414e-a960-d4b9b253f575","ios":"levelo://app?vid=43f34c3f-e0b7-414e-a960-d4b9b253f575"},"vehicle_type_id":"4","last_reported":1737461852,"current_range_meters":37600,"station_id":"ce4bgt12rcd13ifvqcd0","pricing_plan_id":"cebpf4jnsgd1na2vs0mg"},{"bike_id":"2b55524a-5857-4bd4-91d6-020415943b35","system_id":"levelo_inurba_marseille","lat":43.290335,"lon":5.399735,"is_reserved":false,"is_disabled":false,"rental_uris":{"android":"levelo://app?vid=2b55524a-5857-4bd4-91d6-020415943b35","ios":"levelo://app?vid=2b55524a-5857-4bd4-91d6-020415943b35"},"vehicle_type_id":"4","last_reported":1737461852,"current_range_meters":26000,"station_id":"ce4bh392rcd13ifvqdm0","pricing_plan_id":"cebpf4jnsgd1na2vs0mg"},{"bike_id":"ec01a950-0de2-4665-a5e7-65756e11e135","system_id":"levelo_inurba_marseille","lat":43.29898,"lon":5.43673,"is_reserved":false,"is_disabled":false,"rental_uris":{"android":"levelo://app?vid=ec01a950-0de2-4665-a5e7-65756e11e135","ios":"levelo://app?vid=ec01a950-0de2-4665-a5e7-65756e11e135"},"vehicle_type_id":"4","last_reported":1737461852,"current_range_meters":24400,"station_id":"ce4bhpp2rcd13ifvqhfg","pricing_plan_id":"cebpf4jnsgd1na2vs0mg"},{"bike_id":"7dd461b5-69e5-4388-9701-ff40210a12a5","system_id":"levelo_inurba_marseille","lat":43.32094,"lon":5.36777,"is_reserved":false,"is_disabled":false,"rental_uris":{"android":"levelo://app?vid=7dd461b5-69e5-4388-9701-ff40210a12a5","ios":"levelo://app?vid=7dd461b5-69e5-4388-9701-ff40210a12a5"},"vehicle_type_id":"4","last_reported":1737461852,"current_range_meters":27600,"station_id":"ce4bhrh2rcd13ifvqhug","pricing_plan_id":"cebpf4jnsgd1na2vs0mg"},{"bike_id":"477448eb-f60c-4a0c-8e7d-6fa92b99483b","system_id":"levelo_inurba_marseille","lat":43.30954,"lon":5.39054,"is_reserved":false,"is_disabled":false,"rental_uris":{"android":"levelo://app?vid=477448eb-f60c-4a0c-8e7d-6fa92b99483b","ios":"levelo://app?vid=477448eb-f60c-4a0c-8e7d-6fa92b99483b"},"vehicle_type_id":"4","last_reported":1737461852,"current_range_meters":39200,"station_id":"ce4bgup2rcd13ifvqco0","pricing_plan_id":"cebpf4jnsgd1na2vs0mg"},{"bike_id":"03db88d0-d795-4992-88ee-05e2cce5a137","system_id":"levelo_inurba_marseille","lat":43.29093,"lon":5.3814,"is_reserved":false,"is_disabled":false,"rental_uris":{"android":"levelo://app?vid=03db88d0-d795-4992-88ee-05e2cce5a137","ios":"levelo://app?vid=03db88d0-d795-4992-88ee-05e2cce5a137"},"vehicle_type_id":"4","last_reported":1737461852,"current_range_meters":36800,"station_id":"ce4bh512rcd13ifvqe2g","pricing_plan_id":"cebpf4jnsgd1na2vs0mg"},{"bike_id":"a17edb5c-acc4-45a7-bd7d-5597f54db353","system_id":"levelo_inurba_marseille","lat":43.28353,"lon":5.38114,"is_reserved":false,"is_disabled":false,"rental_uris":{"android":"levelo://app?vid=a17edb5c-acc4-45a7-bd7d-5597f54db353","ios":"levelo://app?vid=a17edb5c-acc4-45a7-bd7d-5597f54db353"},"vehicle_type_id":"4","last_reported":1737461852,"current_range_meters":19600,"station_id":"ce4bh412rcd13ifvqdr0","pricing_plan_id":"cebpf4jnsgd1na2vs0mg"},{"bike_id":"497ca8d7-ebef-47b1-8af4-e055e5527d9d","system_id":"levelo_inurba_marseille","lat":43.25875,"lon":5.39901,"is_reserved":false,"is_disabled":false,"rental_uris":{"android":"levelo://app?vid=497ca8d7-ebef-47b1-8af4-e055e5527d9d","ios":"levelo://app?vid=497ca8d7-ebef-47b1-8af4-e055e5527d9d"},"vehicle_type_id":"4","last_reported":1737461852,"current_range_meters":38400,"station_id":"ce4bhl92rcd13ifvqghg","pricing_plan_id":"cebpf4jnsgd1na2vs0mg"},{"bike_id":"620d0a4c-9a1e-4965-aae5-2a36814e3ec1","system_id":"levelo_inurba_marseille","lat":43.26029,"lon":5.37551,"is_reserved":false,"is_disabled":false,"rental_uris":{"android":"levelo://app?vid=620d0a4c-9a1e-4965-aae5-2a36814e3ec1","ios":"levelo://app?vid=620d0a4c-9a1e-4965-aae5-2a36814e3ec1"},"vehicle_type_id":"4","last_reported":1737461852,"current_range_meters":32000,"station_id":"ce4bhgh2rcd13ifvqfa0","pricing_plan_id":"cebpf4jnsgd1na2vs0mg"},{"bike_id":"1eabd26b-6d32-48ff-b41a-0e18bcda39aa","system_id":"levelo_inurba_marseille","lat":43.27371,"lon":5.3626,"is_reserved":false,"is_disabled":false,"rental_uris":{"android":"levelo://app?vid=1eabd26b-6d32-48ff-b41a-0e18bcda39aa","ios":"levelo://app?vid=1eabd26b-6d32-48ff-b41a-0e18bcda39aa"},"vehicle_type_id":"4","last_reported":1737461852,"current_range_meters":38800,"station_id":"ce4bhbh2rcd13ifvqeo0","pricing_plan_id":"cebpf4jnsgd1na2vs0mg"},{"bike_id":"893b3cb2-5299-4e4e-bacb-98ea0764a670","system_id":"levelo_inurba_marseille","lat":43.23064,"lon":5.35491,"is_reserved":false,"is_disabled":false,"rental_uris":{"android":"levelo://app?vid=893b3cb2-5299-4e4e-bacb-98ea0764a670","ios":"levelo://app?vid=893b3cb2-5299-4e4e-bacb-98ea0764a670"},"vehicle_type_id":"4","last_reported":1737461852,"current_range_meters":18800,"station_id":"cpo3342slgdg3j2ifvpg","pricing_plan_id":"cebpf4jnsgd1na2vs0mg"},{"bike_id":"ad3158cf-c5bd-4af5-99cc-ead9d2bdb981","system_id":"levelo_inurba_marseille","lat":43.29654,"lon":5.37147,"is_reserved":false,"is_disabled":false,"rental_uris":{"android":"levelo://app?vid=ad3158cf-c5bd-4af5-99cc-ead9d2bdb981","ios":"levelo://app?vid=ad3158cf-c5bd-4af5-99cc-ead9d2bdb981"},"vehicle_type_id":"4","last_reported":1737461852,"current_range_meters":6400,"station_id":"ce4bgnh2rcd13ifvqc0g","pricing_plan_id":"cebpf4jnsgd1na2vs0mg"},{"bike_id":"e601aa4b-2643-4f8a-a97a-33afde5ef419","system_id":"levelo_inurba_marseille","lat":43.30428,"lon":5.39745,"is_reserved":false,"is_disabled":false,"rental_uris":{"android":"levelo://app?vid=e601aa4b-2643-4f8a-a97a-33afde5ef419","ios":"levelo://app?vid=e601aa4b-2643-4f8a-a97a-33afde5ef419"},"vehicle_type_id":"4","last_reported":1737461852,"current_range_meters":38000,"station_id":"ce4bh092rcd13ifvqd20","pricing_plan_id":"cebpf4jnsgd1na2vs0mg"},{"bike_id":"64d112ec-fdb2-47e3-86a4-be520817b834","system_id":"levelo_inurba_marseille","lat":43.29276,"lon":5.38446,"is_reserved":false,"is_disabled":false,"rental_uris":{"android":"levelo://app?vid=64d112ec-fdb2-47e3-86a4-be520817b834","ios":"levelo://app?vid=64d112ec-fdb2-47e3-86a4-be520817b834"},"vehicle_type_id":"4","last_reported":1737461852,"current_range_meters":39200,"station_id":"ce4bh692rcd13ifvqea0","pricing_plan_id":"cebpf4jnsgd1na2vs0mg"},{"bike_id":"f29197b7-892b-4656-99c5-484d8091a1b7","system_id":"levelo_inurba_marseille","lat":43.30537,"lon":5.36665,"is_reserved":false,"is_disabled":false,"rental_uris":{"android":"levelo://app?vid=f29197b7-892b-4656-99c5-484d8091a1b7","ios":"levelo://app?vid=f29197b7-892b-4656-99c5-484d8091a1b7"},"vehicle_type_id":"4","last_reported":1737461852,"current_range_meters":38800,"station_id":"ce4bgrp2rcd13ifvqc9g","pricing_plan_id":"cebpf4jnsgd1na2vs0mg"},{"bike_id":"c63545a7-0958-43b8-9a12-90a8d5922737","system_id":"levelo_inurba_marseille","lat":43.24183,"lon":5.39732,"is_reserved":false,"is_disabled":false,"rental_uris":{"android":"levelo://app?vid=c63545a7-0958-43b8-9a12-90a8d5922737","ios":"levelo://app?vid=c63545a7-0958-43b8-9a12-90a8d5922737"},"vehicle_type_id":"4","last_reported":1737461852,"current_range_meters":15200,"station_id":"ce4bhn12rcd13ifvqgpg","pricing_plan_id":"cebpf4jnsgd1na2vs0mg"},{"bike_id":"5434439c-80a7-45ef-8e7d-a897cb833684","system_id":"levelo_inurba_marseille","lat":43.32419,"lon":5.36736,"is_reserved":false,"is_disabled":false,"rental_uris":{"android":"levelo://app?vid=5434439c-80a7-45ef-8e7d-a897cb833684","ios":"levelo://app?vid=5434439c-80a7-45ef-8e7d-a897cb833684"},"vehicle_type_id":"4","last_reported":1737461852,"current_range_meters":38800,"station_id":"","pricing_plan_id":"cebpf4jnsgd1na2vs0mg"},{"bike_id":"ebf3a559-bca1-434f-8958-0e15342dbca6","system_id":"levelo_inurba_marseille","lat":43.29291,"lon":5.37444,"is_reserved":false,"is_disabled":false,"rental_uris":{"android":"levelo://app?vid=ebf3a559-bca1-434f-8958-0e15342dbca6","ios":"levelo://app?vid=ebf3a559-bca1-434f-8958-0e15342dbca6"},"vehicle_type_id":"4","last_reported":1737461852,"current_range_meters":38400,"station_id":"ce4bgi12rcd13ifvqb70","pricing_plan_id":"cebpf4jnsgd1na2vs0mg"},{"bike_id":"64899030-1386-4f33-8aa8-3daa0b76ca1f","system_id":"levelo_inurba_marseille","lat":43.33609,"lon":5.41056,"is_reserved":false,"is_disabled":false,"rental_uris":{"android":"levelo://app?vid=64899030-1386-4f33-8aa8-3daa0b76ca1f","ios":"levelo://app?vid=64899030-1386-4f33-8aa8-3daa0b76ca1f"},"vehicle_type_id":"4","last_reported":1737461852,"current_range_meters":11200,"station_id":"ce4bhqh2rcd13ifvqhmg","pricing_plan_id":"cebpf4jnsgd1na2vs0mg"},{"bike_id":"711a71f9-8716-4a33-a7e0-0130a384c68e","system_id":"levelo_inurba_marseille","lat":43.29224,"lon":5.36093,"is_reserved":false,"is_disabled":false,"rental_uris":{"android":"levelo://app?vid=711a71f9-8716-4a33-a7e0-0130a384c68e","ios":"levelo://app?vid=711a71f9-8716-4a33-a7e0-0130a384c68e"},"vehicle_type_id":"4","last_reported":1737461852,"current_range_meters":32000,"station_id":"ce4bhbh2rcd13ifvqeqg","pricing_plan_id":"cebpf4jnsgd1na2vs0mg"},{"bike_id":"50267a36-8428-4ee1-ac27-ac6a771a71af","system_id":"levelo_inurba_marseille","lat":43.33687,"lon":5.355391,"is_reserved":false,"is_disabled":true,"rental_uris":{"android":"levelo://app?vid=50267a36-8428-4ee1-ac27-ac6a771a71af","ios":"levelo://app?vid=50267a36-8428-4ee1-ac27-ac6a771a71af"},"vehicle_type_id":"4","last_reported":1737461852,"current_range_meters":0,"station_id":"","pricing_plan_id":"cebpf4jnsgd1na2vs0mg"},{"bike_id":"ca7dfd1a-c702-48d0-bed6-df95c25b531a","system_id":"levelo_inurba_marseille","lat":43.30591,"lon":5.39364,"is_reserved":false,"is_disabled":false,"rental_uris":{"android":"levelo://app?vid=ca7dfd1a-c702-48d0-bed6-df95c25b531a","ios":"levelo://app?vid=ca7dfd1a-c702-48d0-bed6-df95c25b531a"},"vehicle_type_id":"4","last_reported":1737461852,"current_range_meters":36000,"station_id":"ce4bh0p2rcd13ifvqd80","pricing_plan_id":"cebpf4jnsgd1na2vs0mg"},{"bike_id":"3dd094e6-7b23-41d2-9e4a-a9cfaaac6a3e","system_id":"levelo_inurba_marseille","lat":43.33616,"lon":5.41019,"is_reserved":false,"is_disabled":false,"rental_uris":{"android":"levelo://app?vid=3dd094e6-7b23-41d2-9e4a-a9cfaaac6a3e","ios":"levelo://app?vid=3dd094e6-7b23-41d2-9e4a-a9cfaaac6a3e"},"vehicle_type_id":"4","last_reported":1737461852,"current_range_meters":38000,"station_id":"ce4bhqh2rcd13ifvqhmg","pricing_plan_id":"cebpf4jnsgd1na2vs0mg"},{"bike_id":"ffee3e92-aedf-4ae9-83cb-cc457d76f7ad","system_id":"levelo_inurba_marseille","lat":43.32657,"lon":5.40992,"is_reserved":false,"is_disabled":false,"rental_uris":{"android":"levelo://app?vid=ffee3e92-aedf-4ae9-83cb-cc457d76f7ad","ios":"levelo://app?vid=ffee3e92-aedf-4ae9-83cb-cc457d76f7ad"},"vehicle_type_id":"4","last_reported":1737461852,"current_range_meters":32000,"station_id":"ce4bhpp2rcd13ifvqhgg","pricing_plan_id":"cebpf4jnsgd1na2vs0mg"},{"bike_id":"524b093f-b071-41c0-9fe4-f158e085c588","system_id":"levelo_inurba_marseille","lat":43.32487,"lon":5.36578,"is_reserved":false,"is_disabled":false,"rental_uris":{"android":"levelo://app?vid=524b093f-b071-41c0-9fe4-f158e085c588","ios":"levelo://app?vid=524b093f-b071-41c0-9fe4-f158e085c588"},"vehicle_type_id":"4","last_reported":1737461852,"current_range_meters":28400,"station_id":"ce4bhs12rcd13ifvqhvg","pricing_plan_id":"cebpf4jnsgd1na2vs0mg"},{"bike_id":"0202676b-69f2-406d-8fd3-f525fa4be234","system_id":"levelo_inurba_marseille","lat":43.29625,"lon":5.37732,"is_reserved":false,"is_disabled":false,"rental_uris":{"android":"levelo://app?vid=0202676b-69f2-406d-8fd3-f525fa4be234","ios":"levelo://app?vid=0202676b-69f2-406d-8fd3-f525fa4be234"},"vehicle_type_id":"4","last_reported":1737461852,"current_range_meters":28400,"station_id":"ce4bgi92rcd13ifvqb90","pricing_plan_id":"cebpf4jnsgd1na2vs0mg"},{"bike_id":"bbe30ec8-e43d-4675-922b-0c8995bb10f8","system_id":"levelo_inurba_marseille","lat":43.27684,"lon":5.38885,"is_reserved":false,"is_disabled":false,"rental_uris":{"android":"levelo://app?vid=bbe30ec8-e43d-4675-922b-0c8995bb10f8","ios":"levelo://app?vid=bbe30ec8-e43d-4675-922b-0c8995bb10f8"},"vehicle_type_id":"4","last_reported":1737461852,"current_range_meters":30800,"station_id":"ce4bhi12rcd13ifvqfo0","pricing_plan_id":"cebpf4jnsgd1na2vs0mg"},{"bike_id":"4fe58642-8ec3-4f25-a4fc-eb5dc3dc47a8","system_id":"levelo_inurba_marseille","lat":43.33538,"lon":5.36131,"is_reserved":false,"is_disabled":true,"rental_uris":{"android":"levelo://app?vid=4fe58642-8ec3-4f25-a4fc-eb5dc3dc47a8","ios":"levelo://app?vid=4fe58642-8ec3-4f25-a4fc-eb5dc3dc47a8"},"vehicle_type_id":"4","last_reported":1737461852,"current_range_meters":20800,"station_id":"","pricing_plan_id":"cebpf4jnsgd1na2vs0mg"},{"bike_id":"4258e695-6aa0-4494-9d99-39feb05e6244","system_id":"levelo_inurba_marseille","lat":43.25728,"lon":5.41117,"is_reserved":false,"is_disabled":false,"rental_uris":{"android":"levelo://app?vid=4258e695-6aa0-4494-9d99-39feb05e6244","ios":"levelo://app?vid=4258e695-6aa0-4494-9d99-39feb05e6244"},"vehicle_type_id":"4","last_reported":1737461852,"current_range_meters":38400,"station_id":"ce4bhkp2rcd13ifvqgd0","pricing_plan_id":"cebpf4jnsgd1na2vs0mg"},{"bike_id":"30018cde-a53e-4d9c-9f8c-ddb064d6ec17","system_id":"levelo_inurba_marseille","lat":43.23066,"lon":5.35494,"is_reserved":false,"is_disabled":false,"rental_uris":{"android":"levelo://app?vid=30018cde-a53e-4d9c-9f8c-ddb064d6ec17","ios":"levelo://app?vid=30018cde-a53e-4d9c-9f8c-ddb064d6ec17"},"vehicle_type_id":"4","last_reported":1737461852,"current_range_meters":8000,"station_id":"cpo3342slgdg3j2ifvpg","pricing_plan_id":"cebpf4jnsgd1na2vs0mg"},{"bike_id":"a86a6700-765e-49cb-a89a-158a0b203e3f","system_id":"levelo_inurba_marseille","lat":43.24656,"lon":5.3817,"is_reserved":false,"is_disabled":false,"rental_uris":{"android":"levelo://app?vid=a86a6700-765e-49cb-a89a-158a0b203e3f","ios":"levelo://app?vid=a86a6700-765e-49cb-a89a-158a0b203e3f"},"vehicle_type_id":"4","last_reported":1737461852,"current_range_meters":36800,"station_id":"ce4bhih2rcd13ifvqfr0","pricing_plan_id":"cebpf4jnsgd1na2vs0mg"},{"bike_id":"1b1ddd02-ccf7-4cc8-9d42-84406277bd7b","system_id":"levelo_inurba_marseille","lat":43.30462,"lon":5.37908,"is_reserved":false,"is_disabled":false,"rental_uris":{"android":"levelo://app?vid=1b1ddd02-ccf7-4cc8-9d42-84406277bd7b","ios":"levelo://app?vid=1b1ddd02-ccf7-4cc8-9d42-84406277bd7b"},"vehicle_type_id":"4","last_reported":1737461852,"current_range_meters":11600,"station_id":"ce4bgup2rcd13ifvqcn0","pricing_plan_id":"cebpf4jnsgd1na2vs0mg"},{"bike_id":"b5b91842-f1aa-4bba-964f-7a9484225fb0","system_id":"levelo_inurba_marseille","lat":43.25863,"lon":5.39911,"is_reserved":false,"is_disabled":false,"rental_uris":{"android":"levelo://app?vid=b5b91842-f1aa-4bba-964f-7a9484225fb0","ios":"levelo://app?vid=b5b91842-f1aa-4bba-964f-7a9484225fb0"},"vehicle_type_id":"4","last_reported":1737461852,"current_range_meters":38800,"station_id":"ce4bhl92rcd13ifvqghg","pricing_plan_id":"cebpf4jnsgd1na2vs0mg"},{"bike_id":"60b7d049-237a-4dbd-ad0c-436ecde1802f","system_id":"levelo_inurba_marseille","lat":43.23216,"lon":5.35568,"is_reserved":false,"is_disabled":false,"rental_uris":{"android":"levelo://app?vid=60b7d049-237a-4dbd-ad0c-436ecde1802f","ios":"levelo://app?vid=60b7d049-237a-4dbd-ad0c-436ecde1802f"},"vehicle_type_id":"4","last_reported":1737461852,"current_range_meters":20800,"station_id":"ce4bhu92rcd13ifvqi70","pricing_plan_id":"cebpf4jnsgd1na2vs0mg"},{"bike_id":"9cf1e74c-671c-4d26-a8d1-23257c24e327","system_id":"levelo_inurba_marseille","lat":43.27965,"lon":5.38759,"is_reserved":false,"is_disabled":false,"rental_uris":{"android":"levelo://app?vid=9cf1e74c-671c-4d26-a8d1-23257c24e327","ios":"levelo://app?vid=9cf1e74c-671c-4d26-a8d1-23257c24e327"},"vehicle_type_id":"4","last_reported":1737461852,"current_range_meters":38800,"station_id":"ce4bhg12rcd13ifvqf80","pricing_plan_id":"cebpf4jnsgd1na2vs0mg"},{"bike_id":"f7a6c901-31c8-4066-b53a-57cec004d404","system_id":"levelo_inurba_marseille","lat":43.25816,"lon":5.39436,"is_reserved":false,"is_disabled":false,"rental_uris":{"android":"levelo://app?vid=f7a6c901-31c8-4066-b53a-57cec004d404","ios":"levelo://app?vid=f7a6c901-31c8-4066-b53a-57cec004d404"},"vehicle_type_id":"4","last_reported":1737461852,"current_range_meters":28400,"station_id":"ce4bhip2rcd13ifvqft0","pricing_plan_id":"cebpf4jnsgd1na2vs0mg"},{"bike_id":"7a14c908-5d21-478e-b2fb-cdaa7ed81c08","system_id":"levelo_inurba_marseille","lat":43.27202,"lon":5.39198,"is_reserved":false,"is_disabled":false,"rental_uris":{"android":"levelo://app?vid=7a14c908-5d21-478e-b2fb-cdaa7ed81c08","ios":"levelo://app?vid=7a14c908-5d21-478e-b2fb-cdaa7ed81c08"},"vehicle_type_id":"4","last_reported":1737461852,"current_range_meters":38800,"station_id":"ce4bhhp2rcd13ifvqfm0","pricing_plan_id":"cebpf4jnsgd1na2vs0mg"},{"bike_id":"86d67274-3f7f-4b7f-936e-b73e7a0da0d3","system_id":"levelo_inurba_marseille","lat":43.30508,"lon":5.36748,"is_reserved":false,"is_disabled":false,"rental_uris":{"android":"levelo://app?vid=86d67274-3f7f-4b7f-936e-b73e7a0da0d3","ios":"levelo://app?vid=86d67274-3f7f-4b7f-936e-b73e7a0da0d3"},"vehicle_type_id":"4","last_reported":1737461852,"current_range_meters":39200,"station_id":"ce4bgrp2rcd13ifvqc9g","pricing_plan_id":"cebpf4jnsgd1na2vs0mg"},{"bike_id":"792370a9-f1f1-4881-b0e4-75ce4c22b313","system_id":"levelo_inurba_marseille","lat":43.29375,"lon":5.37848,"is_reserved":false,"is_disabled":false,"rental_uris":{"android":"levelo://app?vid=792370a9-f1f1-4881-b0e4-75ce4c22b313","ios":"levelo://app?vid=792370a9-f1f1-4881-b0e4-75ce4c22b313"},"vehicle_type_id":"4","last_reported":1737461852,"current_range_meters":28800,"station_id":"ce4bgjh2rcd13ifvqbf0","pricing_plan_id":"cebpf4jnsgd1na2vs0mg"},{"bike_id":"f2b8aeab-8c5b-4c5c-8520-4e486493b3b3","system_id":"levelo_inurba_marseille","lat":43.29631,"lon":5.37198,"is_reserved":false,"is_disabled":false,"rental_uris":{"android":"levelo://app?vid=f2b8aeab-8c5b-4c5c-8520-4e486493b3b3","ios":"levelo://app?vid=f2b8aeab-8c5b-4c5c-8520-4e486493b3b3"},"vehicle_type_id":"4","last_reported":1737461852,"current_range_meters":8800,"station_id":"ce4bgnh2rcd13ifvqc0g","pricing_plan_id":"cebpf4jnsgd1na2vs0mg"},{"bike_id":"f5c54c5c-cf34-4f1e-bfe6-e09c0525e4f4","system_id":"levelo_inurba_marseille","lat":43.2931,"lon":5.37182,"is_reserved":false,"is_disabled":false,"rental_uris":{"android":"levelo://app?vid=f5c54c5c-cf34-4f1e-bfe6-e09c0525e4f4","ios":"levelo://app?vid=f5c54c5c-cf34-4f1e-bfe6-e09c0525e4f4"},"vehicle_type_id":"4","last_reported":1737461852,"current_range_meters":38800,"station_id":"ce4bgh92rcd13ifvqb40","pricing_plan_id":"cebpf4jnsgd1na2vs0mg"},{"bike_id":"cea541d4-3f8e-4079-91ad-02075f617536","system_id":"levelo_inurba_marseille","lat":43.2737,"lon":5.36254,"is_reserved":false,"is_disabled":false,"rental_uris":{"android":"levelo://app?vid=cea541d4-3f8e-4079-91ad-02075f617536","ios":"levelo://app?vid=cea541d4-3f8e-4079-91ad-02075f617536"},"vehicle_type_id":"4","last_reported":1737461852,"current_range_meters":38800,"station_id":"ce4bhbh2rcd13ifvqeo0","pricing_plan_id":"cebpf4jnsgd1na2vs0mg"},{"bike_id":"d0fd4d42-34b2-4621-ba20-2b893edeb0a9","system_id":"levelo_inurba_marseille","lat":43.24646,"lon":5.38887,"is_reserved":false,"is_disabled":false,"rental_uris":{"android":"levelo://app?vid=d0fd4d42-34b2-4621-ba20-2b893edeb0a9","ios":"levelo://app?vid=d0fd4d42-34b2-4621-ba20-2b893edeb0a9"},"vehicle_type_id":"4","last_reported":1737461852,"current_range_meters":16800,"station_id":"ce4bhg12rcd13ifvqf60","pricing_plan_id":"cebpf4jnsgd1na2vs0mg"},{"bike_id":"1a06946e-97c7-491a-bd6a-81663f6d34ef","system_id":"levelo_inurba_marseille","lat":43.2465,"lon":5.38894,"is_reserved":false,"is_disabled":false,"rental_uris":{"android":"levelo://app?vid=1a06946e-97c7-491a-bd6a-81663f6d34ef","ios":"levelo://app?vid=1a06946e-97c7-491a-bd6a-81663f6d34ef"},"vehicle_type_id":"4","last_reported":1737461852,"current_range_meters":30800,"station_id":"ce4bhg12rcd13ifvqf60","pricing_plan_id":"cebpf4jnsgd1na2vs0mg"},{"bike_id":"4f990209-04d5-4ce5-bcf6-1abc31b5d30d","system_id":"levelo_inurba_marseille","lat":43.30518,"lon":5.36557,"is_reserved":false,"is_disabled":false,"rental_uris":{"android":"levelo://app?vid=4f990209-04d5-4ce5-bcf6-1abc31b5d30d","ios":"levelo://app?vid=4f990209-04d5-4ce5-bcf6-1abc31b5d30d"},"vehicle_type_id":"4","last_reported":1737461852,"current_range_meters":38800,"station_id":"ce4bgs12rcd13ifvqcag","pricing_plan_id":"cebpf4jnsgd1na2vs0mg"},{"bike_id":"a2665873-ff7d-4ec2-9a56-ebacf8c35007","system_id":"levelo_inurba_marseille","lat":43.29225,"lon":5.3608,"is_reserved":false,"is_disabled":false,"rental_uris":{"android":"levelo://app?vid=a2665873-ff7d-4ec2-9a56-ebacf8c35007","ios":"levelo://app?vid=a2665873-ff7d-4ec2-9a56-ebacf8c35007"},"vehicle_type_id":"4","last_reported":1737461852,"current_range_meters":28400,"station_id":"ce4bhbh2rcd13ifvqeqg","pricing_plan_id":"cebpf4jnsgd1na2vs0mg"},{"bike_id":"c5e57d6e-b59f-4b78-9a63-475907d5c10e","system_id":"levelo_inurba_marseille","lat":43.24807,"lon":5.37458,"is_reserved":false,"is_disabled":false,"rental_uris":{"android":"levelo://app?vid=c5e57d6e-b59f-4b78-9a63-475907d5c10e","ios":"levelo://app?vid=c5e57d6e-b59f-4b78-9a63-475907d5c10e"},"vehicle_type_id":"4","last_reported":1737461852,"current_range_meters":9200,"station_id":"ce4bhgh2rcd13ifvqfb0","pricing_plan_id":"cebpf4jnsgd1na2vs0mg"},{"bike_id":"292f8adc-7623-41ea-a3ea-158a93156577","system_id":"levelo_inurba_marseille","lat":43.30546,"lon":5.38431,"is_reserved":false,"is_disabled":false,"rental_uris":{"android":"levelo://app?vid=292f8adc-7623-41ea-a3ea-158a93156577","ios":"levelo://app?vid=292f8adc-7623-41ea-a3ea-158a93156577"},"vehicle_type_id":"4","last_reported":1737461852,"current_range_meters":29600,"station_id":"ce4bgg92rcd13ifvqb30","pricing_plan_id":"cebpf4jnsgd1na2vs0mg"},{"bike_id":"1b2eceb2-0927-4f49-927f-549ccba4e5d5","system_id":"levelo_inurba_marseille","lat":43.3133,"lon":5.39697,"is_reserved":false,"is_disabled":false,"rental_uris":{"android":"levelo://app?vid=1b2eceb2-0927-4f49-927f-549ccba4e5d5","ios":"levelo://app?vid=1b2eceb2-0927-4f49-927f-549ccba4e5d5"},"vehicle_type_id":"4","last_reported":1737461852,"current_range_meters":38800,"station_id":"ce4bgvp2rcd13ifvqcu0","pricing_plan_id":"cebpf4jnsgd1na2vs0mg"},{"bike_id":"09271c13-bc57-4a1b-ad60-73ddd2d0ee51","system_id":"levelo_inurba_marseille","lat":43.31323,"lon":5.36756,"is_reserved":false,"is_disabled":false,"rental_uris":{"android":"levelo://app?vid=09271c13-bc57-4a1b-ad60-73ddd2d0ee51","ios":"levelo://app?vid=09271c13-bc57-4a1b-ad60-73ddd2d0ee51"},"vehicle_type_id":"4","last_reported":1737461852,"current_range_meters":39200,"station_id":"ce4bgr92rcd13ifvqc6g","pricing_plan_id":"cebpf4jnsgd1na2vs0mg"},{"bike_id":"64b084cb-bee9-4bf3-b5f1-99ae8fc22268","system_id":"levelo_inurba_marseille","lat":43.24182,"lon":5.3972,"is_reserved":false,"is_disabled":false,"rental_uris":{"android":"levelo://app?vid=64b084cb-bee9-4bf3-b5f1-99ae8fc22268","ios":"levelo://app?vid=64b084cb-bee9-4bf3-b5f1-99ae8fc22268"},"vehicle_type_id":"4","last_reported":1737461852,"current_range_meters":27600,"station_id":"ce4bhn12rcd13ifvqgpg","pricing_plan_id":"cebpf4jnsgd1na2vs0mg"},{"bike_id":"8416c2eb-29ef-40ca-bcab-1cbe26f7589e","system_id":"levelo_inurba_marseille","lat":43.2846,"lon":5.35901,"is_reserved":false,"is_disabled":false,"rental_uris":{"android":"levelo://app?vid=8416c2eb-29ef-40ca-bcab-1cbe26f7589e","ios":"levelo://app?vid=8416c2eb-29ef-40ca-bcab-1cbe26f7589e"},"vehicle_type_id":"4","last_reported":1737461852,"current_range_meters":31200,"station_id":"ce4bhah2rcd13ifvqei0","pricing_plan_id":"cebpf4jnsgd1na2vs0mg"},{"bike_id":"449d54d2-c8ea-4410-bf7b-d6b14bc1f8b2","system_id":"levelo_inurba_marseille","lat":43.30149,"lon":5.38081,"is_reserved":false,"is_disabled":false,"rental_uris":{"android":"levelo://app?vid=449d54d2-c8ea-4410-bf7b-d6b14bc1f8b2","ios":"levelo://app?vid=449d54d2-c8ea-4410-bf7b-d6b14bc1f8b2"},"vehicle_type_id":"4","last_reported":1737461852,"current_range_meters":32400,"station_id":"ce4bgjp2rcd13ifvqbh0","pricing_plan_id":"cebpf4jnsgd1na2vs0mg"},{"bike_id":"0aaedd18-95c7-458b-bb63-6504ef2e11ba","system_id":"levelo_inurba_marseille","lat":43.32096,"lon":5.36789,"is_reserved":false,"is_disabled":false,"rental_uris":{"android":"levelo://app?vid=0aaedd18-95c7-458b-bb63-6504ef2e11ba","ios":"levelo://app?vid=0aaedd18-95c7-458b-bb63-6504ef2e11ba"},"vehicle_type_id":"4","last_reported":1737461852,"current_range_meters":33600,"station_id":"ce4bhrh2rcd13ifvqhug","pricing_plan_id":"cebpf4jnsgd1na2vs0mg"},{"bike_id":"d3db66f0-78e1-492c-9691-99b73dba5e3e","system_id":"levelo_inurba_marseille","lat":43.32102,"lon":5.36785,"is_reserved":false,"is_disabled":false,"rental_uris":{"android":"levelo://app?vid=d3db66f0-78e1-492c-9691-99b73dba5e3e","ios":"levelo://app?vid=d3db66f0-78e1-492c-9691-99b73dba5e3e"},"vehicle_type_id":"4","last_reported":1737461852,"current_range_meters":17200,"station_id":"ce4bhrh2rcd13ifvqhug","pricing_plan_id":"cebpf4jnsgd1na2vs0mg"},{"bike_id":"a00f9d10-2df3-4a8a-9537-639a60aaa7db","system_id":"levelo_inurba_marseille","lat":43.32495,"lon":5.36564,"is_reserved":false,"is_disabled":false,"rental_uris":{"android":"levelo://app?vid=a00f9d10-2df3-4a8a-9537-639a60aaa7db","ios":"levelo://app?vid=a00f9d10-2df3-4a8a-9537-639a60aaa7db"},"vehicle_type_id":"4","last_reported":1737461852,"current_range_meters":35600,"station_id":"ce4bhs12rcd13ifvqhvg","pricing_plan_id":"cebpf4jnsgd1na2vs0mg"},{"bike_id":"f0eb1d86-49d7-4e30-9a1d-73e3b3c13f46","system_id":"levelo_inurba_marseille","lat":43.27834,"lon":5.39208,"is_reserved":false,"is_disabled":false,"rental_uris":{"android":"levelo://app?vid=f0eb1d86-49d7-4e30-9a1d-73e3b3c13f46","ios":"levelo://app?vid=f0eb1d86-49d7-4e30-9a1d-73e3b3c13f46"},"vehicle_type_id":"4","last_reported":1737461852,"current_range_meters":38800,"station_id":"ce4bhjp2rcd13ifvqga0","pricing_plan_id":"cebpf4jnsgd1na2vs0mg"},{"bike_id":"e26d020d-1350-48bb-82bc-1b0761eb6af5","system_id":"levelo_inurba_marseille","lat":43.23185,"lon":5.39988,"is_reserved":false,"is_disabled":false,"rental_uris":{"android":"levelo://app?vid=e26d020d-1350-48bb-82bc-1b0761eb6af5","ios":"levelo://app?vid=e26d020d-1350-48bb-82bc-1b0761eb6af5"},"vehicle_type_id":"4","last_reported":1737461852,"current_range_meters":38800,"station_id":"ce4bhn12rcd13ifvqgqg","pricing_plan_id":"cebpf4jnsgd1na2vs0mg"},{"bike_id":"be5af88f-b9fb-4c45-affa-947d36a2d441","system_id":"levelo_inurba_marseille","lat":43.26562,"lon":5.37288,"is_reserved":false,"is_disabled":false,"rental_uris":{"android":"levelo://app?vid=be5af88f-b9fb-4c45-affa-947d36a2d441","ios":"levelo://app?vid=be5af88f-b9fb-4c45-affa-947d36a2d441"},"vehicle_type_id":"4","last_reported":1737461852,"current_range_meters":11200,"station_id":"ce4bhg12rcd13ifvqf70","pricing_plan_id":"cebpf4jnsgd1na2vs0mg"},{"bike_id":"cd1d2409-fe70-45fb-ae62-f94525c95d49","system_id":"levelo_inurba_marseille","lat":43.32751,"lon":5.3925,"is_reserved":false,"is_disabled":false,"rental_uris":{"android":"levelo://app?vid=cd1d2409-fe70-45fb-ae62-f94525c95d49","ios":"levelo://app?vid=cd1d2409-fe70-45fb-ae62-f94525c95d49"},"vehicle_type_id":"4","last_reported":1737461852,"current_range_meters":31200,"station_id":"","pricing_plan_id":"cebpf4jnsgd1na2vs0mg"},{"bike_id":"125121b9-c493-48f3-99d2-d1b113895d48","system_id":"levelo_inurba_marseille","lat":43.29955,"lon":5.41324,"is_reserved":false,"is_disabled":false,"rental_uris":{"android":"levelo://app?vid=125121b9-c493-48f3-99d2-d1b113895d48","ios":"levelo://app?vid=125121b9-c493-48f3-99d2-d1b113895d48"},"vehicle_type_id":"4","last_reported":1737461852,"current_range_meters":9600,"station_id":"ce4bhp12rcd13ifvqh9g","pricing_plan_id":"cebpf4jnsgd1na2vs0mg"},{"bike_id":"581be26d-a5f2-456c-8ebc-482edc6dba32","system_id":"levelo_inurba_marseille","lat":43.31711,"lon":5.42408,"is_reserved":false,"is_disabled":true,"rental_uris":{"android":"levelo://app?vid=581be26d-a5f2-456c-8ebc-482edc6dba32","ios":"levelo://app?vid=581be26d-a5f2-456c-8ebc-482edc6dba32"},"vehicle_type_id":"4","last_reported":1737461852,"current_range_meters":16800,"station_id":"ce4bhp92rcd13ifvqhbg","pricing_plan_id":"cebpf4jnsgd1na2vs0mg"},{"bike_id":"586a1c41-11d4-4205-8447-2266a0160e78","system_id":"levelo_inurba_marseille","lat":43.26202,"lon":5.37951,"is_reserved":false,"is_disabled":false,"rental_uris":{"android":"levelo://app?vid=586a1c41-11d4-4205-8447-2266a0160e78","ios":"levelo://app?vid=586a1c41-11d4-4205-8447-2266a0160e78"},"vehicle_type_id":"4","last_reported":1737461852,"current_range_meters":39200,"station_id":"ce4bhjp2rcd13ifvqg90","pricing_plan_id":"cebpf4jnsgd1na2vs0mg"},{"bike_id":"01b17d6f-327f-4a96-a350-110e8c68c92a","system_id":"levelo_inurba_marseille","lat":43.31074,"lon":5.38355,"is_reserved":false,"is_disabled":false,"rental_uris":{"android":"levelo://app?vid=01b17d6f-327f-4a96-a350-110e8c68c92a","ios":"levelo://app?vid=01b17d6f-327f-4a96-a350-110e8c68c92a"},"vehicle_type_id":"4","last_reported":1737461852,"current_range_meters":3600,"station_id":"ce4bgv92rcd13ifvqcr0","pricing_plan_id":"cebpf4jnsgd1na2vs0mg"},{"bike_id":"bd32890d-8724-4e59-8255-88ae19fbc4c3","system_id":"levelo_inurba_marseille","lat":43.23229,"lon":5.35133,"is_reserved":false,"is_disabled":false,"rental_uris":{"android":"levelo://app?vid=bd32890d-8724-4e59-8255-88ae19fbc4c3","ios":"levelo://app?vid=bd32890d-8724-4e59-8255-88ae19fbc4c3"},"vehicle_type_id":"4","last_reported":1737461852,"current_range_meters":32800,"station_id":"cpo3532slgdg3j2ikp40","pricing_plan_id":"cebpf4jnsgd1na2vs0mg"},{"bike_id":"d7e117ca-16bf-4121-a8b8-c81a7896ce47","system_id":"levelo_inurba_marseille","lat":43.28157,"lon":5.42639,"is_reserved":false,"is_disabled":false,"rental_uris":{"android":"levelo://app?vid=d7e117ca-16bf-4121-a8b8-c81a7896ce47","ios":"levelo://app?vid=d7e117ca-16bf-4121-a8b8-c81a7896ce47"},"vehicle_type_id":"4","last_reported":1737461852,"current_range_meters":5600,"station_id":"ce4bhnh2rcd13ifvqgug","pricing_plan_id":"cebpf4jnsgd1na2vs0mg"},{"bike_id":"d60c338c-e37a-45f0-9199-33d918e777b8","system_id":"levelo_inurba_marseille","lat":43.2968,"lon":5.37308,"is_reserved":false,"is_disabled":false,"rental_uris":{"android":"levelo://app?vid=d60c338c-e37a-45f0-9199-33d918e777b8","ios":"levelo://app?vid=d60c338c-e37a-45f0-9199-33d918e777b8"},"vehicle_type_id":"4","last_reported":1737461852,"current_range_meters":38800,"station_id":"ce4bgk12rcd13ifvqbj0","pricing_plan_id":"cebpf4jnsgd1na2vs0mg"},