{"last_updated":1705014430,"ttl":30,"version":"2.2","data":{"bikes":[{"bike_id":"f9b4517c-1064-423f-b666-2e9bc79f4e20","system_id":"levelo_inurba_marseille","lat":43.313391,"lon":5.36706,"is_reserved":false,"is_disabled":false,"rental_uris":{"android":"levelo://app?vid=f9b4517c-1064-423f-b666-2e9bc79f4e20","ios":"levelo://app?vid=f9b4517c-1064-423f-b666-2e9bc79f4e20"},"vehicle_type_id":"4","last_reported":1705014430,"current_range_meters":26800,"station_id":"ce4bgr92rcd13ifvqc6g","pricing_plan_id":"free"},{"bike_id":"627830ed-874d-4b01-81e2-0611fb382090","system_id":"levelo_inurba_marseille","lat":43.312239,"lon":5.368562,"is_reserved":false,"is_disabled":false,"rental_uris":{"android":"levelo://app?vid=627830ed-874d-4b01-81e2-0611fb382090","ios":"levelo://app?vid=627830ed-874d-4b01-81e2-0611fb382090"},"vehicle_type_id":"4","last_reported":1705014430,"current_range_meters":16800,"station_id":"ce4bgl92rcd13ifvqbq0","pricing_plan_id":"free"},{"bike_id":"0c6b008c-6f6d-4a05-961c-0e89c675573b","system_id":"levelo_inurba_marseille","lat":43.324771,"lon":5.36557,"is_reserved":false,"is_disabled":false,"rental_uris":{"android":"levelo://app?vid=0c6b008c-6f6d-4a05-961c-0e89c675573b","ios":"levelo://app?vid=0c6b008c-6f6d-4a05-961c-0e89c675573b"},"vehicle_type_id":"4","last_reported":1705014430,"current_range_meters":1600,"station_id":"ce4bhs12rcd13ifvqhvg","pricing_plan_id":"free"},{"bike_id":"fbd9971c-47d7-4324-952c-7a20538174af","system_id":"levelo_inurba_marseille","lat":43.309076,"lon":5.368465,"is_reserved":false,"is_disabled":false,"rental_uris":{"android":"levelo://app?vid=fbd9971c-47d7-4324-952c-7a20538174af","ios":"levelo://app?vid=fbd9971c-47d7-4324-952c-7a20538174af"},"vehicle_type_id":"4","last_reported":1705014430,"current_range_meters":30800,"station_id":"ce4bgn92rcd13ifvqbvg","pricing_plan_id":"free"},{"bike_id":"8373cf7e-b3aa-4692-aace-a5d105d0f5dc","system_id":"levelo_inurba_marseille","lat":43.314811,"lon":5.373103,"is_reserved":false,"is_disabled":false,"rental_uris":{"android":"levelo://app?vid=8373cf7e-b3aa-4692-aace-a5d105d0f5dc","ios":"levelo://app?vid=8373cf7e-b3aa-4692-aace-a5d105d0f5dc"},"vehicle_type_id":"4","last_reported":1705014430,"current_range_meters":24800,"station_id":"ce4bgt12rcd13ifvqcd0","pricing_plan_id":"free"},{"bike_id":"f69390ec-99a6-4483-84ba-32df96b84613","system_id":"levelo_inurba_marseille","lat":43.31503,"lon":5.37288,"is_reserved":false,"is_disabled":false,"rental_uris":{"android":"levelo://app?vid=f69390ec-99a6-4483-84ba-32df96b84613","ios":"levelo://app?vid=f69390ec-99a6-4483-84ba-32df96b84613"},"vehicle_type_id":"4","last_reported":1705014430,"current_range_meters":18800,"station_id":"ce4bgt12rcd13ifvqcd0","pricing_plan_id":"free"},{"bike_id":"47b405d9-ab32-4c62-892c-4615116e125d","system_id":"levelo_inurba_marseille","lat":43.314811,"lon":5.373103,"is_reserved":false,"is_disabled":false,"rental_uris":{"android":"levelo://app?vid=47b405d9-ab32-4c62-892c-4615116e125d","ios":"levelo://app?vid=47b405d9-ab32-4c62-892c-4615116e125d"},"vehicle_type_id":"4","last_reported":1705014430,"current_range_meters":18000,"station_id":"ce4bgt12rcd13ifvqcd0","pricing_plan_id":"free"},{"bike_id":"b6e00577-5f24-4d68-8580-46326baafc89","system_id":"levelo_inurba_marseille","lat":43.314811,"lon":5.373103,"is_reserved":false,"is_disabled":false,"rental_uris":{"android":"levelo://app?vid=b6e00577-5f24-4d68-8580-46326baafc89","ios":"levelo://app?vid=b6e00577-5f24-4d68-8580-46326baafc89"},"vehicle_type_id":"4","last_reported":1705014430,"current_range_meters":6800,"station_id":"ce4bgt12rcd13ifvqcd0","pricing_plan_id":"free"},{"bike_id":"8e4035f3-e4d8-40d3-b3ec-4f74f7c8048a","system_id":"levelo_inurba_marseille","lat":43.314811,"lon":5.373104,"is_reserved":false,"is_disabled":false,"rental_uris":{"android":"levelo://app?vid=8e4035f3-e4d8-40d3-b3ec-4f74f7c8048a","ios":"levelo://app?vid=8e4035f3-e4d8-40d3-b3ec-4f74f7c8048a"},"vehicle_type_id":"4","last_reported":1705014430,"current_range_meters":22000,"station_id":"ce4bgt12rcd13ifvqcd0","pricing_plan_id":"free"},{"bike_id":"805b3b82-7516-4792-b9a1-c05b79b62464","system_id":"levelo_inurba_marseille","lat":43.309039,"lon":5.371797,"is_reserved":false,"is_disabled":false,"rental_uris":{"android":"levelo://app?vid=805b3b82-7516-4792-b9a1-c05b79b62464","ios":"levelo://app?vid=805b3b82-7516-4792-b9a1-c05b79b62464"},"vehicle_type_id":"4","last_reported":1705014430,"current_range_meters":22400,"station_id":"ce4bguh2rcd13ifvqckg","pricing_plan_id":"free"},{"bike_id":"db8a1e73-f3e7-499c-b243-1967786d655d","system_id":"levelo_inurba_marseille","lat":43.305368,"lon":5.367343,"is_reserved":false,"is_disabled":false,"rental_uris":{"android":"levelo://app?vid=db8a1e73-f3e7-499c-b243-1967786d655d","ios":"levelo://app?vid=db8a1e73-f3e7-499c-b243-1967786d655d"},"vehicle_type_id":"4","last_reported":1705014430,"current_range_meters":22800,"station_id":"ce4bgrp2rcd13ifvqc9g","pricing_plan_id":"free"},{"bike_id":"485dbd7b-73e9-4980-9a75-1bb07655f1d3","system_id":"levelo_inurba_marseille","lat":43.305989,"lon":5.37225,"is_reserved":false,"is_disabled":false,"rental_uris":{"android":"levelo://app?vid=485dbd7b-73e9-4980-9a75-1bb07655f1d3","ios":"levelo://app?vid=485dbd7b-73e9-4980-9a75-1bb07655f1d3"},"vehicle_type_id":"4","last_reported":1705014430,"current_range_meters":24400,"station_id":"ce4bgqh2rcd13ifvqc4g","pricing_plan_id":"free"},{"bike_id":"648a5be5-7e9b-4760-8650-36c698d6afdc","system_id":"levelo_inurba_marseille","lat":43.305989,"lon":5.37225,"is_reserved":false,"is_disabled":false,"rental_uris":{"android":"levelo://app?vid=648a5be5-7e9b-4760-8650-36c698d6afdc","ios":"levelo://app?vid=648a5be5-7e9b-4760-8650-36c698d6afdc"},"vehicle_type_id":"4","last_reported":1705014430,"current_range_meters":4000,"station_id":"ce4bgqh2rcd13ifvqc4g","pricing_plan_id":"free"},{"bike_id":"008f0809-2dd9-466b-8978-1d0a0f0d4a95","system_id":"levelo_inurba_marseille","lat":43.305989,"lon":5.37225,"is_reserved":false,"is_disabled":false,"rental_uris":{"android":"levelo://app?vid=008f0809-2dd9-466b-8978-1d0a0f0d4a95","ios":"levelo://app?vid=008f0809-2dd9-466b-8978-1d0a0f0d4a95"},"vehicle_type_id":"4","last_reported":1705014430,"current_range_meters":16000,"station_id":"ce4bgqh2rcd13ifvqc4g","pricing_plan_id":"free"},{"bike_id":"a35f31a8-2334-4d10-8465-a9403d79aa27","system_id":"levelo_inurba_marseille","lat":43.305989,"lon":5.37225,"is_reserved":false,"is_disabled":false,"rental_uris":{"android":"levelo://app?vid=a35f31a8-2334-4d10-8465-a9403d79aa27","ios":"levelo://app?vid=a35f31a8-2334-4d10-8465-a9403d79aa27"},"vehicle_type_id":"4","last_reported":1705014430,"current_range_meters":26400,"station_id":"ce4bgqh2rcd13ifvqc4g","pricing_plan_id":"free"},{"bike_id":"1217822f-7441-4a30-8d04-7fc94b1417d6","system_id":"levelo_inurba_marseille","lat":43.311125,"lon":5.377624,"is_reserved":false,"is_disabled":false,"rental_uris":{"android":"levelo://app?vid=1217822f-7441-4a30-8d04-7fc94b1417d6","ios":"levelo://app?vid=1217822f-7441-4a30-8d04-7fc94b1417d6"},"vehicle_type_id":"4","last_reported":1705014430,"current_range_meters":18800,"station_id":"ce4bgt92rcd13ifvqcg0","pricing_plan_id":"free"},{"bike_id":"f1d7aa7b-c19b-4ac6-94aa-54fa34e96d91","system_id":"levelo_inurba_marseille","lat":43.311131,"lon":5.377651,"is_reserved":false,"is_disabled":false,"rental_uris":{"android":"levelo://app?vid=f1d7aa7b-c19b-4ac6-94aa-54fa34e96d91","ios":"levelo://app?vid=f1d7aa7b-c19b-4ac6-94aa-54fa34e96d91"},"vehicle_type_id":"4","last_reported":1705014430,"current_range_meters":17600,"station_id":"ce4bgt92rcd13ifvqcg0","pricing_plan_id":"free"},{"bike_id":"6e189723-1ca8-4de1-9af2-edbf81e619c3","system_id":"levelo_inurba_marseille","lat":43.311131,"lon":5.377651,"is_reserved":false,"is_disabled":false,"rental_uris":{"android":"levelo://app?vid=6e189723-1ca8-4de1-9af2-edbf81e619c3","ios":"levelo://app?vid=6e189723-1ca8-4de1-9af2-edbf81e619c3"},"vehicle_type_id":"4","last_reported":1705014430,"current_range_meters":1200,"station_id":"ce4bgt92rcd13ifvqcg0","pricing_plan_id":"free"},{"bike_id":"cfe24e24-07a1-4791-8e77-c54dda8960d2","system_id":"levelo_inurba_marseille","lat":43.307945,"lon":5.376487,"is_reserved":false,"is_disabled":false,"rental_uris":{"android":"levelo://app?vid=cfe24e24-07a1-4791-8e77-c54dda8960d2","ios":"levelo://app?vid=cfe24e24-07a1-4791-8e77-c54dda8960d2"},"vehicle_type_id":"4","last_reported":1705014430,"current_range_meters":26800,"station_id":"ce4bgv92rcd13ifvqcq0","pricing_plan_id":"free"},{"bike_id":"011866a6-5eec-4ab4-9219-80390c6b062e","system_id":"levelo_inurba_marseille","lat":43.307945,"lon":5.376487,"is_reserved":false,"is_disabled":false,"rental_uris":{"android":"levelo://app?vid=011866a6-5eec-4ab4-9219-80390c6b062e","ios":"levelo://app?vid=011866a6-5eec-4ab4-9219-80390c6b062e"},"vehicle_type_id":"4","last_reported":1705014430,"current_range_meters":27600,"station_id":"ce4bgv92rcd13ifvqcq0","pricing_plan_id":"free"},{"bike_id":"26da977c-14a2-4da5-a8c1-80ff7c18ec60","system_id":"levelo_inurba_marseille","lat":43.307945,"lon":5.376487,"is_reserved":false,"is_disabled":false,"rental_uris":{"android":"levelo://app?vid=26da977c-14a2-4da5-a8c1-80ff7c18ec60","ios":"levelo://app?vid=26da977c-14a2-4da5-a8c1-80ff7c18ec60"},"vehicle_type_id":"4","last_reported":1705014430,"current_range_meters":30400,"station_id":"ce4bgv92rcd13ifvqcq0","pricing_plan_id":"free"},{"bike_id":"10c7ca0c-5b38-4f0b-b97a-aa76113893e5","system_id":"levelo_inurba_marseille","lat":43.317094,"lon":5.377371,"is_reserved":false,"is_disabled":false,"rental_uris":{"android":"levelo://app?vid=10c7ca0c-5b38-4f0b-b97a-aa76113893e5","ios":"levelo://app?vid=10c7ca0c-5b38-4f0b-b97a-aa76113893e5"},"vehicle_type_id":"4","last_reported":1705014430,"current_range_meters":25600,"station_id":"ce4bgth2rcd13ifvqch0","pricing_plan_id":"free"},{"bike_id":"4d461b85-1a0e-4623-8399-e9448b273b12","system_id":"levelo_inurba_marseille","lat":43.317075,"lon":5.377367,"is_reserved":false,"is_disabled":false,"rental_uris":{"android":"levelo://app?vid=4d461b85-1a0e-4623-8399-e9448b273b12","ios":"levelo://app?vid=4d461b85-1a0e-4623-8399-e9448b273b12"},"vehicle_type_id":"4","last_reported":1705014430,"current_range_meters":31200,"station_id":"ce4bgth2rcd13ifvqch0","pricing_plan_id":"free"},{"bike_id":"6037dcd5-149c-4903-b2fd-d261e491b3b8","system_id":"levelo_inurba_marseille","lat":43.317075,"lon":5.377367,"is_reserved":false,"is_disabled":false,"rental_uris":{"android":"levelo://app?vid=6037dcd5-149c-4903-b2fd-d261e491b3b8","ios":"levelo://app?vid=6037dcd5-149c-4903-b2fd-d261e491b3b8"},"vehicle_type_id":"4","last_reported":1705014430,"current_range_meters":10400,"station_id":"ce4bgth2rcd13ifvqch0","pricing_plan_id":"free"},{"bike_id":"4703778a-a799-41e5-b078-4160f07f1fec","system_id":"levelo_inurba_marseille","lat":43.317075,"lon":5.377367,"is_reserved":false,"is_disabled":false,"rental_uris":{"android":"levelo://app?vid=4703778a-a799-41e5-b078-4160f07f1fec","ios":"levelo://app?vid=4703778a-a799-41e5-b078-4160f07f1fec"},"vehicle_type_id":"4","last_reported":1705014430,"current_range_meters":23600,"station_id":"ce4bgth2rcd13ifvqch0","pricing_plan_id":"free"},{"bike_id":"4fb6c33f-6a2d-4cb9-b5f5-71a4f8b0b1b3","system_id":"levelo_inurba_marseille","lat":43.317075,"lon":5.377367,"is_reserved":false,"is_disabled":false,"rental_uris":{"android":"levelo://app?vid=4fb6c33f-6a2d-4cb9-b5f5-71a4f8b0b1b3","ios":"levelo://app?vid=4fb6c33f-6a2d-4cb9-b5f5-71a4f8b0b1b3"},"vehicle_type_id":"4","last_reported":1705014430,"current_range_meters":26000,"station_id":"ce4bgth2rcd13ifvqch0","pricing_plan_id":"free"},{"bike_id":"2fa46104-6d03-45ae-9e29-620d76e65889","system_id":"levelo_inurba_marseille","lat":43.303046,"lon":5.368981,"is_reserved":false,"is_disabled":false,"rental_uris":{"android":"levelo://app?vid=2fa46104-6d03-45ae-9e29-620d76e65889","ios":"levelo://app?vid=2fa46104-6d03-45ae-9e29-620d76e65889"},"vehicle_type_id":"4","last_reported":1705014430,"current_range_meters":19600,"station_id":"ce4bgqh2rcd13ifvqc5g","pricing_plan_id":"free"},{"bike_id":"77b745d8-92f5-4ca9-bc28-1d7879ce6bf1","system_id":"levelo_inurba_marseille","lat":43.3153,"lon":5.38027,"is_reserved":false,"is_disabled":false,"rental_uris":{"android":"levelo://app?vid=77b745d8-92f5-4ca9-bc28-1d7879ce6bf1","ios":"levelo://app?vid=77b745d8-92f5-4ca9-bc28-1d7879ce6bf1"},"vehicle_type_id":"4","last_reported":1705014430,"current_range_meters":800,"station_id":"ce4bhsp2rcd13ifvqi50","pricing_plan_id":"free"},{"bike_id":"320ec0ff-c49a-434b-8d9e-c8cbcd46b94f","system_id":"levelo_inurba_marseille","lat":43.31533,"lon":5.38038,"is_reserved":false,"is_disabled":false,"rental_uris":{"android":"levelo://app?vid=320ec0ff-c49a-434b-8d9e-c8cbcd46b94f","ios":"levelo://app?vid=320ec0ff-c49a-434b-8d9e-c8cbcd46b94f"},"vehicle_type_id":"4","last_reported":1705014430,"current_range_meters":15200,"station_id":"ce4bhsp2rcd13ifvqi50","pricing_plan_id":"free"},{"bike_id":"46028b93-7064-4cba-bb8f-9612ad179a28","system_id":"levelo_inurba_marseille","lat":43.31535,"lon":5.38038,"is_reserved":false,"is_disabled":false,"rental_uris":{"android":"levelo://app?vid=46028b93-7064-4cba-bb8f-9612ad179a28","ios":"levelo://app?vid=46028b93-7064-4cba-bb8f-9612ad179a28"},"vehicle_type_id":"4","last_reported":1705014430,"current_range_meters":14800,"station_id":"ce4bhsp2rcd13ifvqi50","pricing_plan_id":"free"},{"bike_id":"0c447ae3-6cd7-4a4c-8c99-1b7cc25b54d0","system_id":"levelo_inurba_marseille","lat":43.301939,"lon":5.366286,"is_reserved":false,"is_disabled":false,"rental_uris":{"android":"levelo://app?vid=0c447ae3-6cd7-4a4c-8c99-1b7cc25b54d0","ios":"levelo://app?vid=0c447ae3-6cd7-4a4c-8c99-1b7cc25b54d0"},"vehicle_type_id":"4","last_reported":1705014430,"current_range_meters":24800,"station_id":"ce4bgrh2rcd13ifvqc8g","pricing_plan_id":"free"},{"bike_id":"4baeb7e3-bf8f-4c6c-897d-30af0024d6a5","system_id":"levelo_inurba_marseille","lat":43.301939,"lon":5.366286,"is_reserved":false,"is_disabled":false,"rental_uris":{"android":"levelo://app?vid=4baeb7e3-bf8f-4c6c-897d-30af0024d6a5","ios":"levelo://app?vid=4baeb7e3-bf8f-4c6c-897d-30af0024d6a5"},"vehicle_type_id":"4","last_reported":1705014430,"current_range_meters":4000,"station_id":"ce4bgrh2rcd13ifvqc8g","pricing_plan_id":"free"},{"bike_id":"66f76706-80d4-4b3c-8aae-583cf0f685e0","system_id":"levelo_inurba_marseille","lat":43.301939,"lon":5.366286,"is_reserved":false,"is_disabled":false,"rental_uris":{"android":"levelo://app?vid=66f76706-80d4-4b3c-8aae-583cf0f685e0","ios":"levelo://app?vid=66f76706-80d4-4b3c-8aae-583cf0f685e0"},"vehicle_type_id":"4","last_reported":1705014430,"current_range_meters":20400,"station_id":"ce4bgrh2rcd13ifvqc8g","pricing_plan_id":"free"},{"bike_id":"44d9627a-034b-4e15-8501-f92072347e9b","system_id":"levelo_inurba_marseille","lat":43.308012,"lon":5.381511,"is_reserved":false,"is_disabled":false,"rental_uris":{"android":"levelo://app?vid=44d9627a-034b-4e15-8501-f92072347e9b","ios":"levelo://app?vid=44d9627a-034b-4e15-8501-f92072347e9b"},"vehicle_type_id":"4","last_reported":1705014430,"current_range_meters":400,"station_id":"ce4bgt12rcd13ifvqce0","pricing_plan_id":"free"},{"bike_id":"1f870116-b2d4-4ef6-91b7-023cb8587099","system_id":"levelo_inurba_marseille","lat":43.300827,"lon":5.365856,"is_reserved":false,"is_disabled":false,"rental_uris":{"android":"levelo://app?vid=1f870116-b2d4-4ef6-91b7-023cb8587099","ios":"levelo://app?vid=1f870116-b2d4-4ef6-91b7-023cb8587099"},"vehicle_type_id":"4","last_reported":1705014430,"current_range_meters":7600,"station_id":"","pricing_plan_id":"free"},{"bike_id":"fe4fb449-f823-4afd-9518-243dce33cb5d","system_id":"levelo_inurba_marseille","lat":43.304606,"lon":5.379026,"is_reserved":false,"is_disabled":false,"rental_uris":{"android":"levelo://app?vid=fe4fb449-f823-4afd-9518-243dce33cb5d","ios":"levelo://app?vid=fe4fb449-f823-4afd-9518-243dce33cb5d"},"vehicle_type_id":"4","last_reported":1705014430,"current_range_meters":12400,"station_id":"ce4bgup2rcd13ifvqcn0","pricing_plan_id":"free"},{"bike_id":"d67a9692-4209-4ab8-894a-e96cd1211d97","system_id":"levelo_inurba_marseille","lat":43.324709,"lon":5.365537,"is_reserved":false,"is_disabled":false,"rental_uris":{"android":"levelo://app?vid=d67a9692-4209-4ab8-894a-e96cd1211d97","ios":"levelo://app?vid=d67a9692-4209-4ab8-894a-e96cd1211d97"},"vehicle_type_id":"4","last_reported":1705014430,"current_range_meters":24800,"station_id":"ce4bhs12rcd13ifvqhvg","pricing_plan_id":"free"},{"bike_id":"8b75178a-a835-458e-8ac4-08d084bafb0f","system_id":"levelo_inurba_marseille","lat":43.324771,"lon":5.36557,"is_reserved":false,"is_disabled":false,"rental_uris":{"android":"levelo://app?vid=8b75178a-a835-458e-8ac4-08d084bafb0f","ios":"levelo://app?vid=8b75178a-a835-458e-8ac4-08d084bafb0f"},"vehicle_type_id":"4","last_reported":1705014430,"current_range_meters":4400,"station_id":"ce4bhs12rcd13ifvqhvg","pricing_plan_id":"free"},{"bike_id":"e8a824c4-9e66-43fc-b93e-768561bd8ad5","system_id":"levelo_inurba_marseille","lat":43.324771,"lon":5.36557,"is_reserved":false,"is_disabled":false,"rental_uris":{"android":"levelo://app?vid=e8a824c4-9e66-43fc-b93e-768561bd8ad5","ios":"levelo://app?vid=e8a824c4-9e66-43fc-b93e-768561bd8ad5"},"vehicle_type_id":"4","last_reported":1705014430,"current_range_meters":6400,"station_id":"ce4bhs12rcd13ifvqhvg","pricing_plan_id":"free"},{"bike_id":"41d68604-dae1-4399-9a0d-3a21647fdba7","system_id":"levelo_inurba_marseille","lat":43.301429,"lon":5.37413,"is_reserved":false,"is_disabled":false,"rental_uris":{"android":"levelo://app?vid=41d68604-dae1-4399-9a0d-3a21647fdba7","ios":"levelo://app?vid=41d68604-dae1-4399-9a0d-3a21647fdba7"},"vehicle_type_id":"4","last_reported":1705014430,"current_range_meters":30000,"station_id":"ce4bgs92rcd13ifvqcc0","pricing_plan_id":"free"},{"bike_id":"6a0590f3-4f02-4f03-92b0-24f761ad0b23","system_id":"levelo_inurba_marseille","lat":43.319935,"lon":5.381699,"is_reserved":false,"is_disabled":false,"rental_uris":{"android":"levelo://app?vid=6a0590f3-4f02-4f03-92b0-24f761ad0b23","ios":"levelo://app?vid=6a0590f3-4f02-4f03-92b0-24f761ad0b23"},"vehicle_type_id":"4","last_reported":1705014430,"current_range_meters":15200,"station_id":"ce4bhr12rcd13ifvqhpg","pricing_plan_id":"free"},{"bike_id":"da20981e-151d-4b69-bca5-ea52a228325b","system_id":"levelo_inurba_marseille","lat":43.319935,"lon":5.381699,"is_reserved":false,"is_disabled":false,"rental_uris":{"android":"levelo://app?vid=da20981e-151d-4b69-bca5-ea52a228325b","ios":"levelo://app?vid=da20981e-151d-4b69-bca5-ea52a228325b"},"vehicle_type_id":"4","last_reported":1705014430,"current_range_meters":7600,"station_id":"ce4bhr12rcd13ifvqhpg","pricing_plan_id":"free"},{"bike_id":"e811d7f8-3553-4b91-aaff-d2c2994a189c","system_id":"levelo_inurba_marseille","lat":43.299222,"lon":5.365554,"is_reserved":false,"is_disabled":false,"rental_uris":{"android":"levelo://app?vid=e811d7f8-3553-4b91-aaff-d2c2994a189c","ios":"levelo://app?vid=e811d7f8-3553-4b91-aaff-d2c2994a189c"},"vehicle_type_id":"4","last_reported":1705014430,"current_range_meters":14800,"station_id":"ce4bgm92rcd13ifvqbr0","pricing_plan_id":"free"},{"bike_id":"5562cc7c-6cce-461a-a59c-6005ad97066a","system_id":"levelo_inurba_marseille","lat":43.299724,"lon":5.371829,"is_reserved":false,"is_disabled":false,"rental_uris":{"android":"levelo://app?vid=5562cc7c-6cce-461a-a59c-6005ad97066a","ios":"levelo://app?vid=5562cc7c-6cce-461a-a59c-6005ad97066a"},"vehicle_type_id":"4","last_reported":1705014430,"current_range_meters":26000,"station_id":"ce4bgr92rcd13ifvqc7g","pricing_plan_id":"free"},{"bike_id":"ea9ad7bf-2551-4bdf-9adb-b3de7785ea05","system_id":"levelo_inurba_marseille","lat":43.299222,"lon":5.365554,"is_reserved":false,"is_disabled":false,"rental_uris":{"android":"levelo://app?vid=ea9ad7bf-2551-4bdf-9adb-b3de7785ea05","ios":"levelo://app?vid=ea9ad7bf-2551-4bdf-9adb-b3de7785ea05"},"vehicle_type_id":"4","last_reported":1705014430,"current_range_meters":16000,"station_id":"ce4bgm92rcd13ifvqbr0","pricing_plan_id":"free"},{"bike_id":"50440d49-4e89-4451-9de7-ece26f209864","system_id":"levelo_inurba_marseille","lat":43.299724,"lon":5.371829,"is_reserved":false,"is_disabled":false,"rental_uris":{"android":"levelo://app?vid=50440d49-4e89-4451-9de7-ece26f209864","ios":"levelo://app?vid=50440d49-4e89-4451-9de7-ece26f209864"},"vehicle_type_id":"4","last_reported":1705014430,"current_range_meters":26000,"station_id":"ce4bgr92rcd13ifvqc7g","pricing_plan_id":"free"},{"bike_id":"5e3ae350-92fc-4f1a-91e5-fca6c6157e9c","system_id":"levelo_inurba_marseille","lat":43.314305,"lon":5.385497,"is_reserved":false,"is_disabled":false,"rental_uris":{"android":"levelo://app?vid=5e3ae350-92fc-4f1a-91e5-fca6c6157e9c","ios":"levelo://app?vid=5e3ae350-92fc-4f1a-91e5-fca6c6157e9c"},"vehicle_type_id":"4","last_reported":1705014430,"current_range_meters":3200,"station_id":"","pricing_plan_id":"free"},{"bike_id":"65499324-5e7e-4cda-bf5a-ede6778faf9c","system_id":"levelo_inurba_marseille","lat":43.298452,"lon":5.36869,"is_reserved":false,"is_disabled":false,"rental_uris":{"android":"levelo://app?vid=65499324-5e7e-4cda-bf5a-ede6778faf9c","ios":"levelo://app?vid=65499324-5e7e-4cda-bf5a-ede6778faf9c"},"vehicle_type_id":"4","last_reported":1705014430,"current_range_meters":9200,"station_id":"","pricing_plan_id":"free"},{"bike_id":"69cef005-78eb-4e7c-bad4-cad455debd04","system_id":"levelo_inurba_marseille","lat":43.305364,"lon":5.384119,"is_reserved":false,"is_disabled":false,"rental_uris":{"android":"levelo://app?vid=69cef005-78eb-4e7c-bad4-cad455debd04","ios":"levelo://app?vid=69cef005-78eb-4e7c-bad4-cad455debd04"},"vehicle_type_id":"4","last_reported":1705014430,"current_range_meters":8400,"station_id":"ce4bgg92rcd13ifvqb30","pricing_plan_id":"free"},{"bike_id":"b9f31fcc-157f-47c3-9a17-866b6c3d7aa8","system_id":"levelo_inurba_marseille","lat":43.305364,"lon":5.384119,"is_reserved":false,"is_disabled":false,"rental_uris":{"android":"levelo://app?vid=b9f31fcc-157f-47c3-9a17-866b6c3d7aa8","ios":"levelo://app?vid=b9f31fcc-157f-47c3-9a17-866b6c3d7aa8"},"vehicle_type_id":"4","last_reported":1705014430,"current_range_meters":28800,"station_id":"ce4bgg92rcd13ifvqb30","pricing_plan_id":"free"},{"bike_id":"26d01d33-8a58-468b-8bd6-6aefc481a8e1","system_id":"levelo_inurba_marseille","lat":43.305364,"lon":5.384119,"is_reserved":false,"is_disabled":false,"rental_uris":{"android":"levelo://app?vid=26d01d33-8a58-468b-8bd6-6aefc481a8e1","ios":"levelo://app?vid=26d01d33-8a58-468b-8bd6-6aefc481a8e1"},"vehicle_type_id":"4","last_reported":1705014430,"current_range_meters":12400,"station_id":"ce4bgg92rcd13ifvqb30","pricing_plan_id":"free"},{"bike_id":"7b7fef9b-01e1-4aae-bf70-6c9eb8a0d1a5","system_id":"levelo_inurba_marseille","lat":43.299243,"lon":5.37481,"is_reserved":false,"is_disabled":false,"rental_uris":{"android":"levelo://app?vid=7b7fef9b-01e1-4aae-bf70-6c9eb8a0d1a5","ios":"levelo://app?vid=7b7fef9b-01e1-4aae-bf70-6c9eb8a0d1a5"},"vehicle_type_id":"4","last_reported":1705014430,"current_range_meters":24800,"station_id":"ce4bgjh2rcd13ifvqbg0","pricing_plan_id":"free"},{"bike_id":"668138ee-94e2-4962-bc73-018bb22197ce","system_id":"levelo_inurba_marseille","lat":43.29916,"lon":5.374655,"is_reserved":false,"is_disabled":false,"rental_uris":{"android":"levelo://app?vid=668138ee-94e2-4962-bc73-018bb22197ce","ios":"levelo://app?vid=668138ee-94e2-4962-bc73-018bb22197ce"},"vehicle_type_id":"4","last_reported":1705014430,"current_range_meters":21200,"station_id":"ce4bgjh2rcd13ifvqbg0","pricing_plan_id":"free"},{"bike_id":"3aacdc21-c857-4fb1-810b-49457bb8b2c2","system_id":"levelo_inurba_marseille","lat":43.311722,"lon":5.387247,"is_reserved":false,"is_disabled":false,"rental_uris":{"android":"levelo://app?vid=3aacdc21-c857-4fb1-810b-49457bb8b2c2","ios":"levelo://app?vid=3aacdc21-c857-4fb1-810b-49457bb8b2c2"},"vehicle_type_id":"4","last_reported":1705014430,"current_range_meters":26000,"station_id":"ce4bgv12rcd13ifvqcp0","pricing_plan_id":"free"},{"bike_id":"75ec1a86-c06e-470b-b392-604d0de5ebeb","system_id":"levelo_inurba_marseille","lat":43.311722,"lon":5.387247,"is_reserved":false,"is_disabled":false,"rental_uris":{"android":"levelo://app?vid=75ec1a86-c06e-470b-b392-604d0de5ebeb","ios":"levelo://app?vid=75ec1a86-c06e-470b-b392-604d0de5ebeb"},"vehicle_type_id":"4","last_reported":1705014430,"current_range_meters":26400,"station_id":"ce4bgv12rcd13ifvqcp0","pricing_plan_id":"free"},{"bike_id":"da9e9946-97ac-422e-95cb-a02ee9be52a3","system_id":"levelo_inurba_marseille","lat":43.311722,"lon":5.387247,"is_reserved":false,"is_disabled":false,"rental_uris":{"android":"levelo://app?vid=da9e9946-97ac-422e-95cb-a02ee9be52a3","ios":"levelo://app?vid=da9e9946-97ac-422e-95cb-a02ee9be52a3"},"vehicle_type_id":"4","last_reported":1705014430,"current_range_meters":28000,"station_id":"ce4bgv12rcd13ifvqcp0","pricing_plan_id":"free"},{"bike_id":"5e01a24b-09a2-4c19-bc60-88976fa87786","system_id":"levelo_inurba_marseille","lat":43.297794,"lon":5.370888,"is_reserved":false,"is_disabled":false,"rental_uris":{"android":"levelo://app?vid=5e01a24b-09a2-4c19-bc60-88976fa87786","ios":"levelo://app?vid=5e01a24b-09a2-4c19-bc60-88976fa87786"},"vehicle_type_id":"4","last_reported":1705014430,"current_range_meters":14000,"station_id":"ce4bgop2rcd13ifvqc1g","pricing_plan_id":"free"},{"bike_id":"6d95efd6-ce82-4d62-a346-5901c9d56ee4","system_id":"levelo_inurba_marseille","lat":43.32291,"lon":5.38258,"is_reserved":false,"is_disabled":false,"rental_uris":{"android":"levelo://app?vid=6d95efd6-ce82-4d62-a346-5901c9d56ee4","ios":"levelo://app?vid=6d95efd6-ce82-4d62-a346-5901c9d56ee4"},"vehicle_type_id":"4","last_reported":1705014430,"current_range_meters":11200,"station_id":"ce4bhr12rcd13ifvqhqg","pricing_plan_id":"free"},{"bike_id":"8aa9446f-04a1-44b2-bc1a-70577ab3021a","system_id":"levelo_inurba_marseille","lat":43.322887,"lon":5.382649,"is_reserved":false,"is_disabled":false,"rental_uris":{"android":"levelo://app?vid=8aa9446f-04a1-44b2-bc1a-70577ab3021a","ios":"levelo://app?vid=8aa9446f-04a1-44b2-bc1a-70577ab3021a"},"vehicle_type_id":"4","last_reported":1705014430,"current_range_meters":31200,"station_id":"ce4bhr12rcd13ifvqhqg","pricing_plan_id":"free"},{"bike_id":"37230247-9ff4-43f8-976c-bfd885c364cc","system_id":"levelo_inurba_marseille","lat":43.322896,"lon":5.382649,"is_reserved":false,"is_disabled":false,"rental_uris":{"android":"levelo://app?vid=37230247-9ff4-43f8-976c-bfd885c364cc","ios":"levelo://app?vid=37230247-9ff4-43f8-976c-bfd885c364cc"},"vehicle_type_id":"4","last_reported":1705014430,"current_range_meters":31200,"station_id":"ce4bhr12rcd13ifvqhqg","pricing_plan_id":"free"},{"bike_id":"d34bb2bd-a70a-48c3-b1e3-fddaf76c231e","system_id":"levelo_inurba_marseille","lat":43.32287,"lon":5.38269,"is_reserved":false,"is_disabled":false,"rental_uris":{"android":"levelo://app?vid=d34bb2bd-a70a-48c3-b1e3-fddaf76c231e","ios":"levelo://app?vid=d34bb2bd-a70a-48c3-b1e3-fddaf76c231e"},"vehicle_type_id":"4","last_reported":1705014430,"current_range_meters":14800,"station_id":"ce4bhr12rcd13ifvqhqg","pricing_plan_id":"free"},{"bike_id":"c0c847ea-83f0-4e06-9678-e7646050a3c7","system_id":"levelo_inurba_marseille","lat":43.32292,"lon":5.38264,"is_reserved":false,"is_disabled":false,"rental_uris":{"android":"levelo://app?vid=c0c847ea-83f0-4e06-9678-e7646050a3c7","ios":"levelo://app?vid=c0c847ea-83f0-4e06-9678-e7646050a3c7"},"vehicle_type_id":"4","last_reported":1705014430,"current_range_meters":31200,"station_id":"ce4bhr12rcd13ifvqhqg","pricing_plan_id":"free"},{"bike_id":"b776e6d9-9dba-4c26-99a6-55a777e3bc47","system_id":"levelo_inurba_marseille","lat":43.322946,"lon":5.382621,"is_reserved":false,"is_disabled":false,"rental_uris":{"android":"levelo://app?vid=b776e6d9-9dba-4c26-99a6-55a777e3bc47","ios":"levelo://app?vid=b776e6d9-9dba-4c26-99a6-55a777e3bc47"},"vehicle_type_id":"4","last_reported":1705014430,"current_range_meters":20800,"station_id":"ce4bhr12rcd13ifvqhqg","pricing_plan_id":"free"},{"bike_id":"1229937f-b15f-4120-8710-32f074f3579a","system_id":"levelo_inurba_marseille","lat":43.322902,"lon":5.382712,"is_reserved":false,"is_disabled":false,"rental_uris":{"android":"levelo://app?vid=1229937f-b15f-4120-8710-32f074f3579a","ios":"levelo://app?vid=1229937f-b15f-4120-8710-32f074f3579a"},"vehicle_type_id":"4","last_reported":1705014430,"current_range_meters":31200,"station_id":"ce4bhr12rcd13ifvqhqg","pricing_plan_id":"free"},{"bike_id":"ec735675-fa6a-448c-98b7-d9fbcd2cec5b","system_id":"levelo_inurba_marseille","lat":43.322899,"lon":5.382752,"is_reserved":false,"is_disabled":false,"rental_uris":{"android":"levelo://app?vid=ec735675-fa6a-448c-98b7-d9fbcd2cec5b","ios":"levelo://app?vid=ec735675-fa6a-448c-98b7-d9fbcd2cec5b"},"vehicle_type_id":"4","last_reported":1705014430,"current_range_meters":9600,"station_id":"ce4bhr12rcd13ifvqhqg","pricing_plan_id":"free"},{"bike_id":"a70069dc-f773-452d-9d3a-320d0014d11e","system_id":"levelo_inurba_marseille","lat":43.328253,"lon":5.366786,"is_reserved":false,"is_disabled":false,"rental_uris":{"android":"levelo://app?vid=a70069dc-f773-452d-9d3a-320d0014d11e","ios":"levelo://app?vid=a70069dc-f773-452d-9d3a-320d0014d11e"},"vehicle_type_id":"4","last_reported":1705014430,"current_range_meters":12000,"station_id":"ce4bhs92rcd13ifvqi0g","pricing_plan_id":"free"},{"bike_id":"b417e045-2acd-45ab-8543-5d87cc32d878","system_id":"levelo_inurba_marseille","lat":43.328268,"lon":5.366794,"is_reserved":false,"is_disabled":false,"rental_uris":{"android":"levelo://app?vid=b417e045-2acd-45ab-8543-5d87cc32d878","ios":"levelo://app?vid=b417e045-2acd-45ab-8543-5d87cc32d878"},"vehicle_type_id":"4","last_reported":1705014430,"current_range_meters":23600,"station_id":"ce4bhs92rcd13ifvqi0g","pricing_plan_id":"free"},{"bike_id":"331410e4-8362-40e5-8b58-6a53f46a25bd","system_id":"levelo_inurba_marseille","lat":43.328289,"lon":5.366763,"is_reserved":false,"is_disabled":false,"rental_uris":{"android":"levelo://app?vid=331410e4-8362-40e5-8b58-6a53f46a25bd","ios":"levelo://app?vid=331410e4-8362-40e5-8b58-6a53f46a25bd"},"vehicle_type_id":"4","last_reported":1705014430,"current_range_meters":26000,"station_id":"ce4bhs92rcd13ifvqi0g","pricing_plan_id":"free"},{"bike_id":"d68ce626-ef98-4d52-b3b3-f34d703a806b","system_id":"levelo_inurba_marseille","lat":43.328293,"lon":5.366841,"is_reserved":false,"is_disabled":false,"rental_uris":{"android":"levelo://app?vid=d68ce626-ef98-4d52-b3b3-f34d703a806b","ios":"levelo://app?vid=d68ce626-ef98-4d52-b3b3-f34d703a806b"},"vehicle_type_id":"4","last_reported":1705014430,"current_range_meters":15600,"station_id":"ce4bhs92rcd13ifvqi0g","pricing_plan_id":"free"},{"bike_id":"0c003f15-986d-43ea-8c65-9cfd489b722b","system_id":"levelo_inurba_marseille","lat":43.328319,"lon":5.36683,"is_reserved":false,"is_disabled":false,"rental_uris":{"android":"levelo://app?vid=0c003f15-986d-43ea-8c65-9cfd489b722b","ios":"levelo://app?vid=0c003f15-986d-43ea-8c65-9cfd489b722b"},"vehicle_type_id":"4","last_reported":1705014430,"current_range_meters":15600,"station_id":"ce4bhs92rcd13ifvqi0g","pricing_plan_id":"free"},{"bike_id":"91beac0c-5342-4ba9-b2ae-fa150ae97e25","system_id":"levelo_inurba_marseille","lat":43.32832,"lon":5.36692,"is_reserved":false,"is_disabled":false,"rental_uris":{"android":"levelo://app?vid=91beac0c-5342-4ba9-b2ae-fa150ae97e25","ios":"levelo://app?vid=91beac0c-5342-4ba9-b2ae-fa150ae97e25"},"vehicle_type_id":"4","last_reported":1705014430,"current_range_meters":30000,"station_id":"ce4bhs92rcd13ifvqi0g","pricing_plan_id":"free"},{"bike_id":"fb45f142-a2e6-4b54-b6fd-5660ca2c1fe5","system_id":"levelo_inurba_marseille","lat":43.328321,"lon":5.36674,"is_reserved":false,"is_disabled":false,"rental_uris":{"android":"levelo://app?vid=fb45f142-a2e6-4b54-b6fd-5660ca2c1fe5","ios":"levelo://app?vid=fb45f142-a2e6-4b54-b6fd-5660ca2c1fe5"},"vehicle_type_id":"4","last_reported":1705014430,"current_range_meters":16800,"station_id":"ce4bhs92rcd13ifvqi0g","pricing_plan_id":"free"},{"bike_id":"1f1a5220-6426-49f4-89de-c9c79ed6428d","system_id":"levelo_inurba_marseille","lat":43.328329,"lon":5.366781,"is_reserved":false,"is_disabled":false,"rental_uris":{"android":"levelo://app?vid=1f1a5220-6426-49f4-89de-c9c79ed6428d","ios":"levelo://app?vid=1f1a5220-6426-49f4-89de-c9c79ed6428d"},"vehicle_type_id":"4","last_reported":1705014430,"current_range_meters":25600,"station_id":"ce4bhs92rcd13ifvqi0g","pricing_plan_id":"free"},{"bike_id":"3b3857db-c920-481d-a8c6-c5d7d6a8c28e","system_id":"levelo_inurba_marseille","lat":43.297163,"lon":5.365866,"is_reserved":false,"is_disabled":false,"rental_uris":{"android":"levelo://app?vid=3b3857db-c920-481d-a8c6-c5d7d6a8c28e","ios":"levelo://app?vid=3b3857db-c920-481d-a8c6-c5d7d6a8c28e"},"vehicle_type_id":"4","last_reported":1705014430,"current_range_meters":28000,"station_id":"ce4bgn12rcd13ifvqbt0","pricing_plan_id":"free"},{"bike_id":"437f8ab5-f414-4b3e-9fde-cf34495ac53d","system_id":"levelo_inurba_marseille","lat":43.328373,"lon":5.366902,"is_reserved":false,"is_disabled":false,"rental_uris":{"android":"levelo://app?vid=437f8ab5-f414-4b3e-9fde-cf34495ac53d","ios":"levelo://app?vid=437f8ab5-f414-4b3e-9fde-cf34495ac53d"},"vehicle_type_id":"4","last_reported":1705014430,"current_range_meters":20800,"station_id":"ce4bhs92rcd13ifvqi0g","pricing_plan_id":"free"},{"bike_id":"30f8693f-6be0-48b2-9028-bcba9d6c72a0","system_id":"levelo_inurba_marseille","lat":43.328373,"lon":5.366791,"is_reserved":false,"is_disabled":false,"rental_uris":{"android":"levelo://app?vid=30f8693f-6be0-48b2-9028-bcba9d6c72a0","ios":"levelo://app?vid=30f8693f-6be0-48b2-9028-bcba9d6c72a0"},"vehicle_type_id":"4","last_reported":1705014430,"current_range_meters":28800,"station_id":"ce4bhs92rcd13ifvqi0g","pricing_plan_id":"free"},{"bike_id":"096e4b5c-c4bd-4912-949a-da870d21a6e6","system_id":"levelo_inurba_marseille","lat":43.297163,"lon":5.365866,"is_reserved":false,"is_disabled":false,"rental_uris":{"android":"levelo://app?vid=096e4b5c-c4bd-4912-949a-da870d21a6e6","ios":"levelo://app?vid=096e4b5c-c4bd-4912-949a-da870d21a6e6"},"vehicle_type_id":"4","last_reported":1705014430,"current_range_meters":6400,"station_id":"ce4bgn12rcd13ifvqbt0","pricing_plan_id":"free"},{"bike_id":"45eee4bd-6800-43d9-acf2-6485fca420f1","system_id":"levelo_inurba_marseille","lat":43.2963,"lon":5.36784,"is_reserved":false,"is_disabled":false,"rental_uris":{"android":"levelo://app?vid=45eee4bd-6800-43d9-acf2-6485fca420f1","ios":"levelo://app?vid=45eee4bd-6800-43d9-acf2-6485fca420f1"},"vehicle_type_id":"4","last_reported":1705014430,"current_range_meters":17200,"station_id":"","pricing_plan_id":"free"},{"bike_id":"0e21c0e1-cd91-41f5-a668-23429ce9066e","system_id":"levelo_inurba_marseille","lat":43.296801,"lon":5.372822,"is_reserved":false,"is_disabled":false,"rental_uris":{"android":"levelo://app?vid=0e21c0e1-cd91-41f5-a668-23429ce9066e","ios":"levelo://app?vid=0e21c0e1-cd91-41f5-a668-23429ce9066e"},"vehicle_type_id":"4","last_reported":1705014430,"current_range_meters":6000,"station_id":"","pricing_plan_id":"free"},{"bike_id":"fe43db60-cdd1-43af-a6a5-9d1f17e9b80c","system_id":"levelo_inurba_marseille","lat":43.296131,"lon":5.370791,"is_reserved":false,"is_disabled":false,"rental_uris":{"android":"levelo://app?vid=fe43db60-cdd1-43af-a6a5-9d1f17e9b80c","ios":"levelo://app?vid=fe43db60-cdd1-43af-a6a5-9d1f17e9b80c"},"vehicle_type_id":"4","last_reported":1705014430,"current_range_meters":28800,"station_id":"ce4bgnh2rcd13ifvqc0g","pricing_plan_id":"free"},{"bike_id":"b9470094-4555-4f89-9bb3-8b648ab442a3","system_id":"levelo_inurba_marseille","lat":43.299202,"lon":5.381513,"is_reserved":false,"is_disabled":false,"rental_uris":{"android":"levelo://app?vid=b9470094-4555-4f89-9bb3-8b648ab442a3","ios":"levelo://app?vid=b9470094-4555-4f89-9bb3-8b648ab442a3"},"vehicle_type_id":"4","last_reported":1705014430,"current_range_meters":8800,"station_id":"","pricing_plan_id":"free"},{"bike_id":"9e66a7f2-60e2-4387-af62-4cd9cd269854","system_id":"levelo_inurba_marseille","lat":43.309589,"lon":5.390258,"is_reserved":false,"is_disabled":false,"rental_uris":{"android":"levelo://app?vid=9e66a7f2-60e2-4387-af62-4cd9cd269854","ios":"levelo://app?vid=9e66a7f2-60e2-4387-af62-4cd9cd269854"},"vehicle_type_id":"4","last_reported":1705014430,"current_range_meters":24000,"station_id":"ce4bgup2rcd13ifvqco0","pricing_plan_id":"free"},{"bike_id":"c4e62a7b-ae87-42fc-aba1-c80ab5d9ffe2","system_id":"levelo_inurba_marseille","lat":43.309589,"lon":5.390258,"is_reserved":false,"is_disabled":false,"rental_uris":{"android":"levelo://app?vid=c4e62a7b-ae87-42fc-aba1-c80ab5d9ffe2","ios":"levelo://app?vid=c4e62a7b-ae87-42fc-aba1-c80ab5d9ffe2"},"vehicle_type_id":"4","last_reported":1705014430,"current_range_meters":30400,"station_id":"ce4bgup2rcd13ifvqco0","pricing_plan_id":"free"},{"bike_id":"28d9533a-d0a0-487f-b7ea-1cb5455bbf21","system_id":"levelo_inurba_marseille","lat":43.309589,"lon":5.390258,"is_reserved":false,"is_disabled":false,"rental_uris":{"android":"levelo://app?vid=28d9533a-d0a0-487f-b7ea-1cb5455bbf21","ios":"levelo://app?vid=28d9533a-d0a0-487f-b7ea-1cb5455bbf21"},"vehicle_type_id":"4","last_reported":1705014430,"current_range_meters":29200,"station_id":"ce4bgup2rcd13ifvqco0","pricing_plan_id":"free"},{"bike_id":"d75b03a0-d61d-4fed-907b-303045a7ba7c","system_id":"levelo_inurba_marseille","lat":43.317557,"lon":5.390173,"is_reserved":false,"is_disabled":false,"rental_uris":{"android":"levelo://app?vid=d75b03a0-d61d-4fed-907b-303045a7ba7c","ios":"levelo://app?vid=d75b03a0-d61d-4fed-907b-303045a7ba7c"},"vehicle_type_id":"4","last_reported":1705014430,"current_range_meters":22000,"station_id":"ce4bhqp2rcd13ifvqhng","pricing_plan_id":"free"},{"bike_id":"c9df60c9-08ba-48cd-a42f-ecd6c080137f","system_id":"levelo_inurba_marseille","lat":43.317557,"lon":5.390173,"is_reserved":false,"is_disabled":false,"rental_uris":{"android":"levelo://app?vid=c9df60c9-08ba-48cd-a42f-ecd6c080137f","ios":"levelo://app?vid=c9df60c9-08ba-48cd-a42f-ecd6c080137f"},"vehicle_type_id":"4","last_reported":1705014430,"current_range_meters":31200,"station_id":"ce4bhqp2rcd13ifvqhng","pricing_plan_id":"free"},{"bike_id":"3ea2cd3f-08fa-40c7-ad1f-a29e75d736c7","system_id":"levelo_inurba_marseille","lat":43.317563,"lon":5.390139,"is_reserved":false,"is_disabled":false,"rental_uris":{"android":"levelo://app?vid=3ea2cd3f-08fa-40c7-ad1f-a29e75d736c7","ios":"levelo://app?vid=3ea2cd3f-08fa-40c7-ad1f-a29e75d736c7"},"vehicle_type_id":"4","last_reported":1705014430,"current_range_meters":18400,"station_id":"ce4bhqp2rcd13ifvqhng","pricing_plan_id":"free"},{"bike_id":"1637c144-f338-4b11-bfd0-96dd66b02d79","system_id":"levelo_inurba_marseille","lat":43.31758,"lon":5.39019,"is_reserved":false,"is_disabled":false,"rental_uris":{"android":"levelo://app?vid=1637c144-f338-4b11-bfd0-96dd66b02d79","ios":"levelo://app?vid=1637c144-f338-4b11-bfd0-96dd66b02d79"},"vehicle_type_id":"4","last_reported":1705014430,"current_range_meters":6000,"station_id":"ce4bhqp2rcd13ifvqhng","pricing_plan_id":"free"},{"bike_id":"1b74400c-e6ee-4f90-91ec-87e0c680ac50","system_id":"levelo_inurba_marseille","lat":43.31761,"lon":5.39018,"is_reserved":false,"is_disabled":false,"rental_uris":{"android":"levelo://app?vid=1b74400c-e6ee-4f90-91ec-87e0c680ac50","ios":"levelo://app?vid=1b74400c-e6ee-4f90-91ec-87e0c680ac50"},"vehicle_type_id":"4","last_reported":1705014430,"current_range_meters":27200,"station_id":"ce4bhqp2rcd13ifvqhng","pricing_plan_id":"free"},{"bike_id":"9d346b09-5af8-4b92-889f-7f17d9ee1bb1","system_id":"levelo_inurba_marseille","lat":43.304278,"lon":5.388868,"is_reserved":false,"is_disabled":false,"rental_uris":{"android":"levelo://app?vid=9d346b09-5af8-4b92-889f-7f17d9ee1bb1","ios":"levelo://app?vid=9d346b09-5af8-4b92-889f-7f17d9ee1bb1"},"vehicle_type_id":"4","last_reported":1705014430,"current_range_meters":28400,"station_id":"ce4bgk12rcd13ifvqbi0","pricing_plan_id":"free"},{"bike_id":"41cca567-f44b-49e8-a4a8-a85c957d34c9","system_id":"levelo_inurba_marseille","lat":43.299028,"lon":5.381509,"is_reserved":false,"is_disabled":false,"rental_uris":{"android":"levelo://app?vid=41cca567-f44b-49e8-a4a8-a85c957d34c9","ios":"levelo://app?vid=41cca567-f44b-49e8-a4a8-a85c957d34c9"},"vehicle_type_id":"4","last_reported":1705014430,"current_range_meters":17200,"station_id":"ce4bgj12rcd13ifvqbc0","pricing_plan_id":"free"},{"bike_id":"1acd403c-7a41-426f-a1fb-26c8fd6d822e","system_id":"levelo_inurba_marseille","lat":43.304274,"lon":5.388873,"is_reserved":false,"is_disabled":false,"rental_uris":{"android":"levelo://app?vid=1acd403c-7a41-426f-a1fb-26c8fd6d822e","ios":"levelo://app?vid=1acd403c-7a41-426f-a1fb-26c8fd6d822e"},"vehicle_type_id":"4","last_reported":1705014430,"current_range_meters":13200,"station_id":"ce4bgk12rcd13ifvqbi0","pricing_plan_id":"free"},{"bike_id":"de12157c-940a-4016-bb4c-1f075c973d25","system_id":"levelo_inurba_marseille","lat":43.304278,"lon":5.388868,"is_reserved":false,"is_disabled":false,"rental_uris":{"android":"levelo://app?vid=de12157c-940a-4016-bb4c-1f075c973d25","ios":"levelo://app?vid=de12157c-940a-4016-bb4c-1f075c973d25"},"vehicle_type_id":"4","last_reported":1705014430,"current_range_meters":16000,"station_id":"ce4bgk12rcd13ifvqbi0","pricing_plan_id":"free"},{"bike_id":"5600bb5f-408d-42f1-a630-8cc22ba6cf19","system_id":"levelo_inurba_marseille","lat":43.2954,"lon":5.37503,"is_reserved":false,"is_disabled":false,"rental_uris":{"android":"levelo://app?vid=5600bb5f-408d-42f1-a630-8cc22ba6cf19","ios":"levelo://app?vid=5600bb5f-408d-42f1-a630-8cc22ba6cf19"},"vehicle_type_id":"4","last_reported":1705014430,"current_range_meters":8000,"station_id":"ce4bgkp2rcd13ifvqbmg","pricing_plan_id":"free"},{"bike_id":"81a59249-5c40-4fda-8d0e-8d4dcbb7a6f6","system_id":"levelo_inurba_marseille","lat":43.299701,"lon":5.384899,"is_reserved":false,"is_disabled":false,"rental_uris":{"android":"levelo://app?vid=81a59249-5c40-4fda-8d0e-8d4dcbb7a6f6","ios":"levelo://app?vid=81a59249-5c40-4fda-8d0e-8d4dcbb7a6f6"},"vehicle_type_id":"4","last_reported":1705014430,"current_range_meters":0,"station_id":"ce4bgj92rcd13ifvqbd0","pricing_plan_id":"free"},{"bike_id":"461a638b-a6da-4047-87ea-fd705c1d22f0","system_id":"levelo_inurba_marseille","lat":43.299724,"lon":5.384848,"is_reserved":false,"is_disabled":false,"rental_uris":{"android":"levelo://app?vid=461a638b-a6da-4047-87ea-fd705c1d22f0","ios":"levelo://app?vid=461a638b-a6da-4047-87ea-fd705c1d22f0"},"vehicle_type_id":"4","last_reported":1705014430,"current_range_meters":8000,"station_id":"ce4bgj92rcd13ifvqbd0","pricing_plan_id":"free"},{"bike_id":"f7c553dd-d160-48b6-8629-37e3fea6fdcb","system_id":"levelo_inurba_marseille","lat":43.299724,"lon":5.384848,"is_reserved":false,"is_disabled":false,"rental_uris":{"android":"levelo://app?vid=f7c553dd-d160-48b6-8629-37e3fea6fdcb","ios":"levelo://app?vid=f7c553dd-d160-48b6-8629-37e3fea6fdcb"},"vehicle_type_id":"4","last_reported":1705014430,"current_range_meters":5200,"station_id":"ce4bgj92rcd13ifvqbd0","pricing_plan_id":"free"},{"bike_id":"bea09ad7-eace-4f78-ba11-e0074d0bc3e4","system_id":"levelo_inurba_marseille","lat":43.299724,"lon":5.384848,"is_reserved":false,"is_disabled":false,"rental_uris":{"android":"levelo://app?vid=bea09ad7-eace-4f78-ba11-e0074d0bc3e4","ios":"levelo://app?vid=bea09ad7-eace-4f78-ba11-e0074d0bc3e4"},"vehicle_type_id":"4","last_reported":1705014430,"current_range_meters":13200,"station_id":"ce4bgj92rcd13ifvqbd0","pricing_plan_id":"free"},{"bike_id":"2933aa03-90cf-4689-8134-0fa00ae7ed61","system_id":"levelo_inurba_marseille","lat":43.299724,"lon":5.384848,"is_reserved":false,"is_disabled":false,"rental_uris":{"android":"levelo://app?vid=2933aa03-90cf-4689-8134-0fa00ae7ed61","ios":"levelo://app?vid=2933aa03-90cf-4689-8134-0fa00ae7ed61"},"vehicle_type_id":"4","last_reported":1705014430,"current_range_meters":24000,"station_id":"ce4bgj92rcd13ifvqbd0","pricing_plan_id":"free"},{"bike_id":"38fb15e2-97fd-4f68-ae2d-4c0fe510a864","system_id":"levelo_inurba_marseille","lat":43.323674,"lon":5.388647,"is_reserved":false,"is_disabled":false,"rental_uris":{"android":"levelo://app?vid=38fb15e2-97fd-4f68-ae2d-4c0fe510a864","ios":"levelo://app?vid=38fb15e2-97fd-4f68-ae2d-4c0fe510a864"},"vehicle_type_id":"4","last_reported":1705014430,"current_range_meters":20400,"station_id":"ce4bhqp2rcd13ifvqhog","pricing_plan_id":"free"},{"bike_id":"cafe7be7-3bdd-4002-988b-fcafc6455e75","system_id":"levelo_inurba_marseille","lat":43.32355,"lon":5.38882,"is_reserved":false,"is_disabled":false,"rental_uris":{"android":"levelo://app?vid=cafe7be7-3bdd-4002-988b-fcafc6455e75","ios":"levelo://app?vid=cafe7be7-3bdd-4002-988b-fcafc6455e75"},"vehicle_type_id":"4","last_reported":1705014430,"current_range_meters":15200,"station_id":"ce4bhqp2rcd13ifvqhog","pricing_plan_id":"free"},{"bike_id":"c7855a59-39c1-4341-9257-1f0a6e40a20a","system_id":"levelo_inurba_marseille","lat":43.32364,"lon":5.3888,"is_reserved":false,"is_disabled":false,"rental_uris":{"android":"levelo://app?vid=c7855a59-39c1-4341-9257-1f0a6e40a20a","ios":"levelo://app?vid=c7855a59-39c1-4341-9257-1f0a6e40a20a"},"vehicle_type_id":"4","last_reported":1705014430,"current_range_meters":10000,"station_id":"ce4bhqp2rcd13ifvqhog","pricing_plan_id":"free"},{"bike_id":"53bcccdd-f8f4-4713-a7f0-5bfceffa3b71","system_id":"levelo_inurba_marseille","lat":43.323647,"lon":5.3888,"is_reserved":false,"is_disabled":false,"rental_uris":{"android":"levelo://app?vid=53bcccdd-f8f4-4713-a7f0-5bfceffa3b71","ios":"levelo://app?vid=53bcccdd-f8f4-4713-a7f0-5bfceffa3b71"},"vehicle_type_id":"4","last_reported":1705014430,"current_range_meters":24800,"station_id":"ce4bhqp2rcd13ifvqhog","pricing_plan_id":"free"},{"bike_id":"7e580150-bd0b-4a1a-875d-47b1e3305f6a","system_id":"levelo_inurba_marseille","lat":43.32367,"lon":5.38878,"is_reserved":false,"is_disabled":false,"rental_uris":{"android":"levelo://app?vid=7e580150-bd0b-4a1a-875d-47b1e3305f6a","ios":"levelo://app?vid=7e580150-bd0b-4a1a-875d-47b1e3305f6a"},"vehicle_type_id":"4","last_reported":1705014430,"current_range_meters":12400,"station_id":"ce4bhqp2rcd13ifvqhog","pricing_plan_id":"free"},{"bike_id":"556a4a10-46c7-4faa-a5cd-846a5cf46bed","system_id":"levelo_inurba_marseille","lat":43.32367,"lon":5.388836,"is_reserved":false,"is_disabled":false,"rental_uris":{"android":"levelo://app?vid=556a4a10-46c7-4faa-a5cd-846a5cf46bed","ios":"levelo://app?vid=556a4a10-46c7-4faa-a5cd-846a5cf46bed"},"vehicle_type_id":"4","last_reported":1705014430,"current_range_meters":26800,"station_id":"ce4bhqp2rcd13ifvqhog","pricing_plan_id":"free"},{"bike_id":"83466757-55a1-43f3-ad37-0db2fa94c736","system_id":"levelo_inurba_marseille","lat":43.32367,"lon":5.388836,"is_reserved":false,"is_disabled":false,"rental_uris":{"android":"levelo://app?vid=83466757-55a1-43f3-ad37-0db2fa94c736","ios":"levelo://app?vid=83466757-55a1-43f3-ad37-0db2fa94c736"},"vehicle_type_id":"4","last_reported":1705014430,"current_range_meters":21200,"station_id":"ce4bhqp2rcd13ifvqhog","pricing_plan_id":"free"},{"bike_id":"0ab7a87b-f568-4965-a7d5-d547f8364640","system_id":"levelo_inurba_marseille","lat":43.323644,"lon":5.388843,"is_reserved":false,"is_disabled":false,"rental_uris":{"android":"levelo://app?vid=0ab7a87b-f568-4965-a7d5-d547f8364640","ios":"levelo://app?vid=0ab7a87b-f568-4965-a7d5-d547f8364640"},"vehicle_type_id":"4","last_reported":1705014430,"current_range_meters":7600,"station_id":"ce4bhqp2rcd13ifvqhog","pricing_plan_id":"free"},{"bike_id":"f55626cd-73aa-41d5-9dcf-17d57783f5b6","system_id":"levelo_inurba_marseille","lat":43.32367,"lon":5.388836,"is_reserved":false,"is_disabled":false,"rental_uris":{"android":"levelo://app?vid=f55626cd-73aa-41d5-9dcf-17d57783f5b6","ios":"levelo://app?vid=f55626cd-73aa-41d5-9dcf-17d57783f5b6"},"vehicle_type_id":"4","last_reported":1705014430,"current_range_meters":14400,"station_id":"ce4bhqp2rcd13ifvqhog","pricing_plan_id":"free"},{"bike_id":"40e07e0c-b6c8-4e9c-a7b5-6e0aeb4d75a1","system_id":"levelo_inurba_marseille","lat":43.32368,"lon":5.38883,"is_reserved":false,"is_disabled":false,"rental_uris":{"android":"levelo://app?vid=40e07e0c-b6c8-4e9c-a7b5-6e0aeb4d75a1","ios":"levelo://app?vid=40e07e0c-b6c8-4e9c-a7b5-6e0aeb4d75a1"},"vehicle_type_id":"4","last_reported":1705014430,"current_range_meters":8000,"station_id":"ce4bhqp2rcd13ifvqhog","pricing_plan_id":"free"},{"bike_id":"a543be44-eb65-4189-aa5a-bf347333dea9","system_id":"levelo_inurba_marseille","lat":43.32367,"lon":5.388836,"is_reserved":false,"is_disabled":false,"rental_uris":{"android":"levelo://app?vid=a543be44-eb65-4189-aa5a-bf347333dea9","ios":"levelo://app?vid=a543be44-eb65-4189-aa5a-bf347333dea9"},"vehicle_type_id":"4","last_reported":1705014430,"current_range_meters":27600,"station_id":"ce4bhqp2rcd13ifvqhog","pricing_plan_id":"free"},{"bike_id":"5b7ef1a3-a12c-4144-815b-274e83c02169","system_id":"levelo_inurba_marseille","lat":43.32367,"lon":5.388836,"is_reserved":false,"is_disabled":false,"rental_uris":{"android":"levelo://app?vid=5b7ef1a3-a12c-4144-815b-274e83c02169","ios":"levelo://app?vid=5b7ef1a3-a12c-4144-815b-274e83c02169"},"vehicle_type_id":"4","last_reported":1705014430,"current_range_meters":12800,"station_id":"ce4bhqp2rcd13ifvqhog","pricing_plan_id":"free"},{"bike_id":"c3a0e0f4-70f3-4148-a4a3-3a67bb3cce5d","system_id":"levelo_inurba_marseille","lat":43.29602,"lon":5.381084,"is_reserved":false,"is_disabled":false,"rental_uris":{"android":"levelo://app?vid=c3a0e0f4-70f3-4148-a4a3-3a67bb3cce5d","ios":"levelo://app?vid=c3a0e0f4-70f3-4148-a4a3-3a67bb3cce5d"},"vehicle_type_id":"4","last_reported":1705014430,"current_range_meters":20800,"station_id":"ce4bgl12rcd13ifvqbo0","pricing_plan_id":"free"},{"bike_id":"ae599fb6-c754-4ab6-9592-2bedcbce796b","system_id":"levelo_inurba_marseille","lat":43.293259,"lon":5.371586,"is_reserved":false,"is_disabled":false,"rental_uris":{"android":"levelo://app?vid=ae599fb6-c754-4ab6-9592-2bedcbce796b","ios":"levelo://app?vid=ae599fb6-c754-4ab6-9592-2bedcbce796b"},"vehicle_type_id":"4","last_reported":1705014430,"current_range_meters":24800,"station_id":"ce4bgh92rcd13ifvqb40","pricing_plan_id":"free"},{"bike_id":"145eee12-27cf-4515-bbd2-cda00d7f6fc0","system_id":"levelo_inurba_marseille","lat":43.29274,"lon":5.36842,"is_reserved":false,"is_disabled":false,"rental_uris":{"android":"levelo://app?vid=145eee12-27cf-4515-bbd2-cda00d7f6fc0","ios":"levelo://app?vid=145eee12-27cf-4515-bbd2-cda00d7f6fc0"},"vehicle_type_id":"4","last_reported":1705014430,"current_range_meters":22400,"station_id":"ce4bhbp2rcd13ifvqesg","pricing_plan_id":"free"},{"bike_id":"c67773d6-38a2-496b-9fb2-0ceaadbdc1aa","system_id":"levelo_inurba_marseille","lat":43.305994,"lon":5.393687,"is_reserved":false,"is_disabled":false,"rental_uris":{"android":"levelo://app?vid=c67773d6-38a2-496b-9fb2-0ceaadbdc1aa","ios":"levelo://app?vid=c67773d6-38a2-496b-9fb2-0ceaadbdc1aa"},"vehicle_type_id":"4","last_reported":1705014430,"current_range_meters":22400,"station_id":"ce4bh0p2rcd13ifvqd80","pricing_plan_id":"free"},{"bike_id":"106804a6-8971-458d-b751-e9765ca4d32b","system_id":"levelo_inurba_marseille","lat":43.293009,"lon":5.374584,"is_reserved":false,"is_disabled":false,"rental_uris":{"android":"levelo://app?vid=106804a6-8971-458d-b751-e9765ca4d32b","ios":"levelo://app?vid=106804a6-8971-458d-b751-e9765ca4d32b"},"vehicle_type_id":"4","last_reported":1705014430,"current_range_meters":16400,"station_id":"ce4bgi12rcd13ifvqb70","pricing_plan_id":"free"},{"bike_id":"eeb154be-da50-44fd-9921-17ef7b66409a","system_id":"levelo_inurba_marseille","lat":43.303002,"lon":5.392142,"is_reserved":false,"is_disabled":false,"rental_uris":{"android":"levelo://app?vid=eeb154be-da50-44fd-9921-17ef7b66409a","ios":"levelo://app?vid=eeb154be-da50-44fd-9921-17ef7b66409a"},"vehicle_type_id":"4","last_reported":1705014430,"current_range_meters":16000,"station_id":"ce4bgkh2rcd13ifvqbk0","pricing_plan_id":"free"},{"bike_id":"65384567-57f1-4b4d-a323-ac10b0636e11","system_id":"levelo_inurba_marseille","lat":43.29868,"lon":5.38889,"is_reserved":false,"is_disabled":false,"rental_uris":{"android":"levelo://app?vid=65384567-57f1-4b4d-a323-ac10b0636e11","ios":"levelo://app?vid=65384567-57f1-4b4d-a323-ac10b0636e11"},"vehicle_type_id":"4","last_reported":1705014430,"current_range_meters":26400,"station_id":"","pricing_plan_id":"free"},{"bike_id":"de56557d-c14c-4636-9655-25edb9b638fb","system_id":"levelo_inurba_marseille","lat":43.298727,"lon":5.389006,"is_reserved":false,"is_disabled":false,"rental_uris":{"android":"levelo://app?vid=de56557d-c14c-4636-9655-25edb9b638fb","ios":"levelo://app?vid=de56557d-c14c-4636-9655-25edb9b638fb"},"vehicle_type_id":"4","last_reported":1705014430,"current_range_meters":18000,"station_id":"","pricing_plan_id":"free"},{"bike_id":"51401f24-b80a-4b6f-af27-f584191b858d","system_id":"levelo_inurba_marseille","lat":43.29872,"lon":5.38902,"is_reserved":false,"is_disabled":false,"rental_uris":{"android":"levelo://app?vid=51401f24-b80a-4b6f-af27-f584191b858d","ios":"levelo://app?vid=51401f24-b80a-4b6f-af27-f584191b858d"},"vehicle_type_id":"4","last_reported":1705014430,"current_range_meters":4000,"station_id":"","pricing_plan_id":"free"},{"bike_id":"2b7b92f0-8dfc-468b-b42f-bd945286fe8a","system_id":"levelo_inurba_marseille","lat":43.298689,"lon":5.3891,"is_reserved":false,"is_disabled":false,"rental_uris":{"android":"levelo://app?vid=2b7b92f0-8dfc-468b-b42f-bd945286fe8a","ios":"levelo://app?vid=2b7b92f0-8dfc-468b-b42f-bd945286fe8a"},"vehicle_type_id":"4","last_reported":1705014430,"current_range_meters":21600,"station_id":"","pricing_plan_id":"free"},{"bike_id":"fa90f463-1b70-495e-8fb4-456a5738a650","system_id":"levelo_inurba_marseille","lat":43.309038,"lon":5.396546,"is_reserved":false,"is_disabled":false,"rental_uris":{"android":"levelo://app?vid=fa90f463-1b70-495e-8fb4-456a5738a650","ios":"levelo://app?vid=fa90f463-1b70-495e-8fb4-456a5738a650"},"vehicle_type_id":"4","last_reported":1705014430,"current_range_meters":31200,"station_id":"ce4bh012rcd13ifvqcv0","pricing_plan_id":"free"},{"bike_id":"515a41a5-cedd-4fd6-92dc-ca1c8d77f2fb","system_id":"levelo_inurba_marseille","lat":43.309047,"lon":5.396551,"is_reserved":false,"is_disabled":false,"rental_uris":{"android":"levelo://app?vid=515a41a5-cedd-4fd6-92dc-ca1c8d77f2fb","ios":"levelo://app?vid=515a41a5-cedd-4fd6-92dc-ca1c8d77f2fb"},"vehicle_type_id":"4","last_reported":1705014430,"current_range_meters":14800,"station_id":"ce4bh012rcd13ifvqcv0","pricing_plan_id":"free"},{"bike_id":"bd0f0c81-6eef-438c-aa09-6036700d16a2","system_id":"levelo_inurba_marseille","lat":43.309038,"lon":5.396546,"is_reserved":false,"is_disabled":false,"rental_uris":{"android":"levelo://app?vid=bd0f0c81-6eef-438c-aa09-6036700d16a2","ios":"levelo://app?vid=bd0f0c81-6eef-438c-aa09-6036700d16a2"},"vehicle_type_id":"4","last_reported":1705014430,"current_range_meters":22000,"station_id":"ce4bh012rcd13ifvqcv0","pricing_plan_id":"free"},{"bike_id":"2277da16-b32f-4c42-8731-d6e73d8c593f","system_id":"levelo_inurba_marseille","lat":43.309038,"lon":5.396546,"is_reserved":false,"is_disabled":false,"rental_uris":{"android":"levelo://app?vid=2277da16-b32f-4c42-8731-d6e73d8c593f","ios":"levelo://app?vid=2277da16-b32f-4c42-8731-d6e73d8c593f"},"vehicle_type_id":"4","last_reported":1705014430,"current_range_meters":0,"station_id":"ce4bh012rcd13ifvqcv0","pricing_plan_id":"free"},{"bike_id":"5aef2859-f315-4937-b4b1-fae51864f667","system_id":"levelo_inurba_marseille","lat":43.309047,"lon":5.396551,"is_reserved":false,"is_disabled":false,"rental_uris":{"android":"levelo://app?vid=5aef2859-f315-4937-b4b1-fae51864f667","ios":"levelo://app?vid=5aef2859-f315-4937-b4b1-fae51864f667"},"vehicle_type_id":"4","last_reported":1705014430,"current_range_meters":24400,"station_id":"ce4bh012rcd13ifvqcv0","pricing_plan_id":"free"},{"bike_id":"acc46f62-e25f-4afb-97e8-bde89647316d","system_id":"levelo_inurba_marseille","lat":43.309038,"lon":5.396546,"is_reserved":false,"is_disabled":false,"rental_uris":{"android":"levelo://app?vid=acc46f62-e25f-4afb-97e8-bde89647316d","ios":"levelo://app?vid=acc46f62-e25f-4afb-97e8-bde89647316d"},"vehicle_type_id":"4","last_reported":1705014430,"current_range_meters":26800,"station_id":"ce4bh012rcd13ifvqcv0","pricing_plan_id":"free"},{"bike_id":"918626eb-65cd-4d5a-bbb4-d75265aa8a1c","system_id":"levelo_inurba_marseille","lat":43.313291,"lon":5.396838,"is_reserved":false,"is_disabled":false,"rental_uris":{"android":"levelo://app?vid=918626eb-65cd-4d5a-bbb4-d75265aa8a1c","ios":"levelo://app?vid=918626eb-65cd-4d5a-bbb4-d75265aa8a1c"},"vehicle_type_id":"4","last_reported":1705014430,"current_range_meters":28800,"station_id":"ce4bgvp2rcd13ifvqcu0","pricing_plan_id":"free"},{"bike_id":"49b30ac9-4a45-4dad-a411-921c521763d8","system_id":"levelo_inurba_marseille","lat":43.313291,"lon":5.396838,"is_reserved":false,"is_disabled":false,"rental_uris":{"android":"levelo://app?vid=49b30ac9-4a45-4dad-a411-921c521763d8","ios":"levelo://app?vid=49b30ac9-4a45-4dad-a411-921c521763d8"},"vehicle_type_id":"4","last_reported":1705014430,"current_range_meters":17600,"station_id":"ce4bgvp2rcd13ifvqcu0","pricing_plan_id":"free"},{"bike_id":"25e73d19-1a29-4693-80c2-5157b3beecfe","system_id":"levelo_inurba_marseille","lat":43.309038,"lon":5.396546,"is_reserved":false,"is_disabled":false,"rental_uris":{"android":"levelo://app?vid=25e73d19-1a29-4693-80c2-5157b3beecfe","ios":"levelo://app?vid=25e73d19-1a29-4693-80c2-5157b3beecfe"},"vehicle_type_id":"4","last_reported":1705014430,"current_range_meters":31200,"station_id":"ce4bh012rcd13ifvqcv0","pricing_plan_id":"free"},{"bike_id":"bc41725d-f855-415e-83e4-ec0f53f8b549","system_id":"levelo_inurba_marseille","lat":43.309038,"lon":5.396546,"is_reserved":false,"is_disabled":false,"rental_uris":{"android":"levelo://app?vid=bc41725d-f855-415e-83e4-ec0f53f8b549","ios":"levelo://app?vid=bc41725d-f855-415e-83e4-ec0f53f8b549"},"vehicle_type_id":"4","last_reported":1705014430,"current_range_meters":28400,"station_id":"ce4bh012rcd13ifvqcv0","pricing_plan_id":"free"},{"bike_id":"9c9bb949-d089-45c9-8ad1-38e0b454d83c","system_id":"levelo_inurba_marseille","lat":43.309038,"lon":5.396546,"is_reserved":false,"is_disabled":false,"rental_uris":{"android":"levelo://app?vid=9c9bb949-d089-45c9-8ad1-38e0b454d83c","ios":"levelo://app?vid=9c9bb949-d089-45c9-8ad1-38e0b454d83c"},"vehicle_type_id":"4","last_reported":1705014430,"current_range_meters":28800,"station_id":"ce4bh012rcd13ifvqcv0","pricing_plan_id":"free"},{"bike_id":"43e3c829-2deb-43ef-8b69-a848c378c386","system_id":"levelo_inurba_marseille","lat":43.313291,"lon":5.396838,"is_reserved":false,"is_disabled":false,"rental_uris":{"android":"levelo://app?vid=43e3c829-2deb-43ef-8b69-a848c378c386","ios":"levelo://app?vid=43e3c829-2deb-43ef-8b69-a848c378c386"},"vehicle_type_id":"4","last_reported":1705014430,"current_range_meters":23600,"station_id":"ce4bgvp2rcd13ifvqcu0","pricing_plan_id":"free"},{"bike_id":"27397cfc-1b70-48d5-b106-1890a7993412","system_id":"levelo_inurba_marseille","lat":43.309047,"lon":5.396551,"is_reserved":false,"is_disabled":false,"rental_uris":{"android":"levelo://app?vid=27397cfc-1b70-48d5-b106-1890a7993412","ios":"levelo://app?vid=27397cfc-1b70-48d5-b106-1890a7993412"},"vehicle_type_id":"4","last_reported":1705014430,"current_range_meters":30000,"station_id":"ce4bh012rcd13ifvqcv0","pricing_plan_id":"free"},{"bike_id":"890e5f00-2b96-4071-a28c-06b3f6ec5b9f","system_id":"levelo_inurba_marseille","lat":43.309047,"lon":5.396551,"is_reserved":false,"is_disabled":false,"rental_uris":{"android":"levelo://app?vid=890e5f00-2b96-4071-a28c-06b3f6ec5b9f","ios":"levelo://app?vid=890e5f00-2b96-4071-a28c-06b3f6ec5b9f"},"vehicle_type_id":"4","last_reported":1705014430,"current_range_meters":12800,"station_id":"ce4bh012rcd13ifvqcv0","pricing_plan_id":"free"},{"bike_id":"09a2d1af-4a9b-4ace-a140-3c314f0895e1","system_id":"levelo_inurba_marseille","lat":43.313291,"lon":5.396838,"is_reserved":false,"is_disabled":false,"rental_uris":{"android":"levelo://app?vid=09a2d1af-4a9b-4ace-a140-3c314f0895e1","ios":"levelo://app?vid=09a2d1af-4a9b-4ace-a140-3c314f0895e1"},"vehicle_type_id":"4","last_reported":1705014430,"current_range_meters":12800,"station_id":"ce4bgvp2rcd13ifvqcu0","pricing_plan_id":"free"},{"bike_id":"50b5475e-4838-4b88-8bad-a9544ac6adad","system_id":"levelo_inurba_marseille","lat":43.309038,"lon":5.396546,"is_reserved":false,"is_disabled":false,"rental_uris":{"android":"levelo://app?vid=50b5475e-4838-4b88-8bad-a9544ac6adad","ios":"levelo://app?vid=50b5475e-4838-4b88-8bad-a9544ac6adad"},"vehicle_type_id":"4","last_reported":1705014430,"current_range_meters":16800,"station_id":"ce4bh012rcd13ifvqcv0","pricing_plan_id":"free"},{"bike_id":"eb8690af-bf60-47da-b007-07d2e3776202","system_id":"levelo_inurba_marseille","lat":43.31328,"lon":5.39704,"is_reserved":false,"is_disabled":false,"rental_uris":{"android":"levelo://app?vid=eb8690af-bf60-47da-b007-07d2e3776202","ios":"levelo://app?vid=eb8690af-bf60-47da-b007-07d2e3776202"},"vehicle_type_id":"4","last_reported":1705014430,"current_range_meters":7600,"station_id":"ce4bgvp2rcd13ifvqcu0","pricing_plan_id":"free"},{"bike_id":"80b17cde-e0fa-461c-b00c-d961cb7ad912","system_id":"levelo_inurba_marseille","lat":43.313291,"lon":5.396838,"is_reserved":false,"is_disabled":false,"rental_uris":{"android":"levelo://app?vid=80b17cde-e0fa-461c-b00c-d961cb7ad912","ios":"levelo://app?vid=80b17cde-e0fa-461c-b00c-d961cb7ad912"},"vehicle_type_id":"4","last_reported":1705014430,"current_range_meters":11200,"station_id":"ce4bgvp2rcd13ifvqcu0","pricing_plan_id":"free"},{"bike_id":"41f4fe73-0c1f-4fec-bf6c-d04f05598bb3","system_id":"levelo_inurba_marseille","lat":43.302008,"lon":5.394694,"is_reserved":false,"is_disabled":false,"rental_uris":{"android":"levelo://app?vid=41f4fe73-0c1f-4fec-bf6c-d04f05598bb3","ios":"levelo://app?vid=41f4fe73-0c1f-4fec-bf6c-d04f05598bb3"},"vehicle_type_id":"4","last_reported":1705014430,"current_range_meters":22800,"station_id":"ce4bh0p2rcd13ifvqd70","pricing_plan_id":"free"},{"bike_id":"713d9ab1-6e59-448e-ab3b-136662db0801","system_id":"levelo_inurba_marseille","lat":43.290624,"lon":5.359245,"is_reserved":false,"is_disabled":false,"rental_uris":{"android":"levelo://app?vid=713d9ab1-6e59-448e-ab3b-136662db0801","ios":"levelo://app?vid=713d9ab1-6e59-448e-ab3b-136662db0801"},"vehicle_type_id":"4","last_reported":1705014430,"current_range_meters":24000,"station_id":"ce4bha92rcd13ifvqeg0","pricing_plan_id":"free"},{"bike_id":"92caa4a4-8cba-4d80-9da6-dd6d738e8851","system_id":"levelo_inurba_marseille","lat":43.290624,"lon":5.359245,"is_reserved":false,"is_disabled":false,"rental_uris":{"android":"levelo://app?vid=92caa4a4-8cba-4d80-9da6-dd6d738e8851","ios":"levelo://app?vid=92caa4a4-8cba-4d80-9da6-dd6d738e8851"},"vehicle_type_id":"4","last_reported":1705014430,"current_range_meters":25200,"station_id":"ce4bha92rcd13ifvqeg0","pricing_plan_id":"free"},{"bike_id":"289c51ee-6d93-4773-bd04-34854382f1a8","system_id":"levelo_inurba_marseille","lat":43.290631,"lon":5.359244,"is_reserved":false,"is_disabled":false,"rental_uris":{"android":"levelo://app?vid=289c51ee-6d93-4773-bd04-34854382f1a8","ios":"levelo://app?vid=289c51ee-6d93-4773-bd04-34854382f1a8"},"vehicle_type_id":"4","last_reported":1705014430,"current_range_meters":22400,"station_id":"ce4bha92rcd13ifvqeg0","pricing_plan_id":"free"},{"bike_id":"9dc4783b-2f10-4913-8b4f-f8a7c95f757f","system_id":"levelo_inurba_marseille","lat":43.289468,"lon":5.363719,"is_reserved":false,"is_disabled":false,"rental_uris":{"android":"levelo://app?vid=9dc4783b-2f10-4913-8b4f-f8a7c95f757f","ios":"levelo://app?vid=9dc4783b-2f10-4913-8b4f-f8a7c95f757f"},"vehicle_type_id":"4","last_reported":1705014430,"current_range_meters":29600,"station_id":"ce4bhc92rcd13ifvqetg","pricing_plan_id":"free"},{"bike_id":"62829995-313a-48b5-a715-6ae6cc354053","system_id":"levelo_inurba_marseille","lat":43.305364,"lon":5.384119,"is_reserved":false,"is_disabled":false,"rental_uris":{"android":"levelo://app?vid=62829995-313a-48b5-a715-6ae6cc354053","ios":"levelo://app?vid=62829995-313a-48b5-a715-6ae6cc354053"},"vehicle_type_id":"4","last_reported":1705014430,"current_range_meters":14800,"station_id":"ce4bgg92rcd13ifvqb30","pricing_plan_id":"free"},{"bike_id":"ca058429-af29-4b7c-a983-783c371583df","system_id":"levelo_inurba_marseille","lat":43.289468,"lon":5.363719,"is_reserved":false,"is_disabled":false,"rental_uris":{"android":"levelo://app?vid=ca058429-af29-4b7c-a983-783c371583df","ios":"levelo://app?vid=ca058429-af29-4b7c-a983-783c371583df"},"vehicle_type_id":"4","last_reported":1705014430,"current_range_meters":14400,"station_id":"ce4bhc92rcd13ifvqetg","pricing_plan_id":"free"},{"bike_id":"2080c432-3db4-4b0e-b710-faa8adaa853d","system_id":"levelo_inurba_marseille","lat":43.292644,"lon":5.384257,"is_reserved":false,"is_disabled":false,"rental_uris":{"android":"levelo://app?vid=2080c432-3db4-4b0e-b710-faa8adaa853d","ios":"levelo://app?vid=2080c432-3db4-4b0e-b710-faa8adaa853d"},"vehicle_type_id":"4","last_reported":1705014430,"current_range_meters":12400,"station_id":"ce4bh692rcd13ifvqea0","pricing_plan_id":"free"},{"bike_id":"3c1569f4-5a3e-46f9-aeb8-a6ee650d0cf9","system_id":"levelo_inurba_marseille","lat":43.304274,"lon":5.397513,"is_reserved":false,"is_disabled":false,"rental_uris":{"android":"levelo://app?vid=3c1569f4-5a3e-46f9-aeb8-a6ee650d0cf9","ios":"levelo://app?vid=3c1569f4-5a3e-46f9-aeb8-a6ee650d0cf9"},"vehicle_type_id":"4","last_reported":1705014430,"current_range_meters":0,"station_id":"ce4bh092rcd13ifvqd20","pricing_plan_id":"free"},{"bike_id":"bbbb3869-1f73-4356-bc26-269088913be7","system_id":"levelo_inurba_marseille","lat":43.304274,"lon":5.397513,"is_reserved":false,"is_disabled":false,"rental_uris":{"android":"levelo://app?vid=bbbb3869-1f73-4356-bc26-269088913be7","ios":"levelo://app?vid=bbbb3869-1f73-4356-bc26-269088913be7"},"vehicle_type_id":"4","last_reported":1705014430,"current_range_meters":7600,"station_id":"ce4bh092rcd13ifvqd20","pricing_plan_id":"free"},{"bike_id":"50709688-6a3d-490b-ba55-40650daca795","system_id":"levelo_inurba_marseille","lat":43.290103,"lon":5.356114,"is_reserved":false,"is_disabled":false,"rental_uris":{"android":"levelo://app?vid=50709688-6a3d-490b-ba55-40650daca795","ios":"levelo://app?vid=50709688-6a3d-490b-ba55-40650daca795"},"vehicle_type_id":"4","last_reported":1705014430,"current_range_meters":25200,"station_id":"ce4bhb92rcd13ifvqen0","pricing_plan_id":"free"},{"bike_id":"a093571d-8c01-46c9-883b-9798f4b9f6a1","system_id":"levelo_inurba_marseille","lat":43.29005,"lon":5.35604,"is_reserved":false,"is_disabled":false,"rental_uris":{"android":"levelo://app?vid=a093571d-8c01-46c9-883b-9798f4b9f6a1","ios":"levelo://app?vid=a093571d-8c01-46c9-883b-9798f4b9f6a1"},"vehicle_type_id":"4","last_reported":1705014430,"current_range_meters":18000,"station_id":"ce4bhb92rcd13ifvqen0","pricing_plan_id":"free"},{"bike_id":"db4cb9db-aa51-4530-8fb1-6fc512380a39","system_id":"levelo_inurba_marseille","lat":43.290024,"lon":5.356129,"is_reserved":false,"is_disabled":false,"rental_uris":{"android":"levelo://app?vid=db4cb9db-aa51-4530-8fb1-6fc512380a39","ios":"levelo://app?vid=db4cb9db-aa51-4530-8fb1-6fc512380a39"},"vehicle_type_id":"4","last_reported":1705014430,"current_range_meters":22000,"station_id":"","pricing_plan_id":"free"},{"bike_id":"b9663f0e-eaa6-4459-835c-d9ce97d61667","system_id":"levelo_inurba_marseille","lat":43.290103,"lon":5.356114,"is_reserved":false,"is_disabled":false,"rental_uris":{"android":"levelo://app?vid=b9663f0e-eaa6-4459-835c-d9ce97d61667","ios":"levelo://app?vid=b9663f0e-eaa6-4459-835c-d9ce97d61667"},"vehicle_type_id":"4","last_reported":1705014430,"current_range_meters":31200,"station_id":"ce4bhb92rcd13ifvqen0","pricing_plan_id":"free"},{"bike_id":"e3f6cfa8-daa2-4b20-a220-704acf01ffcf","system_id":"levelo_inurba_marseille","lat":43.290995,"lon":5.381361,"is_reserved":false,"is_disabled":false,"rental_uris":{"android":"levelo://app?vid=e3f6cfa8-daa2-4b20-a220-704acf01ffcf","ios":"levelo://app?vid=e3f6cfa8-daa2-4b20-a220-704acf01ffcf"},"vehicle_type_id":"4","last_reported":1705014430,"current_range_meters":15200,"station_id":"ce4bh512rcd13ifvqe2g","pricing_plan_id":"free"},{"bike_id":"dca33e5e-efa1-4478-8a43-f237635cabf8","system_id":"levelo_inurba_marseille","lat":43.297939,"lon":5.393305,"is_reserved":false,"is_disabled":false,"rental_uris":{"android":"levelo://app?vid=dca33e5e-efa1-4478-8a43-f237635cabf8","ios":"levelo://app?vid=dca33e5e-efa1-4478-8a43-f237635cabf8"},"vehicle_type_id":"4","last_reported":1705014430,"current_range_meters":6800,"station_id":"chh1huq6cuj3fo74tm60","pricing_plan_id":"free"},{"bike_id":"617824ca-2067-49d5-b05e-e37ab8e02560","system_id":"levelo_inurba_marseille","lat":43.297922,"lon":5.393288,"is_reserved":false,"is_disabled":false,"rental_uris":{"android":"levelo://app?vid=617824ca-2067-49d5-b05e-e37ab8e02560","ios":"levelo://app?vid=617824ca-2067-49d5-b05e-e37ab8e02560"},"vehicle_type_id":"4","last_reported":1705014430,"current_range_meters":27600,"station_id":"chh1huq6cuj3fo74tm60","pricing_plan_id":"free"},{"bike_id":"12a31f8c-ae8a-448c-a376-72a21a71eb14","system_id":"levelo_inurba_marseille","lat":43.297813,"lon":5.393253,"is_reserved":false,"is_disabled":false,"rental_uris":{"android":"levelo://app?vid=12a31f8c-ae8a-448c-a376-72a21a71eb14","ios":"levelo://app?vid=12a31f8c-ae8a-448c-a376-72a21a71eb14"},"vehicle_type_id":"4","last_reported":1705014430,"current_range_meters":12000,"station_id":"chh1huq6cuj3fo74tm60","pricing_plan_id":"free"},{"bike_id":"80599f20-d75d-4d26-a842-764dcc8e0cfe","system_id":"levelo_inurba_marseille","lat":43.330136,"lon":5.39032,"is_reserved":false,"is_disabled":false,"rental_uris":{"android":"levelo://app?vid=80599f20-d75d-4d26-a842-764dcc8e0cfe","ios":"levelo://app?vid=80599f20-d75d-4d26-a842-764dcc8e0cfe"},"vehicle_type_id":"4","last_reported":1705014430,"current_range_meters":16800,"station_id":"","pricing_plan_id":"free"},{"bike_id":"d0823403-2070-4163-bec2-e8fbdaa17087","system_id":"levelo_inurba_marseille","lat":43.297829,"lon":5.393426,"is_reserved":false,"is_disabled":false,"rental_uris":{"android":"levelo://app?vid=d0823403-2070-4163-bec2-e8fbdaa17087","ios":"levelo://app?vid=d0823403-2070-4163-bec2-e8fbdaa17087"},"vehicle_type_id":"4","last_reported":1705014430,"current_range_meters":26800,"station_id":"chh1huq6cuj3fo74tm60","pricing_plan_id":"free"},{"bike_id":"0904bcbe-6b2e-4fb4-84b3-9666a350d09e","system_id":"levelo_inurba_marseille","lat":43.3302,"lon":5.39035,"is_reserved":false,"is_disabled":false,"rental_uris":{"android":"levelo://app?vid=0904bcbe-6b2e-4fb4-84b3-9666a350d09e","ios":"levelo://app?vid=0904bcbe-6b2e-4fb4-84b3-9666a350d09e"},"vehicle_type_id":"4","last_reported":1705014430,"current_range_meters":10400,"station_id":"","pricing_plan_id":"free"},{"bike_id":"c01314d7-1ab9-4278-862e-e43df7570a49","system_id":"levelo_inurba_marseille","lat":43.297815,"lon":5.393548,"is_reserved":false,"is_disabled":false,"rental_uris":{"android":"levelo://app?vid=c01314d7-1ab9-4278-862e-e43df7570a49","ios":"levelo://app?vid=c01314d7-1ab9-4278-862e-e43df7570a49"},"vehicle_type_id":"4","last_reported":1705014430,"current_range_meters":26000,"station_id":"chh1huq6cuj3fo74tm60","pricing_plan_id":"free"},{"bike_id":"94af1971-6210-4f26-b70a-e8e696bf537d","system_id":"levelo_inurba_marseille","lat":43.295215,"lon":5.390256,"is_reserved":false,"is_disabled":false,"rental_uris":{"android":"levelo://app?vid=94af1971-6210-4f26-b70a-e8e696bf537d","ios":"levelo://app?vid=94af1971-6210-4f26-b70a-e8e696bf537d"},"vehicle_type_id":"4","last_reported":1705014430,"current_range_meters":14400,"station_id":"ce4bh3p2rcd13ifvqdp0","pricing_plan_id":"free"},{"bike_id":"29877edf-f914-4818-a395-be7aee9e9d72","system_id":"levelo_inurba_marseille","lat":43.33024,"lon":5.39038,"is_reserved":false,"is_disabled":false,"rental_uris":{"android":"levelo://app?vid=29877edf-f914-4818-a395-be7aee9e9d72","ios":"levelo://app?vid=29877edf-f914-4818-a395-be7aee9e9d72"},"vehicle_type_id":"4","last_reported":1705014430,"current_range_meters":19200,"station_id":"","pricing_plan_id":"free"},{"bike_id":"fe108f99-4139-4020-acb3-711e6f40cdcf","system_id":"levelo_inurba_marseille","lat":43.295169,"lon":5.390426,"is_reserved":false,"is_disabled":false,"rental_uris":{"android":"levelo://app?vid=fe108f99-4139-4020-acb3-711e6f40cdcf","ios":"levelo://app?vid=fe108f99-4139-4020-acb3-711e6f40cdcf"},"vehicle_type_id":"4","last_reported":1705014430,"current_range_meters":20400,"station_id":"ce4bh3p2rcd13ifvqdp0","pricing_plan_id":"free"},{"bike_id":"42cb4ff4-759a-443a-9a04-d840cce2bed5","system_id":"levelo_inurba_marseille","lat":43.295169,"lon":5.390426,"is_reserved":false,"is_disabled":false,"rental_uris":{"android":"levelo://app?vid=42cb4ff4-759a-443a-9a04-d840cce2bed5","ios":"levelo://app?vid=42cb4ff4-759a-443a-9a04-d840cce2bed5"},"vehicle_type_id":"4","last_reported":1705014430,"current_range_meters":0,"station_id":"ce4bh3p2rcd13ifvqdp0","pricing_plan_id":"free"},{"bike_id":"e770bfd9-5eaf-456a-9238-b36a955d894d","system_id":"levelo_inurba_marseille","lat":43.33022,"lon":5.39048,"is_reserved":false,"is_disabled":false,"rental_uris":{"android":"levelo://app?vid=e770bfd9-5eaf-456a-9238-b36a955d894d","ios":"levelo://app?vid=e770bfd9-5eaf-456a-9238-b36a955d894d"},"vehicle_type_id":"4","last_reported":1705014430,"current_range_meters":30800,"station_id":"","pricing_plan_id":"free"},{"bike_id":"8fe359a3-7109-4a83-a4f9-b0904a0a2302","system_id":"levelo_inurba_marseille","lat":43.33027,"lon":5.39044,"is_reserved":false,"is_disabled":false,"rental_uris":{"android":"levelo://app?vid=8fe359a3-7109-4a83-a4f9-b0904a0a2302","ios":"levelo://app?vid=8fe359a3-7109-4a83-a4f9-b0904a0a2302"},"vehicle_type_id":"4","last_reported":1705014430,"current_range_meters":18000,"station_id":"","pricing_plan_id":"free"},{"bike_id":"e7dcaaa9-cc06-45af-bfbd-9ecd35e01aae","system_id":"levelo_inurba_marseille","lat":43.33028,"lon":5.39043,"is_reserved":false,"is_disabled":false,"rental_uris":{"android":"levelo://app?vid=e7dcaaa9-cc06-45af-bfbd-9ecd35e01aae","ios":"levelo://app?vid=e7dcaaa9-cc06-45af-bfbd-9ecd35e01aae"},"vehicle_type_id":"4","last_reported":1705014430,"current_range_meters":16400,"station_id":"","pricing_plan_id":"free"},{"bike_id":"25fbee09-e328-4565-8086-dfd5d4b4a0ab","system_id":"levelo_inurba_marseille","lat":43.295169,"lon":5.390426,"is_reserved":false,"is_disabled":false,"rental_uris":{"android":"levelo://app?vid=25fbee09-e328-4565-8086-dfd5d4b4a0ab","ios":"levelo://app?vid=25fbee09-e328-4565-8086-dfd5d4b4a0ab"},"vehicle_type_id":"4","last_reported":1705014430,"current_range_meters":28000,"station_id":"ce4bh3p2rcd13ifvqdp0","pricing_plan_id":"free"},{"bike_id":"283dcea1-294f-457d-ab23-b226b3598ed0","system_id":"levelo_inurba_marseille","lat":43.28856,"lon":5.358371,"is_reserved":false,"is_disabled":false,"rental_uris":{"android":"levelo://app?vid=283dcea1-294f-457d-ab23-b226b3598ed0","ios":"levelo://app?vid=283dcea1-294f-457d-ab23-b226b3598ed0"},"vehicle_type_id":"4","last_reported":1705014430,"current_range_meters":23600,"station_id":"ce4bhb12rcd13ifvqem0","pricing_plan_id":"free"},{"bike_id":"74d86ee4-b8cf-46bd-bf46-e99b5204b8f9","system_id":"levelo_inurba_marseille","lat":43.28856,"lon":5.358371,"is_reserved":false,"is_disabled":false,"rental_uris":{"android":"levelo://app?vid=74d86ee4-b8cf-46bd-bf46-e99b5204b8f9","ios":"levelo://app?vid=74d86ee4-b8cf-46bd-bf46-e99b5204b8f9"},"vehicle_type_id":"4","last_reported":1705014430,"current_range_meters":18400,"station_id":"ce4bhb12rcd13ifvqem0","pricing_plan_id":"free"},{"bike_id":"d98db822-c621-4c1d-8265-53aee759440f","system_id":"levelo_inurba_marseille","lat":43.28856,"lon":5.358371,"is_reserved":false,"is_disabled":false,"rental_uris":{"android":"levelo://app?vid=d98db822-c621-4c1d-8265-53aee759440f","ios":"levelo://app?vid=d98db822-c621-4c1d-8265-53aee759440f"},"vehicle_type_id":"4","last_reported":1705014430,"current_range_meters":23200,"station_id":"ce4bhb12rcd13ifvqem0","pricing_plan_id":"free"},{"bike_id":"e7563d82-2e3d-42f8-abe5-63a03148a63f","system_id":"levelo_inurba_marseille","lat":43.28856,"lon":5.358371,"is_reserved":false,"is_disabled":false,"rental_uris":{"android":"levelo://app?vid=e7563d82-2e3d-42f8-abe5-63a03148a63f","ios":"levelo://app?vid=e7563d82-2e3d-42f8-abe5-63a03148a63f"},"vehicle_type_id":"4","last_reported":1705014430,"current_range_meters":28400,"station_id":"ce4bhb12rcd13ifvqem0","pricing_plan_id":"free"},{"bike_id":"72fa5cfd-e336-4a47-af4b-380cdc906f75","system_id":"levelo_inurba_marseille","lat":43.290094,"lon":5.381264,"is_reserved":false,"is_disabled":false,"rental_uris":{"android":"levelo://app?vid=72fa5cfd-e336-4a47-af4b-380cdc906f75","ios":"levelo://app?vid=72fa5cfd-e336-4a47-af4b-380cdc906f75"},"vehicle_type_id":"4","last_reported":1705014430,"current_range_meters":16400,"station_id":"ce4bh4p2rcd13ifvqe1g","pricing_plan_id":"free"},{"bike_id":"6e8505cf-e6ca-49cb-8d86-23f47cf0bcc4","system_id":"levelo_inurba_marseille","lat":43.28856,"lon":5.358371,"is_reserved":false,"is_disabled":false,"rental_uris":{"android":"levelo://app?vid=6e8505cf-e6ca-49cb-8d86-23f47cf0bcc4","ios":"levelo://app?vid=6e8505cf-e6ca-49cb-8d86-23f47cf0bcc4"},"vehicle_type_id":"4","last_reported":1705014430,"current_range_meters":30800,"station_id":"ce4bhb12rcd13ifvqem0","pricing_plan_id":"free"},{"bike_id":"07d7104d-5ee2-4ff2-b3d9-f8f9edd0ad53","system_id":"levelo_inurba_marseille","lat":43.30934,"lon":5.40132,"is_reserved":false,"is_disabled":false,"rental_uris":{"android":"levelo://app?vid=07d7104d-5ee2-4ff2-b3d9-f8f9edd0ad53","ios":"levelo://app?vid=07d7104d-5ee2-4ff2-b3d9-f8f9edd0ad53"},"vehicle_type_id":"4","last_reported":1705014430,"current_range_meters":16400,"station_id":"ce4bgvp2rcd13ifvqct0","pricing_plan_id":"free"},{"bike_id":"f481ef2c-f442-421b-be8c-fb1c4d039a61","system_id":"levelo_inurba_marseille","lat":43.309371,"lon":5.401449,"is_reserved":false,"is_disabled":false,"rental_uris":{"android":"levelo://app?vid=f481ef2c-f442-421b-be8c-fb1c4d039a61","ios":"levelo://app?vid=f481ef2c-f442-421b-be8c-fb1c4d039a61"},"vehicle_type_id":"4","last_reported":1705014430,"current_range_meters":3600,"station_id":"ce4bgvp2rcd13ifvqct0","pricing_plan_id":"free"},{"bike_id":"5cc4e15e-9710-405c-97e5-0f521a8fbc71","system_id":"levelo_inurba_marseille","lat":43.309371,"lon":5.401449,"is_reserved":false,"is_disabled":false,"rental_uris":{"android":"levelo://app?vid=5cc4e15e-9710-405c-97e5-0f521a8fbc71","ios":"levelo://app?vid=5cc4e15e-9710-405c-97e5-0f521a8fbc71"},"vehicle_type_id":"4","last_reported":1705014430,"current_range_meters":2400,"station_id":"ce4bgvp2rcd13ifvqct0","pricing_plan_id":"free"},{"bike_id":"dd401ffe-c0da-4f7a-8d65-b8fce458540e","system_id":"levelo_inurba_marseille","lat":43.3374,"lon":5.37448,"is_reserved":false,"is_disabled":false,"rental_uris":{"android":"levelo://app?vid=dd401ffe-c0da-4f7a-8d65-b8fce458540e","ios":"levelo://app?vid=dd401ffe-c0da-4f7a-8d65-b8fce458540e"},"vehicle_type_id":"4","last_reported":1705014430,"current_range_meters":22000,"station_id":"","pricing_plan_id":"free"},{"bike_id":"00013623-5361-4b74-9040-a4d9aa055b64","system_id":"levelo_inurba_marseille","lat":43.309371,"lon":5.401449,"is_reserved":false,"is_disabled":false,"rental_uris":{"android":"levelo://app?vid=00013623-5361-4b74-9040-a4d9aa055b64","ios":"levelo://app?vid=00013623-5361-4b74-9040-a4d9aa055b64"},"vehicle_type_id":"4","last_reported":1705014430,"current_range_meters":26000,"station_id":"ce4bgvp2rcd13ifvqct0","pricing_plan_id":"free"},{"bike_id":"6b88bec0-0096-45c5-9762-e4f8787be6ee","system_id":"levelo_inurba_marseille","lat":43.312609,"lon":5.401662,"is_reserved":false,"is_disabled":false,"rental_uris":{"android":"levelo://app?vid=6b88bec0-0096-45c5-9762-e4f8787be6ee","ios":"levelo://app?vid=6b88bec0-0096-45c5-9762-e4f8787be6ee"},"vehicle_type_id":"4","last_reported":1705014430,"current_range_meters":0,"station_id":"ce4bh092rcd13ifvqd30","pricing_plan_id":"free"},{"bike_id":"52665c2c-dc12-415d-a9a1-43812ade76bd","system_id":"levelo_inurba_marseille","lat":43.309371,"lon":5.401449,"is_reserved":false,"is_disabled":false,"rental_uris":{"android":"levelo://app?vid=52665c2c-dc12-415d-a9a1-43812ade76bd","ios":"levelo://app?vid=52665c2c-dc12-415d-a9a1-43812ade76bd"},"vehicle_type_id":"4","last_reported":1705014430,"current_range_meters":7600,"station_id":"ce4bgvp2rcd13ifvqct0","pricing_plan_id":"free"},{"bike_id":"e2528034-24dc-4198-96bc-54a37c61cb1e","system_id":"levelo_inurba_marseille","lat":43.30937,"lon":5.40137,"is_reserved":false,"is_disabled":false,"rental_uris":{"android":"levelo://app?vid=e2528034-24dc-4198-96bc-54a37c61cb1e","ios":"levelo://app?vid=e2528034-24dc-4198-96bc-54a37c61cb1e"},"vehicle_type_id":"4","last_reported":1705014430,"current_range_meters":1600,"station_id":"ce4bgvp2rcd13ifvqct0","pricing_plan_id":"free"},{"bike_id":"4be1708b-4ea9-4d95-b6f8-23b4e91b0752","system_id":"levelo_inurba_marseille","lat":43.312609,"lon":5.401662,"is_reserved":false,"is_disabled":false,"rental_uris":{"android":"levelo://app?vid=4be1708b-4ea9-4d95-b6f8-23b4e91b0752","ios":"levelo://app?vid=4be1708b-4ea9-4d95-b6f8-23b4e91b0752"},"vehicle_type_id":"4","last_reported":1705014430,"current_range_meters":0,"station_id":"ce4bh092rcd13ifvqd30","pricing_plan_id":"free"},{"bike_id":"8708cb3d-9181-4bde-afa7-0bb7282bb17b","system_id":"levelo_inurba_marseille","lat":43.309371,"lon":5.401449,"is_reserved":false,"is_disabled":false,"rental_uris":{"android":"levelo://app?vid=8708cb3d-9181-4bde-afa7-0bb7282bb17b","ios":"levelo://app?vid=8708cb3d-9181-4bde-afa7-0bb7282bb17b"},"vehicle_type_id":"4","last_reported":1705014430,"current_range_meters":22400,"station_id":"ce4bgvp2rcd13ifvqct0","pricing_plan_id":"free"},{"bike_id":"5da49a0e-c979-4ddb-baa8-2fe3fc4f8288","system_id":"levelo_inurba_marseille","lat":43.309371,"lon":5.401449,"is_reserved":false,"is_disabled":false,"rental_uris":{"android":"levelo://app?vid=5da49a0e-c979-4ddb-baa8-2fe3fc4f8288","ios":"levelo://app?vid=5da49a0e-c979-4ddb-baa8-2fe3fc4f8288"},"vehicle_type_id":"4","last_reported":1705014430,"current_range_meters":20800,"station_id":"ce4bgvp2rcd13ifvqct0","pricing_plan_id":"free"},{"bike_id":"09f3775c-a143-4f28-ad71-a6f3e0601a81","system_id":"levelo_inurba_marseille","lat":43.312609,"lon":5.401662,"is_reserved":false,"is_disabled":false,"rental_uris":{"android":"levelo://app?vid=09f3775c-a143-4f28-ad71-a6f3e0601a81","ios":"levelo://app?vid=09f3775c-a143-4f28-ad71-a6f3e0601a81"},"vehicle_type_id":"4","last_reported":1705014430,"current_range_meters":0,"station_id":"ce4bh092rcd13ifvqd30","pricing_plan_id":"free"},{"bike_id":"32d668a7-7687-4282-95b4-45fdb232cdaa","system_id":"levelo_inurba_marseille","lat":43.309371,"lon":5.401449,"is_reserved":false,"is_disabled":false,"rental_uris":{"android":"levelo://app?vid=32d668a7-7687-4282-95b4-45fdb232cdaa","ios":"levelo://app?vid=32d668a7-7687-4282-95b4-45fdb232cdaa"},"vehicle_type_id":"4","last_reported":1705014430,"current_range_meters":19200,"station_id":"ce4bgvp2rcd13ifvqct0","pricing_plan_id":"free"},{"bike_id":"d4632afc-35e3-4069-86f7-ff142e5cadb3","system_id":"levelo_inurba_marseille","lat":43.312776,"lon":5.40171,"is_reserved":false,"is_disabled":false,"rental_uris":{"android":"levelo://app?vid=d4632afc-35e3-4069-86f7-ff142e5cadb3","ios":"levelo://app?vid=d4632afc-35e3-4069-86f7-ff142e5cadb3"},"vehicle_type_id":"4","last_reported":1705014430,"current_range_meters":12800,"station_id":"ce4bh092rcd13ifvqd30","pricing_plan_id":"free"},{"bike_id":"afdb4d06-b2e3-4fbb-b398-43c1a3b99dd1","system_id":"levelo_inurba_marseille","lat":43.309371,"lon":5.401449,"is_reserved":false,"is_disabled":false,"rental_uris":{"android":"levelo://app?vid=afdb4d06-b2e3-4fbb-b398-43c1a3b99dd1","ios":"levelo://app?vid=afdb4d06-b2e3-4fbb-b398-43c1a3b99dd1"},"vehicle_type_id":"4","last_reported":1705014430,"current_range_meters":24800,"station_id":"ce4bgvp2rcd13ifvqct0","pricing_plan_id":"free"},{"bike_id":"7dbbd0d0-0fe0-4a7e-bce3-6765ff51695c","system_id":"levelo_inurba_marseille","lat":43.312773,"lon":5.401723,"is_reserved":false,"is_disabled":false,"rental_uris":{"android":"levelo://app?vid=7dbbd0d0-0fe0-4a7e-bce3-6765ff51695c","ios":"levelo://app?vid=7dbbd0d0-0fe0-4a7e-bce3-6765ff51695c"},"vehicle_type_id":"4","last_reported":1705014430,"current_range_meters":29600,"station_id":"ce4bh092rcd13ifvqd30","pricing_plan_id":"free"},{"bike_id":"93cf8eca-94aa-45d4-88d0-2b1d2a404a73","system_id":"levelo_inurba_marseille","lat":43.30926,"lon":5.40141,"is_reserved":false,"is_disabled":false,"rental_uris":{"android":"levelo://app?vid=93cf8eca-94aa-45d4-88d0-2b1d2a404a73","ios":"levelo://app?vid=93cf8eca-94aa-45d4-88d0-2b1d2a404a73"},"vehicle_type_id":"4","last_reported":1705014430,"current_range_meters":9600,"station_id":"ce4bgvp2rcd13ifvqct0","pricing_plan_id":"free"},{"bike_id":"d575caef-2b53-4899-9b1e-271e38eac812","system_id":"levelo_inurba_marseille","lat":43.30931,"lon":5.40143,"is_reserved":false,"is_disabled":false,"rental_uris":{"android":"levelo://app?vid=d575caef-2b53-4899-9b1e-271e38eac812","ios":"levelo://app?vid=d575caef-2b53-4899-9b1e-271e38eac812"},"vehicle_type_id":"4","last_reported":1705014430,"current_range_meters":25200,"station_id":"ce4bgvp2rcd13ifvqct0","pricing_plan_id":"free"},{"bike_id":"090674d4-d416-44ed-b985-adc6fc55c779","system_id":"levelo_inurba_marseille","lat":43.306488,"lon":5.400681,"is_reserved":false,"is_disabled":false,"rental_uris":{"android":"levelo://app?vid=090674d4-d416-44ed-b985-adc6fc55c779","ios":"levelo://app?vid=090674d4-d416-44ed-b985-adc6fc55c779"},"vehicle_type_id":"4","last_reported":1705014430,"current_range_meters":1200,"station_id":"ce4bh112rcd13ifvqda0","pricing_plan_id":"free"},{"bike_id":"7320bfe2-1858-43a1-9ad2-2ac8072a1518","system_id":"levelo_inurba_marseille","lat":43.309371,"lon":5.401449,"is_reserved":false,"is_disabled":false,"rental_uris":{"android":"levelo://app?vid=7320bfe2-1858-43a1-9ad2-2ac8072a1518","ios":"levelo://app?vid=7320bfe2-1858-43a1-9ad2-2ac8072a1518"},"vehicle_type_id":"4","last_reported":1705014430,"current_range_meters":24000,"station_id":"ce4bgvp2rcd13ifvqct0","pricing_plan_id":"free"},{"bike_id":"85cb0447-77fc-4af4-b7d4-f90690129e51","system_id":"levelo_inurba_marseille","lat":43.306491,"lon":5.400689,"is_reserved":false,"is_disabled":false,"rental_uris":{"android":"levelo://app?vid=85cb0447-77fc-4af4-b7d4-f90690129e51","ios":"levelo://app?vid=85cb0447-77fc-4af4-b7d4-f90690129e51"},"vehicle_type_id":"4","last_reported":1705014430,"current_range_meters":5200,"station_id":"ce4bh112rcd13ifvqda0","pricing_plan_id":"free"},{"bike_id":"640217e1-caa8-48b6-b30c-7f2a7a56db15","system_id":"levelo_inurba_marseille","lat":43.30932,"lon":5.40145,"is_reserved":false,"is_disabled":false,"rental_uris":{"android":"levelo://app?vid=640217e1-caa8-48b6-b30c-7f2a7a56db15","ios":"levelo://app?vid=640217e1-caa8-48b6-b30c-7f2a7a56db15"},"vehicle_type_id":"4","last_reported":1705014430,"current_range_meters":24000,"station_id":"ce4bgvp2rcd13ifvqct0","pricing_plan_id":"free"},{"bike_id":"ba20405e-5c07-4fbb-9d48-1cc1fd2cfb8a","system_id":"levelo_inurba_marseille","lat":43.30637,"lon":5.40065,"is_reserved":false,"is_disabled":false,"rental_uris":{"android":"levelo://app?vid=ba20405e-5c07-4fbb-9d48-1cc1fd2cfb8a","ios":"levelo://app?vid=ba20405e-5c07-4fbb-9d48-1cc1fd2cfb8a"},"vehicle_type_id":"4","last_reported":1705014430,"current_range_meters":16800,"station_id":"ce4bh112rcd13ifvqda0","pricing_plan_id":"free"},{"bike_id":"4e98d91d-b491-4e6e-956a-43a9a3aea1ee","system_id":"levelo_inurba_marseille","lat":43.30926,"lon":5.40144,"is_reserved":false,"is_disabled":false,"rental_uris":{"android":"levelo://app?vid=4e98d91d-b491-4e6e-956a-43a9a3aea1ee","ios":"levelo://app?vid=4e98d91d-b491-4e6e-956a-43a9a3aea1ee"},"vehicle_type_id":"4","last_reported":1705014430,"current_range_meters":15200,"station_id":"ce4bgvp2rcd13ifvqct0","pricing_plan_id":"free"},{"bike_id":"9e55f9bf-09a4-4589-9bf4-24a6ab5d2f8b","system_id":"levelo_inurba_marseille","lat":43.306468,"lon":5.400693,"is_reserved":false,"is_disabled":false,"rental_uris":{"android":"levelo://app?vid=9e55f9bf-09a4-4589-9bf4-24a6ab5d2f8b","ios":"levelo://app?vid=9e55f9bf-09a4-4589-9bf4-24a6ab5d2f8b"},"vehicle_type_id":"4","last_reported":1705014430,"current_range_meters":22000,"station_id":"ce4bh112rcd13ifvqda0","pricing_plan_id":"free"},{"bike_id":"c12809a3-f421-4cf0-bd43-822f3498da34","system_id":"levelo_inurba_marseille","lat":43.306395,"lon":5.400675,"is_reserved":false,"is_disabled":false,"rental_uris":{"android":"levelo://app?vid=c12809a3-f421-4cf0-bd43-822f3498da34","ios":"levelo://app?vid=c12809a3-f421-4cf0-bd43-822f3498da34"},"vehicle_type_id":"4","last_reported":1705014430,"current_range_meters":9600,"station_id":"ce4bh112rcd13ifvqda0","pricing_plan_id":"free"},{"bike_id":"adfbd20c-a238-4b78-adb6-3c9d5c47eaa2","system_id":"levelo_inurba_marseille","lat":43.309371,"lon":5.401449,"is_reserved":false,"is_disabled":false,"rental_uris":{"android":"levelo://app?vid=adfbd20c-a238-4b78-adb6-3c9d5c47eaa2","ios":"levelo://app?vid=adfbd20c-a238-4b78-adb6-3c9d5c47eaa2"},"vehicle_type_id":"4","last_reported":1705014430,"current_range_meters":11200,"station_id":"ce4bgvp2rcd13ifvqct0","pricing_plan_id":"free"},{"bike_id":"a9824bca-b0dd-47e1-823f-a61b3552cfdc","system_id":"levelo_inurba_marseille","lat":43.306412,"lon":5.401035,"is_reserved":false,"is_disabled":false,"rental_uris":{"android":"levelo://app?vid=a9824bca-b0dd-47e1-823f-a61b3552cfdc","ios":"levelo://app?vid=a9824bca-b0dd-47e1-823f-a61b3552cfdc"},"vehicle_type_id":"4","last_reported":1705014430,"current_range_meters":26400,"station_id":"ce4bh112rcd13ifvqda0","pricing_plan_id":"free"},{"bike_id":"94e23f1b-dbf5-4680-8560-03f0ad22de3d","system_id":"levelo_inurba_marseille","lat":43.3093,"lon":5.4015,"is_reserved":false,"is_disabled":false,"rental_uris":{"android":"levelo://app?vid=94e23f1b-dbf5-4680-8560-03f0ad22de3d","ios":"levelo://app?vid=94e23f1b-dbf5-4680-8560-03f0ad22de3d"},"vehicle_type_id":"4","last_reported":1705014430,"current_range_meters":11600,"station_id":"ce4bgvp2rcd13ifvqct0","pricing_plan_id":"free"},{"bike_id":"77e212bf-2a4c-475e-98a6-62d3ed5da087","system_id":"levelo_inurba_marseille","lat":43.306415,"lon":5.400725,"is_reserved":false,"is_disabled":false,"rental_uris":{"android":"levelo://app?vid=77e212bf-2a4c-475e-98a6-62d3ed5da087","ios":"levelo://app?vid=77e212bf-2a4c-475e-98a6-62d3ed5da087"},"vehicle_type_id":"4","last_reported":1705014430,"current_range_meters":24000,"station_id":"ce4bh112rcd13ifvqda0","pricing_plan_id":"free"},{"bike_id":"04363b7e-0ad4-4554-8a0d-6126fa8981bc","system_id":"levelo_inurba_marseille","lat":43.30636,"lon":5.400725,"is_reserved":false,"is_disabled":false,"rental_uris":{"android":"levelo://app?vid=04363b7e-0ad4-4554-8a0d-6126fa8981bc","ios":"levelo://app?vid=04363b7e-0ad4-4554-8a0d-6126fa8981bc"},"vehicle_type_id":"4","last_reported":1705014430,"current_range_meters":26800,"station_id":"ce4bh112rcd13ifvqda0","pricing_plan_id":"free"},{"bike_id":"e7159978-ccca-4b3f-841b-c3f8ec92da80","system_id":"levelo_inurba_marseille","lat":43.306566,"lon":5.400816,"is_reserved":false,"is_disabled":false,"rental_uris":{"android":"levelo://app?vid=e7159978-ccca-4b3f-841b-c3f8ec92da80","ios":"levelo://app?vid=e7159978-ccca-4b3f-841b-c3f8ec92da80"},"vehicle_type_id":"4","last_reported":1705014430,"current_range_meters":4400,"station_id":"ce4bh112rcd13ifvqda0","pricing_plan_id":"free"},{"bike_id":"eaef9f37-9082-4934-b775-fef279412ca1","system_id":"levelo_inurba_marseille","lat":43.3093,"lon":5.401543,"is_reserved":false,"is_disabled":false,"rental_uris":{"android":"levelo://app?vid=eaef9f37-9082-4934-b775-fef279412ca1","ios":"levelo://app?vid=eaef9f37-9082-4934-b775-fef279412ca1"},"vehicle_type_id":"4","last_reported":1705014430,"current_range_meters":22800,"station_id":"ce4bgvp2rcd13ifvqct0","pricing_plan_id":"free"},{"bike_id":"d0325d6f-f8f2-433f-a26b-2f09ce4c31e1","system_id":"levelo_inurba_marseille","lat":43.30626,"lon":5.40071,"is_reserved":false,"is_disabled":false,"rental_uris":{"android":"levelo://app?vid=d0325d6f-f8f2-433f-a26b-2f09ce4c31e1","ios":"levelo://app?vid=d0325d6f-f8f2-433f-a26b-2f09ce4c31e1"},"vehicle_type_id":"4","last_reported":1705014430,"current_range_meters":14400,"station_id":"ce4bh112rcd13ifvqda0","pricing_plan_id":"free"},{"bike_id":"f2405833-6e9c-4a74-b868-5b525cac8876","system_id":"levelo_inurba_marseille","lat":43.30926,"lon":5.40154,"is_reserved":false,"is_disabled":false,"rental_uris":{"android":"levelo://app?vid=f2405833-6e9c-4a74-b868-5b525cac8876","ios":"levelo://app?vid=f2405833-6e9c-4a74-b868-5b525cac8876"},"vehicle_type_id":"4","last_reported":1705014430,"current_range_meters":10000,"station_id":"ce4bgvp2rcd13ifvqct0","pricing_plan_id":"free"},{"bike_id":"b8dad847-38ab-4856-81fc-b5c1a2bb4a3c","system_id":"levelo_inurba_marseille","lat":43.30641,"lon":5.400777,"is_reserved":false,"is_disabled":false,"rental_uris":{"android":"levelo://app?vid=b8dad847-38ab-4856-81fc-b5c1a2bb4a3c","ios":"levelo://app?vid=b8dad847-38ab-4856-81fc-b5c1a2bb4a3c"},"vehicle_type_id":"4","last_reported":1705014430,"current_range_meters":6000,"station_id":"ce4bh112rcd13ifvqda0","pricing_plan_id":"free"},{"bike_id":"28269b94-c98e-4f57-8385-aecce19559d2","system_id":"levelo_inurba_marseille","lat":43.306483,"lon":5.400827,"is_reserved":false,"is_disabled":false,"rental_uris":{"android":"levelo://app?vid=28269b94-c98e-4f57-8385-aecce19559d2","ios":"levelo://app?vid=28269b94-c98e-4f57-8385-aecce19559d2"},"vehicle_type_id":"4","last_reported":1705014430,"current_range_meters":18800,"station_id":"ce4bh112rcd13ifvqda0","pricing_plan_id":"free"},{"bike_id":"b23787b0-7739-4535-9b98-2c3933d8250c","system_id":"levelo_inurba_marseille","lat":43.306412,"lon":5.401035,"is_reserved":false,"is_disabled":false,"rental_uris":{"android":"levelo://app?vid=b23787b0-7739-4535-9b98-2c3933d8250c","ios":"levelo://app?vid=b23787b0-7739-4535-9b98-2c3933d8250c"},"vehicle_type_id":"4","last_reported":1705014430,"current_range_meters":21600,"station_id":"ce4bh112rcd13ifvqda0","pricing_plan_id":"free"},{"bike_id":"ad18f526-741c-42c9-82aa-e33b63119b9c","system_id":"levelo_inurba_marseille","lat":43.33764,"lon":5.374395,"is_reserved":false,"is_disabled":false,"rental_uris":{"android":"levelo://app?vid=ad18f526-741c-42c9-82aa-e33b63119b9c","ios":"levelo://app?vid=ad18f526-741c-42c9-82aa-e33b63119b9c"},"vehicle_type_id":"4","last_reported":1705014430,"current_range_meters":28400,"station_id":"","pricing_plan_id":"free"},{"bike_id":"37f52a4b-c08d-4417-a59d-e5b27e597f53","system_id":"levelo_inurba_marseille","lat":43.306555,"lon":5.400931,"is_reserved":false,"is_disabled":false,"rental_uris":{"android":"levelo://app?vid=37f52a4b-c08d-4417-a59d-e5b27e597f53","ios":"levelo://app?vid=37f52a4b-c08d-4417-a59d-e5b27e597f53"},"vehicle_type_id":"4","last_reported":1705014430,"current_range_meters":24800,"station_id":"ce4bh112rcd13ifvqda0","pricing_plan_id":"free"},{"bike_id":"16f1796a-e6d3-43c8-b277-7ea912402475","system_id":"levelo_inurba_marseille","lat":43.28727,"lon":5.36078,"is_reserved":false,"is_disabled":false,"rental_uris":{"android":"levelo://app?vid=16f1796a-e6d3-43c8-b277-7ea912402475","ios":"levelo://app?vid=16f1796a-e6d3-43c8-b277-7ea912402475"},"vehicle_type_id":"4","last_reported":1705014430,"current_range_meters":24800,"station_id":"cki0cbj6b192h4jlfktg","pricing_plan_id":"free"},{"bike_id":"1230b34b-c2ef-4347-a2c1-f7475106d275","system_id":"levelo_inurba_marseille","lat":43.28727,"lon":5.36078,"is_reserved":false,"is_disabled":false,"rental_uris":{"android":"levelo://app?vid=1230b34b-c2ef-4347-a2c1-f7475106d275","ios":"levelo://app?vid=1230b34b-c2ef-4347-a2c1-f7475106d275"},"vehicle_type_id":"4","last_reported":1705014430,"current_range_meters":18000,"station_id":"cki0cbj6b192h4jlfktg","pricing_plan_id":"free"},{"bike_id":"af0f3c1b-285c-49ab-a7b2-96b694a71335","system_id":"levelo_inurba_marseille","lat":43.28727,"lon":5.36078,"is_reserved":false,"is_disabled":false,"rental_uris":{"android":"levelo://app?vid=af0f3c1b-285c-49ab-a7b2-96b694a71335","ios":"levelo://app?vid=af0f3c1b-285c-49ab-a7b2-96b694a71335"},"vehicle_type_id":"4","last_reported":1705014430,"current_range_meters":19200,"station_id":"cki0cbj6b192h4jlfktg","pricing_plan_id":"free"},{"bike_id":"70ef537f-ac17-498b-b900-8488dbf579cb","system_id":"levelo_inurba_marseille","lat":43.287303,"lon":5.36086,"is_reserved":false,"is_disabled":false,"rental_uris":{"android":"levelo://app?vid=70ef537f-ac17-498b-b900-8488dbf579cb","ios":"levelo://app?vid=70ef537f-ac17-498b-b900-8488dbf579cb"},"vehicle_type_id":"4","last_reported":1705014430,"current_range_meters":14000,"station_id":"cki0cbj6b192h4jlfktg","pricing_plan_id":"free"},{"bike_id":"c5c48f76-9372-4c4c-8a8a-3549f1214b17","system_id":"levelo_inurba_marseille","lat":43.2873,"lon":5.36074,"is_reserved":false,"is_disabled":false,"rental_uris":{"android":"levelo://app?vid=c5c48f76-9372-4c4c-8a8a-3549f1214b17","ios":"levelo://app?vid=c5c48f76-9372-4c4c-8a8a-3549f1214b17"},"vehicle_type_id":"4","last_reported":1705014430,"current_range_meters":23200,"station_id":"cki0cbj6b192h4jlfktg","pricing_plan_id":"free"},{"bike_id":"a4e66af0-89e2-4e98-b04b-e5bb31b530e6","system_id":"levelo_inurba_marseille","lat":43.28727,"lon":5.36078,"is_reserved":false,"is_disabled":false,"rental_uris":{"android":"levelo://app?vid=a4e66af0-89e2-4e98-b04b-e5bb31b530e6","ios":"levelo://app?vid=a4e66af0-89e2-4e98-b04b-e5bb31b530e6"},"vehicle_type_id":"4","last_reported":1705014430,"current_range_meters":19600,"station_id":"cki0cbj6b192h4jlfktg","pricing_plan_id":"free"},{"bike_id":"deb8eb55-b317-4c0a-a46e-6dae13875cef","system_id":"levelo_inurba_marseille","lat":43.28727,"lon":5.36078,"is_reserved":false,"is_disabled":false,"rental_uris":{"android":"levelo://app?vid=deb8eb55-b317-4c0a-a46e-6dae13875cef","ios":"levelo://app?vid=deb8eb55-b317-4c0a-a46e-6dae13875cef"},"vehicle_type_id":"4","last_reported":1705014430,"current_range_meters":28000,"station_id":"cki0cbj6b192h4jlfktg","pricing_plan_id":"free"},{"bike_id":"449ce591-4aa8-4ebd-a085-17764839d694","system_id":"levelo_inurba_marseille","lat":43.28723,"lon":5.36092,"is_reserved":false,"is_disabled":false,"rental_uris":{"android":"levelo://app?vid=449ce591-4aa8-4ebd-a085-17764839d694","ios":"levelo://app?vid=449ce591-4aa8-4ebd-a085-17764839d694"},"vehicle_type_id":"4","last_reported":1705014430,"current_range_meters":28800,"station_id":"cki0cbj6b192h4jlfktg","pricing_plan_id":"free"},{"bike_id":"15a5f0af-a3d0-47af-9320-bb67092adefa","system_id":"levelo_inurba_marseille","lat":43.28725,"lon":5.36075,"is_reserved":false,"is_disabled":false,"rental_uris":{"android":"levelo://app?vid=15a5f0af-a3d0-47af-9320-bb67092adefa","ios":"levelo://app?vid=15a5f0af-a3d0-47af-9320-bb67092adefa"},"vehicle_type_id":"4","last_reported":1705014430,"current_range_meters":20000,"station_id":"cki0cbj6b192h4jlfktg","pricing_plan_id":"free"},{"bike_id":"f3682688-b079-4f02-8c11-8db7ac98b34e","system_id":"levelo_inurba_marseille","lat":43.287238,"lon":5.36084,"is_reserved":false,"is_disabled":false,"rental_uris":{"android":"levelo://app?vid=f3682688-b079-4f02-8c11-8db7ac98b34e","ios":"levelo://app?vid=f3682688-b079-4f02-8c11-8db7ac98b34e"},"vehicle_type_id":"4","last_reported":1705014430,"current_range_meters":23200,"station_id":"cki0cbj6b192h4jlfktg","pricing_plan_id":"free"},{"bike_id":"5a0b1cd9-f6c7-4372-863c-80046f90865c","system_id":"levelo_inurba_marseille","lat":43.28727,"lon":5.36078,"is_reserved":false,"is_disabled":false,"rental_uris":{"android":"levelo://app?vid=5a0b1cd9-f6c7-4372-863c-80046f90865c","ios":"levelo://app?vid=5a0b1cd9-f6c7-4372-863c-80046f90865c"},"vehicle_type_id":"4","last_reported":1705014430,"current_range_meters":31600,"station_id":"cki0cbj6b192h4jlfktg","pricing_plan_id":"free"},{"bike_id":"c2622bad-24d9-4781-bbe4-6c418744ba42","system_id":"levelo_inurba_marseille","lat":43.286591,"lon":5.363346,"is_reserved":false,"is_disabled":false,"rental_uris":{"android":"levelo://app?vid=c2622bad-24d9-4781-bbe4-6c418744ba42","ios":"levelo://app?vid=c2622bad-24d9-4781-bbe4-6c418744ba42"},