{"last_updated":1752563698,"ttl":60,"version":"2.2","data":{"bikes":[{"bike_id":"feb1ed1d-b0db-45cc-9e1b-7311a8d72058","system_id":"levelo_inurba_marseille","lat":43.33747,"lon":5.37463,"is_reserved":false,"is_disabled":false,"rental_uris":{"android":"levelo://app?vid=feb1ed1d-b0db-45cc-9e1b-7311a8d72058","ios":"levelo://app?vid=feb1ed1d-b0db-45cc-9e1b-7311a8d72058"},"vehicle_type_id":"1","last_reported":1752563698,"current_range_meters":34800,"station_id":"","pricing_plan_id":"cebpf4jnsgd1na2vs0mg"},{"bike_id":"470d1e9d-8c05-40b8-a6b2-039f183b9f6a","system_id":"levelo_inurba_marseille","lat":43.23203,"lon":5.35548,"is_reserved":false,"is_disabled":false,"rental_uris":{"android":"levelo://app?vid=470d1e9d-8c05-40b8-a6b2-039f183b9f6a","ios":"levelo://app?vid=470d1e9d-8c05-40b8-a6b2-039f183b9f6a"},"vehicle_type_id":"4","last_reported":1752563698,"current_range_meters":2800,"station_id":"ce4bhu92rcd13ifvqi70","pricing_plan_id":"cebpf4jnsgd1na2vs0mg"},{"bike_id":"0a636247-e042-45be-a965-da6b8c27d627","system_id":"levelo_inurba_marseille","lat":43.29536,"lon":5.39013,"is_reserved":false,"is_disabled":false,"rental_uris":{"android":"levelo://app?vid=0a636247-e042-45be-a965-da6b8c27d627","ios":"levelo://app?vid=0a636247-e042-45be-a965-da6b8c27d627"},"vehicle_type_id":"4","last_reported":1752563698,"current_range_meters":1200,"station_id":"ce4bh3p2rcd13ifvqdp0","pricing_plan_id":"cebpf4jnsgd1na2vs0mg"},{"bike_id":"fd2a2c09-7868-4fc4-ac77-33e4bb2244d3","system_id":"levelo_inurba_marseille","lat":43.30538,"lon":5.36555,"is_reserved":false,"is_disabled":false,"rental_uris":{"android":"levelo://app?vid=fd2a2c09-7868-4fc4-ac77-33e4bb2244d3","ios":"levelo://app?vid=fd2a2c09-7868-4fc4-ac77-33e4bb2244d3"},"vehicle_type_id":"4","last_reported":1752563698,"current_range_meters":3600,"station_id":"ce4bgs12rcd13ifvqcag","pricing_plan_id":"cebpf4jnsgd1na2vs0mg"},{"bike_id":"5f394d9e-b17b-439e-b032-06bf2b165702","system_id":"levelo_inurba_marseille","lat":43.26552,"lon":5.37283,"is_reserved":false,"is_disabled":false,"rental_uris":{"android":"levelo://app?vid=5f394d9e-b17b-439e-b032-06bf2b165702","ios":"levelo://app?vid=5f394d9e-b17b-439e-b032-06bf2b165702"},"vehicle_type_id":"4","last_reported":1752563698,"current_range_meters":3600,"station_id":"ce4bhg12rcd13ifvqf70","pricing_plan_id":"cebpf4jnsgd1na2vs0mg"},{"bike_id":"c5fe914d-a9c4-4784-aa86-5f55fad6ba5d","system_id":"levelo_inurba_marseille","lat":43.31065,"lon":5.38347,"is_reserved":false,"is_disabled":true,"rental_uris":{"android":"levelo://app?vid=c5fe914d-a9c4-4784-aa86-5f55fad6ba5d","ios":"levelo://app?vid=c5fe914d-a9c4-4784-aa86-5f55fad6ba5d"},"vehicle_type_id":"4","last_reported":1752563698,"current_range_meters":4000,"station_id":"ce4bgv92rcd13ifvqcr0","pricing_plan_id":"cebpf4jnsgd1na2vs0mg"},{"bike_id":"3d5952c9-cc2d-40cc-b4da-347d1947b52f","system_id":"levelo_inurba_marseille","lat":43.283463,"lon":5.380923,"is_reserved":false,"is_disabled":false,"rental_uris":{"android":"levelo://app?vid=3d5952c9-cc2d-40cc-b4da-347d1947b52f","ios":"levelo://app?vid=3d5952c9-cc2d-40cc-b4da-347d1947b52f"},"vehicle_type_id":"4","last_reported":1752563698,"current_range_meters":400,"station_id":"ce4bh412rcd13ifvqdr0","pricing_plan_id":"cebpf4jnsgd1na2vs0mg"},{"bike_id":"38ae4eb6-7177-4a73-83b1-7a65d6524d7c","system_id":"levelo_inurba_marseille","lat":43.24072,"lon":5.37762,"is_reserved":false,"is_disabled":false,"rental_uris":{"android":"levelo://app?vid=38ae4eb6-7177-4a73-83b1-7a65d6524d7c","ios":"levelo://app?vid=38ae4eb6-7177-4a73-83b1-7a65d6524d7c"},"vehicle_type_id":"4","last_reported":1752563698,"current_range_meters":4400,"station_id":"ce4bhnp2rcd13ifvqgvg","pricing_plan_id":"cebpf4jnsgd1na2vs0mg"},{"bike_id":"3c346138-946d-497f-80e5-c361887c60ee","system_id":"levelo_inurba_marseille","lat":43.268291,"lon":5.384677,"is_reserved":false,"is_disabled":false,"rental_uris":{"android":"levelo://app?vid=3c346138-946d-497f-80e5-c361887c60ee","ios":"levelo://app?vid=3c346138-946d-497f-80e5-c361887c60ee"},"vehicle_type_id":"4","last_reported":1752563698,"current_range_meters":4800,"station_id":"ce4bhg92rcd13ifvqf90","pricing_plan_id":"cebpf4jnsgd1na2vs0mg"},{"bike_id":"6f603e6b-5437-434c-9780-f1082a040efa","system_id":"levelo_inurba_marseille","lat":43.25624,"lon":5.38707,"is_reserved":false,"is_disabled":false,"rental_uris":{"android":"levelo://app?vid=6f603e6b-5437-434c-9780-f1082a040efa","ios":"levelo://app?vid=6f603e6b-5437-434c-9780-f1082a040efa"},"vehicle_type_id":"4","last_reported":1752563698,"current_range_meters":4800,"station_id":"","pricing_plan_id":"cebpf4jnsgd1na2vs0mg"},{"bike_id":"2c9663d4-7028-43bc-bab8-034e988cb482","system_id":"levelo_inurba_marseille","lat":43.30354,"lon":5.41868,"is_reserved":false,"is_disabled":false,"rental_uris":{"android":"levelo://app?vid=2c9663d4-7028-43bc-bab8-034e988cb482","ios":"levelo://app?vid=2c9663d4-7028-43bc-bab8-034e988cb482"},"vehicle_type_id":"4","last_reported":1752563698,"current_range_meters":5600,"station_id":"ce4bhop2rcd13ifvqh7g","pricing_plan_id":"cebpf4jnsgd1na2vs0mg"},{"bike_id":"70977010-cfc7-4f37-8331-8d3d116f64d9","system_id":"levelo_inurba_marseille","lat":43.28368,"lon":5.38623,"is_reserved":false,"is_disabled":false,"rental_uris":{"android":"levelo://app?vid=70977010-cfc7-4f37-8331-8d3d116f64d9","ios":"levelo://app?vid=70977010-cfc7-4f37-8331-8d3d116f64d9"},"vehicle_type_id":"4","last_reported":1752563698,"current_range_meters":6000,"station_id":"ce4bh492rcd13ifvqdvg","pricing_plan_id":"cebpf4jnsgd1na2vs0mg"},{"bike_id":"30177487-86dc-418e-b8ce-57d22ec127ee","system_id":"levelo_inurba_marseille","lat":43.337444,"lon":5.374475,"is_reserved":false,"is_disabled":false,"rental_uris":{"android":"levelo://app?vid=30177487-86dc-418e-b8ce-57d22ec127ee","ios":"levelo://app?vid=30177487-86dc-418e-b8ce-57d22ec127ee"},"vehicle_type_id":"4","last_reported":1752563698,"current_range_meters":6400,"station_id":"","pricing_plan_id":"cebpf4jnsgd1na2vs0mg"},{"bike_id":"97116945-f406-4dcc-971e-deff2ff8d4fa","system_id":"levelo_inurba_marseille","lat":43.323656,"lon":5.367686,"is_reserved":false,"is_disabled":false,"rental_uris":{"android":"levelo://app?vid=97116945-f406-4dcc-971e-deff2ff8d4fa","ios":"levelo://app?vid=97116945-f406-4dcc-971e-deff2ff8d4fa"},"vehicle_type_id":"4","last_reported":1752563698,"current_range_meters":6400,"station_id":"ce4bhsh2rcd13ifvqi2g","pricing_plan_id":"cebpf4jnsgd1na2vs0mg"},{"bike_id":"774e5e85-87b7-426d-9f2a-0283e799f0c3","system_id":"levelo_inurba_marseille","lat":43.25938,"lon":5.40901,"is_reserved":false,"is_disabled":false,"rental_uris":{"android":"levelo://app?vid=774e5e85-87b7-426d-9f2a-0283e799f0c3","ios":"levelo://app?vid=774e5e85-87b7-426d-9f2a-0283e799f0c3"},"vehicle_type_id":"4","last_reported":1752563698,"current_range_meters":6400,"station_id":"ce4bhm92rcd13ifvqglg","pricing_plan_id":"cebpf4jnsgd1na2vs0mg"},{"bike_id":"e8855e44-d93f-4b4c-bbbb-ea444eeb6d51","system_id":"levelo_inurba_marseille","lat":43.30152,"lon":5.38107,"is_reserved":false,"is_disabled":false,"rental_uris":{"android":"levelo://app?vid=e8855e44-d93f-4b4c-bbbb-ea444eeb6d51","ios":"levelo://app?vid=e8855e44-d93f-4b4c-bbbb-ea444eeb6d51"},"vehicle_type_id":"4","last_reported":1752563698,"current_range_meters":6800,"station_id":"ce4bgjp2rcd13ifvqbh0","pricing_plan_id":"cebpf4jnsgd1na2vs0mg"},{"bike_id":"2382e3a2-7fd6-45e9-9f03-f281d6c2e59a","system_id":"levelo_inurba_marseille","lat":43.29286,"lon":5.40116,"is_reserved":false,"is_disabled":false,"rental_uris":{"android":"levelo://app?vid=2382e3a2-7fd6-45e9-9f03-f281d6c2e59a","ios":"levelo://app?vid=2382e3a2-7fd6-45e9-9f03-f281d6c2e59a"},"vehicle_type_id":"4","last_reported":1752563698,"current_range_meters":6800,"station_id":"ce4bh312rcd13ifvqdk0","pricing_plan_id":"cebpf4jnsgd1na2vs0mg"},{"bike_id":"0179bf21-e753-4323-a63e-d69b5b2b3879","system_id":"levelo_inurba_marseille","lat":43.246439,"lon":5.388987,"is_reserved":false,"is_disabled":true,"rental_uris":{"android":"levelo://app?vid=0179bf21-e753-4323-a63e-d69b5b2b3879","ios":"levelo://app?vid=0179bf21-e753-4323-a63e-d69b5b2b3879"},"vehicle_type_id":"4","last_reported":1752563698,"current_range_meters":6800,"station_id":"ce4bhg12rcd13ifvqf60","pricing_plan_id":"cebpf4jnsgd1na2vs0mg"},{"bike_id":"6bbe6aad-ca73-44de-87f0-c1d91d115237","system_id":"levelo_inurba_marseille","lat":43.29689,"lon":5.37267,"is_reserved":false,"is_disabled":false,"rental_uris":{"android":"levelo://app?vid=6bbe6aad-ca73-44de-87f0-c1d91d115237","ios":"levelo://app?vid=6bbe6aad-ca73-44de-87f0-c1d91d115237"},"vehicle_type_id":"4","last_reported":1752563698,"current_range_meters":6800,"station_id":"ce4bgk12rcd13ifvqbj0","pricing_plan_id":"cebpf4jnsgd1na2vs0mg"},{"bike_id":"9b235fee-aac5-46e2-801a-46373ed5132d","system_id":"levelo_inurba_marseille","lat":43.29914,"lon":5.38148,"is_reserved":false,"is_disabled":false,"rental_uris":{"android":"levelo://app?vid=9b235fee-aac5-46e2-801a-46373ed5132d","ios":"levelo://app?vid=9b235fee-aac5-46e2-801a-46373ed5132d"},"vehicle_type_id":"4","last_reported":1752563698,"current_range_meters":7200,"station_id":"ce4bgj12rcd13ifvqbc0","pricing_plan_id":"cebpf4jnsgd1na2vs0mg"},{"bike_id":"c58808f9-bfd4-4624-8ea2-9ea42e192ea6","system_id":"levelo_inurba_marseille","lat":43.26549,"lon":5.37282,"is_reserved":false,"is_disabled":false,"rental_uris":{"android":"levelo://app?vid=c58808f9-bfd4-4624-8ea2-9ea42e192ea6","ios":"levelo://app?vid=c58808f9-bfd4-4624-8ea2-9ea42e192ea6"},"vehicle_type_id":"4","last_reported":1752563698,"current_range_meters":7200,"station_id":"ce4bhg12rcd13ifvqf70","pricing_plan_id":"cebpf4jnsgd1na2vs0mg"},{"bike_id":"2c66c6a3-c3a9-4faf-bc13-2dec19484e98","system_id":"levelo_inurba_marseille","lat":43.30365,"lon":5.42479,"is_reserved":false,"is_disabled":false,"rental_uris":{"android":"levelo://app?vid=2c66c6a3-c3a9-4faf-bc13-2dec19484e98","ios":"levelo://app?vid=2c66c6a3-c3a9-4faf-bc13-2dec19484e98"},"vehicle_type_id":"4","last_reported":1752563698,"current_range_meters":7200,"station_id":"ce4bhoh2rcd13ifvqh6g","pricing_plan_id":"cebpf4jnsgd1na2vs0mg"},{"bike_id":"bc778bf2-5e72-4f38-aab3-520ddd347ba7","system_id":"levelo_inurba_marseille","lat":43.309127,"lon":5.368457,"is_reserved":false,"is_disabled":false,"rental_uris":{"android":"levelo://app?vid=bc778bf2-5e72-4f38-aab3-520ddd347ba7","ios":"levelo://app?vid=bc778bf2-5e72-4f38-aab3-520ddd347ba7"},"vehicle_type_id":"4","last_reported":1752563698,"current_range_meters":8000,"station_id":"ce4bgn92rcd13ifvqbvg","pricing_plan_id":"cebpf4jnsgd1na2vs0mg"},{"bike_id":"07b80ba8-94f7-4006-b883-d44157aa02a8","system_id":"levelo_inurba_marseille","lat":43.21192,"lon":5.35073,"is_reserved":false,"is_disabled":false,"rental_uris":{"android":"levelo://app?vid=07b80ba8-94f7-4006-b883-d44157aa02a8","ios":"levelo://app?vid=07b80ba8-94f7-4006-b883-d44157aa02a8"},"vehicle_type_id":"4","last_reported":1752563698,"current_range_meters":8000,"station_id":"st_cvj6sg6p6f1abm77japg","pricing_plan_id":"cebpf4jnsgd1na2vs0mg"},{"bike_id":"b10f440c-4032-4ed5-b34d-b7935416dea9","system_id":"levelo_inurba_marseille","lat":43.242126,"lon":5.397111,"is_reserved":false,"is_disabled":false,"rental_uris":{"android":"levelo://app?vid=b10f440c-4032-4ed5-b34d-b7935416dea9","ios":"levelo://app?vid=b10f440c-4032-4ed5-b34d-b7935416dea9"},"vehicle_type_id":"4","last_reported":1752563698,"current_range_meters":8000,"station_id":"","pricing_plan_id":"cebpf4jnsgd1na2vs0mg"},{"bike_id":"7203c0d5-ea15-46c1-805c-8ecc9fe7f557","system_id":"levelo_inurba_marseille","lat":43.22519,"lon":5.34771,"is_reserved":false,"is_disabled":false,"rental_uris":{"android":"levelo://app?vid=7203c0d5-ea15-46c1-805c-8ecc9fe7f557","ios":"levelo://app?vid=7203c0d5-ea15-46c1-805c-8ecc9fe7f557"},"vehicle_type_id":"4","last_reported":1752563698,"current_range_meters":8000,"station_id":"st_cvj5dfep6f1abm77gieg","pricing_plan_id":"cebpf4jnsgd1na2vs0mg"},{"bike_id":"58375fde-ca97-4dab-be52-59caf98323d3","system_id":"levelo_inurba_marseille","lat":43.26557,"lon":5.37281,"is_reserved":false,"is_disabled":false,"rental_uris":{"android":"levelo://app?vid=58375fde-ca97-4dab-be52-59caf98323d3","ios":"levelo://app?vid=58375fde-ca97-4dab-be52-59caf98323d3"},"vehicle_type_id":"4","last_reported":1752563698,"current_range_meters":8000,"station_id":"ce4bhg12rcd13ifvqf70","pricing_plan_id":"cebpf4jnsgd1na2vs0mg"},{"bike_id":"930c144e-fb2b-4526-9386-3ed01e1c6cca","system_id":"levelo_inurba_marseille","lat":43.29635,"lon":5.40605,"is_reserved":false,"is_disabled":false,"rental_uris":{"android":"levelo://app?vid=930c144e-fb2b-4526-9386-3ed01e1c6cca","ios":"levelo://app?vid=930c144e-fb2b-4526-9386-3ed01e1c6cca"},"vehicle_type_id":"4","last_reported":1752563698,"current_range_meters":8000,"station_id":"ce4bh0h2rcd13ifvqd60","pricing_plan_id":"cebpf4jnsgd1na2vs0mg"},{"bike_id":"08871abd-6758-4cce-aa0d-4fb2cd904604","system_id":"levelo_inurba_marseille","lat":43.29285,"lon":5.401437,"is_reserved":false,"is_disabled":false,"rental_uris":{"android":"levelo://app?vid=08871abd-6758-4cce-aa0d-4fb2cd904604","ios":"levelo://app?vid=08871abd-6758-4cce-aa0d-4fb2cd904604"},"vehicle_type_id":"4","last_reported":1752563698,"current_range_meters":8400,"station_id":"ce4bh312rcd13ifvqdk0","pricing_plan_id":"cebpf4jnsgd1na2vs0mg"},{"bike_id":"7b7fb125-1e21-4d9b-b9b6-967459d426be","system_id":"levelo_inurba_marseille","lat":43.30327,"lon":5.40434,"is_reserved":false,"is_disabled":false,"rental_uris":{"android":"levelo://app?vid=7b7fb125-1e21-4d9b-b9b6-967459d426be","ios":"levelo://app?vid=7b7fb125-1e21-4d9b-b9b6-967459d426be"},"vehicle_type_id":"4","last_reported":1752563698,"current_range_meters":8400,"station_id":"ce4bh012rcd13ifvqd10","pricing_plan_id":"cebpf4jnsgd1na2vs0mg"},{"bike_id":"d916aace-830c-451e-a376-c1312f1fc6af","system_id":"levelo_inurba_marseille","lat":43.22494,"lon":5.34781,"is_reserved":false,"is_disabled":false,"rental_uris":{"android":"levelo://app?vid=d916aace-830c-451e-a376-c1312f1fc6af","ios":"levelo://app?vid=d916aace-830c-451e-a376-c1312f1fc6af"},"vehicle_type_id":"4","last_reported":1752563698,"current_range_meters":8400,"station_id":"st_cvj5dfep6f1abm77gieg","pricing_plan_id":"cebpf4jnsgd1na2vs0mg"},{"bike_id":"4026c91c-d6e8-4686-b762-11d3714cecf8","system_id":"levelo_inurba_marseille","lat":43.29194,"lon":5.35902,"is_reserved":false,"is_disabled":true,"rental_uris":{"android":"levelo://app?vid=4026c91c-d6e8-4686-b762-11d3714cecf8","ios":"levelo://app?vid=4026c91c-d6e8-4686-b762-11d3714cecf8"},"vehicle_type_id":"4","last_reported":1752563698,"current_range_meters":8800,"station_id":"","pricing_plan_id":"cebpf4jnsgd1na2vs0mg"},{"bike_id":"63483e13-2021-4ec8-864a-a542ecc13870","system_id":"levelo_inurba_marseille","lat":43.31887,"lon":5.4074,"is_reserved":false,"is_disabled":false,"rental_uris":{"android":"levelo://app?vid=63483e13-2021-4ec8-864a-a542ecc13870","ios":"levelo://app?vid=63483e13-2021-4ec8-864a-a542ecc13870"},"vehicle_type_id":"4","last_reported":1752563698,"current_range_meters":8800,"station_id":"ce4bhq12rcd13ifvqhig","pricing_plan_id":"cebpf4jnsgd1na2vs0mg"},{"bike_id":"9eaf5cba-5d74-42bb-a072-047383c82f7e","system_id":"levelo_inurba_marseille","lat":43.30949,"lon":5.39032,"is_reserved":false,"is_disabled":false,"rental_uris":{"android":"levelo://app?vid=9eaf5cba-5d74-42bb-a072-047383c82f7e","ios":"levelo://app?vid=9eaf5cba-5d74-42bb-a072-047383c82f7e"},"vehicle_type_id":"4","last_reported":1752563698,"current_range_meters":8800,"station_id":"ce4bgup2rcd13ifvqco0","pricing_plan_id":"cebpf4jnsgd1na2vs0mg"},{"bike_id":"20694b13-cd51-4026-8f97-ec0360b86b1a","system_id":"levelo_inurba_marseille","lat":43.29844,"lon":5.36274,"is_reserved":false,"is_disabled":false,"rental_uris":{"android":"levelo://app?vid=20694b13-cd51-4026-8f97-ec0360b86b1a","ios":"levelo://app?vid=20694b13-cd51-4026-8f97-ec0360b86b1a"},"vehicle_type_id":"4","last_reported":1752563698,"current_range_meters":11600,"station_id":"ce4bgpp2rcd13ifvqc3g","pricing_plan_id":"cebpf4jnsgd1na2vs0mg"},{"bike_id":"a6177175-8e64-4752-9094-36de58f53c1d","system_id":"levelo_inurba_marseille","lat":43.320421,"lon":5.41551,"is_reserved":false,"is_disabled":false,"rental_uris":{"android":"levelo://app?vid=a6177175-8e64-4752-9094-36de58f53c1d","ios":"levelo://app?vid=a6177175-8e64-4752-9094-36de58f53c1d"},"vehicle_type_id":"4","last_reported":1752563698,"current_range_meters":9200,"station_id":"ce4bhq92rcd13ifvqhkg","pricing_plan_id":"cebpf4jnsgd1na2vs0mg"},{"bike_id":"1fbaf219-67be-45b8-aacc-64d6722df546","system_id":"levelo_inurba_marseille","lat":43.29019,"lon":5.38638,"is_reserved":false,"is_disabled":true,"rental_uris":{"android":"levelo://app?vid=1fbaf219-67be-45b8-aacc-64d6722df546","ios":"levelo://app?vid=1fbaf219-67be-45b8-aacc-64d6722df546"},"vehicle_type_id":"4","last_reported":1752563698,"current_range_meters":9200,"station_id":"ce4bh4p2rcd13ifvqe0g","pricing_plan_id":"cebpf4jnsgd1na2vs0mg"},{"bike_id":"c14947c2-7b5b-4c03-b04b-d7f22fccfd67","system_id":"levelo_inurba_marseille","lat":43.211901,"lon":5.350715,"is_reserved":false,"is_disabled":false,"rental_uris":{"android":"levelo://app?vid=c14947c2-7b5b-4c03-b04b-d7f22fccfd67","ios":"levelo://app?vid=c14947c2-7b5b-4c03-b04b-d7f22fccfd67"},"vehicle_type_id":"4","last_reported":1752563698,"current_range_meters":9200,"station_id":"st_cvj6sg6p6f1abm77japg","pricing_plan_id":"cebpf4jnsgd1na2vs0mg"},{"bike_id":"39f26311-25a3-44ef-8923-c453831dd27b","system_id":"levelo_inurba_marseille","lat":43.29638,"lon":5.40614,"is_reserved":false,"is_disabled":false,"rental_uris":{"android":"levelo://app?vid=39f26311-25a3-44ef-8923-c453831dd27b","ios":"levelo://app?vid=39f26311-25a3-44ef-8923-c453831dd27b"},"vehicle_type_id":"4","last_reported":1752563698,"current_range_meters":9600,"station_id":"ce4bh0h2rcd13ifvqd60","pricing_plan_id":"cebpf4jnsgd1na2vs0mg"},{"bike_id":"8a01e88a-8371-4085-9838-47ae11897cd3","system_id":"levelo_inurba_marseille","lat":43.28153,"lon":5.42636,"is_reserved":false,"is_disabled":true,"rental_uris":{"android":"levelo://app?vid=8a01e88a-8371-4085-9838-47ae11897cd3","ios":"levelo://app?vid=8a01e88a-8371-4085-9838-47ae11897cd3"},"vehicle_type_id":"4","last_reported":1752563698,"current_range_meters":9600,"station_id":"ce4bhnh2rcd13ifvqgug","pricing_plan_id":"cebpf4jnsgd1na2vs0mg"},{"bike_id":"856f2d23-2d4b-4e7d-9b18-dff24c595dd3","system_id":"levelo_inurba_marseille","lat":43.2678,"lon":5.39417,"is_reserved":false,"is_disabled":false,"rental_uris":{"android":"levelo://app?vid=856f2d23-2d4b-4e7d-9b18-dff24c595dd3","ios":"levelo://app?vid=856f2d23-2d4b-4e7d-9b18-dff24c595dd3"},"vehicle_type_id":"4","last_reported":1752563698,"current_range_meters":9600,"station_id":"ce4bhh12rcd13ifvqfg0","pricing_plan_id":"cebpf4jnsgd1na2vs0mg"},{"bike_id":"e3c1e7b9-6fb3-46e0-81ca-740bba8ea4f5","system_id":"levelo_inurba_marseille","lat":43.30947,"lon":5.39033,"is_reserved":false,"is_disabled":false,"rental_uris":{"android":"levelo://app?vid=e3c1e7b9-6fb3-46e0-81ca-740bba8ea4f5","ios":"levelo://app?vid=e3c1e7b9-6fb3-46e0-81ca-740bba8ea4f5"},"vehicle_type_id":"4","last_reported":1752563698,"current_range_meters":9600,"station_id":"ce4bgup2rcd13ifvqco0","pricing_plan_id":"cebpf4jnsgd1na2vs0mg"},{"bike_id":"ffa5ccb4-905c-4e50-802b-1c1f9b2cbe03","system_id":"levelo_inurba_marseille","lat":43.21183,"lon":5.35064,"is_reserved":false,"is_disabled":true,"rental_uris":{"android":"levelo://app?vid=ffa5ccb4-905c-4e50-802b-1c1f9b2cbe03","ios":"levelo://app?vid=ffa5ccb4-905c-4e50-802b-1c1f9b2cbe03"},"vehicle_type_id":"4","last_reported":1752563698,"current_range_meters":10000,"station_id":"st_cvj6sg6p6f1abm77japg","pricing_plan_id":"cebpf4jnsgd1na2vs0mg"},{"bike_id":"9b1afee0-5d71-42b1-bfb3-0f11fa1e097d","system_id":"levelo_inurba_marseille","lat":43.292534,"lon":5.376396,"is_reserved":false,"is_disabled":false,"rental_uris":{"android":"levelo://app?vid=9b1afee0-5d71-42b1-bfb3-0f11fa1e097d","ios":"levelo://app?vid=9b1afee0-5d71-42b1-bfb3-0f11fa1e097d"},"vehicle_type_id":"4","last_reported":1752563698,"current_range_meters":10000,"station_id":"","pricing_plan_id":"cebpf4jnsgd1na2vs0mg"},{"bike_id":"ccc8188a-8f50-4813-9218-1b8f56b61c33","system_id":"levelo_inurba_marseille","lat":43.25943,"lon":5.40897,"is_reserved":false,"is_disabled":false,"rental_uris":{"android":"levelo://app?vid=ccc8188a-8f50-4813-9218-1b8f56b61c33","ios":"levelo://app?vid=ccc8188a-8f50-4813-9218-1b8f56b61c33"},"vehicle_type_id":"4","last_reported":1752563698,"current_range_meters":12000,"station_id":"ce4bhm92rcd13ifvqglg","pricing_plan_id":"cebpf4jnsgd1na2vs0mg"},{"bike_id":"a4d07f45-19f9-4df9-9728-be6623530a64","system_id":"levelo_inurba_marseille","lat":43.237109,"lon":5.388539,"is_reserved":false,"is_disabled":false,"rental_uris":{"android":"levelo://app?vid=a4d07f45-19f9-4df9-9728-be6623530a64","ios":"levelo://app?vid=a4d07f45-19f9-4df9-9728-be6623530a64"},"vehicle_type_id":"4","last_reported":1752563698,"current_range_meters":10000,"station_id":"","pricing_plan_id":"cebpf4jnsgd1na2vs0mg"},{"bike_id":"e91ced2f-2041-4b38-8446-0d5d97adec95","system_id":"levelo_inurba_marseille","lat":43.255755,"lon":5.382312,"is_reserved":false,"is_disabled":true,"rental_uris":{"android":"levelo://app?vid=e91ced2f-2041-4b38-8446-0d5d97adec95","ios":"levelo://app?vid=e91ced2f-2041-4b38-8446-0d5d97adec95"},"vehicle_type_id":"4","last_reported":1752563698,"current_range_meters":10000,"station_id":"ce4bhih2rcd13ifvqfs0","pricing_plan_id":"cebpf4jnsgd1na2vs0mg"},{"bike_id":"1e52cfe4-daa6-4f6d-b89a-ac2b466be504","system_id":"levelo_inurba_marseille","lat":43.2871,"lon":5.39991,"is_reserved":false,"is_disabled":true,"rental_uris":{"android":"levelo://app?vid=1e52cfe4-daa6-4f6d-b89a-ac2b466be504","ios":"levelo://app?vid=1e52cfe4-daa6-4f6d-b89a-ac2b466be504"},"vehicle_type_id":"4","last_reported":1752563698,"current_range_meters":10000,"station_id":"ce4bho92rcd13ifvqh3g","pricing_plan_id":"cebpf4jnsgd1na2vs0mg"},{"bike_id":"4ff6aa90-dc8c-4d26-8b6b-f12c0a1fa40a","system_id":"levelo_inurba_marseille","lat":43.25942,"lon":5.40896,"is_reserved":false,"is_disabled":false,"rental_uris":{"android":"levelo://app?vid=4ff6aa90-dc8c-4d26-8b6b-f12c0a1fa40a","ios":"levelo://app?vid=4ff6aa90-dc8c-4d26-8b6b-f12c0a1fa40a"},"vehicle_type_id":"4","last_reported":1752563698,"current_range_meters":10000,"station_id":"ce4bhm92rcd13ifvqglg","pricing_plan_id":"cebpf4jnsgd1na2vs0mg"},{"bike_id":"6eced1a4-4e29-4ed8-a378-7055fb7ca02f","system_id":"levelo_inurba_marseille","lat":43.29526,"lon":5.39393,"is_reserved":false,"is_disabled":true,"rental_uris":{"android":"levelo://app?vid=6eced1a4-4e29-4ed8-a378-7055fb7ca02f","ios":"levelo://app?vid=6eced1a4-4e29-4ed8-a378-7055fb7ca02f"},"vehicle_type_id":"4","last_reported":1752563698,"current_range_meters":10000,"station_id":"","pricing_plan_id":"cebpf4jnsgd1na2vs0mg"},{"bike_id":"c8c4de1a-846f-4f5b-aace-9fb14bf7ad52","system_id":"levelo_inurba_marseille","lat":43.211915,"lon":5.350706,"is_reserved":false,"is_disabled":false,"rental_uris":{"android":"levelo://app?vid=c8c4de1a-846f-4f5b-aace-9fb14bf7ad52","ios":"levelo://app?vid=c8c4de1a-846f-4f5b-aace-9fb14bf7ad52"},"vehicle_type_id":"4","last_reported":1752563698,"current_range_meters":10000,"station_id":"st_cvj6sg6p6f1abm77japg","pricing_plan_id":"cebpf4jnsgd1na2vs0mg"},{"bike_id":"cc12ce0d-d70d-42f8-89c0-59160e973c55","system_id":"levelo_inurba_marseille","lat":43.32537,"lon":5.41428,"is_reserved":false,"is_disabled":false,"rental_uris":{"android":"levelo://app?vid=cc12ce0d-d70d-42f8-89c0-59160e973c55","ios":"levelo://app?vid=cc12ce0d-d70d-42f8-89c0-59160e973c55"},"vehicle_type_id":"4","last_reported":1752563698,"current_range_meters":15200,"station_id":"ce4bhq12rcd13ifvqhhg","pricing_plan_id":"cebpf4jnsgd1na2vs0mg"},{"bike_id":"697d5fc4-b988-4a4e-8323-c1ce5ed61a61","system_id":"levelo_inurba_marseille","lat":43.211964,"lon":5.350717,"is_reserved":false,"is_disabled":false,"rental_uris":{"android":"levelo://app?vid=697d5fc4-b988-4a4e-8323-c1ce5ed61a61","ios":"levelo://app?vid=697d5fc4-b988-4a4e-8323-c1ce5ed61a61"},"vehicle_type_id":"4","last_reported":1752563698,"current_range_meters":10800,"station_id":"st_cvj6sg6p6f1abm77japg","pricing_plan_id":"cebpf4jnsgd1na2vs0mg"},{"bike_id":"4a19e4ee-cbbe-4fd8-9e6c-310afa6ee6c9","system_id":"levelo_inurba_marseille","lat":43.23192,"lon":5.39994,"is_reserved":false,"is_disabled":false,"rental_uris":{"android":"levelo://app?vid=4a19e4ee-cbbe-4fd8-9e6c-310afa6ee6c9","ios":"levelo://app?vid=4a19e4ee-cbbe-4fd8-9e6c-310afa6ee6c9"},"vehicle_type_id":"4","last_reported":1752563698,"current_range_meters":10800,"station_id":"ce4bhn12rcd13ifvqgqg","pricing_plan_id":"cebpf4jnsgd1na2vs0mg"},{"bike_id":"21e4850d-b049-4411-adc4-b58334ff7b41","system_id":"levelo_inurba_marseille","lat":43.30552,"lon":5.36536,"is_reserved":false,"is_disabled":false,"rental_uris":{"android":"levelo://app?vid=21e4850d-b049-4411-adc4-b58334ff7b41","ios":"levelo://app?vid=21e4850d-b049-4411-adc4-b58334ff7b41"},"vehicle_type_id":"4","last_reported":1752563698,"current_range_meters":10800,"station_id":"ce4bgs12rcd13ifvqcag","pricing_plan_id":"cebpf4jnsgd1na2vs0mg"},{"bike_id":"df737b47-6e09-4542-8d35-f3681d0e6a4d","system_id":"levelo_inurba_marseille","lat":43.27623,"lon":5.36082,"is_reserved":false,"is_disabled":true,"rental_uris":{"android":"levelo://app?vid=df737b47-6e09-4542-8d35-f3681d0e6a4d","ios":"levelo://app?vid=df737b47-6e09-4542-8d35-f3681d0e6a4d"},"vehicle_type_id":"4","last_reported":1752563698,"current_range_meters":10800,"station_id":"ce4bgj92rcd13ifvqbe0","pricing_plan_id":"cebpf4jnsgd1na2vs0mg"},{"bike_id":"e1442ff3-c767-4bb3-901d-e5f60873ad13","system_id":"levelo_inurba_marseille","lat":43.231805,"lon":5.399918,"is_reserved":false,"is_disabled":false,"rental_uris":{"android":"levelo://app?vid=e1442ff3-c767-4bb3-901d-e5f60873ad13","ios":"levelo://app?vid=e1442ff3-c767-4bb3-901d-e5f60873ad13"},"vehicle_type_id":"4","last_reported":1752563698,"current_range_meters":10800,"station_id":"ce4bhn12rcd13ifvqgqg","pricing_plan_id":"cebpf4jnsgd1na2vs0mg"},{"bike_id":"f5a47db5-6fb2-46bd-a2de-efa4ad13bf60","system_id":"levelo_inurba_marseille","lat":43.21197,"lon":5.35072,"is_reserved":false,"is_disabled":false,"rental_uris":{"android":"levelo://app?vid=f5a47db5-6fb2-46bd-a2de-efa4ad13bf60","ios":"levelo://app?vid=f5a47db5-6fb2-46bd-a2de-efa4ad13bf60"},"vehicle_type_id":"4","last_reported":1752563698,"current_range_meters":10800,"station_id":"st_cvj6sg6p6f1abm77japg","pricing_plan_id":"cebpf4jnsgd1na2vs0mg"},{"bike_id":"ffec7551-5a09-40cb-b199-544ef869710a","system_id":"levelo_inurba_marseille","lat":43.26789,"lon":5.39414,"is_reserved":false,"is_disabled":false,"rental_uris":{"android":"levelo://app?vid=ffec7551-5a09-40cb-b199-544ef869710a","ios":"levelo://app?vid=ffec7551-5a09-40cb-b199-544ef869710a"},"vehicle_type_id":"4","last_reported":1752563698,"current_range_meters":10800,"station_id":"ce4bhh12rcd13ifvqfg0","pricing_plan_id":"cebpf4jnsgd1na2vs0mg"},{"bike_id":"2a0aedde-7f30-493f-9aae-d292c759cf7c","system_id":"levelo_inurba_marseille","lat":43.27919,"lon":5.39601,"is_reserved":false,"is_disabled":true,"rental_uris":{"android":"levelo://app?vid=2a0aedde-7f30-493f-9aae-d292c759cf7c","ios":"levelo://app?vid=2a0aedde-7f30-493f-9aae-d292c759cf7c"},"vehicle_type_id":"4","last_reported":1752563698,"current_range_meters":10800,"station_id":"ce4bhf92rcd13ifvqf40","pricing_plan_id":"cebpf4jnsgd1na2vs0mg"},{"bike_id":"39dce06d-1ef7-48f7-9c9b-40b259869ec1","system_id":"levelo_inurba_marseille","lat":43.33598,"lon":5.41,"is_reserved":false,"is_disabled":false,"rental_uris":{"android":"levelo://app?vid=39dce06d-1ef7-48f7-9c9b-40b259869ec1","ios":"levelo://app?vid=39dce06d-1ef7-48f7-9c9b-40b259869ec1"},"vehicle_type_id":"4","last_reported":1752563698,"current_range_meters":10800,"station_id":"ce4bhqh2rcd13ifvqhmg","pricing_plan_id":"cebpf4jnsgd1na2vs0mg"},{"bike_id":"6ac174d4-75c5-4a9c-9699-97cd631c6e65","system_id":"levelo_inurba_marseille","lat":43.25463,"lon":5.39919,"is_reserved":false,"is_disabled":false,"rental_uris":{"android":"levelo://app?vid=6ac174d4-75c5-4a9c-9699-97cd631c6e65","ios":"levelo://app?vid=6ac174d4-75c5-4a9c-9699-97cd631c6e65"},"vehicle_type_id":"4","last_reported":1752563698,"current_range_meters":11200,"station_id":"","pricing_plan_id":"cebpf4jnsgd1na2vs0mg"},{"bike_id":"e39d72a8-1c3e-4dce-a3c9-7069cc0fb06f","system_id":"levelo_inurba_marseille","lat":43.27943,"lon":5.41045,"is_reserved":false,"is_disabled":false,"rental_uris":{"android":"levelo://app?vid=e39d72a8-1c3e-4dce-a3c9-7069cc0fb06f","ios":"levelo://app?vid=e39d72a8-1c3e-4dce-a3c9-7069cc0fb06f"},"vehicle_type_id":"4","last_reported":1752563698,"current_range_meters":11200,"station_id":"ce4bhnp2rcd13ifvqh0g","pricing_plan_id":"cebpf4jnsgd1na2vs0mg"},{"bike_id":"08dbf31c-b540-4ca6-b57d-3481ea73d97b","system_id":"levelo_inurba_marseille","lat":43.22504,"lon":5.3478,"is_reserved":false,"is_disabled":false,"rental_uris":{"android":"levelo://app?vid=08dbf31c-b540-4ca6-b57d-3481ea73d97b","ios":"levelo://app?vid=08dbf31c-b540-4ca6-b57d-3481ea73d97b"},"vehicle_type_id":"4","last_reported":1752563698,"current_range_meters":11200,"station_id":"st_cvj5dfep6f1abm77gieg","pricing_plan_id":"cebpf4jnsgd1na2vs0mg"},{"bike_id":"c28921dd-6deb-4e14-be31-fb8d09680729","system_id":"levelo_inurba_marseille","lat":43.30904,"lon":5.36845,"is_reserved":false,"is_disabled":false,"rental_uris":{"android":"levelo://app?vid=c28921dd-6deb-4e14-be31-fb8d09680729","ios":"levelo://app?vid=c28921dd-6deb-4e14-be31-fb8d09680729"},"vehicle_type_id":"4","last_reported":1752563698,"current_range_meters":11200,"station_id":"ce4bgn92rcd13ifvqbvg","pricing_plan_id":"cebpf4jnsgd1na2vs0mg"},{"bike_id":"ed74f810-226b-4edb-a7d8-2c9a86d071a4","system_id":"levelo_inurba_marseille","lat":43.21193,"lon":5.35066,"is_reserved":false,"is_disabled":false,"rental_uris":{"android":"levelo://app?vid=ed74f810-226b-4edb-a7d8-2c9a86d071a4","ios":"levelo://app?vid=ed74f810-226b-4edb-a7d8-2c9a86d071a4"},"vehicle_type_id":"4","last_reported":1752563698,"current_range_meters":11200,"station_id":"st_cvj6sg6p6f1abm77japg","pricing_plan_id":"cebpf4jnsgd1na2vs0mg"},{"bike_id":"41e47ab4-31d6-4e54-b9bb-9741e0f94162","system_id":"levelo_inurba_marseille","lat":43.229218,"lon":5.353767,"is_reserved":false,"is_disabled":true,"rental_uris":{"android":"levelo://app?vid=41e47ab4-31d6-4e54-b9bb-9741e0f94162","ios":"levelo://app?vid=41e47ab4-31d6-4e54-b9bb-9741e0f94162"},"vehicle_type_id":"4","last_reported":1752563698,"current_range_meters":11600,"station_id":"cpo3532slgdg3j2ikp40","pricing_plan_id":"cebpf4jnsgd1na2vs0mg"},{"bike_id":"affb3f7a-a227-4528-9d14-09d0b60aecf5","system_id":"levelo_inurba_marseille","lat":43.30383,"lon":5.42471,"is_reserved":false,"is_disabled":false,"rental_uris":{"android":"levelo://app?vid=affb3f7a-a227-4528-9d14-09d0b60aecf5","ios":"levelo://app?vid=affb3f7a-a227-4528-9d14-09d0b60aecf5"},"vehicle_type_id":"4","last_reported":1752563698,"current_range_meters":11600,"station_id":"ce4bhoh2rcd13ifvqh6g","pricing_plan_id":"cebpf4jnsgd1na2vs0mg"},{"bike_id":"68271f2c-d116-4bee-8e06-9f87e5a7a022","system_id":"levelo_inurba_marseille","lat":43.292784,"lon":5.401364,"is_reserved":false,"is_disabled":false,"rental_uris":{"android":"levelo://app?vid=68271f2c-d116-4bee-8e06-9f87e5a7a022","ios":"levelo://app?vid=68271f2c-d116-4bee-8e06-9f87e5a7a022"},"vehicle_type_id":"4","last_reported":1752563698,"current_range_meters":11600,"station_id":"ce4bh312rcd13ifvqdk0","pricing_plan_id":"cebpf4jnsgd1na2vs0mg"},{"bike_id":"2ea0ed3e-b495-4a1b-99a9-d3987630dda1","system_id":"levelo_inurba_marseille","lat":43.317583,"lon":5.390114,"is_reserved":false,"is_disabled":false,"rental_uris":{"android":"levelo://app?vid=2ea0ed3e-b495-4a1b-99a9-d3987630dda1","ios":"levelo://app?vid=2ea0ed3e-b495-4a1b-99a9-d3987630dda1"},"vehicle_type_id":"4","last_reported":1752563698,"current_range_meters":11600,"station_id":"ce4bhqp2rcd13ifvqhng","pricing_plan_id":"cebpf4jnsgd1na2vs0mg"},{"bike_id":"d70d3e6a-1126-48eb-889f-aa24ec289128","system_id":"levelo_inurba_marseille","lat":43.27569,"lon":5.38426,"is_reserved":false,"is_disabled":false,"rental_uris":{"android":"levelo://app?vid=d70d3e6a-1126-48eb-889f-aa24ec289128","ios":"levelo://app?vid=d70d3e6a-1126-48eb-889f-aa24ec289128"},"vehicle_type_id":"4","last_reported":1752563698,"current_range_meters":12000,"station_id":"ce4bhh92rcd13ifvqfi0","pricing_plan_id":"cebpf4jnsgd1na2vs0mg"},{"bike_id":"af1eb9db-514d-4b8f-85e5-450ef4483445","system_id":"levelo_inurba_marseille","lat":43.29565,"lon":5.39069,"is_reserved":false,"is_disabled":false,"rental_uris":{"android":"levelo://app?vid=af1eb9db-514d-4b8f-85e5-450ef4483445","ios":"levelo://app?vid=af1eb9db-514d-4b8f-85e5-450ef4483445"},"vehicle_type_id":"4","last_reported":1752563698,"current_range_meters":12000,"station_id":"","pricing_plan_id":"cebpf4jnsgd1na2vs0mg"},{"bike_id":"3533bfb1-e1b0-4bc6-bb5c-2fea0e19aad1","system_id":"levelo_inurba_marseille","lat":43.30138,"lon":5.39871,"is_reserved":false,"is_disabled":false,"rental_uris":{"android":"levelo://app?vid=3533bfb1-e1b0-4bc6-bb5c-2fea0e19aad1","ios":"levelo://app?vid=3533bfb1-e1b0-4bc6-bb5c-2fea0e19aad1"},"vehicle_type_id":"4","last_reported":1752563698,"current_range_meters":12000,"station_id":"ce4bh0h2rcd13ifvqd40","pricing_plan_id":"cebpf4jnsgd1na2vs0mg"},{"bike_id":"e54d9ba4-d17a-4a42-ab61-c933b6d03a23","system_id":"levelo_inurba_marseille","lat":43.25928,"lon":5.40905,"is_reserved":false,"is_disabled":false,"rental_uris":{"android":"levelo://app?vid=e54d9ba4-d17a-4a42-ab61-c933b6d03a23","ios":"levelo://app?vid=e54d9ba4-d17a-4a42-ab61-c933b6d03a23"},"vehicle_type_id":"4","last_reported":1752563698,"current_range_meters":12000,"station_id":"ce4bhm92rcd13ifvqglg","pricing_plan_id":"cebpf4jnsgd1na2vs0mg"},{"bike_id":"4c5cc625-984e-4fa4-a0bd-99e815e4e876","system_id":"levelo_inurba_marseille","lat":43.24999,"lon":5.38925,"is_reserved":false,"is_disabled":false,"rental_uris":{"android":"levelo://app?vid=4c5cc625-984e-4fa4-a0bd-99e815e4e876","ios":"levelo://app?vid=4c5cc625-984e-4fa4-a0bd-99e815e4e876"},"vehicle_type_id":"4","last_reported":1752563698,"current_range_meters":12000,"station_id":"ce4bhgp2rcd13ifvqfd0","pricing_plan_id":"cebpf4jnsgd1na2vs0mg"},{"bike_id":"d46b3119-086b-4d1e-a270-f9d165b26d61","system_id":"levelo_inurba_marseille","lat":43.29574,"lon":5.37521,"is_reserved":false,"is_disabled":false,"rental_uris":{"android":"levelo://app?vid=d46b3119-086b-4d1e-a270-f9d165b26d61","ios":"levelo://app?vid=d46b3119-086b-4d1e-a270-f9d165b26d61"},"vehicle_type_id":"4","last_reported":1752563698,"current_range_meters":12000,"station_id":"ce4bgh92rcd13ifvqb50","pricing_plan_id":"cebpf4jnsgd1na2vs0mg"},{"bike_id":"62fac126-5057-4e56-b458-9d1093a7332e","system_id":"levelo_inurba_marseille","lat":43.25941,"lon":5.40902,"is_reserved":false,"is_disabled":false,"rental_uris":{"android":"levelo://app?vid=62fac126-5057-4e56-b458-9d1093a7332e","ios":"levelo://app?vid=62fac126-5057-4e56-b458-9d1093a7332e"},"vehicle_type_id":"4","last_reported":1752563698,"current_range_meters":12400,"station_id":"ce4bhm92rcd13ifvqglg","pricing_plan_id":"cebpf4jnsgd1na2vs0mg"},{"bike_id":"6ac53aaf-35af-46ab-8dd7-f7b897e5005c","system_id":"levelo_inurba_marseille","lat":43.24176,"lon":5.39724,"is_reserved":false,"is_disabled":false,"rental_uris":{"android":"levelo://app?vid=6ac53aaf-35af-46ab-8dd7-f7b897e5005c","ios":"levelo://app?vid=6ac53aaf-35af-46ab-8dd7-f7b897e5005c"},"vehicle_type_id":"4","last_reported":1752563698,"current_range_meters":12400,"station_id":"ce4bhn12rcd13ifvqgpg","pricing_plan_id":"cebpf4jnsgd1na2vs0mg"},{"bike_id":"70b4ffb5-edda-4ad2-b17f-168b7d57906f","system_id":"levelo_inurba_marseille","lat":43.31716,"lon":5.37641,"is_reserved":false,"is_disabled":false,"rental_uris":{"android":"levelo://app?vid=70b4ffb5-edda-4ad2-b17f-168b7d57906f","ios":"levelo://app?vid=70b4ffb5-edda-4ad2-b17f-168b7d57906f"},"vehicle_type_id":"4","last_reported":1752563698,"current_range_meters":12400,"station_id":"","pricing_plan_id":"cebpf4jnsgd1na2vs0mg"},{"bike_id":"43878a83-6285-448b-948c-cf0506c0f6b2","system_id":"levelo_inurba_marseille","lat":43.25937,"lon":5.40901,"is_reserved":false,"is_disabled":false,"rental_uris":{"android":"levelo://app?vid=43878a83-6285-448b-948c-cf0506c0f6b2","ios":"levelo://app?vid=43878a83-6285-448b-948c-cf0506c0f6b2"},"vehicle_type_id":"4","last_reported":1752563698,"current_range_meters":12400,"station_id":"ce4bhm92rcd13ifvqglg","pricing_plan_id":"cebpf4jnsgd1na2vs0mg"},{"bike_id":"96404d04-512d-4e45-b57c-350a79134d38","system_id":"levelo_inurba_marseille","lat":43.211965,"lon":5.350655,"is_reserved":false,"is_disabled":false,"rental_uris":{"android":"levelo://app?vid=96404d04-512d-4e45-b57c-350a79134d38","ios":"levelo://app?vid=96404d04-512d-4e45-b57c-350a79134d38"},"vehicle_type_id":"4","last_reported":1752563698,"current_range_meters":12400,"station_id":"st_cvj6sg6p6f1abm77japg","pricing_plan_id":"cebpf4jnsgd1na2vs0mg"},{"bike_id":"5b4907f8-5f47-4ce5-ab03-6f51d8f8736a","system_id":"levelo_inurba_marseille","lat":43.255022,"lon":5.376487,"is_reserved":false,"is_disabled":true,"rental_uris":{"android":"levelo://app?vid=5b4907f8-5f47-4ce5-ab03-6f51d8f8736a","ios":"levelo://app?vid=5b4907f8-5f47-4ce5-ab03-6f51d8f8736a"},"vehicle_type_id":"4","last_reported":1752563698,"current_range_meters":12400,"station_id":"ce4bhih2rcd13ifvqfs0","pricing_plan_id":"cebpf4jnsgd1na2vs0mg"},{"bike_id":"44e10618-e1b8-4569-bc24-980853c4bf04","system_id":"levelo_inurba_marseille","lat":43.22929,"lon":5.3537,"is_reserved":false,"is_disabled":false,"rental_uris":{"android":"levelo://app?vid=44e10618-e1b8-4569-bc24-980853c4bf04","ios":"levelo://app?vid=44e10618-e1b8-4569-bc24-980853c4bf04"},"vehicle_type_id":"4","last_reported":1752563698,"current_range_meters":12800,"station_id":"cpo3532slgdg3j2ikp40","pricing_plan_id":"cebpf4jnsgd1na2vs0mg"},{"bike_id":"d0f90c24-dd03-411b-9731-55305f76b7c8","system_id":"levelo_inurba_marseille","lat":43.211938,"lon":5.350741,"is_reserved":false,"is_disabled":false,"rental_uris":{"android":"levelo://app?vid=d0f90c24-dd03-411b-9731-55305f76b7c8","ios":"levelo://app?vid=d0f90c24-dd03-411b-9731-55305f76b7c8"},"vehicle_type_id":"4","last_reported":1752563698,"current_range_meters":12800,"station_id":"st_cvj6sg6p6f1abm77japg","pricing_plan_id":"cebpf4jnsgd1na2vs0mg"},{"bike_id":"fc596da9-9f61-4d64-825a-637114e9ef48","system_id":"levelo_inurba_marseille","lat":43.26587,"lon":5.39483,"is_reserved":false,"is_disabled":false,"rental_uris":{"android":"levelo://app?vid=fc596da9-9f61-4d64-825a-637114e9ef48","ios":"levelo://app?vid=fc596da9-9f61-4d64-825a-637114e9ef48"},"vehicle_type_id":"4","last_reported":1752563698,"current_range_meters":12800,"station_id":"","pricing_plan_id":"cebpf4jnsgd1na2vs0mg"},{"bike_id":"5c02f6bc-57d1-4548-9387-8daa9b14403d","system_id":"levelo_inurba_marseille","lat":43.29294,"lon":5.37457,"is_reserved":false,"is_disabled":false,"rental_uris":{"android":"levelo://app?vid=5c02f6bc-57d1-4548-9387-8daa9b14403d","ios":"levelo://app?vid=5c02f6bc-57d1-4548-9387-8daa9b14403d"},"vehicle_type_id":"4","last_reported":1752563698,"current_range_meters":12800,"station_id":"","pricing_plan_id":"cebpf4jnsgd1na2vs0mg"},{"bike_id":"db6f44c1-3183-49da-9fd2-00c2511c76e2","system_id":"levelo_inurba_marseille","lat":43.25116,"lon":5.40314,"is_reserved":false,"is_disabled":false,"rental_uris":{"android":"levelo://app?vid=db6f44c1-3183-49da-9fd2-00c2511c76e2","ios":"levelo://app?vid=db6f44c1-3183-49da-9fd2-00c2511c76e2"},"vehicle_type_id":"4","last_reported":1752563698,"current_range_meters":12800,"station_id":"ce4bhlh2rcd13ifvqgig","pricing_plan_id":"cebpf4jnsgd1na2vs0mg"},{"bike_id":"2ab5e94c-5417-4029-92b3-02a3578ad673","system_id":"levelo_inurba_marseille","lat":43.290249,"lon":5.381227,"is_reserved":false,"is_disabled":true,"rental_uris":{"android":"levelo://app?vid=2ab5e94c-5417-4029-92b3-02a3578ad673","ios":"levelo://app?vid=2ab5e94c-5417-4029-92b3-02a3578ad673"},"vehicle_type_id":"4","last_reported":1752563698,"current_range_meters":12800,"station_id":"","pricing_plan_id":"cebpf4jnsgd1na2vs0mg"},{"bike_id":"aac218cd-f764-48c5-a074-bf8aa6e2343a","system_id":"levelo_inurba_marseille","lat":43.231614,"lon":5.436983,"is_reserved":false,"is_disabled":false,"rental_uris":{"android":"levelo://app?vid=aac218cd-f764-48c5-a074-bf8aa6e2343a","ios":"levelo://app?vid=aac218cd-f764-48c5-a074-bf8aa6e2343a"},"vehicle_type_id":"4","last_reported":1752563698,"current_range_meters":12800,"station_id":"ce4bhmp2rcd13ifvqgog","pricing_plan_id":"cebpf4jnsgd1na2vs0mg"},{"bike_id":"1fee386a-4b32-4a67-9474-f50b228f909b","system_id":"levelo_inurba_marseille","lat":43.3117,"lon":5.38709,"is_reserved":false,"is_disabled":false,"rental_uris":{"android":"levelo://app?vid=1fee386a-4b32-4a67-9474-f50b228f909b","ios":"levelo://app?vid=1fee386a-4b32-4a67-9474-f50b228f909b"},"vehicle_type_id":"4","last_reported":1752563698,"current_range_meters":12800,"station_id":"ce4bgv12rcd13ifvqcp0","pricing_plan_id":"cebpf4jnsgd1na2vs0mg"},{"bike_id":"d7fdfdf8-b65c-413e-843a-5c760c18846e","system_id":"levelo_inurba_marseille","lat":43.305943,"lon":5.367117,"is_reserved":false,"is_disabled":false,"rental_uris":{"android":"levelo://app?vid=d7fdfdf8-b65c-413e-843a-5c760c18846e","ios":"levelo://app?vid=d7fdfdf8-b65c-413e-843a-5c760c18846e"},"vehicle_type_id":"4","last_reported":1752563698,"current_range_meters":12800,"station_id":"ce4bguh2rcd13ifvqckg","pricing_plan_id":"cebpf4jnsgd1na2vs0mg"},{"bike_id":"48a72147-d63a-4fad-9403-9184689656c8","system_id":"levelo_inurba_marseille","lat":43.24389,"lon":5.37054,"is_reserved":false,"is_disabled":false,"rental_uris":{"android":"levelo://app?vid=48a72147-d63a-4fad-9403-9184689656c8","ios":"levelo://app?vid=48a72147-d63a-4fad-9403-9184689656c8"},"vehicle_type_id":"4","last_reported":1752563698,"current_range_meters":13600,"station_id":"ce4bhhh2rcd13ifvqfk0","pricing_plan_id":"cebpf4jnsgd1na2vs0mg"},{"bike_id":"6c6d4d9a-6141-481c-9c1a-8e61054bdc43","system_id":"levelo_inurba_marseille","lat":43.24796,"lon":5.41805,"is_reserved":false,"is_disabled":false,"rental_uris":{"android":"levelo://app?vid=6c6d4d9a-6141-481c-9c1a-8e61054bdc43","ios":"levelo://app?vid=6c6d4d9a-6141-481c-9c1a-8e61054bdc43"},"vehicle_type_id":"4","last_reported":1752563698,"current_range_meters":14000,"station_id":"","pricing_plan_id":"cebpf4jnsgd1na2vs0mg"},{"bike_id":"0dd0144f-e46a-4fc8-acc1-aefcd0ae5af9","system_id":"levelo_inurba_marseille","lat":43.24997,"lon":5.38934,"is_reserved":false,"is_disabled":false,"rental_uris":{"android":"levelo://app?vid=0dd0144f-e46a-4fc8-acc1-aefcd0ae5af9","ios":"levelo://app?vid=0dd0144f-e46a-4fc8-acc1-aefcd0ae5af9"},"vehicle_type_id":"4","last_reported":1752563698,"current_range_meters":14000,"station_id":"ce4bhgp2rcd13ifvqfd0","pricing_plan_id":"cebpf4jnsgd1na2vs0mg"},{"bike_id":"3cd6263a-01f8-4ff3-b532-b26060163c3f","system_id":"levelo_inurba_marseille","lat":43.21194,"lon":5.3506,"is_reserved":false,"is_disabled":false,"rental_uris":{"android":"levelo://app?vid=3cd6263a-01f8-4ff3-b532-b26060163c3f","ios":"levelo://app?vid=3cd6263a-01f8-4ff3-b532-b26060163c3f"},"vehicle_type_id":"4","last_reported":1752563698,"current_range_meters":14000,"station_id":"","pricing_plan_id":"cebpf4jnsgd1na2vs0mg"},{"bike_id":"e4cc9422-b66a-4b54-b535-b17a3b695b97","system_id":"levelo_inurba_marseille","lat":43.28361,"lon":5.37391,"is_reserved":false,"is_disabled":false,"rental_uris":{"android":"levelo://app?vid=e4cc9422-b66a-4b54-b535-b17a3b695b97","ios":"levelo://app?vid=e4cc9422-b66a-4b54-b535-b17a3b695b97"},"vehicle_type_id":"4","last_reported":1752563698,"current_range_meters":14000,"station_id":"","pricing_plan_id":"cebpf4jnsgd1na2vs0mg"},{"bike_id":"9abe87a0-4ff8-4da3-9ef8-ba0f0e19ecb1","system_id":"levelo_inurba_marseille","lat":43.302521,"lon":5.400704,"is_reserved":false,"is_disabled":false,"rental_uris":{"android":"levelo://app?vid=9abe87a0-4ff8-4da3-9ef8-ba0f0e19ecb1","ios":"levelo://app?vid=9abe87a0-4ff8-4da3-9ef8-ba0f0e19ecb1"},"vehicle_type_id":"4","last_reported":1752563698,"current_range_meters":14000,"station_id":"ce4bgvh2rcd13ifvqcs0","pricing_plan_id":"cebpf4jnsgd1na2vs0mg"},{"bike_id":"2ad84a3d-4c9e-4bc0-bf26-0632e817f06d","system_id":"levelo_inurba_marseille","lat":43.29257,"lon":5.37613,"is_reserved":false,"is_disabled":false,"rental_uris":{"android":"levelo://app?vid=2ad84a3d-4c9e-4bc0-bf26-0632e817f06d","ios":"levelo://app?vid=2ad84a3d-4c9e-4bc0-bf26-0632e817f06d"},"vehicle_type_id":"4","last_reported":1752563698,"current_range_meters":14000,"station_id":"ce4bgi12rcd13ifvqb80","pricing_plan_id":"cebpf4jnsgd1na2vs0mg"},{"bike_id":"e604067d-3800-4ac2-9860-8fea46e837e8","system_id":"levelo_inurba_marseille","lat":43.26575,"lon":5.40328,"is_reserved":false,"is_disabled":false,"rental_uris":{"android":"levelo://app?vid=e604067d-3800-4ac2-9860-8fea46e837e8","ios":"levelo://app?vid=e604067d-3800-4ac2-9860-8fea46e837e8"},"vehicle_type_id":"4","last_reported":1752563698,"current_range_meters":14000,"station_id":"","pricing_plan_id":"cebpf4jnsgd1na2vs0mg"},{"bike_id":"c234728c-40bf-469b-b6fa-8d09a3025148","system_id":"levelo_inurba_marseille","lat":43.28848,"lon":5.39303,"is_reserved":false,"is_disabled":false,"rental_uris":{"android":"levelo://app?vid=c234728c-40bf-469b-b6fa-8d09a3025148","ios":"levelo://app?vid=c234728c-40bf-469b-b6fa-8d09a3025148"},"vehicle_type_id":"4","last_reported":1752563698,"current_range_meters":14400,"station_id":"ce4bh2p2rcd13ifvqdi0","pricing_plan_id":"cebpf4jnsgd1na2vs0mg"},{"bike_id":"93f72f67-b54e-44c4-a367-16c06a5c24ce","system_id":"levelo_inurba_marseille","lat":43.31356,"lon":5.36703,"is_reserved":false,"is_disabled":false,"rental_uris":{"android":"levelo://app?vid=93f72f67-b54e-44c4-a367-16c06a5c24ce","ios":"levelo://app?vid=93f72f67-b54e-44c4-a367-16c06a5c24ce"},"vehicle_type_id":"4","last_reported":1752563698,"current_range_meters":14400,"station_id":"ce4bgr92rcd13ifvqc6g","pricing_plan_id":"cebpf4jnsgd1na2vs0mg"},{"bike_id":"f10941ce-d19a-4475-b0ba-1c38d332727e","system_id":"levelo_inurba_marseille","lat":43.32153,"lon":5.38712,"is_reserved":false,"is_disabled":false,"rental_uris":{"android":"levelo://app?vid=f10941ce-d19a-4475-b0ba-1c38d332727e","ios":"levelo://app?vid=f10941ce-d19a-4475-b0ba-1c38d332727e"},"vehicle_type_id":"4","last_reported":1752563698,"current_range_meters":14400,"station_id":"","pricing_plan_id":"cebpf4jnsgd1na2vs0mg"},{"bike_id":"2a74c118-5915-42ae-a5b6-acad51f5ceb5","system_id":"levelo_inurba_marseille","lat":43.27567,"lon":5.38451,"is_reserved":false,"is_disabled":true,"rental_uris":{"android":"levelo://app?vid=2a74c118-5915-42ae-a5b6-acad51f5ceb5","ios":"levelo://app?vid=2a74c118-5915-42ae-a5b6-acad51f5ceb5"},"vehicle_type_id":"4","last_reported":1752563698,"current_range_meters":14400,"station_id":"ce4bhh92rcd13ifvqfi0","pricing_plan_id":"cebpf4jnsgd1na2vs0mg"},{"bike_id":"d7112c54-f9dc-425f-acf8-196623bf4ba2","system_id":"levelo_inurba_marseille","lat":43.24062,"lon":5.37766,"is_reserved":false,"is_disabled":false,"rental_uris":{"android":"levelo://app?vid=d7112c54-f9dc-425f-acf8-196623bf4ba2","ios":"levelo://app?vid=d7112c54-f9dc-425f-acf8-196623bf4ba2"},"vehicle_type_id":"4","last_reported":1752563698,"current_range_meters":14400,"station_id":"ce4bhnp2rcd13ifvqgvg","pricing_plan_id":"cebpf4jnsgd1na2vs0mg"},{"bike_id":"bf91c6c4-03f2-46b8-b60d-3c52cbf98090","system_id":"levelo_inurba_marseille","lat":43.29973,"lon":5.37175,"is_reserved":false,"is_disabled":false,"rental_uris":{"android":"levelo://app?vid=bf91c6c4-03f2-46b8-b60d-3c52cbf98090","ios":"levelo://app?vid=bf91c6c4-03f2-46b8-b60d-3c52cbf98090"},"vehicle_type_id":"4","last_reported":1752563698,"current_range_meters":14400,"station_id":"ce4bgr92rcd13ifvqc7g","pricing_plan_id":"cebpf4jnsgd1na2vs0mg"},{"bike_id":"80f5da49-2d6d-43cb-b79d-c73e3874d0a5","system_id":"levelo_inurba_marseille","lat":43.27674,"lon":5.3888,"is_reserved":false,"is_disabled":false,"rental_uris":{"android":"levelo://app?vid=80f5da49-2d6d-43cb-b79d-c73e3874d0a5","ios":"levelo://app?vid=80f5da49-2d6d-43cb-b79d-c73e3874d0a5"},"vehicle_type_id":"4","last_reported":1752563698,"current_range_meters":14400,"station_id":"ce4bhi12rcd13ifvqfo0","pricing_plan_id":"cebpf4jnsgd1na2vs0mg"},{"bike_id":"7da72a15-d4a5-40d8-9205-78a0a34f5247","system_id":"levelo_inurba_marseille","lat":43.24854,"lon":5.42522,"is_reserved":false,"is_disabled":false,"rental_uris":{"android":"levelo://app?vid=7da72a15-d4a5-40d8-9205-78a0a34f5247","ios":"levelo://app?vid=7da72a15-d4a5-40d8-9205-78a0a34f5247"},"vehicle_type_id":"4","last_reported":1752563698,"current_range_meters":14800,"station_id":"","pricing_plan_id":"cebpf4jnsgd1na2vs0mg"},{"bike_id":"6bbb771e-92b5-440e-a1ad-9ab86637262b","system_id":"levelo_inurba_marseille","lat":43.299738,"lon":5.384867,"is_reserved":false,"is_disabled":true,"rental_uris":{"android":"levelo://app?vid=6bbb771e-92b5-440e-a1ad-9ab86637262b","ios":"levelo://app?vid=6bbb771e-92b5-440e-a1ad-9ab86637262b"},"vehicle_type_id":"4","last_reported":1752563698,"current_range_meters":14800,"station_id":"","pricing_plan_id":"cebpf4jnsgd1na2vs0mg"},{"bike_id":"5e875fc0-5dbf-4c16-a845-dc6c96f0d424","system_id":"levelo_inurba_marseille","lat":43.31338,"lon":5.36706,"is_reserved":false,"is_disabled":false,"rental_uris":{"android":"levelo://app?vid=5e875fc0-5dbf-4c16-a845-dc6c96f0d424","ios":"levelo://app?vid=5e875fc0-5dbf-4c16-a845-dc6c96f0d424"},"vehicle_type_id":"4","last_reported":1752563698,"current_range_meters":14800,"station_id":"ce4bgr92rcd13ifvqc6g","pricing_plan_id":"cebpf4jnsgd1na2vs0mg"},{"bike_id":"7f91f9d6-fd6c-4ab5-a377-bed8dcf85165","system_id":"levelo_inurba_marseille","lat":43.27371,"lon":5.36255,"is_reserved":false,"is_disabled":false,"rental_uris":{"android":"levelo://app?vid=7f91f9d6-fd6c-4ab5-a377-bed8dcf85165","ios":"levelo://app?vid=7f91f9d6-fd6c-4ab5-a377-bed8dcf85165"},"vehicle_type_id":"4","last_reported":1752563698,"current_range_meters":16400,"station_id":"ce4bhbh2rcd13ifvqeo0","pricing_plan_id":"cebpf4jnsgd1na2vs0mg"},{"bike_id":"c3eb31c9-e106-4cd2-bb91-f2d0ee3e7a6f","system_id":"levelo_inurba_marseille","lat":43.2403,"lon":5.36233,"is_reserved":false,"is_disabled":false,"rental_uris":{"android":"levelo://app?vid=c3eb31c9-e106-4cd2-bb91-f2d0ee3e7a6f","ios":"levelo://app?vid=c3eb31c9-e106-4cd2-bb91-f2d0ee3e7a6f"},"vehicle_type_id":"4","last_reported":1752563698,"current_range_meters":14800,"station_id":"","pricing_plan_id":"cebpf4jnsgd1na2vs0mg"},{"bike_id":"5fc4a472-af3f-4dfe-a0ae-48fe2b7d394c","system_id":"levelo_inurba_marseille","lat":43.25814,"lon":5.39453,"is_reserved":false,"is_disabled":false,"rental_uris":{"android":"levelo://app?vid=5fc4a472-af3f-4dfe-a0ae-48fe2b7d394c","ios":"levelo://app?vid=5fc4a472-af3f-4dfe-a0ae-48fe2b7d394c"},"vehicle_type_id":"4","last_reported":1752563698,"current_range_meters":14400,"station_id":"ce4bhip2rcd13ifvqft0","pricing_plan_id":"cebpf4jnsgd1na2vs0mg"},{"bike_id":"6a5bdfb5-44e8-42af-a1d8-aada0ea5cffd","system_id":"levelo_inurba_marseille","lat":43.292771,"lon":5.401338,"is_reserved":false,"is_disabled":false,"rental_uris":{"android":"levelo://app?vid=6a5bdfb5-44e8-42af-a1d8-aada0ea5cffd","ios":"levelo://app?vid=6a5bdfb5-44e8-42af-a1d8-aada0ea5cffd"},"vehicle_type_id":"4","last_reported":1752563698,"current_range_meters":15200,"station_id":"ce4bh312rcd13ifvqdk0","pricing_plan_id":"cebpf4jnsgd1na2vs0mg"},{"bike_id":"3d76d82f-e252-4a4a-bf09-21ea73c969ca","system_id":"levelo_inurba_marseille","lat":43.24182,"lon":5.39722,"is_reserved":false,"is_disabled":false,"rental_uris":{"android":"levelo://app?vid=3d76d82f-e252-4a4a-bf09-21ea73c969ca","ios":"levelo://app?vid=3d76d82f-e252-4a4a-bf09-21ea73c969ca"},"vehicle_type_id":"4","last_reported":1752563698,"current_range_meters":15200,"station_id":"ce4bhn12rcd13ifvqgpg","pricing_plan_id":"cebpf4jnsgd1na2vs0mg"},{"bike_id":"d7159adf-94a3-498c-948b-458c9b026277","system_id":"levelo_inurba_marseille","lat":43.22541,"lon":5.34769,"is_reserved":false,"is_disabled":false,"rental_uris":{"android":"levelo://app?vid=d7159adf-94a3-498c-948b-458c9b026277","ios":"levelo://app?vid=d7159adf-94a3-498c-948b-458c9b026277"},"vehicle_type_id":"4","last_reported":1752563698,"current_range_meters":15200,"station_id":"","pricing_plan_id":"cebpf4jnsgd1na2vs0mg"},{"bike_id":"68a86088-e3e2-4227-b2d1-31a14f48b8a6","system_id":"levelo_inurba_marseille","lat":43.258601,"lon":5.399063,"is_reserved":false,"is_disabled":false,"rental_uris":{"android":"levelo://app?vid=68a86088-e3e2-4227-b2d1-31a14f48b8a6","ios":"levelo://app?vid=68a86088-e3e2-4227-b2d1-31a14f48b8a6"},"vehicle_type_id":"4","last_reported":1752563698,"current_range_meters":15200,"station_id":"","pricing_plan_id":"cebpf4jnsgd1na2vs0mg"},{"bike_id":"d199b05c-bf49-40ff-8185-8d98f4140722","system_id":"levelo_inurba_marseille","lat":43.33146,"lon":5.38173,"is_reserved":false,"is_disabled":false,"rental_uris":{"android":"levelo://app?vid=d199b05c-bf49-40ff-8185-8d98f4140722","ios":"levelo://app?vid=d199b05c-bf49-40ff-8185-8d98f4140722"},"vehicle_type_id":"4","last_reported":1752563698,"current_range_meters":16000,"station_id":"","pricing_plan_id":"cebpf4jnsgd1na2vs0mg"},{"bike_id":"9b97f034-5c07-45c8-a58a-7cc44a7cda06","system_id":"levelo_inurba_marseille","lat":43.33012,"lon":5.3903,"is_reserved":false,"is_disabled":false,"rental_uris":{"android":"levelo://app?vid=9b97f034-5c07-45c8-a58a-7cc44a7cda06","ios":"levelo://app?vid=9b97f034-5c07-45c8-a58a-7cc44a7cda06"},"vehicle_type_id":"4","last_reported":1752563698,"current_range_meters":16000,"station_id":"ce4bhr92rcd13ifvqhrg","pricing_plan_id":"cebpf4jnsgd1na2vs0mg"},{"bike_id":"9c6b3a09-9422-4986-a81f-a7a9a126b0ad","system_id":"levelo_inurba_marseille","lat":43.23135,"lon":5.43726,"is_reserved":false,"is_disabled":false,"rental_uris":{"android":"levelo://app?vid=9c6b3a09-9422-4986-a81f-a7a9a126b0ad","ios":"levelo://app?vid=9c6b3a09-9422-4986-a81f-a7a9a126b0ad"},"vehicle_type_id":"4","last_reported":1752563698,"current_range_meters":16000,"station_id":"ce4bhmp2rcd13ifvqgog","pricing_plan_id":"cebpf4jnsgd1na2vs0mg"},{"bike_id":"590e8a59-7dcc-42c4-80cd-31312d6a701b","system_id":"levelo_inurba_marseille","lat":43.232,"lon":5.35548,"is_reserved":false,"is_disabled":false,"rental_uris":{"android":"levelo://app?vid=590e8a59-7dcc-42c4-80cd-31312d6a701b","ios":"levelo://app?vid=590e8a59-7dcc-42c4-80cd-31312d6a701b"},"vehicle_type_id":"4","last_reported":1752563698,"current_range_meters":16000,"station_id":"ce4bhu92rcd13ifvqi70","pricing_plan_id":"cebpf4jnsgd1na2vs0mg"},{"bike_id":"0ed9cc96-3e4f-401e-8ecc-2faf694ad5a0","system_id":"levelo_inurba_marseille","lat":43.30287,"lon":5.36876,"is_reserved":false,"is_disabled":false,"rental_uris":{"android":"levelo://app?vid=0ed9cc96-3e4f-401e-8ecc-2faf694ad5a0","ios":"levelo://app?vid=0ed9cc96-3e4f-401e-8ecc-2faf694ad5a0"},"vehicle_type_id":"4","last_reported":1752563698,"current_range_meters":16000,"station_id":"ce4bgqh2rcd13ifvqc5g","pricing_plan_id":"cebpf4jnsgd1na2vs0mg"},{"bike_id":"df0527da-c1eb-410d-9133-b6454f909497","system_id":"levelo_inurba_marseille","lat":43.279527,"lon":5.391683,"is_reserved":false,"is_disabled":true,"rental_uris":{"android":"levelo://app?vid=df0527da-c1eb-410d-9133-b6454f909497","ios":"levelo://app?vid=df0527da-c1eb-410d-9133-b6454f909497"},"vehicle_type_id":"4","last_reported":1752563698,"current_range_meters":16000,"station_id":"","pricing_plan_id":"cebpf4jnsgd1na2vs0mg"},{"bike_id":"6b665749-5d83-4001-bfa6-ddbce97a8df7","system_id":"levelo_inurba_marseille","lat":43.23965,"lon":5.36621,"is_reserved":false,"is_disabled":false,"rental_uris":{"android":"levelo://app?vid=6b665749-5d83-4001-bfa6-ddbce97a8df7","ios":"levelo://app?vid=6b665749-5d83-4001-bfa6-ddbce97a8df7"},"vehicle_type_id":"4","last_reported":1752563698,"current_range_meters":16000,"station_id":"ce4bhi12rcd13ifvqfp0","pricing_plan_id":"cebpf4jnsgd1na2vs0mg"},{"bike_id":"50e91a77-2a36-44c1-b2f6-88ec08664fa3","system_id":"levelo_inurba_marseille","lat":43.26222,"lon":5.40444,"is_reserved":false,"is_disabled":false,"rental_uris":{"android":"levelo://app?vid=50e91a77-2a36-44c1-b2f6-88ec08664fa3","ios":"levelo://app?vid=50e91a77-2a36-44c1-b2f6-88ec08664fa3"},"vehicle_type_id":"4","last_reported":1752563698,"current_range_meters":16000,"station_id":"ce4bhmh2rcd13ifvqgmg","pricing_plan_id":"cebpf4jnsgd1na2vs0mg"},{"bike_id":"277581c9-02e8-4d56-838d-c73954e3b9c5","system_id":"levelo_inurba_marseille","lat":43.26998,"lon":5.38764,"is_reserved":false,"is_disabled":false,"rental_uris":{"android":"levelo://app?vid=277581c9-02e8-4d56-838d-c73954e3b9c5","ios":"levelo://app?vid=277581c9-02e8-4d56-838d-c73954e3b9c5"},"vehicle_type_id":"4","last_reported":1752563698,"current_range_meters":16000,"station_id":"","pricing_plan_id":"cebpf4jnsgd1na2vs0mg"},{"bike_id":"8ff79917-70b1-4485-bd2f-f557cbff6cf7","system_id":"levelo_inurba_marseille","lat":43.290421,"lon":5.359118,"is_reserved":false,"is_disabled":true,"rental_uris":{"android":"levelo://app?vid=8ff79917-70b1-4485-bd2f-f557cbff6cf7","ios":"levelo://app?vid=8ff79917-70b1-4485-bd2f-f557cbff6cf7"},"vehicle_type_id":"4","last_reported":1752563698,"current_range_meters":16000,"station_id":"","pricing_plan_id":"cebpf4jnsgd1na2vs0mg"},{"bike_id":"de3c7479-ad03-448f-a78e-88898eddd51a","system_id":"levelo_inurba_marseille","lat":43.329635,"lon":5.397455,"is_reserved":false,"is_disabled":false,"rental_uris":{"android":"levelo://app?vid=de3c7479-ad03-448f-a78e-88898eddd51a","ios":"levelo://app?vid=de3c7479-ad03-448f-a78e-88898eddd51a"},"vehicle_type_id":"4","last_reported":1752563698,"current_range_meters":16400,"station_id":"","pricing_plan_id":"cebpf4jnsgd1na2vs0mg"},{"bike_id":"903197e4-3da2-471b-9537-d88bae7e31c4","system_id":"levelo_inurba_marseille","lat":43.264851,"lon":5.395471,"is_reserved":false,"is_disabled":true,"rental_uris":{"android":"levelo://app?vid=903197e4-3da2-471b-9537-d88bae7e31c4","ios":"levelo://app?vid=903197e4-3da2-471b-9537-d88bae7e31c4"},"vehicle_type_id":"4","last_reported":1752563698,"current_range_meters":16400,"station_id":"ce4bhi12rcd13ifvqfq0","pricing_plan_id":"cebpf4jnsgd1na2vs0mg"},{"bike_id":"711b7d8d-04d8-4ee3-be68-f5ef284814d7","system_id":"levelo_inurba_marseille","lat":43.26795,"lon":5.39408,"is_reserved":false,"is_disabled":false,"rental_uris":{"android":"levelo://app?vid=711b7d8d-04d8-4ee3-be68-f5ef284814d7","ios":"levelo://app?vid=711b7d8d-04d8-4ee3-be68-f5ef284814d7"},"vehicle_type_id":"4","last_reported":1752563698,"current_range_meters":16400,"station_id":"ce4bhh12rcd13ifvqfg0","pricing_plan_id":"cebpf4jnsgd1na2vs0mg"},{"bike_id":"90d8578f-7619-4279-84b6-4ed88aa377e2","system_id":"levelo_inurba_marseille","lat":43.21178,"lon":5.35059,"is_reserved":false,"is_disabled":false,"rental_uris":{"android":"levelo://app?vid=90d8578f-7619-4279-84b6-4ed88aa377e2","ios":"levelo://app?vid=90d8578f-7619-4279-84b6-4ed88aa377e2"},"vehicle_type_id":"4","last_reported":1752563698,"current_range_meters":16400,"station_id":"st_cvj6sg6p6f1abm77japg","pricing_plan_id":"cebpf4jnsgd1na2vs0mg"},{"bike_id":"d36a919a-b211-4911-9e32-9dcd90615a0c","system_id":"levelo_inurba_marseille","lat":43.31363,"lon":5.38485,"is_reserved":false,"is_disabled":false,"rental_uris":{"android":"levelo://app?vid=d36a919a-b211-4911-9e32-9dcd90615a0c","ios":"levelo://app?vid=d36a919a-b211-4911-9e32-9dcd90615a0c"},"vehicle_type_id":"4","last_reported":1752563698,"current_range_meters":16400,"station_id":"ce4bgt92rcd13ifvqcf0","pricing_plan_id":"cebpf4jnsgd1na2vs0mg"},{"bike_id":"7bce7a34-5113-458d-9330-3d00164f4612","system_id":"levelo_inurba_marseille","lat":43.211979,"lon":5.350674,"is_reserved":false,"is_disabled":false,"rental_uris":{"android":"levelo://app?vid=7bce7a34-5113-458d-9330-3d00164f4612","ios":"levelo://app?vid=7bce7a34-5113-458d-9330-3d00164f4612"},"vehicle_type_id":"4","last_reported":1752563698,"current_range_meters":16400,"station_id":"st_cvj6sg6p6f1abm77japg","pricing_plan_id":"cebpf4jnsgd1na2vs0mg"},{"bike_id":"2bcc0ed5-261b-4e84-bfe4-ce2479b810f6","system_id":"levelo_inurba_marseille","lat":43.28413,"lon":5.37517,"is_reserved":false,"is_disabled":true,"rental_uris":{"android":"levelo://app?vid=2bcc0ed5-261b-4e84-bfe4-ce2479b810f6","ios":"levelo://app?vid=2bcc0ed5-261b-4e84-bfe4-ce2479b810f6"},"vehicle_type_id":"4","last_reported":1752563698,"current_range_meters":16400,"station_id":"ce4bh412rcd13ifvqds0","pricing_plan_id":"cebpf4jnsgd1na2vs0mg"},{"bike_id":"967df707-4721-472b-a65b-fc5f7c1a8c06","system_id":"levelo_inurba_marseille","lat":43.24179,"lon":5.39725,"is_reserved":false,"is_disabled":false,"rental_uris":{"android":"levelo://app?vid=967df707-4721-472b-a65b-fc5f7c1a8c06","ios":"levelo://app?vid=967df707-4721-472b-a65b-fc5f7c1a8c06"},"vehicle_type_id":"4","last_reported":1752563698,"current_range_meters":16400,"station_id":"ce4bhn12rcd13ifvqgpg","pricing_plan_id":"cebpf4jnsgd1na2vs0mg"},{"bike_id":"36fe69a3-bcb1-4181-8ed6-b93e807e4e94","system_id":"levelo_inurba_marseille","lat":43.31687,"lon":5.40469,"is_reserved":false,"is_disabled":false,"rental_uris":{"android":"levelo://app?vid=36fe69a3-bcb1-4181-8ed6-b93e807e4e94","ios":"levelo://app?vid=36fe69a3-bcb1-4181-8ed6-b93e807e4e94"},"vehicle_type_id":"4","last_reported":1752563698,"current_range_meters":16400,"station_id":"ce4bh012rcd13ifvqd00","pricing_plan_id":"cebpf4jnsgd1na2vs0mg"},{"bike_id":"a043714e-0ca7-4bd2-9fac-0a949ab5c01f","system_id":"levelo_inurba_marseille","lat":43.28168,"lon":5.4235,"is_reserved":false,"is_disabled":false,"rental_uris":{"android":"levelo://app?vid=a043714e-0ca7-4bd2-9fac-0a949ab5c01f","ios":"levelo://app?vid=a043714e-0ca7-4bd2-9fac-0a949ab5c01f"},"vehicle_type_id":"4","last_reported":1752563698,"current_range_meters":16400,"station_id":"","pricing_plan_id":"cebpf4jnsgd1na2vs0mg"},{"bike_id":"a35525d1-6df4-486d-a0f0-caf70e289411","system_id":"levelo_inurba_marseille","lat":43.32502,"lon":5.36572,"is_reserved":false,"is_disabled":false,"rental_uris":{"android":"levelo://app?vid=a35525d1-6df4-486d-a0f0-caf70e289411","ios":"levelo://app?vid=a35525d1-6df4-486d-a0f0-caf70e289411"},"vehicle_type_id":"4","last_reported":1752563698,"current_range_meters":16400,"station_id":"ce4bhs12rcd13ifvqhvg","pricing_plan_id":"cebpf4jnsgd1na2vs0mg"},{"bike_id":"ac928612-476b-4e4b-8c2b-a3f75e53d945","system_id":"levelo_inurba_marseille","lat":43.22503,"lon":5.34791,"is_reserved":false,"is_disabled":false,"rental_uris":{"android":"levelo://app?vid=ac928612-476b-4e4b-8c2b-a3f75e53d945","ios":"levelo://app?vid=ac928612-476b-4e4b-8c2b-a3f75e53d945"},"vehicle_type_id":"4","last_reported":1752563698,"current_range_meters":16800,"station_id":"st_cvj5dfep6f1abm77gieg","pricing_plan_id":"cebpf4jnsgd1na2vs0mg"},{"bike_id":"9bbd90ba-2450-4428-9c7b-237a7aa9305c","system_id":"levelo_inurba_marseille","lat":43.313468,"lon":5.36708,"is_reserved":false,"is_disabled":false,"rental_uris":{"android":"levelo://app?vid=9bbd90ba-2450-4428-9c7b-237a7aa9305c","ios":"levelo://app?vid=9bbd90ba-2450-4428-9c7b-237a7aa9305c"},"vehicle_type_id":"4","last_reported":1752563698,"current_range_meters":16800,"station_id":"ce4bh0h2rcd13ifvqd50","pricing_plan_id":"cebpf4jnsgd1na2vs0mg"},{"bike_id":"1e4e1de4-1642-4009-adbe-610acebad86e","system_id":"levelo_inurba_marseille","lat":43.25943,"lon":5.40907,"is_reserved":false,"is_disabled":false,"rental_uris":{"android":"levelo://app?vid=1e4e1de4-1642-4009-adbe-610acebad86e","ios":"levelo://app?vid=1e4e1de4-1642-4009-adbe-610acebad86e"},"vehicle_type_id":"4","last_reported":1752563698,"current_range_meters":16800,"station_id":"ce4bhm92rcd13ifvqglg","pricing_plan_id":"cebpf4jnsgd1na2vs0mg"},{"bike_id":"8a9f8ceb-0274-4ada-8a43-1bc35cd2deb7","system_id":"levelo_inurba_marseille","lat":43.289415,"lon":5.366308,"is_reserved":false,"is_disabled":true,"rental_uris":{"android":"levelo://app?vid=8a9f8ceb-0274-4ada-8a43-1bc35cd2deb7","ios":"levelo://app?vid=8a9f8ceb-0274-4ada-8a43-1bc35cd2deb7"},"vehicle_type_id":"4","last_reported":1752563698,"current_range_meters":16800,"station_id":"ce4bhap2rcd13ifvqek0","pricing_plan_id":"cebpf4jnsgd1na2vs0mg"},{"bike_id":"474d0eb6-38ba-4a3d-b185-eec1551078f4","system_id":"levelo_inurba_marseille","lat":43.27598,"lon":5.36113,"is_reserved":false,"is_disabled":true,"rental_uris":{"android":"levelo://app?vid=474d0eb6-38ba-4a3d-b185-eec1551078f4","ios":"levelo://app?vid=474d0eb6-38ba-4a3d-b185-eec1551078f4"},"vehicle_type_id":"4","last_reported":1752563698,"current_range_meters":16800,"station_id":"ce4bgj92rcd13ifvqbe0","pricing_plan_id":"cebpf4jnsgd1na2vs0mg"},{"bike_id":"ce23b02e-6d65-4c0d-9e4c-0269a519d803","system_id":"levelo_inurba_marseille","lat":43.24179,"lon":5.39721,"is_reserved":false,"is_disabled":false,"rental_uris":{"android":"levelo://app?vid=ce23b02e-6d65-4c0d-9e4c-0269a519d803","ios":"levelo://app?vid=ce23b02e-6d65-4c0d-9e4c-0269a519d803"},"vehicle_type_id":"4","last_reported":1752563698,"current_range_meters":16800,"station_id":"ce4bhn12rcd13ifvqgpg","pricing_plan_id":"cebpf4jnsgd1na2vs0mg"},{"bike_id":"5ab9ec53-4842-485c-bf8b-068a5dd98a4b","system_id":"levelo_inurba_marseille","lat":43.31224,"lon":5.36851,"is_reserved":false,"is_disabled":false,"rental_uris":{"android":"levelo://app?vid=5ab9ec53-4842-485c-bf8b-068a5dd98a4b","ios":"levelo://app?vid=5ab9ec53-4842-485c-bf8b-068a5dd98a4b"},"vehicle_type_id":"4","last_reported":1752563698,"current_range_meters":16800,"station_id":"ce4bgl92rcd13ifvqbq0","pricing_plan_id":"cebpf4jnsgd1na2vs0mg"},{"bike_id":"05b4d175-e1ee-4c59-b039-88b85de82827","system_id":"levelo_inurba_marseille","lat":43.278471,"lon":5.392248,"is_reserved":false,"is_disabled":false,"rental_uris":{"android":"levelo://app?vid=05b4d175-e1ee-4c59-b039-88b85de82827","ios":"levelo://app?vid=05b4d175-e1ee-4c59-b039-88b85de82827"},"vehicle_type_id":"4","last_reported":1752563698,"current_range_meters":16800,"station_id":"ce4bhjp2rcd13ifvqga0","pricing_plan_id":"cebpf4jnsgd1na2vs0mg"},{"bike_id":"8e86dc36-ec7c-45ba-9f53-61bc0e1a90f7","system_id":"levelo_inurba_marseille","lat":43.26221,"lon":5.37443,"is_reserved":false,"is_disabled":false,"rental_uris":{"android":"levelo://app?vid=8e86dc36-ec7c-45ba-9f53-61bc0e1a90f7","ios":"levelo://app?vid=8e86dc36-ec7c-45ba-9f53-61bc0e1a90f7"},"vehicle_type_id":"4","last_reported":1752563698,"current_range_meters":16800,"station_id":"ce4bhgp2rcd13ifvqfc0","pricing_plan_id":"cebpf4jnsgd1na2vs0mg"},{"bike_id":"09a93a64-fbb1-49a9-be1f-f86a34310e71","system_id":"levelo_inurba_marseille","lat":43.21193,"lon":5.35068,"is_reserved":false,"is_disabled":false,"rental_uris":{"android":"levelo://app?vid=09a93a64-fbb1-49a9-be1f-f86a34310e71","ios":"levelo://app?vid=09a93a64-fbb1-49a9-be1f-f86a34310e71"},"vehicle_type_id":"4","last_reported":1752563698,"current_range_meters":16800,"station_id":"st_cvj6sg6p6f1abm77japg","pricing_plan_id":"cebpf4jnsgd1na2vs0mg"},{"bike_id":"cfd41f41-ef76-4081-a81b-40505eed6422","system_id":"levelo_inurba_marseille","lat":43.24999,"lon":5.38931,"is_reserved":false,"is_disabled":false,"rental_uris":{"android":"levelo://app?vid=cfd41f41-ef76-4081-a81b-40505eed6422","ios":"levelo://app?vid=cfd41f41-ef76-4081-a81b-40505eed6422"},"vehicle_type_id":"4","last_reported":1752563698,"current_range_meters":15200,"station_id":"ce4bhgp2rcd13ifvqfd0","pricing_plan_id":"cebpf4jnsgd1na2vs0mg"},{"bike_id":"97669a37-e194-4a77-b20b-b50734761c8f","system_id":"levelo_inurba_marseille","lat":43.24703,"lon":5.38145,"is_reserved":false,"is_disabled":false,"rental_uris":{"android":"levelo://app?vid=97669a37-e194-4a77-b20b-b50734761c8f","ios":"levelo://app?vid=97669a37-e194-4a77-b20b-b50734761c8f"},"vehicle_type_id":"4","last_reported":1752563698,"current_range_meters":17200,"station_id":"","pricing_plan_id":"cebpf4jnsgd1na2vs0mg"},{"bike_id":"857f0036-99cc-4f3a-a507-368e444b1ed7","system_id":"levelo_inurba_marseille","lat":43.242311,"lon":5.396925,"is_reserved":false,"is_disabled":false,"rental_uris":{"android":"levelo://app?vid=857f0036-99cc-4f3a-a507-368e444b1ed7","ios":"levelo://app?vid=857f0036-99cc-4f3a-a507-368e444b1ed7"},"vehicle_type_id":"4","last_reported":1752563698,"current_range_meters":17200,"station_id":"ce4bhn12rcd13ifvqgpg","pricing_plan_id":"cebpf4jnsgd1na2vs0mg"},{"bike_id":"544a3cd0-dc03-417d-ad91-062b4e852c60","system_id":"levelo_inurba_marseille","lat":43.26552,"lon":5.37286,"is_reserved":false,"is_disabled":false,"rental_uris":{"android":"levelo://app?vid=544a3cd0-dc03-417d-ad91-062b4e852c60","ios":"levelo://app?vid=544a3cd0-dc03-417d-ad91-062b4e852c60"},"vehicle_type_id":"4","last_reported":1752563698,"current_range_meters":17200,"station_id":"ce4bhg12rcd13ifvqf70","pricing_plan_id":"cebpf4jnsgd1na2vs0mg"},{"bike_id":"1eb985d3-1311-4e50-a815-29536d81e765","system_id":"levelo_inurba_marseille","lat":43.23153,"lon":5.43723,"is_reserved":false,"is_disabled":false,"rental_uris":{"android":"levelo://app?vid=1eb985d3-1311-4e50-a815-29536d81e765","ios":"levelo://app?vid=1eb985d3-1311-4e50-a815-29536d81e765"},"vehicle_type_id":"4","last_reported":1752563698,"current_range_meters":17200,"station_id":"ce4bhmp2rcd13ifvqgog","pricing_plan_id":"cebpf4jnsgd1na2vs0mg"},{"bike_id":"fe38fcda-be18-4a6d-9386-5071ca1609b6","system_id":"levelo_inurba_marseille","lat":43.232,"lon":5.35553,"is_reserved":false,"is_disabled":false,"rental_uris":{"android":"levelo://app?vid=fe38fcda-be18-4a6d-9386-5071ca1609b6","ios":"levelo://app?vid=fe38fcda-be18-4a6d-9386-5071ca1609b6"},"vehicle_type_id":"4","last_reported":1752563698,"current_range_meters":17200,"station_id":"ce4bhu92rcd13ifvqi70","pricing_plan_id":"cebpf4jnsgd1na2vs0mg"},{"bike_id":"d64d6d6b-ded6-47c7-9cc5-25d09df96130","system_id":"levelo_inurba_marseille","lat":43.255817,"lon":5.382299,"is_reserved":false,"is_disabled":false,"rental_uris":{"android":"levelo://app?vid=d64d6d6b-ded6-47c7-9cc5-25d09df96130","ios":"levelo://app?vid=d64d6d6b-ded6-47c7-9cc5-25d09df96130"},"vehicle_type_id":"4","last_reported":1752563698,"current_range_meters":17200,"station_id":"ce4bhih2rcd13ifvqfs0","pricing_plan_id":"cebpf4jnsgd1na2vs0mg"},{"bike_id":"7e296367-f9dc-4f6b-a050-e61b373d7f1d","system_id":"levelo_inurba_marseille","lat":43.297801,"lon":5.371023,"is_reserved":false,"is_disabled":true,"rental_uris":{"android":"levelo://app?vid=7e296367-f9dc-4f6b-a050-e61b373d7f1d","ios":"levelo://app?vid=7e296367-f9dc-4f6b-a050-e61b373d7f1d"},"vehicle_type_id":"4","last_reported":1752563698,"current_range_meters":17600,"station_id":"","pricing_plan_id":"cebpf4jnsgd1na2vs0mg"},{"bike_id":"aaffeafc-b726-4eeb-93a4-95bb0be1eec2","system_id":"levelo_inurba_marseille","lat":43.24179,"lon":5.39715,"is_reserved":false,"is_disabled":false,"rental_uris":{"android":"levelo://app?vid=aaffeafc-b726-4eeb-93a4-95bb0be1eec2","ios":"levelo://app?vid=aaffeafc-b726-4eeb-93a4-95bb0be1eec2"},"vehicle_type_id":"4","last_reported":1752563698,"current_range_meters":17600,"station_id":"ce4bhn12rcd13ifvqgpg","pricing_plan_id":"cebpf4jnsgd1na2vs0mg"},{"bike_id":"bc2daafe-ff99-4696-97d0-59ca3cc5a38d","system_id":"levelo_inurba_marseille","lat":43.308819,"lon":5.371964,"is_reserved":false,"is_disabled":false,"rental_uris":{"android":"levelo://app?vid=bc2daafe-ff99-4696-97d0-59ca3cc5a38d","ios":"levelo://app?vid=bc2daafe-ff99-4696-97d0-59ca3cc5a38d"},"vehicle_type_id":"4","last_reported":1752563698,"current_range_meters":17200,"station_id":"ce4bguh2rcd13ifvqckg","pricing_plan_id":"cebpf4jnsgd1na2vs0mg"},{"bike_id":"9c750567-22a4-4565-92b5-17564269e10b","system_id":"levelo_inurba_marseille","lat":43.310669,"lon":5.383521,"is_reserved":false,"is_disabled":false,"rental_uris":{"android":"levelo://app?vid=9c750567-22a4-4565-92b5-17564269e10b","ios":"levelo://app?vid=9c750567-22a4-4565-92b5-17564269e10b"},"vehicle_type_id":"4","last_reported":1752563698,"current_range_meters":17600,"station_id":"ce4bgv92rcd13ifvqcr0","pricing_plan_id":"cebpf4jnsgd1na2vs0mg"},{"bike_id":"8bd2104e-1bce-449c-ba40-a9db5ef29bd9","system_id":"levelo_inurba_marseille","lat":43.31278,"lon":5.40156,"is_reserved":false,"is_disabled":false,"rental_uris":{"android":"levelo://app?vid=8bd2104e-1bce-449c-ba40-a9db5ef29bd9","ios":"levelo://app?vid=8bd2104e-1bce-449c-ba40-a9db5ef29bd9"},"vehicle_type_id":"4","last_reported":1752563698,"current_range_meters":17600,"station_id":"ce4bh092rcd13ifvqd30","pricing_plan_id":"cebpf4jnsgd1na2vs0mg"},{"bike_id":"5f67488b-1144-439d-9f2f-c2b297dc02e6","system_id":"levelo_inurba_marseille","lat":43.319969,"lon":5.381464,"is_reserved":false,"is_disabled":false,"rental_uris":{"android":"levelo://app?vid=5f67488b-1144-439d-9f2f-c2b297dc02e6","ios":"levelo://app?vid=5f67488b-1144-439d-9f2f-c2b297dc02e6"},"vehicle_type_id":"4","last_reported":1752563698,"current_range_meters":17600,"station_id":"ce4bhr12rcd13ifvqhpg","pricing_plan_id":"cebpf4jnsgd1na2vs0mg"},{"bike_id":"4dbccb8f-3257-438b-9bb3-3b151745b3dc","system_id":"levelo_inurba_marseille","lat":43.29298,"lon":5.37463,"is_reserved":false,"is_disabled":false,"rental_uris":{"android":"levelo://app?vid=4dbccb8f-3257-438b-9bb3-3b151745b3dc","ios":"levelo://app?vid=4dbccb8f-3257-438b-9bb3-3b151745b3dc"},"vehicle_type_id":"4","last_reported":1752563698,"current_range_meters":17600,"station_id":"ce4bgi12rcd13ifvqb70","pricing_plan_id":"cebpf4jnsgd1na2vs0mg"},{"bike_id":"56ab7976-2404-43ff-adb5-af81ded6987e","system_id":"levelo_inurba_marseille","lat":43.31452,"lon":5.40424,"is_reserved":false,"is_disabled":false,"rental_uris":{"android":"levelo://app?vid=56ab7976-2404-43ff-adb5-af81ded6987e","ios":"levelo://app?vid=56ab7976-2404-43ff-adb5-af81ded6987e"},"vehicle_type_id":"4","last_reported":1752563698,"current_range_meters":18000,"station_id":"","pricing_plan_id":"cebpf4jnsgd1na2vs0mg"},{"bike_id":"c5b4c9fc-2f46-4903-9bd5-3b80e4e030c8","system_id":"levelo_inurba_marseille","lat":43.28066,"lon":5.39659,"is_reserved":false,"is_disabled":false,"rental_uris":{"android":"levelo://app?vid=c5b4c9fc-2f46-4903-9bd5-3b80e4e030c8","ios":"levelo://app?vid=c5b4c9fc-2f46-4903-9bd5-3b80e4e030c8"},"vehicle_type_id":"4","last_reported":1752563698,"current_range_meters":18000,"station_id":"ce4bho12rcd13ifvqh2g","pricing_plan_id":"cebpf4jnsgd1na2vs0mg"},{"bike_id":"0d140a81-3bf4-4753-8204-348faa1afef7","system_id":"levelo_inurba_marseille","lat":43.27661,"lon":5.38889,"is_reserved":false,"is_disabled":false,"rental_uris":{"android":"levelo://app?vid=0d140a81-3bf4-4753-8204-348faa1afef7","ios":"levelo://app?vid=0d140a81-3bf4-4753-8204-348faa1afef7"},"vehicle_type_id":"4","last_reported":1752563698,"current_range_meters":18000,"station_id":"ce4bhi12rcd13ifvqfo0","pricing_plan_id":"cebpf4jnsgd1na2vs0mg"},{"bike_id":"8a3c7a9b-da04-4232-b94d-88afe10b78aa","system_id":"levelo_inurba_marseille","lat":43.24247,"lon":5.3691,"is_reserved":false,"is_disabled":false,"rental_uris":{"android":"levelo://app?vid=8a3c7a9b-da04-4232-b94d-88afe10b78aa","ios":"levelo://app?vid=8a3c7a9b-da04-4232-b94d-88afe10b78aa"},"vehicle_type_id":"4","last_reported":1752563698,"current_range_meters":18000,"station_id":"","pricing_plan_id":"cebpf4jnsgd1na2vs0mg"},{"bike_id":"42978f0a-66af-4778-8941-9c4602824376","system_id":"levelo_inurba_marseille","lat":43.255,"lon":5.37651,"is_reserved":false,"is_disabled":false,"rental_uris":{"android":"levelo://app?vid=42978f0a-66af-4778-8941-9c4602824376","ios":"levelo://app?vid=42978f0a-66af-4778-8941-9c4602824376"},"vehicle_type_id":"4","last_reported":1752563698,"current_range_meters":18000,"station_id":"ce4bhh12rcd13ifvqff0","pricing_plan_id":"cebpf4jnsgd1na2vs0mg"},{"bike_id":"22ccfe7f-b8aa-475d-8f58-a670cd3948b4","system_id":"levelo_inurba_marseille","lat":43.329435,"lon":5.390279,"is_reserved":false,"is_disabled":false,"rental_uris":{"android":"levelo://app?vid=22ccfe7f-b8aa-475d-8f58-a670cd3948b4","ios":"levelo://app?vid=22ccfe7f-b8aa-475d-8f58-a670cd3948b4"},"vehicle_type_id":"4","last_reported":1752563698,"current_range_meters":18000,"station_id":"","pricing_plan_id":"cebpf4jnsgd1na2vs0mg"},{"bike_id":"37f393c5-717a-4601-ac3d-e99cf486af7b","system_id":"levelo_inurba_marseille","lat":43.2836,"lon":5.38643,"is_reserved":false,"is_disabled":true,"rental_uris":{"android":"levelo://app?vid=37f393c5-717a-4601-ac3d-e99cf486af7b","ios":"levelo://app?vid=37f393c5-717a-4601-ac3d-e99cf486af7b"},"vehicle_type_id":"4","last_reported":1752563698,"current_range_meters":18000,"station_id":"ce4bh492rcd13ifvqdvg","pricing_plan_id":"cebpf4jnsgd1na2vs0mg"},{"bike_id":"68c3cd12-30dd-461a-bc78-0c7437ce93a5","system_id":"levelo_inurba_marseille","lat":43.31988,"lon":5.38154,"is_reserved":false,"is_disabled":false,"rental_uris":{"android":"levelo://app?vid=68c3cd12-30dd-461a-bc78-0c7437ce93a5","ios":"levelo://app?vid=68c3cd12-30dd-461a-bc78-0c7437ce93a5"},"vehicle_type_id":"4","last_reported":1752563698,"current_range_meters":18000,"station_id":"ce4bhr12rcd13ifvqhpg","pricing_plan_id":"cebpf4jnsgd1na2vs0mg"},{"bike_id":"437475e4-104a-454f-8f38-3c47dc312761","system_id":"levelo_inurba_marseille","lat":43.299919,"lon":5.365973,"is_reserved":false,"is_disabled":false,"rental_uris":{"android":"levelo://app?vid=437475e4-104a-454f-8f38-3c47dc312761","ios":"levelo://app?vid=437475e4-104a-454f-8f38-3c47dc312761"},"vehicle_type_id":"4","last_reported":1752563698,"current_range_meters":18000,"station_id":"","pricing_plan_id":"cebpf4jnsgd1na2vs0mg"},{"bike_id":"64d71c8e-6618-4133-b4a5-642628682e33","system_id":"levelo_inurba_marseille","lat":43.30141,"lon":5.38772,"is_reserved":false,"is_disabled":false,"rental_uris":{"android":"levelo://app?vid=64d71c8e-6618-4133-b4a5-642628682e33","ios":"levelo://app?vid=64d71c8e-6618-4133-b4a5-642628682e33"},"vehicle_type_id":"4","last_reported":1752563698,"current_range_meters":9600,"station_id":"ce4bghh2rcd13ifvqb60","pricing_plan_id":"cebpf4jnsgd1na2vs0mg"},{"bike_id":"e875ba05-0311-438b-a1ff-af174969b660","system_id":"levelo_inurba_marseille","lat":43.279566,"lon":5.410444,"is_reserved":false,"is_disabled":true,"rental_uris":{"android":"levelo://app?vid=e875ba05-0311-438b-a1ff-af174969b660","ios":"levelo://app?vid=e875ba05-0311-438b-a1ff-af174969b660"},"vehicle_type_id":"4","last_reported":1752563698,"current_range_meters":18000,"station_id":"ce4bhnp2rcd13ifvqh0g","pricing_plan_id":"cebpf4jnsgd1na2vs0mg"},{"bike_id":"63083eaf-f46e-4933-b73e-2e4df25735d7","system_id":"levelo_inurba_marseille","lat":43.27994,"lon":5.38662,"is_reserved":false,"is_disabled":false,"rental_uris":{"android":"levelo://app?vid=63083eaf-f46e-4933-b73e-2e4df25735d7","ios":"levelo://app?vid=63083eaf-f46e-4933-b73e-2e4df25735d7"},"vehicle_type_id":"4","last_reported":1752563698,"current_range_meters":18000,"station_id":"ce4bhg12rcd13ifvqf80","pricing_plan_id":"cebpf4jnsgd1na2vs0mg"},{"bike_id":"0da36d1c-3ba1-49df-9c20-f86f1bf9eb74","system_id":"levelo_inurba_marseille","lat":43.279409,"lon":5.410373,"is_reserved":false,"is_disabled":false,"rental_uris":{"android":"levelo://app?vid=0da36d1c-3ba1-49df-9c20-f86f1bf9eb74","ios":"levelo://app?vid=0da36d1c-3ba1-49df-9c20-f86f1bf9eb74"},"vehicle_type_id":"4","last_reported":1752563698,"current_range_meters":18000,"station_id":"ce4bhnp2rcd13ifvqh0g","pricing_plan_id":"cebpf4jnsgd1na2vs0mg"},{"bike_id":"2d65b583-39d0-45fd-8638-d56b87571939","system_id":"levelo_inurba_marseille","lat":43.303774,"lon":5.424826,"is_reserved":false,"is_disabled":false,"rental_uris":{"android":"levelo://app?vid=2d65b583-39d0-45fd-8638-d56b87571939","ios":"levelo://app?vid=2d65b583-39d0-45fd-8638-d56b87571939"},"vehicle_type_id":"4","last_reported":1752563698,"current_range_meters":18800,"station_id":"ce4bhoh2rcd13ifvqh6g","pricing_plan_id":"cebpf4jnsgd1na2vs0mg"},{"bike_id":"111689b3-8a45-4b5f-8470-811fcbda968a","system_id":"levelo_inurba_marseille","lat":43.27935,"lon":5.41026,"is_reserved":false,"is_disabled":false,"rental_uris":{"android":"levelo://app?vid=111689b3-8a45-4b5f-8470-811fcbda968a","ios":"levelo://app?vid=111689b3-8a45-4b5f-8470-811fcbda968a"},"vehicle_type_id":"4","last_reported":1752563698,"current_range_meters":18800,"station_id":"ce4bhnp2rcd13ifvqh0g","pricing_plan_id":"cebpf4jnsgd1na2vs0mg"},{"bike_id":"c0144ba5-3a2f-427f-8edb-11a24a568d38","system_id":"levelo_inurba_marseille","lat":43.25839,"lon":5.394,"is_reserved":false,"is_disabled":false,"rental_uris":{"android":"levelo://app?vid=c0144ba5-3a2f-427f-8edb-11a24a568d38","ios":"levelo://app?vid=c0144ba5-3a2f-427f-8edb-11a24a568d38"},"vehicle_type_id":"4","last_reported":1752563698,"current_range_meters":18800,"station_id":"ce4bhip2rcd13ifvqft0","pricing_plan_id":"cebpf4jnsgd1na2vs0mg"},{"bike_id":"69470280-c898-4c61-913d-814206528e10","system_id":"levelo_inurba_marseille","lat":43.211939,"lon":5.350674,"is_reserved":false,"is_disabled":false,"rental_uris":{"android":"levelo://app?vid=69470280-c898-4c61-913d-814206528e10","ios":"levelo://app?vid=69470280-c898-4c61-913d-814206528e10"},"vehicle_type_id":"4","last_reported":1752563698,"current_range_meters":18800,"station_id":"st_cvj6sg6p6f1abm77japg","pricing_plan_id":"cebpf4jnsgd1na2vs0mg"},{"bike_id":"71e53ae6-9eac-4b25-85ba-015fa3d2e395","system_id":"levelo_inurba_marseille","lat":43.31218,"lon":5.36869,"is_reserved":false,"is_disabled":false,"rental_uris":{"android":"levelo://app?vid=71e53ae6-9eac-4b25-85ba-015fa3d2e395","ios":"levelo://app?vid=71e53ae6-9eac-4b25-85ba-015fa3d2e395"},"vehicle_type_id":"4","last_reported":1752563698,"current_range_meters":18800,"station_id":"ce4bgl92rcd13ifvqbq0","pricing_plan_id":"cebpf4jnsgd1na2vs0mg"},{"bike_id":"8a5e3217-4c0c-47f6-aff3-05cefd0a5de2","system_id":"levelo_inurba_marseille","lat":43.25,"lon":5.38928,"is_reserved":false,"is_disabled":false,"rental_uris":{"android":"levelo://app?vid=8a5e3217-4c0c-47f6-aff3-05cefd0a5de2","ios":"levelo://app?vid=8a5e3217-4c0c-47f6-aff3-05cefd0a5de2"},"vehicle_type_id":"4","last_reported":1752563698,"current_range_meters":19200,"station_id":"ce4bhgp2rcd13ifvqfd0","pricing_plan_id":"cebpf4jnsgd1na2vs0mg"},{"bike_id":"93704d8a-5411-444e-be27-0f37f240bc95","system_id":"levelo_inurba_marseille","lat":43.29042,"lon":5.39954,"is_reserved":false,"is_disabled":false,"rental_uris":{"android":"levelo://app?vid=93704d8a-5411-444e-be27-0f37f240bc95","ios":"levelo://app?vid=93704d8a-5411-444e-be27-0f37f240bc95"},"vehicle_type_id":"4","last_reported":1752563698,"current_range_meters":19200,"station_id":"ce4bh392rcd13ifvqdm0","pricing_plan_id":"cebpf4jnsgd1na2vs0mg"},{"bike_id":"acea0d95-3622-4981-b315-d1078b503b06","system_id":"levelo_inurba_marseille","lat":43.28919,"lon":5.38397,"is_reserved":false,"is_disabled":true,"rental_uris":{"android":"levelo://app?vid=acea0d95-3622-4981-b315-d1078b503b06","ios":"levelo://app?vid=acea0d95-3622-4981-b315-d1078b503b06"},"vehicle_type_id":"4","last_reported":1752563698,"current_range_meters":19200,"station_id":"ce4bh612rcd13ifvqe6g","pricing_plan_id":"cebpf4jnsgd1na2vs0mg"},{"bike_id":"e1159127-a858-488f-be6c-3f878beff8ee","system_id":"levelo_inurba_marseille","lat":43.29782,"lon":5.37097,"is_reserved":false,"is_disabled":false,"rental_uris":{"android":"levelo://app?vid=e1159127-a858-488f-be6c-3f878beff8ee","ios":"levelo://app?vid=e1159127-a858-488f-be6c-3f878beff8ee"},"vehicle_type_id":"4","last_reported":1752563698,"current_range_meters":19200,"station_id":"ce4bgop2rcd13ifvqc1g","pricing_plan_id":"cebpf4jnsgd1na2vs0mg"},{"bike_id":"69a98ef8-9b4f-490a-b1e7-11ae49fc387b","system_id":"levelo_inurba_marseille","lat":43.2118,"lon":5.35076,"is_reserved":false,"is_disabled":false,"rental_uris":{"android":"levelo://app?vid=69a98ef8-9b4f-490a-b1e7-11ae49fc387b","ios":"levelo://app?vid=69a98ef8-9b4f-490a-b1e7-11ae49fc387b"},"vehicle_type_id":"4","last_reported":1752563698,"current_range_meters":19200,"station_id":"st_cvj6sg6p6f1abm77japg","pricing_plan_id":"cebpf4jnsgd1na2vs0mg"},{"bike_id":"10bde535-5721-4821-a8f0-c5d2649b01a5","system_id":"levelo_inurba_marseille","lat":43.29036,"lon":5.39959,"is_reserved":false,"is_disabled":true,"rental_uris":{"android":"levelo://app?vid=10bde535-5721-4821-a8f0-c5d2649b01a5","ios":"levelo://app?vid=10bde535-5721-4821-a8f0-c5d2649b01a5"},"vehicle_type_id":"4","last_reported":1752563698,"current_range_meters":19200,"station_id":"ce4bh392rcd13ifvqdm0","pricing_plan_id":"cebpf4jnsgd1na2vs0mg"},{"bike_id":"6d731ec4-e021-452f-8ca9-8db19e623ed4","system_id":"levelo_inurba_marseille","lat":43.24654,"lon":5.38895,"is_reserved":false,"is_disabled":false,"rental_uris":{"android":"levelo://app?vid=6d731ec4-e021-452f-8ca9-8db19e623ed4","ios":"levelo://app?vid=6d731ec4-e021-452f-8ca9-8db19e623ed4"},"vehicle_type_id":"4","last_reported":1752563698,"current_range_meters":18800,"station_id":"ce4bhg12rcd13ifvqf60","pricing_plan_id":"cebpf4jnsgd1na2vs0mg"},{"bike_id":"11bb903a-80e5-405f-9bbb-9481f6537cda","system_id":"levelo_inurba_marseille","lat":43.267834,"lon":5.394142,"is_reserved":false,"is_disabled":false,"rental_uris":{"android":"levelo://app?vid=11bb903a-80e5-405f-9bbb-9481f6537cda","ios":"levelo://app?vid=11bb903a-80e5-405f-9bbb-9481f6537cda"},"vehicle_type_id":"4","last_reported":1752563698,"current_range_meters":19200,"station_id":"ce4bhh12rcd13ifvqfg0","pricing_plan_id":"cebpf4jnsgd1na2vs0mg"},{"bike_id":"33134a80-38af-4759-a83b-eb44ea22bcb9","system_id":"levelo_inurba_marseille","lat":43.27824,"lon":5.40719,"is_reserved":false,"is_disabled":false,"rental_uris":{"android":"levelo://app?vid=33134a80-38af-4759-a83b-eb44ea22bcb9","ios":"levelo://app?vid=33134a80-38af-4759-a83b-eb44ea22bcb9"},"vehicle_type_id":"4","last_reported":1752563698,"current_range_meters":19200,"station_id":"ce4bhnh2rcd13ifvqgtg","pricing_plan_id":"cebpf4jnsgd1na2vs0mg"},{"bike_id":"b7dbe36c-8697-4b46-946c-4ed8d8baf054","system_id":"levelo_inurba_marseille","lat":43.29787,"lon":5.37105,"is_reserved":false,"is_disabled":false,"rental_uris":{"android":"levelo://app?vid=b7dbe36c-8697-4b46-946c-4ed8d8baf054","ios":"levelo://app?vid=b7dbe36c-8697-4b46-946c-4ed8d8baf054"},"vehicle_type_id":"4","last_reported":1752563698,"current_range_meters":18800,"station_id":"ce4bgop2rcd13ifvqc1g","pricing_plan_id":"cebpf4jnsgd1na2vs0mg"},{"bike_id":"9644e07c-aab5-467a-98e9-4feb4746cbe1","system_id":"levelo_inurba_marseille","lat":43.30912,"lon":5.36844,"is_reserved":false,"is_disabled":false,"rental_uris":{"android":"levelo://app?vid=9644e07c-aab5-467a-98e9-4feb4746cbe1","ios":"levelo://app?vid=9644e07c-aab5-467a-98e9-4feb4746cbe1"},"vehicle_type_id":"4","last_reported":1752563698,"current_range_meters":19200,"station_id":"ce4bgn92rcd13ifvqbvg","pricing_plan_id":"cebpf4jnsgd1na2vs0mg"},{"bike_id":"9d598979-7e11-49a5-8ad4-7cf6c3eaf48c","system_id":"levelo_inurba_marseille","lat":43.31117,"lon":5.37764,"is_reserved":false,"is_disabled":false,"rental_uris":{"android":"levelo://app?vid=9d598979-7e11-49a5-8ad4-7cf6c3eaf48c","ios":"levelo://app?vid=9d598979-7e11-49a5-8ad4-7cf6c3eaf48c"},"vehicle_type_id":"4","last_reported":1752563698,"current_range_meters":19200,"station_id":"ce4bgt92rcd13ifvqcg0","pricing_plan_id":"cebpf4jnsgd1na2vs0mg"},{"bike_id":"486c36cd-bb8d-435f-a933-802c2d5d2447","system_id":"levelo_inurba_marseille","lat":43.21197,"lon":5.35066,"is_reserved":false,"is_disabled":false,"rental_uris":{"android":"levelo://app?vid=486c36cd-bb8d-435f-a933-802c2d5d2447","ios":"levelo://app?vid=486c36cd-bb8d-435f-a933-802c2d5d2447"},"vehicle_type_id":"4","last_reported":1752563698,"current_range_meters":19200,"station_id":"st_cvj6sg6p6f1abm77japg","pricing_plan_id":"cebpf4jnsgd1na2vs0mg"},{"bike_id":"bcebfcee-8da2-47fd-8a43-59f9ef81bb1f","system_id":"levelo_inurba_marseille","lat":43.231777,"lon":5.437335,"is_reserved":false,"is_disabled":false,"rental_uris":{"android":"levelo://app?vid=bcebfcee-8da2-47fd-8a43-59f9ef81bb1f","ios":"levelo://app?vid=bcebfcee-8da2-47fd-8a43-59f9ef81bb1f"},"vehicle_type_id":"4","last_reported":1752563698,"current_range_meters":19600,"station_id":"ce4bhmp2rcd13ifvqgog","pricing_plan_id":"cebpf4jnsgd1na2vs0mg"},{"bike_id":"b433af72-b4f5-4f79-ad97-b03c22bf68a5","system_id":"levelo_inurba_marseille","lat":43.25928,"lon":5.40904,"is_reserved":false,"is_disabled":false,"rental_uris":{"android":"levelo://app?vid=b433af72-b4f5-4f79-ad97-b03c22bf68a5","ios":"levelo://app?vid=b433af72-b4f5-4f79-ad97-b03c22bf68a5"},"vehicle_type_id":"4","last_reported":1752563698,"current_range_meters":19600,"station_id":"ce4bhm92rcd13ifvqglg","pricing_plan_id":"cebpf4jnsgd1na2vs0mg"},{"bike_id":"806d2e7f-277f-4321-b4d1-d6f0e8d99b21","system_id":"levelo_inurba_marseille","lat":43.3372,"lon":5.39184,"is_reserved":false,"is_disabled":false,"rental_uris":{"android":"levelo://app?vid=806d2e7f-277f-4321-b4d1-d6f0e8d99b21","ios":"levelo://app?vid=806d2e7f-277f-4321-b4d1-d6f0e8d99b21"},"vehicle_type_id":"4","last_reported":1752563698,"current_range_meters":19600,"station_id":"ce4bhr92rcd13ifvqhsg","pricing_plan_id":"cebpf4jnsgd1na2vs0mg"},{"bike_id":"c838d01b-3da4-40c3-ad03-4d4889bbf8fb","system_id":"levelo_inurba_marseille","lat":43.29373,"lon":5.37861,"is_reserved":false,"is_disabled":true,"rental_uris":{"android":"levelo://app?vid=c838d01b-3da4-40c3-ad03-4d4889bbf8fb","ios":"levelo://app?vid=c838d01b-3da4-40c3-ad03-4d4889bbf8fb"},"vehicle_type_id":"4","last_reported":1752563698,"current_range_meters":19600,"station_id":"ce4bgjh2rcd13ifvqbf0","pricing_plan_id":"cebpf4jnsgd1na2vs0mg"},{"bike_id":"55591a03-9ac2-442c-ae5e-ebeb8edb45d4","system_id":"levelo_inurba_marseille","lat":43.320054,"lon":5.381373,"is_reserved":false,"is_disabled":false,"rental_uris":{"android":"levelo://app?vid=55591a03-9ac2-442c-ae5e-ebeb8edb45d4","ios":"levelo://app?vid=55591a03-9ac2-442c-ae5e-ebeb8edb45d4"},"vehicle_type_id":"4","last_reported":1752563698,"current_range_meters":19600,"station_id":"ce4bhr12rcd13ifvqhpg","pricing_plan_id":"cebpf4jnsgd1na2vs0mg"},{"bike_id":"f3e4a14e-8992-4198-9f2a-7d57a260053a","system_id":"levelo_inurba_marseille","lat":43.27974,"lon":5.41655,"is_reserved":false,"is_disabled":false,"rental_uris":{"android":"levelo://app?vid=f3e4a14e-8992-4198-9f2a-7d57a260053a","ios":"levelo://app?vid=f3e4a14e-8992-4198-9f2a-7d57a260053a"},"vehicle_type_id":"4","last_reported":1752563698,"current_range_meters":19600,"station_id":"ce4bho12rcd13ifvqh1g","pricing_plan_id":"cebpf4jnsgd1na2vs0mg"},{"bike_id":"bf95a944-b4b7-4fdb-8a53-c9018d844ab8","system_id":"levelo_inurba_marseille","lat":43.25936,"lon":5.40912,"is_reserved":false,"is_disabled":false,"rental_uris":{"android":"levelo://app?vid=bf95a944-b4b7-4fdb-8a53-c9018d844ab8","ios":"levelo://app?vid=bf95a944-b4b7-4fdb-8a53-c9018d844ab8"},"vehicle_type_id":"4","last_reported":1752563698,"current_range_meters":19600,"station_id":"ce4bhm92rcd13ifvqglg","pricing_plan_id":"cebpf4jnsgd1na2vs0mg"},{"bike_id":"0888a42d-f8f5-4432-96f6-c0578e5ed28c","system_id":"levelo_inurba_marseille","lat":43.24691,"lon":5.38145,"is_reserved":false,"is_disabled":false,"rental_uris":{"android":"levelo://app?vid=0888a42d-f8f5-4432-96f6-c0578e5ed28c","ios":"levelo://app?vid=0888a42d-f8f5-4432-96f6-c0578e5ed28c"},"vehicle_type_id":"4","last_reported":1752563698,"current_range_meters":19600,"station_id":"ce4bhih2rcd13ifvqfr0","pricing_plan_id":"cebpf4jnsgd1na2vs0mg"},{"bike_id":"d8d60ab6-c488-42ca-96e4-553e790a9162","system_id":"levelo_inurba_marseille","lat":43.211991,"lon":5.350668,"is_reserved":false,"is_disabled":false,"rental_uris":{"android":"levelo://app?vid=d8d60ab6-c488-42ca-96e4-553e790a9162","ios":"levelo://app?vid=d8d60ab6-c488-42ca-96e4-553e790a9162"},"vehicle_type_id":"4","last_reported":1752563698,"current_range_meters":19600,"station_id":"st_cvj6sg6p6f1abm77japg","pricing_plan_id":"cebpf4jnsgd1na2vs0mg"},{"bike_id":"ebb3d117-4f42-44f4-93b4-0fc6b11c29ba","system_id":"levelo_inurba_marseille","lat":43.30542,"lon":5.36729,"is_reserved":false,"is_disabled":false,"rental_uris":{"android":"levelo://app?vid=ebb3d117-4f42-44f4-93b4-0fc6b11c29ba","ios":"levelo://app?vid=ebb3d117-4f42-44f4-93b4-0fc6b11c29ba"},"vehicle_type_id":"4","last_reported":1752563698,"current_range_meters":20000,"station_id":"ce4bgrp2rcd13ifvqc9g","pricing_plan_id":"cebpf4jnsgd1na2vs0mg"},{"bike_id":"b4a4c6c0-fb28-4b01-873d-92f7ea21bcf8","system_id":"levelo_inurba_marseille","lat":43.337444,"lon":5.374475,"is_reserved":false,"is_disabled":false,"rental_uris":{"android":"levelo://app?vid=b4a4c6c0-fb28-4b01-873d-92f7ea21bcf8","ios":"levelo://app?vid=b4a4c6c0-fb28-4b01-873d-92f7ea21bcf8"},"vehicle_type_id":"4","last_reported":1752563698,"current_range_meters":20000,"station_id":"","pricing_plan_id":"cebpf4jnsgd1na2vs0mg"},{"bike_id":"8fd72403-f6be-4cee-97aa-9dd54933902e","system_id":"levelo_inurba_marseille","lat":43.24189,"lon":5.39712,"is_reserved":false,"is_disabled":false,"rental_uris":{"android":"levelo://app?vid=8fd72403-f6be-4cee-97aa-9dd54933902e","ios":"levelo://app?vid=8fd72403-f6be-4cee-97aa-9dd54933902e"},"vehicle_type_id":"4","last_reported":1752563698,"current_range_meters":20400,"station_id":"ce4bhn12rcd13ifvqgpg","pricing_plan_id":"cebpf4jnsgd1na2vs0mg"},{"bike_id":"b0f129b0-df2d-4827-8f93-3d6fb00f5fe2","system_id":"levelo_inurba_marseille","lat":43.284929,"lon":5.371025,"is_reserved":false,"is_disabled":true,"rental_uris":{"android":"levelo://app?vid=b0f129b0-df2d-4827-8f93-3d6fb00f5fe2","ios":"levelo://app?vid=b0f129b0-df2d-4827-8f93-3d6fb00f5fe2"},"vehicle_type_id":"4","last_reported":1752563698,"current_range_meters":20000,"station_id":"","pricing_plan_id":"cebpf4jnsgd1na2vs0mg"},{"bike_id":"0d68ece9-d421-4de0-88bb-464e887e7c5f","system_id":"levelo_inurba_marseille","lat":43.3125,"lon":5.38135,"is_reserved":false,"is_disabled":false,"rental_uris":{"android":"levelo://app?vid=0d68ece9-d421-4de0-88bb-464e887e7c5f","ios":"levelo://app?vid=0d68ece9-d421-4de0-88bb-464e887e7c5f"},"vehicle_type_id":"4","last_reported":1752563698,"current_range_meters":20000,"station_id":"","pricing_plan_id":"cebpf4jnsgd1na2vs0mg"},{"bike_id":"c2ab978f-22e9-484d-a675-181c157137d4","system_id":"levelo_inurba_marseille","lat":43.32369,"lon":5.3887,"is_reserved":false,"is_disabled":false,"rental_uris":{"android":"levelo://app?vid=c2ab978f-22e9-484d-a675-181c157137d4","ios":"levelo://app?vid=c2ab978f-22e9-484d-a675-181c157137d4"},"vehicle_type_id":"4","last_reported":1752563698,"current_range_meters":20000,"station_id":"ce4bhqp2rcd13ifvqhog","pricing_plan_id":"cebpf4jnsgd1na2vs0mg"},{"bike_id":"3f681523-7a79-4148-bc35-044dba1e1de9","system_id":"levelo_inurba_marseille","lat":43.3096,"lon":5.39044,"is_reserved":false,"is_disabled":true,"rental_uris":{"android":"levelo://app?vid=3f681523-7a79-4148-bc35-044dba1e1de9","ios":"levelo://app?vid=3f681523-7a79-4148-bc35-044dba1e1de9"},"vehicle_type_id":"4","last_reported":1752563698,"current_range_meters":20000,"station_id":"ce4bgup2rcd13ifvqco0","pricing_plan_id":"cebpf4jnsgd1na2vs0mg"},{"bike_id":"5d58bac3-010f-4287-a2a5-d8431617834e","system_id":"levelo_inurba_marseille","lat":43.21183,"lon":5.35069,"is_reserved":false,"is_disabled":false,"rental_uris":{"android":"levelo://app?vid=5d58bac3-010f-4287-a2a5-d8431617834e","ios":"levelo://app?vid=5d58bac3-010f-4287-a2a5-d8431617834e"},"vehicle_type_id":"4","last_reported":1752563698,"current_range_meters":20000,"station_id":"st_cvj6sg6p6f1abm77japg","pricing_plan_id":"cebpf4jnsgd1na2vs0mg"},{"bike_id":"0e0ca525-dd45-4514-8a8e-bc4d44ff13a9","system_id":"levelo_inurba_marseille","lat":43.27996,"lon":5.41649,"is_reserved":false,"is_disabled":true,"rental_uris":{"android":"levelo://app?vid=0e0ca525-dd45-4514-8a8e-bc4d44ff13a9","ios":"levelo://app?vid=0e0ca525-dd45-4514-8a8e-bc4d44ff13a9"},"vehicle_type_id":"4","last_reported":1752563698,"current_range_meters":20000,"station_id":"ce4bho12rcd13ifvqh1g","pricing_plan_id":"cebpf4jnsgd1na2vs0mg"},{"bike_id":"ca12f52c-e6df-45f2-8006-f990962297c3","system_id":"levelo_inurba_marseille","lat":43.3132,"lon":5.39707,"is_reserved":false,"is_disabled":false,"rental_uris":{"android":"levelo://app?vid=ca12f52c-e6df-45f2-8006-f990962297c3","ios":"levelo://app?vid=ca12f52c-e6df-45f2-8006-f990962297c3"},"vehicle_type_id":"4","last_reported":1752563698,"current_range_meters":20000,"station_id":"ce4bgvp2rcd13ifvqcu0","pricing_plan_id":"cebpf4jnsgd1na2vs0mg"},{"bike_id":"aefd79db-bf8d-4180-92af-a9ef470139d0","system_id":"levelo_inurba_marseille","lat":43.28971,"lon":5.35623,"is_reserved":false,"is_disabled":true,"rental_uris":{"android":"levelo://app?vid=aefd79db-bf8d-4180-92af-a9ef470139d0","ios":"levelo://app?vid=aefd79db-bf8d-4180-92af-a9ef470139d0"},"vehicle_type_id":"4","last_reported":1752563698,"current_range_meters":20400,"station_id":"ce4bhb92rcd13ifvqen0","pricing_plan_id":"cebpf4jnsgd1na2vs0mg"},{"bike_id":"e3151a9b-c556-450e-bc2c-7098bb0dfdee","system_id":"levelo_inurba_marseille","lat":43.2417,"lon":5.36394,"is_reserved":false,"is_disabled":false,"rental_uris":{"android":"levelo://app?vid=e3151a9b-c556-450e-bc2c-7098bb0dfdee","ios":"levelo://app?vid=e3151a9b-c556-450e-bc2c-7098bb0dfdee"},"vehicle_type_id":"4","last_reported":1752563698,"current_range_meters":20400,"station_id":"cpo36qri1sfpv3e86is0","pricing_plan_id":"cebpf4jnsgd1na2vs0mg"},{"bike_id":"381c2c7f-c1b3-435f-9930-740c9756b917","system_id":"levelo_inurba_marseille","lat":43.30535,"lon":5.36716,"is_reserved":false,"is_disabled":false,"rental_uris":{"android":"levelo://app?vid=381c2c7f-c1b3-435f-9930-740c9756b917","ios":"levelo://app?vid=381c2c7f-c1b3-435f-9930-740c9756b917"},"vehicle_type_id":"4","last_reported":1752563698,"current_range_meters":20400,"station_id":"ce4bgrp2rcd13ifvqc9g","pricing_plan_id":"cebpf4jnsgd1na2vs0mg"},{"bike_id":"ddefa569-4878-4dd2-b279-a383470093db","system_id":"levelo_inurba_marseille","lat":43.29896,"lon":5.43665,"is_reserved":false,"is_disabled":false,"rental_uris":{"android":"levelo://app?vid=ddefa569-4878-4dd2-b279-a383470093db","ios":"levelo://app?vid=ddefa569-4878-4dd2-b279-a383470093db"},"vehicle_type_id":"4","last_reported":1752563698,"current_range_meters":20400,"station_id":"ce4bhpp2rcd13ifvqhfg","pricing_plan_id":"cebpf4jnsgd1na2vs0mg"},{"bike_id":"614a9842-6b4c-4268-a646-599bfcb46bbe","system_id":"levelo_inurba_marseille","lat":43.2594,"lon":5.40898,"is_reserved":false,"is_disabled":false,"rental_uris":{"android":"levelo://app?vid=614a9842-6b4c-4268-a646-599bfcb46bbe","ios":"levelo://app?vid=614a9842-6b4c-4268-a646-599bfcb46bbe"},"vehicle_type_id":"4","last_reported":1752563698,"current_range_meters":20400,"station_id":"ce4bhm92rcd13ifvqglg","pricing_plan_id":"cebpf4jnsgd1na2vs0mg"},{"bike_id":"dc12862d-2cbe-426f-9d1f-5eaa7851b23c","system_id":"levelo_inurba_marseille","lat":43.24181,"lon":5.39725,"is_reserved":false,"is_disabled":false,"rental_uris":{"android":"levelo://app?vid=dc12862d-2cbe-426f-9d1f-5eaa7851b23c","ios":"levelo://app?vid=dc12862d-2cbe-426f-9d1f-5eaa7851b23c"},"vehicle_type_id":"4","last_reported":1752563698,"current_range_meters":20400,"station_id":"ce4bhn12rcd13ifvqgpg","pricing_plan_id":"cebpf4jnsgd1na2vs0mg"},{"bike_id":"33eb9912-0086-4170-881e-b135e403de77","system_id":"levelo_inurba_marseille","lat":43.23181,"lon":5.39983,"is_reserved":false,"is_disabled":false,"rental_uris":{"android":"levelo://app?vid=33eb9912-0086-4170-881e-b135e403de77","ios":"levelo://app?vid=33eb9912-0086-4170-881e-b135e403de77"},"vehicle_type_id":"4","last_reported":1752563698,"current_range_meters":20400,"station_id":"ce4bhn12rcd13ifvqgqg","pricing_plan_id":"cebpf4jnsgd1na2vs0mg"},{"bike_id":"b36eab62-c27d-42e8-b7f7-fe1bdcfcfa55","system_id":"levelo_inurba_marseille","lat":43.29041,"lon":5.39949,"is_reserved":false,"is_disabled":false,"rental_uris":{"android":"levelo://app?vid=b36eab62-c27d-42e8-b7f7-fe1bdcfcfa55","ios":"levelo://app?vid=b36eab62-c27d-42e8-b7f7-fe1bdcfcfa55"},"vehicle_type_id":"4","last_reported":1752563698,"current_range_meters":20400,"station_id":"ce4bh392rcd13ifvqdm0","pricing_plan_id":"cebpf4jnsgd1na2vs0mg"},{"bike_id":"5335adad-7b61-4313-832b-07723a125b64","system_id":"levelo_inurba_marseille","lat":43.29188,"lon":5.3604,"is_reserved":false,"is_disabled":true,"rental_uris":{"android":"levelo://app?vid=5335adad-7b61-4313-832b-07723a125b64","ios":"levelo://app?vid=5335adad-7b61-4313-832b-07723a125b64"},"vehicle_type_id":"4","last_reported":1752563698,"current_range_meters":20400,"station_id":"","pricing_plan_id":"cebpf4jnsgd1na2vs0mg"},