{"last_updated":1735916966,"ttl":60,"version":"2.2","data":{"bikes":[{"bike_id":"982cb495-8435-48e0-af06-f84cff67dd28","system_id":"levelo_inurba_marseille","lat":43.243847,"lon":5.370583,"is_reserved":false,"is_disabled":false,"rental_uris":{"android":"levelo://app?vid=982cb495-8435-48e0-af06-f84cff67dd28","ios":"levelo://app?vid=982cb495-8435-48e0-af06-f84cff67dd28"},"vehicle_type_id":"4","last_reported":1735916966,"current_range_meters":16400,"station_id":"ce4bhhh2rcd13ifvqfk0","pricing_plan_id":"cebpf4jnsgd1na2vs0mg"},{"bike_id":"c7c1d172-ce0f-4fc5-828a-a5af5425292d","system_id":"levelo_inurba_marseille","lat":43.30406,"lon":5.41303,"is_reserved":false,"is_disabled":false,"rental_uris":{"android":"levelo://app?vid=c7c1d172-ce0f-4fc5-828a-a5af5425292d","ios":"levelo://app?vid=c7c1d172-ce0f-4fc5-828a-a5af5425292d"},"vehicle_type_id":"4","last_reported":1735916966,"current_range_meters":38800,"station_id":"ce4bhop2rcd13ifvqh8g","pricing_plan_id":"cebpf4jnsgd1na2vs0mg"},{"bike_id":"172ccd61-d49f-41ee-9d70-c90aa70835fe","system_id":"levelo_inurba_marseille","lat":43.27432,"lon":5.39402,"is_reserved":false,"is_disabled":false,"rental_uris":{"android":"levelo://app?vid=172ccd61-d49f-41ee-9d70-c90aa70835fe","ios":"levelo://app?vid=172ccd61-d49f-41ee-9d70-c90aa70835fe"},"vehicle_type_id":"4","last_reported":1735916966,"current_range_meters":29600,"station_id":"ce4bhdp2rcd13ifvqf20","pricing_plan_id":"cebpf4jnsgd1na2vs0mg"},{"bike_id":"48b6195c-9df8-4c50-aa17-d1b0c5b87deb","system_id":"levelo_inurba_marseille","lat":43.30888,"lon":5.37183,"is_reserved":false,"is_disabled":false,"rental_uris":{"android":"levelo://app?vid=48b6195c-9df8-4c50-aa17-d1b0c5b87deb","ios":"levelo://app?vid=48b6195c-9df8-4c50-aa17-d1b0c5b87deb"},"vehicle_type_id":"4","last_reported":1735916966,"current_range_meters":33200,"station_id":"ce4bguh2rcd13ifvqckg","pricing_plan_id":"cebpf4jnsgd1na2vs0mg"},{"bike_id":"3042dbc1-c819-4040-80d9-b25d524d5dea","system_id":"levelo_inurba_marseille","lat":43.28518,"lon":5.38422,"is_reserved":false,"is_disabled":false,"rental_uris":{"android":"levelo://app?vid=3042dbc1-c819-4040-80d9-b25d524d5dea","ios":"levelo://app?vid=3042dbc1-c819-4040-80d9-b25d524d5dea"},"vehicle_type_id":"4","last_reported":1735916966,"current_range_meters":37600,"station_id":"ce4bh512rcd13ifvqe3g","pricing_plan_id":"cebpf4jnsgd1na2vs0mg"},{"bike_id":"33620e62-568e-4de5-ad46-ceb9ed4dd267","system_id":"levelo_inurba_marseille","lat":43.26202,"lon":5.37446,"is_reserved":false,"is_disabled":false,"rental_uris":{"android":"levelo://app?vid=33620e62-568e-4de5-ad46-ceb9ed4dd267","ios":"levelo://app?vid=33620e62-568e-4de5-ad46-ceb9ed4dd267"},"vehicle_type_id":"4","last_reported":1735916966,"current_range_meters":38800,"station_id":"ce4bhgp2rcd13ifvqfc0","pricing_plan_id":"cebpf4jnsgd1na2vs0mg"},{"bike_id":"ca4a23ef-84ec-4101-a5e7-f5bf4dec006d","system_id":"levelo_inurba_marseille","lat":43.25583,"lon":5.38242,"is_reserved":false,"is_disabled":false,"rental_uris":{"android":"levelo://app?vid=ca4a23ef-84ec-4101-a5e7-f5bf4dec006d","ios":"levelo://app?vid=ca4a23ef-84ec-4101-a5e7-f5bf4dec006d"},"vehicle_type_id":"4","last_reported":1735916966,"current_range_meters":20000,"station_id":"ce4bhih2rcd13ifvqfs0","pricing_plan_id":"cebpf4jnsgd1na2vs0mg"},{"bike_id":"ca4beb2c-c4d8-484f-9237-25798230877a","system_id":"levelo_inurba_marseille","lat":43.29011,"lon":5.35617,"is_reserved":false,"is_disabled":false,"rental_uris":{"android":"levelo://app?vid=ca4beb2c-c4d8-484f-9237-25798230877a","ios":"levelo://app?vid=ca4beb2c-c4d8-484f-9237-25798230877a"},"vehicle_type_id":"4","last_reported":1735916966,"current_range_meters":9200,"station_id":"ce4bhb92rcd13ifvqen0","pricing_plan_id":"cebpf4jnsgd1na2vs0mg"},{"bike_id":"7e33c5d4-954b-4baf-b2d0-81fbebca8cb0","system_id":"levelo_inurba_marseille","lat":43.3042,"lon":5.3975,"is_reserved":false,"is_disabled":false,"rental_uris":{"android":"levelo://app?vid=7e33c5d4-954b-4baf-b2d0-81fbebca8cb0","ios":"levelo://app?vid=7e33c5d4-954b-4baf-b2d0-81fbebca8cb0"},"vehicle_type_id":"4","last_reported":1735916966,"current_range_meters":36400,"station_id":"ce4bh092rcd13ifvqd20","pricing_plan_id":"cebpf4jnsgd1na2vs0mg"},{"bike_id":"36d0910b-d540-4d75-b065-f044cb5b6555","system_id":"levelo_inurba_marseille","lat":43.29594,"lon":5.36709,"is_reserved":false,"is_disabled":false,"rental_uris":{"android":"levelo://app?vid=36d0910b-d540-4d75-b065-f044cb5b6555","ios":"levelo://app?vid=36d0910b-d540-4d75-b065-f044cb5b6555"},"vehicle_type_id":"4","last_reported":1735916966,"current_range_meters":39200,"station_id":"ce4bgph2rcd13ifvqc2g","pricing_plan_id":"cebpf4jnsgd1na2vs0mg"},{"bike_id":"0cc226b6-5f36-4e90-9e5b-497bf45d78e0","system_id":"levelo_inurba_marseille","lat":43.2799,"lon":5.40029,"is_reserved":false,"is_disabled":false,"rental_uris":{"android":"levelo://app?vid=0cc226b6-5f36-4e90-9e5b-497bf45d78e0","ios":"levelo://app?vid=0cc226b6-5f36-4e90-9e5b-497bf45d78e0"},"vehicle_type_id":"4","last_reported":1735916966,"current_range_meters":38800,"station_id":"ce4bho92rcd13ifvqh4g","pricing_plan_id":"cebpf4jnsgd1na2vs0mg"},{"bike_id":"c5e1b750-323e-4bc1-8e13-1e7612457a06","system_id":"levelo_inurba_marseille","lat":43.27217,"lon":5.39154,"is_reserved":false,"is_disabled":false,"rental_uris":{"android":"levelo://app?vid=c5e1b750-323e-4bc1-8e13-1e7612457a06","ios":"levelo://app?vid=c5e1b750-323e-4bc1-8e13-1e7612457a06"},"vehicle_type_id":"4","last_reported":1735916966,"current_range_meters":30800,"station_id":"ce4bhhp2rcd13ifvqfm0","pricing_plan_id":"cebpf4jnsgd1na2vs0mg"},{"bike_id":"99f6a60b-e698-4008-869a-c7b70f268121","system_id":"levelo_inurba_marseille","lat":43.30461,"lon":5.37905,"is_reserved":false,"is_disabled":false,"rental_uris":{"android":"levelo://app?vid=99f6a60b-e698-4008-869a-c7b70f268121","ios":"levelo://app?vid=99f6a60b-e698-4008-869a-c7b70f268121"},"vehicle_type_id":"4","last_reported":1735916966,"current_range_meters":36800,"station_id":"ce4bgup2rcd13ifvqcn0","pricing_plan_id":"cebpf4jnsgd1na2vs0mg"},{"bike_id":"116f92ae-65b4-4f7c-a23b-1117c0a69b33","system_id":"levelo_inurba_marseille","lat":43.28613,"lon":5.35091,"is_reserved":false,"is_disabled":false,"rental_uris":{"android":"levelo://app?vid=116f92ae-65b4-4f7c-a23b-1117c0a69b33","ios":"levelo://app?vid=116f92ae-65b4-4f7c-a23b-1117c0a69b33"},"vehicle_type_id":"4","last_reported":1735916966,"current_range_meters":27200,"station_id":"ce4bhch2rcd13ifvqeug","pricing_plan_id":"cebpf4jnsgd1na2vs0mg"},{"bike_id":"235d14ef-630c-453f-a316-c30a321a67c2","system_id":"levelo_inurba_marseille","lat":43.24674,"lon":5.38159,"is_reserved":false,"is_disabled":false,"rental_uris":{"android":"levelo://app?vid=235d14ef-630c-453f-a316-c30a321a67c2","ios":"levelo://app?vid=235d14ef-630c-453f-a316-c30a321a67c2"},"vehicle_type_id":"4","last_reported":1735916966,"current_range_meters":39200,"station_id":"ce4bhih2rcd13ifvqfr0","pricing_plan_id":"cebpf4jnsgd1na2vs0mg"},{"bike_id":"0a72fabb-c385-470f-8026-c60effe2f3f0","system_id":"levelo_inurba_marseille","lat":43.29721,"lon":5.35964,"is_reserved":false,"is_disabled":false,"rental_uris":{"android":"levelo://app?vid=0a72fabb-c385-470f-8026-c60effe2f3f0","ios":"levelo://app?vid=0a72fabb-c385-470f-8026-c60effe2f3f0"},"vehicle_type_id":"4","last_reported":1735916966,"current_range_meters":25200,"station_id":"","pricing_plan_id":"cebpf4jnsgd1na2vs0mg"},{"bike_id":"c22497fd-690f-472c-9f70-72e2b2d9d953","system_id":"levelo_inurba_marseille","lat":43.30424,"lon":5.38894,"is_reserved":false,"is_disabled":false,"rental_uris":{"android":"levelo://app?vid=c22497fd-690f-472c-9f70-72e2b2d9d953","ios":"levelo://app?vid=c22497fd-690f-472c-9f70-72e2b2d9d953"},"vehicle_type_id":"4","last_reported":1735916966,"current_range_meters":19600,"station_id":"ce4bgk12rcd13ifvqbi0","pricing_plan_id":"cebpf4jnsgd1na2vs0mg"},{"bike_id":"76d392c8-6dd4-4fbf-b626-27c2990c047b","system_id":"levelo_inurba_marseille","lat":43.28133,"lon":5.42821,"is_reserved":false,"is_disabled":false,"rental_uris":{"android":"levelo://app?vid=76d392c8-6dd4-4fbf-b626-27c2990c047b","ios":"levelo://app?vid=76d392c8-6dd4-4fbf-b626-27c2990c047b"},"vehicle_type_id":"4","last_reported":1735916966,"current_range_meters":17600,"station_id":"","pricing_plan_id":"cebpf4jnsgd1na2vs0mg"},{"bike_id":"ebb56956-e2e2-4f51-8f7a-80ccc26c078c","system_id":"levelo_inurba_marseille","lat":43.28161,"lon":5.42624,"is_reserved":false,"is_disabled":false,"rental_uris":{"android":"levelo://app?vid=ebb56956-e2e2-4f51-8f7a-80ccc26c078c","ios":"levelo://app?vid=ebb56956-e2e2-4f51-8f7a-80ccc26c078c"},"vehicle_type_id":"4","last_reported":1735916966,"current_range_meters":30800,"station_id":"ce4bhnh2rcd13ifvqgug","pricing_plan_id":"cebpf4jnsgd1na2vs0mg"},{"bike_id":"777272f0-b53e-47d7-a585-c67c9f516450","system_id":"levelo_inurba_marseille","lat":43.29261,"lon":5.40909,"is_reserved":false,"is_disabled":false,"rental_uris":{"android":"levelo://app?vid=777272f0-b53e-47d7-a585-c67c9f516450","ios":"levelo://app?vid=777272f0-b53e-47d7-a585-c67c9f516450"},"vehicle_type_id":"4","last_reported":1735916966,"current_range_meters":23200,"station_id":"ce4bh192rcd13ifvqdc0","pricing_plan_id":"cebpf4jnsgd1na2vs0mg"},{"bike_id":"f94180ba-97a4-4ce7-98f7-63c65beb6272","system_id":"levelo_inurba_marseille","lat":43.26475,"lon":5.39546,"is_reserved":false,"is_disabled":false,"rental_uris":{"android":"levelo://app?vid=f94180ba-97a4-4ce7-98f7-63c65beb6272","ios":"levelo://app?vid=f94180ba-97a4-4ce7-98f7-63c65beb6272"},"vehicle_type_id":"4","last_reported":1735916966,"current_range_meters":38800,"station_id":"ce4bhi12rcd13ifvqfq0","pricing_plan_id":"cebpf4jnsgd1na2vs0mg"},{"bike_id":"24e02238-d92f-424f-8b72-85c062a83bbe","system_id":"levelo_inurba_marseille","lat":43.27698,"lon":5.38919,"is_reserved":false,"is_disabled":false,"rental_uris":{"android":"levelo://app?vid=24e02238-d92f-424f-8b72-85c062a83bbe","ios":"levelo://app?vid=24e02238-d92f-424f-8b72-85c062a83bbe"},"vehicle_type_id":"4","last_reported":1735916966,"current_range_meters":38800,"station_id":"ce4bhi12rcd13ifvqfo0","pricing_plan_id":"cebpf4jnsgd1na2vs0mg"},{"bike_id":"bbcddc76-5f78-4e14-9dfd-490fffe20df0","system_id":"levelo_inurba_marseille","lat":43.30193,"lon":5.36615,"is_reserved":false,"is_disabled":false,"rental_uris":{"android":"levelo://app?vid=bbcddc76-5f78-4e14-9dfd-490fffe20df0","ios":"levelo://app?vid=bbcddc76-5f78-4e14-9dfd-490fffe20df0"},"vehicle_type_id":"4","last_reported":1735916966,"current_range_meters":20400,"station_id":"ce4bgrh2rcd13ifvqc8g","pricing_plan_id":"cebpf4jnsgd1na2vs0mg"},{"bike_id":"53e4912b-9d68-4d38-b2dd-bc664c46f5ae","system_id":"levelo_inurba_marseille","lat":43.26067,"lon":5.39402,"is_reserved":false,"is_disabled":false,"rental_uris":{"android":"levelo://app?vid=53e4912b-9d68-4d38-b2dd-bc664c46f5ae","ios":"levelo://app?vid=53e4912b-9d68-4d38-b2dd-bc664c46f5ae"},"vehicle_type_id":"4","last_reported":1735916966,"current_range_meters":16400,"station_id":"ce4bhh92rcd13ifvqfj0","pricing_plan_id":"cebpf4jnsgd1na2vs0mg"},{"bike_id":"97717a3a-5240-48fe-b29e-9e7f0d2b5fba","system_id":"levelo_inurba_marseille","lat":43.31712,"lon":5.43703,"is_reserved":false,"is_disabled":false,"rental_uris":{"android":"levelo://app?vid=97717a3a-5240-48fe-b29e-9e7f0d2b5fba","ios":"levelo://app?vid=97717a3a-5240-48fe-b29e-9e7f0d2b5fba"},"vehicle_type_id":"4","last_reported":1735916966,"current_range_meters":38800,"station_id":"ce4bhp92rcd13ifvqhcg","pricing_plan_id":"cebpf4jnsgd1na2vs0mg"},{"bike_id":"02cb2cad-b316-419f-a764-3e6228df1e7b","system_id":"levelo_inurba_marseille","lat":43.27374,"lon":5.36257,"is_reserved":false,"is_disabled":false,"rental_uris":{"android":"levelo://app?vid=02cb2cad-b316-419f-a764-3e6228df1e7b","ios":"levelo://app?vid=02cb2cad-b316-419f-a764-3e6228df1e7b"},"vehicle_type_id":"4","last_reported":1735916966,"current_range_meters":38800,"station_id":"ce4bhbh2rcd13ifvqeo0","pricing_plan_id":"cebpf4jnsgd1na2vs0mg"},{"bike_id":"9d281a53-6992-4392-9438-72ec394ec5a5","system_id":"levelo_inurba_marseille","lat":43.24393,"lon":5.37063,"is_reserved":false,"is_disabled":false,"rental_uris":{"android":"levelo://app?vid=9d281a53-6992-4392-9438-72ec394ec5a5","ios":"levelo://app?vid=9d281a53-6992-4392-9438-72ec394ec5a5"},"vehicle_type_id":"4","last_reported":1735916966,"current_range_meters":9600,"station_id":"ce4bhhh2rcd13ifvqfk0","pricing_plan_id":"cebpf4jnsgd1na2vs0mg"},{"bike_id":"d2bef165-34df-48c0-b9b9-aca864c7e78d","system_id":"levelo_inurba_marseille","lat":43.28619,"lon":5.35114,"is_reserved":false,"is_disabled":false,"rental_uris":{"android":"levelo://app?vid=d2bef165-34df-48c0-b9b9-aca864c7e78d","ios":"levelo://app?vid=d2bef165-34df-48c0-b9b9-aca864c7e78d"},"vehicle_type_id":"4","last_reported":1735916966,"current_range_meters":32400,"station_id":"ce4bhch2rcd13ifvqeug","pricing_plan_id":"cebpf4jnsgd1na2vs0mg"},{"bike_id":"a1ee6c06-e992-437f-90f0-dfd3bd0c13a6","system_id":"levelo_inurba_marseille","lat":43.3015,"lon":5.3807,"is_reserved":false,"is_disabled":false,"rental_uris":{"android":"levelo://app?vid=a1ee6c06-e992-437f-90f0-dfd3bd0c13a6","ios":"levelo://app?vid=a1ee6c06-e992-437f-90f0-dfd3bd0c13a6"},"vehicle_type_id":"4","last_reported":1735916966,"current_range_meters":34800,"station_id":"ce4bgjp2rcd13ifvqbh0","pricing_plan_id":"cebpf4jnsgd1na2vs0mg"},{"bike_id":"ec9b0c8d-d702-4d01-8373-2717624f46ed","system_id":"levelo_inurba_marseille","lat":43.23976,"lon":5.36622,"is_reserved":false,"is_disabled":false,"rental_uris":{"android":"levelo://app?vid=ec9b0c8d-d702-4d01-8373-2717624f46ed","ios":"levelo://app?vid=ec9b0c8d-d702-4d01-8373-2717624f46ed"},"vehicle_type_id":"4","last_reported":1735916966,"current_range_meters":10800,"station_id":"ce4bhi12rcd13ifvqfp0","pricing_plan_id":"cebpf4jnsgd1na2vs0mg"},{"bike_id":"4a1ad4c0-f6d8-4f02-a755-37ff4cc1ad61","system_id":"levelo_inurba_marseille","lat":43.25829,"lon":5.39427,"is_reserved":false,"is_disabled":false,"rental_uris":{"android":"levelo://app?vid=4a1ad4c0-f6d8-4f02-a755-37ff4cc1ad61","ios":"levelo://app?vid=4a1ad4c0-f6d8-4f02-a755-37ff4cc1ad61"},"vehicle_type_id":"4","last_reported":1735916966,"current_range_meters":37600,"station_id":"ce4bhip2rcd13ifvqft0","pricing_plan_id":"cebpf4jnsgd1na2vs0mg"},{"bike_id":"fc983f14-c6ae-4a65-a789-dd4ccca69ab8","system_id":"levelo_inurba_marseille","lat":43.28723,"lon":5.36088,"is_reserved":false,"is_disabled":false,"rental_uris":{"android":"levelo://app?vid=fc983f14-c6ae-4a65-a789-dd4ccca69ab8","ios":"levelo://app?vid=fc983f14-c6ae-4a65-a789-dd4ccca69ab8"},"vehicle_type_id":"4","last_reported":1735916966,"current_range_meters":16400,"station_id":"cki0cbj6b192h4jlfktg","pricing_plan_id":"cebpf4jnsgd1na2vs0mg"},{"bike_id":"1edca33b-8d82-4613-945e-057a682428fe","system_id":"levelo_inurba_marseille","lat":43.33097,"lon":5.38207,"is_reserved":false,"is_disabled":false,"rental_uris":{"android":"levelo://app?vid=1edca33b-8d82-4613-945e-057a682428fe","ios":"levelo://app?vid=1edca33b-8d82-4613-945e-057a682428fe"},"vehicle_type_id":"4","last_reported":1735916966,"current_range_meters":33600,"station_id":"","pricing_plan_id":"cebpf4jnsgd1na2vs0mg"},{"bike_id":"18df761a-1c8f-4c9e-a7ce-d40ba69779d8","system_id":"levelo_inurba_marseille","lat":43.25495,"lon":5.37649,"is_reserved":false,"is_disabled":true,"rental_uris":{"android":"levelo://app?vid=18df761a-1c8f-4c9e-a7ce-d40ba69779d8","ios":"levelo://app?vid=18df761a-1c8f-4c9e-a7ce-d40ba69779d8"},"vehicle_type_id":"4","last_reported":1735916966,"current_range_meters":0,"station_id":"ce4bhh12rcd13ifvqff0","pricing_plan_id":"cebpf4jnsgd1na2vs0mg"},{"bike_id":"279a411f-b990-4034-931d-a233c7ce0d43","system_id":"levelo_inurba_marseille","lat":43.24671,"lon":5.38169,"is_reserved":false,"is_disabled":false,"rental_uris":{"android":"levelo://app?vid=279a411f-b990-4034-931d-a233c7ce0d43","ios":"levelo://app?vid=279a411f-b990-4034-931d-a233c7ce0d43"},"vehicle_type_id":"4","last_reported":1735916966,"current_range_meters":14800,"station_id":"ce4bhih2rcd13ifvqfr0","pricing_plan_id":"cebpf4jnsgd1na2vs0mg"},{"bike_id":"fb0d5d50-2cba-4668-8a68-53b559a0ffc7","system_id":"levelo_inurba_marseille","lat":43.2467,"lon":5.38161,"is_reserved":false,"is_disabled":false,"rental_uris":{"android":"levelo://app?vid=fb0d5d50-2cba-4668-8a68-53b559a0ffc7","ios":"levelo://app?vid=fb0d5d50-2cba-4668-8a68-53b559a0ffc7"},"vehicle_type_id":"4","last_reported":1735916966,"current_range_meters":35200,"station_id":"ce4bhih2rcd13ifvqfr0","pricing_plan_id":"cebpf4jnsgd1na2vs0mg"},{"bike_id":"027085de-3c06-4c90-8099-b9537f78e863","system_id":"levelo_inurba_marseille","lat":43.23163,"lon":5.43707,"is_reserved":false,"is_disabled":false,"rental_uris":{"android":"levelo://app?vid=027085de-3c06-4c90-8099-b9537f78e863","ios":"levelo://app?vid=027085de-3c06-4c90-8099-b9537f78e863"},"vehicle_type_id":"4","last_reported":1735916966,"current_range_meters":25600,"station_id":"ce4bhmp2rcd13ifvqgog","pricing_plan_id":"cebpf4jnsgd1na2vs0mg"},{"bike_id":"4b6a41bf-6158-4f95-8733-20938233d170","system_id":"levelo_inurba_marseille","lat":43.25732,"lon":5.41043,"is_reserved":false,"is_disabled":false,"rental_uris":{"android":"levelo://app?vid=4b6a41bf-6158-4f95-8733-20938233d170","ios":"levelo://app?vid=4b6a41bf-6158-4f95-8733-20938233d170"},"vehicle_type_id":"4","last_reported":1735916966,"current_range_meters":38800,"station_id":"ce4bhkp2rcd13ifvqgd0","pricing_plan_id":"cebpf4jnsgd1na2vs0mg"},{"bike_id":"15cbfce8-de8e-46a8-8dfb-8a22ac46a515","system_id":"levelo_inurba_marseille","lat":43.31534,"lon":5.38039,"is_reserved":false,"is_disabled":false,"rental_uris":{"android":"levelo://app?vid=15cbfce8-de8e-46a8-8dfb-8a22ac46a515","ios":"levelo://app?vid=15cbfce8-de8e-46a8-8dfb-8a22ac46a515"},"vehicle_type_id":"4","last_reported":1735916966,"current_range_meters":7200,"station_id":"ce4bhsp2rcd13ifvqi50","pricing_plan_id":"cebpf4jnsgd1na2vs0mg"},{"bike_id":"a3a13d37-324b-4f71-8010-6efc8939585d","system_id":"levelo_inurba_marseille","lat":43.29164,"lon":5.37159,"is_reserved":false,"is_disabled":false,"rental_uris":{"android":"levelo://app?vid=a3a13d37-324b-4f71-8010-6efc8939585d","ios":"levelo://app?vid=a3a13d37-324b-4f71-8010-6efc8939585d"},"vehicle_type_id":"4","last_reported":1735916966,"current_range_meters":36000,"station_id":"ce4bha92rcd13ifvqeh0","pricing_plan_id":"cebpf4jnsgd1na2vs0mg"},{"bike_id":"7a63d77d-b3e4-4713-9060-b918ad8247d2","system_id":"levelo_inurba_marseille","lat":43.22951,"lon":5.35398,"is_reserved":false,"is_disabled":false,"rental_uris":{"android":"levelo://app?vid=7a63d77d-b3e4-4713-9060-b918ad8247d2","ios":"levelo://app?vid=7a63d77d-b3e4-4713-9060-b918ad8247d2"},"vehicle_type_id":"4","last_reported":1735916966,"current_range_meters":35200,"station_id":"cpo3532slgdg3j2ikp40","pricing_plan_id":"cebpf4jnsgd1na2vs0mg"},{"bike_id":"13e35d07-42e9-40d3-8350-58e15358804e","system_id":"levelo_inurba_marseille","lat":43.27898,"lon":5.38009,"is_reserved":false,"is_disabled":false,"rental_uris":{"android":"levelo://app?vid=13e35d07-42e9-40d3-8350-58e15358804e","ios":"levelo://app?vid=13e35d07-42e9-40d3-8350-58e15358804e"},"vehicle_type_id":"4","last_reported":1735916966,"current_range_meters":30800,"station_id":"ce4bhf92rcd13ifvqf50","pricing_plan_id":"cebpf4jnsgd1na2vs0mg"},{"bike_id":"3c7472a4-a45c-4f46-a692-aa44ebf92f21","system_id":"levelo_inurba_marseille","lat":43.2744,"lon":5.39384,"is_reserved":false,"is_disabled":false,"rental_uris":{"android":"levelo://app?vid=3c7472a4-a45c-4f46-a692-aa44ebf92f21","ios":"levelo://app?vid=3c7472a4-a45c-4f46-a692-aa44ebf92f21"},"vehicle_type_id":"4","last_reported":1735916966,"current_range_meters":30800,"station_id":"ce4bhdp2rcd13ifvqf20","pricing_plan_id":"cebpf4jnsgd1na2vs0mg"},{"bike_id":"4244e707-842c-462f-ad91-77a3b800ecfa","system_id":"levelo_inurba_marseille","lat":43.27319,"lon":5.39072,"is_reserved":false,"is_disabled":false,"rental_uris":{"android":"levelo://app?vid=4244e707-842c-462f-ad91-77a3b800ecfa","ios":"levelo://app?vid=4244e707-842c-462f-ad91-77a3b800ecfa"},"vehicle_type_id":"4","last_reported":1735916966,"current_range_meters":22000,"station_id":"ce4bhgp2rcd13ifvqfe0","pricing_plan_id":"cebpf4jnsgd1na2vs0mg"},{"bike_id":"b5b2166a-b0b8-4fc4-9960-24fcf8dddf0c","system_id":"levelo_inurba_marseille","lat":43.30825,"lon":5.38059,"is_reserved":false,"is_disabled":false,"rental_uris":{"android":"levelo://app?vid=b5b2166a-b0b8-4fc4-9960-24fcf8dddf0c","ios":"levelo://app?vid=b5b2166a-b0b8-4fc4-9960-24fcf8dddf0c"},"vehicle_type_id":"4","last_reported":1735916966,"current_range_meters":14400,"station_id":"","pricing_plan_id":"cebpf4jnsgd1na2vs0mg"},{"bike_id":"ba45c32b-6d14-47e1-bb41-23c211513d59","system_id":"levelo_inurba_marseille","lat":43.30148,"lon":5.37441,"is_reserved":false,"is_disabled":false,"rental_uris":{"android":"levelo://app?vid=ba45c32b-6d14-47e1-bb41-23c211513d59","ios":"levelo://app?vid=ba45c32b-6d14-47e1-bb41-23c211513d59"},"vehicle_type_id":"4","last_reported":1735916966,"current_range_meters":24400,"station_id":"ce4bgs92rcd13ifvqcc0","pricing_plan_id":"cebpf4jnsgd1na2vs0mg"},{"bike_id":"2d37891b-3e35-407f-964b-7c262ae2b2d0","system_id":"levelo_inurba_marseille","lat":43.29439,"lon":5.3808,"is_reserved":false,"is_disabled":true,"rental_uris":{"android":"levelo://app?vid=2d37891b-3e35-407f-964b-7c262ae2b2d0","ios":"levelo://app?vid=2d37891b-3e35-407f-964b-7c262ae2b2d0"},"vehicle_type_id":"4","last_reported":1735916966,"current_range_meters":0,"station_id":"","pricing_plan_id":"cebpf4jnsgd1na2vs0mg"},{"bike_id":"2332862a-3884-4317-af82-ee9793e9b62c","system_id":"levelo_inurba_marseille","lat":43.24076,"lon":5.37713,"is_reserved":false,"is_disabled":false,"rental_uris":{"android":"levelo://app?vid=2332862a-3884-4317-af82-ee9793e9b62c","ios":"levelo://app?vid=2332862a-3884-4317-af82-ee9793e9b62c"},"vehicle_type_id":"4","last_reported":1735916966,"current_range_meters":21600,"station_id":"ce4bhnp2rcd13ifvqgvg","pricing_plan_id":"cebpf4jnsgd1na2vs0mg"},{"bike_id":"9bc3e5f4-1076-4308-85ea-6ec37ca9b33e","system_id":"levelo_inurba_marseille","lat":43.29935,"lon":5.36547,"is_reserved":false,"is_disabled":false,"rental_uris":{"android":"levelo://app?vid=9bc3e5f4-1076-4308-85ea-6ec37ca9b33e","ios":"levelo://app?vid=9bc3e5f4-1076-4308-85ea-6ec37ca9b33e"},"vehicle_type_id":"4","last_reported":1735916966,"current_range_meters":24800,"station_id":"ce4bgm92rcd13ifvqbr0","pricing_plan_id":"cebpf4jnsgd1na2vs0mg"},{"bike_id":"4483098c-d27d-4534-ad16-c209ae457c9a","system_id":"levelo_inurba_marseille","lat":43.31544,"lon":5.38042,"is_reserved":false,"is_disabled":false,"rental_uris":{"android":"levelo://app?vid=4483098c-d27d-4534-ad16-c209ae457c9a","ios":"levelo://app?vid=4483098c-d27d-4534-ad16-c209ae457c9a"},"vehicle_type_id":"4","last_reported":1735916966,"current_range_meters":38800,"station_id":"ce4bhsp2rcd13ifvqi50","pricing_plan_id":"cebpf4jnsgd1na2vs0mg"},{"bike_id":"b196ede2-15dc-4193-a4cf-026c9e7d182c","system_id":"levelo_inurba_marseille","lat":43.32662,"lon":5.40993,"is_reserved":false,"is_disabled":false,"rental_uris":{"android":"levelo://app?vid=b196ede2-15dc-4193-a4cf-026c9e7d182c","ios":"levelo://app?vid=b196ede2-15dc-4193-a4cf-026c9e7d182c"},"vehicle_type_id":"4","last_reported":1735916966,"current_range_meters":24800,"station_id":"ce4bhpp2rcd13ifvqhgg","pricing_plan_id":"cebpf4jnsgd1na2vs0mg"},{"bike_id":"af6f5cf6-fe33-49d4-9b2b-a069d115dde7","system_id":"levelo_inurba_marseille","lat":43.29848,"lon":5.3629,"is_reserved":false,"is_disabled":false,"rental_uris":{"android":"levelo://app?vid=af6f5cf6-fe33-49d4-9b2b-a069d115dde7","ios":"levelo://app?vid=af6f5cf6-fe33-49d4-9b2b-a069d115dde7"},"vehicle_type_id":"4","last_reported":1735916966,"current_range_meters":24000,"station_id":"ce4bgpp2rcd13ifvqc3g","pricing_plan_id":"cebpf4jnsgd1na2vs0mg"},{"bike_id":"0b863e48-07b8-4552-aed8-4a289c2f1bdc","system_id":"levelo_inurba_marseille","lat":43.31065,"lon":5.38355,"is_reserved":false,"is_disabled":false,"rental_uris":{"android":"levelo://app?vid=0b863e48-07b8-4552-aed8-4a289c2f1bdc","ios":"levelo://app?vid=0b863e48-07b8-4552-aed8-4a289c2f1bdc"},"vehicle_type_id":"4","last_reported":1735916966,"current_range_meters":36800,"station_id":"ce4bgv92rcd13ifvqcr0","pricing_plan_id":"cebpf4jnsgd1na2vs0mg"},{"bike_id":"dd874b77-a42e-4757-bd84-560175a054b9","system_id":"levelo_inurba_marseille","lat":43.25018,"lon":5.38921,"is_reserved":false,"is_disabled":false,"rental_uris":{"android":"levelo://app?vid=dd874b77-a42e-4757-bd84-560175a054b9","ios":"levelo://app?vid=dd874b77-a42e-4757-bd84-560175a054b9"},"vehicle_type_id":"4","last_reported":1735916966,"current_range_meters":33200,"station_id":"ce4bhgp2rcd13ifvqfd0","pricing_plan_id":"cebpf4jnsgd1na2vs0mg"},{"bike_id":"01a892c4-6d34-4a6b-9f97-5324cd46aa08","system_id":"levelo_inurba_marseille","lat":43.28971,"lon":5.37829,"is_reserved":false,"is_disabled":true,"rental_uris":{"android":"levelo://app?vid=01a892c4-6d34-4a6b-9f97-5324cd46aa08","ios":"levelo://app?vid=01a892c4-6d34-4a6b-9f97-5324cd46aa08"},"vehicle_type_id":"4","last_reported":1735916966,"current_range_meters":37600,"station_id":"ce4bh9p2rcd13ifvqed0","pricing_plan_id":"cebpf4jnsgd1na2vs0mg"},{"bike_id":"3825d5e7-e9a3-4703-b17d-6941e0d286a6","system_id":"levelo_inurba_marseille","lat":43.31084,"lon":5.42431,"is_reserved":false,"is_disabled":false,"rental_uris":{"android":"levelo://app?vid=3825d5e7-e9a3-4703-b17d-6941e0d286a6","ios":"levelo://app?vid=3825d5e7-e9a3-4703-b17d-6941e0d286a6"},"vehicle_type_id":"4","last_reported":1735916966,"current_range_meters":36400,"station_id":"ce4bhp92rcd13ifvqhag","pricing_plan_id":"cebpf4jnsgd1na2vs0mg"},{"bike_id":"f098cb69-b72d-4b5f-9f34-3e0c4140c5c6","system_id":"levelo_inurba_marseille","lat":43.29159,"lon":5.37157,"is_reserved":false,"is_disabled":true,"rental_uris":{"android":"levelo://app?vid=f098cb69-b72d-4b5f-9f34-3e0c4140c5c6","ios":"levelo://app?vid=f098cb69-b72d-4b5f-9f34-3e0c4140c5c6"},"vehicle_type_id":"4","last_reported":1735916966,"current_range_meters":0,"station_id":"ce4bha92rcd13ifvqeh0","pricing_plan_id":"cebpf4jnsgd1na2vs0mg"},{"bike_id":"8c1a59b4-2c8f-4307-8a5a-eec2cd0e5913","system_id":"levelo_inurba_marseille","lat":43.30359,"lon":5.37711,"is_reserved":false,"is_disabled":false,"rental_uris":{"android":"levelo://app?vid=8c1a59b4-2c8f-4307-8a5a-eec2cd0e5913","ios":"levelo://app?vid=8c1a59b4-2c8f-4307-8a5a-eec2cd0e5913"},"vehicle_type_id":"4","last_reported":1735916966,"current_range_meters":38800,"station_id":"ce4bguh2rcd13ifvqcj0","pricing_plan_id":"cebpf4jnsgd1na2vs0mg"},{"bike_id":"c38119df-a0cc-4d53-851b-aebce98309d3","system_id":"levelo_inurba_marseille","lat":43.25003,"lon":5.38908,"is_reserved":false,"is_disabled":false,"rental_uris":{"android":"levelo://app?vid=c38119df-a0cc-4d53-851b-aebce98309d3","ios":"levelo://app?vid=c38119df-a0cc-4d53-851b-aebce98309d3"},"vehicle_type_id":"4","last_reported":1735916966,"current_range_meters":8400,"station_id":"ce4bhgp2rcd13ifvqfd0","pricing_plan_id":"cebpf4jnsgd1na2vs0mg"},{"bike_id":"9f58862a-aa2f-4ebc-a1ab-45710e1c8c93","system_id":"levelo_inurba_marseille","lat":43.30863,"lon":5.37403,"is_reserved":false,"is_disabled":false,"rental_uris":{"android":"levelo://app?vid=9f58862a-aa2f-4ebc-a1ab-45710e1c8c93","ios":"levelo://app?vid=9f58862a-aa2f-4ebc-a1ab-45710e1c8c93"},"vehicle_type_id":"4","last_reported":1735916966,"current_range_meters":17200,"station_id":"","pricing_plan_id":"cebpf4jnsgd1na2vs0mg"},{"bike_id":"2b85d707-edbb-4b57-aae2-be661f447875","system_id":"levelo_inurba_marseille","lat":43.30279,"lon":5.37703,"is_reserved":false,"is_disabled":false,"rental_uris":{"android":"levelo://app?vid=2b85d707-edbb-4b57-aae2-be661f447875","ios":"levelo://app?vid=2b85d707-edbb-4b57-aae2-be661f447875"},"vehicle_type_id":"4","last_reported":1735916966,"current_range_meters":9200,"station_id":"ce4bguh2rcd13ifvqcj0","pricing_plan_id":"cebpf4jnsgd1na2vs0mg"},{"bike_id":"e451fd54-e68d-49e6-9117-94b730b1321d","system_id":"levelo_inurba_marseille","lat":43.31994,"lon":5.38158,"is_reserved":false,"is_disabled":false,"rental_uris":{"android":"levelo://app?vid=e451fd54-e68d-49e6-9117-94b730b1321d","ios":"levelo://app?vid=e451fd54-e68d-49e6-9117-94b730b1321d"},"vehicle_type_id":"4","last_reported":1735916966,"current_range_meters":38000,"station_id":"ce4bhr12rcd13ifvqhpg","pricing_plan_id":"cebpf4jnsgd1na2vs0mg"},{"bike_id":"16314a60-59d6-4ad9-813c-6b2aae602f85","system_id":"levelo_inurba_marseille","lat":43.29044,"lon":5.35922,"is_reserved":false,"is_disabled":false,"rental_uris":{"android":"levelo://app?vid=16314a60-59d6-4ad9-813c-6b2aae602f85","ios":"levelo://app?vid=16314a60-59d6-4ad9-813c-6b2aae602f85"},"vehicle_type_id":"4","last_reported":1735916966,"current_range_meters":22800,"station_id":"","pricing_plan_id":"cebpf4jnsgd1na2vs0mg"},{"bike_id":"2f857458-45ae-4306-9ffb-5d94252d59a5","system_id":"levelo_inurba_marseille","lat":43.24667,"lon":5.38902,"is_reserved":false,"is_disabled":false,"rental_uris":{"android":"levelo://app?vid=2f857458-45ae-4306-9ffb-5d94252d59a5","ios":"levelo://app?vid=2f857458-45ae-4306-9ffb-5d94252d59a5"},"vehicle_type_id":"4","last_reported":1735916966,"current_range_meters":39200,"station_id":"ce4bhg12rcd13ifvqf60","pricing_plan_id":"cebpf4jnsgd1na2vs0mg"},{"bike_id":"913d4a6f-13df-44f0-8db0-f95dcd052b6b","system_id":"levelo_inurba_marseille","lat":43.27944,"lon":5.41042,"is_reserved":false,"is_disabled":false,"rental_uris":{"android":"levelo://app?vid=913d4a6f-13df-44f0-8db0-f95dcd052b6b","ios":"levelo://app?vid=913d4a6f-13df-44f0-8db0-f95dcd052b6b"},"vehicle_type_id":"4","last_reported":1735916966,"current_range_meters":37600,"station_id":"ce4bhnp2rcd13ifvqh0g","pricing_plan_id":"cebpf4jnsgd1na2vs0mg"},{"bike_id":"7b78d5e2-5142-402d-a4f8-0f3037a6c533","system_id":"levelo_inurba_marseille","lat":43.26946,"lon":5.38638,"is_reserved":false,"is_disabled":true,"rental_uris":{"android":"levelo://app?vid=7b78d5e2-5142-402d-a4f8-0f3037a6c533","ios":"levelo://app?vid=7b78d5e2-5142-402d-a4f8-0f3037a6c533"},"vehicle_type_id":"4","last_reported":1735916966,"current_range_meters":16800,"station_id":"ce4bhh92rcd13ifvqfh0","pricing_plan_id":"cebpf4jnsgd1na2vs0mg"},{"bike_id":"0e69492d-7ddf-4070-a883-32d8293e4866","system_id":"levelo_inurba_marseille","lat":43.28621,"lon":5.35099,"is_reserved":false,"is_disabled":false,"rental_uris":{"android":"levelo://app?vid=0e69492d-7ddf-4070-a883-32d8293e4866","ios":"levelo://app?vid=0e69492d-7ddf-4070-a883-32d8293e4866"},"vehicle_type_id":"4","last_reported":1735916966,"current_range_meters":12800,"station_id":"ce4bhch2rcd13ifvqeug","pricing_plan_id":"cebpf4jnsgd1na2vs0mg"},{"bike_id":"6a7f5172-c377-418b-8360-8a6c300beb3c","system_id":"levelo_inurba_marseille","lat":43.28006,"lon":5.4002,"is_reserved":false,"is_disabled":false,"rental_uris":{"android":"levelo://app?vid=6a7f5172-c377-418b-8360-8a6c300beb3c","ios":"levelo://app?vid=6a7f5172-c377-418b-8360-8a6c300beb3c"},"vehicle_type_id":"4","last_reported":1735916966,"current_range_meters":13600,"station_id":"ce4bho92rcd13ifvqh4g","pricing_plan_id":"cebpf4jnsgd1na2vs0mg"},{"bike_id":"b0df2c77-f73a-46b2-b5c5-6520722442d4","system_id":"levelo_inurba_marseille","lat":43.29557,"lon":5.42289,"is_reserved":false,"is_disabled":false,"rental_uris":{"android":"levelo://app?vid=b0df2c77-f73a-46b2-b5c5-6520722442d4","ios":"levelo://app?vid=b0df2c77-f73a-46b2-b5c5-6520722442d4"},"vehicle_type_id":"4","last_reported":1735916966,"current_range_meters":32400,"station_id":"ce4bhph2rcd13ifvqhdg","pricing_plan_id":"cebpf4jnsgd1na2vs0mg"},{"bike_id":"3a52a14a-3748-40ca-b87b-96b8deaa043c","system_id":"levelo_inurba_marseille","lat":43.28454,"lon":5.35898,"is_reserved":false,"is_disabled":false,"rental_uris":{"android":"levelo://app?vid=3a52a14a-3748-40ca-b87b-96b8deaa043c","ios":"levelo://app?vid=3a52a14a-3748-40ca-b87b-96b8deaa043c"},"vehicle_type_id":"4","last_reported":1735916966,"current_range_meters":32400,"station_id":"ce4bhah2rcd13ifvqei0","pricing_plan_id":"cebpf4jnsgd1na2vs0mg"},{"bike_id":"db34218a-bf6f-45ed-b3b1-d950245c60a9","system_id":"levelo_inurba_marseille","lat":43.30321,"lon":5.36887,"is_reserved":false,"is_disabled":false,"rental_uris":{"android":"levelo://app?vid=db34218a-bf6f-45ed-b3b1-d950245c60a9","ios":"levelo://app?vid=db34218a-bf6f-45ed-b3b1-d950245c60a9"},"vehicle_type_id":"4","last_reported":1735916966,"current_range_meters":38800,"station_id":"ce4bgqh2rcd13ifvqc5g","pricing_plan_id":"cebpf4jnsgd1na2vs0mg"},{"bike_id":"c22ab065-1d95-4a4c-b587-f110110e7755","system_id":"levelo_inurba_marseille","lat":43.30798,"lon":5.38152,"is_reserved":false,"is_disabled":false,"rental_uris":{"android":"levelo://app?vid=c22ab065-1d95-4a4c-b587-f110110e7755","ios":"levelo://app?vid=c22ab065-1d95-4a4c-b587-f110110e7755"},"vehicle_type_id":"4","last_reported":1735916966,"current_range_meters":37600,"station_id":"ce4bgt12rcd13ifvqce0","pricing_plan_id":"cebpf4jnsgd1na2vs0mg"},{"bike_id":"1237c156-cfa6-45ec-9298-949dcdbd11b6","system_id":"levelo_inurba_marseille","lat":43.27369,"lon":5.36255,"is_reserved":false,"is_disabled":false,"rental_uris":{"android":"levelo://app?vid=1237c156-cfa6-45ec-9298-949dcdbd11b6","ios":"levelo://app?vid=1237c156-cfa6-45ec-9298-949dcdbd11b6"},"vehicle_type_id":"4","last_reported":1735916966,"current_range_meters":38800,"station_id":"ce4bhbh2rcd13ifvqeo0","pricing_plan_id":"cebpf4jnsgd1na2vs0mg"},{"bike_id":"cb9ddef6-e3ca-4d83-8257-6a73eb8266c6","system_id":"levelo_inurba_marseille","lat":43.32662,"lon":5.40987,"is_reserved":false,"is_disabled":false,"rental_uris":{"android":"levelo://app?vid=cb9ddef6-e3ca-4d83-8257-6a73eb8266c6","ios":"levelo://app?vid=cb9ddef6-e3ca-4d83-8257-6a73eb8266c6"},"vehicle_type_id":"4","last_reported":1735916966,"current_range_meters":38800,"station_id":"ce4bhpp2rcd13ifvqhgg","pricing_plan_id":"cebpf4jnsgd1na2vs0mg"},{"bike_id":"7b9e134f-1d5b-46f5-87f8-6cc312c5778f","system_id":"levelo_inurba_marseille","lat":43.22926,"lon":5.35382,"is_reserved":false,"is_disabled":true,"rental_uris":{"android":"levelo://app?vid=7b9e134f-1d5b-46f5-87f8-6cc312c5778f","ios":"levelo://app?vid=7b9e134f-1d5b-46f5-87f8-6cc312c5778f"},"vehicle_type_id":"4","last_reported":1735916966,"current_range_meters":800,"station_id":"cpo3532slgdg3j2ikp40","pricing_plan_id":"cebpf4jnsgd1na2vs0mg"},{"bike_id":"135cf862-1e80-4855-8234-457b3ef98c02","system_id":"levelo_inurba_marseille","lat":43.29606,"lon":5.36749,"is_reserved":false,"is_disabled":false,"rental_uris":{"android":"levelo://app?vid=135cf862-1e80-4855-8234-457b3ef98c02","ios":"levelo://app?vid=135cf862-1e80-4855-8234-457b3ef98c02"},"vehicle_type_id":"4","last_reported":1735916966,"current_range_meters":11600,"station_id":"ce4bgph2rcd13ifvqc2g","pricing_plan_id":"cebpf4jnsgd1na2vs0mg"},{"bike_id":"827b0813-db3a-45cd-9f07-276eb24a36dd","system_id":"levelo_inurba_marseille","lat":43.3133,"lon":5.36726,"is_reserved":false,"is_disabled":false,"rental_uris":{"android":"levelo://app?vid=827b0813-db3a-45cd-9f07-276eb24a36dd","ios":"levelo://app?vid=827b0813-db3a-45cd-9f07-276eb24a36dd"},"vehicle_type_id":"4","last_reported":1735916966,"current_range_meters":38800,"station_id":"ce4bgr92rcd13ifvqc6g","pricing_plan_id":"cebpf4jnsgd1na2vs0mg"},{"bike_id":"34825794-d565-4dbd-8cbe-c88df4608f04","system_id":"levelo_inurba_marseille","lat":43.27818,"lon":5.40715,"is_reserved":false,"is_disabled":false,"rental_uris":{"android":"levelo://app?vid=34825794-d565-4dbd-8cbe-c88df4608f04","ios":"levelo://app?vid=34825794-d565-4dbd-8cbe-c88df4608f04"},"vehicle_type_id":"4","last_reported":1735916966,"current_range_meters":38800,"station_id":"ce4bhnh2rcd13ifvqgtg","pricing_plan_id":"cebpf4jnsgd1na2vs0mg"},{"bike_id":"9085f317-eea3-445b-8bdd-28ff00ca8048","system_id":"levelo_inurba_marseille","lat":43.26681,"lon":5.38278,"is_reserved":false,"is_disabled":false,"rental_uris":{"android":"levelo://app?vid=9085f317-eea3-445b-8bdd-28ff00ca8048","ios":"levelo://app?vid=9085f317-eea3-445b-8bdd-28ff00ca8048"},"vehicle_type_id":"4","last_reported":1735916966,"current_range_meters":36000,"station_id":"ce4bhg92rcd13ifvqf90","pricing_plan_id":"cebpf4jnsgd1na2vs0mg"},{"bike_id":"a6f828f1-5f97-4da7-bf33-7d48a155db3e","system_id":"levelo_inurba_marseille","lat":43.278357,"lon":5.392042,"is_reserved":false,"is_disabled":false,"rental_uris":{"android":"levelo://app?vid=a6f828f1-5f97-4da7-bf33-7d48a155db3e","ios":"levelo://app?vid=a6f828f1-5f97-4da7-bf33-7d48a155db3e"},"vehicle_type_id":"4","last_reported":1735916966,"current_range_meters":30400,"station_id":"ce4bhjp2rcd13ifvqga0","pricing_plan_id":"cebpf4jnsgd1na2vs0mg"},{"bike_id":"d8df3d2a-7181-477b-844f-ba218877fb88","system_id":"levelo_inurba_marseille","lat":43.31345,"lon":5.36724,"is_reserved":false,"is_disabled":false,"rental_uris":{"android":"levelo://app?vid=d8df3d2a-7181-477b-844f-ba218877fb88","ios":"levelo://app?vid=d8df3d2a-7181-477b-844f-ba218877fb88"},"vehicle_type_id":"4","last_reported":1735916966,"current_range_meters":35200,"station_id":"ce4bgr92rcd13ifvqc6g","pricing_plan_id":"cebpf4jnsgd1na2vs0mg"},{"bike_id":"264e2b37-a7a8-43de-af6e-2a79e21accc7","system_id":"levelo_inurba_marseille","lat":43.29312,"lon":5.36799,"is_reserved":false,"is_disabled":false,"rental_uris":{"android":"levelo://app?vid=264e2b37-a7a8-43de-af6e-2a79e21accc7","ios":"levelo://app?vid=264e2b37-a7a8-43de-af6e-2a79e21accc7"},"vehicle_type_id":"4","last_reported":1735916966,"current_range_meters":28400,"station_id":"","pricing_plan_id":"cebpf4jnsgd1na2vs0mg"},{"bike_id":"148efff7-57a1-4268-8cf9-9af732eb693d","system_id":"levelo_inurba_marseille","lat":43.30809,"lon":5.38142,"is_reserved":false,"is_disabled":false,"rental_uris":{"android":"levelo://app?vid=148efff7-57a1-4268-8cf9-9af732eb693d","ios":"levelo://app?vid=148efff7-57a1-4268-8cf9-9af732eb693d"},"vehicle_type_id":"4","last_reported":1735916966,"current_range_meters":38400,"station_id":"ce4bgt12rcd13ifvqce0","pricing_plan_id":"cebpf4jnsgd1na2vs0mg"},{"bike_id":"03f24cb2-160b-4a7d-b55a-a5dd752a0817","system_id":"levelo_inurba_marseille","lat":43.29255,"lon":5.40915,"is_reserved":false,"is_disabled":false,"rental_uris":{"android":"levelo://app?vid=03f24cb2-160b-4a7d-b55a-a5dd752a0817","ios":"levelo://app?vid=03f24cb2-160b-4a7d-b55a-a5dd752a0817"},"vehicle_type_id":"4","last_reported":1735916966,"current_range_meters":28400,"station_id":"ce4bh192rcd13ifvqdc0","pricing_plan_id":"cebpf4jnsgd1na2vs0mg"},{"bike_id":"40977940-0cd3-4c4e-ab13-342c16c738ab","system_id":"levelo_inurba_marseille","lat":43.24667,"lon":5.3892,"is_reserved":false,"is_disabled":false,"rental_uris":{"android":"levelo://app?vid=40977940-0cd3-4c4e-ab13-342c16c738ab","ios":"levelo://app?vid=40977940-0cd3-4c4e-ab13-342c16c738ab"},"vehicle_type_id":"4","last_reported":1735916966,"current_range_meters":19200,"station_id":"ce4bhg12rcd13ifvqf60","pricing_plan_id":"cebpf4jnsgd1na2vs0mg"},{"bike_id":"0fb09dc4-c559-469b-b944-d0167194cfca","system_id":"levelo_inurba_marseille","lat":43.27948,"lon":5.41051,"is_reserved":false,"is_disabled":true,"rental_uris":{"android":"levelo://app?vid=0fb09dc4-c559-469b-b944-d0167194cfca","ios":"levelo://app?vid=0fb09dc4-c559-469b-b944-d0167194cfca"},"vehicle_type_id":"4","last_reported":1735916966,"current_range_meters":800,"station_id":"ce4bhnp2rcd13ifvqh0g","pricing_plan_id":"cebpf4jnsgd1na2vs0mg"},{"bike_id":"e763b9cf-65eb-4131-8b74-455e6f49dde4","system_id":"levelo_inurba_marseille","lat":43.3241,"lon":5.36426,"is_reserved":false,"is_disabled":false,"rental_uris":{"android":"levelo://app?vid=e763b9cf-65eb-4131-8b74-455e6f49dde4","ios":"levelo://app?vid=e763b9cf-65eb-4131-8b74-455e6f49dde4"},"vehicle_type_id":"4","last_reported":1735916966,"current_range_meters":38800,"station_id":"ce4bhs12rcd13ifvqhvg","pricing_plan_id":"cebpf4jnsgd1na2vs0mg"},{"bike_id":"5aa8a99e-4165-495b-8e30-7e69c2b58354","system_id":"levelo_inurba_marseille","lat":43.26673,"lon":5.38288,"is_reserved":false,"is_disabled":false,"rental_uris":{"android":"levelo://app?vid=5aa8a99e-4165-495b-8e30-7e69c2b58354","ios":"levelo://app?vid=5aa8a99e-4165-495b-8e30-7e69c2b58354"},"vehicle_type_id":"4","last_reported":1735916966,"current_range_meters":39200,"station_id":"ce4bhg92rcd13ifvqf90","pricing_plan_id":"cebpf4jnsgd1na2vs0mg"},{"bike_id":"f811a98b-9aa7-419d-8e74-1c4088ab1bbc","system_id":"levelo_inurba_marseille","lat":43.27075,"lon":5.42275,"is_reserved":false,"is_disabled":false,"rental_uris":{"android":"levelo://app?vid=f811a98b-9aa7-419d-8e74-1c4088ab1bbc","ios":"levelo://app?vid=f811a98b-9aa7-419d-8e74-1c4088ab1bbc"},"vehicle_type_id":"4","last_reported":1735916966,"current_range_meters":38800,"station_id":"ce4bhk92rcd13ifvqgb0","pricing_plan_id":"cebpf4jnsgd1na2vs0mg"},{"bike_id":"641d8acc-50b2-4173-ab23-c70f2a11d28e","system_id":"levelo_inurba_marseille","lat":43.2819,"lon":5.42636,"is_reserved":false,"is_disabled":true,"rental_uris":{"android":"levelo://app?vid=641d8acc-50b2-4173-ab23-c70f2a11d28e","ios":"levelo://app?vid=641d8acc-50b2-4173-ab23-c70f2a11d28e"},"vehicle_type_id":"4","last_reported":1735916966,"current_range_meters":38400,"station_id":"ce4bhnh2rcd13ifvqgug","pricing_plan_id":"cebpf4jnsgd1na2vs0mg"},{"bike_id":"f91168e5-3a6a-477b-824d-bfc9fbc12320","system_id":"levelo_inurba_marseille","lat":43.30328,"lon":5.36907,"is_reserved":false,"is_disabled":false,"rental_uris":{"android":"levelo://app?vid=f91168e5-3a6a-477b-824d-bfc9fbc12320","ios":"levelo://app?vid=f91168e5-3a6a-477b-824d-bfc9fbc12320"},"vehicle_type_id":"4","last_reported":1735916966,"current_range_meters":38800,"station_id":"ce4bgqh2rcd13ifvqc5g","pricing_plan_id":"cebpf4jnsgd1na2vs0mg"},{"bike_id":"8e936699-fb94-4c05-a18e-6a31521ab968","system_id":"levelo_inurba_marseille","lat":43.28457,"lon":5.35895,"is_reserved":false,"is_disabled":true,"rental_uris":{"android":"levelo://app?vid=8e936699-fb94-4c05-a18e-6a31521ab968","ios":"levelo://app?vid=8e936699-fb94-4c05-a18e-6a31521ab968"},"vehicle_type_id":"4","last_reported":1735916966,"current_range_meters":35600,"station_id":"ce4bhah2rcd13ifvqei0","pricing_plan_id":"cebpf4jnsgd1na2vs0mg"},{"bike_id":"3cb85664-8356-4387-b9ae-a2ca422e8bf8","system_id":"levelo_inurba_marseille","lat":43.30228,"lon":5.39712,"is_reserved":false,"is_disabled":false,"rental_uris":{"android":"levelo://app?vid=3cb85664-8356-4387-b9ae-a2ca422e8bf8","ios":"levelo://app?vid=3cb85664-8356-4387-b9ae-a2ca422e8bf8"},"vehicle_type_id":"4","last_reported":1735916966,"current_range_meters":27200,"station_id":"ce4bh0h2rcd13ifvqd40","pricing_plan_id":"cebpf4jnsgd1na2vs0mg"},{"bike_id":"d9039fb6-1526-43a5-ab47-bf6c74051347","system_id":"levelo_inurba_marseille","lat":43.28178,"lon":5.42642,"is_reserved":false,"is_disabled":false,"rental_uris":{"android":"levelo://app?vid=d9039fb6-1526-43a5-ab47-bf6c74051347","ios":"levelo://app?vid=d9039fb6-1526-43a5-ab47-bf6c74051347"},"vehicle_type_id":"4","last_reported":1735916966,"current_range_meters":37600,"station_id":"ce4bhnh2rcd13ifvqgug","pricing_plan_id":"cebpf4jnsgd1na2vs0mg"},{"bike_id":"4c5b21c9-cceb-4647-bd76-de90a80bb2e5","system_id":"levelo_inurba_marseille","lat":43.26677,"lon":5.38259,"is_reserved":false,"is_disabled":false,"rental_uris":{"android":"levelo://app?vid=4c5b21c9-cceb-4647-bd76-de90a80bb2e5","ios":"levelo://app?vid=4c5b21c9-cceb-4647-bd76-de90a80bb2e5"},"vehicle_type_id":"4","last_reported":1735916966,"current_range_meters":38800,"station_id":"ce4bhg92rcd13ifvqf90","pricing_plan_id":"cebpf4jnsgd1na2vs0mg"},{"bike_id":"f479518e-75c0-4ea2-92dd-943cefdc366e","system_id":"levelo_inurba_marseille","lat":43.30926,"lon":5.3685,"is_reserved":false,"is_disabled":false,"rental_uris":{"android":"levelo://app?vid=f479518e-75c0-4ea2-92dd-943cefdc366e","ios":"levelo://app?vid=f479518e-75c0-4ea2-92dd-943cefdc366e"},"vehicle_type_id":"4","last_reported":1735916966,"current_range_meters":39200,"station_id":"ce4bgn92rcd13ifvqbvg","pricing_plan_id":"cebpf4jnsgd1na2vs0mg"},{"bike_id":"e455576a-160a-4968-bd17-a0f8bcc0baae","system_id":"levelo_inurba_marseille","lat":43.28498,"lon":5.38421,"is_reserved":false,"is_disabled":false,"rental_uris":{"android":"levelo://app?vid=e455576a-160a-4968-bd17-a0f8bcc0baae","ios":"levelo://app?vid=e455576a-160a-4968-bd17-a0f8bcc0baae"},"vehicle_type_id":"4","last_reported":1735916966,"current_range_meters":30800,"station_id":"ce4bh512rcd13ifvqe3g","pricing_plan_id":"cebpf4jnsgd1na2vs0mg"},{"bike_id":"2b772179-b526-4826-920f-6e2b960f98a6","system_id":"levelo_inurba_marseille","lat":43.30882,"lon":5.37195,"is_reserved":false,"is_disabled":false,"rental_uris":{"android":"levelo://app?vid=2b772179-b526-4826-920f-6e2b960f98a6","ios":"levelo://app?vid=2b772179-b526-4826-920f-6e2b960f98a6"},"vehicle_type_id":"4","last_reported":1735916966,"current_range_meters":28800,"station_id":"ce4bguh2rcd13ifvqckg","pricing_plan_id":"cebpf4jnsgd1na2vs0mg"},{"bike_id":"b50c1e04-9c20-4daa-ad06-7d854e9beedd","system_id":"levelo_inurba_marseille","lat":43.26214,"lon":5.37442,"is_reserved":false,"is_disabled":false,"rental_uris":{"android":"levelo://app?vid=b50c1e04-9c20-4daa-ad06-7d854e9beedd","ios":"levelo://app?vid=b50c1e04-9c20-4daa-ad06-7d854e9beedd"},"vehicle_type_id":"4","last_reported":1735916966,"current_range_meters":34800,"station_id":"ce4bhgp2rcd13ifvqfc0","pricing_plan_id":"cebpf4jnsgd1na2vs0mg"},{"bike_id":"5f97eee1-4bb9-43f4-8e6e-a0b21a58fdc8","system_id":"levelo_inurba_marseille","lat":43.31896,"lon":5.40736,"is_reserved":false,"is_disabled":false,"rental_uris":{"android":"levelo://app?vid=5f97eee1-4bb9-43f4-8e6e-a0b21a58fdc8","ios":"levelo://app?vid=5f97eee1-4bb9-43f4-8e6e-a0b21a58fdc8"},"vehicle_type_id":"4","last_reported":1735916966,"current_range_meters":38800,"station_id":"ce4bhq12rcd13ifvqhig","pricing_plan_id":"cebpf4jnsgd1na2vs0mg"},{"bike_id":"0babb6c2-0fc8-416d-90c3-ec35f3d99066","system_id":"levelo_inurba_marseille","lat":43.27429,"lon":5.39416,"is_reserved":false,"is_disabled":false,"rental_uris":{"android":"levelo://app?vid=0babb6c2-0fc8-416d-90c3-ec35f3d99066","ios":"levelo://app?vid=0babb6c2-0fc8-416d-90c3-ec35f3d99066"},"vehicle_type_id":"4","last_reported":1735916966,"current_range_meters":30800,"station_id":"ce4bhdp2rcd13ifvqf20","pricing_plan_id":"cebpf4jnsgd1na2vs0mg"},{"bike_id":"fbee9c16-1cc7-4460-b653-41d924f15e3d","system_id":"levelo_inurba_marseille","lat":43.2996,"lon":5.41322,"is_reserved":false,"is_disabled":false,"rental_uris":{"android":"levelo://app?vid=fbee9c16-1cc7-4460-b653-41d924f15e3d","ios":"levelo://app?vid=fbee9c16-1cc7-4460-b653-41d924f15e3d"},"vehicle_type_id":"4","last_reported":1735916966,"current_range_meters":28800,"station_id":"ce4bhp12rcd13ifvqh9g","pricing_plan_id":"cebpf4jnsgd1na2vs0mg"},{"bike_id":"14744292-c42d-474b-9608-00328c02214d","system_id":"levelo_inurba_marseille","lat":43.254429,"lon":5.412418,"is_reserved":false,"is_disabled":false,"rental_uris":{"android":"levelo://app?vid=14744292-c42d-474b-9608-00328c02214d","ios":"levelo://app?vid=14744292-c42d-474b-9608-00328c02214d"},"vehicle_type_id":"4","last_reported":1735916966,"current_range_meters":23200,"station_id":"","pricing_plan_id":"cebpf4jnsgd1na2vs0mg"},{"bike_id":"2ff0edbb-1120-44a4-b8a8-0b9a430d70c1","system_id":"levelo_inurba_marseille","lat":43.30449,"lon":5.38895,"is_reserved":false,"is_disabled":true,"rental_uris":{"android":"levelo://app?vid=2ff0edbb-1120-44a4-b8a8-0b9a430d70c1","ios":"levelo://app?vid=2ff0edbb-1120-44a4-b8a8-0b9a430d70c1"},"vehicle_type_id":"4","last_reported":1735916966,"current_range_meters":38800,"station_id":"ce4bgk12rcd13ifvqbi0","pricing_plan_id":"cebpf4jnsgd1na2vs0mg"},{"bike_id":"983a939f-0c90-4b41-8e07-1ba37a328643","system_id":"levelo_inurba_marseille","lat":43.24165,"lon":5.36417,"is_reserved":false,"is_disabled":false,"rental_uris":{"android":"levelo://app?vid=983a939f-0c90-4b41-8e07-1ba37a328643","ios":"levelo://app?vid=983a939f-0c90-4b41-8e07-1ba37a328643"},"vehicle_type_id":"4","last_reported":1735916966,"current_range_meters":28400,"station_id":"cpo36qri1sfpv3e86is0","pricing_plan_id":"cebpf4jnsgd1na2vs0mg"},{"bike_id":"0d36baca-b4e4-4eb6-85e9-d02c7038df15","system_id":"levelo_inurba_marseille","lat":43.30556,"lon":5.36542,"is_reserved":false,"is_disabled":true,"rental_uris":{"android":"levelo://app?vid=0d36baca-b4e4-4eb6-85e9-d02c7038df15","ios":"levelo://app?vid=0d36baca-b4e4-4eb6-85e9-d02c7038df15"},"vehicle_type_id":"4","last_reported":1735916966,"current_range_meters":30800,"station_id":"ce4bgs12rcd13ifvqcag","pricing_plan_id":"cebpf4jnsgd1na2vs0mg"},{"bike_id":"9782e714-85f0-4ed9-b7e2-cbd982726c4b","system_id":"levelo_inurba_marseille","lat":43.30968,"lon":5.39031,"is_reserved":false,"is_disabled":false,"rental_uris":{"android":"levelo://app?vid=9782e714-85f0-4ed9-b7e2-cbd982726c4b","ios":"levelo://app?vid=9782e714-85f0-4ed9-b7e2-cbd982726c4b"},"vehicle_type_id":"4","last_reported":1735916966,"current_range_meters":17200,"station_id":"ce4bgup2rcd13ifvqco0","pricing_plan_id":"cebpf4jnsgd1na2vs0mg"},{"bike_id":"4cbf4d20-cac6-455c-85de-8f0b001e42e9","system_id":"levelo_inurba_marseille","lat":43.29907,"lon":5.43663,"is_reserved":false,"is_disabled":false,"rental_uris":{"android":"levelo://app?vid=4cbf4d20-cac6-455c-85de-8f0b001e42e9","ios":"levelo://app?vid=4cbf4d20-cac6-455c-85de-8f0b001e42e9"},"vehicle_type_id":"4","last_reported":1735916966,"current_range_meters":37600,"station_id":"ce4bhpp2rcd13ifvqhfg","pricing_plan_id":"cebpf4jnsgd1na2vs0mg"},{"bike_id":"31124219-51e8-44be-9b85-f59a9d2dd383","system_id":"levelo_inurba_marseille","lat":43.28702,"lon":5.3998,"is_reserved":false,"is_disabled":false,"rental_uris":{"android":"levelo://app?vid=31124219-51e8-44be-9b85-f59a9d2dd383","ios":"levelo://app?vid=31124219-51e8-44be-9b85-f59a9d2dd383"},"vehicle_type_id":"4","last_reported":1735916966,"current_range_meters":2800,"station_id":"ce4bho92rcd13ifvqh3g","pricing_plan_id":"cebpf4jnsgd1na2vs0mg"},{"bike_id":"9881ab1b-853c-4e47-9de9-25c2d72a5699","system_id":"levelo_inurba_marseille","lat":43.28262,"lon":5.35069,"is_reserved":false,"is_disabled":false,"rental_uris":{"android":"levelo://app?vid=9881ab1b-853c-4e47-9de9-25c2d72a5699","ios":"levelo://app?vid=9881ab1b-853c-4e47-9de9-25c2d72a5699"},"vehicle_type_id":"4","last_reported":1735916966,"current_range_meters":24800,"station_id":"ce4bhbp2rcd13ifvqerg","pricing_plan_id":"cebpf4jnsgd1na2vs0mg"},{"bike_id":"1700f320-82b4-48d2-947b-4b1f6e93cfdc","system_id":"levelo_inurba_marseille","lat":43.29265,"lon":5.36851,"is_reserved":false,"is_disabled":false,"rental_uris":{"android":"levelo://app?vid=1700f320-82b4-48d2-947b-4b1f6e93cfdc","ios":"levelo://app?vid=1700f320-82b4-48d2-947b-4b1f6e93cfdc"},"vehicle_type_id":"4","last_reported":1735916966,"current_range_meters":35600,"station_id":"ce4bhbp2rcd13ifvqesg","pricing_plan_id":"cebpf4jnsgd1na2vs0mg"},{"bike_id":"349a4ab8-6f13-4948-be71-abaadb9466ee","system_id":"levelo_inurba_marseille","lat":43.2408,"lon":5.37755,"is_reserved":false,"is_disabled":false,"rental_uris":{"android":"levelo://app?vid=349a4ab8-6f13-4948-be71-abaadb9466ee","ios":"levelo://app?vid=349a4ab8-6f13-4948-be71-abaadb9466ee"},"vehicle_type_id":"4","last_reported":1735916966,"current_range_meters":38400,"station_id":"ce4bhnp2rcd13ifvqgvg","pricing_plan_id":"cebpf4jnsgd1na2vs0mg"},{"bike_id":"4a152c63-61bb-4a5a-b77e-d8e1d8642405","system_id":"levelo_inurba_marseille","lat":43.295619,"lon":5.422955,"is_reserved":false,"is_disabled":false,"rental_uris":{"android":"levelo://app?vid=4a152c63-61bb-4a5a-b77e-d8e1d8642405","ios":"levelo://app?vid=4a152c63-61bb-4a5a-b77e-d8e1d8642405"},"vehicle_type_id":"4","last_reported":1735916966,"current_range_meters":17200,"station_id":"ce4bhph2rcd13ifvqhdg","pricing_plan_id":"cebpf4jnsgd1na2vs0mg"},{"bike_id":"0d6cece2-b23b-4728-9395-c17aec3fd68b","system_id":"levelo_inurba_marseille","lat":43.29188,"lon":5.35804,"is_reserved":false,"is_disabled":false,"rental_uris":{"android":"levelo://app?vid=0d6cece2-b23b-4728-9395-c17aec3fd68b","ios":"levelo://app?vid=0d6cece2-b23b-4728-9395-c17aec3fd68b"},"vehicle_type_id":"4","last_reported":1735916966,"current_range_meters":22800,"station_id":"ce4bhb12rcd13ifvqel0","pricing_plan_id":"cebpf4jnsgd1na2vs0mg"},{"bike_id":"97829712-45ed-44f4-98b1-03aec2ad37f0","system_id":"levelo_inurba_marseille","lat":43.266772,"lon":5.382616,"is_reserved":false,"is_disabled":false,"rental_uris":{"android":"levelo://app?vid=97829712-45ed-44f4-98b1-03aec2ad37f0","ios":"levelo://app?vid=97829712-45ed-44f4-98b1-03aec2ad37f0"},"vehicle_type_id":"4","last_reported":1735916966,"current_range_meters":38800,"station_id":"ce4bhg92rcd13ifvqf90","pricing_plan_id":"cebpf4jnsgd1na2vs0mg"},{"bike_id":"e9c9ac99-6db0-4a19-9854-52585a709e6e","system_id":"levelo_inurba_marseille","lat":43.29587,"lon":5.36737,"is_reserved":false,"is_disabled":false,"rental_uris":{"android":"levelo://app?vid=e9c9ac99-6db0-4a19-9854-52585a709e6e","ios":"levelo://app?vid=e9c9ac99-6db0-4a19-9854-52585a709e6e"},"vehicle_type_id":"4","last_reported":1735916966,"current_range_meters":37600,"station_id":"ce4bgph2rcd13ifvqc2g","pricing_plan_id":"cebpf4jnsgd1na2vs0mg"},{"bike_id":"d9e795d5-0002-4730-96f6-a834b8b71292","system_id":"levelo_inurba_marseille","lat":43.23131,"lon":5.43723,"is_reserved":false,"is_disabled":false,"rental_uris":{"android":"levelo://app?vid=d9e795d5-0002-4730-96f6-a834b8b71292","ios":"levelo://app?vid=d9e795d5-0002-4730-96f6-a834b8b71292"},"vehicle_type_id":"4","last_reported":1735916966,"current_range_meters":34000,"station_id":"ce4bhmp2rcd13ifvqgog","pricing_plan_id":"cebpf4jnsgd1na2vs0mg"},{"bike_id":"f3998a04-3b93-4948-8eb7-aa16047370fd","system_id":"levelo_inurba_marseille","lat":43.27974,"lon":5.41052,"is_reserved":false,"is_disabled":false,"rental_uris":{"android":"levelo://app?vid=f3998a04-3b93-4948-8eb7-aa16047370fd","ios":"levelo://app?vid=f3998a04-3b93-4948-8eb7-aa16047370fd"},"vehicle_type_id":"4","last_reported":1735916966,"current_range_meters":17600,"station_id":"ce4bhnp2rcd13ifvqh0g","pricing_plan_id":"cebpf4jnsgd1na2vs0mg"},{"bike_id":"a497af21-dd4f-47d2-ae0f-e709e6c5e5bc","system_id":"levelo_inurba_marseille","lat":43.30551,"lon":5.36705,"is_reserved":false,"is_disabled":false,"rental_uris":{"android":"levelo://app?vid=a497af21-dd4f-47d2-ae0f-e709e6c5e5bc","ios":"levelo://app?vid=a497af21-dd4f-47d2-ae0f-e709e6c5e5bc"},"vehicle_type_id":"4","last_reported":1735916966,"current_range_meters":36000,"station_id":"ce4bgrp2rcd13ifvqc9g","pricing_plan_id":"cebpf4jnsgd1na2vs0mg"},{"bike_id":"b4c3b2ae-50f8-4942-a6dc-8b4db5f94e4f","system_id":"levelo_inurba_marseille","lat":43.27206,"lon":5.39186,"is_reserved":false,"is_disabled":false,"rental_uris":{"android":"levelo://app?vid=b4c3b2ae-50f8-4942-a6dc-8b4db5f94e4f","ios":"levelo://app?vid=b4c3b2ae-50f8-4942-a6dc-8b4db5f94e4f"},"vehicle_type_id":"4","last_reported":1735916966,"current_range_meters":24000,"station_id":"ce4bhhp2rcd13ifvqfm0","pricing_plan_id":"cebpf4jnsgd1na2vs0mg"},{"bike_id":"b8427470-c237-4b6a-a3e9-699cff2096e8","system_id":"levelo_inurba_marseille","lat":43.239656,"lon":5.366291,"is_reserved":false,"is_disabled":false,"rental_uris":{"android":"levelo://app?vid=b8427470-c237-4b6a-a3e9-699cff2096e8","ios":"levelo://app?vid=b8427470-c237-4b6a-a3e9-699cff2096e8"},"vehicle_type_id":"4","last_reported":1735916966,"current_range_meters":26800,"station_id":"ce4bhi12rcd13ifvqfp0","pricing_plan_id":"cebpf4jnsgd1na2vs0mg"},{"bike_id":"b20d3507-fda4-48ec-aa24-ebe9f5a25157","system_id":"levelo_inurba_marseille","lat":43.29643,"lon":5.37142,"is_reserved":false,"is_disabled":false,"rental_uris":{"android":"levelo://app?vid=b20d3507-fda4-48ec-aa24-ebe9f5a25157","ios":"levelo://app?vid=b20d3507-fda4-48ec-aa24-ebe9f5a25157"},"vehicle_type_id":"4","last_reported":1735916966,"current_range_meters":38400,"station_id":"ce4bgnh2rcd13ifvqc0g","pricing_plan_id":"cebpf4jnsgd1na2vs0mg"},{"bike_id":"9a633b20-48e1-4d57-88ca-cc77983ef0f1","system_id":"levelo_inurba_marseille","lat":43.28156,"lon":5.42653,"is_reserved":false,"is_disabled":false,"rental_uris":{"android":"levelo://app?vid=9a633b20-48e1-4d57-88ca-cc77983ef0f1","ios":"levelo://app?vid=9a633b20-48e1-4d57-88ca-cc77983ef0f1"},"vehicle_type_id":"4","last_reported":1735916966,"current_range_meters":11200,"station_id":"ce4bhnh2rcd13ifvqgug","pricing_plan_id":"cebpf4jnsgd1na2vs0mg"},{"bike_id":"63bd9e51-f3f7-419c-aee7-3da94177a3d4","system_id":"levelo_inurba_marseille","lat":43.30611,"lon":5.37218,"is_reserved":false,"is_disabled":false,"rental_uris":{"android":"levelo://app?vid=63bd9e51-f3f7-419c-aee7-3da94177a3d4","ios":"levelo://app?vid=63bd9e51-f3f7-419c-aee7-3da94177a3d4"},"vehicle_type_id":"4","last_reported":1735916966,"current_range_meters":39200,"station_id":"ce4bgqh2rcd13ifvqc4g","pricing_plan_id":"cebpf4jnsgd1na2vs0mg"},{"bike_id":"eaecfcca-aa89-4e9a-8d17-c5be1539665b","system_id":"levelo_inurba_marseille","lat":43.28281,"lon":5.35066,"is_reserved":false,"is_disabled":true,"rental_uris":{"android":"levelo://app?vid=eaecfcca-aa89-4e9a-8d17-c5be1539665b","ios":"levelo://app?vid=eaecfcca-aa89-4e9a-8d17-c5be1539665b"},"vehicle_type_id":"4","last_reported":1735916966,"current_range_meters":10000,"station_id":"ce4bhbp2rcd13ifvqerg","pricing_plan_id":"cebpf4jnsgd1na2vs0mg"},{"bike_id":"896797d5-e48c-435a-a4ff-c7d0b4682116","system_id":"levelo_inurba_marseille","lat":43.27812,"lon":5.40715,"is_reserved":false,"is_disabled":false,"rental_uris":{"android":"levelo://app?vid=896797d5-e48c-435a-a4ff-c7d0b4682116","ios":"levelo://app?vid=896797d5-e48c-435a-a4ff-c7d0b4682116"},"vehicle_type_id":"4","last_reported":1735916966,"current_range_meters":28400,"station_id":"ce4bhnh2rcd13ifvqgtg","pricing_plan_id":"cebpf4jnsgd1na2vs0mg"},{"bike_id":"c2dac5a0-dbf8-4381-84e9-a68d0e474b8c","system_id":"levelo_inurba_marseille","lat":43.29683,"lon":5.37716,"is_reserved":false,"is_disabled":false,"rental_uris":{"android":"levelo://app?vid=c2dac5a0-dbf8-4381-84e9-a68d0e474b8c","ios":"levelo://app?vid=c2dac5a0-dbf8-4381-84e9-a68d0e474b8c"},"vehicle_type_id":"4","last_reported":1735916966,"current_range_meters":18800,"station_id":"ce4bgkh2rcd13ifvqbl0","pricing_plan_id":"cebpf4jnsgd1na2vs0mg"},{"bike_id":"d41e7209-f40e-439b-8323-3d499f573757","system_id":"levelo_inurba_marseille","lat":43.22929,"lon":5.35395,"is_reserved":false,"is_disabled":true,"rental_uris":{"android":"levelo://app?vid=d41e7209-f40e-439b-8323-3d499f573757","ios":"levelo://app?vid=d41e7209-f40e-439b-8323-3d499f573757"},"vehicle_type_id":"4","last_reported":1735916966,"current_range_meters":0,"station_id":"cpo3532slgdg3j2ikp40","pricing_plan_id":"cebpf4jnsgd1na2vs0mg"},{"bike_id":"66f9cead-a3ac-40af-a5c0-d7f2a514cd12","system_id":"levelo_inurba_marseille","lat":43.2953,"lon":5.38545,"is_reserved":false,"is_disabled":false,"rental_uris":{"android":"levelo://app?vid=66f9cead-a3ac-40af-a5c0-d7f2a514cd12","ios":"levelo://app?vid=66f9cead-a3ac-40af-a5c0-d7f2a514cd12"},"vehicle_type_id":"4","last_reported":1735916966,"current_range_meters":26800,"station_id":"ce4bgih2rcd13ifvqba0","pricing_plan_id":"cebpf4jnsgd1na2vs0mg"},{"bike_id":"f2c7eca6-5e2b-42bf-804d-1d4dbad03b88","system_id":"levelo_inurba_marseille","lat":43.26503,"lon":5.39542,"is_reserved":false,"is_disabled":false,"rental_uris":{"android":"levelo://app?vid=f2c7eca6-5e2b-42bf-804d-1d4dbad03b88","ios":"levelo://app?vid=f2c7eca6-5e2b-42bf-804d-1d4dbad03b88"},"vehicle_type_id":"4","last_reported":1735916966,"current_range_meters":14400,"station_id":"ce4bhi12rcd13ifvqfq0","pricing_plan_id":"cebpf4jnsgd1na2vs0mg"},{"bike_id":"dc3b693e-ce6f-4d88-8d2a-e5114c30e957","system_id":"levelo_inurba_marseille","lat":43.28978,"lon":5.37819,"is_reserved":false,"is_disabled":false,"rental_uris":{"android":"levelo://app?vid=dc3b693e-ce6f-4d88-8d2a-e5114c30e957","ios":"levelo://app?vid=dc3b693e-ce6f-4d88-8d2a-e5114c30e957"},"vehicle_type_id":"4","last_reported":1735916966,"current_range_meters":33600,"station_id":"ce4bh9p2rcd13ifvqed0","pricing_plan_id":"cebpf4jnsgd1na2vs0mg"},{"bike_id":"f3c12ef4-82bd-48ff-8ba6-8f2c9a44f8b9","system_id":"levelo_inurba_marseille","lat":43.24813,"lon":5.37463,"is_reserved":false,"is_disabled":false,"rental_uris":{"android":"levelo://app?vid=f3c12ef4-82bd-48ff-8ba6-8f2c9a44f8b9","ios":"levelo://app?vid=f3c12ef4-82bd-48ff-8ba6-8f2c9a44f8b9"},"vehicle_type_id":"4","last_reported":1735916966,"current_range_meters":38800,"station_id":"ce4bhgh2rcd13ifvqfb0","pricing_plan_id":"cebpf4jnsgd1na2vs0mg"},{"bike_id":"660aed1d-cdeb-4a3c-a6d4-d19ef9a2563b","system_id":"levelo_inurba_marseille","lat":43.29906,"lon":5.43671,"is_reserved":false,"is_disabled":false,"rental_uris":{"android":"levelo://app?vid=660aed1d-cdeb-4a3c-a6d4-d19ef9a2563b","ios":"levelo://app?vid=660aed1d-cdeb-4a3c-a6d4-d19ef9a2563b"},"vehicle_type_id":"4","last_reported":1735916966,"current_range_meters":36000,"station_id":"ce4bhpp2rcd13ifvqhfg","pricing_plan_id":"cebpf4jnsgd1na2vs0mg"},{"bike_id":"725999bb-8b32-4e5b-95fc-d63880a1b626","system_id":"levelo_inurba_marseille","lat":43.32686,"lon":5.41077,"is_reserved":false,"is_disabled":false,"rental_uris":{"android":"levelo://app?vid=725999bb-8b32-4e5b-95fc-d63880a1b626","ios":"levelo://app?vid=725999bb-8b32-4e5b-95fc-d63880a1b626"},"vehicle_type_id":"4","last_reported":1735916966,"current_range_meters":38800,"station_id":"ce4bhpp2rcd13ifvqhgg","pricing_plan_id":"cebpf4jnsgd1na2vs0mg"},{"bike_id":"7715a076-80bf-4e3f-a383-4026ed24798f","system_id":"levelo_inurba_marseille","lat":43.29653,"lon":5.37124,"is_reserved":false,"is_disabled":false,"rental_uris":{"android":"levelo://app?vid=7715a076-80bf-4e3f-a383-4026ed24798f","ios":"levelo://app?vid=7715a076-80bf-4e3f-a383-4026ed24798f"},"vehicle_type_id":"4","last_reported":1735916966,"current_range_meters":38800,"station_id":"ce4bgnh2rcd13ifvqc0g","pricing_plan_id":"cebpf4jnsgd1na2vs0mg"},{"bike_id":"6e31246d-2cb8-4241-b0bf-1101314d22a7","system_id":"levelo_inurba_marseille","lat":43.251,"lon":5.403326,"is_reserved":false,"is_disabled":false,"rental_uris":{"android":"levelo://app?vid=6e31246d-2cb8-4241-b0bf-1101314d22a7","ios":"levelo://app?vid=6e31246d-2cb8-4241-b0bf-1101314d22a7"},"vehicle_type_id":"4","last_reported":1735916966,"current_range_meters":17200,"station_id":"ce4bhlh2rcd13ifvqgig","pricing_plan_id":"cebpf4jnsgd1na2vs0mg"},{"bike_id":"3603cabe-4957-48a6-b971-b737ca16a43d","system_id":"levelo_inurba_marseille","lat":43.32661,"lon":5.40994,"is_reserved":false,"is_disabled":false,"rental_uris":{"android":"levelo://app?vid=3603cabe-4957-48a6-b971-b737ca16a43d","ios":"levelo://app?vid=3603cabe-4957-48a6-b971-b737ca16a43d"},"vehicle_type_id":"4","last_reported":1735916966,"current_range_meters":22400,"station_id":"ce4bhpp2rcd13ifvqhgg","pricing_plan_id":"cebpf4jnsgd1na2vs0mg"},{"bike_id":"c467b2e6-dbbd-466f-9fc0-cb52c99e27ea","system_id":"levelo_inurba_marseille","lat":43.28293,"lon":5.37385,"is_reserved":false,"is_disabled":false,"rental_uris":{"android":"levelo://app?vid=c467b2e6-dbbd-466f-9fc0-cb52c99e27ea","ios":"levelo://app?vid=c467b2e6-dbbd-466f-9fc0-cb52c99e27ea"},"vehicle_type_id":"4","last_reported":1735916966,"current_range_meters":34800,"station_id":"ce4bha12rcd13ifvqef0","pricing_plan_id":"cebpf4jnsgd1na2vs0mg"},{"bike_id":"620951ad-a188-4d79-b4a7-8bd571cb5331","system_id":"levelo_inurba_marseille","lat":43.2903,"lon":5.37569,"is_reserved":false,"is_disabled":false,"rental_uris":{"android":"levelo://app?vid=620951ad-a188-4d79-b4a7-8bd571cb5331","ios":"levelo://app?vid=620951ad-a188-4d79-b4a7-8bd571cb5331"},"vehicle_type_id":"4","last_reported":1735916966,"current_range_meters":36400,"station_id":"ce4bh692rcd13ifvqe90","pricing_plan_id":"cebpf4jnsgd1na2vs0mg"},{"bike_id":"e95d7bdc-a25b-425b-99ef-fd8de5ec73db","system_id":"levelo_inurba_marseille","lat":43.30186,"lon":5.3663,"is_reserved":false,"is_disabled":false,"rental_uris":{"android":"levelo://app?vid=e95d7bdc-a25b-425b-99ef-fd8de5ec73db","ios":"levelo://app?vid=e95d7bdc-a25b-425b-99ef-fd8de5ec73db"},"vehicle_type_id":"4","last_reported":1735916966,"current_range_meters":14000,"station_id":"ce4bgrh2rcd13ifvqc8g","pricing_plan_id":"cebpf4jnsgd1na2vs0mg"},{"bike_id":"7a2f16ee-f208-479a-864c-944054ecbc82","system_id":"levelo_inurba_marseille","lat":43.26698,"lon":5.38255,"is_reserved":false,"is_disabled":false,"rental_uris":{"android":"levelo://app?vid=7a2f16ee-f208-479a-864c-944054ecbc82","ios":"levelo://app?vid=7a2f16ee-f208-479a-864c-944054ecbc82"},"vehicle_type_id":"4","last_reported":1735916966,"current_range_meters":38400,"station_id":"ce4bhg92rcd13ifvqf90","pricing_plan_id":"cebpf4jnsgd1na2vs0mg"},{"bike_id":"9cc2f850-3da1-480f-b757-a0bf5a9807ef","system_id":"levelo_inurba_marseille","lat":43.31892,"lon":5.40731,"is_reserved":false,"is_disabled":false,"rental_uris":{"android":"levelo://app?vid=9cc2f850-3da1-480f-b757-a0bf5a9807ef","ios":"levelo://app?vid=9cc2f850-3da1-480f-b757-a0bf5a9807ef"},"vehicle_type_id":"4","last_reported":1735916966,"current_range_meters":38800,"station_id":"ce4bhq12rcd13ifvqhig","pricing_plan_id":"cebpf4jnsgd1na2vs0mg"},{"bike_id":"2bd213f6-7c3b-4206-a8d7-1b059cfadb7f","system_id":"levelo_inurba_marseille","lat":43.33729,"lon":5.39167,"is_reserved":false,"is_disabled":false,"rental_uris":{"android":"levelo://app?vid=2bd213f6-7c3b-4206-a8d7-1b059cfadb7f","ios":"levelo://app?vid=2bd213f6-7c3b-4206-a8d7-1b059cfadb7f"},"vehicle_type_id":"4","last_reported":1735916966,"current_range_meters":37600,"station_id":"ce4bhr92rcd13ifvqhsg","pricing_plan_id":"cebpf4jnsgd1na2vs0mg"},{"bike_id":"4e2e926a-cc62-4529-8b24-3abbcf0f0be2","system_id":"levelo_inurba_marseille","lat":43.23197,"lon":5.35572,"is_reserved":false,"is_disabled":false,"rental_uris":{"android":"levelo://app?vid=4e2e926a-cc62-4529-8b24-3abbcf0f0be2","ios":"levelo://app?vid=4e2e926a-cc62-4529-8b24-3abbcf0f0be2"},"vehicle_type_id":"4","last_reported":1735916966,"current_range_meters":32400,"station_id":"ce4bhu92rcd13ifvqi70","pricing_plan_id":"cebpf4jnsgd1na2vs0mg"},{"bike_id":"fad686cb-7028-4213-92df-743528ea5468","system_id":"levelo_inurba_marseille","lat":43.24187,"lon":5.3972,"is_reserved":false,"is_disabled":true,"rental_uris":{"android":"levelo://app?vid=fad686cb-7028-4213-92df-743528ea5468","ios":"levelo://app?vid=fad686cb-7028-4213-92df-743528ea5468"},"vehicle_type_id":"4","last_reported":1735916966,"current_range_meters":2000,"station_id":"ce4bhn12rcd13ifvqgpg","pricing_plan_id":"cebpf4jnsgd1na2vs0mg"},{"bike_id":"4099e364-d3d5-4e70-b9a6-6d1dbcbab17c","system_id":"levelo_inurba_marseille","lat":43.28074,"lon":5.39648,"is_reserved":false,"is_disabled":true,"rental_uris":{"android":"levelo://app?vid=4099e364-d3d5-4e70-b9a6-6d1dbcbab17c","ios":"levelo://app?vid=4099e364-d3d5-4e70-b9a6-6d1dbcbab17c"},"vehicle_type_id":"4","last_reported":1735916966,"current_range_meters":0,"station_id":"ce4bho12rcd13ifvqh2g","pricing_plan_id":"cebpf4jnsgd1na2vs0mg"},{"bike_id":"91bd215c-cf5d-49bb-b4b3-f2af815209eb","system_id":"levelo_inurba_marseille","lat":43.27622,"lon":5.36119,"is_reserved":false,"is_disabled":false,"rental_uris":{"android":"levelo://app?vid=91bd215c-cf5d-49bb-b4b3-f2af815209eb","ios":"levelo://app?vid=91bd215c-cf5d-49bb-b4b3-f2af815209eb"},"vehicle_type_id":"4","last_reported":1735916966,"current_range_meters":38800,"station_id":"ce4bgj92rcd13ifvqbe0","pricing_plan_id":"cebpf4jnsgd1na2vs0mg"},{"bike_id":"812c68d0-733f-4f8c-8e14-3c718fd7d06a","system_id":"levelo_inurba_marseille","lat":43.30203,"lon":5.36629,"is_reserved":false,"is_disabled":false,"rental_uris":{"android":"levelo://app?vid=812c68d0-733f-4f8c-8e14-3c718fd7d06a","ios":"levelo://app?vid=812c68d0-733f-4f8c-8e14-3c718fd7d06a"},"vehicle_type_id":"4","last_reported":1735916966,"current_range_meters":22800,"station_id":"ce4bgrh2rcd13ifvqc8g","pricing_plan_id":"cebpf4jnsgd1na2vs0mg"},{"bike_id":"22b51c22-239c-4cc0-9eaf-a8b470392735","system_id":"levelo_inurba_marseille","lat":43.29029,"lon":5.38132,"is_reserved":false,"is_disabled":false,"rental_uris":{"android":"levelo://app?vid=22b51c22-239c-4cc0-9eaf-a8b470392735","ios":"levelo://app?vid=22b51c22-239c-4cc0-9eaf-a8b470392735"},"vehicle_type_id":"4","last_reported":1735916966,"current_range_meters":32800,"station_id":"ce4bh4p2rcd13ifvqe1g","pricing_plan_id":"cebpf4jnsgd1na2vs0mg"},{"bike_id":"791dec88-10e9-48b5-9fc6-b0acca6d5c2e","system_id":"levelo_inurba_marseille","lat":43.29284,"lon":5.37423,"is_reserved":false,"is_disabled":true,"rental_uris":{"android":"levelo://app?vid=791dec88-10e9-48b5-9fc6-b0acca6d5c2e","ios":"levelo://app?vid=791dec88-10e9-48b5-9fc6-b0acca6d5c2e"},"vehicle_type_id":"4","last_reported":1735916966,"current_range_meters":2800,"station_id":"ce4bgi12rcd13ifvqb70","pricing_plan_id":"cebpf4jnsgd1na2vs0mg"},{"bike_id":"20877931-d020-4d46-85f9-75614b926481","system_id":"levelo_inurba_marseille","lat":43.29541,"lon":5.37499,"is_reserved":false,"is_disabled":false,"rental_uris":{"android":"levelo://app?vid=20877931-d020-4d46-85f9-75614b926481","ios":"levelo://app?vid=20877931-d020-4d46-85f9-75614b926481"},"vehicle_type_id":"4","last_reported":1735916966,"current_range_meters":22000,"station_id":"ce4bgkp2rcd13ifvqbmg","pricing_plan_id":"cebpf4jnsgd1na2vs0mg"},{"bike_id":"6ca81ff8-25f4-4aaa-8b72-2ac07fd9902c","system_id":"levelo_inurba_marseille","lat":43.29836,"lon":5.38132,"is_reserved":false,"is_disabled":false,"rental_uris":{"android":"levelo://app?vid=6ca81ff8-25f4-4aaa-8b72-2ac07fd9902c","ios":"levelo://app?vid=6ca81ff8-25f4-4aaa-8b72-2ac07fd9902c"},"vehicle_type_id":"4","last_reported":1735916966,"current_range_meters":38800,"station_id":"ce4bgip2rcd13ifvqbb0","pricing_plan_id":"cebpf4jnsgd1na2vs0mg"},{"bike_id":"34617586-430d-4b7a-9eab-a1013b7c582e","system_id":"levelo_inurba_marseille","lat":43.28984,"lon":5.3783,"is_reserved":false,"is_disabled":true,"rental_uris":{"android":"levelo://app?vid=34617586-430d-4b7a-9eab-a1013b7c582e","ios":"levelo://app?vid=34617586-430d-4b7a-9eab-a1013b7c582e"},"vehicle_type_id":"4","last_reported":1735916966,"current_range_meters":31200,"station_id":"ce4bh9p2rcd13ifvqed0","pricing_plan_id":"cebpf4jnsgd1na2vs0mg"},{"bike_id":"e86e8a6b-2981-4147-9bb2-a5ab92db9450","system_id":"levelo_inurba_marseille","lat":43.28162,"lon":5.42651,"is_reserved":false,"is_disabled":false,"rental_uris":{"android":"levelo://app?vid=e86e8a6b-2981-4147-9bb2-a5ab92db9450","ios":"levelo://app?vid=e86e8a6b-2981-4147-9bb2-a5ab92db9450"},"vehicle_type_id":"4","last_reported":1735916966,"current_range_meters":37600,"station_id":"ce4bhnh2rcd13ifvqgug","pricing_plan_id":"cebpf4jnsgd1na2vs0mg"},{"bike_id":"21be2667-c06b-4a1b-8cd9-351b0bc38bfe","system_id":"levelo_inurba_marseille","lat":43.28838,"lon":5.39319,"is_reserved":false,"is_disabled":false,"rental_uris":{"android":"levelo://app?vid=21be2667-c06b-4a1b-8cd9-351b0bc38bfe","ios":"levelo://app?vid=21be2667-c06b-4a1b-8cd9-351b0bc38bfe"},"vehicle_type_id":"4","last_reported":1735916966,"current_range_meters":36800,"station_id":"ce4bh2p2rcd13ifvqdi0","pricing_plan_id":"cebpf4jnsgd1na2vs0mg"},{"bike_id":"5367a292-5564-4681-91cd-97babb89fc00","system_id":"levelo_inurba_marseille","lat":43.22932,"lon":5.35385,"is_reserved":false,"is_disabled":false,"rental_uris":{"android":"levelo://app?vid=5367a292-5564-4681-91cd-97babb89fc00","ios":"levelo://app?vid=5367a292-5564-4681-91cd-97babb89fc00"},"vehicle_type_id":"4","last_reported":1735916966,"current_range_meters":10800,"station_id":"cpo3532slgdg3j2ikp40","pricing_plan_id":"cebpf4jnsgd1na2vs0mg"},{"bike_id":"e40b8873-a7cf-4e56-b106-d515344f64c4","system_id":"levelo_inurba_marseille","lat":43.23199,"lon":5.35559,"is_reserved":false,"is_disabled":false,"rental_uris":{"android":"levelo://app?vid=e40b8873-a7cf-4e56-b106-d515344f64c4","ios":"levelo://app?vid=e40b8873-a7cf-4e56-b106-d515344f64c4"},"vehicle_type_id":"4","last_reported":1735916966,"current_range_meters":38800,"station_id":"ce4bhu92rcd13ifvqi70","pricing_plan_id":"cebpf4jnsgd1na2vs0mg"},{"bike_id":"2b6cad96-6613-4187-9702-224cf165f2d5","system_id":"levelo_inurba_marseille","lat":43.24548,"lon":5.39524,"is_reserved":false,"is_disabled":false,"rental_uris":{"android":"levelo://app?vid=2b6cad96-6613-4187-9702-224cf165f2d5","ios":"levelo://app?vid=2b6cad96-6613-4187-9702-224cf165f2d5"},"vehicle_type_id":"4","last_reported":1735916966,"current_range_meters":38800,"station_id":"ce4bhlp2rcd13ifvqgjg","pricing_plan_id":"cebpf4jnsgd1na2vs0mg"},{"bike_id":"9027064e-6565-4c6d-8145-3a52c0a6a72f","system_id":"levelo_inurba_marseille","lat":43.2986,"lon":5.36314,"is_reserved":false,"is_disabled":false,"rental_uris":{"android":"levelo://app?vid=9027064e-6565-4c6d-8145-3a52c0a6a72f","ios":"levelo://app?vid=9027064e-6565-4c6d-8145-3a52c0a6a72f"},"vehicle_type_id":"4","last_reported":1735916966,"current_range_meters":38800,"station_id":"ce4bgpp2rcd13ifvqc3g","pricing_plan_id":"cebpf4jnsgd1na2vs0mg"},{"bike_id":"10f7e96c-9495-4a90-a087-b3792415cb05","system_id":"levelo_inurba_marseille","lat":43.30931,"lon":5.36838,"is_reserved":false,"is_disabled":false,"rental_uris":{"android":"levelo://app?vid=10f7e96c-9495-4a90-a087-b3792415cb05","ios":"levelo://app?vid=10f7e96c-9495-4a90-a087-b3792415cb05"},"vehicle_type_id":"4","last_reported":1735916966,"current_range_meters":38800,"station_id":"ce4bgn92rcd13ifvqbvg","pricing_plan_id":"cebpf4jnsgd1na2vs0mg"},{"bike_id":"5250f7d4-1da6-441d-b627-ab92cb7e088d","system_id":"levelo_inurba_marseille","lat":43.24811,"lon":5.37457,"is_reserved":false,"is_disabled":false,"rental_uris":{"android":"levelo://app?vid=5250f7d4-1da6-441d-b627-ab92cb7e088d","ios":"levelo://app?vid=5250f7d4-1da6-441d-b627-ab92cb7e088d"},"vehicle_type_id":"4","last_reported":1735916966,"current_range_meters":28800,"station_id":"ce4bhgh2rcd13ifvqfb0","pricing_plan_id":"cebpf4jnsgd1na2vs0mg"},{"bike_id":"5aa47e2d-0f06-4d37-9821-6ee4ec9a9ef5","system_id":"levelo_inurba_marseille","lat":43.26589,"lon":5.39033,"is_reserved":false,"is_disabled":false,"rental_uris":{"android":"levelo://app?vid=5aa47e2d-0f06-4d37-9821-6ee4ec9a9ef5","ios":"levelo://app?vid=5aa47e2d-0f06-4d37-9821-6ee4ec9a9ef5"},"vehicle_type_id":"4","last_reported":1735916966,"current_range_meters":24000,"station_id":"ce4bhe12rcd13ifvqf30","pricing_plan_id":"cebpf4jnsgd1na2vs0mg"},{"bike_id":"dea90bac-f98c-4e26-90df-aa2e65d6a5dc","system_id":"levelo_inurba_marseille","lat":43.29372,"lon":5.37829,"is_reserved":false,"is_disabled":false,"rental_uris":{"android":"levelo://app?vid=dea90bac-f98c-4e26-90df-aa2e65d6a5dc","ios":"levelo://app?vid=dea90bac-f98c-4e26-90df-aa2e65d6a5dc"},"vehicle_type_id":"4","last_reported":1735916966,"current_range_meters":19200,"station_id":"ce4bgjh2rcd13ifvqbf0","pricing_plan_id":"cebpf4jnsgd1na2vs0mg"},{"bike_id":"6f21fba1-6f8e-47c4-a476-286cca5f9cc6","system_id":"levelo_inurba_marseille","lat":43.2828,"lon":5.35072,"is_reserved":false,"is_disabled":false,"rental_uris":{"android":"levelo://app?vid=6f21fba1-6f8e-47c4-a476-286cca5f9cc6","ios":"levelo://app?vid=6f21fba1-6f8e-47c4-a476-286cca5f9cc6"},"vehicle_type_id":"4","last_reported":1735916966,"current_range_meters":2800,"station_id":"ce4bhbp2rcd13ifvqerg","pricing_plan_id":"cebpf4jnsgd1na2vs0mg"},{"bike_id":"19fa2a02-8d31-49a1-9cda-3a87b41e76aa","system_id":"levelo_inurba_marseille","lat":43.27207,"lon":5.39177,"is_reserved":false,"is_disabled":false,"rental_uris":{"android":"levelo://app?vid=19fa2a02-8d31-49a1-9cda-3a87b41e76aa","ios":"levelo://app?vid=19fa2a02-8d31-49a1-9cda-3a87b41e76aa"},"vehicle_type_id":"4","last_reported":1735916966,"current_range_meters":38000,"station_id":"ce4bhhp2rcd13ifvqfm0","pricing_plan_id":"cebpf4jnsgd1na2vs0mg"},{"bike_id":"171b9e00-16eb-4289-ad45-2a51ccd89e7a","system_id":"levelo_inurba_marseille","lat":43.2959,"lon":5.38088,"is_reserved":false,"is_disabled":false,"rental_uris":{"android":"levelo://app?vid=171b9e00-16eb-4289-ad45-2a51ccd89e7a","ios":"levelo://app?vid=171b9e00-16eb-4289-ad45-2a51ccd89e7a"},"vehicle_type_id":"4","last_reported":1735916966,"current_range_meters":38400,"station_id":"ce4bgl12rcd13ifvqbo0","pricing_plan_id":"cebpf4jnsgd1na2vs0mg"},{"bike_id":"072c7a86-0866-4746-ad75-3f412ae999b9","system_id":"levelo_inurba_marseille","lat":43.30537,"lon":5.36553,"is_reserved":false,"is_disabled":false,"rental_uris":{"android":"levelo://app?vid=072c7a86-0866-4746-ad75-3f412ae999b9","ios":"levelo://app?vid=072c7a86-0866-4746-ad75-3f412ae999b9"},"vehicle_type_id":"4","last_reported":1735916966,"current_range_meters":23200,"station_id":"ce4bgs12rcd13ifvqcag","pricing_plan_id":"cebpf4jnsgd1na2vs0mg"},{"bike_id":"77f8e2be-3aba-4ae8-913a-87f21012b2d1","system_id":"levelo_inurba_marseille","lat":43.25003,"lon":5.38927,"is_reserved":false,"is_disabled":false,"rental_uris":{"android":"levelo://app?vid=77f8e2be-3aba-4ae8-913a-87f21012b2d1","ios":"levelo://app?vid=77f8e2be-3aba-4ae8-913a-87f21012b2d1"},"vehicle_type_id":"4","last_reported":1735916966,"current_range_meters":28800,"station_id":"ce4bhgp2rcd13ifvqfd0","pricing_plan_id":"cebpf4jnsgd1na2vs0mg"},{"bike_id":"1c02ae40-e43c-4632-b75b-2df9308dc3fe","system_id":"levelo_inurba_marseille","lat":43.33758,"lon":5.37445,"is_reserved":false,"is_disabled":false,"rental_uris":{"android":"levelo://app?vid=1c02ae40-e43c-4632-b75b-2df9308dc3fe","ios":"levelo://app?vid=1c02ae40-e43c-4632-b75b-2df9308dc3fe"},"vehicle_type_id":"4","last_reported":1735916966,"current_range_meters":34000,"station_id":"","pricing_plan_id":"cebpf4jnsgd1na2vs0mg"},{"bike_id":"57fe40b5-32da-47f7-a355-02c8463f8d15","system_id":"levelo_inurba_marseille","lat":43.27595,"lon":5.36118,"is_reserved":false,"is_disabled":false,"rental_uris":{"android":"levelo://app?vid=57fe40b5-32da-47f7-a355-02c8463f8d15","ios":"levelo://app?vid=57fe40b5-32da-47f7-a355-02c8463f8d15"},"vehicle_type_id":"4","last_reported":1735916966,"current_range_meters":18800,"station_id":"ce4bgj92rcd13ifvqbe0","pricing_plan_id":"cebpf4jnsgd1na2vs0mg"},{"bike_id":"380d9a3e-df22-4d70-b6c7-a9e2a1230a08","system_id":"levelo_inurba_marseille","lat":43.28153,"lon":5.42656,"is_reserved":false,"is_disabled":false,"rental_uris":{"android":"levelo://app?vid=380d9a3e-df22-4d70-b6c7-a9e2a1230a08","ios":"levelo://app?vid=380d9a3e-df22-4d70-b6c7-a9e2a1230a08"},"vehicle_type_id":"4","last_reported":1735916966,"current_range_meters":32400,"station_id":"ce4bhnh2rcd13ifvqgug","pricing_plan_id":"cebpf4jnsgd1na2vs0mg"},{"bike_id":"e8b01fe0-afbd-44b6-a625-ef947d94610c","system_id":"levelo_inurba_marseille","lat":43.3172,"lon":5.42397,"is_reserved":false,"is_disabled":false,"rental_uris":{"android":"levelo://app?vid=e8b01fe0-afbd-44b6-a625-ef947d94610c","ios":"levelo://app?vid=e8b01fe0-afbd-44b6-a625-ef947d94610c"},"vehicle_type_id":"4","last_reported":1735916966,"current_range_meters":37600,"station_id":"ce4bhp92rcd13ifvqhbg","pricing_plan_id":"cebpf4jnsgd1na2vs0mg"},{"bike_id":"7d806e41-7d1f-4676-b6dd-abe065ec5454","system_id":"levelo_inurba_marseille","lat":43.28433,"lon":5.39172,"is_reserved":false,"is_disabled":false,"rental_uris":{"android":"levelo://app?vid=7d806e41-7d1f-4676-b6dd-abe065ec5454","ios":"levelo://app?vid=7d806e41-7d1f-4676-b6dd-abe065ec5454"},"vehicle_type_id":"4","last_reported":1735916966,"current_range_meters":36400,"station_id":"ce4bhoh2rcd13ifvqh5g","pricing_plan_id":"cebpf4jnsgd1na2vs0mg"},{"bike_id":"d5355d3d-6620-4d8e-801e-d620f116c682","system_id":"levelo_inurba_marseille","lat":43.23064,"lon":5.35492,"is_reserved":false,"is_disabled":false,"rental_uris":{"android":"levelo://app?vid=d5355d3d-6620-4d8e-801e-d620f116c682","ios":"levelo://app?vid=d5355d3d-6620-4d8e-801e-d620f116c682"},"vehicle_type_id":"4","last_reported":1735916966,"current_range_meters":22800,"station_id":"cpo3342slgdg3j2ifvpg","pricing_plan_id":"cebpf4jnsgd1na2vs0mg"},{"bike_id":"985ae95a-62df-4ee6-8828-7a22985a6528","system_id":"levelo_inurba_marseille","lat":43.30933,"lon":5.40149,"is_reserved":false,"is_disabled":false,"rental_uris":{"android":"levelo://app?vid=985ae95a-62df-4ee6-8828-7a22985a6528","ios":"levelo://app?vid=985ae95a-62df-4ee6-8828-7a22985a6528"},"vehicle_type_id":"4","last_reported":1735916966,"current_range_meters":28400,"station_id":"ce4bgvp2rcd13ifvqct0","pricing_plan_id":"cebpf4jnsgd1na2vs0mg"},{"bike_id":"b4c8f872-3c02-4eea-b427-cb836a1ad2eb","system_id":"levelo_inurba_marseille","lat":43.30545,"lon":5.36537,"is_reserved":false,"is_disabled":false,"rental_uris":{"android":"levelo://app?vid=b4c8f872-3c02-4eea-b427-cb836a1ad2eb","ios":"levelo://app?vid=b4c8f872-3c02-4eea-b427-cb836a1ad2eb"},"vehicle_type_id":"4","last_reported":1735916966,"current_range_meters":12000,"station_id":"ce4bgs12rcd13ifvqcag","pricing_plan_id":"cebpf4jnsgd1na2vs0mg"},{"bike_id":"81727770-80dc-467b-99e2-b6512f1d49df","system_id":"levelo_inurba_marseille","lat":43.30529,"lon":5.38433,"is_reserved":false,"is_disabled":false,"rental_uris":{"android":"levelo://app?vid=81727770-80dc-467b-99e2-b6512f1d49df","ios":"levelo://app?vid=81727770-80dc-467b-99e2-b6512f1d49df"},"vehicle_type_id":"4","last_reported":1735916966,"current_range_meters":38800,"station_id":"ce4bgg92rcd13ifvqb30","pricing_plan_id":"cebpf4jnsgd1na2vs0mg"},{"bike_id":"9106d3ff-fc86-4d68-9c8d-6412f9d842de","system_id":"levelo_inurba_marseille","lat":43.25508,"lon":5.37639,"is_reserved":false,"is_disabled":true,"rental_uris":{"android":"levelo://app?vid=9106d3ff-fc86-4d68-9c8d-6412f9d842de","ios":"levelo://app?vid=9106d3ff-fc86-4d68-9c8d-6412f9d842de"},"vehicle_type_id":"4","last_reported":1735916966,"current_range_meters":2000,"station_id":"ce4bhh12rcd13ifvqff0","pricing_plan_id":"cebpf4jnsgd1na2vs0mg"},{"bike_id":"8bda7e22-bb56-477a-98aa-7b963032ed44","system_id":"levelo_inurba_marseille","lat":43.22934,"lon":5.35386,"is_reserved":false,"is_disabled":false,"rental_uris":{"android":"levelo://app?vid=8bda7e22-bb56-477a-98aa-7b963032ed44","ios":"levelo://app?vid=8bda7e22-bb56-477a-98aa-7b963032ed44"},"vehicle_type_id":"4","last_reported":1735916966,"current_range_meters":6000,"station_id":"cpo3532slgdg3j2ikp40","pricing_plan_id":"cebpf4jnsgd1na2vs0mg"},{"bike_id":"5b51bf38-09a9-44de-9081-4c2af406011d","system_id":"levelo_inurba_marseille","lat":43.22931,"lon":5.35385,"is_reserved":false,"is_disabled":false,"rental_uris":{"android":"levelo://app?vid=5b51bf38-09a9-44de-9081-4c2af406011d","ios":"levelo://app?vid=5b51bf38-09a9-44de-9081-4c2af406011d"},"vehicle_type_id":"4","last_reported":1735916966,"current_range_meters":8000,"station_id":"cpo3532slgdg3j2ikp40","pricing_plan_id":"cebpf4jnsgd1na2vs0mg"},{"bike_id":"cd2337f4-0a19-43c2-b9b7-2707b9dd8336","system_id":"levelo_inurba_marseille","lat":43.29892,"lon":5.38931,"is_reserved":false,"is_disabled":false,"rental_uris":{"android":"levelo://app?vid=cd2337f4-0a19-43c2-b9b7-2707b9dd8336","ios":"levelo://app?vid=cd2337f4-0a19-43c2-b9b7-2707b9dd8336"},"vehicle_type_id":"4","last_reported":1735916966,"current_range_meters":9200,"station_id":"ce4bh392rcd13ifvqdl0","pricing_plan_id":"cebpf4jnsgd1na2vs0mg"},{"bike_id":"e98abbcc-ee63-48bb-a424-be7c2939dfa1","system_id":"levelo_inurba_marseille","lat":43.3046,"lon":5.37916,"is_reserved":false,"is_disabled":false,"rental_uris":{"android":"levelo://app?vid=e98abbcc-ee63-48bb-a424-be7c2939dfa1","ios":"levelo://app?vid=e98abbcc-ee63-48bb-a424-be7c2939dfa1"},"vehicle_type_id":"4","last_reported":1735916966,"current_range_meters":33600,"station_id":"ce4bgup2rcd13ifvqcn0","pricing_plan_id":"cebpf4jnsgd1na2vs0mg"},{"bike_id":"48dab017-3f42-472f-871a-513ce2bb3aac","system_id":"levelo_inurba_marseille","lat":43.23157,"lon":5.43723,"is_reserved":false,"is_disabled":false,"rental_uris":{"android":"levelo://app?vid=48dab017-3f42-472f-871a-513ce2bb3aac","ios":"levelo://app?vid=48dab017-3f42-472f-871a-513ce2bb3aac"},"vehicle_type_id":"4","last_reported":1735916966,"current_range_meters":38800,"station_id":"ce4bhmp2rcd13ifvqgog","pricing_plan_id":"cebpf4jnsgd1na2vs0mg"},{"bike_id":"3bb8ded2-41fa-4a12-9b0b-23eab45e9e71","system_id":"levelo_inurba_marseille","lat":43.28429,"lon":5.34986,"is_reserved":false,"is_disabled":false,"rental_uris":{"android":"levelo://app?vid=3bb8ded2-41fa-4a12-9b0b-23eab45e9e71","ios":"levelo://app?vid=3bb8ded2-41fa-4a12-9b0b-23eab45e9e71"},"vehicle_type_id":"4","last_reported":1735916966,"current_range_meters":6400,"station_id":"ce4bhbh2rcd13ifvqepg","pricing_plan_id":"cebpf4jnsgd1na2vs0mg"},{"bike_id":"2b6793e3-31d0-4de5-ae76-86b29f875188","system_id":"levelo_inurba_marseille","lat":43.30157,"lon":5.37423,"is_reserved":false,"is_disabled":false,"rental_uris":{"android":"levelo://app?vid=2b6793e3-31d0-4de5-ae76-86b29f875188","ios":"levelo://app?vid=2b6793e3-31d0-4de5-ae76-86b29f875188"},"vehicle_type_id":"4","last_reported":1735916966,"current_range_meters":1600,"station_id":"ce4bgs92rcd13ifvqcc0","pricing_plan_id":"cebpf4jnsgd1na2vs0mg"},{"bike_id":"a23027a9-f29e-4a1e-a3c1-6da18b300c53","system_id":"levelo_inurba_marseille","lat":43.30543,"lon":5.367,"is_reserved":false,"is_disabled":false,"rental_uris":{"android":"levelo://app?vid=a23027a9-f29e-4a1e-a3c1-6da18b300c53","ios":"levelo://app?vid=a23027a9-f29e-4a1e-a3c1-6da18b300c53"},"vehicle_type_id":"4","last_reported":1735916966,"current_range_meters":36800,"station_id":"ce4bgrp2rcd13ifvqc9g","pricing_plan_id":"cebpf4jnsgd1na2vs0mg"},{"bike_id":"d014f699-d84d-436b-b3bf-8c059d18ea89","system_id":"levelo_inurba_marseille","lat":43.22923,"lon":5.35377,"is_reserved":false,"is_disabled":false,"rental_uris":{"android":"levelo://app?vid=d014f699-d84d-436b-b3bf-8c059d18ea89","ios":"levelo://app?vid=d014f699-d84d-436b-b3bf-8c059d18ea89"},"vehicle_type_id":"4","last_reported":1735916966,"current_range_meters":26800,"station_id":"cpo3532slgdg3j2ikp40","pricing_plan_id":"cebpf4jnsgd1na2vs0mg"},{"bike_id":"818b175f-fb46-4a53-9c7c-21d4a6b781c1","system_id":"levelo_inurba_marseille","lat":43.30958,"lon":5.39041,"is_reserved":false,"is_disabled":false,"rental_uris":{"android":"levelo://app?vid=818b175f-fb46-4a53-9c7c-21d4a6b781c1","ios":"levelo://app?vid=818b175f-fb46-4a53-9c7c-21d4a6b781c1"},"vehicle_type_id":"4","last_reported":1735916966,"current_range_meters":39200,"station_id":"ce4bgup2rcd13ifvqco0","pricing_plan_id":"cebpf4jnsgd1na2vs0mg"},{"bike_id":"d1beb9a8-96f0-4670-b386-16f558c8d088","system_id":"levelo_inurba_marseille","lat":43.25923,"lon":5.40912,"is_reserved":false,"is_disabled":false,"rental_uris":{"android":"levelo://app?vid=d1beb9a8-96f0-4670-b386-16f558c8d088","ios":"levelo://app?vid=d1beb9a8-96f0-4670-b386-16f558c8d088"},"vehicle_type_id":"4","last_reported":1735916966,"current_range_meters":8400,"station_id":"ce4bhm92rcd13ifvqglg","pricing_plan_id":"cebpf4jnsgd1na2vs0mg"},{"bike_id":"c14d1989-a72f-4241-a582-39661d0bcfcf","system_id":"levelo_inurba_marseille","lat":43.232,"lon":5.35537,"is_reserved":false,"is_disabled":false,"rental_uris":{"android":"levelo://app?vid=c14d1989-a72f-4241-a582-39661d0bcfcf","ios":"levelo://app?vid=c14d1989-a72f-4241-a582-39661d0bcfcf"},"vehicle_type_id":"4","last_reported":1735916966,"current_range_meters":39200,"station_id":"ce4bhu92rcd13ifvqi70","pricing_plan_id":"cebpf4jnsgd1na2vs0mg"},{"bike_id":"ef72cdb4-465d-4178-b952-49906f159c48","system_id":"levelo_inurba_marseille","lat":43.28172,"lon":5.42638,"is_reserved":false,"is_disabled":false,"rental_uris":{"android":"levelo://app?vid=ef72cdb4-465d-4178-b952-49906f159c48","ios":"levelo://app?vid=ef72cdb4-465d-4178-b952-49906f159c48"},"vehicle_type_id":"4","last_reported":1735916966,"current_range_meters":22400,"station_id":"ce4bhnh2rcd13ifvqgug","pricing_plan_id":"cebpf4jnsgd1na2vs0mg"},{"bike_id":"b3e08163-a271-4491-94ef-7d9af2767087","system_id":"levelo_inurba_marseille","lat":43.27208,"lon":5.3917,"is_reserved":false,"is_disabled":false,"rental_uris":{"android":"levelo://app?vid=b3e08163-a271-4491-94ef-7d9af2767087","ios":"levelo://app?vid=b3e08163-a271-4491-94ef-7d9af2767087"},"vehicle_type_id":"4","last_reported":1735916966,"current_range_meters":39200,"station_id":"ce4bhhp2rcd13ifvqfm0","pricing_plan_id":"cebpf4jnsgd1na2vs0mg"},{"bike_id":"cc443633-64c1-4b1c-befb-d25084b344bc","system_id":"levelo_inurba_marseille","lat":43.30922,"lon":5.36858,"is_reserved":false,"is_disabled":false,"rental_uris":{"android":"levelo://app?vid=cc443633-64c1-4b1c-befb-d25084b344bc","ios":"levelo://app?vid=cc443633-64c1-4b1c-befb-d25084b344bc"},"vehicle_type_id":"4","last_reported":1735916966,"current_range_meters":39200,"station_id":"ce4bgn92rcd13ifvqbvg","pricing_plan_id":"cebpf4jnsgd1na2vs0mg"},{"bike_id":"7bbed7be-28f4-4cc7-81bb-977c0d79552f","system_id":"levelo_inurba_marseille","lat":43.23068,"lon":5.35483,"is_reserved":false,"is_disabled":false,"rental_uris":{"android":"levelo://app?vid=7bbed7be-28f4-4cc7-81bb-977c0d79552f","ios":"levelo://app?vid=7bbed7be-28f4-4cc7-81bb-977c0d79552f"},"vehicle_type_id":"4","last_reported":1735916966,"current_range_meters":23200,"station_id":"cpo3342slgdg3j2ifvpg","pricing_plan_id":"cebpf4jnsgd1na2vs0mg"},{"bike_id":"44377e14-c431-47f9-879d-d27236127509","system_id":"levelo_inurba_marseille","lat":43.25831,"lon":5.39418,"is_reserved":false,"is_disabled":false,"rental_uris":{"android":"levelo://app?vid=44377e14-c431-47f9-879d-d27236127509","ios":"levelo://app?vid=44377e14-c431-47f9-879d-d27236127509"},"vehicle_type_id":"4","last_reported":1735916966,"current_range_meters":38800,"station_id":"ce4bhip2rcd13ifvqft0","pricing_plan_id":"cebpf4jnsgd1na2vs0mg"},{"bike_id":"b31d44e5-a97f-446f-b90b-8000bd5e5f2e","system_id":"levelo_inurba_marseille","lat":43.29859,"lon":5.36279,"is_reserved":false,"is_disabled":false,"rental_uris":{"android":"levelo://app?vid=b31d44e5-a97f-446f-b90b-8000bd5e5f2e","ios":"levelo://app?vid=b31d44e5-a97f-446f-b90b-8000bd5e5f2e"},"vehicle_type_id":"4","last_reported":1735916966,"current_range_meters":32000,"station_id":"ce4bgpp2rcd13ifvqc3g","pricing_plan_id":"cebpf4jnsgd1na2vs0mg"},{"bike_id":"c1bc654d-3dd0-41e0-b74d-6b886a079c15","system_id":"levelo_inurba_marseille","lat":43.24393,"lon":5.37058,"is_reserved":false,"is_disabled":false,"rental_uris":{"android":"levelo://app?vid=c1bc654d-3dd0-41e0-b74d-6b886a079c15","ios":"levelo://app?vid=c1bc654d-3dd0-41e0-b74d-6b886a079c15"},"vehicle_type_id":"4","last_reported":1735916966,"current_range_meters":28800,"station_id":"ce4bhhh2rcd13ifvqfk0","pricing_plan_id":"cebpf4jnsgd1na2vs0mg"},{"bike_id":"5c0e6aff-a052-4a02-848f-c8e083c5996f","system_id":"levelo_inurba_marseille","lat":43.25496,"lon":5.37658,"is_reserved":false,"is_disabled":false,"rental_uris":{"android":"levelo://app?vid=5c0e6aff-a052-4a02-848f-c8e083c5996f","ios":"levelo://app?vid=5c0e6aff-a052-4a02-848f-c8e083c5996f"},"vehicle_type_id":"4","last_reported":1735916966,"current_range_meters":20000,"station_id":"ce4bhh12rcd13ifvqff0","pricing_plan_id":"cebpf4jnsgd1na2vs0mg"},{"bike_id":"78b7a00c-0ad2-40f4-9953-a74f3c8198bb","system_id":"levelo_inurba_marseille","lat":43.30147,"lon":5.37413,"is_reserved":false,"is_disabled":false,"rental_uris":{"android":"levelo://app?vid=78b7a00c-0ad2-40f4-9953-a74f3c8198bb","ios":"levelo://app?vid=78b7a00c-0ad2-40f4-9953-a74f3c8198bb"},"vehicle_type_id":"4","last_reported":1735916966,"current_range_meters":36800,"station_id":"ce4bgs92rcd13ifvqcc0","pricing_plan_id":"cebpf4jnsgd1na2vs0mg"},{"bike_id":"f1d87bf5-3985-43c2-9fde-b818f1e41c2b","system_id":"levelo_inurba_marseille","lat":43.260333,"lon":5.375487,"is_reserved":false,"is_disabled":false,"rental_uris":{"android":"levelo://app?vid=f1d87bf5-3985-43c2-9fde-b818f1e41c2b","ios":"levelo://app?vid=f1d87bf5-3985-43c2-9fde-b818f1e41c2b"},"vehicle_type_id":"4","last_reported":1735916966,"current_range_meters":36400,"station_id":"ce4bhgh2rcd13ifvqfa0","pricing_plan_id":"cebpf4jnsgd1na2vs0mg"},{"bike_id":"35bae5db-60ab-41d9-9201-c54d16be67ee","system_id":"levelo_inurba_marseille","lat":43.22942,"lon":5.3538,"is_reserved":false,"is_disabled":false,"rental_uris":{"android":"levelo://app?vid=35bae5db-60ab-41d9-9201-c54d16be67ee","ios":"levelo://app?vid=35bae5db-60ab-41d9-9201-c54d16be67ee"},"vehicle_type_id":"4","last_reported":1735916966,"current_range_meters":3600,"station_id":"cpo3532slgdg3j2ikp40","pricing_plan_id":"cebpf4jnsgd1na2vs0mg"},{"bike_id":"e7bb10c5-9260-440d-8fc3-4952251aaf8e","system_id":"levelo_inurba_marseille","lat":43.30628,"lon":5.37251,"is_reserved":false,"is_disabled":false,"rental_uris":{"android":"levelo://app?vid=e7bb10c5-9260-440d-8fc3-4952251aaf8e","ios":"levelo://app?vid=e7bb10c5-9260-440d-8fc3-4952251aaf8e"},"vehicle_type_id":"4","last_reported":1735916966,"current_range_meters":27600,"station_id":"ce4bgqh2rcd13ifvqc4g","pricing_plan_id":"cebpf4jnsgd1na2vs0mg"},{"bike_id":"6be0a2a5-53ff-4b37-b926-815dcc76b64c","system_id":"levelo_inurba_marseille","lat":43.299,"lon":5.43665,"is_reserved":false,"is_disabled":false,"rental_uris":{"android":"levelo://app?vid=6be0a2a5-53ff-4b37-b926-815dcc76b64c","ios":"levelo://app?vid=6be0a2a5-53ff-4b37-b926-815dcc76b64c"},"vehicle_type_id":"4","last_reported":1735916966,"current_range_meters":38000,"station_id":"ce4bhpp2rcd13ifvqhfg","pricing_plan_id":"cebpf4jnsgd1na2vs0mg"},{"bike_id":"18a0efa6-81cf-4ef1-ba9d-3a3bc0a3c5a0","system_id":"levelo_inurba_marseille","lat":43.29899,"lon":5.38152,"is_reserved":false,"is_disabled":false,"rental_uris":{"android":"levelo://app?vid=18a0efa6-81cf-4ef1-ba9d-3a3bc0a3c5a0","ios":"levelo://app?vid=18a0efa6-81cf-4ef1-ba9d-3a3bc0a3c5a0"},"vehicle_type_id":"4","last_reported":1735916966,"current_range_meters":38400,"station_id":"ce4bgj12rcd13ifvqbc0","pricing_plan_id":"cebpf4jnsgd1na2vs0mg"},{"bike_id":"148ddc84-5e83-451b-a09c-2bda4dbb2fe0","system_id":"levelo_inurba_marseille","lat":43.29907,"lon":5.43642,"is_reserved":false,"is_disabled":false,"rental_uris":{"android":"levelo://app?vid=148ddc84-5e83-451b-a09c-2bda4dbb2fe0","ios":"levelo://app?vid=148ddc84-5e83-451b-a09c-2bda4dbb2fe0"},"vehicle_type_id":"4","last_reported":1735916966,"current_range_meters":38800,"station_id":"ce4bhpp2rcd13ifvqhfg","pricing_plan_id":"cebpf4jnsgd1na2vs0mg"},{"bike_id":"d87a92e4-ebc8-4993-8d44-f0f21c1c6533","system_id":"levelo_inurba_marseille","lat":43.30607,"lon":5.37222,"is_reserved":false,"is_disabled":false,"rental_uris":{"android":"levelo://app?vid=d87a92e4-ebc8-4993-8d44-f0f21c1c6533","ios":"levelo://app?vid=d87a92e4-ebc8-4993-8d44-f0f21c1c6533"},"vehicle_type_id":"4","last_reported":1735916966,"current_range_meters":32000,"station_id":"ce4bgqh2rcd13ifvqc4g","pricing_plan_id":"cebpf4jnsgd1na2vs0mg"},{"bike_id":"5f5f7ba9-6657-41ba-a4d9-91df21ba5354","system_id":"levelo_inurba_marseille","lat":43.30473,"lon":5.37905,"is_reserved":false,"is_disabled":false,"rental_uris":{"android":"levelo://app?vid=5f5f7ba9-6657-41ba-a4d9-91df21ba5354","ios":"levelo://app?vid=5f5f7ba9-6657-41ba-a4d9-91df21ba5354"},"vehicle_type_id":"4","last_reported":1735916966,"current_range_meters":38800,"station_id":"ce4bgup2rcd13ifvqcn0","pricing_plan_id":"cebpf4jnsgd1na2vs0mg"},{"bike_id":"a3568aab-1d34-4bdf-8c0c-ec81886f6177","system_id":"levelo_inurba_marseille","lat":43.33752,"lon":5.37413,"is_reserved":false,"is_disabled":true,"rental_uris":{"android":"levelo://app?vid=a3568aab-1d34-4bdf-8c0c-ec81886f6177","ios":"levelo://app?vid=a3568aab-1d34-4bdf-8c0c-ec81886f6177"},"vehicle_type_id":"4","last_reported":1735916966,"current_range_meters":18800,"station_id":"","pricing_plan_id":"cebpf4jnsgd1na2vs0mg"},{"bike_id":"1ec84c6e-4425-49a2-a24f-9de8c9dd9129","system_id":"levelo_inurba_marseille","lat":43.29864,"lon":5.3628,"is_reserved":false,"is_disabled":false,"rental_uris":{"android":"levelo://app?vid=1ec84c6e-4425-49a2-a24f-9de8c9dd9129","ios":"levelo://app?vid=1ec84c6e-4425-49a2-a24f-9de8c9dd9129"},"vehicle_type_id":"4","last_reported":1735916966,"current_range_meters":36800,"station_id":"ce4bgpp2rcd13ifvqc3g","pricing_plan_id":"cebpf4jnsgd1na2vs0mg"},{"bike_id":"32e5156a-5826-4ab4-83b1-e6619161b1c8","system_id":"levelo_inurba_marseille","lat":43.337444,"lon":5.374475,"is_reserved":false,"is_disabled":false,"rental_uris":{"android":"levelo://app?vid=32e5156a-5826-4ab4-83b1-e6619161b1c8","ios":"levelo://app?vid=32e5156a-5826-4ab4-83b1-e6619161b1c8"},"vehicle_type_id":"4","last_reported":1735916966,"current_range_meters":28800,"station_id":"","pricing_plan_id":"cebpf4jnsgd1na2vs0mg"},{"bike_id":"367e30f4-28ce-4fae-b673-b2c7e803fd52","system_id":"levelo_inurba_marseille","lat":43.28456,"lon":5.39185,"is_reserved":false,"is_disabled":false,"rental_uris":{"android":"levelo://app?vid=367e30f4-28ce-4fae-b673-b2c7e803fd52","ios":"levelo://app?vid=367e30f4-28ce-4fae-b673-b2c7e803fd52"},"vehicle_type_id":"4","last_reported":1735916966,"current_range_meters":39200,"station_id":"ce4bhoh2rcd13ifvqh5g","pricing_plan_id":"cebpf4jnsgd1na2vs0mg"},{"bike_id":"5d2dd62b-db21-42f6-a364-4b2b96f5d9a1","system_id":"levelo_inurba_marseille","lat":43.24663,"lon":5.38167,"is_reserved":false,"is_disabled":false,"rental_uris":{"android":"levelo://app?vid=5d2dd62b-db21-42f6-a364-4b2b96f5d9a1","ios":"levelo://app?vid=5d2dd62b-db21-42f6-a364-4b2b96f5d9a1"},"vehicle_type_id":"4","last_reported":1735916966,"current_range_meters":17200,"station_id":"ce4bhih2rcd13ifvqfr0","pricing_plan_id":"cebpf4jnsgd1na2vs0mg"},{"bike_id":"b076777c-c7d4-4d57-a362-f7c06db05aa2","system_id":"levelo_inurba_marseille","lat":43.23167,"lon":5.43715,"is_reserved":false,"is_disabled":false,"rental_uris":{"android":"levelo://app?vid=b076777c-c7d4-4d57-a362-f7c06db05aa2","ios":"levelo://app?vid=b076777c-c7d4-4d57-a362-f7c06db05aa2"},"vehicle_type_id":"4","last_reported":1735916966,"current_range_meters":38800,"station_id":"ce4bhmp2rcd13ifvqgog","pricing_plan_id":"cebpf4jnsgd1na2vs0mg"},{"bike_id":"d8241408-d2f5-4ed8-bc4f-3fe770db2f9b","system_id":"levelo_inurba_marseille","lat":43.25725,"lon":5.41112,"is_reserved":false,"is_disabled":false,"rental_uris":{"android":"levelo://app?vid=d8241408-d2f5-4ed8-bc4f-3fe770db2f9b","ios":"levelo://app?vid=d8241408-d2f5-4ed8-bc4f-3fe770db2f9b"},"vehicle_type_id":"4","last_reported":1735916966,"current_range_meters":16000,"station_id":"ce4bhkp2rcd13ifvqgd0","pricing_plan_id":"cebpf4jnsgd1na2vs0mg"},{"bike_id":"6e3133b1-0d41-4059-9787-44ee5e32ff8e","system_id":"levelo_inurba_marseille","lat":43.30426,"lon":5.38882,"is_reserved":false,"is_disabled":false,"rental_uris":{"android":"levelo://app?vid=6e3133b1-0d41-4059-9787-44ee5e32ff8e","ios":"levelo://app?vid=6e3133b1-0d41-4059-9787-44ee5e32ff8e"},"vehicle_type_id":"4","last_reported":1735916966,"current_range_meters":38400,"station_id":"ce4bgk12rcd13ifvqbi0","pricing_plan_id":"cebpf4jnsgd1na2vs0mg"},{"bike_id":"581ff443-4a37-489a-b2cc-cfa7c08e8f34","system_id":"levelo_inurba_marseille","lat":43.23194,"lon":5.35557,"is_reserved":false,"is_disabled":false,"rental_uris":{"android":"levelo://app?vid=581ff443-4a37-489a-b2cc-cfa7c08e8f34","ios":"levelo://app?vid=581ff443-4a37-489a-b2cc-cfa7c08e8f34"},"vehicle_type_id":"4","last_reported":1735916966,"current_range_meters":7200,"station_id":"ce4bhu92rcd13ifvqi70","pricing_plan_id":"cebpf4jnsgd1na2vs0mg"},{"bike_id":"93b7d86d-2c7e-4c13-b759-021f65902454","system_id":"levelo_inurba_marseille","lat":43.296065,"lon":5.371772,"is_reserved":false,"is_disabled":false,"rental_uris":{"android":"levelo://app?vid=93b7d86d-2c7e-4c13-b759-021f65902454","ios":"levelo://app?vid=93b7d86d-2c7e-4c13-b759-021f65902454"},"vehicle_type_id":"4","last_reported":1735916966,"current_range_meters":37600,"station_id":"ce4bgnh2rcd13ifvqc0g","pricing_plan_id":"cebpf4jnsgd1na2vs0mg"},{"bike_id":"5f73219f-9d36-465a-81ce-41a2a1545aee","system_id":"levelo_inurba_marseille","lat":43.24167,"lon":5.36391,"is_reserved":false,"is_disabled":false,"rental_uris":{"android":"levelo://app?vid=5f73219f-9d36-465a-81ce-41a2a1545aee","ios":"levelo://app?vid=5f73219f-9d36-465a-81ce-41a2a1545aee"},"vehicle_type_id":"4","last_reported":1735916966,"current_range_meters":37600,"station_id":"cpo36qri1sfpv3e86is0","pricing_plan_id":"cebpf4jnsgd1na2vs0mg"},{"bike_id":"0511252b-d57e-4283-8e3d-7618f0026692","system_id":"levelo_inurba_marseille","lat":43.27211,"lon":5.3918,"is_reserved":false,"is_disabled":false,"rental_uris":{"android":"levelo://app?vid=0511252b-d57e-4283-8e3d-7618f0026692","ios":"levelo://app?vid=0511252b-d57e-4283-8e3d-7618f0026692"},"vehicle_type_id":"4","last_reported":1735916966,"current_range_meters":2000,"station_id":"ce4bhhp2rcd13ifvqfm0","pricing_plan_id":"cebpf4jnsgd1na2vs0mg"},