{"last_updated":1710522417,"ttl":30,"version":"2.2","data":{"bikes":[{"bike_id":"2cb04d6e-f593-4ccd-92f8-e83a87bfdae0","system_id":"levelo_inurba_marseille","lat":43.31229,"lon":5.36853,"is_reserved":false,"is_disabled":false,"rental_uris":{"android":"levelo://app?vid=2cb04d6e-f593-4ccd-92f8-e83a87bfdae0","ios":"levelo://app?vid=2cb04d6e-f593-4ccd-92f8-e83a87bfdae0"},"vehicle_type_id":"4","last_reported":1710522417,"current_range_meters":0,"station_id":"ce4bgl92rcd13ifvqbq0","pricing_plan_id":"cebpf4jnsgd1na2vs0mg"},{"bike_id":"0c7904ef-2d7b-444b-9f76-bf43878802a5","system_id":"levelo_inurba_marseille","lat":43.30915,"lon":5.36844,"is_reserved":false,"is_disabled":false,"rental_uris":{"android":"levelo://app?vid=0c7904ef-2d7b-444b-9f76-bf43878802a5","ios":"levelo://app?vid=0c7904ef-2d7b-444b-9f76-bf43878802a5"},"vehicle_type_id":"4","last_reported":1710522417,"current_range_meters":0,"station_id":"ce4bgn92rcd13ifvqbvg","pricing_plan_id":"cebpf4jnsgd1na2vs0mg"},{"bike_id":"d74a7086-5065-4409-b145-0d8764f305ac","system_id":"levelo_inurba_marseille","lat":43.30912,"lon":5.3685,"is_reserved":false,"is_disabled":false,"rental_uris":{"android":"levelo://app?vid=d74a7086-5065-4409-b145-0d8764f305ac","ios":"levelo://app?vid=d74a7086-5065-4409-b145-0d8764f305ac"},"vehicle_type_id":"4","last_reported":1710522417,"current_range_meters":0,"station_id":"ce4bgn92rcd13ifvqbvg","pricing_plan_id":"cebpf4jnsgd1na2vs0mg"},{"bike_id":"8324b740-74d1-442f-a4f1-c770d625b28b","system_id":"levelo_inurba_marseille","lat":43.314811,"lon":5.373103,"is_reserved":false,"is_disabled":false,"rental_uris":{"android":"levelo://app?vid=8324b740-74d1-442f-a4f1-c770d625b28b","ios":"levelo://app?vid=8324b740-74d1-442f-a4f1-c770d625b28b"},"vehicle_type_id":"4","last_reported":1710522417,"current_range_meters":14000,"station_id":"ce4bgt12rcd13ifvqcd0","pricing_plan_id":"cebpf4jnsgd1na2vs0mg"},{"bike_id":"3f8b327f-125b-4612-b36b-ebfa1d9b6498","system_id":"levelo_inurba_marseille","lat":43.314811,"lon":5.373103,"is_reserved":false,"is_disabled":false,"rental_uris":{"android":"levelo://app?vid=3f8b327f-125b-4612-b36b-ebfa1d9b6498","ios":"levelo://app?vid=3f8b327f-125b-4612-b36b-ebfa1d9b6498"},"vehicle_type_id":"4","last_reported":1710522417,"current_range_meters":26400,"station_id":"ce4bgt12rcd13ifvqcd0","pricing_plan_id":"cebpf4jnsgd1na2vs0mg"},{"bike_id":"09074a23-bfcc-4249-b2f2-4dbff6affacc","system_id":"levelo_inurba_marseille","lat":43.314811,"lon":5.373103,"is_reserved":false,"is_disabled":false,"rental_uris":{"android":"levelo://app?vid=09074a23-bfcc-4249-b2f2-4dbff6affacc","ios":"levelo://app?vid=09074a23-bfcc-4249-b2f2-4dbff6affacc"},"vehicle_type_id":"4","last_reported":1710522417,"current_range_meters":15600,"station_id":"ce4bgt12rcd13ifvqcd0","pricing_plan_id":"cebpf4jnsgd1na2vs0mg"},{"bike_id":"c5f300c4-6ed2-4946-9166-b84f7ead717f","system_id":"levelo_inurba_marseille","lat":43.314811,"lon":5.373103,"is_reserved":false,"is_disabled":false,"rental_uris":{"android":"levelo://app?vid=c5f300c4-6ed2-4946-9166-b84f7ead717f","ios":"levelo://app?vid=c5f300c4-6ed2-4946-9166-b84f7ead717f"},"vehicle_type_id":"4","last_reported":1710522417,"current_range_meters":6000,"station_id":"ce4bgt12rcd13ifvqcd0","pricing_plan_id":"cebpf4jnsgd1na2vs0mg"},{"bike_id":"ab9dccbc-9204-4dd2-ac9b-7e3a17aea48f","system_id":"levelo_inurba_marseille","lat":43.314811,"lon":5.373104,"is_reserved":false,"is_disabled":false,"rental_uris":{"android":"levelo://app?vid=ab9dccbc-9204-4dd2-ac9b-7e3a17aea48f","ios":"levelo://app?vid=ab9dccbc-9204-4dd2-ac9b-7e3a17aea48f"},"vehicle_type_id":"4","last_reported":1710522417,"current_range_meters":20400,"station_id":"ce4bgt12rcd13ifvqcd0","pricing_plan_id":"cebpf4jnsgd1na2vs0mg"},{"bike_id":"6742315c-9bde-46b0-8f9c-325b5c5045f1","system_id":"levelo_inurba_marseille","lat":43.309039,"lon":5.371797,"is_reserved":false,"is_disabled":false,"rental_uris":{"android":"levelo://app?vid=6742315c-9bde-46b0-8f9c-325b5c5045f1","ios":"levelo://app?vid=6742315c-9bde-46b0-8f9c-325b5c5045f1"},"vehicle_type_id":"4","last_reported":1710522417,"current_range_meters":0,"station_id":"ce4bguh2rcd13ifvqckg","pricing_plan_id":"cebpf4jnsgd1na2vs0mg"},{"bike_id":"2e55147f-cb7b-42fc-b9f3-fb6b5b9c89c8","system_id":"levelo_inurba_marseille","lat":43.30537,"lon":5.367345,"is_reserved":false,"is_disabled":false,"rental_uris":{"android":"levelo://app?vid=2e55147f-cb7b-42fc-b9f3-fb6b5b9c89c8","ios":"levelo://app?vid=2e55147f-cb7b-42fc-b9f3-fb6b5b9c89c8"},"vehicle_type_id":"4","last_reported":1710522417,"current_range_meters":15200,"station_id":"ce4bgrp2rcd13ifvqc9g","pricing_plan_id":"cebpf4jnsgd1na2vs0mg"},{"bike_id":"a9e1acdc-0b81-4a4b-a9b7-8f5880298e17","system_id":"levelo_inurba_marseille","lat":43.305706,"lon":5.365654,"is_reserved":false,"is_disabled":false,"rental_uris":{"android":"levelo://app?vid=a9e1acdc-0b81-4a4b-a9b7-8f5880298e17","ios":"levelo://app?vid=a9e1acdc-0b81-4a4b-a9b7-8f5880298e17"},"vehicle_type_id":"4","last_reported":1710522417,"current_range_meters":0,"station_id":"ce4bgs12rcd13ifvqcag","pricing_plan_id":"cebpf4jnsgd1na2vs0mg"},{"bike_id":"c3bf1c0c-f24b-4f36-88b7-a25c64e4814f","system_id":"levelo_inurba_marseille","lat":43.305989,"lon":5.37225,"is_reserved":false,"is_disabled":false,"rental_uris":{"android":"levelo://app?vid=c3bf1c0c-f24b-4f36-88b7-a25c64e4814f","ios":"levelo://app?vid=c3bf1c0c-f24b-4f36-88b7-a25c64e4814f"},"vehicle_type_id":"4","last_reported":1710522417,"current_range_meters":27600,"station_id":"ce4bgqh2rcd13ifvqc4g","pricing_plan_id":"cebpf4jnsgd1na2vs0mg"},{"bike_id":"da337e63-71dd-483c-a0f1-f87d70c9de92","system_id":"levelo_inurba_marseille","lat":43.305989,"lon":5.37225,"is_reserved":false,"is_disabled":false,"rental_uris":{"android":"levelo://app?vid=da337e63-71dd-483c-a0f1-f87d70c9de92","ios":"levelo://app?vid=da337e63-71dd-483c-a0f1-f87d70c9de92"},"vehicle_type_id":"4","last_reported":1710522417,"current_range_meters":2800,"station_id":"ce4bgqh2rcd13ifvqc4g","pricing_plan_id":"cebpf4jnsgd1na2vs0mg"},{"bike_id":"4759ad86-1933-4753-a230-6a15838e4083","system_id":"levelo_inurba_marseille","lat":43.305989,"lon":5.37225,"is_reserved":false,"is_disabled":false,"rental_uris":{"android":"levelo://app?vid=4759ad86-1933-4753-a230-6a15838e4083","ios":"levelo://app?vid=4759ad86-1933-4753-a230-6a15838e4083"},"vehicle_type_id":"4","last_reported":1710522417,"current_range_meters":21200,"station_id":"ce4bgqh2rcd13ifvqc4g","pricing_plan_id":"cebpf4jnsgd1na2vs0mg"},{"bike_id":"643658ed-f094-43e7-b39e-e2b5e1e2d981","system_id":"levelo_inurba_marseille","lat":43.305989,"lon":5.37225,"is_reserved":false,"is_disabled":false,"rental_uris":{"android":"levelo://app?vid=643658ed-f094-43e7-b39e-e2b5e1e2d981","ios":"levelo://app?vid=643658ed-f094-43e7-b39e-e2b5e1e2d981"},"vehicle_type_id":"4","last_reported":1710522417,"current_range_meters":18000,"station_id":"ce4bgqh2rcd13ifvqc4g","pricing_plan_id":"cebpf4jnsgd1na2vs0mg"},{"bike_id":"110932ac-9bd3-4cfa-a030-76e92a58f607","system_id":"levelo_inurba_marseille","lat":43.305989,"lon":5.37225,"is_reserved":false,"is_disabled":false,"rental_uris":{"android":"levelo://app?vid=110932ac-9bd3-4cfa-a030-76e92a58f607","ios":"levelo://app?vid=110932ac-9bd3-4cfa-a030-76e92a58f607"},"vehicle_type_id":"4","last_reported":1710522417,"current_range_meters":8000,"station_id":"ce4bgqh2rcd13ifvqc4g","pricing_plan_id":"cebpf4jnsgd1na2vs0mg"},{"bike_id":"b702f240-3de1-4e3e-b9b5-1eb6cda4bbc1","system_id":"levelo_inurba_marseille","lat":43.311125,"lon":5.377624,"is_reserved":false,"is_disabled":false,"rental_uris":{"android":"levelo://app?vid=b702f240-3de1-4e3e-b9b5-1eb6cda4bbc1","ios":"levelo://app?vid=b702f240-3de1-4e3e-b9b5-1eb6cda4bbc1"},"vehicle_type_id":"4","last_reported":1710522417,"current_range_meters":25200,"station_id":"ce4bgt92rcd13ifvqcg0","pricing_plan_id":"cebpf4jnsgd1na2vs0mg"},{"bike_id":"5b6d465b-4c57-4f4e-9f08-748f8b7117fe","system_id":"levelo_inurba_marseille","lat":43.311131,"lon":5.377651,"is_reserved":false,"is_disabled":false,"rental_uris":{"android":"levelo://app?vid=5b6d465b-4c57-4f4e-9f08-748f8b7117fe","ios":"levelo://app?vid=5b6d465b-4c57-4f4e-9f08-748f8b7117fe"},"vehicle_type_id":"4","last_reported":1710522417,"current_range_meters":3600,"station_id":"ce4bgt92rcd13ifvqcg0","pricing_plan_id":"cebpf4jnsgd1na2vs0mg"},{"bike_id":"3f944ed4-a096-437b-a387-56df874863cb","system_id":"levelo_inurba_marseille","lat":43.311153,"lon":5.377683,"is_reserved":false,"is_disabled":false,"rental_uris":{"android":"levelo://app?vid=3f944ed4-a096-437b-a387-56df874863cb","ios":"levelo://app?vid=3f944ed4-a096-437b-a387-56df874863cb"},"vehicle_type_id":"4","last_reported":1710522417,"current_range_meters":0,"station_id":"ce4bgt92rcd13ifvqcg0","pricing_plan_id":"cebpf4jnsgd1na2vs0mg"},{"bike_id":"beeb2a66-0d2f-48c1-b397-c317b7a8857b","system_id":"levelo_inurba_marseille","lat":43.311131,"lon":5.377651,"is_reserved":false,"is_disabled":false,"rental_uris":{"android":"levelo://app?vid=beeb2a66-0d2f-48c1-b397-c317b7a8857b","ios":"levelo://app?vid=beeb2a66-0d2f-48c1-b397-c317b7a8857b"},"vehicle_type_id":"4","last_reported":1710522417,"current_range_meters":13200,"station_id":"ce4bgt92rcd13ifvqcg0","pricing_plan_id":"cebpf4jnsgd1na2vs0mg"},{"bike_id":"333a4806-0ef4-4e88-897d-e02d8e70c01e","system_id":"levelo_inurba_marseille","lat":43.311131,"lon":5.377651,"is_reserved":false,"is_disabled":false,"rental_uris":{"android":"levelo://app?vid=333a4806-0ef4-4e88-897d-e02d8e70c01e","ios":"levelo://app?vid=333a4806-0ef4-4e88-897d-e02d8e70c01e"},"vehicle_type_id":"4","last_reported":1710522417,"current_range_meters":0,"station_id":"ce4bgt92rcd13ifvqcg0","pricing_plan_id":"cebpf4jnsgd1na2vs0mg"},{"bike_id":"d2fc1d8b-85e5-4faa-8473-7466d783f4a7","system_id":"levelo_inurba_marseille","lat":43.311131,"lon":5.377651,"is_reserved":false,"is_disabled":false,"rental_uris":{"android":"levelo://app?vid=d2fc1d8b-85e5-4faa-8473-7466d783f4a7","ios":"levelo://app?vid=d2fc1d8b-85e5-4faa-8473-7466d783f4a7"},"vehicle_type_id":"4","last_reported":1710522417,"current_range_meters":1200,"station_id":"ce4bgt92rcd13ifvqcg0","pricing_plan_id":"cebpf4jnsgd1na2vs0mg"},{"bike_id":"a56c4b31-758d-41f8-b992-dd5bcfd7c72f","system_id":"levelo_inurba_marseille","lat":43.309039,"lon":5.371797,"is_reserved":false,"is_disabled":false,"rental_uris":{"android":"levelo://app?vid=a56c4b31-758d-41f8-b992-dd5bcfd7c72f","ios":"levelo://app?vid=a56c4b31-758d-41f8-b992-dd5bcfd7c72f"},"vehicle_type_id":"4","last_reported":1710522417,"current_range_meters":17200,"station_id":"ce4bguh2rcd13ifvqckg","pricing_plan_id":"cebpf4jnsgd1na2vs0mg"},{"bike_id":"69a44c50-3086-4eb6-8b5a-ab550d9bc269","system_id":"levelo_inurba_marseille","lat":43.30781,"lon":5.37643,"is_reserved":false,"is_disabled":false,"rental_uris":{"android":"levelo://app?vid=69a44c50-3086-4eb6-8b5a-ab550d9bc269","ios":"levelo://app?vid=69a44c50-3086-4eb6-8b5a-ab550d9bc269"},"vehicle_type_id":"4","last_reported":1710522417,"current_range_meters":3200,"station_id":"ce4bgv92rcd13ifvqcq0","pricing_plan_id":"cebpf4jnsgd1na2vs0mg"},{"bike_id":"598544ef-450f-4b1f-8a2f-55ac02e68072","system_id":"levelo_inurba_marseille","lat":43.31096,"lon":5.37836,"is_reserved":false,"is_disabled":false,"rental_uris":{"android":"levelo://app?vid=598544ef-450f-4b1f-8a2f-55ac02e68072","ios":"levelo://app?vid=598544ef-450f-4b1f-8a2f-55ac02e68072"},"vehicle_type_id":"4","last_reported":1710522417,"current_range_meters":5600,"station_id":"","pricing_plan_id":"cebpf4jnsgd1na2vs0mg"},{"bike_id":"dc5cd9bc-f7b1-4bbd-a652-8e7bbda1bc64","system_id":"levelo_inurba_marseille","lat":43.3042,"lon":5.36543,"is_reserved":false,"is_disabled":false,"rental_uris":{"android":"levelo://app?vid=dc5cd9bc-f7b1-4bbd-a652-8e7bbda1bc64","ios":"levelo://app?vid=dc5cd9bc-f7b1-4bbd-a652-8e7bbda1bc64"},"vehicle_type_id":"4","last_reported":1710522417,"current_range_meters":5600,"station_id":"","pricing_plan_id":"cebpf4jnsgd1na2vs0mg"},{"bike_id":"597b158c-921d-4ae1-bd7d-31921b358c37","system_id":"levelo_inurba_marseille","lat":43.307945,"lon":5.376487,"is_reserved":false,"is_disabled":false,"rental_uris":{"android":"levelo://app?vid=597b158c-921d-4ae1-bd7d-31921b358c37","ios":"levelo://app?vid=597b158c-921d-4ae1-bd7d-31921b358c37"},"vehicle_type_id":"4","last_reported":1710522417,"current_range_meters":28400,"station_id":"ce4bgv92rcd13ifvqcq0","pricing_plan_id":"cebpf4jnsgd1na2vs0mg"},{"bike_id":"f840e024-4e9b-4ec6-abbd-18927ad3925c","system_id":"levelo_inurba_marseille","lat":43.317075,"lon":5.377367,"is_reserved":false,"is_disabled":false,"rental_uris":{"android":"levelo://app?vid=f840e024-4e9b-4ec6-abbd-18927ad3925c","ios":"levelo://app?vid=f840e024-4e9b-4ec6-abbd-18927ad3925c"},"vehicle_type_id":"4","last_reported":1710522417,"current_range_meters":20000,"station_id":"ce4bgth2rcd13ifvqch0","pricing_plan_id":"cebpf4jnsgd1na2vs0mg"},{"bike_id":"d22b4ace-9cc4-415b-b951-0c86c9ce2254","system_id":"levelo_inurba_marseille","lat":43.317075,"lon":5.377367,"is_reserved":false,"is_disabled":false,"rental_uris":{"android":"levelo://app?vid=d22b4ace-9cc4-415b-b951-0c86c9ce2254","ios":"levelo://app?vid=d22b4ace-9cc4-415b-b951-0c86c9ce2254"},"vehicle_type_id":"4","last_reported":1710522417,"current_range_meters":15200,"station_id":"ce4bgth2rcd13ifvqch0","pricing_plan_id":"cebpf4jnsgd1na2vs0mg"},{"bike_id":"ad9d6420-e11a-418a-9fe7-549b9dc8249e","system_id":"levelo_inurba_marseille","lat":43.317075,"lon":5.377367,"is_reserved":false,"is_disabled":false,"rental_uris":{"android":"levelo://app?vid=ad9d6420-e11a-418a-9fe7-549b9dc8249e","ios":"levelo://app?vid=ad9d6420-e11a-418a-9fe7-549b9dc8249e"},"vehicle_type_id":"4","last_reported":1710522417,"current_range_meters":28000,"station_id":"ce4bgth2rcd13ifvqch0","pricing_plan_id":"cebpf4jnsgd1na2vs0mg"},{"bike_id":"df57a2b3-ccea-4035-bc31-19b05bc24447","system_id":"levelo_inurba_marseille","lat":43.317075,"lon":5.377367,"is_reserved":false,"is_disabled":false,"rental_uris":{"android":"levelo://app?vid=df57a2b3-ccea-4035-bc31-19b05bc24447","ios":"levelo://app?vid=df57a2b3-ccea-4035-bc31-19b05bc24447"},"vehicle_type_id":"4","last_reported":1710522417,"current_range_meters":27200,"station_id":"ce4bgth2rcd13ifvqch0","pricing_plan_id":"cebpf4jnsgd1na2vs0mg"},{"bike_id":"bcd3830f-3577-4d60-b97a-1b2c7fece7d4","system_id":"levelo_inurba_marseille","lat":43.317075,"lon":5.377367,"is_reserved":false,"is_disabled":false,"rental_uris":{"android":"levelo://app?vid=bcd3830f-3577-4d60-b97a-1b2c7fece7d4","ios":"levelo://app?vid=bcd3830f-3577-4d60-b97a-1b2c7fece7d4"},"vehicle_type_id":"4","last_reported":1710522417,"current_range_meters":18000,"station_id":"ce4bgth2rcd13ifvqch0","pricing_plan_id":"cebpf4jnsgd1na2vs0mg"},{"bike_id":"6df8a519-a704-46e9-b3eb-42b1fb917e85","system_id":"levelo_inurba_marseille","lat":43.31771,"lon":5.37788,"is_reserved":false,"is_disabled":false,"rental_uris":{"android":"levelo://app?vid=6df8a519-a704-46e9-b3eb-42b1fb917e85","ios":"levelo://app?vid=6df8a519-a704-46e9-b3eb-42b1fb917e85"},"vehicle_type_id":"4","last_reported":1710522417,"current_range_meters":14800,"station_id":"","pricing_plan_id":"cebpf4jnsgd1na2vs0mg"},{"bike_id":"b3a5d06b-31dd-496c-81f9-f63a0271409e","system_id":"levelo_inurba_marseille","lat":43.30304,"lon":5.368987,"is_reserved":false,"is_disabled":false,"rental_uris":{"android":"levelo://app?vid=b3a5d06b-31dd-496c-81f9-f63a0271409e","ios":"levelo://app?vid=b3a5d06b-31dd-496c-81f9-f63a0271409e"},"vehicle_type_id":"4","last_reported":1710522417,"current_range_meters":0,"station_id":"ce4bgqh2rcd13ifvqc5g","pricing_plan_id":"cebpf4jnsgd1na2vs0mg"},{"bike_id":"fbd06b06-8138-4f74-9bea-3c0105140df4","system_id":"levelo_inurba_marseille","lat":43.301939,"lon":5.366286,"is_reserved":false,"is_disabled":false,"rental_uris":{"android":"levelo://app?vid=fbd06b06-8138-4f74-9bea-3c0105140df4","ios":"levelo://app?vid=fbd06b06-8138-4f74-9bea-3c0105140df4"},"vehicle_type_id":"4","last_reported":1710522417,"current_range_meters":18800,"station_id":"ce4bgrh2rcd13ifvqc8g","pricing_plan_id":"cebpf4jnsgd1na2vs0mg"},{"bike_id":"516f2353-9594-4c2e-980b-5ee0bfaee235","system_id":"levelo_inurba_marseille","lat":43.310584,"lon":5.381349,"is_reserved":false,"is_disabled":false,"rental_uris":{"android":"levelo://app?vid=516f2353-9594-4c2e-980b-5ee0bfaee235","ios":"levelo://app?vid=516f2353-9594-4c2e-980b-5ee0bfaee235"},"vehicle_type_id":"4","last_reported":1710522417,"current_range_meters":0,"station_id":"","pricing_plan_id":"cebpf4jnsgd1na2vs0mg"},{"bike_id":"eebf210c-4073-4bdd-86af-c9287426f160","system_id":"levelo_inurba_marseille","lat":43.301939,"lon":5.366286,"is_reserved":false,"is_disabled":false,"rental_uris":{"android":"levelo://app?vid=eebf210c-4073-4bdd-86af-c9287426f160","ios":"levelo://app?vid=eebf210c-4073-4bdd-86af-c9287426f160"},"vehicle_type_id":"4","last_reported":1710522417,"current_range_meters":5200,"station_id":"ce4bgrh2rcd13ifvqc8g","pricing_plan_id":"cebpf4jnsgd1na2vs0mg"},{"bike_id":"1361db49-fb58-4d9a-88b5-9441b187daee","system_id":"levelo_inurba_marseille","lat":43.301939,"lon":5.366286,"is_reserved":false,"is_disabled":false,"rental_uris":{"android":"levelo://app?vid=1361db49-fb58-4d9a-88b5-9441b187daee","ios":"levelo://app?vid=1361db49-fb58-4d9a-88b5-9441b187daee"},"vehicle_type_id":"4","last_reported":1710522417,"current_range_meters":17600,"station_id":"ce4bgrh2rcd13ifvqc8g","pricing_plan_id":"cebpf4jnsgd1na2vs0mg"},{"bike_id":"5ae61674-fb66-40d7-bd00-13391ff72e11","system_id":"levelo_inurba_marseille","lat":43.301939,"lon":5.366286,"is_reserved":false,"is_disabled":false,"rental_uris":{"android":"levelo://app?vid=5ae61674-fb66-40d7-bd00-13391ff72e11","ios":"levelo://app?vid=5ae61674-fb66-40d7-bd00-13391ff72e11"},"vehicle_type_id":"4","last_reported":1710522417,"current_range_meters":16400,"station_id":"ce4bgrh2rcd13ifvqc8g","pricing_plan_id":"cebpf4jnsgd1na2vs0mg"},{"bike_id":"e507ef92-020c-424c-a363-288b20fcc709","system_id":"levelo_inurba_marseille","lat":43.301939,"lon":5.366286,"is_reserved":false,"is_disabled":false,"rental_uris":{"android":"levelo://app?vid=e507ef92-020c-424c-a363-288b20fcc709","ios":"levelo://app?vid=e507ef92-020c-424c-a363-288b20fcc709"},"vehicle_type_id":"4","last_reported":1710522417,"current_range_meters":28800,"station_id":"ce4bgrh2rcd13ifvqc8g","pricing_plan_id":"cebpf4jnsgd1na2vs0mg"},{"bike_id":"7b3232a0-9a84-425f-b86e-e3d484b52c3c","system_id":"levelo_inurba_marseille","lat":43.30807,"lon":5.381445,"is_reserved":false,"is_disabled":false,"rental_uris":{"android":"levelo://app?vid=7b3232a0-9a84-425f-b86e-e3d484b52c3c","ios":"levelo://app?vid=7b3232a0-9a84-425f-b86e-e3d484b52c3c"},"vehicle_type_id":"4","last_reported":1710522417,"current_range_meters":7200,"station_id":"ce4bgt12rcd13ifvqce0","pricing_plan_id":"cebpf4jnsgd1na2vs0mg"},{"bike_id":"64855e83-d295-4b1d-a5bb-06fe12350d85","system_id":"levelo_inurba_marseille","lat":43.308012,"lon":5.381511,"is_reserved":false,"is_disabled":false,"rental_uris":{"android":"levelo://app?vid=64855e83-d295-4b1d-a5bb-06fe12350d85","ios":"levelo://app?vid=64855e83-d295-4b1d-a5bb-06fe12350d85"},"vehicle_type_id":"4","last_reported":1710522417,"current_range_meters":22400,"station_id":"ce4bgt12rcd13ifvqce0","pricing_plan_id":"cebpf4jnsgd1na2vs0mg"},{"bike_id":"7c995d0b-7ac2-464f-be92-135bbf6c7a51","system_id":"levelo_inurba_marseille","lat":43.308012,"lon":5.381511,"is_reserved":false,"is_disabled":false,"rental_uris":{"android":"levelo://app?vid=7c995d0b-7ac2-464f-be92-135bbf6c7a51","ios":"levelo://app?vid=7c995d0b-7ac2-464f-be92-135bbf6c7a51"},"vehicle_type_id":"4","last_reported":1710522417,"current_range_meters":4800,"station_id":"ce4bgt12rcd13ifvqce0","pricing_plan_id":"cebpf4jnsgd1na2vs0mg"},{"bike_id":"687d7261-f7bc-474e-9558-138d06562266","system_id":"levelo_inurba_marseille","lat":43.304606,"lon":5.379026,"is_reserved":false,"is_disabled":false,"rental_uris":{"android":"levelo://app?vid=687d7261-f7bc-474e-9558-138d06562266","ios":"levelo://app?vid=687d7261-f7bc-474e-9558-138d06562266"},"vehicle_type_id":"4","last_reported":1710522417,"current_range_meters":0,"station_id":"ce4bgup2rcd13ifvqcn0","pricing_plan_id":"cebpf4jnsgd1na2vs0mg"},{"bike_id":"18fc47d4-f43a-4eed-abb4-9d13f9e04f59","system_id":"levelo_inurba_marseille","lat":43.324771,"lon":5.36557,"is_reserved":false,"is_disabled":false,"rental_uris":{"android":"levelo://app?vid=18fc47d4-f43a-4eed-abb4-9d13f9e04f59","ios":"levelo://app?vid=18fc47d4-f43a-4eed-abb4-9d13f9e04f59"},"vehicle_type_id":"4","last_reported":1710522417,"current_range_meters":21200,"station_id":"ce4bhs12rcd13ifvqhvg","pricing_plan_id":"cebpf4jnsgd1na2vs0mg"},{"bike_id":"c0cc4b46-b357-4a80-98cc-afe13efe41f1","system_id":"levelo_inurba_marseille","lat":43.324771,"lon":5.36557,"is_reserved":false,"is_disabled":false,"rental_uris":{"android":"levelo://app?vid=c0cc4b46-b357-4a80-98cc-afe13efe41f1","ios":"levelo://app?vid=c0cc4b46-b357-4a80-98cc-afe13efe41f1"},"vehicle_type_id":"4","last_reported":1710522417,"current_range_meters":5600,"station_id":"ce4bhs12rcd13ifvqhvg","pricing_plan_id":"cebpf4jnsgd1na2vs0mg"},{"bike_id":"12c419ff-5d5f-445b-9471-a4225b24c594","system_id":"levelo_inurba_marseille","lat":43.324771,"lon":5.36557,"is_reserved":false,"is_disabled":false,"rental_uris":{"android":"levelo://app?vid=12c419ff-5d5f-445b-9471-a4225b24c594","ios":"levelo://app?vid=12c419ff-5d5f-445b-9471-a4225b24c594"},"vehicle_type_id":"4","last_reported":1710522417,"current_range_meters":6400,"station_id":"ce4bhs12rcd13ifvqhvg","pricing_plan_id":"cebpf4jnsgd1na2vs0mg"},{"bike_id":"45c182d4-c42c-4114-9e74-abc1eba34bef","system_id":"levelo_inurba_marseille","lat":43.32481,"lon":5.36568,"is_reserved":false,"is_disabled":false,"rental_uris":{"android":"levelo://app?vid=45c182d4-c42c-4114-9e74-abc1eba34bef","ios":"levelo://app?vid=45c182d4-c42c-4114-9e74-abc1eba34bef"},"vehicle_type_id":"4","last_reported":1710522417,"current_range_meters":25200,"station_id":"ce4bhs12rcd13ifvqhvg","pricing_plan_id":"cebpf4jnsgd1na2vs0mg"},{"bike_id":"af0a83ad-4db4-465e-a460-b561e0502353","system_id":"levelo_inurba_marseille","lat":43.324771,"lon":5.36557,"is_reserved":false,"is_disabled":false,"rental_uris":{"android":"levelo://app?vid=af0a83ad-4db4-465e-a460-b561e0502353","ios":"levelo://app?vid=af0a83ad-4db4-465e-a460-b561e0502353"},"vehicle_type_id":"4","last_reported":1710522417,"current_range_meters":0,"station_id":"ce4bhs12rcd13ifvqhvg","pricing_plan_id":"cebpf4jnsgd1na2vs0mg"},{"bike_id":"3636e797-ae37-4ed8-ae31-11958c8b0dde","system_id":"levelo_inurba_marseille","lat":43.324771,"lon":5.36557,"is_reserved":false,"is_disabled":false,"rental_uris":{"android":"levelo://app?vid=3636e797-ae37-4ed8-ae31-11958c8b0dde","ios":"levelo://app?vid=3636e797-ae37-4ed8-ae31-11958c8b0dde"},"vehicle_type_id":"4","last_reported":1710522417,"current_range_meters":16000,"station_id":"ce4bhs12rcd13ifvqhvg","pricing_plan_id":"cebpf4jnsgd1na2vs0mg"},{"bike_id":"96ade1c6-b8f4-4248-a16c-9ca6451e8605","system_id":"levelo_inurba_marseille","lat":43.324771,"lon":5.36557,"is_reserved":false,"is_disabled":false,"rental_uris":{"android":"levelo://app?vid=96ade1c6-b8f4-4248-a16c-9ca6451e8605","ios":"levelo://app?vid=96ade1c6-b8f4-4248-a16c-9ca6451e8605"},"vehicle_type_id":"4","last_reported":1710522417,"current_range_meters":22400,"station_id":"ce4bhs12rcd13ifvqhvg","pricing_plan_id":"cebpf4jnsgd1na2vs0mg"},{"bike_id":"0beae27c-8e15-427f-98a8-4f6c1fff4039","system_id":"levelo_inurba_marseille","lat":43.324771,"lon":5.36557,"is_reserved":false,"is_disabled":false,"rental_uris":{"android":"levelo://app?vid=0beae27c-8e15-427f-98a8-4f6c1fff4039","ios":"levelo://app?vid=0beae27c-8e15-427f-98a8-4f6c1fff4039"},"vehicle_type_id":"4","last_reported":1710522417,"current_range_meters":8800,"station_id":"ce4bhs12rcd13ifvqhvg","pricing_plan_id":"cebpf4jnsgd1na2vs0mg"},{"bike_id":"673055f5-976e-4dca-a741-e78a33e2e21b","system_id":"levelo_inurba_marseille","lat":43.310679,"lon":5.383413,"is_reserved":false,"is_disabled":false,"rental_uris":{"android":"levelo://app?vid=673055f5-976e-4dca-a741-e78a33e2e21b","ios":"levelo://app?vid=673055f5-976e-4dca-a741-e78a33e2e21b"},"vehicle_type_id":"4","last_reported":1710522417,"current_range_meters":26800,"station_id":"ce4bgv92rcd13ifvqcr0","pricing_plan_id":"cebpf4jnsgd1na2vs0mg"},{"bike_id":"d937afa4-a740-4cda-9fb3-d53f85ca2579","system_id":"levelo_inurba_marseille","lat":43.310804,"lon":5.38359,"is_reserved":false,"is_disabled":false,"rental_uris":{"android":"levelo://app?vid=d937afa4-a740-4cda-9fb3-d53f85ca2579","ios":"levelo://app?vid=d937afa4-a740-4cda-9fb3-d53f85ca2579"},"vehicle_type_id":"4","last_reported":1710522417,"current_range_meters":26800,"station_id":"ce4bgv92rcd13ifvqcr0","pricing_plan_id":"cebpf4jnsgd1na2vs0mg"},{"bike_id":"29f1b8e8-50a8-4a3d-a48a-90f787cf8bc3","system_id":"levelo_inurba_marseille","lat":43.31078,"lon":5.38353,"is_reserved":false,"is_disabled":false,"rental_uris":{"android":"levelo://app?vid=29f1b8e8-50a8-4a3d-a48a-90f787cf8bc3","ios":"levelo://app?vid=29f1b8e8-50a8-4a3d-a48a-90f787cf8bc3"},"vehicle_type_id":"4","last_reported":1710522417,"current_range_meters":12000,"station_id":"ce4bgv92rcd13ifvqcr0","pricing_plan_id":"cebpf4jnsgd1na2vs0mg"},{"bike_id":"52a6b9b0-8a48-4b8b-9f9a-2452f7d779b3","system_id":"levelo_inurba_marseille","lat":43.310804,"lon":5.38359,"is_reserved":false,"is_disabled":false,"rental_uris":{"android":"levelo://app?vid=52a6b9b0-8a48-4b8b-9f9a-2452f7d779b3","ios":"levelo://app?vid=52a6b9b0-8a48-4b8b-9f9a-2452f7d779b3"},"vehicle_type_id":"4","last_reported":1710522417,"current_range_meters":9600,"station_id":"ce4bgv92rcd13ifvqcr0","pricing_plan_id":"cebpf4jnsgd1na2vs0mg"},{"bike_id":"44239288-2e06-4e5d-929e-d5d173a05854","system_id":"levelo_inurba_marseille","lat":43.310804,"lon":5.38359,"is_reserved":false,"is_disabled":false,"rental_uris":{"android":"levelo://app?vid=44239288-2e06-4e5d-929e-d5d173a05854","ios":"levelo://app?vid=44239288-2e06-4e5d-929e-d5d173a05854"},"vehicle_type_id":"4","last_reported":1710522417,"current_range_meters":9200,"station_id":"ce4bgv92rcd13ifvqcr0","pricing_plan_id":"cebpf4jnsgd1na2vs0mg"},{"bike_id":"867a41e0-8c8d-40cf-b43e-b7f4814d853d","system_id":"levelo_inurba_marseille","lat":43.310804,"lon":5.38359,"is_reserved":false,"is_disabled":false,"rental_uris":{"android":"levelo://app?vid=867a41e0-8c8d-40cf-b43e-b7f4814d853d","ios":"levelo://app?vid=867a41e0-8c8d-40cf-b43e-b7f4814d853d"},"vehicle_type_id":"4","last_reported":1710522417,"current_range_meters":19600,"station_id":"ce4bgv92rcd13ifvqcr0","pricing_plan_id":"cebpf4jnsgd1na2vs0mg"},{"bike_id":"7615204a-5323-42e8-b6d7-a3ed7e31db63","system_id":"levelo_inurba_marseille","lat":43.301429,"lon":5.37413,"is_reserved":false,"is_disabled":false,"rental_uris":{"android":"levelo://app?vid=7615204a-5323-42e8-b6d7-a3ed7e31db63","ios":"levelo://app?vid=7615204a-5323-42e8-b6d7-a3ed7e31db63"},"vehicle_type_id":"4","last_reported":1710522417,"current_range_meters":0,"station_id":"ce4bgs92rcd13ifvqcc0","pricing_plan_id":"cebpf4jnsgd1na2vs0mg"},{"bike_id":"a46f3b86-7dc1-46bc-b469-645f5d47ddad","system_id":"levelo_inurba_marseille","lat":43.319935,"lon":5.381699,"is_reserved":false,"is_disabled":false,"rental_uris":{"android":"levelo://app?vid=a46f3b86-7dc1-46bc-b469-645f5d47ddad","ios":"levelo://app?vid=a46f3b86-7dc1-46bc-b469-645f5d47ddad"},"vehicle_type_id":"4","last_reported":1710522417,"current_range_meters":20000,"station_id":"ce4bhr12rcd13ifvqhpg","pricing_plan_id":"cebpf4jnsgd1na2vs0mg"},{"bike_id":"047bfaaa-aa6b-49b2-8002-e870a4645c6c","system_id":"levelo_inurba_marseille","lat":43.319935,"lon":5.381699,"is_reserved":false,"is_disabled":false,"rental_uris":{"android":"levelo://app?vid=047bfaaa-aa6b-49b2-8002-e870a4645c6c","ios":"levelo://app?vid=047bfaaa-aa6b-49b2-8002-e870a4645c6c"},"vehicle_type_id":"4","last_reported":1710522417,"current_range_meters":18400,"station_id":"ce4bhr12rcd13ifvqhpg","pricing_plan_id":"cebpf4jnsgd1na2vs0mg"},{"bike_id":"2dec62fd-9cfc-45e2-864c-72b1b6a74bba","system_id":"levelo_inurba_marseille","lat":43.319935,"lon":5.381699,"is_reserved":false,"is_disabled":false,"rental_uris":{"android":"levelo://app?vid=2dec62fd-9cfc-45e2-864c-72b1b6a74bba","ios":"levelo://app?vid=2dec62fd-9cfc-45e2-864c-72b1b6a74bba"},"vehicle_type_id":"4","last_reported":1710522417,"current_range_meters":3200,"station_id":"ce4bhr12rcd13ifvqhpg","pricing_plan_id":"cebpf4jnsgd1na2vs0mg"},{"bike_id":"747ec0e5-a700-4ed0-859f-8b01d77434a9","system_id":"levelo_inurba_marseille","lat":43.319935,"lon":5.381699,"is_reserved":false,"is_disabled":false,"rental_uris":{"android":"levelo://app?vid=747ec0e5-a700-4ed0-859f-8b01d77434a9","ios":"levelo://app?vid=747ec0e5-a700-4ed0-859f-8b01d77434a9"},"vehicle_type_id":"4","last_reported":1710522417,"current_range_meters":400,"station_id":"ce4bhr12rcd13ifvqhpg","pricing_plan_id":"cebpf4jnsgd1na2vs0mg"},{"bike_id":"b2273e34-f3b1-45d8-a7c1-e0a5296f08a5","system_id":"levelo_inurba_marseille","lat":43.319935,"lon":5.381699,"is_reserved":false,"is_disabled":false,"rental_uris":{"android":"levelo://app?vid=b2273e34-f3b1-45d8-a7c1-e0a5296f08a5","ios":"levelo://app?vid=b2273e34-f3b1-45d8-a7c1-e0a5296f08a5"},"vehicle_type_id":"4","last_reported":1710522417,"current_range_meters":20800,"station_id":"ce4bhr12rcd13ifvqhpg","pricing_plan_id":"cebpf4jnsgd1na2vs0mg"},{"bike_id":"b20fe4b1-ce6c-4682-b0b8-29cd95ca20af","system_id":"levelo_inurba_marseille","lat":43.313571,"lon":5.384829,"is_reserved":false,"is_disabled":false,"rental_uris":{"android":"levelo://app?vid=b20fe4b1-ce6c-4682-b0b8-29cd95ca20af","ios":"levelo://app?vid=b20fe4b1-ce6c-4682-b0b8-29cd95ca20af"},"vehicle_type_id":"4","last_reported":1710522417,"current_range_meters":20400,"station_id":"ce4bgt92rcd13ifvqcf0","pricing_plan_id":"cebpf4jnsgd1na2vs0mg"},{"bike_id":"0d46bf37-4e46-4416-824b-85ef31f82451","system_id":"levelo_inurba_marseille","lat":43.313571,"lon":5.384829,"is_reserved":false,"is_disabled":false,"rental_uris":{"android":"levelo://app?vid=0d46bf37-4e46-4416-824b-85ef31f82451","ios":"levelo://app?vid=0d46bf37-4e46-4416-824b-85ef31f82451"},"vehicle_type_id":"4","last_reported":1710522417,"current_range_meters":16000,"station_id":"ce4bgt92rcd13ifvqcf0","pricing_plan_id":"cebpf4jnsgd1na2vs0mg"},{"bike_id":"988cdedd-5099-4d46-9b4d-c6b3a81aaf8f","system_id":"levelo_inurba_marseille","lat":43.313571,"lon":5.384829,"is_reserved":false,"is_disabled":false,"rental_uris":{"android":"levelo://app?vid=988cdedd-5099-4d46-9b4d-c6b3a81aaf8f","ios":"levelo://app?vid=988cdedd-5099-4d46-9b4d-c6b3a81aaf8f"},"vehicle_type_id":"4","last_reported":1710522417,"current_range_meters":16800,"station_id":"ce4bgt92rcd13ifvqcf0","pricing_plan_id":"cebpf4jnsgd1na2vs0mg"},{"bike_id":"3d077efa-0e73-42ed-b2b7-10a4b7c0af09","system_id":"levelo_inurba_marseille","lat":43.313571,"lon":5.384829,"is_reserved":false,"is_disabled":false,"rental_uris":{"android":"levelo://app?vid=3d077efa-0e73-42ed-b2b7-10a4b7c0af09","ios":"levelo://app?vid=3d077efa-0e73-42ed-b2b7-10a4b7c0af09"},"vehicle_type_id":"4","last_reported":1710522417,"current_range_meters":16400,"station_id":"ce4bgt92rcd13ifvqcf0","pricing_plan_id":"cebpf4jnsgd1na2vs0mg"},{"bike_id":"8c498aec-99d8-42dd-a137-9f05e2aa0f6c","system_id":"levelo_inurba_marseille","lat":43.299222,"lon":5.365554,"is_reserved":false,"is_disabled":false,"rental_uris":{"android":"levelo://app?vid=8c498aec-99d8-42dd-a137-9f05e2aa0f6c","ios":"levelo://app?vid=8c498aec-99d8-42dd-a137-9f05e2aa0f6c"},"vehicle_type_id":"4","last_reported":1710522417,"current_range_meters":0,"station_id":"ce4bgm92rcd13ifvqbr0","pricing_plan_id":"cebpf4jnsgd1na2vs0mg"},{"bike_id":"13bdb1c4-6296-4ba8-8146-3e18a9cc8632","system_id":"levelo_inurba_marseille","lat":43.299724,"lon":5.371829,"is_reserved":false,"is_disabled":false,"rental_uris":{"android":"levelo://app?vid=13bdb1c4-6296-4ba8-8146-3e18a9cc8632","ios":"levelo://app?vid=13bdb1c4-6296-4ba8-8146-3e18a9cc8632"},"vehicle_type_id":"4","last_reported":1710522417,"current_range_meters":4400,"station_id":"ce4bgr92rcd13ifvqc7g","pricing_plan_id":"cebpf4jnsgd1na2vs0mg"},{"bike_id":"579307ac-6686-4f97-901b-64108159bbea","system_id":"levelo_inurba_marseille","lat":43.29971,"lon":5.37171,"is_reserved":false,"is_disabled":false,"rental_uris":{"android":"levelo://app?vid=579307ac-6686-4f97-901b-64108159bbea","ios":"levelo://app?vid=579307ac-6686-4f97-901b-64108159bbea"},"vehicle_type_id":"4","last_reported":1710522417,"current_range_meters":4000,"station_id":"ce4bgr92rcd13ifvqc7g","pricing_plan_id":"cebpf4jnsgd1na2vs0mg"},{"bike_id":"c15efbe8-b478-47ce-a4bb-44914b2f94f9","system_id":"levelo_inurba_marseille","lat":43.299724,"lon":5.371829,"is_reserved":false,"is_disabled":false,"rental_uris":{"android":"levelo://app?vid=c15efbe8-b478-47ce-a4bb-44914b2f94f9","ios":"levelo://app?vid=c15efbe8-b478-47ce-a4bb-44914b2f94f9"},"vehicle_type_id":"4","last_reported":1710522417,"current_range_meters":26800,"station_id":"ce4bgr92rcd13ifvqc7g","pricing_plan_id":"cebpf4jnsgd1na2vs0mg"},{"bike_id":"d0482f22-9c42-499e-bfeb-1a42eb50586c","system_id":"levelo_inurba_marseille","lat":43.299724,"lon":5.371829,"is_reserved":false,"is_disabled":false,"rental_uris":{"android":"levelo://app?vid=d0482f22-9c42-499e-bfeb-1a42eb50586c","ios":"levelo://app?vid=d0482f22-9c42-499e-bfeb-1a42eb50586c"},"vehicle_type_id":"4","last_reported":1710522417,"current_range_meters":13200,"station_id":"ce4bgr92rcd13ifvqc7g","pricing_plan_id":"cebpf4jnsgd1na2vs0mg"},{"bike_id":"c4634281-8984-48cb-a213-d5151136066b","system_id":"levelo_inurba_marseille","lat":43.299724,"lon":5.371829,"is_reserved":false,"is_disabled":false,"rental_uris":{"android":"levelo://app?vid=c4634281-8984-48cb-a213-d5151136066b","ios":"levelo://app?vid=c4634281-8984-48cb-a213-d5151136066b"},"vehicle_type_id":"4","last_reported":1710522417,"current_range_meters":7200,"station_id":"ce4bgr92rcd13ifvqc7g","pricing_plan_id":"cebpf4jnsgd1na2vs0mg"},{"bike_id":"8f6a278f-a009-4eab-9ede-0adb390be582","system_id":"levelo_inurba_marseille","lat":43.305364,"lon":5.384119,"is_reserved":false,"is_disabled":false,"rental_uris":{"android":"levelo://app?vid=8f6a278f-a009-4eab-9ede-0adb390be582","ios":"levelo://app?vid=8f6a278f-a009-4eab-9ede-0adb390be582"},"vehicle_type_id":"4","last_reported":1710522417,"current_range_meters":19200,"station_id":"ce4bgg92rcd13ifvqb30","pricing_plan_id":"cebpf4jnsgd1na2vs0mg"},{"bike_id":"2c523280-603a-4835-8183-ac1ff3c2472d","system_id":"levelo_inurba_marseille","lat":43.30536,"lon":5.38428,"is_reserved":false,"is_disabled":false,"rental_uris":{"android":"levelo://app?vid=2c523280-603a-4835-8183-ac1ff3c2472d","ios":"levelo://app?vid=2c523280-603a-4835-8183-ac1ff3c2472d"},"vehicle_type_id":"4","last_reported":1710522417,"current_range_meters":28400,"station_id":"ce4bgg92rcd13ifvqb30","pricing_plan_id":"cebpf4jnsgd1na2vs0mg"},{"bike_id":"2a9ce2de-c5c8-4900-af3d-18fb12ec6b26","system_id":"levelo_inurba_marseille","lat":43.298433,"lon":5.362774,"is_reserved":false,"is_disabled":false,"rental_uris":{"android":"levelo://app?vid=2a9ce2de-c5c8-4900-af3d-18fb12ec6b26","ios":"levelo://app?vid=2a9ce2de-c5c8-4900-af3d-18fb12ec6b26"},"vehicle_type_id":"4","last_reported":1710522417,"current_range_meters":7600,"station_id":"ce4bgpp2rcd13ifvqc3g","pricing_plan_id":"cebpf4jnsgd1na2vs0mg"},{"bike_id":"f1e3d6e5-5861-40f6-93c2-8f1c9c496aa0","system_id":"levelo_inurba_marseille","lat":43.299243,"lon":5.374807,"is_reserved":false,"is_disabled":false,"rental_uris":{"android":"levelo://app?vid=f1e3d6e5-5861-40f6-93c2-8f1c9c496aa0","ios":"levelo://app?vid=f1e3d6e5-5861-40f6-93c2-8f1c9c496aa0"},"vehicle_type_id":"4","last_reported":1710522417,"current_range_meters":0,"station_id":"ce4bgjh2rcd13ifvqbg0","pricing_plan_id":"cebpf4jnsgd1na2vs0mg"},{"bike_id":"9bd90718-8d81-44b4-a9a0-0e11f73021d5","system_id":"levelo_inurba_marseille","lat":43.311722,"lon":5.387247,"is_reserved":false,"is_disabled":false,"rental_uris":{"android":"levelo://app?vid=9bd90718-8d81-44b4-a9a0-0e11f73021d5","ios":"levelo://app?vid=9bd90718-8d81-44b4-a9a0-0e11f73021d5"},"vehicle_type_id":"4","last_reported":1710522417,"current_range_meters":21600,"station_id":"ce4bgv12rcd13ifvqcp0","pricing_plan_id":"cebpf4jnsgd1na2vs0mg"},{"bike_id":"c7138234-dee1-496b-a4b5-ec50ce387339","system_id":"levelo_inurba_marseille","lat":43.322872,"lon":5.382756,"is_reserved":false,"is_disabled":false,"rental_uris":{"android":"levelo://app?vid=c7138234-dee1-496b-a4b5-ec50ce387339","ios":"levelo://app?vid=c7138234-dee1-496b-a4b5-ec50ce387339"},"vehicle_type_id":"4","last_reported":1710522417,"current_range_meters":20000,"station_id":"ce4bhr12rcd13ifvqhqg","pricing_plan_id":"cebpf4jnsgd1na2vs0mg"},{"bike_id":"1d47757d-a2e7-48ec-ad34-15cfc6207ef8","system_id":"levelo_inurba_marseille","lat":43.297794,"lon":5.370888,"is_reserved":false,"is_disabled":false,"rental_uris":{"android":"levelo://app?vid=1d47757d-a2e7-48ec-ad34-15cfc6207ef8","ios":"levelo://app?vid=1d47757d-a2e7-48ec-ad34-15cfc6207ef8"},"vehicle_type_id":"4","last_reported":1710522417,"current_range_meters":14800,"station_id":"ce4bgop2rcd13ifvqc1g","pricing_plan_id":"cebpf4jnsgd1na2vs0mg"},{"bike_id":"15d25b37-cb53-4814-81e5-1ad602caa1c3","system_id":"levelo_inurba_marseille","lat":43.297794,"lon":5.370888,"is_reserved":false,"is_disabled":false,"rental_uris":{"android":"levelo://app?vid=15d25b37-cb53-4814-81e5-1ad602caa1c3","ios":"levelo://app?vid=15d25b37-cb53-4814-81e5-1ad602caa1c3"},"vehicle_type_id":"4","last_reported":1710522417,"current_range_meters":23200,"station_id":"ce4bgop2rcd13ifvqc1g","pricing_plan_id":"cebpf4jnsgd1na2vs0mg"},{"bike_id":"95daebc6-28f1-4f66-b41d-f130d8605584","system_id":"levelo_inurba_marseille","lat":43.322872,"lon":5.382756,"is_reserved":false,"is_disabled":false,"rental_uris":{"android":"levelo://app?vid=95daebc6-28f1-4f66-b41d-f130d8605584","ios":"levelo://app?vid=95daebc6-28f1-4f66-b41d-f130d8605584"},"vehicle_type_id":"4","last_reported":1710522417,"current_range_meters":6400,"station_id":"ce4bhr12rcd13ifvqhqg","pricing_plan_id":"cebpf4jnsgd1na2vs0mg"},{"bike_id":"a1ea46c0-4921-4767-a801-a177044432f3","system_id":"levelo_inurba_marseille","lat":43.322872,"lon":5.382756,"is_reserved":false,"is_disabled":false,"rental_uris":{"android":"levelo://app?vid=a1ea46c0-4921-4767-a801-a177044432f3","ios":"levelo://app?vid=a1ea46c0-4921-4767-a801-a177044432f3"},"vehicle_type_id":"4","last_reported":1710522417,"current_range_meters":30400,"station_id":"ce4bhr12rcd13ifvqhqg","pricing_plan_id":"cebpf4jnsgd1na2vs0mg"},{"bike_id":"3ff125a5-dff1-4591-b6cc-449dc2424878","system_id":"levelo_inurba_marseille","lat":43.322872,"lon":5.382756,"is_reserved":false,"is_disabled":false,"rental_uris":{"android":"levelo://app?vid=3ff125a5-dff1-4591-b6cc-449dc2424878","ios":"levelo://app?vid=3ff125a5-dff1-4591-b6cc-449dc2424878"},"vehicle_type_id":"4","last_reported":1710522417,"current_range_meters":20800,"station_id":"ce4bhr12rcd13ifvqhqg","pricing_plan_id":"cebpf4jnsgd1na2vs0mg"},{"bike_id":"26a6f107-4553-428a-b878-f3d63b74f859","system_id":"levelo_inurba_marseille","lat":43.322872,"lon":5.382756,"is_reserved":false,"is_disabled":false,"rental_uris":{"android":"levelo://app?vid=26a6f107-4553-428a-b878-f3d63b74f859","ios":"levelo://app?vid=26a6f107-4553-428a-b878-f3d63b74f859"},"vehicle_type_id":"4","last_reported":1710522417,"current_range_meters":14400,"station_id":"ce4bhr12rcd13ifvqhqg","pricing_plan_id":"cebpf4jnsgd1na2vs0mg"},{"bike_id":"36727d06-0af4-4c64-88de-4193d3d2494b","system_id":"levelo_inurba_marseille","lat":43.322872,"lon":5.382756,"is_reserved":false,"is_disabled":false,"rental_uris":{"android":"levelo://app?vid=36727d06-0af4-4c64-88de-4193d3d2494b","ios":"levelo://app?vid=36727d06-0af4-4c64-88de-4193d3d2494b"},"vehicle_type_id":"4","last_reported":1710522417,"current_range_meters":18000,"station_id":"ce4bhr12rcd13ifvqhqg","pricing_plan_id":"cebpf4jnsgd1na2vs0mg"},{"bike_id":"41a964d5-3943-4f24-b8cf-62a929f835d5","system_id":"levelo_inurba_marseille","lat":43.322872,"lon":5.382756,"is_reserved":false,"is_disabled":false,"rental_uris":{"android":"levelo://app?vid=41a964d5-3943-4f24-b8cf-62a929f835d5","ios":"levelo://app?vid=41a964d5-3943-4f24-b8cf-62a929f835d5"},"vehicle_type_id":"4","last_reported":1710522417,"current_range_meters":23600,"station_id":"ce4bhr12rcd13ifvqhqg","pricing_plan_id":"cebpf4jnsgd1na2vs0mg"},{"bike_id":"a0646874-b928-4238-88ab-01778b2d284c","system_id":"levelo_inurba_marseille","lat":43.322872,"lon":5.382756,"is_reserved":false,"is_disabled":false,"rental_uris":{"android":"levelo://app?vid=a0646874-b928-4238-88ab-01778b2d284c","ios":"levelo://app?vid=a0646874-b928-4238-88ab-01778b2d284c"},"vehicle_type_id":"4","last_reported":1710522417,"current_range_meters":0,"station_id":"ce4bhr12rcd13ifvqhqg","pricing_plan_id":"cebpf4jnsgd1na2vs0mg"},{"bike_id":"274436b1-4043-49a8-a5bd-669faed3cf97","system_id":"levelo_inurba_marseille","lat":43.322872,"lon":5.382756,"is_reserved":false,"is_disabled":false,"rental_uris":{"android":"levelo://app?vid=274436b1-4043-49a8-a5bd-669faed3cf97","ios":"levelo://app?vid=274436b1-4043-49a8-a5bd-669faed3cf97"},"vehicle_type_id":"4","last_reported":1710522417,"current_range_meters":16400,"station_id":"ce4bhr12rcd13ifvqhqg","pricing_plan_id":"cebpf4jnsgd1na2vs0mg"},{"bike_id":"7d711117-8f24-4ca5-af35-2d207110a750","system_id":"levelo_inurba_marseille","lat":43.322872,"lon":5.382756,"is_reserved":false,"is_disabled":false,"rental_uris":{"android":"levelo://app?vid=7d711117-8f24-4ca5-af35-2d207110a750","ios":"levelo://app?vid=7d711117-8f24-4ca5-af35-2d207110a750"},"vehicle_type_id":"4","last_reported":1710522417,"current_range_meters":31200,"station_id":"ce4bhr12rcd13ifvqhqg","pricing_plan_id":"cebpf4jnsgd1na2vs0mg"},{"bike_id":"2d6887a7-62ae-4d89-8c19-2ea133424140","system_id":"levelo_inurba_marseille","lat":43.322872,"lon":5.382756,"is_reserved":false,"is_disabled":false,"rental_uris":{"android":"levelo://app?vid=2d6887a7-62ae-4d89-8c19-2ea133424140","ios":"levelo://app?vid=2d6887a7-62ae-4d89-8c19-2ea133424140"},"vehicle_type_id":"4","last_reported":1710522417,"current_range_meters":9200,"station_id":"ce4bhr12rcd13ifvqhqg","pricing_plan_id":"cebpf4jnsgd1na2vs0mg"},{"bike_id":"d9c7295e-158e-4641-9756-30eaf8e27ab3","system_id":"levelo_inurba_marseille","lat":43.322872,"lon":5.382756,"is_reserved":false,"is_disabled":false,"rental_uris":{"android":"levelo://app?vid=d9c7295e-158e-4641-9756-30eaf8e27ab3","ios":"levelo://app?vid=d9c7295e-158e-4641-9756-30eaf8e27ab3"},"vehicle_type_id":"4","last_reported":1710522417,"current_range_meters":4000,"station_id":"ce4bhr12rcd13ifvqhqg","pricing_plan_id":"cebpf4jnsgd1na2vs0mg"},{"bike_id":"9be1610f-c31d-4ce8-90f5-92648a7ce7bd","system_id":"levelo_inurba_marseille","lat":43.322872,"lon":5.382756,"is_reserved":false,"is_disabled":false,"rental_uris":{"android":"levelo://app?vid=9be1610f-c31d-4ce8-90f5-92648a7ce7bd","ios":"levelo://app?vid=9be1610f-c31d-4ce8-90f5-92648a7ce7bd"},"vehicle_type_id":"4","last_reported":1710522417,"current_range_meters":24800,"station_id":"ce4bhr12rcd13ifvqhqg","pricing_plan_id":"cebpf4jnsgd1na2vs0mg"},{"bike_id":"c4cb43a3-d96d-4884-aa90-9f1425f72b03","system_id":"levelo_inurba_marseille","lat":43.297163,"lon":5.365866,"is_reserved":false,"is_disabled":false,"rental_uris":{"android":"levelo://app?vid=c4cb43a3-d96d-4884-aa90-9f1425f72b03","ios":"levelo://app?vid=c4cb43a3-d96d-4884-aa90-9f1425f72b03"},"vehicle_type_id":"4","last_reported":1710522417,"current_range_meters":13600,"station_id":"ce4bgn12rcd13ifvqbt0","pricing_plan_id":"cebpf4jnsgd1na2vs0mg"},{"bike_id":"fec153d0-aee0-40ce-b23b-c1d1e1bd2f2c","system_id":"levelo_inurba_marseille","lat":43.297163,"lon":5.365866,"is_reserved":false,"is_disabled":false,"rental_uris":{"android":"levelo://app?vid=fec153d0-aee0-40ce-b23b-c1d1e1bd2f2c","ios":"levelo://app?vid=fec153d0-aee0-40ce-b23b-c1d1e1bd2f2c"},"vehicle_type_id":"4","last_reported":1710522417,"current_range_meters":10400,"station_id":"ce4bgn12rcd13ifvqbt0","pricing_plan_id":"cebpf4jnsgd1na2vs0mg"},{"bike_id":"dab45aec-5925-4fe5-b2b8-537d8c6860dc","system_id":"levelo_inurba_marseille","lat":43.297163,"lon":5.365866,"is_reserved":false,"is_disabled":false,"rental_uris":{"android":"levelo://app?vid=dab45aec-5925-4fe5-b2b8-537d8c6860dc","ios":"levelo://app?vid=dab45aec-5925-4fe5-b2b8-537d8c6860dc"},"vehicle_type_id":"4","last_reported":1710522417,"current_range_meters":16400,"station_id":"ce4bgn12rcd13ifvqbt0","pricing_plan_id":"cebpf4jnsgd1na2vs0mg"},{"bike_id":"7470e2ca-df31-432f-9b74-d354cb550a9e","system_id":"levelo_inurba_marseille","lat":43.29706,"lon":5.36611,"is_reserved":false,"is_disabled":false,"rental_uris":{"android":"levelo://app?vid=7470e2ca-df31-432f-9b74-d354cb550a9e","ios":"levelo://app?vid=7470e2ca-df31-432f-9b74-d354cb550a9e"},"vehicle_type_id":"4","last_reported":1710522417,"current_range_meters":12000,"station_id":"ce4bgn12rcd13ifvqbt0","pricing_plan_id":"cebpf4jnsgd1na2vs0mg"},{"bike_id":"f8527709-0478-4463-8709-86c81b29e673","system_id":"levelo_inurba_marseille","lat":43.29704,"lon":5.366153,"is_reserved":false,"is_disabled":false,"rental_uris":{"android":"levelo://app?vid=f8527709-0478-4463-8709-86c81b29e673","ios":"levelo://app?vid=f8527709-0478-4463-8709-86c81b29e673"},"vehicle_type_id":"4","last_reported":1710522417,"current_range_meters":0,"station_id":"ce4bgn12rcd13ifvqbt0","pricing_plan_id":"cebpf4jnsgd1na2vs0mg"},{"bike_id":"fd89678a-90a6-481c-9de7-837b9bb9aa3f","system_id":"levelo_inurba_marseille","lat":43.29703,"lon":5.3661,"is_reserved":false,"is_disabled":false,"rental_uris":{"android":"levelo://app?vid=fd89678a-90a6-481c-9de7-837b9bb9aa3f","ios":"levelo://app?vid=fd89678a-90a6-481c-9de7-837b9bb9aa3f"},"vehicle_type_id":"4","last_reported":1710522417,"current_range_meters":20000,"station_id":"ce4bgn12rcd13ifvqbt0","pricing_plan_id":"cebpf4jnsgd1na2vs0mg"},{"bike_id":"1f5a4025-71f4-49ea-bdb2-4a8b03bccd3b","system_id":"levelo_inurba_marseille","lat":43.297163,"lon":5.365866,"is_reserved":false,"is_disabled":false,"rental_uris":{"android":"levelo://app?vid=1f5a4025-71f4-49ea-bdb2-4a8b03bccd3b","ios":"levelo://app?vid=1f5a4025-71f4-49ea-bdb2-4a8b03bccd3b"},"vehicle_type_id":"4","last_reported":1710522417,"current_range_meters":27200,"station_id":"ce4bgn12rcd13ifvqbt0","pricing_plan_id":"cebpf4jnsgd1na2vs0mg"},{"bike_id":"0c3a71a7-2cf9-487e-813c-a15d0ca4d586","system_id":"levelo_inurba_marseille","lat":43.317321,"lon":5.389027,"is_reserved":false,"is_disabled":false,"rental_uris":{"android":"levelo://app?vid=0c3a71a7-2cf9-487e-813c-a15d0ca4d586","ios":"levelo://app?vid=0c3a71a7-2cf9-487e-813c-a15d0ca4d586"},"vehicle_type_id":"4","last_reported":1710522417,"current_range_meters":24800,"station_id":"","pricing_plan_id":"cebpf4jnsgd1na2vs0mg"},{"bike_id":"14c432aa-9cb1-4745-a310-114679ed9f3c","system_id":"levelo_inurba_marseille","lat":43.29573,"lon":5.367355,"is_reserved":false,"is_disabled":false,"rental_uris":{"android":"levelo://app?vid=14c432aa-9cb1-4745-a310-114679ed9f3c","ios":"levelo://app?vid=14c432aa-9cb1-4745-a310-114679ed9f3c"},"vehicle_type_id":"4","last_reported":1710522417,"current_range_meters":400,"station_id":"ce4bgph2rcd13ifvqc2g","pricing_plan_id":"cebpf4jnsgd1na2vs0mg"},{"bike_id":"dc1a1adb-7e41-4dd2-8111-afb65cea77fa","system_id":"levelo_inurba_marseille","lat":43.296921,"lon":5.376579,"is_reserved":false,"is_disabled":false,"rental_uris":{"android":"levelo://app?vid=dc1a1adb-7e41-4dd2-8111-afb65cea77fa","ios":"levelo://app?vid=dc1a1adb-7e41-4dd2-8111-afb65cea77fa"},"vehicle_type_id":"4","last_reported":1710522417,"current_range_meters":16400,"station_id":"ce4bgkh2rcd13ifvqbl0","pricing_plan_id":"cebpf4jnsgd1na2vs0mg"},{"bike_id":"f324784e-2b6b-4bbc-b793-4bd42dbec74f","system_id":"levelo_inurba_marseille","lat":43.299028,"lon":5.381509,"is_reserved":false,"is_disabled":false,"rental_uris":{"android":"levelo://app?vid=f324784e-2b6b-4bbc-b793-4bd42dbec74f","ios":"levelo://app?vid=f324784e-2b6b-4bbc-b793-4bd42dbec74f"},"vehicle_type_id":"4","last_reported":1710522417,"current_range_meters":22000,"station_id":"ce4bgj12rcd13ifvqbc0","pricing_plan_id":"cebpf4jnsgd1na2vs0mg"},{"bike_id":"64aa13fa-d82d-42df-a713-0a50506c3cb4","system_id":"levelo_inurba_marseille","lat":43.29905,"lon":5.3814,"is_reserved":false,"is_disabled":false,"rental_uris":{"android":"levelo://app?vid=64aa13fa-d82d-42df-a713-0a50506c3cb4","ios":"levelo://app?vid=64aa13fa-d82d-42df-a713-0a50506c3cb4"},"vehicle_type_id":"4","last_reported":1710522417,"current_range_meters":0,"station_id":"ce4bgj12rcd13ifvqbc0","pricing_plan_id":"cebpf4jnsgd1na2vs0mg"},{"bike_id":"3238f658-727e-4b5e-868f-35327509ce72","system_id":"levelo_inurba_marseille","lat":43.299028,"lon":5.381509,"is_reserved":false,"is_disabled":false,"rental_uris":{"android":"levelo://app?vid=3238f658-727e-4b5e-868f-35327509ce72","ios":"levelo://app?vid=3238f658-727e-4b5e-868f-35327509ce72"},"vehicle_type_id":"4","last_reported":1710522417,"current_range_meters":4000,"station_id":"ce4bgj12rcd13ifvqbc0","pricing_plan_id":"cebpf4jnsgd1na2vs0mg"},{"bike_id":"c7600f65-f9b7-411b-b6f3-c1be00cb7563","system_id":"levelo_inurba_marseille","lat":43.299028,"lon":5.381509,"is_reserved":false,"is_disabled":false,"rental_uris":{"android":"levelo://app?vid=c7600f65-f9b7-411b-b6f3-c1be00cb7563","ios":"levelo://app?vid=c7600f65-f9b7-411b-b6f3-c1be00cb7563"},"vehicle_type_id":"4","last_reported":1710522417,"current_range_meters":1200,"station_id":"ce4bgj12rcd13ifvqbc0","pricing_plan_id":"cebpf4jnsgd1na2vs0mg"},{"bike_id":"e63b47d7-c1c2-437c-affd-09b11e300ecb","system_id":"levelo_inurba_marseille","lat":43.309589,"lon":5.390258,"is_reserved":false,"is_disabled":false,"rental_uris":{"android":"levelo://app?vid=e63b47d7-c1c2-437c-affd-09b11e300ecb","ios":"levelo://app?vid=e63b47d7-c1c2-437c-affd-09b11e300ecb"},"vehicle_type_id":"4","last_reported":1710522417,"current_range_meters":11600,"station_id":"ce4bgup2rcd13ifvqco0","pricing_plan_id":"cebpf4jnsgd1na2vs0mg"},{"bike_id":"efdb4eb3-9dbd-471f-b852-1349ee65e6bf","system_id":"levelo_inurba_marseille","lat":43.31743,"lon":5.39001,"is_reserved":false,"is_disabled":false,"rental_uris":{"android":"levelo://app?vid=efdb4eb3-9dbd-471f-b852-1349ee65e6bf","ios":"levelo://app?vid=efdb4eb3-9dbd-471f-b852-1349ee65e6bf"},"vehicle_type_id":"4","last_reported":1710522417,"current_range_meters":2800,"station_id":"ce4bhqp2rcd13ifvqhng","pricing_plan_id":"cebpf4jnsgd1na2vs0mg"},{"bike_id":"838eb093-caf1-4953-b0a4-1eb2b66a6e8a","system_id":"levelo_inurba_marseille","lat":43.296139,"lon":5.374263,"is_reserved":false,"is_disabled":false,"rental_uris":{"android":"levelo://app?vid=838eb093-caf1-4953-b0a4-1eb2b66a6e8a","ios":"levelo://app?vid=838eb093-caf1-4953-b0a4-1eb2b66a6e8a"},"vehicle_type_id":"4","last_reported":1710522417,"current_range_meters":19200,"station_id":"","pricing_plan_id":"cebpf4jnsgd1na2vs0mg"},{"bike_id":"9cc0de22-c994-4630-a056-91ad50f77187","system_id":"levelo_inurba_marseille","lat":43.317557,"lon":5.390173,"is_reserved":false,"is_disabled":false,"rental_uris":{"android":"levelo://app?vid=9cc0de22-c994-4630-a056-91ad50f77187","ios":"levelo://app?vid=9cc0de22-c994-4630-a056-91ad50f77187"},"vehicle_type_id":"4","last_reported":1710522417,"current_range_meters":15600,"station_id":"ce4bhqp2rcd13ifvqhng","pricing_plan_id":"cebpf4jnsgd1na2vs0mg"},{"bike_id":"41e3df2a-b958-4acb-84c5-f5691f8c9dbb","system_id":"levelo_inurba_marseille","lat":43.31747,"lon":5.39015,"is_reserved":false,"is_disabled":false,"rental_uris":{"android":"levelo://app?vid=41e3df2a-b958-4acb-84c5-f5691f8c9dbb","ios":"levelo://app?vid=41e3df2a-b958-4acb-84c5-f5691f8c9dbb"},"vehicle_type_id":"4","last_reported":1710522417,"current_range_meters":0,"station_id":"ce4bhqp2rcd13ifvqhng","pricing_plan_id":"cebpf4jnsgd1na2vs0mg"},{"bike_id":"9abd7ab2-11a1-4b0c-86cd-498b22fe8f60","system_id":"levelo_inurba_marseille","lat":43.31754,"lon":5.39017,"is_reserved":false,"is_disabled":false,"rental_uris":{"android":"levelo://app?vid=9abd7ab2-11a1-4b0c-86cd-498b22fe8f60","ios":"levelo://app?vid=9abd7ab2-11a1-4b0c-86cd-498b22fe8f60"},"vehicle_type_id":"4","last_reported":1710522417,"current_range_meters":16400,"station_id":"ce4bhqp2rcd13ifvqhng","pricing_plan_id":"cebpf4jnsgd1na2vs0mg"},{"bike_id":"fd1852e9-d567-48c8-94d0-c242d922a974","system_id":"levelo_inurba_marseille","lat":43.317557,"lon":5.390173,"is_reserved":false,"is_disabled":false,"rental_uris":{"android":"levelo://app?vid=fd1852e9-d567-48c8-94d0-c242d922a974","ios":"levelo://app?vid=fd1852e9-d567-48c8-94d0-c242d922a974"},"vehicle_type_id":"4","last_reported":1710522417,"current_range_meters":4400,"station_id":"ce4bhqp2rcd13ifvqhng","pricing_plan_id":"cebpf4jnsgd1na2vs0mg"},{"bike_id":"934dcfbb-851e-4f5b-8f06-0e4a0da081b2","system_id":"levelo_inurba_marseille","lat":43.29769,"lon":5.37948,"is_reserved":false,"is_disabled":false,"rental_uris":{"android":"levelo://app?vid=934dcfbb-851e-4f5b-8f06-0e4a0da081b2","ios":"levelo://app?vid=934dcfbb-851e-4f5b-8f06-0e4a0da081b2"},"vehicle_type_id":"4","last_reported":1710522417,"current_range_meters":2000,"station_id":"","pricing_plan_id":"cebpf4jnsgd1na2vs0mg"},{"bike_id":"d2906694-80e2-44d0-85fa-8756332fa591","system_id":"levelo_inurba_marseille","lat":43.31756,"lon":5.39027,"is_reserved":false,"is_disabled":false,"rental_uris":{"android":"levelo://app?vid=d2906694-80e2-44d0-85fa-8756332fa591","ios":"levelo://app?vid=d2906694-80e2-44d0-85fa-8756332fa591"},"vehicle_type_id":"4","last_reported":1710522417,"current_range_meters":24400,"station_id":"ce4bhqp2rcd13ifvqhng","pricing_plan_id":"cebpf4jnsgd1na2vs0mg"},{"bike_id":"bd07b993-cc1f-4b43-bf8f-de82968e96b3","system_id":"levelo_inurba_marseille","lat":43.29807,"lon":5.38102,"is_reserved":false,"is_disabled":false,"rental_uris":{"android":"levelo://app?vid=bd07b993-cc1f-4b43-bf8f-de82968e96b3","ios":"levelo://app?vid=bd07b993-cc1f-4b43-bf8f-de82968e96b3"},"vehicle_type_id":"4","last_reported":1710522417,"current_range_meters":0,"station_id":"ce4bgip2rcd13ifvqbb0","pricing_plan_id":"cebpf4jnsgd1na2vs0mg"},{"bike_id":"8bb725d4-f907-400a-94f4-bcf6d0280a77","system_id":"levelo_inurba_marseille","lat":43.298037,"lon":5.381066,"is_reserved":false,"is_disabled":false,"rental_uris":{"android":"levelo://app?vid=8bb725d4-f907-400a-94f4-bcf6d0280a77","ios":"levelo://app?vid=8bb725d4-f907-400a-94f4-bcf6d0280a77"},"vehicle_type_id":"4","last_reported":1710522417,"current_range_meters":2800,"station_id":"ce4bgip2rcd13ifvqbb0","pricing_plan_id":"cebpf4jnsgd1na2vs0mg"},{"bike_id":"b9ab2364-b361-42db-bf9f-b4b76a6880b4","system_id":"levelo_inurba_marseille","lat":43.298037,"lon":5.381066,"is_reserved":false,"is_disabled":false,"rental_uris":{"android":"levelo://app?vid=b9ab2364-b361-42db-bf9f-b4b76a6880b4","ios":"levelo://app?vid=b9ab2364-b361-42db-bf9f-b4b76a6880b4"},"vehicle_type_id":"4","last_reported":1710522417,"current_range_meters":0,"station_id":"ce4bgip2rcd13ifvqbb0","pricing_plan_id":"cebpf4jnsgd1na2vs0mg"},{"bike_id":"824915e5-0316-4f14-9f42-73bf48be68c1","system_id":"levelo_inurba_marseille","lat":43.304274,"lon":5.388873,"is_reserved":false,"is_disabled":false,"rental_uris":{"android":"levelo://app?vid=824915e5-0316-4f14-9f42-73bf48be68c1","ios":"levelo://app?vid=824915e5-0316-4f14-9f42-73bf48be68c1"},"vehicle_type_id":"4","last_reported":1710522417,"current_range_meters":17600,"station_id":"ce4bgk12rcd13ifvqbi0","pricing_plan_id":"cebpf4jnsgd1na2vs0mg"},{"bike_id":"cdfe190f-33cd-407d-9740-4e546a97e129","system_id":"levelo_inurba_marseille","lat":43.304278,"lon":5.388868,"is_reserved":false,"is_disabled":false,"rental_uris":{"android":"levelo://app?vid=cdfe190f-33cd-407d-9740-4e546a97e129","ios":"levelo://app?vid=cdfe190f-33cd-407d-9740-4e546a97e129"},"vehicle_type_id":"4","last_reported":1710522417,"current_range_meters":22800,"station_id":"ce4bgk12rcd13ifvqbi0","pricing_plan_id":"cebpf4jnsgd1na2vs0mg"},{"bike_id":"2683bae0-df9c-419a-b37d-5159725e0450","system_id":"levelo_inurba_marseille","lat":43.30433,"lon":5.38887,"is_reserved":false,"is_disabled":false,"rental_uris":{"android":"levelo://app?vid=2683bae0-df9c-419a-b37d-5159725e0450","ios":"levelo://app?vid=2683bae0-df9c-419a-b37d-5159725e0450"},"vehicle_type_id":"4","last_reported":1710522417,"current_range_meters":5600,"station_id":"ce4bgk12rcd13ifvqbi0","pricing_plan_id":"cebpf4jnsgd1na2vs0mg"},{"bike_id":"d221ce96-9cf3-4687-bca7-69405056eded","system_id":"levelo_inurba_marseille","lat":43.298023,"lon":5.381283,"is_reserved":false,"is_disabled":false,"rental_uris":{"android":"levelo://app?vid=d221ce96-9cf3-4687-bca7-69405056eded","ios":"levelo://app?vid=d221ce96-9cf3-4687-bca7-69405056eded"},"vehicle_type_id":"4","last_reported":1710522417,"current_range_meters":31200,"station_id":"ce4bgip2rcd13ifvqbb0","pricing_plan_id":"cebpf4jnsgd1na2vs0mg"},{"bike_id":"c0e87b3a-f152-4c05-9fe9-893336ae9d1e","system_id":"levelo_inurba_marseille","lat":43.304274,"lon":5.388873,"is_reserved":false,"is_disabled":false,"rental_uris":{"android":"levelo://app?vid=c0e87b3a-f152-4c05-9fe9-893336ae9d1e","ios":"levelo://app?vid=c0e87b3a-f152-4c05-9fe9-893336ae9d1e"},"vehicle_type_id":"4","last_reported":1710522417,"current_range_meters":12000,"station_id":"ce4bgk12rcd13ifvqbi0","pricing_plan_id":"cebpf4jnsgd1na2vs0mg"},{"bike_id":"c5ae090e-abf7-4337-9d2d-031d85a64e3e","system_id":"levelo_inurba_marseille","lat":43.304274,"lon":5.388873,"is_reserved":false,"is_disabled":false,"rental_uris":{"android":"levelo://app?vid=c5ae090e-abf7-4337-9d2d-031d85a64e3e","ios":"levelo://app?vid=c5ae090e-abf7-4337-9d2d-031d85a64e3e"},"vehicle_type_id":"4","last_reported":1710522417,"current_range_meters":2400,"station_id":"ce4bgk12rcd13ifvqbi0","pricing_plan_id":"cebpf4jnsgd1na2vs0mg"},{"bike_id":"c1428d0c-53d1-4290-ad5d-71a6749eca11","system_id":"levelo_inurba_marseille","lat":43.296277,"lon":5.377108,"is_reserved":false,"is_disabled":false,"rental_uris":{"android":"levelo://app?vid=c1428d0c-53d1-4290-ad5d-71a6749eca11","ios":"levelo://app?vid=c1428d0c-53d1-4290-ad5d-71a6749eca11"},"vehicle_type_id":"4","last_reported":1710522417,"current_range_meters":0,"station_id":"ce4bgi92rcd13ifvqb90","pricing_plan_id":"cebpf4jnsgd1na2vs0mg"},{"bike_id":"25d1f653-8204-4ce8-be11-b115a0aaa6fb","system_id":"levelo_inurba_marseille","lat":43.304278,"lon":5.388868,"is_reserved":false,"is_disabled":false,"rental_uris":{"android":"levelo://app?vid=25d1f653-8204-4ce8-be11-b115a0aaa6fb","ios":"levelo://app?vid=25d1f653-8204-4ce8-be11-b115a0aaa6fb"},"vehicle_type_id":"4","last_reported":1710522417,"current_range_meters":4400,"station_id":"ce4bgk12rcd13ifvqbi0","pricing_plan_id":"cebpf4jnsgd1na2vs0mg"},{"bike_id":"9fd1a6f8-b626-45ff-81bc-636b6b9de27e","system_id":"levelo_inurba_marseille","lat":43.298037,"lon":5.381066,"is_reserved":false,"is_disabled":false,"rental_uris":{"android":"levelo://app?vid=9fd1a6f8-b626-45ff-81bc-636b6b9de27e","ios":"levelo://app?vid=9fd1a6f8-b626-45ff-81bc-636b6b9de27e"},"vehicle_type_id":"4","last_reported":1710522417,"current_range_meters":22000,"station_id":"ce4bgip2rcd13ifvqbb0","pricing_plan_id":"cebpf4jnsgd1na2vs0mg"},{"bike_id":"dbd16492-0778-4404-bc84-eafa59b12f42","system_id":"levelo_inurba_marseille","lat":43.295748,"lon":5.37522,"is_reserved":false,"is_disabled":false,"rental_uris":{"android":"levelo://app?vid=dbd16492-0778-4404-bc84-eafa59b12f42","ios":"levelo://app?vid=dbd16492-0778-4404-bc84-eafa59b12f42"},"vehicle_type_id":"4","last_reported":1710522417,"current_range_meters":0,"station_id":"ce4bgh92rcd13ifvqb50","pricing_plan_id":"cebpf4jnsgd1na2vs0mg"},{"bike_id":"5b5ec5fa-8ed5-40fe-971a-6f5cae28ef11","system_id":"levelo_inurba_marseille","lat":43.299707,"lon":5.384859,"is_reserved":false,"is_disabled":false,"rental_uris":{"android":"levelo://app?vid=5b5ec5fa-8ed5-40fe-971a-6f5cae28ef11","ios":"levelo://app?vid=5b5ec5fa-8ed5-40fe-971a-6f5cae28ef11"},"vehicle_type_id":"4","last_reported":1710522417,"current_range_meters":25600,"station_id":"ce4bgj92rcd13ifvqbd0","pricing_plan_id":"cebpf4jnsgd1na2vs0mg"},{"bike_id":"ef489f22-381d-4340-92de-00a798028396","system_id":"levelo_inurba_marseille","lat":43.295279,"lon":5.375048,"is_reserved":false,"is_disabled":false,"rental_uris":{"android":"levelo://app?vid=ef489f22-381d-4340-92de-00a798028396","ios":"levelo://app?vid=ef489f22-381d-4340-92de-00a798028396"},"vehicle_type_id":"4","last_reported":1710522417,"current_range_meters":24400,"station_id":"ce4bgkp2rcd13ifvqbmg","pricing_plan_id":"cebpf4jnsgd1na2vs0mg"},{"bike_id":"a7da1ccd-199f-4b57-9d20-1fe449cb2485","system_id":"levelo_inurba_marseille","lat":43.299717,"lon":5.384845,"is_reserved":false,"is_disabled":false,"rental_uris":{"android":"levelo://app?vid=a7da1ccd-199f-4b57-9d20-1fe449cb2485","ios":"levelo://app?vid=a7da1ccd-199f-4b57-9d20-1fe449cb2485"},"vehicle_type_id":"4","last_reported":1710522417,"current_range_meters":12800,"station_id":"ce4bgj92rcd13ifvqbd0","pricing_plan_id":"cebpf4jnsgd1na2vs0mg"},{"bike_id":"3bcb1feb-0e55-481b-a2cb-197ca2dc2d06","system_id":"levelo_inurba_marseille","lat":43.29969,"lon":5.38495,"is_reserved":false,"is_disabled":false,"rental_uris":{"android":"levelo://app?vid=3bcb1feb-0e55-481b-a2cb-197ca2dc2d06","ios":"levelo://app?vid=3bcb1feb-0e55-481b-a2cb-197ca2dc2d06"},"vehicle_type_id":"4","last_reported":1710522417,"current_range_meters":400,"station_id":"ce4bgj92rcd13ifvqbd0","pricing_plan_id":"cebpf4jnsgd1na2vs0mg"},{"bike_id":"84481392-daf1-44f2-b722-f9137cf82dfc","system_id":"levelo_inurba_marseille","lat":43.299717,"lon":5.384845,"is_reserved":false,"is_disabled":false,"rental_uris":{"android":"levelo://app?vid=84481392-daf1-44f2-b722-f9137cf82dfc","ios":"levelo://app?vid=84481392-daf1-44f2-b722-f9137cf82dfc"},"vehicle_type_id":"4","last_reported":1710522417,"current_range_meters":400,"station_id":"ce4bgj92rcd13ifvqbd0","pricing_plan_id":"cebpf4jnsgd1na2vs0mg"},{"bike_id":"90f8e029-97de-43cc-8c81-e1d7262444cf","system_id":"levelo_inurba_marseille","lat":43.299717,"lon":5.384845,"is_reserved":false,"is_disabled":false,"rental_uris":{"android":"levelo://app?vid=90f8e029-97de-43cc-8c81-e1d7262444cf","ios":"levelo://app?vid=90f8e029-97de-43cc-8c81-e1d7262444cf"},"vehicle_type_id":"4","last_reported":1710522417,"current_range_meters":12800,"station_id":"ce4bgj92rcd13ifvqbd0","pricing_plan_id":"cebpf4jnsgd1na2vs0mg"},{"bike_id":"a259a7a6-2359-46b9-aca5-2124d58cc52a","system_id":"levelo_inurba_marseille","lat":43.299724,"lon":5.384848,"is_reserved":false,"is_disabled":false,"rental_uris":{"android":"levelo://app?vid=a259a7a6-2359-46b9-aca5-2124d58cc52a","ios":"levelo://app?vid=a259a7a6-2359-46b9-aca5-2124d58cc52a"},"vehicle_type_id":"4","last_reported":1710522417,"current_range_meters":800,"station_id":"ce4bgj92rcd13ifvqbd0","pricing_plan_id":"cebpf4jnsgd1na2vs0mg"},{"bike_id":"c1e71150-0e0a-4eca-ad7f-51c72471a1a4","system_id":"levelo_inurba_marseille","lat":43.299717,"lon":5.384845,"is_reserved":false,"is_disabled":false,"rental_uris":{"android":"levelo://app?vid=c1e71150-0e0a-4eca-ad7f-51c72471a1a4","ios":"levelo://app?vid=c1e71150-0e0a-4eca-ad7f-51c72471a1a4"},"vehicle_type_id":"4","last_reported":1710522417,"current_range_meters":0,"station_id":"ce4bgj92rcd13ifvqbd0","pricing_plan_id":"cebpf4jnsgd1na2vs0mg"},{"bike_id":"0b792ebc-fe78-4b10-b87c-4088a347f958","system_id":"levelo_inurba_marseille","lat":43.32367,"lon":5.388836,"is_reserved":false,"is_disabled":false,"rental_uris":{"android":"levelo://app?vid=0b792ebc-fe78-4b10-b87c-4088a347f958","ios":"levelo://app?vid=0b792ebc-fe78-4b10-b87c-4088a347f958"},"vehicle_type_id":"4","last_reported":1710522417,"current_range_meters":24800,"station_id":"ce4bhqp2rcd13ifvqhog","pricing_plan_id":"cebpf4jnsgd1na2vs0mg"},{"bike_id":"601549c9-17b6-4663-bb1f-1fc3c0514675","system_id":"levelo_inurba_marseille","lat":43.32362,"lon":5.388801,"is_reserved":false,"is_disabled":false,"rental_uris":{"android":"levelo://app?vid=601549c9-17b6-4663-bb1f-1fc3c0514675","ios":"levelo://app?vid=601549c9-17b6-4663-bb1f-1fc3c0514675"},"vehicle_type_id":"4","last_reported":1710522417,"current_range_meters":16000,"station_id":"ce4bhqp2rcd13ifvqhog","pricing_plan_id":"cebpf4jnsgd1na2vs0mg"},{"bike_id":"40e2eb8a-4357-46b9-90f8-84a1e303713d","system_id":"levelo_inurba_marseille","lat":43.32364,"lon":5.38879,"is_reserved":false,"is_disabled":false,"rental_uris":{"android":"levelo://app?vid=40e2eb8a-4357-46b9-90f8-84a1e303713d","ios":"levelo://app?vid=40e2eb8a-4357-46b9-90f8-84a1e303713d"},"vehicle_type_id":"4","last_reported":1710522417,"current_range_meters":6800,"station_id":"ce4bhqp2rcd13ifvqhog","pricing_plan_id":"cebpf4jnsgd1na2vs0mg"},{"bike_id":"eaf421f3-46ac-4e30-949b-910710944134","system_id":"levelo_inurba_marseille","lat":43.3236,"lon":5.38883,"is_reserved":false,"is_disabled":false,"rental_uris":{"android":"levelo://app?vid=eaf421f3-46ac-4e30-949b-910710944134","ios":"levelo://app?vid=eaf421f3-46ac-4e30-949b-910710944134"},"vehicle_type_id":"4","last_reported":1710522417,"current_range_meters":10000,"station_id":"ce4bhqp2rcd13ifvqhog","pricing_plan_id":"cebpf4jnsgd1na2vs0mg"},{"bike_id":"598fb1f3-a37f-4e7b-8fbd-0c96fece7550","system_id":"levelo_inurba_marseille","lat":43.32364,"lon":5.38881,"is_reserved":false,"is_disabled":false,"rental_uris":{"android":"levelo://app?vid=598fb1f3-a37f-4e7b-8fbd-0c96fece7550","ios":"levelo://app?vid=598fb1f3-a37f-4e7b-8fbd-0c96fece7550"},"vehicle_type_id":"4","last_reported":1710522417,"current_range_meters":0,"station_id":"ce4bhqp2rcd13ifvqhog","pricing_plan_id":"cebpf4jnsgd1na2vs0mg"},{"bike_id":"73189312-5711-4f07-9ba2-a07b812fa614","system_id":"levelo_inurba_marseille","lat":43.32367,"lon":5.388836,"is_reserved":false,"is_disabled":false,"rental_uris":{"android":"levelo://app?vid=73189312-5711-4f07-9ba2-a07b812fa614","ios":"levelo://app?vid=73189312-5711-4f07-9ba2-a07b812fa614"},"vehicle_type_id":"4","last_reported":1710522417,"current_range_meters":26400,"station_id":"ce4bhqp2rcd13ifvqhog","pricing_plan_id":"cebpf4jnsgd1na2vs0mg"},{"bike_id":"fabfa73f-5084-4820-a827-515b7447769f","system_id":"levelo_inurba_marseille","lat":43.32367,"lon":5.388836,"is_reserved":false,"is_disabled":false,"rental_uris":{"android":"levelo://app?vid=fabfa73f-5084-4820-a827-515b7447769f","ios":"levelo://app?vid=fabfa73f-5084-4820-a827-515b7447769f"},"vehicle_type_id":"4","last_reported":1710522417,"current_range_meters":2800,"station_id":"ce4bhqp2rcd13ifvqhog","pricing_plan_id":"cebpf4jnsgd1na2vs0mg"},{"bike_id":"924501c2-f36b-4abb-8a2d-abcf66e5eef4","system_id":"levelo_inurba_marseille","lat":43.32367,"lon":5.388836,"is_reserved":false,"is_disabled":false,"rental_uris":{"android":"levelo://app?vid=924501c2-f36b-4abb-8a2d-abcf66e5eef4","ios":"levelo://app?vid=924501c2-f36b-4abb-8a2d-abcf66e5eef4"},"vehicle_type_id":"4","last_reported":1710522417,"current_range_meters":0,"station_id":"ce4bhqp2rcd13ifvqhog","pricing_plan_id":"cebpf4jnsgd1na2vs0mg"},{"bike_id":"543d4186-714b-4866-a911-93293b5ebde7","system_id":"levelo_inurba_marseille","lat":43.32367,"lon":5.388836,"is_reserved":false,"is_disabled":false,"rental_uris":{"android":"levelo://app?vid=543d4186-714b-4866-a911-93293b5ebde7","ios":"levelo://app?vid=543d4186-714b-4866-a911-93293b5ebde7"},"vehicle_type_id":"4","last_reported":1710522417,"current_range_meters":12000,"station_id":"ce4bhqp2rcd13ifvqhog","pricing_plan_id":"cebpf4jnsgd1na2vs0mg"},{"bike_id":"e7defb13-07db-447b-afd9-2164da423aef","system_id":"levelo_inurba_marseille","lat":43.32367,"lon":5.388836,"is_reserved":false,"is_disabled":false,"rental_uris":{"android":"levelo://app?vid=e7defb13-07db-447b-afd9-2164da423aef","ios":"levelo://app?vid=e7defb13-07db-447b-afd9-2164da423aef"},"vehicle_type_id":"4","last_reported":1710522417,"current_range_meters":23200,"station_id":"ce4bhqp2rcd13ifvqhog","pricing_plan_id":"cebpf4jnsgd1na2vs0mg"},{"bike_id":"775cf867-e75b-4fd5-b02f-97c73260f4b7","system_id":"levelo_inurba_marseille","lat":43.32371,"lon":5.388839,"is_reserved":false,"is_disabled":false,"rental_uris":{"android":"levelo://app?vid=775cf867-e75b-4fd5-b02f-97c73260f4b7","ios":"levelo://app?vid=775cf867-e75b-4fd5-b02f-97c73260f4b7"},"vehicle_type_id":"4","last_reported":1710522417,"current_range_meters":7200,"station_id":"ce4bhqp2rcd13ifvqhog","pricing_plan_id":"cebpf4jnsgd1na2vs0mg"},{"bike_id":"98c893c2-7601-480f-b687-9b8b6030928a","system_id":"levelo_inurba_marseille","lat":43.32367,"lon":5.388836,"is_reserved":false,"is_disabled":false,"rental_uris":{"android":"levelo://app?vid=98c893c2-7601-480f-b687-9b8b6030928a","ios":"levelo://app?vid=98c893c2-7601-480f-b687-9b8b6030928a"},"vehicle_type_id":"4","last_reported":1710522417,"current_range_meters":4800,"station_id":"ce4bhqp2rcd13ifvqhog","pricing_plan_id":"cebpf4jnsgd1na2vs0mg"},{"bike_id":"cc81d865-bd9e-47ea-9dba-ee06420c17c4","system_id":"levelo_inurba_marseille","lat":43.32367,"lon":5.388836,"is_reserved":false,"is_disabled":false,"rental_uris":{"android":"levelo://app?vid=cc81d865-bd9e-47ea-9dba-ee06420c17c4","ios":"levelo://app?vid=cc81d865-bd9e-47ea-9dba-ee06420c17c4"},"vehicle_type_id":"4","last_reported":1710522417,"current_range_meters":0,"station_id":"ce4bhqp2rcd13ifvqhog","pricing_plan_id":"cebpf4jnsgd1na2vs0mg"},{"bike_id":"3987cddb-4ed7-405b-96ca-b1abeb478286","system_id":"levelo_inurba_marseille","lat":43.32367,"lon":5.388836,"is_reserved":false,"is_disabled":false,"rental_uris":{"android":"levelo://app?vid=3987cddb-4ed7-405b-96ca-b1abeb478286","ios":"levelo://app?vid=3987cddb-4ed7-405b-96ca-b1abeb478286"},"vehicle_type_id":"4","last_reported":1710522417,"current_range_meters":23200,"station_id":"ce4bhqp2rcd13ifvqhog","pricing_plan_id":"cebpf4jnsgd1na2vs0mg"},{"bike_id":"8cb3829c-096c-4c1b-a5da-f3c3320666ad","system_id":"levelo_inurba_marseille","lat":43.29602,"lon":5.381084,"is_reserved":false,"is_disabled":false,"rental_uris":{"android":"levelo://app?vid=8cb3829c-096c-4c1b-a5da-f3c3320666ad","ios":"levelo://app?vid=8cb3829c-096c-4c1b-a5da-f3c3320666ad"},"vehicle_type_id":"4","last_reported":1710522417,"current_range_meters":4000,"station_id":"ce4bgl12rcd13ifvqbo0","pricing_plan_id":"cebpf4jnsgd1na2vs0mg"},{"bike_id":"badf16ed-cb59-4bce-98a6-fef9a065894d","system_id":"levelo_inurba_marseille","lat":43.29602,"lon":5.381084,"is_reserved":false,"is_disabled":false,"rental_uris":{"android":"levelo://app?vid=badf16ed-cb59-4bce-98a6-fef9a065894d","ios":"levelo://app?vid=badf16ed-cb59-4bce-98a6-fef9a065894d"},"vehicle_type_id":"4","last_reported":1710522417,"current_range_meters":6400,"station_id":"ce4bgl12rcd13ifvqbo0","pricing_plan_id":"cebpf4jnsgd1na2vs0mg"},{"bike_id":"a592fcce-ae5b-426d-897f-acd1750d8dac","system_id":"levelo_inurba_marseille","lat":43.296027,"lon":5.381037,"is_reserved":false,"is_disabled":false,"rental_uris":{"android":"levelo://app?vid=a592fcce-ae5b-426d-897f-acd1750d8dac","ios":"levelo://app?vid=a592fcce-ae5b-426d-897f-acd1750d8dac"},"vehicle_type_id":"4","last_reported":1710522417,"current_range_meters":0,"station_id":"ce4bgl12rcd13ifvqbo0","pricing_plan_id":"cebpf4jnsgd1na2vs0mg"},{"bike_id":"4c12470c-7005-4572-88d3-73bca8117d1a","system_id":"levelo_inurba_marseille","lat":43.29602,"lon":5.381084,"is_reserved":false,"is_disabled":false,"rental_uris":{"android":"levelo://app?vid=4c12470c-7005-4572-88d3-73bca8117d1a","ios":"levelo://app?vid=4c12470c-7005-4572-88d3-73bca8117d1a"},"vehicle_type_id":"4","last_reported":1710522417,"current_range_meters":16000,"station_id":"ce4bgl12rcd13ifvqbo0","pricing_plan_id":"cebpf4jnsgd1na2vs0mg"},{"bike_id":"09292b3c-830d-4d56-87e5-31b612768301","system_id":"levelo_inurba_marseille","lat":43.29602,"lon":5.381084,"is_reserved":false,"is_disabled":false,"rental_uris":{"android":"levelo://app?vid=09292b3c-830d-4d56-87e5-31b612768301","ios":"levelo://app?vid=09292b3c-830d-4d56-87e5-31b612768301"},"vehicle_type_id":"4","last_reported":1710522417,"current_range_meters":8400,"station_id":"ce4bgl12rcd13ifvqbo0","pricing_plan_id":"cebpf4jnsgd1na2vs0mg"},{"bike_id":"cd5c8963-eeca-4ced-bdcd-6e5709e0b857","system_id":"levelo_inurba_marseille","lat":43.29602,"lon":5.381084,"is_reserved":false,"is_disabled":false,"rental_uris":{"android":"levelo://app?vid=cd5c8963-eeca-4ced-bdcd-6e5709e0b857","ios":"levelo://app?vid=cd5c8963-eeca-4ced-bdcd-6e5709e0b857"},"vehicle_type_id":"4","last_reported":1710522417,"current_range_meters":6800,"station_id":"ce4bgl12rcd13ifvqbo0","pricing_plan_id":"cebpf4jnsgd1na2vs0mg"},{"bike_id":"f45a5227-0688-48d7-85f3-ba7dee883b55","system_id":"levelo_inurba_marseille","lat":43.293259,"lon":5.371586,"is_reserved":false,"is_disabled":false,"rental_uris":{"android":"levelo://app?vid=f45a5227-0688-48d7-85f3-ba7dee883b55","ios":"levelo://app?vid=f45a5227-0688-48d7-85f3-ba7dee883b55"},"vehicle_type_id":"4","last_reported":1710522417,"current_range_meters":9600,"station_id":"ce4bgh92rcd13ifvqb40","pricing_plan_id":"cebpf4jnsgd1na2vs0mg"},{"bike_id":"8a4fe05d-323e-4e56-9533-6f977eadf3e3","system_id":"levelo_inurba_marseille","lat":43.293259,"lon":5.371586,"is_reserved":false,"is_disabled":false,"rental_uris":{"android":"levelo://app?vid=8a4fe05d-323e-4e56-9533-6f977eadf3e3","ios":"levelo://app?vid=8a4fe05d-323e-4e56-9533-6f977eadf3e3"},"vehicle_type_id":"4","last_reported":1710522417,"current_range_meters":5600,"station_id":"ce4bgh92rcd13ifvqb40","pricing_plan_id":"cebpf4jnsgd1na2vs0mg"},{"bike_id":"12bb0ed6-2c05-435f-9e5a-5ec7ef4b6d46","system_id":"levelo_inurba_marseille","lat":43.292749,"lon":5.368402,"is_reserved":false,"is_disabled":false,"rental_uris":{"android":"levelo://app?vid=12bb0ed6-2c05-435f-9e5a-5ec7ef4b6d46","ios":"levelo://app?vid=12bb0ed6-2c05-435f-9e5a-5ec7ef4b6d46"},"vehicle_type_id":"4","last_reported":1710522417,"current_range_meters":14400,"station_id":"ce4bhbp2rcd13ifvqesg","pricing_plan_id":"cebpf4jnsgd1na2vs0mg"},{"bike_id":"eebd2037-c4bd-4131-b2c3-99687e5c5593","system_id":"levelo_inurba_marseille","lat":43.292749,"lon":5.368402,"is_reserved":false,"is_disabled":false,"rental_uris":{"android":"levelo://app?vid=eebd2037-c4bd-4131-b2c3-99687e5c5593","ios":"levelo://app?vid=eebd2037-c4bd-4131-b2c3-99687e5c5593"},"vehicle_type_id":"4","last_reported":1710522417,"current_range_meters":4800,"station_id":"ce4bhbp2rcd13ifvqesg","pricing_plan_id":"cebpf4jnsgd1na2vs0mg"},{"bike_id":"c04770d2-544b-498e-91a3-a05e65f9ae33","system_id":"levelo_inurba_marseille","lat":43.292749,"lon":5.368402,"is_reserved":false,"is_disabled":false,"rental_uris":{"android":"levelo://app?vid=c04770d2-544b-498e-91a3-a05e65f9ae33","ios":"levelo://app?vid=c04770d2-544b-498e-91a3-a05e65f9ae33"},"vehicle_type_id":"4","last_reported":1710522417,"current_range_meters":14800,"station_id":"ce4bhbp2rcd13ifvqesg","pricing_plan_id":"cebpf4jnsgd1na2vs0mg"},{"bike_id":"2277c37a-977e-43b2-ab20-d1cad0778da6","system_id":"levelo_inurba_marseille","lat":43.29272,"lon":5.36842,"is_reserved":false,"is_disabled":false,"rental_uris":{"android":"levelo://app?vid=2277c37a-977e-43b2-ab20-d1cad0778da6","ios":"levelo://app?vid=2277c37a-977e-43b2-ab20-d1cad0778da6"},"vehicle_type_id":"4","last_reported":1710522417,"current_range_meters":0,"station_id":"ce4bhbp2rcd13ifvqesg","pricing_plan_id":"cebpf4jnsgd1na2vs0mg"},{"bike_id":"1a8b754e-d4f0-44d1-9a49-e992970e8874","system_id":"levelo_inurba_marseille","lat":43.292749,"lon":5.368402,"is_reserved":false,"is_disabled":false,"rental_uris":{"android":"levelo://app?vid=1a8b754e-d4f0-44d1-9a49-e992970e8874","ios":"levelo://app?vid=1a8b754e-d4f0-44d1-9a49-e992970e8874"},"vehicle_type_id":"4","last_reported":1710522417,"current_range_meters":14400,"station_id":"ce4bhbp2rcd13ifvqesg","pricing_plan_id":"cebpf4jnsgd1na2vs0mg"},{"bike_id":"d0f95529-47ae-49e2-b822-468c0b3380ec","system_id":"levelo_inurba_marseille","lat":43.292749,"lon":5.368402,"is_reserved":false,"is_disabled":false,"rental_uris":{"android":"levelo://app?vid=d0f95529-47ae-49e2-b822-468c0b3380ec","ios":"levelo://app?vid=d0f95529-47ae-49e2-b822-468c0b3380ec"},"vehicle_type_id":"4","last_reported":1710522417,"current_range_meters":8400,"station_id":"ce4bhbp2rcd13ifvqesg","pricing_plan_id":"cebpf4jnsgd1na2vs0mg"},{"bike_id":"96e909de-148d-43b0-b87d-cdcca97c5b33","system_id":"levelo_inurba_marseille","lat":43.291675,"lon":5.371583,"is_reserved":false,"is_disabled":false,"rental_uris":{"android":"levelo://app?vid=96e909de-148d-43b0-b87d-cdcca97c5b33","ios":"levelo://app?vid=96e909de-148d-43b0-b87d-cdcca97c5b33"},"vehicle_type_id":"4","last_reported":1710522417,"current_range_meters":23200,"station_id":"ce4bha92rcd13ifvqeh0","pricing_plan_id":"cebpf4jnsgd1na2vs0mg"},{"bike_id":"7caba6d3-60ff-4036-bc91-991734672e4d","system_id":"levelo_inurba_marseille","lat":43.304274,"lon":5.388873,"is_reserved":false,"is_disabled":false,"rental_uris":{"android":"levelo://app?vid=7caba6d3-60ff-4036-bc91-991734672e4d","ios":"levelo://app?vid=7caba6d3-60ff-4036-bc91-991734672e4d"},"vehicle_type_id":"4","last_reported":1710522417,"current_range_meters":800,"station_id":"ce4bgk12rcd13ifvqbi0","pricing_plan_id":"cebpf4jnsgd1na2vs0mg"},{"bike_id":"f4a1063f-0a3d-447d-8590-84ae7f5de859","system_id":"levelo_inurba_marseille","lat":43.293009,"lon":5.374584,"is_reserved":false,"is_disabled":false,"rental_uris":{"android":"levelo://app?vid=f4a1063f-0a3d-447d-8590-84ae7f5de859","ios":"levelo://app?vid=f4a1063f-0a3d-447d-8590-84ae7f5de859"},"vehicle_type_id":"4","last_reported":1710522417,"current_range_meters":5600,"station_id":"ce4bgi12rcd13ifvqb70","pricing_plan_id":"cebpf4jnsgd1na2vs0mg"},{"bike_id":"0b0da24f-3b34-4450-8d28-fb9a642a37d8","system_id":"levelo_inurba_marseille","lat":43.293009,"lon":5.374584,"is_reserved":false,"is_disabled":false,"rental_uris":{"android":"levelo://app?vid=0b0da24f-3b34-4450-8d28-fb9a642a37d8","ios":"levelo://app?vid=0b0da24f-3b34-4450-8d28-fb9a642a37d8"},"vehicle_type_id":"4","last_reported":1710522417,"current_range_meters":2000,"station_id":"ce4bgi12rcd13ifvqb70","pricing_plan_id":"cebpf4jnsgd1na2vs0mg"},{"bike_id":"d1b8d34e-7b84-4512-b100-57a066be0f0f","system_id":"levelo_inurba_marseille","lat":43.293054,"lon":5.374461,"is_reserved":false,"is_disabled":false,"rental_uris":{"android":"levelo://app?vid=d1b8d34e-7b84-4512-b100-57a066be0f0f","ios":"levelo://app?vid=d1b8d34e-7b84-4512-b100-57a066be0f0f"},"vehicle_type_id":"4","last_reported":1710522417,"current_range_meters":800,"station_id":"ce4bgi12rcd13ifvqb70","pricing_plan_id":"cebpf4jnsgd1na2vs0mg"},{"bike_id":"34b15121-74a4-4847-a11e-6e12ef6d8e31","system_id":"levelo_inurba_marseille","lat":43.293009,"lon":5.374584,"is_reserved":false,"is_disabled":false,"rental_uris":{"android":"levelo://app?vid=34b15121-74a4-4847-a11e-6e12ef6d8e31","ios":"levelo://app?vid=34b15121-74a4-4847-a11e-6e12ef6d8e31"},"vehicle_type_id":"4","last_reported":1710522417,"current_range_meters":22000,"station_id":"ce4bgi12rcd13ifvqb70","pricing_plan_id":"cebpf4jnsgd1na2vs0mg"},{"bike_id":"a892aba4-620e-4615-bf20-87723c959214","system_id":"levelo_inurba_marseille","lat":43.293009,"lon":5.374584,"is_reserved":false,"is_disabled":false,"rental_uris":{"android":"levelo://app?vid=a892aba4-620e-4615-bf20-87723c959214","ios":"levelo://app?vid=a892aba4-620e-4615-bf20-87723c959214"},"vehicle_type_id":"4","last_reported":1710522417,"current_range_meters":19600,"station_id":"ce4bgi12rcd13ifvqb70","pricing_plan_id":"cebpf4jnsgd1na2vs0mg"},{"bike_id":"469a7f3b-b488-45a5-a32a-e57c31a22576","system_id":"levelo_inurba_marseille","lat":43.293009,"lon":5.374584,"is_reserved":false,"is_disabled":false,"rental_uris":{"android":"levelo://app?vid=469a7f3b-b488-45a5-a32a-e57c31a22576","ios":"levelo://app?vid=469a7f3b-b488-45a5-a32a-e57c31a22576"},"vehicle_type_id":"4","last_reported":1710522417,"current_range_meters":27200,"station_id":"ce4bgi12rcd13ifvqb70","pricing_plan_id":"cebpf4jnsgd1na2vs0mg"},{"bike_id":"b3af5b24-cd76-4b1c-a063-90700535c43f","system_id":"levelo_inurba_marseille","lat":43.293009,"lon":5.374584,"is_reserved":false,"is_disabled":false,"rental_uris":{"android":"levelo://app?vid=b3af5b24-cd76-4b1c-a063-90700535c43f","ios":"levelo://app?vid=b3af5b24-cd76-4b1c-a063-90700535c43f"},"vehicle_type_id":"4","last_reported":1710522417,"current_range_meters":21200,"station_id":"ce4bgi12rcd13ifvqb70","pricing_plan_id":"cebpf4jnsgd1na2vs0mg"},{"bike_id":"b75cf26a-7910-4ad4-a488-63af6d301aa6","system_id":"levelo_inurba_marseille","lat":43.293009,"lon":5.374584,"is_reserved":false,"is_disabled":false,"rental_uris":{"android":"levelo://app?vid=b75cf26a-7910-4ad4-a488-63af6d301aa6","ios":"levelo://app?vid=b75cf26a-7910-4ad4-a488-63af6d301aa6"},"vehicle_type_id":"4","last_reported":1710522417,"current_range_meters":10400,"station_id":"ce4bgi12rcd13ifvqb70","pricing_plan_id":"cebpf4jnsgd1na2vs0mg"},{"bike_id":"7d6cc28f-22e1-48ac-a3ea-bb4b882a40c4","system_id":"levelo_inurba_marseille","lat":43.293009,"lon":5.374584,"is_reserved":false,"is_disabled":false,"rental_uris":{"android":"levelo://app?vid=7d6cc28f-22e1-48ac-a3ea-bb4b882a40c4","ios":"levelo://app?vid=7d6cc28f-22e1-48ac-a3ea-bb4b882a40c4"},"vehicle_type_id":"4","last_reported":1710522417,"current_range_meters":10400,"station_id":"ce4bgi12rcd13ifvqb70","pricing_plan_id":"cebpf4jnsgd1na2vs0mg"},{"bike_id":"f8802a37-20b7-4910-95da-6072cc4bbb4e","system_id":"levelo_inurba_marseille","lat":43.305994,"lon":5.393687,"is_reserved":false,"is_disabled":false,"rental_uris":{"android":"levelo://app?vid=f8802a37-20b7-4910-95da-6072cc4bbb4e","ios":"levelo://app?vid=f8802a37-20b7-4910-95da-6072cc4bbb4e"},"vehicle_type_id":"4","last_reported":1710522417,"current_range_meters":10400,"station_id":"ce4bh0p2rcd13ifvqd80","pricing_plan_id":"cebpf4jnsgd1na2vs0mg"},{"bike_id":"c4fcb138-542c-43d0-82ea-8a7293f94b6f","system_id":"levelo_inurba_marseille","lat":43.305994,"lon":5.393687,"is_reserved":false,"is_disabled":false,"rental_uris":{"android":"levelo://app?vid=c4fcb138-542c-43d0-82ea-8a7293f94b6f","ios":"levelo://app?vid=c4fcb138-542c-43d0-82ea-8a7293f94b6f"},"vehicle_type_id":"4","last_reported":1710522417,"current_range_meters":14800,"station_id":"ce4bh0p2rcd13ifvqd80","pricing_plan_id":"cebpf4jnsgd1na2vs0mg"},{"bike_id":"c576623a-fb2c-4adf-a856-327df10b2b99","system_id":"levelo_inurba_marseille","lat":43.2936,"lon":5.37835,"is_reserved":false,"is_disabled":false,"rental_uris":{"android":"levelo://app?vid=c576623a-fb2c-4adf-a856-327df10b2b99","ios":"levelo://app?vid=c576623a-fb2c-4adf-a856-327df10b2b99"},"vehicle_type_id":"4","last_reported":1710522417,"current_range_meters":1200,"station_id":"ce4bgjh2rcd13ifvqbf0","pricing_plan_id":"cebpf4jnsgd1na2vs0mg"},{"bike_id":"f4d25338-446a-479f-9bcb-6a4eb5a4ad8b","system_id":"levelo_inurba_marseille","lat":43.319179,"lon":5.407725,"is_reserved":false,"is_disabled":false,"rental_uris":{"android":"levelo://app?vid=f4d25338-446a-479f-9bcb-6a4eb5a4ad8b","ios":"levelo://app?vid=f4d25338-446a-479f-9bcb-6a4eb5a4ad8b"},"vehicle_type_id":"4","last_reported":1710522417,"current_range_meters":11600,"station_id":"ce4bhq12rcd13ifvqhig","pricing_plan_id":"cebpf4jnsgd1na2vs0mg"},{"bike_id":"8fb66ad3-003d-401b-baac-c5cdb6f5990c","system_id":"levelo_inurba_marseille","lat":43.292909,"lon":5.375158,"is_reserved":false,"is_disabled":false,"rental_uris":{"android":"levelo://app?vid=8fb66ad3-003d-401b-baac-c5cdb6f5990c","ios":"levelo://app?vid=8fb66ad3-003d-401b-baac-c5cdb6f5990c"},"vehicle_type_id":"4","last_reported":1710522417,"current_range_meters":0,"station_id":"ce4bgi12rcd13ifvqb70","pricing_plan_id":"cebpf4jnsgd1na2vs0mg"},{"bike_id":"65cee062-5e1a-4142-b1e7-c6d3b54331b2","system_id":"levelo_inurba_marseille","lat":43.292427,"lon":5.37337,"is_reserved":false,"is_disabled":false,"rental_uris":{"android":"levelo://app?vid=65cee062-5e1a-4142-b1e7-c6d3b54331b2","ios":"levelo://app?vid=65cee062-5e1a-4142-b1e7-c6d3b54331b2"},"vehicle_type_id":"4","last_reported":1710522417,"current_range_meters":0,"station_id":"","pricing_plan_id":"cebpf4jnsgd1na2vs0mg"},{"bike_id":"8ea89f9a-b0b1-4140-b210-74b6aee349e3","system_id":"levelo_inurba_marseille","lat":43.300852,"lon":5.390859,"is_reserved":false,"is_disabled":false,"rental_uris":{"android":"levelo://app?vid=8ea89f9a-b0b1-4140-b210-74b6aee349e3","ios":"levelo://app?vid=8ea89f9a-b0b1-4140-b210-74b6aee349e3"},"vehicle_type_id":"4","last_reported":1710522417,"current_range_meters":14000,"station_id":"ce4bh192rcd13ifvqdb0","pricing_plan_id":"cebpf4jnsgd1na2vs0mg"},{"bike_id":"9c59decb-49be-4100-9015-b219bbd8b920","system_id":"levelo_inurba_marseille","lat":43.293009,"lon":5.374584,"is_reserved":false,"is_disabled":false,"rental_uris":{"android":"levelo://app?vid=9c59decb-49be-4100-9015-b219bbd8b920","ios":"levelo://app?vid=9c59decb-49be-4100-9015-b219bbd8b920"},"vehicle_type_id":"4","last_reported":1710522417,"current_range_meters":7600,"station_id":"ce4bgi12rcd13ifvqb70","pricing_plan_id":"cebpf4jnsgd1na2vs0mg"},{"bike_id":"b966187f-a06f-4e59-991c-ed24952382ce","system_id":"levelo_inurba_marseille","lat":43.293009,"lon":5.374584,"is_reserved":false,"is_disabled":false,"rental_uris":{"android":"levelo://app?vid=b966187f-a06f-4e59-991c-ed24952382ce","ios":"levelo://app?vid=b966187f-a06f-4e59-991c-ed24952382ce"},"vehicle_type_id":"4","last_reported":1710522417,"current_range_meters":22400,"station_id":"ce4bgi12rcd13ifvqb70","pricing_plan_id":"cebpf4jnsgd1na2vs0mg"},{"bike_id":"553ab356-fc15-4ddc-98c2-dd2f2ddd3dc2","system_id":"levelo_inurba_marseille","lat":43.29268,"lon":5.37633,"is_reserved":false,"is_disabled":false,"rental_uris":{"android":"levelo://app?vid=553ab356-fc15-4ddc-98c2-dd2f2ddd3dc2","ios":"levelo://app?vid=553ab356-fc15-4ddc-98c2-dd2f2ddd3dc2"},"vehicle_type_id":"4","last_reported":1710522417,"current_range_meters":0,"station_id":"","pricing_plan_id":"cebpf4jnsgd1na2vs0mg"},{"bike_id":"4fe07819-85cc-4584-b42d-bd4b48c5b13e","system_id":"levelo_inurba_marseille","lat":43.292084,"lon":5.360394,"is_reserved":false,"is_disabled":false,"rental_uris":{"android":"levelo://app?vid=4fe07819-85cc-4584-b42d-bd4b48c5b13e","ios":"levelo://app?vid=4fe07819-85cc-4584-b42d-bd4b48c5b13e"},"vehicle_type_id":"4","last_reported":1710522417,"current_range_meters":17200,"station_id":"ce4bhbh2rcd13ifvqeqg","pricing_plan_id":"cebpf4jnsgd1na2vs0mg"},{"bike_id":"f6d5133e-7c4a-4a4e-9b36-f20776666401","system_id":"levelo_inurba_marseille","lat":43.293009,"lon":5.374584,"is_reserved":false,"is_disabled":false,"rental_uris":{"android":"levelo://app?vid=f6d5133e-7c4a-4a4e-9b36-f20776666401","ios":"levelo://app?vid=f6d5133e-7c4a-4a4e-9b36-f20776666401"},"vehicle_type_id":"4","last_reported":1710522417,"current_range_meters":14800,"station_id":"ce4bgi12rcd13ifvqb70","pricing_plan_id":"cebpf4jnsgd1na2vs0mg"},{"bike_id":"341b4c54-8ada-48af-a339-a6cfa4e0c098","system_id":"levelo_inurba_marseille","lat":43.2917,"lon":5.37143,"is_reserved":false,"is_disabled":false,"rental_uris":{"android":"levelo://app?vid=341b4c54-8ada-48af-a339-a6cfa4e0c098","ios":"levelo://app?vid=341b4c54-8ada-48af-a339-a6cfa4e0c098"},"vehicle_type_id":"4","last_reported":1710522417,"current_range_meters":22400,"station_id":"ce4bha92rcd13ifvqeh0","pricing_plan_id":"cebpf4jnsgd1na2vs0mg"},{"bike_id":"a18a05d1-9c3b-4e32-a5a3-370b959609ab","system_id":"levelo_inurba_marseille","lat":43.298764,"lon":5.388973,"is_reserved":false,"is_disabled":false,"rental_uris":{"android":"levelo://app?vid=a18a05d1-9c3b-4e32-a5a3-370b959609ab","ios":"levelo://app?vid=a18a05d1-9c3b-4e32-a5a3-370b959609ab"},"vehicle_type_id":"4","last_reported":1710522417,"current_range_meters":27200,"station_id":"ce4bh392rcd13ifvqdl0","pricing_plan_id":"cebpf4jnsgd1na2vs0mg"},{"bike_id":"19dcb119-bbbf-47a0-a9fb-804c7abad0ac","system_id":"levelo_inurba_marseille","lat":43.298764,"lon":5.388973,"is_reserved":false,"is_disabled":false,"rental_uris":{"android":"levelo://app?vid=19dcb119-bbbf-47a0-a9fb-804c7abad0ac","ios":"levelo://app?vid=19dcb119-bbbf-47a0-a9fb-804c7abad0ac"},"vehicle_type_id":"4","last_reported":1710522417,"current_range_meters":23200,"station_id":"ce4bh392rcd13ifvqdl0","pricing_plan_id":"cebpf4jnsgd1na2vs0mg"},{"bike_id":"132fe269-ae3b-4504-b650-91e41a532fdf","system_id":"levelo_inurba_marseille","lat":43.291675,"lon":5.371583,"is_reserved":false,"is_disabled":false,"rental_uris":{"android":"levelo://app?vid=132fe269-ae3b-4504-b650-91e41a532fdf","ios":"levelo://app?vid=132fe269-ae3b-4504-b650-91e41a532fdf"},"vehicle_type_id":"4","last_reported":1710522417,"current_range_meters":14000,"station_id":"ce4bha92rcd13ifvqeh0","pricing_plan_id":"cebpf4jnsgd1na2vs0mg"},{"bike_id":"a85ebae4-2575-4931-8bd0-8a3f6a2551b8","system_id":"levelo_inurba_marseille","lat":43.308851,"lon":5.396375,"is_reserved":false,"is_disabled":false,"rental_uris":{"android":"levelo://app?vid=a85ebae4-2575-4931-8bd0-8a3f6a2551b8","ios":"levelo://app?vid=a85ebae4-2575-4931-8bd0-8a3f6a2551b8"},"vehicle_type_id":"4","last_reported":1710522417,"current_range_meters":0,"station_id":"ce4bh012rcd13ifvqcv0","pricing_plan_id":"cebpf4jnsgd1na2vs0mg"},{"bike_id":"9d713ad1-444f-49ff-96c0-287dd031020e","system_id":"levelo_inurba_marseille","lat":43.29191,"lon":5.35796,"is_reserved":false,"is_disabled":false,"rental_uris":{"android":"levelo://app?vid=9d713ad1-444f-49ff-96c0-287dd031020e","ios":"levelo://app?vid=9d713ad1-444f-49ff-96c0-287dd031020e"},"vehicle_type_id":"4","last_reported":1710522417,"current_range_meters":0,"station_id":"ce4bhb12rcd13ifvqel0","pricing_plan_id":"cebpf4jnsgd1na2vs0mg"},{"bike_id":"7725b4e9-4061-45a6-94f9-2b30abe0dc60","system_id":"levelo_inurba_marseille","lat":43.313291,"lon":5.396838,"is_reserved":false,"is_disabled":false,"rental_uris":{"android":"levelo://app?vid=7725b4e9-4061-45a6-94f9-2b30abe0dc60","ios":"levelo://app?vid=7725b4e9-4061-45a6-94f9-2b30abe0dc60"},"vehicle_type_id":"4","last_reported":1710522417,"current_range_meters":25200,"station_id":"ce4bgvp2rcd13ifvqcu0","pricing_plan_id":"cebpf4jnsgd1na2vs0mg"},{"bike_id":"29587399-738b-4220-a68e-df4082fed383","system_id":"levelo_inurba_marseille","lat":43.31326,"lon":5.39694,"is_reserved":false,"is_disabled":false,"rental_uris":{"android":"levelo://app?vid=29587399-738b-4220-a68e-df4082fed383","ios":"levelo://app?vid=29587399-738b-4220-a68e-df4082fed383"},"vehicle_type_id":"4","last_reported":1710522417,"current_range_meters":6800,"station_id":"ce4bgvp2rcd13ifvqcu0","pricing_plan_id":"cebpf4jnsgd1na2vs0mg"},{"bike_id":"3917b210-295a-4154-a54a-f7b01a2ed718","system_id":"levelo_inurba_marseille","lat":43.309047,"lon":5.396551,"is_reserved":false,"is_disabled":false,"rental_uris":{"android":"levelo://app?vid=3917b210-295a-4154-a54a-f7b01a2ed718","ios":"levelo://app?vid=3917b210-295a-4154-a54a-f7b01a2ed718"},"vehicle_type_id":"4","last_reported":1710522417,"current_range_meters":800,"station_id":"ce4bh012rcd13ifvqcv0","pricing_plan_id":"cebpf4jnsgd1na2vs0mg"},{"bike_id":"bbc87ce9-85e2-4908-9fcb-d83c328196a8","system_id":"levelo_inurba_marseille","lat":43.309038,"lon":5.396546,"is_reserved":false,"is_disabled":false,"rental_uris":{"android":"levelo://app?vid=bbc87ce9-85e2-4908-9fcb-d83c328196a8","ios":"levelo://app?vid=bbc87ce9-85e2-4908-9fcb-d83c328196a8"},"vehicle_type_id":"4","last_reported":1710522417,"current_range_meters":17600,"station_id":"ce4bh012rcd13ifvqcv0","pricing_plan_id":"cebpf4jnsgd1na2vs0mg"},{"bike_id":"12cb7660-903e-4817-9dd8-74a306e01e3a","system_id":"levelo_inurba_marseille","lat":43.309047,"lon":5.396551,"is_reserved":false,"is_disabled":false,"rental_uris":{"android":"levelo://app?vid=12cb7660-903e-4817-9dd8-74a306e01e3a","ios":"levelo://app?vid=12cb7660-903e-4817-9dd8-74a306e01e3a"},"vehicle_type_id":"4","last_reported":1710522417,"current_range_meters":24400,"station_id":"ce4bh012rcd13ifvqcv0","pricing_plan_id":"cebpf4jnsgd1na2vs0mg"},{"bike_id":"35cfe499-c3a2-4407-affd-77a3c77370db","system_id":"levelo_inurba_marseille","lat":43.309038,"lon":5.396546,"is_reserved":false,"is_disabled":false,"rental_uris":{"android":"levelo://app?vid=35cfe499-c3a2-4407-affd-77a3c77370db","ios":"levelo://app?vid=35cfe499-c3a2-4407-affd-77a3c77370db"},"vehicle_type_id":"4","last_reported":1710522417,"current_range_meters":15600,"station_id":"ce4bh012rcd13ifvqcv0","pricing_plan_id":"cebpf4jnsgd1na2vs0mg"},{"bike_id":"4348fac4-fbae-493e-be19-b8a357f6025e","system_id":"levelo_inurba_marseille","lat":43.295301,"lon":5.385421,"is_reserved":false,"is_disabled":false,"rental_uris":{"android":"levelo://app?vid=4348fac4-fbae-493e-be19-b8a357f6025e","ios":"levelo://app?vid=4348fac4-fbae-493e-be19-b8a357f6025e"},"vehicle_type_id":"4","last_reported":1710522417,"current_range_meters":26400,"station_id":"","pricing_plan_id":"cebpf4jnsgd1na2vs0mg"},{"bike_id":"79498860-afec-4f12-b102-4f3957a260ea","system_id":"levelo_inurba_marseille","lat":43.295154,"lon":5.385675,"is_reserved":false,"is_disabled":false,"rental_uris":{"android":"levelo://app?vid=79498860-afec-4f12-b102-4f3957a260ea","ios":"levelo://app?vid=79498860-afec-4f12-b102-4f3957a260ea"},"vehicle_type_id":"4","last_reported":1710522417,"current_range_meters":1600,"station_id":"","pricing_plan_id":"cebpf4jnsgd1na2vs0mg"},{"bike_id":"04dd163c-b7d3-4084-9442-c137f68ee111","system_id":"levelo_inurba_marseille","lat":43.29939,"lon":5.39184,"is_reserved":false,"is_disabled":false,"rental_uris":{"android":"levelo://app?vid=04dd163c-b7d3-4084-9442-c137f68ee111","ios":"levelo://app?vid=04dd163c-b7d3-4084-9442-c137f68ee111"},"vehicle_type_id":"4","last_reported":1710522417,"current_range_meters":12000,"station_id":"","pricing_plan_id":"cebpf4jnsgd1na2vs0mg"},{"bike_id":"7993e5f4-b258-43e8-993b-c0cfb542d65a","system_id":"levelo_inurba_marseille","lat":43.309038,"lon":5.396546,"is_reserved":false,"is_disabled":false,"rental_uris":{"android":"levelo://app?vid=7993e5f4-b258-43e8-993b-c0cfb542d65a","ios":"levelo://app?vid=7993e5f4-b258-43e8-993b-c0cfb542d65a"},"vehicle_type_id":"4","last_reported":1710522417,"current_range_meters":15600,"station_id":"ce4bh012rcd13ifvqcv0","pricing_plan_id":"cebpf4jnsgd1na2vs0mg"},{"bike_id":"828b7d05-e909-4fe8-ae87-6d1f654d5b9f","system_id":"levelo_inurba_marseille","lat":43.290624,"lon":5.359245,"is_reserved":false,"is_disabled":false,"rental_uris":{"android":"levelo://app?vid=828b7d05-e909-4fe8-ae87-6d1f654d5b9f","ios":"levelo://app?vid=828b7d05-e909-4fe8-ae87-6d1f654d5b9f"},"vehicle_type_id":"4","last_reported":1710522417,"current_range_meters":8800,"station_id":"ce4bha92rcd13ifvqeg0","pricing_plan_id":"cebpf4jnsgd1na2vs0mg"},{"bike_id":"07cc345e-cfe9-4139-a668-a9d53882e820","system_id":"levelo_inurba_marseille","lat":43.290624,"lon":5.359245,"is_reserved":false,"is_disabled":false,"rental_uris":{"android":"levelo://app?vid=07cc345e-cfe9-4139-a668-a9d53882e820","ios":"levelo://app?vid=07cc345e-cfe9-4139-a668-a9d53882e820"},"vehicle_type_id":"4","last_reported":1710522417,"current_range_meters":15600,"station_id":"ce4bha92rcd13ifvqeg0","pricing_plan_id":"cebpf4jnsgd1na2vs0mg"},{"bike_id":"8ac20fac-f913-4f1a-b625-f66ec3093fb5","system_id":"levelo_inurba_marseille","lat":43.290467,"lon":5.359077,"is_reserved":false,"is_disabled":false,"rental_uris":{"android":"levelo://app?vid=8ac20fac-f913-4f1a-b625-f66ec3093fb5","ios":"levelo://app?vid=8ac20fac-f913-4f1a-b625-f66ec3093fb5"},"vehicle_type_id":"4","last_reported":1710522417,"current_range_meters":18800,"station_id":"ce4bha92rcd13ifvqeg0","pricing_plan_id":"cebpf4jnsgd1na2vs0mg"},{"bike_id":"7bc085af-2b7c-4767-b52b-5de8ee60f1d3","system_id":"levelo_inurba_marseille","lat":43.290624,"lon":5.359245,"is_reserved":false,"is_disabled":false,"rental_uris":{"android":"levelo://app?vid=7bc085af-2b7c-4767-b52b-5de8ee60f1d3","ios":"levelo://app?vid=7bc085af-2b7c-4767-b52b-5de8ee60f1d3"},"vehicle_type_id":"4","last_reported":1710522417,"current_range_meters":12000,"station_id":"ce4bha92rcd13ifvqeg0","pricing_plan_id":"cebpf4jnsgd1na2vs0mg"},{"bike_id":"18507b56-6611-44b7-a9bf-28bcff91c94c","system_id":"levelo_inurba_marseille","lat":43.290631,"lon":5.359244,"is_reserved":false,"is_disabled":false,"rental_uris":{"android":"levelo://app?vid=18507b56-6611-44b7-a9bf-28bcff91c94c","ios":"levelo://app?vid=18507b56-6611-44b7-a9bf-28bcff91c94c"},"vehicle_type_id":"4","last_reported":1710522417,"current_range_meters":28400,"station_id":"ce4bha92rcd13ifvqeg0","pricing_plan_id":"cebpf4jnsgd1na2vs0mg"},{"bike_id":"332002e1-d209-46ba-8155-b72d8e101f75","system_id":"levelo_inurba_marseille","lat":43.290319,"lon":5.375732,"is_reserved":false,"is_disabled":false,"rental_uris":{"android":"levelo://app?vid=332002e1-d209-46ba-8155-b72d8e101f75","ios":"levelo://app?vid=332002e1-d209-46ba-8155-b72d8e101f75"},"vehicle_type_id":"4","last_reported":1710522417,"current_range_meters":7600,"station_id":"ce4bh692rcd13ifvqe90","pricing_plan_id":"cebpf4jnsgd1na2vs0mg"},{"bike_id":"74d845bb-1961-4cf4-9851-368af4b771d1","system_id":"levelo_inurba_marseille","lat":43.290327,"lon":5.375711,"is_reserved":false,"is_disabled":false,"rental_uris":{"android":"levelo://app?vid=74d845bb-1961-4cf4-9851-368af4b771d1","ios":"levelo://app?vid=74d845bb-1961-4cf4-9851-368af4b771d1"},"vehicle_type_id":"4","last_reported":1710522417,"current_range_meters":27200,"station_id":"ce4bh692rcd13ifvqe90","pricing_plan_id":"cebpf4jnsgd1na2vs0mg"},{"bike_id":"bca66fac-489f-4904-9b98-13ce4ba13c29","system_id":"levelo_inurba_marseille","lat":43.289184,"lon":5.366408,"is_reserved":false,"is_disabled":false,"rental_uris":{"android":"levelo://app?vid=bca66fac-489f-4904-9b98-13ce4ba13c29","ios":"levelo://app?vid=bca66fac-489f-4904-9b98-13ce4ba13c29"},"vehicle_type_id":"4","last_reported":1710522417,"current_range_meters":28400,"station_id":"ce4bhap2rcd13ifvqek0","pricing_plan_id":"cebpf4jnsgd1na2vs0mg"},{"bike_id":"4b98b428-7fdb-40e8-ad69-dc84a552b656","system_id":"levelo_inurba_marseille","lat":43.295169,"lon":5.390426,"is_reserved":false,"is_disabled":false,"rental_uris":{"android":"levelo://app?vid=4b98b428-7fdb-40e8-ad69-dc84a552b656","ios":"levelo://app?vid=4b98b428-7fdb-40e8-ad69-dc84a552b656"},"vehicle_type_id":"4","last_reported":1710522417,"current_range_meters":12800,"station_id":"ce4bh3p2rcd13ifvqdp0","pricing_plan_id":"cebpf4jnsgd1na2vs0mg"},{"bike_id":"66040019-7eec-4af4-bedc-cb71528fa8c8","system_id":"levelo_inurba_marseille","lat":43.289184,"lon":5.366408,"is_reserved":false,"is_disabled":false,"rental_uris":{"android":"levelo://app?vid=66040019-7eec-4af4-bedc-cb71528fa8c8","ios":"levelo://app?vid=66040019-7eec-4af4-bedc-cb71528fa8c8"},"vehicle_type_id":"4","last_reported":1710522417,"current_range_meters":16400,"station_id":"ce4bhap2rcd13ifvqek0","pricing_plan_id":"cebpf4jnsgd1na2vs0mg"},{"bike_id":"712953e1-af2f-44a9-a334-461b2e8a9dc4","system_id":"levelo_inurba_marseille","lat":43.289468,"lon":5.363719,"is_reserved":false,"is_disabled":false,"rental_uris":{"android":"levelo://app?vid=712953e1-af2f-44a9-a334-461b2e8a9dc4","ios":"levelo://app?vid=712953e1-af2f-44a9-a334-461b2e8a9dc4"},"vehicle_type_id":"4","last_reported":1710522417,"current_range_meters":5600,"station_id":"ce4bhc92rcd13ifvqetg","pricing_plan_id":"cebpf4jnsgd1na2vs0mg"},{"bike_id":"7304b59b-c8a4-4135-9ec6-5107f2d17e92","system_id":"levelo_inurba_marseille","lat":43.289184,"lon":5.366408,"is_reserved":false,"is_disabled":false,"rental_uris":{"android":"levelo://app?vid=7304b59b-c8a4-4135-9ec6-5107f2d17e92","ios":"levelo://app?vid=7304b59b-c8a4-4135-9ec6-5107f2d17e92"},"vehicle_type_id":"4","last_reported":1710522417,"current_range_meters":14400,"station_id":"ce4bhap2rcd13ifvqek0","pricing_plan_id":"cebpf4jnsgd1na2vs0mg"},{"bike_id":"b8894fc1-f3b0-43cc-9f58-90b4c68418d7","system_id":"levelo_inurba_marseille","lat":43.289184,"lon":5.366408,"is_reserved":false,"is_disabled":false,"rental_uris":{"android":"levelo://app?vid=b8894fc1-f3b0-43cc-9f58-90b4c68418d7","ios":"levelo://app?vid=b8894fc1-f3b0-43cc-9f58-90b4c68418d7"},"vehicle_type_id":"4","last_reported":1710522417,"current_range_meters":19200,"station_id":"ce4bhap2rcd13ifvqek0","pricing_plan_id":"cebpf4jnsgd1na2vs0mg"},{"bike_id":"50fc8749-25cc-4cc8-b9e5-39dc6b5cd3c3","system_id":"levelo_inurba_marseille","lat":43.289184,"lon":5.366408,"is_reserved":false,"is_disabled":false,"rental_uris":{"android":"levelo://app?vid=50fc8749-25cc-4cc8-b9e5-39dc6b5cd3c3","ios":"levelo://app?vid=50fc8749-25cc-4cc8-b9e5-39dc6b5cd3c3"},