{"last_updated":1729055371,"ttl":60,"version":"2.2","data":{"bikes":[{"bike_id":"488cc52e-690c-4348-900f-2cee32ad7416","system_id":"levelo_inurba_marseille","lat":43.31717,"lon":5.42402,"is_reserved":false,"is_disabled":false,"rental_uris":{"android":"levelo://app?vid=488cc52e-690c-4348-900f-2cee32ad7416","ios":"levelo://app?vid=488cc52e-690c-4348-900f-2cee32ad7416"},"vehicle_type_id":"4","last_reported":1729055371,"current_range_meters":37600,"station_id":"ce4bhp92rcd13ifvqhbg","pricing_plan_id":"cebpf4jnsgd1na2vs0mg"},{"bike_id":"e129ef36-6da0-4b87-a7fe-b1c842f217fb","system_id":"levelo_inurba_marseille","lat":43.27812,"lon":5.40717,"is_reserved":false,"is_disabled":false,"rental_uris":{"android":"levelo://app?vid=e129ef36-6da0-4b87-a7fe-b1c842f217fb","ios":"levelo://app?vid=e129ef36-6da0-4b87-a7fe-b1c842f217fb"},"vehicle_type_id":"4","last_reported":1729055371,"current_range_meters":38400,"station_id":"ce4bhnh2rcd13ifvqgtg","pricing_plan_id":"cebpf4jnsgd1na2vs0mg"},{"bike_id":"59277583-c6e6-42b2-9e1b-aa0815e80425","system_id":"levelo_inurba_marseille","lat":43.30282,"lon":5.37693,"is_reserved":false,"is_disabled":false,"rental_uris":{"android":"levelo://app?vid=59277583-c6e6-42b2-9e1b-aa0815e80425","ios":"levelo://app?vid=59277583-c6e6-42b2-9e1b-aa0815e80425"},"vehicle_type_id":"4","last_reported":1729055371,"current_range_meters":37600,"station_id":"ce4bguh2rcd13ifvqcj0","pricing_plan_id":"cebpf4jnsgd1na2vs0mg"},{"bike_id":"8bcc55dc-5155-4368-ad38-0efe5d47f711","system_id":"levelo_inurba_marseille","lat":43.30318,"lon":5.368837,"is_reserved":false,"is_disabled":false,"rental_uris":{"android":"levelo://app?vid=8bcc55dc-5155-4368-ad38-0efe5d47f711","ios":"levelo://app?vid=8bcc55dc-5155-4368-ad38-0efe5d47f711"},"vehicle_type_id":"4","last_reported":1729055371,"current_range_meters":36400,"station_id":"ce4bgqh2rcd13ifvqc5g","pricing_plan_id":"cebpf4jnsgd1na2vs0mg"},{"bike_id":"805cf10d-9632-4f1a-9f3a-80b24a4fbac6","system_id":"levelo_inurba_marseille","lat":43.29807,"lon":5.41345,"is_reserved":false,"is_disabled":false,"rental_uris":{"android":"levelo://app?vid=805cf10d-9632-4f1a-9f3a-80b24a4fbac6","ios":"levelo://app?vid=805cf10d-9632-4f1a-9f3a-80b24a4fbac6"},"vehicle_type_id":"4","last_reported":1729055371,"current_range_meters":6400,"station_id":"","pricing_plan_id":"cebpf4jnsgd1na2vs0mg"},{"bike_id":"db95dd30-88ae-4985-9a96-ae5ac75e3266","system_id":"levelo_inurba_marseille","lat":43.27211,"lon":5.39185,"is_reserved":false,"is_disabled":false,"rental_uris":{"android":"levelo://app?vid=db95dd30-88ae-4985-9a96-ae5ac75e3266","ios":"levelo://app?vid=db95dd30-88ae-4985-9a96-ae5ac75e3266"},"vehicle_type_id":"4","last_reported":1729055371,"current_range_meters":18800,"station_id":"","pricing_plan_id":"cebpf4jnsgd1na2vs0mg"},{"bike_id":"cfe73e5c-7ebb-4210-90c2-561d224255b1","system_id":"levelo_inurba_marseille","lat":43.31068,"lon":5.38349,"is_reserved":false,"is_disabled":false,"rental_uris":{"android":"levelo://app?vid=cfe73e5c-7ebb-4210-90c2-561d224255b1","ios":"levelo://app?vid=cfe73e5c-7ebb-4210-90c2-561d224255b1"},"vehicle_type_id":"4","last_reported":1729055371,"current_range_meters":38400,"station_id":"ce4bgv92rcd13ifvqcr0","pricing_plan_id":"cebpf4jnsgd1na2vs0mg"},{"bike_id":"4216942e-9cbe-4dd5-83c1-1e159601b24a","system_id":"levelo_inurba_marseille","lat":43.287311,"lon":5.360854,"is_reserved":false,"is_disabled":false,"rental_uris":{"android":"levelo://app?vid=4216942e-9cbe-4dd5-83c1-1e159601b24a","ios":"levelo://app?vid=4216942e-9cbe-4dd5-83c1-1e159601b24a"},"vehicle_type_id":"4","last_reported":1729055371,"current_range_meters":32400,"station_id":"cki0cbj6b192h4jlfktg","pricing_plan_id":"cebpf4jnsgd1na2vs0mg"},{"bike_id":"d5b68e87-2ebc-4e31-ab72-aed8d3d36222","system_id":"levelo_inurba_marseille","lat":43.29983,"lon":5.37184,"is_reserved":false,"is_disabled":false,"rental_uris":{"android":"levelo://app?vid=d5b68e87-2ebc-4e31-ab72-aed8d3d36222","ios":"levelo://app?vid=d5b68e87-2ebc-4e31-ab72-aed8d3d36222"},"vehicle_type_id":"4","last_reported":1729055371,"current_range_meters":27600,"station_id":"ce4bgr92rcd13ifvqc7g","pricing_plan_id":"cebpf4jnsgd1na2vs0mg"},{"bike_id":"318f5f75-374f-4d15-846a-293ae4b5b825","system_id":"levelo_inurba_marseille","lat":43.27921,"lon":5.39586,"is_reserved":false,"is_disabled":false,"rental_uris":{"android":"levelo://app?vid=318f5f75-374f-4d15-846a-293ae4b5b825","ios":"levelo://app?vid=318f5f75-374f-4d15-846a-293ae4b5b825"},"vehicle_type_id":"4","last_reported":1729055371,"current_range_meters":36400,"station_id":"ce4bhf92rcd13ifvqf40","pricing_plan_id":"cebpf4jnsgd1na2vs0mg"},{"bike_id":"efa01249-b5d4-43e4-9265-ea038fbfed37","system_id":"levelo_inurba_marseille","lat":43.30138,"lon":5.38066,"is_reserved":false,"is_disabled":false,"rental_uris":{"android":"levelo://app?vid=efa01249-b5d4-43e4-9265-ea038fbfed37","ios":"levelo://app?vid=efa01249-b5d4-43e4-9265-ea038fbfed37"},"vehicle_type_id":"4","last_reported":1729055371,"current_range_meters":16800,"station_id":"ce4bgjp2rcd13ifvqbh0","pricing_plan_id":"cebpf4jnsgd1na2vs0mg"},{"bike_id":"8aca930d-2c77-435a-bbcd-cf4f4d726973","system_id":"levelo_inurba_marseille","lat":43.2841,"lon":5.37503,"is_reserved":false,"is_disabled":false,"rental_uris":{"android":"levelo://app?vid=8aca930d-2c77-435a-bbcd-cf4f4d726973","ios":"levelo://app?vid=8aca930d-2c77-435a-bbcd-cf4f4d726973"},"vehicle_type_id":"4","last_reported":1729055371,"current_range_meters":33200,"station_id":"ce4bh412rcd13ifvqds0","pricing_plan_id":"cebpf4jnsgd1na2vs0mg"},{"bike_id":"decf65b9-49aa-457a-b1da-f13e96b87098","system_id":"levelo_inurba_marseille","lat":43.27496,"lon":5.4245,"is_reserved":false,"is_disabled":false,"rental_uris":{"android":"levelo://app?vid=decf65b9-49aa-457a-b1da-f13e96b87098","ios":"levelo://app?vid=decf65b9-49aa-457a-b1da-f13e96b87098"},"vehicle_type_id":"4","last_reported":1729055371,"current_range_meters":31200,"station_id":"ce4bhn92rcd13ifvqgrg","pricing_plan_id":"cebpf4jnsgd1na2vs0mg"},{"bike_id":"b18fcf63-b616-4442-b83d-455e6e635209","system_id":"levelo_inurba_marseille","lat":43.28471,"lon":5.35887,"is_reserved":false,"is_disabled":false,"rental_uris":{"android":"levelo://app?vid=b18fcf63-b616-4442-b83d-455e6e635209","ios":"levelo://app?vid=b18fcf63-b616-4442-b83d-455e6e635209"},"vehicle_type_id":"4","last_reported":1729055371,"current_range_meters":27600,"station_id":"ce4bhah2rcd13ifvqei0","pricing_plan_id":"cebpf4jnsgd1na2vs0mg"},{"bike_id":"b46e07ab-d1d7-4083-af74-ea8e1b514915","system_id":"levelo_inurba_marseille","lat":43.30249,"lon":5.40062,"is_reserved":false,"is_disabled":false,"rental_uris":{"android":"levelo://app?vid=b46e07ab-d1d7-4083-af74-ea8e1b514915","ios":"levelo://app?vid=b46e07ab-d1d7-4083-af74-ea8e1b514915"},"vehicle_type_id":"4","last_reported":1729055371,"current_range_meters":11600,"station_id":"ce4bgvh2rcd13ifvqcs0","pricing_plan_id":"cebpf4jnsgd1na2vs0mg"},{"bike_id":"3f641595-d31a-4692-866d-22475b982a97","system_id":"levelo_inurba_marseille","lat":43.30928,"lon":5.40149,"is_reserved":false,"is_disabled":false,"rental_uris":{"android":"levelo://app?vid=3f641595-d31a-4692-866d-22475b982a97","ios":"levelo://app?vid=3f641595-d31a-4692-866d-22475b982a97"},"vehicle_type_id":"4","last_reported":1729055371,"current_range_meters":38000,"station_id":"ce4bgvp2rcd13ifvqct0","pricing_plan_id":"cebpf4jnsgd1na2vs0mg"},{"bike_id":"8dc88361-e5e8-4b7b-a8f8-5a05e108c642","system_id":"levelo_inurba_marseille","lat":43.30934,"lon":5.40146,"is_reserved":false,"is_disabled":false,"rental_uris":{"android":"levelo://app?vid=8dc88361-e5e8-4b7b-a8f8-5a05e108c642","ios":"levelo://app?vid=8dc88361-e5e8-4b7b-a8f8-5a05e108c642"},"vehicle_type_id":"4","last_reported":1729055371,"current_range_meters":38800,"station_id":"ce4bgvp2rcd13ifvqct0","pricing_plan_id":"cebpf4jnsgd1na2vs0mg"},{"bike_id":"4d0b1081-f67d-4ab4-aaa5-91ab11f1ee6d","system_id":"levelo_inurba_marseille","lat":43.28342,"lon":5.38096,"is_reserved":false,"is_disabled":false,"rental_uris":{"android":"levelo://app?vid=4d0b1081-f67d-4ab4-aaa5-91ab11f1ee6d","ios":"levelo://app?vid=4d0b1081-f67d-4ab4-aaa5-91ab11f1ee6d"},"vehicle_type_id":"4","last_reported":1729055371,"current_range_meters":38000,"station_id":"ce4bh412rcd13ifvqdr0","pricing_plan_id":"cebpf4jnsgd1na2vs0mg"},{"bike_id":"ab400425-760c-44ba-aaa3-e0960ca07f7c","system_id":"levelo_inurba_marseille","lat":43.30351,"lon":5.41869,"is_reserved":false,"is_disabled":false,"rental_uris":{"android":"levelo://app?vid=ab400425-760c-44ba-aaa3-e0960ca07f7c","ios":"levelo://app?vid=ab400425-760c-44ba-aaa3-e0960ca07f7c"},"vehicle_type_id":"4","last_reported":1729055371,"current_range_meters":37600,"station_id":"ce4bhop2rcd13ifvqh7g","pricing_plan_id":"cebpf4jnsgd1na2vs0mg"},{"bike_id":"78d41e4e-8e05-46fc-9224-6e3514c07c96","system_id":"levelo_inurba_marseille","lat":43.29008,"lon":5.35611,"is_reserved":false,"is_disabled":false,"rental_uris":{"android":"levelo://app?vid=78d41e4e-8e05-46fc-9224-6e3514c07c96","ios":"levelo://app?vid=78d41e4e-8e05-46fc-9224-6e3514c07c96"},"vehicle_type_id":"4","last_reported":1729055371,"current_range_meters":7200,"station_id":"ce4bhb92rcd13ifvqen0","pricing_plan_id":"cebpf4jnsgd1na2vs0mg"},{"bike_id":"d7922674-dfe5-481c-bb44-eee270283f99","system_id":"levelo_inurba_marseille","lat":43.25821,"lon":5.39436,"is_reserved":false,"is_disabled":false,"rental_uris":{"android":"levelo://app?vid=d7922674-dfe5-481c-bb44-eee270283f99","ios":"levelo://app?vid=d7922674-dfe5-481c-bb44-eee270283f99"},"vehicle_type_id":"4","last_reported":1729055371,"current_range_meters":37600,"station_id":"ce4bhip2rcd13ifvqft0","pricing_plan_id":"cebpf4jnsgd1na2vs0mg"},{"bike_id":"568ce9e5-db70-48c7-8491-aef68fc28c1b","system_id":"levelo_inurba_marseille","lat":43.27622,"lon":5.36108,"is_reserved":false,"is_disabled":false,"rental_uris":{"android":"levelo://app?vid=568ce9e5-db70-48c7-8491-aef68fc28c1b","ios":"levelo://app?vid=568ce9e5-db70-48c7-8491-aef68fc28c1b"},"vehicle_type_id":"4","last_reported":1729055371,"current_range_meters":38000,"station_id":"ce4bgj92rcd13ifvqbe0","pricing_plan_id":"cebpf4jnsgd1na2vs0mg"},{"bike_id":"5554a15a-3e77-4957-960a-9fd3bb5c6cef","system_id":"levelo_inurba_marseille","lat":43.32001,"lon":5.3815,"is_reserved":false,"is_disabled":false,"rental_uris":{"android":"levelo://app?vid=5554a15a-3e77-4957-960a-9fd3bb5c6cef","ios":"levelo://app?vid=5554a15a-3e77-4957-960a-9fd3bb5c6cef"},"vehicle_type_id":"4","last_reported":1729055371,"current_range_meters":38800,"station_id":"ce4bhr12rcd13ifvqhpg","pricing_plan_id":"cebpf4jnsgd1na2vs0mg"},{"bike_id":"2f093790-17f4-4fdc-988d-a2c63f58fc61","system_id":"levelo_inurba_marseille","lat":43.28419,"lon":5.34988,"is_reserved":false,"is_disabled":false,"rental_uris":{"android":"levelo://app?vid=2f093790-17f4-4fdc-988d-a2c63f58fc61","ios":"levelo://app?vid=2f093790-17f4-4fdc-988d-a2c63f58fc61"},"vehicle_type_id":"4","last_reported":1729055371,"current_range_meters":38800,"station_id":"ce4bhbh2rcd13ifvqepg","pricing_plan_id":"cebpf4jnsgd1na2vs0mg"},{"bike_id":"ec37a152-088b-4f9d-b4d4-76769f448735","system_id":"levelo_inurba_marseille","lat":43.28031,"lon":5.40386,"is_reserved":false,"is_disabled":false,"rental_uris":{"android":"levelo://app?vid=ec37a152-088b-4f9d-b4d4-76769f448735","ios":"levelo://app?vid=ec37a152-088b-4f9d-b4d4-76769f448735"},"vehicle_type_id":"4","last_reported":1729055371,"current_range_meters":37600,"station_id":"","pricing_plan_id":"cebpf4jnsgd1na2vs0mg"},{"bike_id":"e3326e25-5ffc-4823-b2f2-35a5725410f4","system_id":"levelo_inurba_marseille","lat":43.262004,"lon":5.379211,"is_reserved":false,"is_disabled":false,"rental_uris":{"android":"levelo://app?vid=e3326e25-5ffc-4823-b2f2-35a5725410f4","ios":"levelo://app?vid=e3326e25-5ffc-4823-b2f2-35a5725410f4"},"vehicle_type_id":"4","last_reported":1729055371,"current_range_meters":37600,"station_id":"ce4bhjp2rcd13ifvqg90","pricing_plan_id":"cebpf4jnsgd1na2vs0mg"},{"bike_id":"2f2a1e93-4e90-4c49-82b8-eb1c10ab2ba3","system_id":"levelo_inurba_marseille","lat":43.25724,"lon":5.41114,"is_reserved":false,"is_disabled":false,"rental_uris":{"android":"levelo://app?vid=2f2a1e93-4e90-4c49-82b8-eb1c10ab2ba3","ios":"levelo://app?vid=2f2a1e93-4e90-4c49-82b8-eb1c10ab2ba3"},"vehicle_type_id":"4","last_reported":1729055371,"current_range_meters":16800,"station_id":"ce4bhkp2rcd13ifvqgd0","pricing_plan_id":"cebpf4jnsgd1na2vs0mg"},{"bike_id":"61b661fe-85fb-427c-a32c-b9e78e89215d","system_id":"levelo_inurba_marseille","lat":43.28488,"lon":5.38427,"is_reserved":false,"is_disabled":false,"rental_uris":{"android":"levelo://app?vid=61b661fe-85fb-427c-a32c-b9e78e89215d","ios":"levelo://app?vid=61b661fe-85fb-427c-a32c-b9e78e89215d"},"vehicle_type_id":"4","last_reported":1729055371,"current_range_meters":38400,"station_id":"ce4bh512rcd13ifvqe3g","pricing_plan_id":"cebpf4jnsgd1na2vs0mg"},{"bike_id":"5a0c6fc9-bccc-439f-b63e-7505d24371dc","system_id":"levelo_inurba_marseille","lat":43.265702,"lon":5.390071,"is_reserved":false,"is_disabled":false,"rental_uris":{"android":"levelo://app?vid=5a0c6fc9-bccc-439f-b63e-7505d24371dc","ios":"levelo://app?vid=5a0c6fc9-bccc-439f-b63e-7505d24371dc"},"vehicle_type_id":"4","last_reported":1729055371,"current_range_meters":31200,"station_id":"ce4bhe12rcd13ifvqf30","pricing_plan_id":"cebpf4jnsgd1na2vs0mg"},{"bike_id":"9c3cb970-41d8-41aa-aaea-d1e07f54482c","system_id":"levelo_inurba_marseille","lat":43.29969,"lon":5.369901,"is_reserved":false,"is_disabled":false,"rental_uris":{"android":"levelo://app?vid=9c3cb970-41d8-41aa-aaea-d1e07f54482c","ios":"levelo://app?vid=9c3cb970-41d8-41aa-aaea-d1e07f54482c"},"vehicle_type_id":"4","last_reported":1729055371,"current_range_meters":36000,"station_id":"ce4bhb92rcd13ifvqen0","pricing_plan_id":"cebpf4jnsgd1na2vs0mg"},{"bike_id":"2eb21c34-2201-4c7e-8964-700706d6f092","system_id":"levelo_inurba_marseille","lat":43.29269,"lon":5.40169,"is_reserved":false,"is_disabled":false,"rental_uris":{"android":"levelo://app?vid=2eb21c34-2201-4c7e-8964-700706d6f092","ios":"levelo://app?vid=2eb21c34-2201-4c7e-8964-700706d6f092"},"vehicle_type_id":"4","last_reported":1729055371,"current_range_meters":38800,"station_id":"ce4bh312rcd13ifvqdk0","pricing_plan_id":"cebpf4jnsgd1na2vs0mg"},{"bike_id":"c5f5cb1d-6115-4834-a655-3c011396eda6","system_id":"levelo_inurba_marseille","lat":43.23183,"lon":5.3998,"is_reserved":false,"is_disabled":false,"rental_uris":{"android":"levelo://app?vid=c5f5cb1d-6115-4834-a655-3c011396eda6","ios":"levelo://app?vid=c5f5cb1d-6115-4834-a655-3c011396eda6"},"vehicle_type_id":"4","last_reported":1729055371,"current_range_meters":17600,"station_id":"ce4bhn12rcd13ifvqgqg","pricing_plan_id":"cebpf4jnsgd1na2vs0mg"},{"bike_id":"1940278b-12b5-432a-b84d-6b8a75fa2fa2","system_id":"levelo_inurba_marseille","lat":43.28341,"lon":5.38104,"is_reserved":false,"is_disabled":false,"rental_uris":{"android":"levelo://app?vid=1940278b-12b5-432a-b84d-6b8a75fa2fa2","ios":"levelo://app?vid=1940278b-12b5-432a-b84d-6b8a75fa2fa2"},"vehicle_type_id":"4","last_reported":1729055371,"current_range_meters":37600,"station_id":"ce4bh412rcd13ifvqdr0","pricing_plan_id":"cebpf4jnsgd1na2vs0mg"},{"bike_id":"ddf224f4-4bf7-42c2-958f-f589210f5a0d","system_id":"levelo_inurba_marseille","lat":43.3016,"lon":5.38061,"is_reserved":false,"is_disabled":false,"rental_uris":{"android":"levelo://app?vid=ddf224f4-4bf7-42c2-958f-f589210f5a0d","ios":"levelo://app?vid=ddf224f4-4bf7-42c2-958f-f589210f5a0d"},"vehicle_type_id":"4","last_reported":1729055371,"current_range_meters":37600,"station_id":"ce4bgjp2rcd13ifvqbh0","pricing_plan_id":"cebpf4jnsgd1na2vs0mg"},{"bike_id":"c3e31577-2eeb-4678-bf80-c33bdb197089","system_id":"levelo_inurba_marseille","lat":43.29313,"lon":5.37452,"is_reserved":false,"is_disabled":false,"rental_uris":{"android":"levelo://app?vid=c3e31577-2eeb-4678-bf80-c33bdb197089","ios":"levelo://app?vid=c3e31577-2eeb-4678-bf80-c33bdb197089"},"vehicle_type_id":"4","last_reported":1729055371,"current_range_meters":37600,"station_id":"ce4bgi12rcd13ifvqb70","pricing_plan_id":"cebpf4jnsgd1na2vs0mg"},{"bike_id":"ee49d280-8642-44e8-88fa-bdc417029b8c","system_id":"levelo_inurba_marseille","lat":43.26684,"lon":5.38265,"is_reserved":false,"is_disabled":false,"rental_uris":{"android":"levelo://app?vid=ee49d280-8642-44e8-88fa-bdc417029b8c","ios":"levelo://app?vid=ee49d280-8642-44e8-88fa-bdc417029b8c"},"vehicle_type_id":"4","last_reported":1729055371,"current_range_meters":37600,"station_id":"ce4bhg92rcd13ifvqf90","pricing_plan_id":"cebpf4jnsgd1na2vs0mg"},{"bike_id":"c87ea7fc-8658-4fe5-9323-997ad23c2057","system_id":"levelo_inurba_marseille","lat":43.31171,"lon":5.38718,"is_reserved":false,"is_disabled":false,"rental_uris":{"android":"levelo://app?vid=c87ea7fc-8658-4fe5-9323-997ad23c2057","ios":"levelo://app?vid=c87ea7fc-8658-4fe5-9323-997ad23c2057"},"vehicle_type_id":"4","last_reported":1729055371,"current_range_meters":38800,"station_id":"ce4bgv12rcd13ifvqcp0","pricing_plan_id":"cebpf4jnsgd1na2vs0mg"},{"bike_id":"6232b4d9-b37d-4acb-9c65-49657ed81111","system_id":"levelo_inurba_marseille","lat":43.30464,"lon":5.37905,"is_reserved":false,"is_disabled":false,"rental_uris":{"android":"levelo://app?vid=6232b4d9-b37d-4acb-9c65-49657ed81111","ios":"levelo://app?vid=6232b4d9-b37d-4acb-9c65-49657ed81111"},"vehicle_type_id":"4","last_reported":1729055371,"current_range_meters":39200,"station_id":"ce4bgup2rcd13ifvqcn0","pricing_plan_id":"cebpf4jnsgd1na2vs0mg"},{"bike_id":"a303803f-aabf-4f43-95f1-5b32cb63b28c","system_id":"levelo_inurba_marseille","lat":43.32044,"lon":5.41547,"is_reserved":false,"is_disabled":false,"rental_uris":{"android":"levelo://app?vid=a303803f-aabf-4f43-95f1-5b32cb63b28c","ios":"levelo://app?vid=a303803f-aabf-4f43-95f1-5b32cb63b28c"},"vehicle_type_id":"4","last_reported":1729055371,"current_range_meters":38800,"station_id":"ce4bhq92rcd13ifvqhkg","pricing_plan_id":"cebpf4jnsgd1na2vs0mg"},{"bike_id":"a4e0ecf5-e792-4bd6-8132-6b62272b4e5d","system_id":"levelo_inurba_marseille","lat":43.3137,"lon":5.38497,"is_reserved":false,"is_disabled":false,"rental_uris":{"android":"levelo://app?vid=a4e0ecf5-e792-4bd6-8132-6b62272b4e5d","ios":"levelo://app?vid=a4e0ecf5-e792-4bd6-8132-6b62272b4e5d"},"vehicle_type_id":"4","last_reported":1729055371,"current_range_meters":38000,"station_id":"ce4bgt92rcd13ifvqcf0","pricing_plan_id":"cebpf4jnsgd1na2vs0mg"},{"bike_id":"a7ff9e42-e3e4-48e1-9d6a-70e06dd8acba","system_id":"levelo_inurba_marseille","lat":43.30424,"lon":5.39756,"is_reserved":false,"is_disabled":false,"rental_uris":{"android":"levelo://app?vid=a7ff9e42-e3e4-48e1-9d6a-70e06dd8acba","ios":"levelo://app?vid=a7ff9e42-e3e4-48e1-9d6a-70e06dd8acba"},"vehicle_type_id":"4","last_reported":1729055371,"current_range_meters":38800,"station_id":"ce4bh092rcd13ifvqd20","pricing_plan_id":"cebpf4jnsgd1na2vs0mg"},{"bike_id":"d6eb8cbc-ecfc-42ea-bb9b-e72d219e2333","system_id":"levelo_inurba_marseille","lat":43.3189,"lon":5.40727,"is_reserved":false,"is_disabled":false,"rental_uris":{"android":"levelo://app?vid=d6eb8cbc-ecfc-42ea-bb9b-e72d219e2333","ios":"levelo://app?vid=d6eb8cbc-ecfc-42ea-bb9b-e72d219e2333"},"vehicle_type_id":"4","last_reported":1729055371,"current_range_meters":37600,"station_id":"ce4bhq12rcd13ifvqhig","pricing_plan_id":"cebpf4jnsgd1na2vs0mg"},{"bike_id":"17eddf16-8fe7-49e7-9f43-aca3b8920a2e","system_id":"levelo_inurba_marseille","lat":43.305406,"lon":5.384302,"is_reserved":false,"is_disabled":false,"rental_uris":{"android":"levelo://app?vid=17eddf16-8fe7-49e7-9f43-aca3b8920a2e","ios":"levelo://app?vid=17eddf16-8fe7-49e7-9f43-aca3b8920a2e"},"vehicle_type_id":"4","last_reported":1729055371,"current_range_meters":38800,"station_id":"ce4bgg92rcd13ifvqb30","pricing_plan_id":"cebpf4jnsgd1na2vs0mg"},{"bike_id":"c62ae0a3-98fd-446e-8488-9ae7c9fd29c4","system_id":"levelo_inurba_marseille","lat":43.29298,"lon":5.37458,"is_reserved":false,"is_disabled":false,"rental_uris":{"android":"levelo://app?vid=c62ae0a3-98fd-446e-8488-9ae7c9fd29c4","ios":"levelo://app?vid=c62ae0a3-98fd-446e-8488-9ae7c9fd29c4"},"vehicle_type_id":"4","last_reported":1729055371,"current_range_meters":38800,"station_id":"ce4bgi12rcd13ifvqb70","pricing_plan_id":"cebpf4jnsgd1na2vs0mg"},{"bike_id":"584c0fe7-ef9a-4b43-9d6a-cc94378394e6","system_id":"levelo_inurba_marseille","lat":43.28853,"lon":5.35839,"is_reserved":false,"is_disabled":false,"rental_uris":{"android":"levelo://app?vid=584c0fe7-ef9a-4b43-9d6a-cc94378394e6","ios":"levelo://app?vid=584c0fe7-ef9a-4b43-9d6a-cc94378394e6"},"vehicle_type_id":"4","last_reported":1729055371,"current_range_meters":34800,"station_id":"ce4bhb12rcd13ifvqem0","pricing_plan_id":"cebpf4jnsgd1na2vs0mg"},{"bike_id":"af07f611-6fcc-4d43-89a9-9dd7e86f2746","system_id":"levelo_inurba_marseille","lat":43.28468,"lon":5.35876,"is_reserved":false,"is_disabled":false,"rental_uris":{"android":"levelo://app?vid=af07f611-6fcc-4d43-89a9-9dd7e86f2746","ios":"levelo://app?vid=af07f611-6fcc-4d43-89a9-9dd7e86f2746"},"vehicle_type_id":"4","last_reported":1729055371,"current_range_meters":38800,"station_id":"ce4bhah2rcd13ifvqei0","pricing_plan_id":"cebpf4jnsgd1na2vs0mg"},{"bike_id":"a3049d6a-acd5-40a1-b58b-07c42f9f0bbc","system_id":"levelo_inurba_marseille","lat":43.31708,"lon":5.43707,"is_reserved":false,"is_disabled":false,"rental_uris":{"android":"levelo://app?vid=a3049d6a-acd5-40a1-b58b-07c42f9f0bbc","ios":"levelo://app?vid=a3049d6a-acd5-40a1-b58b-07c42f9f0bbc"},"vehicle_type_id":"4","last_reported":1729055371,"current_range_meters":38000,"station_id":"ce4bhp92rcd13ifvqhcg","pricing_plan_id":"cebpf4jnsgd1na2vs0mg"},{"bike_id":"024af8a9-895b-4c18-bfa1-97a4721540d4","system_id":"levelo_inurba_marseille","lat":43.28734,"lon":5.36075,"is_reserved":false,"is_disabled":false,"rental_uris":{"android":"levelo://app?vid=024af8a9-895b-4c18-bfa1-97a4721540d4","ios":"levelo://app?vid=024af8a9-895b-4c18-bfa1-97a4721540d4"},"vehicle_type_id":"4","last_reported":1729055371,"current_range_meters":37600,"station_id":"cki0cbj6b192h4jlfktg","pricing_plan_id":"cebpf4jnsgd1na2vs0mg"},{"bike_id":"b7b45f76-2766-4920-9541-dd0bb8320dd4","system_id":"levelo_inurba_marseille","lat":43.28857,"lon":5.35841,"is_reserved":false,"is_disabled":false,"rental_uris":{"android":"levelo://app?vid=b7b45f76-2766-4920-9541-dd0bb8320dd4","ios":"levelo://app?vid=b7b45f76-2766-4920-9541-dd0bb8320dd4"},"vehicle_type_id":"4","last_reported":1729055371,"current_range_meters":32800,"station_id":"ce4bhb12rcd13ifvqem0","pricing_plan_id":"cebpf4jnsgd1na2vs0mg"},{"bike_id":"c77ea266-271c-4ea2-a8dc-337f7c85044f","system_id":"levelo_inurba_marseille","lat":43.28155,"lon":5.42646,"is_reserved":false,"is_disabled":false,"rental_uris":{"android":"levelo://app?vid=c77ea266-271c-4ea2-a8dc-337f7c85044f","ios":"levelo://app?vid=c77ea266-271c-4ea2-a8dc-337f7c85044f"},"vehicle_type_id":"4","last_reported":1729055371,"current_range_meters":38800,"station_id":"ce4bhnh2rcd13ifvqgug","pricing_plan_id":"cebpf4jnsgd1na2vs0mg"},{"bike_id":"ad9b6315-8976-47a8-a4a8-89ad67585dad","system_id":"levelo_inurba_marseille","lat":43.27924,"lon":5.3958,"is_reserved":false,"is_disabled":false,"rental_uris":{"android":"levelo://app?vid=ad9b6315-8976-47a8-a4a8-89ad67585dad","ios":"levelo://app?vid=ad9b6315-8976-47a8-a4a8-89ad67585dad"},"vehicle_type_id":"4","last_reported":1729055371,"current_range_meters":36400,"station_id":"ce4bhf92rcd13ifvqf40","pricing_plan_id":"cebpf4jnsgd1na2vs0mg"},{"bike_id":"6e7afd62-d736-4ed9-9248-f4f82a390064","system_id":"levelo_inurba_marseille","lat":43.33602,"lon":5.41035,"is_reserved":false,"is_disabled":false,"rental_uris":{"android":"levelo://app?vid=6e7afd62-d736-4ed9-9248-f4f82a390064","ios":"levelo://app?vid=6e7afd62-d736-4ed9-9248-f4f82a390064"},"vehicle_type_id":"4","last_reported":1729055371,"current_range_meters":38800,"station_id":"ce4bhqh2rcd13ifvqhmg","pricing_plan_id":"cebpf4jnsgd1na2vs0mg"},{"bike_id":"73ef751c-1663-4138-9d82-e4aec617a886","system_id":"levelo_inurba_marseille","lat":43.23193,"lon":5.35553,"is_reserved":false,"is_disabled":false,"rental_uris":{"android":"levelo://app?vid=73ef751c-1663-4138-9d82-e4aec617a886","ios":"levelo://app?vid=73ef751c-1663-4138-9d82-e4aec617a886"},"vehicle_type_id":"4","last_reported":1729055371,"current_range_meters":38400,"station_id":"ce4bhu92rcd13ifvqi70","pricing_plan_id":"cebpf4jnsgd1na2vs0mg"},{"bike_id":"c206f2bc-a38a-4c52-9a65-41ef96813656","system_id":"levelo_inurba_marseille","lat":43.2893,"lon":5.38399,"is_reserved":false,"is_disabled":false,"rental_uris":{"android":"levelo://app?vid=c206f2bc-a38a-4c52-9a65-41ef96813656","ios":"levelo://app?vid=c206f2bc-a38a-4c52-9a65-41ef96813656"},"vehicle_type_id":"4","last_reported":1729055371,"current_range_meters":38800,"station_id":"ce4bh612rcd13ifvqe6g","pricing_plan_id":"cebpf4jnsgd1na2vs0mg"},{"bike_id":"5f866cdd-5cee-442e-81d2-26f78a203ab9","system_id":"levelo_inurba_marseille","lat":43.31999,"lon":5.38152,"is_reserved":false,"is_disabled":false,"rental_uris":{"android":"levelo://app?vid=5f866cdd-5cee-442e-81d2-26f78a203ab9","ios":"levelo://app?vid=5f866cdd-5cee-442e-81d2-26f78a203ab9"},"vehicle_type_id":"4","last_reported":1729055371,"current_range_meters":28400,"station_id":"ce4bhr12rcd13ifvqhpg","pricing_plan_id":"cebpf4jnsgd1na2vs0mg"},{"bike_id":"b2274dab-99bf-4443-be07-36c673c5bcbf","system_id":"levelo_inurba_marseille","lat":43.28616,"lon":5.351,"is_reserved":false,"is_disabled":false,"rental_uris":{"android":"levelo://app?vid=b2274dab-99bf-4443-be07-36c673c5bcbf","ios":"levelo://app?vid=b2274dab-99bf-4443-be07-36c673c5bcbf"},"vehicle_type_id":"4","last_reported":1729055371,"current_range_meters":38400,"station_id":"ce4bhch2rcd13ifvqeug","pricing_plan_id":"cebpf4jnsgd1na2vs0mg"},{"bike_id":"c58611c9-5610-40ca-9dff-13b158d6d313","system_id":"levelo_inurba_marseille","lat":43.316971,"lon":5.37735,"is_reserved":false,"is_disabled":false,"rental_uris":{"android":"levelo://app?vid=c58611c9-5610-40ca-9dff-13b158d6d313","ios":"levelo://app?vid=c58611c9-5610-40ca-9dff-13b158d6d313"},"vehicle_type_id":"4","last_reported":1729055371,"current_range_meters":27600,"station_id":"ce4bgth2rcd13ifvqch0","pricing_plan_id":"cebpf4jnsgd1na2vs0mg"},{"bike_id":"00bb97f8-22d9-4cd0-baad-258b5c726caf","system_id":"levelo_inurba_marseille","lat":43.29231,"lon":5.36074,"is_reserved":false,"is_disabled":false,"rental_uris":{"android":"levelo://app?vid=00bb97f8-22d9-4cd0-baad-258b5c726caf","ios":"levelo://app?vid=00bb97f8-22d9-4cd0-baad-258b5c726caf"},"vehicle_type_id":"4","last_reported":1729055371,"current_range_meters":6400,"station_id":"ce4bhbh2rcd13ifvqeqg","pricing_plan_id":"cebpf4jnsgd1na2vs0mg"},{"bike_id":"eb646d5e-71f3-41a5-8f49-b168b4fba9d8","system_id":"levelo_inurba_marseille","lat":43.27815,"lon":5.40719,"is_reserved":false,"is_disabled":false,"rental_uris":{"android":"levelo://app?vid=eb646d5e-71f3-41a5-8f49-b168b4fba9d8","ios":"levelo://app?vid=eb646d5e-71f3-41a5-8f49-b168b4fba9d8"},"vehicle_type_id":"4","last_reported":1729055371,"current_range_meters":12800,"station_id":"ce4bhnh2rcd13ifvqgtg","pricing_plan_id":"cebpf4jnsgd1na2vs0mg"},{"bike_id":"9ffd4a2e-3ad6-4e77-ae33-71adde6d2802","system_id":"levelo_inurba_marseille","lat":43.24066,"lon":5.37761,"is_reserved":false,"is_disabled":false,"rental_uris":{"android":"levelo://app?vid=9ffd4a2e-3ad6-4e77-ae33-71adde6d2802","ios":"levelo://app?vid=9ffd4a2e-3ad6-4e77-ae33-71adde6d2802"},"vehicle_type_id":"4","last_reported":1729055371,"current_range_meters":2800,"station_id":"ce4bhnp2rcd13ifvqgvg","pricing_plan_id":"cebpf4jnsgd1na2vs0mg"},{"bike_id":"71481030-be7c-45ef-aec0-5d27a155d482","system_id":"levelo_inurba_marseille","lat":43.316971,"lon":5.37759,"is_reserved":false,"is_disabled":false,"rental_uris":{"android":"levelo://app?vid=71481030-be7c-45ef-aec0-5d27a155d482","ios":"levelo://app?vid=71481030-be7c-45ef-aec0-5d27a155d482"},"vehicle_type_id":"4","last_reported":1729055371,"current_range_meters":38800,"station_id":"ce4bgth2rcd13ifvqch0","pricing_plan_id":"cebpf4jnsgd1na2vs0mg"},{"bike_id":"ded83da2-ac47-4af4-99a1-215e896c1d92","system_id":"levelo_inurba_marseille","lat":43.28266,"lon":5.3508,"is_reserved":false,"is_disabled":false,"rental_uris":{"android":"levelo://app?vid=ded83da2-ac47-4af4-99a1-215e896c1d92","ios":"levelo://app?vid=ded83da2-ac47-4af4-99a1-215e896c1d92"},"vehicle_type_id":"4","last_reported":1729055371,"current_range_meters":38400,"station_id":"ce4bhbp2rcd13ifvqerg","pricing_plan_id":"cebpf4jnsgd1na2vs0mg"},{"bike_id":"04d04fdb-3c86-46d3-9e0f-6db2a4c4cad4","system_id":"levelo_inurba_marseille","lat":43.31256,"lon":5.40177,"is_reserved":false,"is_disabled":false,"rental_uris":{"android":"levelo://app?vid=04d04fdb-3c86-46d3-9e0f-6db2a4c4cad4","ios":"levelo://app?vid=04d04fdb-3c86-46d3-9e0f-6db2a4c4cad4"},"vehicle_type_id":"4","last_reported":1729055371,"current_range_meters":38400,"station_id":"ce4bh092rcd13ifvqd30","pricing_plan_id":"cebpf4jnsgd1na2vs0mg"},{"bike_id":"a29f5c42-d856-4903-aeff-703588ee5e80","system_id":"levelo_inurba_marseille","lat":43.3237,"lon":5.38877,"is_reserved":false,"is_disabled":false,"rental_uris":{"android":"levelo://app?vid=a29f5c42-d856-4903-aeff-703588ee5e80","ios":"levelo://app?vid=a29f5c42-d856-4903-aeff-703588ee5e80"},"vehicle_type_id":"4","last_reported":1729055371,"current_range_meters":38000,"station_id":"ce4bhqp2rcd13ifvqhog","pricing_plan_id":"cebpf4jnsgd1na2vs0mg"},{"bike_id":"fa7bbdc9-afbe-404d-8676-647037cc76a9","system_id":"levelo_inurba_marseille","lat":43.232,"lon":5.35548,"is_reserved":false,"is_disabled":false,"rental_uris":{"android":"levelo://app?vid=fa7bbdc9-afbe-404d-8676-647037cc76a9","ios":"levelo://app?vid=fa7bbdc9-afbe-404d-8676-647037cc76a9"},"vehicle_type_id":"4","last_reported":1729055371,"current_range_meters":38800,"station_id":"ce4bhu92rcd13ifvqi70","pricing_plan_id":"cebpf4jnsgd1na2vs0mg"},{"bike_id":"6226a3cc-3cfd-40e6-ac49-747b76fcc877","system_id":"levelo_inurba_marseille","lat":43.32363,"lon":5.38885,"is_reserved":false,"is_disabled":false,"rental_uris":{"android":"levelo://app?vid=6226a3cc-3cfd-40e6-ac49-747b76fcc877","ios":"levelo://app?vid=6226a3cc-3cfd-40e6-ac49-747b76fcc877"},"vehicle_type_id":"4","last_reported":1729055371,"current_range_meters":27600,"station_id":"ce4bhqp2rcd13ifvqhog","pricing_plan_id":"cebpf4jnsgd1na2vs0mg"},{"bike_id":"6cf1fa10-bf80-4fc5-bf68-5c8328112d6f","system_id":"levelo_inurba_marseille","lat":43.30646,"lon":5.40067,"is_reserved":false,"is_disabled":false,"rental_uris":{"android":"levelo://app?vid=6cf1fa10-bf80-4fc5-bf68-5c8328112d6f","ios":"levelo://app?vid=6cf1fa10-bf80-4fc5-bf68-5c8328112d6f"},"vehicle_type_id":"4","last_reported":1729055371,"current_range_meters":36800,"station_id":"ce4bh112rcd13ifvqda0","pricing_plan_id":"cebpf4jnsgd1na2vs0mg"},{"bike_id":"d2440947-8f6b-40bd-a810-5423b90ba87b","system_id":"levelo_inurba_marseille","lat":43.28107,"lon":5.37831,"is_reserved":false,"is_disabled":false,"rental_uris":{"android":"levelo://app?vid=d2440947-8f6b-40bd-a810-5423b90ba87b","ios":"levelo://app?vid=d2440947-8f6b-40bd-a810-5423b90ba87b"},"vehicle_type_id":"4","last_reported":1729055371,"current_range_meters":38800,"station_id":"ce4bha12rcd13ifvqee0","pricing_plan_id":"cebpf4jnsgd1na2vs0mg"},{"bike_id":"ae1e93dc-c5da-4688-97fb-5814c931642a","system_id":"levelo_inurba_marseille","lat":43.2944,"lon":5.39747,"is_reserved":false,"is_disabled":false,"rental_uris":{"android":"levelo://app?vid=ae1e93dc-c5da-4688-97fb-5814c931642a","ios":"levelo://app?vid=ae1e93dc-c5da-4688-97fb-5814c931642a"},"vehicle_type_id":"4","last_reported":1729055371,"current_range_meters":35600,"station_id":"ce4bh3h2rcd13ifvqdo0","pricing_plan_id":"cebpf4jnsgd1na2vs0mg"},{"bike_id":"6a18c2eb-ff50-45e8-a988-5d6a8987cc15","system_id":"levelo_inurba_marseille","lat":43.29298,"lon":5.37452,"is_reserved":false,"is_disabled":false,"rental_uris":{"android":"levelo://app?vid=6a18c2eb-ff50-45e8-a988-5d6a8987cc15","ios":"levelo://app?vid=6a18c2eb-ff50-45e8-a988-5d6a8987cc15"},"vehicle_type_id":"4","last_reported":1729055371,"current_range_meters":38400,"station_id":"ce4bgi12rcd13ifvqb70","pricing_plan_id":"cebpf4jnsgd1na2vs0mg"},{"bike_id":"e439f200-513f-4baf-a94e-9c58b6122e2f","system_id":"levelo_inurba_marseille","lat":43.27816,"lon":5.40713,"is_reserved":false,"is_disabled":false,"rental_uris":{"android":"levelo://app?vid=e439f200-513f-4baf-a94e-9c58b6122e2f","ios":"levelo://app?vid=e439f200-513f-4baf-a94e-9c58b6122e2f"},"vehicle_type_id":"4","last_reported":1729055371,"current_range_meters":39200,"station_id":"ce4bhnh2rcd13ifvqgtg","pricing_plan_id":"cebpf4jnsgd1na2vs0mg"},{"bike_id":"62c69491-a263-4782-8c41-06dc1e539132","system_id":"levelo_inurba_marseille","lat":43.31115,"lon":5.38377,"is_reserved":false,"is_disabled":false,"rental_uris":{"android":"levelo://app?vid=62c69491-a263-4782-8c41-06dc1e539132","ios":"levelo://app?vid=62c69491-a263-4782-8c41-06dc1e539132"},"vehicle_type_id":"4","last_reported":1729055371,"current_range_meters":14400,"station_id":"ce4bgv92rcd13ifvqcr0","pricing_plan_id":"cebpf4jnsgd1na2vs0mg"},{"bike_id":"23b4a801-5d04-4e34-80f2-18d3432e7e31","system_id":"levelo_inurba_marseille","lat":43.30461,"lon":5.37905,"is_reserved":false,"is_disabled":false,"rental_uris":{"android":"levelo://app?vid=23b4a801-5d04-4e34-80f2-18d3432e7e31","ios":"levelo://app?vid=23b4a801-5d04-4e34-80f2-18d3432e7e31"},"vehicle_type_id":"4","last_reported":1729055371,"current_range_meters":28800,"station_id":"ce4bgup2rcd13ifvqcn0","pricing_plan_id":"cebpf4jnsgd1na2vs0mg"},{"bike_id":"afebca69-d99e-4e16-b749-e29d048e40ad","system_id":"levelo_inurba_marseille","lat":43.31272,"lon":5.401665,"is_reserved":false,"is_disabled":false,"rental_uris":{"android":"levelo://app?vid=afebca69-d99e-4e16-b749-e29d048e40ad","ios":"levelo://app?vid=afebca69-d99e-4e16-b749-e29d048e40ad"},"vehicle_type_id":"4","last_reported":1729055371,"current_range_meters":39200,"station_id":"ce4bh092rcd13ifvqd30","pricing_plan_id":"cebpf4jnsgd1na2vs0mg"},{"bike_id":"f481e932-7688-45a1-b4f9-41f97ea6905e","system_id":"levelo_inurba_marseille","lat":43.28434,"lon":5.39179,"is_reserved":false,"is_disabled":false,"rental_uris":{"android":"levelo://app?vid=f481e932-7688-45a1-b4f9-41f97ea6905e","ios":"levelo://app?vid=f481e932-7688-45a1-b4f9-41f97ea6905e"},"vehicle_type_id":"4","last_reported":1729055371,"current_range_meters":37600,"station_id":"ce4bhoh2rcd13ifvqh5g","pricing_plan_id":"cebpf4jnsgd1na2vs0mg"},{"bike_id":"1b901512-e347-4bf4-9c5d-106267a427c1","system_id":"levelo_inurba_marseille","lat":43.28151,"lon":5.42644,"is_reserved":false,"is_disabled":false,"rental_uris":{"android":"levelo://app?vid=1b901512-e347-4bf4-9c5d-106267a427c1","ios":"levelo://app?vid=1b901512-e347-4bf4-9c5d-106267a427c1"},"vehicle_type_id":"4","last_reported":1729055371,"current_range_meters":11600,"station_id":"ce4bhnh2rcd13ifvqgug","pricing_plan_id":"cebpf4jnsgd1na2vs0mg"},{"bike_id":"694d89bd-bac3-4c55-9600-80fe90f45ec4","system_id":"levelo_inurba_marseille","lat":43.3361,"lon":5.41026,"is_reserved":false,"is_disabled":false,"rental_uris":{"android":"levelo://app?vid=694d89bd-bac3-4c55-9600-80fe90f45ec4","ios":"levelo://app?vid=694d89bd-bac3-4c55-9600-80fe90f45ec4"},"vehicle_type_id":"4","last_reported":1729055371,"current_range_meters":38800,"station_id":"ce4bhqh2rcd13ifvqhmg","pricing_plan_id":"cebpf4jnsgd1na2vs0mg"},{"bike_id":"be3717e7-61b1-41a0-b1ad-41c04fa8efbf","system_id":"levelo_inurba_marseille","lat":43.29276,"lon":5.40138,"is_reserved":false,"is_disabled":false,"rental_uris":{"android":"levelo://app?vid=be3717e7-61b1-41a0-b1ad-41c04fa8efbf","ios":"levelo://app?vid=be3717e7-61b1-41a0-b1ad-41c04fa8efbf"},"vehicle_type_id":"4","last_reported":1729055371,"current_range_meters":36000,"station_id":"ce4bh312rcd13ifvqdk0","pricing_plan_id":"cebpf4jnsgd1na2vs0mg"},{"bike_id":"5bee4394-3c6f-4e0b-ae7f-af2244610f6e","system_id":"levelo_inurba_marseille","lat":43.31996,"lon":5.38151,"is_reserved":false,"is_disabled":false,"rental_uris":{"android":"levelo://app?vid=5bee4394-3c6f-4e0b-ae7f-af2244610f6e","ios":"levelo://app?vid=5bee4394-3c6f-4e0b-ae7f-af2244610f6e"},"vehicle_type_id":"4","last_reported":1729055371,"current_range_meters":29600,"station_id":"ce4bhr12rcd13ifvqhpg","pricing_plan_id":"cebpf4jnsgd1na2vs0mg"},{"bike_id":"f3c1853e-8b8e-47e4-8746-d00e45b18cdc","system_id":"levelo_inurba_marseille","lat":43.32484,"lon":5.36554,"is_reserved":false,"is_disabled":false,"rental_uris":{"android":"levelo://app?vid=f3c1853e-8b8e-47e4-8746-d00e45b18cdc","ios":"levelo://app?vid=f3c1853e-8b8e-47e4-8746-d00e45b18cdc"},"vehicle_type_id":"4","last_reported":1729055371,"current_range_meters":10800,"station_id":"ce4bhs12rcd13ifvqhvg","pricing_plan_id":"cebpf4jnsgd1na2vs0mg"},{"bike_id":"03b52a53-4015-42f1-a46b-0d68e4ef1cf1","system_id":"levelo_inurba_marseille","lat":43.30531,"lon":5.36704,"is_reserved":false,"is_disabled":false,"rental_uris":{"android":"levelo://app?vid=03b52a53-4015-42f1-a46b-0d68e4ef1cf1","ios":"levelo://app?vid=03b52a53-4015-42f1-a46b-0d68e4ef1cf1"},"vehicle_type_id":"4","last_reported":1729055371,"current_range_meters":37600,"station_id":"ce4bgrp2rcd13ifvqc9g","pricing_plan_id":"cebpf4jnsgd1na2vs0mg"},{"bike_id":"a0d3d324-fa7e-4417-aee7-85012ecab44e","system_id":"levelo_inurba_marseille","lat":43.34185,"lon":5.44496,"is_reserved":false,"is_disabled":false,"rental_uris":{"android":"levelo://app?vid=a0d3d324-fa7e-4417-aee7-85012ecab44e","ios":"levelo://app?vid=a0d3d324-fa7e-4417-aee7-85012ecab44e"},"vehicle_type_id":"4","last_reported":1729055371,"current_range_meters":19600,"station_id":"","pricing_plan_id":"cebpf4jnsgd1na2vs0mg"},{"bike_id":"11464164-ff49-44b6-bf9b-d6f30c72e482","system_id":"levelo_inurba_marseille","lat":43.28848,"lon":5.35852,"is_reserved":false,"is_disabled":false,"rental_uris":{"android":"levelo://app?vid=11464164-ff49-44b6-bf9b-d6f30c72e482","ios":"levelo://app?vid=11464164-ff49-44b6-bf9b-d6f30c72e482"},"vehicle_type_id":"4","last_reported":1729055371,"current_range_meters":38800,"station_id":"ce4bhb12rcd13ifvqem0","pricing_plan_id":"cebpf4jnsgd1na2vs0mg"},{"bike_id":"4468d376-e0df-4383-9961-4e841773cedf","system_id":"levelo_inurba_marseille","lat":43.27844,"lon":5.39206,"is_reserved":false,"is_disabled":false,"rental_uris":{"android":"levelo://app?vid=4468d376-e0df-4383-9961-4e841773cedf","ios":"levelo://app?vid=4468d376-e0df-4383-9961-4e841773cedf"},"vehicle_type_id":"4","last_reported":1729055371,"current_range_meters":39200,"station_id":"ce4bhjp2rcd13ifvqga0","pricing_plan_id":"cebpf4jnsgd1na2vs0mg"},{"bike_id":"7353d6dd-912b-4f39-af42-33c79e4d4e64","system_id":"levelo_inurba_marseille","lat":43.30934,"lon":5.40148,"is_reserved":false,"is_disabled":false,"rental_uris":{"android":"levelo://app?vid=7353d6dd-912b-4f39-af42-33c79e4d4e64","ios":"levelo://app?vid=7353d6dd-912b-4f39-af42-33c79e4d4e64"},"vehicle_type_id":"4","last_reported":1729055371,"current_range_meters":38000,"station_id":"ce4bgvp2rcd13ifvqct0","pricing_plan_id":"cebpf4jnsgd1na2vs0mg"},{"bike_id":"79e30f2a-dbb4-4e11-a8cc-e8d6312a0b59","system_id":"levelo_inurba_marseille","lat":43.29053,"lon":5.39947,"is_reserved":false,"is_disabled":false,"rental_uris":{"android":"levelo://app?vid=79e30f2a-dbb4-4e11-a8cc-e8d6312a0b59","ios":"levelo://app?vid=79e30f2a-dbb4-4e11-a8cc-e8d6312a0b59"},"vehicle_type_id":"4","last_reported":1729055371,"current_range_meters":38800,"station_id":"ce4bh392rcd13ifvqdm0","pricing_plan_id":"cebpf4jnsgd1na2vs0mg"},{"bike_id":"95f741e9-838a-427e-bdf2-b9e18947be7a","system_id":"levelo_inurba_marseille","lat":43.30424,"lon":5.39749,"is_reserved":false,"is_disabled":false,"rental_uris":{"android":"levelo://app?vid=95f741e9-838a-427e-bdf2-b9e18947be7a","ios":"levelo://app?vid=95f741e9-838a-427e-bdf2-b9e18947be7a"},"vehicle_type_id":"4","last_reported":1729055371,"current_range_meters":34000,"station_id":"ce4bh092rcd13ifvqd20","pricing_plan_id":"cebpf4jnsgd1na2vs0mg"},{"bike_id":"b230e516-8543-43c6-9736-060369d51530","system_id":"levelo_inurba_marseille","lat":43.30149,"lon":5.38079,"is_reserved":false,"is_disabled":false,"rental_uris":{"android":"levelo://app?vid=b230e516-8543-43c6-9736-060369d51530","ios":"levelo://app?vid=b230e516-8543-43c6-9736-060369d51530"},"vehicle_type_id":"4","last_reported":1729055371,"current_range_meters":36800,"station_id":"ce4bgjp2rcd13ifvqbh0","pricing_plan_id":"cebpf4jnsgd1na2vs0mg"},{"bike_id":"1dfcc51b-3ade-41cf-8d98-a84cc672bf59","system_id":"levelo_inurba_marseille","lat":43.30351,"lon":5.41876,"is_reserved":false,"is_disabled":false,"rental_uris":{"android":"levelo://app?vid=1dfcc51b-3ade-41cf-8d98-a84cc672bf59","ios":"levelo://app?vid=1dfcc51b-3ade-41cf-8d98-a84cc672bf59"},"vehicle_type_id":"4","last_reported":1729055371,"current_range_meters":38800,"station_id":"ce4bhop2rcd13ifvqh7g","pricing_plan_id":"cebpf4jnsgd1na2vs0mg"},{"bike_id":"304a2d48-cecb-41b4-9d5c-49528f04f880","system_id":"levelo_inurba_marseille","lat":43.32049,"lon":5.41533,"is_reserved":false,"is_disabled":false,"rental_uris":{"android":"levelo://app?vid=304a2d48-cecb-41b4-9d5c-49528f04f880","ios":"levelo://app?vid=304a2d48-cecb-41b4-9d5c-49528f04f880"},"vehicle_type_id":"4","last_reported":1729055371,"current_range_meters":39200,"station_id":"ce4bhq92rcd13ifvqhkg","pricing_plan_id":"cebpf4jnsgd1na2vs0mg"},{"bike_id":"0994d7f0-fa2e-480f-b967-2b1e1b476b78","system_id":"levelo_inurba_marseille","lat":43.23187,"lon":5.3556,"is_reserved":false,"is_disabled":false,"rental_uris":{"android":"levelo://app?vid=0994d7f0-fa2e-480f-b967-2b1e1b476b78","ios":"levelo://app?vid=0994d7f0-fa2e-480f-b967-2b1e1b476b78"},"vehicle_type_id":"4","last_reported":1729055371,"current_range_meters":23200,"station_id":"ce4bhu92rcd13ifvqi70","pricing_plan_id":"cebpf4jnsgd1na2vs0mg"},{"bike_id":"63c47bc5-f167-4a5a-a9c2-0376516d4eba","system_id":"levelo_inurba_marseille","lat":43.27897,"lon":5.37995,"is_reserved":false,"is_disabled":false,"rental_uris":{"android":"levelo://app?vid=63c47bc5-f167-4a5a-a9c2-0376516d4eba","ios":"levelo://app?vid=63c47bc5-f167-4a5a-a9c2-0376516d4eba"},"vehicle_type_id":"4","last_reported":1729055371,"current_range_meters":31200,"station_id":"ce4bhf92rcd13ifvqf50","pricing_plan_id":"cebpf4jnsgd1na2vs0mg"},{"bike_id":"4d423de8-5e22-441a-8848-ae5dc9d8eb39","system_id":"levelo_inurba_marseille","lat":43.33726,"lon":5.37455,"is_reserved":false,"is_disabled":false,"rental_uris":{"android":"levelo://app?vid=4d423de8-5e22-441a-8848-ae5dc9d8eb39","ios":"levelo://app?vid=4d423de8-5e22-441a-8848-ae5dc9d8eb39"},"vehicle_type_id":"4","last_reported":1729055371,"current_range_meters":6800,"station_id":"","pricing_plan_id":"cebpf4jnsgd1na2vs0mg"},{"bike_id":"580b1654-640b-4597-a067-3464faced946","system_id":"levelo_inurba_marseille","lat":43.31176,"lon":5.38709,"is_reserved":false,"is_disabled":false,"rental_uris":{"android":"levelo://app?vid=580b1654-640b-4597-a067-3464faced946","ios":"levelo://app?vid=580b1654-640b-4597-a067-3464faced946"},"vehicle_type_id":"4","last_reported":1729055371,"current_range_meters":38800,"station_id":"ce4bgv12rcd13ifvqcp0","pricing_plan_id":"cebpf4jnsgd1na2vs0mg"},{"bike_id":"66ccc46d-618e-4760-b09c-27382152bdab","system_id":"levelo_inurba_marseille","lat":43.23205,"lon":5.35545,"is_reserved":false,"is_disabled":false,"rental_uris":{"android":"levelo://app?vid=66ccc46d-618e-4760-b09c-27382152bdab","ios":"levelo://app?vid=66ccc46d-618e-4760-b09c-27382152bdab"},"vehicle_type_id":"4","last_reported":1729055371,"current_range_meters":38800,"station_id":"ce4bhu92rcd13ifvqi70","pricing_plan_id":"cebpf4jnsgd1na2vs0mg"},{"bike_id":"8a331acc-70d9-496a-b0bc-87f49792f9b4","system_id":"levelo_inurba_marseille","lat":43.24166,"lon":5.36412,"is_reserved":false,"is_disabled":false,"rental_uris":{"android":"levelo://app?vid=8a331acc-70d9-496a-b0bc-87f49792f9b4","ios":"levelo://app?vid=8a331acc-70d9-496a-b0bc-87f49792f9b4"},"vehicle_type_id":"4","last_reported":1729055371,"current_range_meters":35200,"station_id":"cpo36qri1sfpv3e86is0","pricing_plan_id":"cebpf4jnsgd1na2vs0mg"},{"bike_id":"04be5d67-ba2f-422d-bbc3-12c812c672d5","system_id":"levelo_inurba_marseille","lat":43.29205,"lon":5.39315,"is_reserved":false,"is_disabled":false,"rental_uris":{"android":"levelo://app?vid=04be5d67-ba2f-422d-bbc3-12c812c672d5","ios":"levelo://app?vid=04be5d67-ba2f-422d-bbc3-12c812c672d5"},"vehicle_type_id":"4","last_reported":1729055371,"current_range_meters":25200,"station_id":"ce4bh192rcd13ifvqdd0","pricing_plan_id":"cebpf4jnsgd1na2vs0mg"},{"bike_id":"f8a09b64-264b-4396-a0a3-0dfcbeca2e33","system_id":"levelo_inurba_marseille","lat":43.29041,"lon":5.39962,"is_reserved":false,"is_disabled":false,"rental_uris":{"android":"levelo://app?vid=f8a09b64-264b-4396-a0a3-0dfcbeca2e33","ios":"levelo://app?vid=f8a09b64-264b-4396-a0a3-0dfcbeca2e33"},"vehicle_type_id":"4","last_reported":1729055371,"current_range_meters":36800,"station_id":"ce4bh392rcd13ifvqdm0","pricing_plan_id":"cebpf4jnsgd1na2vs0mg"},{"bike_id":"208f8ea6-5fd0-4d62-8e76-df32fecc47be","system_id":"levelo_inurba_marseille","lat":43.24998,"lon":5.38931,"is_reserved":false,"is_disabled":false,"rental_uris":{"android":"levelo://app?vid=208f8ea6-5fd0-4d62-8e76-df32fecc47be","ios":"levelo://app?vid=208f8ea6-5fd0-4d62-8e76-df32fecc47be"},"vehicle_type_id":"4","last_reported":1729055371,"current_range_meters":3200,"station_id":"ce4bhgp2rcd13ifvqfd0","pricing_plan_id":"cebpf4jnsgd1na2vs0mg"},{"bike_id":"433f6513-bfc9-4015-8583-49fa8b9c7c86","system_id":"levelo_inurba_marseille","lat":43.26562,"lon":5.37279,"is_reserved":false,"is_disabled":false,"rental_uris":{"android":"levelo://app?vid=433f6513-bfc9-4015-8583-49fa8b9c7c86","ios":"levelo://app?vid=433f6513-bfc9-4015-8583-49fa8b9c7c86"},"vehicle_type_id":"4","last_reported":1729055371,"current_range_meters":28400,"station_id":"ce4bhg12rcd13ifvqf70","pricing_plan_id":"cebpf4jnsgd1na2vs0mg"},{"bike_id":"565cddd8-2b24-423e-a39c-a1a1647c985d","system_id":"levelo_inurba_marseille","lat":43.29977,"lon":5.3717,"is_reserved":false,"is_disabled":false,"rental_uris":{"android":"levelo://app?vid=565cddd8-2b24-423e-a39c-a1a1647c985d","ios":"levelo://app?vid=565cddd8-2b24-423e-a39c-a1a1647c985d"},"vehicle_type_id":"4","last_reported":1729055371,"current_range_meters":38800,"station_id":"ce4bgr92rcd13ifvqc7g","pricing_plan_id":"cebpf4jnsgd1na2vs0mg"},{"bike_id":"f1b965f3-fe20-449d-b83b-3a6c402d86c1","system_id":"levelo_inurba_marseille","lat":43.28926,"lon":5.384,"is_reserved":false,"is_disabled":false,"rental_uris":{"android":"levelo://app?vid=f1b965f3-fe20-449d-b83b-3a6c402d86c1","ios":"levelo://app?vid=f1b965f3-fe20-449d-b83b-3a6c402d86c1"},"vehicle_type_id":"4","last_reported":1729055371,"current_range_meters":38800,"station_id":"ce4bh612rcd13ifvqe6g","pricing_plan_id":"cebpf4jnsgd1na2vs0mg"},{"bike_id":"0e960bdf-86ad-4785-82f5-793ed149092d","system_id":"levelo_inurba_marseille","lat":43.28488,"lon":5.38432,"is_reserved":false,"is_disabled":false,"rental_uris":{"android":"levelo://app?vid=0e960bdf-86ad-4785-82f5-793ed149092d","ios":"levelo://app?vid=0e960bdf-86ad-4785-82f5-793ed149092d"},"vehicle_type_id":"4","last_reported":1729055371,"current_range_meters":38000,"station_id":"ce4bh512rcd13ifvqe3g","pricing_plan_id":"cebpf4jnsgd1na2vs0mg"},{"bike_id":"48b6bc94-1aa3-4029-9e20-ae01563b55ac","system_id":"levelo_inurba_marseille","lat":43.31759,"lon":5.39017,"is_reserved":false,"is_disabled":false,"rental_uris":{"android":"levelo://app?vid=48b6bc94-1aa3-4029-9e20-ae01563b55ac","ios":"levelo://app?vid=48b6bc94-1aa3-4029-9e20-ae01563b55ac"},"vehicle_type_id":"4","last_reported":1729055371,"current_range_meters":37600,"station_id":"ce4bhqp2rcd13ifvqhng","pricing_plan_id":"cebpf4jnsgd1na2vs0mg"},{"bike_id":"8d4716c6-03f5-473b-9521-ed8f78cec429","system_id":"levelo_inurba_marseille","lat":43.31169,"lon":5.3871,"is_reserved":false,"is_disabled":false,"rental_uris":{"android":"levelo://app?vid=8d4716c6-03f5-473b-9521-ed8f78cec429","ios":"levelo://app?vid=8d4716c6-03f5-473b-9521-ed8f78cec429"},"vehicle_type_id":"4","last_reported":1729055371,"current_range_meters":20400,"station_id":"ce4bgv12rcd13ifvqcp0","pricing_plan_id":"cebpf4jnsgd1na2vs0mg"},{"bike_id":"6300df2c-b9fe-4275-916d-dd75e59140c9","system_id":"levelo_inurba_marseille","lat":43.23196,"lon":5.35545,"is_reserved":false,"is_disabled":false,"rental_uris":{"android":"levelo://app?vid=6300df2c-b9fe-4275-916d-dd75e59140c9","ios":"levelo://app?vid=6300df2c-b9fe-4275-916d-dd75e59140c9"},"vehicle_type_id":"4","last_reported":1729055371,"current_range_meters":38800,"station_id":"ce4bhu92rcd13ifvqi70","pricing_plan_id":"cebpf4jnsgd1na2vs0mg"},{"bike_id":"375e74d6-344e-47f1-a12d-7c0762da3195","system_id":"levelo_inurba_marseille","lat":43.31121,"lon":5.37759,"is_reserved":false,"is_disabled":false,"rental_uris":{"android":"levelo://app?vid=375e74d6-344e-47f1-a12d-7c0762da3195","ios":"levelo://app?vid=375e74d6-344e-47f1-a12d-7c0762da3195"},"vehicle_type_id":"4","last_reported":1729055371,"current_range_meters":19200,"station_id":"ce4bgt92rcd13ifvqcg0","pricing_plan_id":"cebpf4jnsgd1na2vs0mg"},{"bike_id":"1514a7f4-e548-4f4f-ac2d-3c752abb45a9","system_id":"levelo_inurba_marseille","lat":43.31487,"lon":5.37299,"is_reserved":false,"is_disabled":false,"rental_uris":{"android":"levelo://app?vid=1514a7f4-e548-4f4f-ac2d-3c752abb45a9","ios":"levelo://app?vid=1514a7f4-e548-4f4f-ac2d-3c752abb45a9"},"vehicle_type_id":"4","last_reported":1729055371,"current_range_meters":38400,"station_id":"ce4bgt12rcd13ifvqcd0","pricing_plan_id":"cebpf4jnsgd1na2vs0mg"},{"bike_id":"f9bd20aa-623e-4ff4-975c-7d4cfab24d90","system_id":"levelo_inurba_marseille","lat":43.23183,"lon":5.39995,"is_reserved":false,"is_disabled":false,"rental_uris":{"android":"levelo://app?vid=f9bd20aa-623e-4ff4-975c-7d4cfab24d90","ios":"levelo://app?vid=f9bd20aa-623e-4ff4-975c-7d4cfab24d90"},"vehicle_type_id":"4","last_reported":1729055371,"current_range_meters":27200,"station_id":"ce4bhn12rcd13ifvqgqg","pricing_plan_id":"cebpf4jnsgd1na2vs0mg"},{"bike_id":"ead5edcf-cf42-440b-9ad1-fb158fecb6b8","system_id":"levelo_inurba_marseille","lat":43.27997,"lon":5.40015,"is_reserved":false,"is_disabled":false,"rental_uris":{"android":"levelo://app?vid=ead5edcf-cf42-440b-9ad1-fb158fecb6b8","ios":"levelo://app?vid=ead5edcf-cf42-440b-9ad1-fb158fecb6b8"},"vehicle_type_id":"4","last_reported":1729055371,"current_range_meters":38000,"station_id":"ce4bho92rcd13ifvqh4g","pricing_plan_id":"cebpf4jnsgd1na2vs0mg"},{"bike_id":"4cde1df3-fa5a-4e9b-943f-e6e05c36b3a4","system_id":"levelo_inurba_marseille","lat":43.30651,"lon":5.4008,"is_reserved":false,"is_disabled":false,"rental_uris":{"android":"levelo://app?vid=4cde1df3-fa5a-4e9b-943f-e6e05c36b3a4","ios":"levelo://app?vid=4cde1df3-fa5a-4e9b-943f-e6e05c36b3a4"},"vehicle_type_id":"4","last_reported":1729055371,"current_range_meters":38000,"station_id":"ce4bh112rcd13ifvqda0","pricing_plan_id":"cebpf4jnsgd1na2vs0mg"},{"bike_id":"3497e993-2df3-4c96-b915-96335762aa97","system_id":"levelo_inurba_marseille","lat":43.29595,"lon":5.38092,"is_reserved":false,"is_disabled":false,"rental_uris":{"android":"levelo://app?vid=3497e993-2df3-4c96-b915-96335762aa97","ios":"levelo://app?vid=3497e993-2df3-4c96-b915-96335762aa97"},"vehicle_type_id":"4","last_reported":1729055371,"current_range_meters":28400,"station_id":"ce4bgl12rcd13ifvqbo0","pricing_plan_id":"cebpf4jnsgd1na2vs0mg"},{"bike_id":"75ee2c98-9745-4c13-9bad-121108492cf6","system_id":"levelo_inurba_marseille","lat":43.284334,"lon":5.391864,"is_reserved":false,"is_disabled":false,"rental_uris":{"android":"levelo://app?vid=75ee2c98-9745-4c13-9bad-121108492cf6","ios":"levelo://app?vid=75ee2c98-9745-4c13-9bad-121108492cf6"},"vehicle_type_id":"4","last_reported":1729055371,"current_range_meters":9600,"station_id":"ce4bhoh2rcd13ifvqh5g","pricing_plan_id":"cebpf4jnsgd1na2vs0mg"},{"bike_id":"2e27b999-0e69-425d-9c42-718e8c04baec","system_id":"levelo_inurba_marseille","lat":43.28412,"lon":5.37518,"is_reserved":false,"is_disabled":false,"rental_uris":{"android":"levelo://app?vid=2e27b999-0e69-425d-9c42-718e8c04baec","ios":"levelo://app?vid=2e27b999-0e69-425d-9c42-718e8c04baec"},"vehicle_type_id":"4","last_reported":1729055371,"current_range_meters":26000,"station_id":"ce4bh412rcd13ifvqds0","pricing_plan_id":"cebpf4jnsgd1na2vs0mg"},{"bike_id":"f1e080d6-3d21-4302-9b00-e34087e628dd","system_id":"levelo_inurba_marseille","lat":43.28713,"lon":5.39979,"is_reserved":false,"is_disabled":false,"rental_uris":{"android":"levelo://app?vid=f1e080d6-3d21-4302-9b00-e34087e628dd","ios":"levelo://app?vid=f1e080d6-3d21-4302-9b00-e34087e628dd"},"vehicle_type_id":"4","last_reported":1729055371,"current_range_meters":30400,"station_id":"ce4bho92rcd13ifvqh3g","pricing_plan_id":"cebpf4jnsgd1na2vs0mg"},{"bike_id":"4a13a42e-6b05-47bc-8fc0-a11675b56735","system_id":"levelo_inurba_marseille","lat":43.30385,"lon":5.40034,"is_reserved":false,"is_disabled":false,"rental_uris":{"android":"levelo://app?vid=4a13a42e-6b05-47bc-8fc0-a11675b56735","ios":"levelo://app?vid=4a13a42e-6b05-47bc-8fc0-a11675b56735"},"vehicle_type_id":"4","last_reported":1729055371,"current_range_meters":33600,"station_id":"","pricing_plan_id":"cebpf4jnsgd1na2vs0mg"},{"bike_id":"1bae4104-feb2-4ff5-a21d-98e5f929332f","system_id":"levelo_inurba_marseille","lat":43.28033,"lon":5.36941,"is_reserved":false,"is_disabled":false,"rental_uris":{"android":"levelo://app?vid=1bae4104-feb2-4ff5-a21d-98e5f929332f","ios":"levelo://app?vid=1bae4104-feb2-4ff5-a21d-98e5f929332f"},"vehicle_type_id":"4","last_reported":1729055371,"current_range_meters":28400,"station_id":"ce4bha12rcd13ifvqef0","pricing_plan_id":"cebpf4jnsgd1na2vs0mg"},{"bike_id":"602bd134-fdd6-4b99-ad25-6bc5e47df780","system_id":"levelo_inurba_marseille","lat":43.29314,"lon":5.37189,"is_reserved":false,"is_disabled":false,"rental_uris":{"android":"levelo://app?vid=602bd134-fdd6-4b99-ad25-6bc5e47df780","ios":"levelo://app?vid=602bd134-fdd6-4b99-ad25-6bc5e47df780"},"vehicle_type_id":"4","last_reported":1729055371,"current_range_meters":36800,"station_id":"ce4bgh92rcd13ifvqb40","pricing_plan_id":"cebpf4jnsgd1na2vs0mg"},{"bike_id":"7df59a0a-cdac-499c-bff9-e4fa11c094f4","system_id":"levelo_inurba_marseille","lat":43.30145,"lon":5.38079,"is_reserved":false,"is_disabled":false,"rental_uris":{"android":"levelo://app?vid=7df59a0a-cdac-499c-bff9-e4fa11c094f4","ios":"levelo://app?vid=7df59a0a-cdac-499c-bff9-e4fa11c094f4"},"vehicle_type_id":"4","last_reported":1729055371,"current_range_meters":27200,"station_id":"ce4bgjp2rcd13ifvqbh0","pricing_plan_id":"cebpf4jnsgd1na2vs0mg"},{"bike_id":"f6a404fa-ff7b-4c74-9574-fc24aad7d742","system_id":"levelo_inurba_marseille","lat":43.33028,"lon":5.39041,"is_reserved":false,"is_disabled":false,"rental_uris":{"android":"levelo://app?vid=f6a404fa-ff7b-4c74-9574-fc24aad7d742","ios":"levelo://app?vid=f6a404fa-ff7b-4c74-9574-fc24aad7d742"},"vehicle_type_id":"4","last_reported":1729055371,"current_range_meters":30400,"station_id":"ce4bhr92rcd13ifvqhrg","pricing_plan_id":"cebpf4jnsgd1na2vs0mg"},{"bike_id":"2140b6a3-5118-4150-823e-9225aeb56201","system_id":"levelo_inurba_marseille","lat":43.231956,"lon":5.355494,"is_reserved":false,"is_disabled":false,"rental_uris":{"android":"levelo://app?vid=2140b6a3-5118-4150-823e-9225aeb56201","ios":"levelo://app?vid=2140b6a3-5118-4150-823e-9225aeb56201"},"vehicle_type_id":"4","last_reported":1729055371,"current_range_meters":4000,"station_id":"ce4bhu92rcd13ifvqi70","pricing_plan_id":"cebpf4jnsgd1na2vs0mg"},{"bike_id":"ca6904a9-036a-496e-a32e-29aeb21ac5a8","system_id":"levelo_inurba_marseille","lat":43.27067,"lon":5.40255,"is_reserved":false,"is_disabled":false,"rental_uris":{"android":"levelo://app?vid=ca6904a9-036a-496e-a32e-29aeb21ac5a8","ios":"levelo://app?vid=ca6904a9-036a-496e-a32e-29aeb21ac5a8"},"vehicle_type_id":"4","last_reported":1729055371,"current_range_meters":38400,"station_id":"ce4bhk92rcd13ifvqgc0","pricing_plan_id":"cebpf4jnsgd1na2vs0mg"},{"bike_id":"e7aedd00-f53a-48fd-a6a9-30d36c872d2e","system_id":"levelo_inurba_marseille","lat":43.30269,"lon":5.37719,"is_reserved":false,"is_disabled":false,"rental_uris":{"android":"levelo://app?vid=e7aedd00-f53a-48fd-a6a9-30d36c872d2e","ios":"levelo://app?vid=e7aedd00-f53a-48fd-a6a9-30d36c872d2e"},"vehicle_type_id":"4","last_reported":1729055371,"current_range_meters":38800,"station_id":"ce4bguh2rcd13ifvqcj0","pricing_plan_id":"cebpf4jnsgd1na2vs0mg"},{"bike_id":"d412a113-bfc1-40f2-a1ef-f54ce6c28a09","system_id":"levelo_inurba_marseille","lat":43.30159,"lon":5.38083,"is_reserved":false,"is_disabled":false,"rental_uris":{"android":"levelo://app?vid=d412a113-bfc1-40f2-a1ef-f54ce6c28a09","ios":"levelo://app?vid=d412a113-bfc1-40f2-a1ef-f54ce6c28a09"},"vehicle_type_id":"4","last_reported":1729055371,"current_range_meters":20800,"station_id":"ce4bgjp2rcd13ifvqbh0","pricing_plan_id":"cebpf4jnsgd1na2vs0mg"},{"bike_id":"d5702eca-e8d2-4aaa-a10a-acacc237565b","system_id":"levelo_inurba_marseille","lat":43.30799,"lon":5.43527,"is_reserved":false,"is_disabled":false,"rental_uris":{"android":"levelo://app?vid=d5702eca-e8d2-4aaa-a10a-acacc237565b","ios":"levelo://app?vid=d5702eca-e8d2-4aaa-a10a-acacc237565b"},"vehicle_type_id":"4","last_reported":1729055371,"current_range_meters":38800,"station_id":"ce4bhph2rcd13ifvqheg","pricing_plan_id":"cebpf4jnsgd1na2vs0mg"},{"bike_id":"3dc45dfa-d49b-419e-9fc5-b9fb5b4001c7","system_id":"levelo_inurba_marseille","lat":43.30302,"lon":5.39205,"is_reserved":false,"is_disabled":false,"rental_uris":{"android":"levelo://app?vid=3dc45dfa-d49b-419e-9fc5-b9fb5b4001c7","ios":"levelo://app?vid=3dc45dfa-d49b-419e-9fc5-b9fb5b4001c7"},"vehicle_type_id":"4","last_reported":1729055371,"current_range_meters":30800,"station_id":"ce4bgkh2rcd13ifvqbk0","pricing_plan_id":"cebpf4jnsgd1na2vs0mg"},{"bike_id":"537dd241-f9da-46a1-a1e3-a95f805ed20b","system_id":"levelo_inurba_marseille","lat":43.27965,"lon":5.38714,"is_reserved":false,"is_disabled":false,"rental_uris":{"android":"levelo://app?vid=537dd241-f9da-46a1-a1e3-a95f805ed20b","ios":"levelo://app?vid=537dd241-f9da-46a1-a1e3-a95f805ed20b"},"vehicle_type_id":"4","last_reported":1729055371,"current_range_meters":38800,"station_id":"ce4bhg12rcd13ifvqf80","pricing_plan_id":"cebpf4jnsgd1na2vs0mg"},{"bike_id":"52e37773-79c6-4443-94d6-5ed359faaaf0","system_id":"levelo_inurba_marseille","lat":43.30283,"lon":5.377,"is_reserved":false,"is_disabled":false,"rental_uris":{"android":"levelo://app?vid=52e37773-79c6-4443-94d6-5ed359faaaf0","ios":"levelo://app?vid=52e37773-79c6-4443-94d6-5ed359faaaf0"},"vehicle_type_id":"4","last_reported":1729055371,"current_range_meters":8800,"station_id":"ce4bguh2rcd13ifvqcj0","pricing_plan_id":"cebpf4jnsgd1na2vs0mg"},{"bike_id":"2ef7640c-0ce7-4225-943a-0140a011a40d","system_id":"levelo_inurba_marseille","lat":43.2938,"lon":5.37242,"is_reserved":false,"is_disabled":false,"rental_uris":{"android":"levelo://app?vid=2ef7640c-0ce7-4225-943a-0140a011a40d","ios":"levelo://app?vid=2ef7640c-0ce7-4225-943a-0140a011a40d"},"vehicle_type_id":"4","last_reported":1729055371,"current_range_meters":35600,"station_id":"","pricing_plan_id":"cebpf4jnsgd1na2vs0mg"},{"bike_id":"b8895383-2bd4-4c9a-a2b5-80e706db80bd","system_id":"levelo_inurba_marseille","lat":43.31887,"lon":5.40732,"is_reserved":false,"is_disabled":false,"rental_uris":{"android":"levelo://app?vid=b8895383-2bd4-4c9a-a2b5-80e706db80bd","ios":"levelo://app?vid=b8895383-2bd4-4c9a-a2b5-80e706db80bd"},"vehicle_type_id":"4","last_reported":1729055371,"current_range_meters":37600,"station_id":"ce4bhq12rcd13ifvqhig","pricing_plan_id":"cebpf4jnsgd1na2vs0mg"},{"bike_id":"fe0ed97f-0597-4aef-86e2-d5d073ff43d3","system_id":"levelo_inurba_marseille","lat":43.295491,"lon":5.422789,"is_reserved":false,"is_disabled":false,"rental_uris":{"android":"levelo://app?vid=fe0ed97f-0597-4aef-86e2-d5d073ff43d3","ios":"levelo://app?vid=fe0ed97f-0597-4aef-86e2-d5d073ff43d3"},"vehicle_type_id":"4","last_reported":1729055371,"current_range_meters":38400,"station_id":"ce4bhph2rcd13ifvqhdg","pricing_plan_id":"cebpf4jnsgd1na2vs0mg"},{"bike_id":"103f921b-c6d2-4b04-ba1a-06583d6d71c4","system_id":"levelo_inurba_marseille","lat":43.308883,"lon":5.396415,"is_reserved":false,"is_disabled":false,"rental_uris":{"android":"levelo://app?vid=103f921b-c6d2-4b04-ba1a-06583d6d71c4","ios":"levelo://app?vid=103f921b-c6d2-4b04-ba1a-06583d6d71c4"},"vehicle_type_id":"4","last_reported":1729055371,"current_range_meters":38800,"station_id":"ce4bh012rcd13ifvqcv0","pricing_plan_id":"cebpf4jnsgd1na2vs0mg"},{"bike_id":"e4d140f2-5c87-4612-a80f-3eff0f4e85a9","system_id":"levelo_inurba_marseille","lat":43.2718,"lon":5.40987,"is_reserved":false,"is_disabled":false,"rental_uris":{"android":"levelo://app?vid=e4d140f2-5c87-4612-a80f-3eff0f4e85a9","ios":"levelo://app?vid=e4d140f2-5c87-4612-a80f-3eff0f4e85a9"},"vehicle_type_id":"4","last_reported":1729055371,"current_range_meters":38800,"station_id":"ce4bhl12rcd13ifvqgf0","pricing_plan_id":"cebpf4jnsgd1na2vs0mg"},{"bike_id":"a2633ada-9a98-4125-b6e7-14adf81b357f","system_id":"levelo_inurba_marseille","lat":43.31885,"lon":5.40728,"is_reserved":false,"is_disabled":false,"rental_uris":{"android":"levelo://app?vid=a2633ada-9a98-4125-b6e7-14adf81b357f","ios":"levelo://app?vid=a2633ada-9a98-4125-b6e7-14adf81b357f"},"vehicle_type_id":"4","last_reported":1729055371,"current_range_meters":37600,"station_id":"ce4bhq12rcd13ifvqhig","pricing_plan_id":"cebpf4jnsgd1na2vs0mg"},{"bike_id":"d1a680a5-3716-4936-b72f-9d90ed2634d9","system_id":"levelo_inurba_marseille","lat":43.2998,"lon":5.37174,"is_reserved":false,"is_disabled":false,"rental_uris":{"android":"levelo://app?vid=d1a680a5-3716-4936-b72f-9d90ed2634d9","ios":"levelo://app?vid=d1a680a5-3716-4936-b72f-9d90ed2634d9"},"vehicle_type_id":"4","last_reported":1729055371,"current_range_meters":38800,"station_id":"ce4bgr92rcd13ifvqc7g","pricing_plan_id":"cebpf4jnsgd1na2vs0mg"},{"bike_id":"679f4f3c-0203-4f7d-9836-538010d8d024","system_id":"levelo_inurba_marseille","lat":43.280411,"lon":5.369396,"is_reserved":false,"is_disabled":false,"rental_uris":{"android":"levelo://app?vid=679f4f3c-0203-4f7d-9836-538010d8d024","ios":"levelo://app?vid=679f4f3c-0203-4f7d-9836-538010d8d024"},"vehicle_type_id":"4","last_reported":1729055371,"current_range_meters":38400,"station_id":"ce4bha12rcd13ifvqef0","pricing_plan_id":"cebpf4jnsgd1na2vs0mg"},{"bike_id":"d4660c65-9df4-4ab3-b055-aff9dba4a3ce","system_id":"levelo_inurba_marseille","lat":43.30472,"lon":5.37902,"is_reserved":false,"is_disabled":false,"rental_uris":{"android":"levelo://app?vid=d4660c65-9df4-4ab3-b055-aff9dba4a3ce","ios":"levelo://app?vid=d4660c65-9df4-4ab3-b055-aff9dba4a3ce"},"vehicle_type_id":"4","last_reported":1729055371,"current_range_meters":38800,"station_id":"ce4bgup2rcd13ifvqcn0","pricing_plan_id":"cebpf4jnsgd1na2vs0mg"},{"bike_id":"e48ac49d-4b87-4946-aad7-d8f98e92e21d","system_id":"levelo_inurba_marseille","lat":43.29837,"lon":5.36275,"is_reserved":false,"is_disabled":false,"rental_uris":{"android":"levelo://app?vid=e48ac49d-4b87-4946-aad7-d8f98e92e21d","ios":"levelo://app?vid=e48ac49d-4b87-4946-aad7-d8f98e92e21d"},"vehicle_type_id":"4","last_reported":1729055371,"current_range_meters":34000,"station_id":"ce4bgpp2rcd13ifvqc3g","pricing_plan_id":"cebpf4jnsgd1na2vs0mg"},{"bike_id":"8c18e7a3-256d-4a3b-b531-a11dc24afda6","system_id":"levelo_inurba_marseille","lat":43.31994,"lon":5.38144,"is_reserved":false,"is_disabled":false,"rental_uris":{"android":"levelo://app?vid=8c18e7a3-256d-4a3b-b531-a11dc24afda6","ios":"levelo://app?vid=8c18e7a3-256d-4a3b-b531-a11dc24afda6"},"vehicle_type_id":"4","last_reported":1729055371,"current_range_meters":38800,"station_id":"ce4bhr12rcd13ifvqhpg","pricing_plan_id":"cebpf4jnsgd1na2vs0mg"},{"bike_id":"42781909-ac05-4571-86bb-99a95ba104b6","system_id":"levelo_inurba_marseille","lat":43.29262,"lon":5.40139,"is_reserved":false,"is_disabled":false,"rental_uris":{"android":"levelo://app?vid=42781909-ac05-4571-86bb-99a95ba104b6","ios":"levelo://app?vid=42781909-ac05-4571-86bb-99a95ba104b6"},"vehicle_type_id":"4","last_reported":1729055371,"current_range_meters":38800,"station_id":"ce4bh312rcd13ifvqdk0","pricing_plan_id":"cebpf4jnsgd1na2vs0mg"},{"bike_id":"dbcc3846-1dac-4b5f-971c-9598b2324d1f","system_id":"levelo_inurba_marseille","lat":43.31493,"lon":5.37296,"is_reserved":false,"is_disabled":false,"rental_uris":{"android":"levelo://app?vid=dbcc3846-1dac-4b5f-971c-9598b2324d1f","ios":"levelo://app?vid=dbcc3846-1dac-4b5f-971c-9598b2324d1f"},"vehicle_type_id":"4","last_reported":1729055371,"current_range_meters":16400,"station_id":"ce4bgt12rcd13ifvqcd0","pricing_plan_id":"cebpf4jnsgd1na2vs0mg"},{"bike_id":"ffa2c653-c658-49dd-ae3f-7355fdcb38a1","system_id":"levelo_inurba_marseille","lat":43.28369,"lon":5.38627,"is_reserved":false,"is_disabled":false,"rental_uris":{"android":"levelo://app?vid=ffa2c653-c658-49dd-ae3f-7355fdcb38a1","ios":"levelo://app?vid=ffa2c653-c658-49dd-ae3f-7355fdcb38a1"},"vehicle_type_id":"4","last_reported":1729055371,"current_range_meters":38800,"station_id":"ce4bh492rcd13ifvqdvg","pricing_plan_id":"cebpf4jnsgd1na2vs0mg"},{"bike_id":"37e1f7b9-12a7-444a-9ec8-690164efbd86","system_id":"levelo_inurba_marseille","lat":43.26551,"lon":5.37292,"is_reserved":false,"is_disabled":false,"rental_uris":{"android":"levelo://app?vid=37e1f7b9-12a7-444a-9ec8-690164efbd86","ios":"levelo://app?vid=37e1f7b9-12a7-444a-9ec8-690164efbd86"},"vehicle_type_id":"4","last_reported":1729055371,"current_range_meters":38400,"station_id":"ce4bhg12rcd13ifvqf70","pricing_plan_id":"cebpf4jnsgd1na2vs0mg"},{"bike_id":"1641b826-604a-4181-8231-dca386f637a6","system_id":"levelo_inurba_marseille","lat":43.23188,"lon":5.35558,"is_reserved":false,"is_disabled":false,"rental_uris":{"android":"levelo://app?vid=1641b826-604a-4181-8231-dca386f637a6","ios":"levelo://app?vid=1641b826-604a-4181-8231-dca386f637a6"},"vehicle_type_id":"4","last_reported":1729055371,"current_range_meters":38800,"station_id":"ce4bhu92rcd13ifvqi70","pricing_plan_id":"cebpf4jnsgd1na2vs0mg"},{"bike_id":"89211ee2-076f-4df3-92bd-cd8885f2e76d","system_id":"levelo_inurba_marseille","lat":43.23193,"lon":5.35556,"is_reserved":false,"is_disabled":false,"rental_uris":{"android":"levelo://app?vid=89211ee2-076f-4df3-92bd-cd8885f2e76d","ios":"levelo://app?vid=89211ee2-076f-4df3-92bd-cd8885f2e76d"},"vehicle_type_id":"4","last_reported":1729055371,"current_range_meters":38800,"station_id":"ce4bhu92rcd13ifvqi70","pricing_plan_id":"cebpf4jnsgd1na2vs0mg"},{"bike_id":"839e752c-b57f-4cf6-8966-0ecd53dd5670","system_id":"levelo_inurba_marseille","lat":43.27818,"lon":5.40711,"is_reserved":false,"is_disabled":false,"rental_uris":{"android":"levelo://app?vid=839e752c-b57f-4cf6-8966-0ecd53dd5670","ios":"levelo://app?vid=839e752c-b57f-4cf6-8966-0ecd53dd5670"},"vehicle_type_id":"4","last_reported":1729055371,"current_range_meters":37600,"station_id":"ce4bhnh2rcd13ifvqgtg","pricing_plan_id":"cebpf4jnsgd1na2vs0mg"},{"bike_id":"a88eca78-3deb-4ad9-97b6-dda5fcae2bc2","system_id":"levelo_inurba_marseille","lat":43.292686,"lon":5.401036,"is_reserved":false,"is_disabled":false,"rental_uris":{"android":"levelo://app?vid=a88eca78-3deb-4ad9-97b6-dda5fcae2bc2","ios":"levelo://app?vid=a88eca78-3deb-4ad9-97b6-dda5fcae2bc2"},"vehicle_type_id":"4","last_reported":1729055371,"current_range_meters":32000,"station_id":"ce4bh312rcd13ifvqdk0","pricing_plan_id":"cebpf4jnsgd1na2vs0mg"},{"bike_id":"9dabbb9f-2820-49db-acc7-73662a324005","system_id":"levelo_inurba_marseille","lat":43.33721,"lon":5.3919,"is_reserved":false,"is_disabled":false,"rental_uris":{"android":"levelo://app?vid=9dabbb9f-2820-49db-acc7-73662a324005","ios":"levelo://app?vid=9dabbb9f-2820-49db-acc7-73662a324005"},"vehicle_type_id":"4","last_reported":1729055371,"current_range_meters":33600,"station_id":"ce4bhr92rcd13ifvqhsg","pricing_plan_id":"cebpf4jnsgd1na2vs0mg"},{"bike_id":"19fbb809-a845-42e8-b4aa-3d7321cda6a7","system_id":"levelo_inurba_marseille","lat":43.31528,"lon":5.38032,"is_reserved":false,"is_disabled":false,"rental_uris":{"android":"levelo://app?vid=19fbb809-a845-42e8-b4aa-3d7321cda6a7","ios":"levelo://app?vid=19fbb809-a845-42e8-b4aa-3d7321cda6a7"},"vehicle_type_id":"4","last_reported":1729055371,"current_range_meters":38400,"station_id":"ce4bhsp2rcd13ifvqi50","pricing_plan_id":"cebpf4jnsgd1na2vs0mg"},{"bike_id":"acea0b67-2e7f-4f99-b77a-88412f2e15b8","system_id":"levelo_inurba_marseille","lat":43.33609,"lon":5.41029,"is_reserved":false,"is_disabled":false,"rental_uris":{"android":"levelo://app?vid=acea0b67-2e7f-4f99-b77a-88412f2e15b8","ios":"levelo://app?vid=acea0b67-2e7f-4f99-b77a-88412f2e15b8"},"vehicle_type_id":"4","last_reported":1729055371,"current_range_meters":28000,"station_id":"ce4bhqh2rcd13ifvqhmg","pricing_plan_id":"cebpf4jnsgd1na2vs0mg"},{"bike_id":"55a3337e-c45f-4bce-93ec-a4b648c24a42","system_id":"levelo_inurba_marseille","lat":43.22932,"lon":5.35377,"is_reserved":false,"is_disabled":false,"rental_uris":{"android":"levelo://app?vid=55a3337e-c45f-4bce-93ec-a4b648c24a42","ios":"levelo://app?vid=55a3337e-c45f-4bce-93ec-a4b648c24a42"},"vehicle_type_id":"4","last_reported":1729055371,"current_range_meters":36800,"station_id":"cpo3532slgdg3j2ikp40","pricing_plan_id":"cebpf4jnsgd1na2vs0mg"},{"bike_id":"f8278ac5-d1d7-48a6-8828-cd0ddbd5e94e","system_id":"levelo_inurba_marseille","lat":43.30808,"lon":5.43526,"is_reserved":false,"is_disabled":false,"rental_uris":{"android":"levelo://app?vid=f8278ac5-d1d7-48a6-8828-cd0ddbd5e94e","ios":"levelo://app?vid=f8278ac5-d1d7-48a6-8828-cd0ddbd5e94e"},"vehicle_type_id":"4","last_reported":1729055371,"current_range_meters":10000,"station_id":"ce4bhph2rcd13ifvqheg","pricing_plan_id":"cebpf4jnsgd1na2vs0mg"},{"bike_id":"ff6885c7-7c38-42e4-aacd-bb5c3f5b946b","system_id":"levelo_inurba_marseille","lat":43.27963,"lon":5.38708,"is_reserved":false,"is_disabled":false,"rental_uris":{"android":"levelo://app?vid=ff6885c7-7c38-42e4-aacd-bb5c3f5b946b","ios":"levelo://app?vid=ff6885c7-7c38-42e4-aacd-bb5c3f5b946b"},"vehicle_type_id":"4","last_reported":1729055371,"current_range_meters":37600,"station_id":"ce4bhg12rcd13ifvqf80","pricing_plan_id":"cebpf4jnsgd1na2vs0mg"},{"bike_id":"39602307-c7d4-4641-b4ba-9c649b739eec","system_id":"levelo_inurba_marseille","lat":43.305293,"lon":5.39925,"is_reserved":false,"is_disabled":false,"rental_uris":{"android":"levelo://app?vid=39602307-c7d4-4641-b4ba-9c649b739eec","ios":"levelo://app?vid=39602307-c7d4-4641-b4ba-9c649b739eec"},"vehicle_type_id":"4","last_reported":1729055371,"current_range_meters":21600,"station_id":"","pricing_plan_id":"cebpf4jnsgd1na2vs0mg"},{"bike_id":"3c4bb0eb-c397-48b0-ab1d-3f0fd16840f9","system_id":"levelo_inurba_marseille","lat":43.31364,"lon":5.384885,"is_reserved":false,"is_disabled":false,"rental_uris":{"android":"levelo://app?vid=3c4bb0eb-c397-48b0-ab1d-3f0fd16840f9","ios":"levelo://app?vid=3c4bb0eb-c397-48b0-ab1d-3f0fd16840f9"},"vehicle_type_id":"4","last_reported":1729055371,"current_range_meters":27200,"station_id":"ce4bgt92rcd13ifvqcf0","pricing_plan_id":"cebpf4jnsgd1na2vs0mg"},{"bike_id":"9822aee2-b4cc-4e67-a085-9db6b0a2c388","system_id":"levelo_inurba_marseille","lat":43.30348,"lon":5.41881,"is_reserved":false,"is_disabled":false,"rental_uris":{"android":"levelo://app?vid=9822aee2-b4cc-4e67-a085-9db6b0a2c388","ios":"levelo://app?vid=9822aee2-b4cc-4e67-a085-9db6b0a2c388"},"vehicle_type_id":"4","last_reported":1729055371,"current_range_meters":38800,"station_id":"ce4bhop2rcd13ifvqh7g","pricing_plan_id":"cebpf4jnsgd1na2vs0mg"},{"bike_id":"b2cd51c5-687e-4527-8dca-a1be22f1b61b","system_id":"levelo_inurba_marseille","lat":43.2872,"lon":5.379418,"is_reserved":false,"is_disabled":false,"rental_uris":{"android":"levelo://app?vid=b2cd51c5-687e-4527-8dca-a1be22f1b61b","ios":"levelo://app?vid=b2cd51c5-687e-4527-8dca-a1be22f1b61b"},"vehicle_type_id":"4","last_reported":1729055371,"current_range_meters":36000,"station_id":"ce4bh9p2rcd13ifvqec0","pricing_plan_id":"cebpf4jnsgd1na2vs0mg"},{"bike_id":"e27af180-720e-4a4c-ac01-648130308ab3","system_id":"levelo_inurba_marseille","lat":43.28437,"lon":5.39177,"is_reserved":false,"is_disabled":false,"rental_uris":{"android":"levelo://app?vid=e27af180-720e-4a4c-ac01-648130308ab3","ios":"levelo://app?vid=e27af180-720e-4a4c-ac01-648130308ab3"},"vehicle_type_id":"4","last_reported":1729055371,"current_range_meters":38800,"station_id":"ce4bhoh2rcd13ifvqh5g","pricing_plan_id":"cebpf4jnsgd1na2vs0mg"},{"bike_id":"2ea65bb2-7323-4b3a-b7ca-83d904989c73","system_id":"levelo_inurba_marseille","lat":43.28852,"lon":5.35841,"is_reserved":false,"is_disabled":false,"rental_uris":{"android":"levelo://app?vid=2ea65bb2-7323-4b3a-b7ca-83d904989c73","ios":"levelo://app?vid=2ea65bb2-7323-4b3a-b7ca-83d904989c73"},"vehicle_type_id":"4","last_reported":1729055371,"current_range_meters":4800,"station_id":"ce4bhb12rcd13ifvqem0","pricing_plan_id":"cebpf4jnsgd1na2vs0mg"},{"bike_id":"eea79da3-80a5-42c6-8540-1400d7d1121f","system_id":"levelo_inurba_marseille","lat":43.232,"lon":5.35546,"is_reserved":false,"is_disabled":false,"rental_uris":{"android":"levelo://app?vid=eea79da3-80a5-42c6-8540-1400d7d1121f","ios":"levelo://app?vid=eea79da3-80a5-42c6-8540-1400d7d1121f"},"vehicle_type_id":"4","last_reported":1729055371,"current_range_meters":26000,"station_id":"ce4bhu92rcd13ifvqi70","pricing_plan_id":"cebpf4jnsgd1na2vs0mg"},{"bike_id":"b6d06cff-ac1e-4ccb-bb13-38d6bd7afddf","system_id":"levelo_inurba_marseille","lat":43.28105,"lon":5.37838,"is_reserved":false,"is_disabled":false,"rental_uris":{"android":"levelo://app?vid=b6d06cff-ac1e-4ccb-bb13-38d6bd7afddf","ios":"levelo://app?vid=b6d06cff-ac1e-4ccb-bb13-38d6bd7afddf"},"vehicle_type_id":"4","last_reported":1729055371,"current_range_meters":36400,"station_id":"ce4bha12rcd13ifvqee0","pricing_plan_id":"cebpf4jnsgd1na2vs0mg"},{"bike_id":"3e5f77f2-0018-4a3e-8eb4-afb609debd36","system_id":"levelo_inurba_marseille","lat":43.27061,"lon":5.40254,"is_reserved":false,"is_disabled":false,"rental_uris":{"android":"levelo://app?vid=3e5f77f2-0018-4a3e-8eb4-afb609debd36","ios":"levelo://app?vid=3e5f77f2-0018-4a3e-8eb4-afb609debd36"},"vehicle_type_id":"4","last_reported":1729055371,"current_range_meters":38800,"station_id":"ce4bhk92rcd13ifvqgc0","pricing_plan_id":"cebpf4jnsgd1na2vs0mg"},{"bike_id":"bfe6236b-33bf-4eaa-8a74-a6587f86e48e","system_id":"levelo_inurba_marseille","lat":43.25829,"lon":5.39427,"is_reserved":false,"is_disabled":false,"rental_uris":{"android":"levelo://app?vid=bfe6236b-33bf-4eaa-8a74-a6587f86e48e","ios":"levelo://app?vid=bfe6236b-33bf-4eaa-8a74-a6587f86e48e"},"vehicle_type_id":"4","last_reported":1729055371,"current_range_meters":27600,"station_id":"ce4bhip2rcd13ifvqft0","pricing_plan_id":"cebpf4jnsgd1na2vs0mg"},{"bike_id":"1643d94e-1263-4403-ae53-d258057220f2","system_id":"levelo_inurba_marseille","lat":43.31323,"lon":5.39695,"is_reserved":false,"is_disabled":false,"rental_uris":{"android":"levelo://app?vid=1643d94e-1263-4403-ae53-d258057220f2","ios":"levelo://app?vid=1643d94e-1263-4403-ae53-d258057220f2"},"vehicle_type_id":"4","last_reported":1729055371,"current_range_meters":38800,"station_id":"ce4bgvp2rcd13ifvqcu0","pricing_plan_id":"cebpf4jnsgd1na2vs0mg"},{"bike_id":"39c87495-e919-48df-ad42-0b47d2014833","system_id":"levelo_inurba_marseille","lat":43.23149,"lon":5.43717,"is_reserved":false,"is_disabled":false,"rental_uris":{"android":"levelo://app?vid=39c87495-e919-48df-ad42-0b47d2014833","ios":"levelo://app?vid=39c87495-e919-48df-ad42-0b47d2014833"},"vehicle_type_id":"4","last_reported":1729055371,"current_range_meters":7200,"station_id":"ce4bhmp2rcd13ifvqgog","pricing_plan_id":"cebpf4jnsgd1na2vs0mg"},{"bike_id":"2afb5a73-b9af-4e42-8f2c-e81aba5f8963","system_id":"levelo_inurba_marseille","lat":43.28617,"lon":5.35101,"is_reserved":false,"is_disabled":false,"rental_uris":{"android":"levelo://app?vid=2afb5a73-b9af-4e42-8f2c-e81aba5f8963","ios":"levelo://app?vid=2afb5a73-b9af-4e42-8f2c-e81aba5f8963"},"vehicle_type_id":"4","last_reported":1729055371,"current_range_meters":20400,"station_id":"ce4bhch2rcd13ifvqeug","pricing_plan_id":"cebpf4jnsgd1na2vs0mg"},{"bike_id":"16e8569e-9f49-4b55-b1d2-cd42a0e72b85","system_id":"levelo_inurba_marseille","lat":43.30543,"lon":5.38433,"is_reserved":false,"is_disabled":false,"rental_uris":{"android":"levelo://app?vid=16e8569e-9f49-4b55-b1d2-cd42a0e72b85","ios":"levelo://app?vid=16e8569e-9f49-4b55-b1d2-cd42a0e72b85"},"vehicle_type_id":"4","last_reported":1729055371,"current_range_meters":38800,"station_id":"ce4bgg92rcd13ifvqb30","pricing_plan_id":"cebpf4jnsgd1na2vs0mg"},{"bike_id":"faa18d53-4135-4ac2-bc40-06c958fe3cb1","system_id":"levelo_inurba_marseille","lat":43.3025,"lon":5.40058,"is_reserved":false,"is_disabled":false,"rental_uris":{"android":"levelo://app?vid=faa18d53-4135-4ac2-bc40-06c958fe3cb1","ios":"levelo://app?vid=faa18d53-4135-4ac2-bc40-06c958fe3cb1"},"vehicle_type_id":"4","last_reported":1729055371,"current_range_meters":38800,"station_id":"ce4bgvh2rcd13ifvqcs0","pricing_plan_id":"cebpf4jnsgd1na2vs0mg"},{"bike_id":"ff96eee3-1ac8-4888-9ae7-e4b6cc8154af","system_id":"levelo_inurba_marseille","lat":43.33739,"lon":5.3746,"is_reserved":false,"is_disabled":false,"rental_uris":{"android":"levelo://app?vid=ff96eee3-1ac8-4888-9ae7-e4b6cc8154af","ios":"levelo://app?vid=ff96eee3-1ac8-4888-9ae7-e4b6cc8154af"},"vehicle_type_id":"4","last_reported":1729055371,"current_range_meters":30800,"station_id":"","pricing_plan_id":"cebpf4jnsgd1na2vs0mg"},{"bike_id":"95073d4b-9f20-4e79-b8a6-bff95d6698ab","system_id":"levelo_inurba_marseille","lat":43.27811,"lon":5.40719,"is_reserved":false,"is_disabled":false,"rental_uris":{"android":"levelo://app?vid=95073d4b-9f20-4e79-b8a6-bff95d6698ab","ios":"levelo://app?vid=95073d4b-9f20-4e79-b8a6-bff95d6698ab"},"vehicle_type_id":"4","last_reported":1729055371,"current_range_meters":8000,"station_id":"ce4bhnh2rcd13ifvqgtg","pricing_plan_id":"cebpf4jnsgd1na2vs0mg"},{"bike_id":"5d098c1b-4f61-4fa0-b5bf-29729894a9a0","system_id":"levelo_inurba_marseille","lat":43.31123,"lon":5.37767,"is_reserved":false,"is_disabled":false,"rental_uris":{"android":"levelo://app?vid=5d098c1b-4f61-4fa0-b5bf-29729894a9a0","ios":"levelo://app?vid=5d098c1b-4f61-4fa0-b5bf-29729894a9a0"},"vehicle_type_id":"4","last_reported":1729055371,"current_range_meters":38800,"station_id":"ce4bgt92rcd13ifvqcg0","pricing_plan_id":"cebpf4jnsgd1na2vs0mg"},{"bike_id":"5e957a50-6340-4fdf-824a-395cc0749723","system_id":"levelo_inurba_marseille","lat":43.25496,"lon":5.37645,"is_reserved":false,"is_disabled":false,"rental_uris":{"android":"levelo://app?vid=5e957a50-6340-4fdf-824a-395cc0749723","ios":"levelo://app?vid=5e957a50-6340-4fdf-824a-395cc0749723"},"vehicle_type_id":"4","last_reported":1729055371,"current_range_meters":37600,"station_id":"ce4bhh12rcd13ifvqff0","pricing_plan_id":"cebpf4jnsgd1na2vs0mg"},{"bike_id":"f3f37656-ce16-4bc7-9064-03bceaa8c0a7","system_id":"levelo_inurba_marseille","lat":43.30602,"lon":5.39349,"is_reserved":false,"is_disabled":false,"rental_uris":{"android":"levelo://app?vid=f3f37656-ce16-4bc7-9064-03bceaa8c0a7","ios":"levelo://app?vid=f3f37656-ce16-4bc7-9064-03bceaa8c0a7"},"vehicle_type_id":"4","last_reported":1729055371,"current_range_meters":38800,"station_id":"ce4bh0p2rcd13ifvqd80","pricing_plan_id":"cebpf4jnsgd1na2vs0mg"},{"bike_id":"fe6084bb-8aa5-4752-9e06-97bd476b1682","system_id":"levelo_inurba_marseille","lat":43.26061,"lon":5.39392,"is_reserved":false,"is_disabled":false,"rental_uris":{"android":"levelo://app?vid=fe6084bb-8aa5-4752-9e06-97bd476b1682","ios":"levelo://app?vid=fe6084bb-8aa5-4752-9e06-97bd476b1682"},"vehicle_type_id":"4","last_reported":1729055371,"current_range_meters":19600,"station_id":"ce4bhh92rcd13ifvqfj0","pricing_plan_id":"cebpf4jnsgd1na2vs0mg"},{"bike_id":"4a6f41dc-8c4a-4f44-8dc8-add557fd2ced","system_id":"levelo_inurba_marseille","lat":43.28848,"lon":5.35836,"is_reserved":false,"is_disabled":false,"rental_uris":{"android":"levelo://app?vid=4a6f41dc-8c4a-4f44-8dc8-add557fd2ced","ios":"levelo://app?vid=4a6f41dc-8c4a-4f44-8dc8-add557fd2ced"},"vehicle_type_id":"4","last_reported":1729055371,"current_range_meters":38800,"station_id":"ce4bhb12rcd13ifvqem0","pricing_plan_id":"cebpf4jnsgd1na2vs0mg"},{"bike_id":"9c72c06e-702c-4f98-91cc-a95427f6ff2f","system_id":"levelo_inurba_marseille","lat":43.3025,"lon":5.40062,"is_reserved":false,"is_disabled":false,"rental_uris":{"android":"levelo://app?vid=9c72c06e-702c-4f98-91cc-a95427f6ff2f","ios":"levelo://app?vid=9c72c06e-702c-4f98-91cc-a95427f6ff2f"},"vehicle_type_id":"4","last_reported":1729055371,"current_range_meters":38800,"station_id":"ce4bgvh2rcd13ifvqcs0","pricing_plan_id":"cebpf4jnsgd1na2vs0mg"},{"bike_id":"fdb9f08a-443f-483a-a7e8-4099fe9c9e22","system_id":"levelo_inurba_marseille","lat":43.301366,"lon":5.374096,"is_reserved":false,"is_disabled":false,"rental_uris":{"android":"levelo://app?vid=fdb9f08a-443f-483a-a7e8-4099fe9c9e22","ios":"levelo://app?vid=fdb9f08a-443f-483a-a7e8-4099fe9c9e22"},"vehicle_type_id":"4","last_reported":1729055371,"current_range_meters":26800,"station_id":"ce4bgs92rcd13ifvqcc0","pricing_plan_id":"cebpf4jnsgd1na2vs0mg"},{"bike_id":"bed31c92-0ee4-4f99-a39c-7da0e05c25f3","system_id":"levelo_inurba_marseille","lat":43.31537,"lon":5.38023,"is_reserved":false,"is_disabled":false,"rental_uris":{"android":"levelo://app?vid=bed31c92-0ee4-4f99-a39c-7da0e05c25f3","ios":"levelo://app?vid=bed31c92-0ee4-4f99-a39c-7da0e05c25f3"},"vehicle_type_id":"4","last_reported":1729055371,"current_range_meters":19600,"station_id":"ce4bhsp2rcd13ifvqi50","pricing_plan_id":"cebpf4jnsgd1na2vs0mg"},{"bike_id":"518eae26-0512-481d-a6d0-d16cfd19fb16","system_id":"levelo_inurba_marseille","lat":43.27813,"lon":5.40722,"is_reserved":false,"is_disabled":false,"rental_uris":{"android":"levelo://app?vid=518eae26-0512-481d-a6d0-d16cfd19fb16","ios":"levelo://app?vid=518eae26-0512-481d-a6d0-d16cfd19fb16"},"vehicle_type_id":"4","last_reported":1729055371,"current_range_meters":9600,"station_id":"ce4bhnh2rcd13ifvqgtg","pricing_plan_id":"cebpf4jnsgd1na2vs0mg"},{"bike_id":"79991d3d-436d-404c-880e-51d74dc7bda4","system_id":"levelo_inurba_marseille","lat":43.25579,"lon":5.38236,"is_reserved":false,"is_disabled":false,"rental_uris":{"android":"levelo://app?vid=79991d3d-436d-404c-880e-51d74dc7bda4","ios":"levelo://app?vid=79991d3d-436d-404c-880e-51d74dc7bda4"},"vehicle_type_id":"4","last_reported":1729055371,"current_range_meters":37600,"station_id":"ce4bhih2rcd13ifvqfs0","pricing_plan_id":"cebpf4jnsgd1na2vs0mg"},{"bike_id":"3d2a3428-1782-4835-ae61-b4cc1330d3aa","system_id":"levelo_inurba_marseille","lat":43.31726,"lon":5.42394,"is_reserved":false,"is_disabled":false,"rental_uris":{"android":"levelo://app?vid=3d2a3428-1782-4835-ae61-b4cc1330d3aa","ios":"levelo://app?vid=3d2a3428-1782-4835-ae61-b4cc1330d3aa"},"vehicle_type_id":"4","last_reported":1729055371,"current_range_meters":21600,"station_id":"ce4bhp92rcd13ifvqhbg","pricing_plan_id":"cebpf4jnsgd1na2vs0mg"},{"bike_id":"923909c1-d0bc-48ba-b167-16ee903340bd","system_id":"levelo_inurba_marseille","lat":43.23957,"lon":5.36624,"is_reserved":false,"is_disabled":false,"rental_uris":{"android":"levelo://app?vid=923909c1-d0bc-48ba-b167-16ee903340bd","ios":"levelo://app?vid=923909c1-d0bc-48ba-b167-16ee903340bd"},"vehicle_type_id":"4","last_reported":1729055371,"current_range_meters":38000,"station_id":"ce4bhi12rcd13ifvqfp0","pricing_plan_id":"cebpf4jnsgd1na2vs0mg"},{"bike_id":"ae5bf0f3-82cd-4290-8764-455d69f7575e","system_id":"levelo_inurba_marseille","lat":43.2397,"lon":5.36631,"is_reserved":false,"is_disabled":false,"rental_uris":{"android":"levelo://app?vid=ae5bf0f3-82cd-4290-8764-455d69f7575e","ios":"levelo://app?vid=ae5bf0f3-82cd-4290-8764-455d69f7575e"},"vehicle_type_id":"4","last_reported":1729055371,"current_range_meters":10800,"station_id":"ce4bhi12rcd13ifvqfp0","pricing_plan_id":"cebpf4jnsgd1na2vs0mg"},{"bike_id":"292b9425-1372-40d4-bf0a-fe57aa779a41","system_id":"levelo_inurba_marseille","lat":43.23061,"lon":5.35499,"is_reserved":false,"is_disabled":false,"rental_uris":{"android":"levelo://app?vid=292b9425-1372-40d4-bf0a-fe57aa779a41","ios":"levelo://app?vid=292b9425-1372-40d4-bf0a-fe57aa779a41"},"vehicle_type_id":"4","last_reported":1729055371,"current_range_meters":29600,"station_id":"cpo3342slgdg3j2ifvpg","pricing_plan_id":"cebpf4jnsgd1na2vs0mg"},{"bike_id":"62dcd66c-ac21-40ac-8398-53abfe185a2c","system_id":"levelo_inurba_marseille","lat":43.2871,"lon":5.37947,"is_reserved":false,"is_disabled":false,"rental_uris":{"android":"levelo://app?vid=62dcd66c-ac21-40ac-8398-53abfe185a2c","ios":"levelo://app?vid=62dcd66c-ac21-40ac-8398-53abfe185a2c"},"vehicle_type_id":"4","last_reported":1729055371,"current_range_meters":36000,"station_id":"ce4bh9p2rcd13ifvqec0","pricing_plan_id":"cebpf4jnsgd1na2vs0mg"},{"bike_id":"60c7ceff-fef3-4380-98cf-0ac594b84256","system_id":"levelo_inurba_marseille","lat":43.2872,"lon":5.37935,"is_reserved":false,"is_disabled":false,"rental_uris":{"android":"levelo://app?vid=60c7ceff-fef3-4380-98cf-0ac594b84256","ios":"levelo://app?vid=60c7ceff-fef3-4380-98cf-0ac594b84256"},"vehicle_type_id":"4","last_reported":1729055371,"current_range_meters":38000,"station_id":"ce4bh9p2rcd13ifvqec0","pricing_plan_id":"cebpf4jnsgd1na2vs0mg"},{"bike_id":"0bef7484-cbc7-4f1f-96df-f3fb91a60611","system_id":"levelo_inurba_marseille","lat":43.3122,"lon":5.36839,"is_reserved":false,"is_disabled":false,"rental_uris":{"android":"levelo://app?vid=0bef7484-cbc7-4f1f-96df-f3fb91a60611","ios":"levelo://app?vid=0bef7484-cbc7-4f1f-96df-f3fb91a60611"},"vehicle_type_id":"4","last_reported":1729055371,"current_range_meters":37600,"station_id":"ce4bgl92rcd13ifvqbq0","pricing_plan_id":"cebpf4jnsgd1na2vs0mg"},{"bike_id":"882c85c7-8600-4124-b6fe-0639a354bb7c","system_id":"levelo_inurba_marseille","lat":43.29976,"lon":5.38509,"is_reserved":false,"is_disabled":false,"rental_uris":{"android":"levelo://app?vid=882c85c7-8600-4124-b6fe-0639a354bb7c","ios":"levelo://app?vid=882c85c7-8600-4124-b6fe-0639a354bb7c"},"vehicle_type_id":"4","last_reported":1729055371,"current_range_meters":38800,"station_id":"ce4bgj92rcd13ifvqbd0","pricing_plan_id":"cebpf4jnsgd1na2vs0mg"},{"bike_id":"7db3671b-95d5-4e0a-970c-62aabaae9dc1","system_id":"levelo_inurba_marseille","lat":43.27971,"lon":5.3875,"is_reserved":false,"is_disabled":false,"rental_uris":{"android":"levelo://app?vid=7db3671b-95d5-4e0a-970c-62aabaae9dc1","ios":"levelo://app?vid=7db3671b-95d5-4e0a-970c-62aabaae9dc1"},"vehicle_type_id":"4","last_reported":1729055371,"current_range_meters":32000,"station_id":"ce4bhg12rcd13ifvqf80","pricing_plan_id":"cebpf4jnsgd1na2vs0mg"},{"bike_id":"b9de7d17-6ba5-4c2e-a7f1-a542d09a2c15","system_id":"levelo_inurba_marseille","lat":43.28928,"lon":5.36632,"is_reserved":false,"is_disabled":false,"rental_uris":{"android":"levelo://app?vid=b9de7d17-6ba5-4c2e-a7f1-a542d09a2c15","ios":"levelo://app?vid=b9de7d17-6ba5-4c2e-a7f1-a542d09a2c15"},"vehicle_type_id":"4","last_reported":1729055371,"current_range_meters":38800,"station_id":"ce4bhap2rcd13ifvqek0","pricing_plan_id":"cebpf4jnsgd1na2vs0mg"},{"bike_id":"0d667db3-7bae-49b4-90de-10e2b4c495f6","system_id":"levelo_inurba_marseille","lat":43.32363,"lon":5.38881,"is_reserved":false,"is_disabled":false,"rental_uris":{"android":"levelo://app?vid=0d667db3-7bae-49b4-90de-10e2b4c495f6","ios":"levelo://app?vid=0d667db3-7bae-49b4-90de-10e2b4c495f6"},"vehicle_type_id":"4","last_reported":1729055371,"current_range_meters":38800,"station_id":"ce4bhqp2rcd13ifvqhog","pricing_plan_id":"cebpf4jnsgd1na2vs0mg"},{"bike_id":"9e5c6458-de7e-45fb-88e0-38ed61c26e96","system_id":"levelo_inurba_marseille","lat":43.3113,"lon":5.37754,"is_reserved":false,"is_disabled":false,"rental_uris":{"android":"levelo://app?vid=9e5c6458-de7e-45fb-88e0-38ed61c26e96","ios":"levelo://app?vid=9e5c6458-de7e-45fb-88e0-38ed61c26e96"},"vehicle_type_id":"4","last_reported":1729055371,"current_range_meters":38000,"station_id":"ce4bgt92rcd13ifvqcg0","pricing_plan_id":"cebpf4jnsgd1na2vs0mg"},{"bike_id":"8e1d4e0d-5507-46d6-90b0-3fb646d87956","system_id":"levelo_inurba_marseille","lat":43.33608,"lon":5.41035,"is_reserved":false,"is_disabled":false,"rental_uris":{"android":"levelo://app?vid=8e1d4e0d-5507-46d6-90b0-3fb646d87956","ios":"levelo://app?vid=8e1d4e0d-5507-46d6-90b0-3fb646d87956"},"vehicle_type_id":"4","last_reported":1729055371,"current_range_meters":30000,"station_id":"ce4bhqh2rcd13ifvqhmg","pricing_plan_id":"cebpf4jnsgd1na2vs0mg"},{"bike_id":"463841e8-eb73-4ab7-951a-a75ae3ad3517","system_id":"levelo_inurba_marseille","lat":43.27973,"lon":5.38717,"is_reserved":false,"is_disabled":false,"rental_uris":{"android":"levelo://app?vid=463841e8-eb73-4ab7-951a-a75ae3ad3517","ios":"levelo://app?vid=463841e8-eb73-4ab7-951a-a75ae3ad3517"},"vehicle_type_id":"4","last_reported":1729055371,"current_range_meters":38000,"station_id":"ce4bhg12rcd13ifvqf80","pricing_plan_id":"cebpf4jnsgd1na2vs0mg"},{"bike_id":"b68c1f89-0804-4d6b-8148-c58b099db8c8","system_id":"levelo_inurba_marseille","lat":43.31488,"lon":5.37304,"is_reserved":false,"is_disabled":false,"rental_uris":{"android":"levelo://app?vid=b68c1f89-0804-4d6b-8148-c58b099db8c8","ios":"levelo://app?vid=b68c1f89-0804-4d6b-8148-c58b099db8c8"},"vehicle_type_id":"4","last_reported":1729055371,"current_range_meters":38800,"station_id":"ce4bgt12rcd13ifvqcd0","pricing_plan_id":"cebpf4jnsgd1na2vs0mg"},{"bike_id":"7a004670-1243-4204-855c-ce40124c52ee","system_id":"levelo_inurba_marseille","lat":43.2293,"lon":5.35377,"is_reserved":false,"is_disabled":false,"rental_uris":{"android":"levelo://app?vid=7a004670-1243-4204-855c-ce40124c52ee","ios":"levelo://app?vid=7a004670-1243-4204-855c-ce40124c52ee"},"vehicle_type_id":"4","last_reported":1729055371,"current_range_meters":24800,"station_id":"cpo3532slgdg3j2ikp40","pricing_plan_id":"cebpf4jnsgd1na2vs0mg"},{"bike_id":"c16b2465-23b0-4e05-a23b-1a81c701df3b","system_id":"levelo_inurba_marseille","lat":43.29557,"lon":5.42284,"is_reserved":false,"is_disabled":false,"rental_uris":{"android":"levelo://app?vid=c16b2465-23b0-4e05-a23b-1a81c701df3b","ios":"levelo://app?vid=c16b2465-23b0-4e05-a23b-1a81c701df3b"},"vehicle_type_id":"4","last_reported":1729055371,"current_range_meters":39200,"station_id":"ce4bhph2rcd13ifvqhdg","pricing_plan_id":"cebpf4jnsgd1na2vs0mg"},{"bike_id":"a5fb3947-14ea-4df3-b0e5-7147047e5a59","system_id":"levelo_inurba_marseille","lat":43.287005,"lon":5.373911,"is_reserved":false,"is_disabled":false,"rental_uris":{"android":"levelo://app?vid=a5fb3947-14ea-4df3-b0e5-7147047e5a59","ios":"levelo://app?vid=a5fb3947-14ea-4df3-b0e5-7147047e5a59"},"vehicle_type_id":"4","last_reported":1729055371,"current_range_meters":38400,"station_id":"ce4bh3p2rcd13ifvqdq0","pricing_plan_id":"cebpf4jnsgd1na2vs0mg"},{"bike_id":"df7acb4d-6a30-48e5-9f4c-47c90a3a855e","system_id":"levelo_inurba_marseille","lat":43.28438,"lon":5.39178,"is_reserved":false,"is_disabled":false,"rental_uris":{"android":"levelo://app?vid=df7acb4d-6a30-48e5-9f4c-47c90a3a855e","ios":"levelo://app?vid=df7acb4d-6a30-48e5-9f4c-47c90a3a855e"},"vehicle_type_id":"4","last_reported":1729055371,"current_range_meters":35600,"station_id":"ce4bhoh2rcd13ifvqh5g","pricing_plan_id":"cebpf4jnsgd1na2vs0mg"},{"bike_id":"0648669d-f82d-4a29-99dc-57140eb55b69","system_id":"levelo_inurba_marseille","lat":43.27814,"lon":5.40712,"is_reserved":false,"is_disabled":false,"rental_uris":{"android":"levelo://app?vid=0648669d-f82d-4a29-99dc-57140eb55b69","ios":"levelo://app?vid=0648669d-f82d-4a29-99dc-57140eb55b69"},"vehicle_type_id":"4","last_reported":1729055371,"current_range_meters":30800,"station_id":"ce4bhnh2rcd13ifvqgtg","pricing_plan_id":"cebpf4jnsgd1na2vs0mg"},{"bike_id":"a9d80141-cb04-4f88-bcc5-9763572e3517","system_id":"levelo_inurba_marseille","lat":43.23194,"lon":5.35549,"is_reserved":false,"is_disabled":false,"rental_uris":{"android":"levelo://app?vid=a9d80141-cb04-4f88-bcc5-9763572e3517","ios":"levelo://app?vid=a9d80141-cb04-4f88-bcc5-9763572e3517"},"vehicle_type_id":"4","last_reported":1729055371,"current_range_meters":38400,"station_id":"ce4bhu92rcd13ifvqi70","pricing_plan_id":"cebpf4jnsgd1na2vs0mg"},{"bike_id":"e1e26b32-e0f7-4ea7-8874-c38e395b36e1","system_id":"levelo_inurba_marseille","lat":43.28702,"lon":5.39978,"is_reserved":false,"is_disabled":false,"rental_uris":{"android":"levelo://app?vid=e1e26b32-e0f7-4ea7-8874-c38e395b36e1","ios":"levelo://app?vid=e1e26b32-e0f7-4ea7-8874-c38e395b36e1"},"vehicle_type_id":"4","last_reported":1729055371,"current_range_meters":24400,"station_id":"ce4bho92rcd13ifvqh3g","pricing_plan_id":"cebpf4jnsgd1na2vs0mg"},{"bike_id":"d06f24f3-1961-4c39-8b26-c72733863fe9","system_id":"levelo_inurba_marseille","lat":43.33781,"lon":5.37443,"is_reserved":false,"is_disabled":false,"rental_uris":{"android":"levelo://app?vid=d06f24f3-1961-4c39-8b26-c72733863fe9","ios":"levelo://app?vid=d06f24f3-1961-4c39-8b26-c72733863fe9"},"vehicle_type_id":"4","last_reported":1729055371,"current_range_meters":21600,"station_id":"","pricing_plan_id":"cebpf4jnsgd1na2vs0mg"},{"bike_id":"77ad0345-679d-415c-8025-2f8b202ae769","system_id":"levelo_inurba_marseille","lat":43.31704,"lon":5.40464,"is_reserved":false,"is_disabled":false,"rental_uris":{"android":"levelo://app?vid=77ad0345-679d-415c-8025-2f8b202ae769","ios":"levelo://app?vid=77ad0345-679d-415c-8025-2f8b202ae769"},"vehicle_type_id":"4","last_reported":1729055371,"current_range_meters":37600,"station_id":"ce4bh012rcd13ifvqd00","pricing_plan_id":"cebpf4jnsgd1na2vs0mg"},{"bike_id":"5db95380-9dea-4d0d-b5da-432c1cf25039","system_id":"levelo_inurba_marseille","lat":43.270602,"lon":5.402629,"is_reserved":false,"is_disabled":false,"rental_uris":{"android":"levelo://app?vid=5db95380-9dea-4d0d-b5da-432c1cf25039","ios":"levelo://app?vid=5db95380-9dea-4d0d-b5da-432c1cf25039"},"vehicle_type_id":"4","last_reported":1729055371,"current_range_meters":38400,"station_id":"ce4bhk92rcd13ifvqgc0","pricing_plan_id":"cebpf4jnsgd1na2vs0mg"},{"bike_id":"5fcc9277-6082-429c-a40f-1a71556e394c","system_id":"levelo_inurba_marseille","lat":43.3113,"lon":5.37763,"is_reserved":false,"is_disabled":false,"rental_uris":{"android":"levelo://app?vid=5fcc9277-6082-429c-a40f-1a71556e394c","ios":"levelo://app?vid=5fcc9277-6082-429c-a40f-1a71556e394c"},"vehicle_type_id":"4","last_reported":1729055371,"current_range_meters":38800,"station_id":"ce4bgt92rcd13ifvqcg0","pricing_plan_id":"cebpf4jnsgd1na2vs0mg"},{"bike_id":"4f1712a5-53a6-4922-be42-d162dd37a0f1","system_id":"levelo_inurba_marseille","lat":43.29449,"lon":5.39757,"is_reserved":false,"is_disabled":false,"rental_uris":{"android":"levelo://app?vid=4f1712a5-53a6-4922-be42-d162dd37a0f1","ios":"levelo://app?vid=4f1712a5-53a6-4922-be42-d162dd37a0f1"},"vehicle_type_id":"4","last_reported":1729055371,"current_range_meters":17600,"station_id":"ce4bh3h2rcd13ifvqdo0","pricing_plan_id":"cebpf4jnsgd1na2vs0mg"},{"bike_id":"558f1d74-f6f0-4bd4-8403-458ac786e2ee","system_id":"levelo_inurba_marseille","lat":43.31273,"lon":5.40171,"is_reserved":false,"is_disabled":false,"rental_uris":{"android":"levelo://app?vid=558f1d74-f6f0-4bd4-8403-458ac786e2ee","ios":"levelo://app?vid=558f1d74-f6f0-4bd4-8403-458ac786e2ee"},"vehicle_type_id":"4","last_reported":1729055371,"current_range_meters":38800,"station_id":"ce4bh092rcd13ifvqd30","pricing_plan_id":"cebpf4jnsgd1na2vs0mg"},{"bike_id":"8b3decf7-2688-4c5e-b7f9-cf528467dc8d","system_id":"levelo_inurba_marseille","lat":43.29978,"lon":5.37178,"is_reserved":false,"is_disabled":false,"rental_uris":{"android":"levelo://app?vid=8b3decf7-2688-4c5e-b7f9-cf528467dc8d","ios":"levelo://app?vid=8b3decf7-2688-4c5e-b7f9-cf528467dc8d"},"vehicle_type_id":"4","last_reported":1729055371,"current_range_meters":18000,"station_id":"ce4bgr92rcd13ifvqc7g","pricing_plan_id":"cebpf4jnsgd1na2vs0mg"},{"bike_id":"d41309ab-1a1f-4395-acaa-455483c3f8e1","system_id":"levelo_inurba_marseille","lat":43.23193,"lon":5.35557,"is_reserved":false,"is_disabled":false,"rental_uris":{"android":"levelo://app?vid=d41309ab-1a1f-4395-acaa-455483c3f8e1","ios":"levelo://app?vid=d41309ab-1a1f-4395-acaa-455483c3f8e1"},"vehicle_type_id":"4","last_reported":1729055371,"current_range_meters":28800,"station_id":"ce4bhu92rcd13ifvqi70","pricing_plan_id":"cebpf4jnsgd1na2vs0mg"},{"bike_id":"f66bb608-2fde-4de2-9b8e-1584fe83bcf3","system_id":"levelo_inurba_marseille","lat":43.31488,"lon":5.373,"is_reserved":false,"is_disabled":false,"rental_uris":{"android":"levelo://app?vid=f66bb608-2fde-4de2-9b8e-1584fe83bcf3","ios":"levelo://app?vid=f66bb608-2fde-4de2-9b8e-1584fe83bcf3"},"vehicle_type_id":"4","last_reported":1729055371,"current_range_meters":37600,"station_id":"ce4bgt12rcd13ifvqcd0","pricing_plan_id":"cebpf4jnsgd1na2vs0mg"},{"bike_id":"06dd358a-0f08-4b8d-ae05-8eaa2ef0f385","system_id":"levelo_inurba_marseille","lat":43.32041,"lon":5.41571,"is_reserved":false,"is_disabled":false,"rental_uris":{"android":"levelo://app?vid=06dd358a-0f08-4b8d-ae05-8eaa2ef0f385","ios":"levelo://app?vid=06dd358a-0f08-4b8d-ae05-8eaa2ef0f385"},"vehicle_type_id":"4","last_reported":1729055371,"current_range_meters":38000,"station_id":"ce4bhq92rcd13ifvqhkg","pricing_plan_id":"cebpf4jnsgd1na2vs0mg"},{"bike_id":"bf5516cd-fa21-4eb4-8e8c-cee2db3420f9","system_id":"levelo_inurba_marseille","lat":43.290446,"lon":5.399543,"is_reserved":false,"is_disabled":false,"rental_uris":{"android":"levelo://app?vid=bf5516cd-fa21-4eb4-8e8c-cee2db3420f9","ios":"levelo://app?vid=bf5516cd-fa21-4eb4-8e8c-cee2db3420f9"},"vehicle_type_id":"4","last_reported":1729055371,"current_range_meters":35600,"station_id":"ce4bh392rcd13ifvqdm0","pricing_plan_id":"cebpf4jnsgd1na2vs0mg"},{"bike_id":"b76ca384-370b-400c-bc52-5dac189e1af4","system_id":"levelo_inurba_marseille","lat":43.30298,"lon":5.39213,"is_reserved":false,"is_disabled":false,"rental_uris":{"android":"levelo://app?vid=b76ca384-370b-400c-bc52-5dac189e1af4","ios":"levelo://app?vid=b76ca384-370b-400c-bc52-5dac189e1af4"},"vehicle_type_id":"4","last_reported":1729055371,"current_range_meters":34000,"station_id":"ce4bgkh2rcd13ifvqbk0","pricing_plan_id":"cebpf4jnsgd1na2vs0mg"},{"bike_id":"6ef911d3-712e-495c-8b16-a9d320855567","system_id":"levelo_inurba_marseille","lat":43.27497,"lon":5.42457,"is_reserved":false,"is_disabled":false,"rental_uris":{"android":"levelo://app?vid=6ef911d3-712e-495c-8b16-a9d320855567","ios":"levelo://app?vid=6ef911d3-712e-495c-8b16-a9d320855567"},"vehicle_type_id":"4","last_reported":1729055371,"current_range_meters":37600,"station_id":"ce4bhn92rcd13ifvqgrg","pricing_plan_id":"cebpf4jnsgd1na2vs0mg"},{"bike_id":"d4f5caad-33d7-43a3-8edd-3145745a627d","system_id":"levelo_inurba_marseille","lat":43.32063,"lon":5.41549,"is_reserved":false,"is_disabled":false,"rental_uris":{"android":"levelo://app?vid=d4f5caad-33d7-43a3-8edd-3145745a627d","ios":"levelo://app?vid=d4f5caad-33d7-43a3-8edd-3145745a627d"},"vehicle_type_id":"4","last_reported":1729055371,"current_range_meters":18000,"station_id":"ce4bhq92rcd13ifvqhkg","pricing_plan_id":"cebpf4jnsgd1na2vs0mg"},{"bike_id":"b3581752-b046-4ddf-abd7-7802a26b818e","system_id":"levelo_inurba_marseille","lat":43.30274,"lon":5.3772,"is_reserved":false,"is_disabled":false,"rental_uris":{"android":"levelo://app?vid=b3581752-b046-4ddf-abd7-7802a26b818e","ios":"levelo://app?vid=b3581752-b046-4ddf-abd7-7802a26b818e"},"vehicle_type_id":"4","last_reported":1729055371,"current_range_meters":37600,"station_id":"ce4bguh2rcd13ifvqcj0","pricing_plan_id":"cebpf4jnsgd1na2vs0mg"},{"bike_id":"f9090864-a36b-45b0-829c-85757d1c6432","system_id":"levelo_inurba_marseille","lat":43.24804,"lon":5.3746,"is_reserved":false,"is_disabled":false,"rental_uris":{"android":"levelo://app?vid=f9090864-a36b-45b0-829c-85757d1c6432","ios":"levelo://app?vid=f9090864-a36b-45b0-829c-85757d1c6432"},"vehicle_type_id":"4","last_reported":1729055371,"current_range_meters":38400,"station_id":"ce4bhgh2rcd13ifvqfb0","pricing_plan_id":"cebpf4jnsgd1na2vs0mg"},{"bike_id":"f9e6da2f-6416-4966-97f8-b407d1cfd273","system_id":"levelo_inurba_marseille","lat":43.287013,"lon":5.373919,"is_reserved":false,"is_disabled":false,"rental_uris":{"android":"levelo://app?vid=f9e6da2f-6416-4966-97f8-b407d1cfd273","ios":"levelo://app?vid=f9e6da2f-6416-4966-97f8-b407d1cfd273"},"vehicle_type_id":"4","last_reported":1729055371,"current_range_meters":38000,"station_id":"ce4bh3p2rcd13ifvqdq0","pricing_plan_id":"cebpf4jnsgd1na2vs0mg"},