{"last_updated":1679256452,"ttl":30,"version":"2.2","data":{"bikes":[{"bike_id":"a4c6a773-ad03-418a-96b1-fd4d5b3b6c71","system_id":"levelo_inurba_marseille","lat":43.312239,"lon":5.368562,"is_reserved":false,"is_disabled":false,"rental_uris":{"android":"levelo://app?vid=a4c6a773-ad03-418a-96b1-fd4d5b3b6c71","ios":"levelo://app?vid=a4c6a773-ad03-418a-96b1-fd4d5b3b6c71"},"vehicle_type_id":"4","last_reported":1679256453,"current_range_meters":1200,"station_id":"ce4bgl92rcd13ifvqbq0","pricing_plan_id":"free"},{"bike_id":"ebc6baae-bf06-41d7-91df-5e139de2bd1f","system_id":"levelo_inurba_marseille","lat":43.312239,"lon":5.368562,"is_reserved":false,"is_disabled":false,"rental_uris":{"android":"levelo://app?vid=ebc6baae-bf06-41d7-91df-5e139de2bd1f","ios":"levelo://app?vid=ebc6baae-bf06-41d7-91df-5e139de2bd1f"},"vehicle_type_id":"4","last_reported":1679256453,"current_range_meters":1200,"station_id":"ce4bgl92rcd13ifvqbq0","pricing_plan_id":"free"},{"bike_id":"a53df4b0-fd52-4721-9c07-8b8927d99efc","system_id":"levelo_inurba_marseille","lat":43.312239,"lon":5.368562,"is_reserved":false,"is_disabled":false,"rental_uris":{"android":"levelo://app?vid=a53df4b0-fd52-4721-9c07-8b8927d99efc","ios":"levelo://app?vid=a53df4b0-fd52-4721-9c07-8b8927d99efc"},"vehicle_type_id":"4","last_reported":1679256453,"current_range_meters":5600,"station_id":"ce4bgl92rcd13ifvqbq0","pricing_plan_id":"free"},{"bike_id":"d1d53a01-2978-4949-a6a4-ad0cca60a10b","system_id":"levelo_inurba_marseille","lat":43.31218,"lon":5.36866,"is_reserved":false,"is_disabled":false,"rental_uris":{"android":"levelo://app?vid=d1d53a01-2978-4949-a6a4-ad0cca60a10b","ios":"levelo://app?vid=d1d53a01-2978-4949-a6a4-ad0cca60a10b"},"vehicle_type_id":"4","last_reported":1679256453,"current_range_meters":10400,"station_id":"ce4bgl92rcd13ifvqbq0","pricing_plan_id":"free"},{"bike_id":"e1c5552a-468b-4d10-879c-450c474c1ef9","system_id":"levelo_inurba_marseille","lat":43.309076,"lon":5.368465,"is_reserved":false,"is_disabled":false,"rental_uris":{"android":"levelo://app?vid=e1c5552a-468b-4d10-879c-450c474c1ef9","ios":"levelo://app?vid=e1c5552a-468b-4d10-879c-450c474c1ef9"},"vehicle_type_id":"4","last_reported":1679256453,"current_range_meters":0,"station_id":"ce4bgn92rcd13ifvqbvg","pricing_plan_id":"free"},{"bike_id":"647590c1-72a5-4adf-8cfc-b6b9648afb66","system_id":"levelo_inurba_marseille","lat":43.314811,"lon":5.373103,"is_reserved":false,"is_disabled":false,"rental_uris":{"android":"levelo://app?vid=647590c1-72a5-4adf-8cfc-b6b9648afb66","ios":"levelo://app?vid=647590c1-72a5-4adf-8cfc-b6b9648afb66"},"vehicle_type_id":"4","last_reported":1679256453,"current_range_meters":7200,"station_id":"ce4bgt12rcd13ifvqcd0","pricing_plan_id":"free"},{"bike_id":"3f391cec-3587-4377-9916-8e81e0482b00","system_id":"levelo_inurba_marseille","lat":43.314811,"lon":5.373103,"is_reserved":false,"is_disabled":false,"rental_uris":{"android":"levelo://app?vid=3f391cec-3587-4377-9916-8e81e0482b00","ios":"levelo://app?vid=3f391cec-3587-4377-9916-8e81e0482b00"},"vehicle_type_id":"4","last_reported":1679256453,"current_range_meters":4800,"station_id":"ce4bgt12rcd13ifvqcd0","pricing_plan_id":"free"},{"bike_id":"88d83271-896b-4d1a-9a1a-199a7fc7d556","system_id":"levelo_inurba_marseille","lat":43.314811,"lon":5.373103,"is_reserved":false,"is_disabled":false,"rental_uris":{"android":"levelo://app?vid=88d83271-896b-4d1a-9a1a-199a7fc7d556","ios":"levelo://app?vid=88d83271-896b-4d1a-9a1a-199a7fc7d556"},"vehicle_type_id":"4","last_reported":1679256453,"current_range_meters":10000,"station_id":"ce4bgt12rcd13ifvqcd0","pricing_plan_id":"free"},{"bike_id":"f89cdec3-81fb-492d-aaf4-50d04435872c","system_id":"levelo_inurba_marseille","lat":43.306405,"lon":5.374235,"is_reserved":false,"is_disabled":false,"rental_uris":{"android":"levelo://app?vid=f89cdec3-81fb-492d-aaf4-50d04435872c","ios":"levelo://app?vid=f89cdec3-81fb-492d-aaf4-50d04435872c"},"vehicle_type_id":"4","last_reported":1679256453,"current_range_meters":800,"station_id":"","pricing_plan_id":"free"},{"bike_id":"4e6fea43-a84e-480c-a0c8-d11b281bd231","system_id":"levelo_inurba_marseille","lat":43.30553,"lon":5.37608,"is_reserved":false,"is_disabled":false,"rental_uris":{"android":"levelo://app?vid=4e6fea43-a84e-480c-a0c8-d11b281bd231","ios":"levelo://app?vid=4e6fea43-a84e-480c-a0c8-d11b281bd231"},"vehicle_type_id":"4","last_reported":1679256453,"current_range_meters":4400,"station_id":"","pricing_plan_id":"free"},{"bike_id":"dc990fa2-588f-49c5-bf09-78550ebff72e","system_id":"levelo_inurba_marseille","lat":43.308012,"lon":5.381511,"is_reserved":false,"is_disabled":false,"rental_uris":{"android":"levelo://app?vid=dc990fa2-588f-49c5-bf09-78550ebff72e","ios":"levelo://app?vid=dc990fa2-588f-49c5-bf09-78550ebff72e"},"vehicle_type_id":"4","last_reported":1679256453,"current_range_meters":3600,"station_id":"ce4bgt12rcd13ifvqce0","pricing_plan_id":"free"},{"bike_id":"60d06e6a-5282-43be-97df-efd0495afa7e","system_id":"levelo_inurba_marseille","lat":43.308012,"lon":5.381511,"is_reserved":false,"is_disabled":false,"rental_uris":{"android":"levelo://app?vid=60d06e6a-5282-43be-97df-efd0495afa7e","ios":"levelo://app?vid=60d06e6a-5282-43be-97df-efd0495afa7e"},"vehicle_type_id":"4","last_reported":1679256453,"current_range_meters":3600,"station_id":"ce4bgt12rcd13ifvqce0","pricing_plan_id":"free"},{"bike_id":"03cf9aa7-f687-4cda-9af4-ac4e2cae9d7d","system_id":"levelo_inurba_marseille","lat":43.308012,"lon":5.381511,"is_reserved":false,"is_disabled":false,"rental_uris":{"android":"levelo://app?vid=03cf9aa7-f687-4cda-9af4-ac4e2cae9d7d","ios":"levelo://app?vid=03cf9aa7-f687-4cda-9af4-ac4e2cae9d7d"},"vehicle_type_id":"4","last_reported":1679256453,"current_range_meters":0,"station_id":"ce4bgt12rcd13ifvqce0","pricing_plan_id":"free"},{"bike_id":"4e16c8b9-557c-47d4-822b-ec65615f9219","system_id":"levelo_inurba_marseille","lat":43.308012,"lon":5.381511,"is_reserved":false,"is_disabled":false,"rental_uris":{"android":"levelo://app?vid=4e16c8b9-557c-47d4-822b-ec65615f9219","ios":"levelo://app?vid=4e16c8b9-557c-47d4-822b-ec65615f9219"},"vehicle_type_id":"4","last_reported":1679256453,"current_range_meters":11200,"station_id":"ce4bgt12rcd13ifvqce0","pricing_plan_id":"free"},{"bike_id":"8412cb1a-01ca-4040-8827-0522db1df323","system_id":"levelo_inurba_marseille","lat":43.304606,"lon":5.379026,"is_reserved":false,"is_disabled":false,"rental_uris":{"android":"levelo://app?vid=8412cb1a-01ca-4040-8827-0522db1df323","ios":"levelo://app?vid=8412cb1a-01ca-4040-8827-0522db1df323"},"vehicle_type_id":"4","last_reported":1679256453,"current_range_meters":13200,"station_id":"ce4bgup2rcd13ifvqcn0","pricing_plan_id":"free"},{"bike_id":"f14a7db1-247f-4a66-a689-9a828c067b8a","system_id":"levelo_inurba_marseille","lat":43.313571,"lon":5.384829,"is_reserved":false,"is_disabled":false,"rental_uris":{"android":"levelo://app?vid=f14a7db1-247f-4a66-a689-9a828c067b8a","ios":"levelo://app?vid=f14a7db1-247f-4a66-a689-9a828c067b8a"},"vehicle_type_id":"4","last_reported":1679256453,"current_range_meters":20400,"station_id":"ce4bgt92rcd13ifvqcf0","pricing_plan_id":"free"},{"bike_id":"fc29ebda-dcc7-4210-b56e-bfbbc216868d","system_id":"levelo_inurba_marseille","lat":43.313571,"lon":5.384829,"is_reserved":false,"is_disabled":false,"rental_uris":{"android":"levelo://app?vid=fc29ebda-dcc7-4210-b56e-bfbbc216868d","ios":"levelo://app?vid=fc29ebda-dcc7-4210-b56e-bfbbc216868d"},"vehicle_type_id":"4","last_reported":1679256453,"current_range_meters":0,"station_id":"ce4bgt92rcd13ifvqcf0","pricing_plan_id":"free"},{"bike_id":"39367cdb-155e-4b08-ac38-d7ebe7cf3885","system_id":"levelo_inurba_marseille","lat":43.299094,"lon":5.365415,"is_reserved":false,"is_disabled":false,"rental_uris":{"android":"levelo://app?vid=39367cdb-155e-4b08-ac38-d7ebe7cf3885","ios":"levelo://app?vid=39367cdb-155e-4b08-ac38-d7ebe7cf3885"},"vehicle_type_id":"4","last_reported":1679256453,"current_range_meters":400,"station_id":"ce4bgm92rcd13ifvqbr0","pricing_plan_id":"free"},{"bike_id":"25686d9e-e43a-4c4d-a693-05294dd88c4f","system_id":"levelo_inurba_marseille","lat":43.29832,"lon":5.36261,"is_reserved":false,"is_disabled":false,"rental_uris":{"android":"levelo://app?vid=25686d9e-e43a-4c4d-a693-05294dd88c4f","ios":"levelo://app?vid=25686d9e-e43a-4c4d-a693-05294dd88c4f"},"vehicle_type_id":"4","last_reported":1679256453,"current_range_meters":6400,"station_id":"","pricing_plan_id":"free"},{"bike_id":"1f50a77f-c815-47d0-9a95-4aa1a7265cee","system_id":"levelo_inurba_marseille","lat":43.311722,"lon":5.387247,"is_reserved":false,"is_disabled":false,"rental_uris":{"android":"levelo://app?vid=1f50a77f-c815-47d0-9a95-4aa1a7265cee","ios":"levelo://app?vid=1f50a77f-c815-47d0-9a95-4aa1a7265cee"},"vehicle_type_id":"4","last_reported":1679256453,"current_range_meters":16000,"station_id":"ce4bgv12rcd13ifvqcp0","pricing_plan_id":"free"},{"bike_id":"04828532-ba93-4038-a742-9ab68a2bcc6b","system_id":"levelo_inurba_marseille","lat":43.311722,"lon":5.387247,"is_reserved":false,"is_disabled":false,"rental_uris":{"android":"levelo://app?vid=04828532-ba93-4038-a742-9ab68a2bcc6b","ios":"levelo://app?vid=04828532-ba93-4038-a742-9ab68a2bcc6b"},"vehicle_type_id":"4","last_reported":1679256453,"current_range_meters":10800,"station_id":"ce4bgv12rcd13ifvqcp0","pricing_plan_id":"free"},{"bike_id":"7b38ce2a-d95e-4fe6-82ed-235640470951","system_id":"levelo_inurba_marseille","lat":43.328371,"lon":5.366909,"is_reserved":false,"is_disabled":false,"rental_uris":{"android":"levelo://app?vid=7b38ce2a-d95e-4fe6-82ed-235640470951","ios":"levelo://app?vid=7b38ce2a-d95e-4fe6-82ed-235640470951"},"vehicle_type_id":"4","last_reported":1679256453,"current_range_meters":9600,"station_id":"ce4bhs92rcd13ifvqi0g","pricing_plan_id":"free"},{"bike_id":"f79fc366-a3ec-48e5-aa42-45166ee1f331","system_id":"levelo_inurba_marseille","lat":43.29681,"lon":5.37293,"is_reserved":false,"is_disabled":false,"rental_uris":{"android":"levelo://app?vid=f79fc366-a3ec-48e5-aa42-45166ee1f331","ios":"levelo://app?vid=f79fc366-a3ec-48e5-aa42-45166ee1f331"},"vehicle_type_id":"4","last_reported":1679256453,"current_range_meters":0,"station_id":"","pricing_plan_id":"free"},{"bike_id":"d8138fa9-3eed-4446-86bd-aac2e2d19b66","system_id":"levelo_inurba_marseille","lat":43.296805,"lon":5.372975,"is_reserved":false,"is_disabled":false,"rental_uris":{"android":"levelo://app?vid=d8138fa9-3eed-4446-86bd-aac2e2d19b66","ios":"levelo://app?vid=d8138fa9-3eed-4446-86bd-aac2e2d19b66"},"vehicle_type_id":"4","last_reported":1679256453,"current_range_meters":16800,"station_id":"","pricing_plan_id":"free"},{"bike_id":"013d55aa-dde2-4987-9af5-784f54551cab","system_id":"levelo_inurba_marseille","lat":43.32842,"lon":5.375253,"is_reserved":false,"is_disabled":false,"rental_uris":{"android":"levelo://app?vid=013d55aa-dde2-4987-9af5-784f54551cab","ios":"levelo://app?vid=013d55aa-dde2-4987-9af5-784f54551cab"},"vehicle_type_id":"4","last_reported":1679256453,"current_range_meters":7200,"station_id":"","pricing_plan_id":"free"},{"bike_id":"9dd46a1f-549f-4e6a-9388-b19070774e1a","system_id":"levelo_inurba_marseille","lat":43.309589,"lon":5.390258,"is_reserved":false,"is_disabled":false,"rental_uris":{"android":"levelo://app?vid=9dd46a1f-549f-4e6a-9388-b19070774e1a","ios":"levelo://app?vid=9dd46a1f-549f-4e6a-9388-b19070774e1a"},"vehicle_type_id":"4","last_reported":1679256453,"current_range_meters":15200,"station_id":"ce4bgup2rcd13ifvqco0","pricing_plan_id":"free"},{"bike_id":"d2806991-aca0-4e2f-823e-8c134a702787","system_id":"levelo_inurba_marseille","lat":43.31758,"lon":5.3901,"is_reserved":false,"is_disabled":false,"rental_uris":{"android":"levelo://app?vid=d2806991-aca0-4e2f-823e-8c134a702787","ios":"levelo://app?vid=d2806991-aca0-4e2f-823e-8c134a702787"},"vehicle_type_id":"4","last_reported":1679256453,"current_range_meters":13200,"station_id":"ce4bhqp2rcd13ifvqhng","pricing_plan_id":"free"},{"bike_id":"9ae4ac68-6977-4feb-b8e8-b76d632ab699","system_id":"levelo_inurba_marseille","lat":43.317557,"lon":5.390173,"is_reserved":false,"is_disabled":false,"rental_uris":{"android":"levelo://app?vid=9ae4ac68-6977-4feb-b8e8-b76d632ab699","ios":"levelo://app?vid=9ae4ac68-6977-4feb-b8e8-b76d632ab699"},"vehicle_type_id":"4","last_reported":1679256453,"current_range_meters":20000,"station_id":"ce4bhqp2rcd13ifvqhng","pricing_plan_id":"free"},{"bike_id":"8f0253d3-dd17-42cf-841b-2d4082d06618","system_id":"levelo_inurba_marseille","lat":43.298035,"lon":5.38092,"is_reserved":false,"is_disabled":false,"rental_uris":{"android":"levelo://app?vid=8f0253d3-dd17-42cf-841b-2d4082d06618","ios":"levelo://app?vid=8f0253d3-dd17-42cf-841b-2d4082d06618"},"vehicle_type_id":"4","last_reported":1679256453,"current_range_meters":0,"station_id":"ce4bgip2rcd13ifvqbb0","pricing_plan_id":"free"},{"bike_id":"8eb8f853-1b88-4eb6-9720-426597402ed4","system_id":"levelo_inurba_marseille","lat":43.295748,"lon":5.37522,"is_reserved":false,"is_disabled":false,"rental_uris":{"android":"levelo://app?vid=8eb8f853-1b88-4eb6-9720-426597402ed4","ios":"levelo://app?vid=8eb8f853-1b88-4eb6-9720-426597402ed4"},"vehicle_type_id":"4","last_reported":1679256453,"current_range_meters":0,"station_id":"ce4bgh92rcd13ifvqb50","pricing_plan_id":"free"},{"bike_id":"4bb44b4f-21f5-492f-92b4-4cf20df97d77","system_id":"levelo_inurba_marseille","lat":43.295279,"lon":5.375048,"is_reserved":false,"is_disabled":false,"rental_uris":{"android":"levelo://app?vid=4bb44b4f-21f5-492f-92b4-4cf20df97d77","ios":"levelo://app?vid=4bb44b4f-21f5-492f-92b4-4cf20df97d77"},"vehicle_type_id":"4","last_reported":1679256453,"current_range_meters":0,"station_id":"ce4bgkp2rcd13ifvqbmg","pricing_plan_id":"free"},{"bike_id":"fa39a3c1-92d2-47f6-a16c-ae6f9ca4963c","system_id":"levelo_inurba_marseille","lat":43.32367,"lon":5.388836,"is_reserved":false,"is_disabled":false,"rental_uris":{"android":"levelo://app?vid=fa39a3c1-92d2-47f6-a16c-ae6f9ca4963c","ios":"levelo://app?vid=fa39a3c1-92d2-47f6-a16c-ae6f9ca4963c"},"vehicle_type_id":"4","last_reported":1679256453,"current_range_meters":10000,"station_id":"ce4bhqp2rcd13ifvqhog","pricing_plan_id":"free"},{"bike_id":"dc2a66cb-9f68-41ff-afd4-106736553a96","system_id":"levelo_inurba_marseille","lat":43.32367,"lon":5.388836,"is_reserved":false,"is_disabled":false,"rental_uris":{"android":"levelo://app?vid=dc2a66cb-9f68-41ff-afd4-106736553a96","ios":"levelo://app?vid=dc2a66cb-9f68-41ff-afd4-106736553a96"},"vehicle_type_id":"4","last_reported":1679256453,"current_range_meters":7200,"station_id":"ce4bhqp2rcd13ifvqhog","pricing_plan_id":"free"},{"bike_id":"25a690a1-8ce6-46a3-bda6-cea29969af9d","system_id":"levelo_inurba_marseille","lat":43.32367,"lon":5.388836,"is_reserved":false,"is_disabled":false,"rental_uris":{"android":"levelo://app?vid=25a690a1-8ce6-46a3-bda6-cea29969af9d","ios":"levelo://app?vid=25a690a1-8ce6-46a3-bda6-cea29969af9d"},"vehicle_type_id":"4","last_reported":1679256453,"current_range_meters":2800,"station_id":"ce4bhqp2rcd13ifvqhog","pricing_plan_id":"free"},{"bike_id":"43432505-af63-4ad9-81d4-62233cd7a6a7","system_id":"levelo_inurba_marseille","lat":43.293249,"lon":5.371578,"is_reserved":false,"is_disabled":false,"rental_uris":{"android":"levelo://app?vid=43432505-af63-4ad9-81d4-62233cd7a6a7","ios":"levelo://app?vid=43432505-af63-4ad9-81d4-62233cd7a6a7"},"vehicle_type_id":"4","last_reported":1679256453,"current_range_meters":4800,"station_id":"ce4bgh92rcd13ifvqb40","pricing_plan_id":"free"},{"bike_id":"e765f494-da2b-435a-8b93-eb9220a3398c","system_id":"levelo_inurba_marseille","lat":43.293009,"lon":5.374584,"is_reserved":false,"is_disabled":false,"rental_uris":{"android":"levelo://app?vid=e765f494-da2b-435a-8b93-eb9220a3398c","ios":"levelo://app?vid=e765f494-da2b-435a-8b93-eb9220a3398c"},"vehicle_type_id":"4","last_reported":1679256453,"current_range_meters":32000,"station_id":"ce4bgi12rcd13ifvqb70","pricing_plan_id":"free"},{"bike_id":"b530d21d-fefa-4676-9a2b-afa13cfdc424","system_id":"levelo_inurba_marseille","lat":43.293009,"lon":5.374584,"is_reserved":false,"is_disabled":false,"rental_uris":{"android":"levelo://app?vid=b530d21d-fefa-4676-9a2b-afa13cfdc424","ios":"levelo://app?vid=b530d21d-fefa-4676-9a2b-afa13cfdc424"},"vehicle_type_id":"4","last_reported":1679256453,"current_range_meters":0,"station_id":"ce4bgi12rcd13ifvqb70","pricing_plan_id":"free"},{"bike_id":"d88a6ad3-4c42-45af-8c1a-7cd35290aa61","system_id":"levelo_inurba_marseille","lat":43.300946,"lon":5.390511,"is_reserved":false,"is_disabled":false,"rental_uris":{"android":"levelo://app?vid=d88a6ad3-4c42-45af-8c1a-7cd35290aa61","ios":"levelo://app?vid=d88a6ad3-4c42-45af-8c1a-7cd35290aa61"},"vehicle_type_id":"4","last_reported":1679256453,"current_range_meters":0,"station_id":"ce4bh192rcd13ifvqdb0","pricing_plan_id":"free"},{"bike_id":"4b8164cf-9f03-4bdf-89e3-f717a628b5e6","system_id":"levelo_inurba_marseille","lat":43.292311,"lon":5.360731,"is_reserved":false,"is_disabled":false,"rental_uris":{"android":"levelo://app?vid=4b8164cf-9f03-4bdf-89e3-f717a628b5e6","ios":"levelo://app?vid=4b8164cf-9f03-4bdf-89e3-f717a628b5e6"},"vehicle_type_id":"4","last_reported":1679256453,"current_range_meters":19600,"station_id":"ce4bhbh2rcd13ifvqeqg","pricing_plan_id":"free"},{"bike_id":"a3a13031-96ee-4617-a3bb-0e0211892f5d","system_id":"levelo_inurba_marseille","lat":43.300852,"lon":5.390859,"is_reserved":false,"is_disabled":false,"rental_uris":{"android":"levelo://app?vid=a3a13031-96ee-4617-a3bb-0e0211892f5d","ios":"levelo://app?vid=a3a13031-96ee-4617-a3bb-0e0211892f5d"},"vehicle_type_id":"4","last_reported":1679256453,"current_range_meters":5600,"station_id":"ce4bh192rcd13ifvqdb0","pricing_plan_id":"free"},{"bike_id":"ead6c25a-3d3b-447a-8aca-e5b746fbaf9a","system_id":"levelo_inurba_marseille","lat":43.30085,"lon":5.390856,"is_reserved":false,"is_disabled":false,"rental_uris":{"android":"levelo://app?vid=ead6c25a-3d3b-447a-8aca-e5b746fbaf9a","ios":"levelo://app?vid=ead6c25a-3d3b-447a-8aca-e5b746fbaf9a"},"vehicle_type_id":"4","last_reported":1679256453,"current_range_meters":12400,"station_id":"ce4bh192rcd13ifvqdb0","pricing_plan_id":"free"},{"bike_id":"51222e4b-a0bc-4a22-b72d-56a09a459c3a","system_id":"levelo_inurba_marseille","lat":43.29872,"lon":5.38914,"is_reserved":false,"is_disabled":false,"rental_uris":{"android":"levelo://app?vid=51222e4b-a0bc-4a22-b72d-56a09a459c3a","ios":"levelo://app?vid=51222e4b-a0bc-4a22-b72d-56a09a459c3a"},"vehicle_type_id":"4","last_reported":1679256453,"current_range_meters":19200,"station_id":"ce4bh392rcd13ifvqdl0","pricing_plan_id":"free"},{"bike_id":"b2b00d11-4fa9-4d2e-88a8-9a24ccf7d766","system_id":"levelo_inurba_marseille","lat":43.313291,"lon":5.396838,"is_reserved":false,"is_disabled":false,"rental_uris":{"android":"levelo://app?vid=b2b00d11-4fa9-4d2e-88a8-9a24ccf7d766","ios":"levelo://app?vid=b2b00d11-4fa9-4d2e-88a8-9a24ccf7d766"},"vehicle_type_id":"4","last_reported":1679256453,"current_range_meters":9200,"station_id":"ce4bgvp2rcd13ifvqcu0","pricing_plan_id":"free"},{"bike_id":"44f7d5af-0afb-4c05-aa8a-ac1c30a8558c","system_id":"levelo_inurba_marseille","lat":43.313291,"lon":5.396838,"is_reserved":false,"is_disabled":false,"rental_uris":{"android":"levelo://app?vid=44f7d5af-0afb-4c05-aa8a-ac1c30a8558c","ios":"levelo://app?vid=44f7d5af-0afb-4c05-aa8a-ac1c30a8558c"},"vehicle_type_id":"4","last_reported":1679256453,"current_range_meters":8800,"station_id":"ce4bgvp2rcd13ifvqcu0","pricing_plan_id":"free"},{"bike_id":"dd28a5df-e922-4045-9c40-a87afdd82ced","system_id":"levelo_inurba_marseille","lat":43.29529,"lon":5.385581,"is_reserved":false,"is_disabled":false,"rental_uris":{"android":"levelo://app?vid=dd28a5df-e922-4045-9c40-a87afdd82ced","ios":"levelo://app?vid=dd28a5df-e922-4045-9c40-a87afdd82ced"},"vehicle_type_id":"4","last_reported":1679256453,"current_range_meters":7200,"station_id":"ce4bgih2rcd13ifvqba0","pricing_plan_id":"free"},{"bike_id":"2392106f-d84e-4c9e-8a16-215cf8aaa750","system_id":"levelo_inurba_marseille","lat":43.302008,"lon":5.394694,"is_reserved":false,"is_disabled":false,"rental_uris":{"android":"levelo://app?vid=2392106f-d84e-4c9e-8a16-215cf8aaa750","ios":"levelo://app?vid=2392106f-d84e-4c9e-8a16-215cf8aaa750"},"vehicle_type_id":"4","last_reported":1679256453,"current_range_meters":6400,"station_id":"ce4bh0p2rcd13ifvqd70","pricing_plan_id":"free"},{"bike_id":"e4c7091b-d183-483b-a0ab-7f290f2ea6cf","system_id":"levelo_inurba_marseille","lat":43.290624,"lon":5.359245,"is_reserved":false,"is_disabled":false,"rental_uris":{"android":"levelo://app?vid=e4c7091b-d183-483b-a0ab-7f290f2ea6cf","ios":"levelo://app?vid=e4c7091b-d183-483b-a0ab-7f290f2ea6cf"},"vehicle_type_id":"4","last_reported":1679256453,"current_range_meters":0,"station_id":"ce4bha92rcd13ifvqeg0","pricing_plan_id":"free"},{"bike_id":"37228da4-66bd-43ce-a6f4-01f3a96a19b6","system_id":"levelo_inurba_marseille","lat":43.294197,"lon":5.38624,"is_reserved":false,"is_disabled":false,"rental_uris":{"android":"levelo://app?vid=37228da4-66bd-43ce-a6f4-01f3a96a19b6","ios":"levelo://app?vid=37228da4-66bd-43ce-a6f4-01f3a96a19b6"},"vehicle_type_id":"4","last_reported":1679256453,"current_range_meters":18400,"station_id":"ce4bh2h2rcd13ifvqdh0","pricing_plan_id":"free"},{"bike_id":"52be8854-6403-4d74-a327-4a59e40d33cd","system_id":"levelo_inurba_marseille","lat":43.289184,"lon":5.366408,"is_reserved":false,"is_disabled":false,"rental_uris":{"android":"levelo://app?vid=52be8854-6403-4d74-a327-4a59e40d33cd","ios":"levelo://app?vid=52be8854-6403-4d74-a327-4a59e40d33cd"},"vehicle_type_id":"4","last_reported":1679256453,"current_range_meters":0,"station_id":"ce4bhap2rcd13ifvqek0","pricing_plan_id":"free"},{"bike_id":"e7f7bb8e-48cb-4351-8103-390e90fc4291","system_id":"levelo_inurba_marseille","lat":43.292644,"lon":5.384257,"is_reserved":false,"is_disabled":false,"rental_uris":{"android":"levelo://app?vid=e7f7bb8e-48cb-4351-8103-390e90fc4291","ios":"levelo://app?vid=e7f7bb8e-48cb-4351-8103-390e90fc4291"},"vehicle_type_id":"4","last_reported":1679256453,"current_range_meters":2800,"station_id":"ce4bh692rcd13ifvqea0","pricing_plan_id":"free"},{"bike_id":"28c9b2ad-c581-4b09-86bc-7ffe92f1b6b3","system_id":"levelo_inurba_marseille","lat":43.292644,"lon":5.384257,"is_reserved":false,"is_disabled":false,"rental_uris":{"android":"levelo://app?vid=28c9b2ad-c581-4b09-86bc-7ffe92f1b6b3","ios":"levelo://app?vid=28c9b2ad-c581-4b09-86bc-7ffe92f1b6b3"},"vehicle_type_id":"4","last_reported":1679256453,"current_range_meters":8400,"station_id":"ce4bh692rcd13ifvqea0","pricing_plan_id":"free"},{"bike_id":"5a2301e3-a2de-426b-bcfb-3a61d8a03c53","system_id":"levelo_inurba_marseille","lat":43.33037,"lon":5.38921,"is_reserved":false,"is_disabled":false,"rental_uris":{"android":"levelo://app?vid=5a2301e3-a2de-426b-bcfb-3a61d8a03c53","ios":"levelo://app?vid=5a2301e3-a2de-426b-bcfb-3a61d8a03c53"},"vehicle_type_id":"4","last_reported":1679256453,"current_range_meters":0,"station_id":"","pricing_plan_id":"free"},{"bike_id":"64600df4-54d8-4aa3-a728-13ab03e4370b","system_id":"levelo_inurba_marseille","lat":43.330442,"lon":5.389148,"is_reserved":false,"is_disabled":false,"rental_uris":{"android":"levelo://app?vid=64600df4-54d8-4aa3-a728-13ab03e4370b","ios":"levelo://app?vid=64600df4-54d8-4aa3-a728-13ab03e4370b"},"vehicle_type_id":"4","last_reported":1679256453,"current_range_meters":6800,"station_id":"ce4bhr92rcd13ifvqhrg","pricing_plan_id":"free"},{"bike_id":"574cb7a9-bfb1-4bf2-a73d-a0f7ed99623d","system_id":"levelo_inurba_marseille","lat":43.330442,"lon":5.389148,"is_reserved":false,"is_disabled":false,"rental_uris":{"android":"levelo://app?vid=574cb7a9-bfb1-4bf2-a73d-a0f7ed99623d","ios":"levelo://app?vid=574cb7a9-bfb1-4bf2-a73d-a0f7ed99623d"},"vehicle_type_id":"4","last_reported":1679256453,"current_range_meters":0,"station_id":"ce4bhr92rcd13ifvqhrg","pricing_plan_id":"free"},{"bike_id":"89337e16-d286-4f39-a3d3-efaf38066988","system_id":"levelo_inurba_marseille","lat":43.29003,"lon":5.356113,"is_reserved":false,"is_disabled":false,"rental_uris":{"android":"levelo://app?vid=89337e16-d286-4f39-a3d3-efaf38066988","ios":"levelo://app?vid=89337e16-d286-4f39-a3d3-efaf38066988"},"vehicle_type_id":"4","last_reported":1679256453,"current_range_meters":6000,"station_id":"ce4bhb92rcd13ifvqen0","pricing_plan_id":"free"},{"bike_id":"3b0dc526-890a-4c46-91ac-cd25841e56b9","system_id":"levelo_inurba_marseille","lat":43.289759,"lon":5.378371,"is_reserved":false,"is_disabled":false,"rental_uris":{"android":"levelo://app?vid=3b0dc526-890a-4c46-91ac-cd25841e56b9","ios":"levelo://app?vid=3b0dc526-890a-4c46-91ac-cd25841e56b9"},"vehicle_type_id":"4","last_reported":1679256453,"current_range_meters":0,"station_id":"","pricing_plan_id":"free"},{"bike_id":"8d3ca5c6-c3be-4616-aca7-dd23811b1c7a","system_id":"levelo_inurba_marseille","lat":43.290138,"lon":5.382002,"is_reserved":false,"is_disabled":false,"rental_uris":{"android":"levelo://app?vid=8d3ca5c6-c3be-4616-aca7-dd23811b1c7a","ios":"levelo://app?vid=8d3ca5c6-c3be-4616-aca7-dd23811b1c7a"},"vehicle_type_id":"4","last_reported":1679256453,"current_range_meters":0,"station_id":"","pricing_plan_id":"free"},{"bike_id":"d0d7df32-c37a-428a-9862-70b0480dd19b","system_id":"levelo_inurba_marseille","lat":43.337455,"lon":5.374605,"is_reserved":false,"is_disabled":false,"rental_uris":{"android":"levelo://app?vid=d0d7df32-c37a-428a-9862-70b0480dd19b","ios":"levelo://app?vid=d0d7df32-c37a-428a-9862-70b0480dd19b"},"vehicle_type_id":"4","last_reported":1679256453,"current_range_meters":4000,"station_id":"","pricing_plan_id":"free"},{"bike_id":"3691d997-1cad-46ed-b7e6-586680d35f2f","system_id":"levelo_inurba_marseille","lat":43.337471,"lon":5.374571,"is_reserved":false,"is_disabled":false,"rental_uris":{"android":"levelo://app?vid=3691d997-1cad-46ed-b7e6-586680d35f2f","ios":"levelo://app?vid=3691d997-1cad-46ed-b7e6-586680d35f2f"},"vehicle_type_id":"4","last_reported":1679256453,"current_range_meters":16400,"station_id":"","pricing_plan_id":"free"},{"bike_id":"f3e60a9c-2b74-43cb-ac11-5dfafdbb73c0","system_id":"levelo_inurba_marseille","lat":43.337602,"lon":5.374664,"is_reserved":false,"is_disabled":false,"rental_uris":{"android":"levelo://app?vid=f3e60a9c-2b74-43cb-ac11-5dfafdbb73c0","ios":"levelo://app?vid=f3e60a9c-2b74-43cb-ac11-5dfafdbb73c0"},"vehicle_type_id":"4","last_reported":1679256453,"current_range_meters":20400,"station_id":"","pricing_plan_id":"free"},{"bike_id":"904dbd9b-db8f-4729-a6d5-18d1c88f321b","system_id":"levelo_inurba_marseille","lat":43.301117,"lon":5.398795,"is_reserved":false,"is_disabled":false,"rental_uris":{"android":"levelo://app?vid=904dbd9b-db8f-4729-a6d5-18d1c88f321b","ios":"levelo://app?vid=904dbd9b-db8f-4729-a6d5-18d1c88f321b"},"vehicle_type_id":"4","last_reported":1679256453,"current_range_meters":17600,"station_id":"ce4bh0h2rcd13ifvqd40","pricing_plan_id":"free"},{"bike_id":"3a8668c2-59b8-4ea5-bdb7-5e02e04190bb","system_id":"levelo_inurba_marseille","lat":43.301117,"lon":5.398795,"is_reserved":false,"is_disabled":false,"rental_uris":{"android":"levelo://app?vid=3a8668c2-59b8-4ea5-bdb7-5e02e04190bb","ios":"levelo://app?vid=3a8668c2-59b8-4ea5-bdb7-5e02e04190bb"},"vehicle_type_id":"4","last_reported":1679256453,"current_range_meters":11200,"station_id":"ce4bh0h2rcd13ifvqd40","pricing_plan_id":"free"},{"bike_id":"4416d9db-24ac-4ef1-9603-8e57b38af930","system_id":"levelo_inurba_marseille","lat":43.301117,"lon":5.398795,"is_reserved":false,"is_disabled":false,"rental_uris":{"android":"levelo://app?vid=4416d9db-24ac-4ef1-9603-8e57b38af930","ios":"levelo://app?vid=4416d9db-24ac-4ef1-9603-8e57b38af930"},"vehicle_type_id":"4","last_reported":1679256453,"current_range_meters":10400,"station_id":"ce4bh0h2rcd13ifvqd40","pricing_plan_id":"free"},{"bike_id":"b5125209-0a2e-4afb-bbd0-64ffb6ef35b0","system_id":"levelo_inurba_marseille","lat":43.286593,"lon":5.363346,"is_reserved":false,"is_disabled":false,"rental_uris":{"android":"levelo://app?vid=b5125209-0a2e-4afb-bbd0-64ffb6ef35b0","ios":"levelo://app?vid=b5125209-0a2e-4afb-bbd0-64ffb6ef35b0"},"vehicle_type_id":"4","last_reported":1679256453,"current_range_meters":3600,"station_id":"ce4bhah2rcd13ifvqej0","pricing_plan_id":"free"},{"bike_id":"a94248f1-3c0d-42e2-8cb1-cf4fa92ab279","system_id":"levelo_inurba_marseille","lat":43.286591,"lon":5.363346,"is_reserved":false,"is_disabled":false,"rental_uris":{"android":"levelo://app?vid=a94248f1-3c0d-42e2-8cb1-cf4fa92ab279","ios":"levelo://app?vid=a94248f1-3c0d-42e2-8cb1-cf4fa92ab279"},"vehicle_type_id":"4","last_reported":1679256453,"current_range_meters":0,"station_id":"ce4bhah2rcd13ifvqej0","pricing_plan_id":"free"},{"bike_id":"8caa3349-6735-4371-86d6-d6e90f2b5f31","system_id":"levelo_inurba_marseille","lat":43.286593,"lon":5.363346,"is_reserved":false,"is_disabled":false,"rental_uris":{"android":"levelo://app?vid=8caa3349-6735-4371-86d6-d6e90f2b5f31","ios":"levelo://app?vid=8caa3349-6735-4371-86d6-d6e90f2b5f31"},"vehicle_type_id":"4","last_reported":1679256453,"current_range_meters":0,"station_id":"ce4bhah2rcd13ifvqej0","pricing_plan_id":"free"},{"bike_id":"531aa688-521f-4a9d-951b-cf3af815b252","system_id":"levelo_inurba_marseille","lat":43.298681,"lon":5.397225,"is_reserved":false,"is_disabled":false,"rental_uris":{"android":"levelo://app?vid=531aa688-521f-4a9d-951b-cf3af815b252","ios":"levelo://app?vid=531aa688-521f-4a9d-951b-cf3af815b252"},"vehicle_type_id":"4","last_reported":1679256453,"current_range_meters":10000,"station_id":"ce4bh0h2rcd13ifvqd50","pricing_plan_id":"free"},{"bike_id":"4f75b089-e21c-4ac2-b109-8682ff32aecd","system_id":"levelo_inurba_marseille","lat":43.295273,"lon":5.393976,"is_reserved":false,"is_disabled":false,"rental_uris":{"android":"levelo://app?vid=4f75b089-e21c-4ac2-b109-8682ff32aecd","ios":"levelo://app?vid=4f75b089-e21c-4ac2-b109-8682ff32aecd"},"vehicle_type_id":"4","last_reported":1679256453,"current_range_meters":23600,"station_id":"ce4bh212rcd13ifvqde0","pricing_plan_id":"free"},{"bike_id":"13daf331-d4da-4609-b100-9d9d574ca585","system_id":"levelo_inurba_marseille","lat":43.286593,"lon":5.363346,"is_reserved":false,"is_disabled":false,"rental_uris":{"android":"levelo://app?vid=13daf331-d4da-4609-b100-9d9d574ca585","ios":"levelo://app?vid=13daf331-d4da-4609-b100-9d9d574ca585"},"vehicle_type_id":"4","last_reported":1679256453,"current_range_meters":4800,"station_id":"ce4bhah2rcd13ifvqej0","pricing_plan_id":"free"},{"bike_id":"b3ef11c0-4a95-445d-87a2-62843d16b93c","system_id":"levelo_inurba_marseille","lat":43.30091,"lon":5.399591,"is_reserved":false,"is_disabled":false,"rental_uris":{"android":"levelo://app?vid=b3ef11c0-4a95-445d-87a2-62843d16b93c","ios":"levelo://app?vid=b3ef11c0-4a95-445d-87a2-62843d16b93c"},"vehicle_type_id":"4","last_reported":1679256453,"current_range_meters":0,"station_id":"","pricing_plan_id":"free"},{"bike_id":"4128a767-c460-46d2-82ee-31bcb7cb541a","system_id":"levelo_inurba_marseille","lat":43.302759,"lon":5.400793,"is_reserved":false,"is_disabled":false,"rental_uris":{"android":"levelo://app?vid=4128a767-c460-46d2-82ee-31bcb7cb541a","ios":"levelo://app?vid=4128a767-c460-46d2-82ee-31bcb7cb541a"},"vehicle_type_id":"4","last_reported":1679256453,"current_range_meters":2000,"station_id":"ce4bgvh2rcd13ifvqcs0","pricing_plan_id":"free"},{"bike_id":"385426d2-efa0-4bcc-94dc-d19e3d4c18bb","system_id":"levelo_inurba_marseille","lat":43.287184,"lon":5.37937,"is_reserved":false,"is_disabled":false,"rental_uris":{"android":"levelo://app?vid=385426d2-efa0-4bcc-94dc-d19e3d4c18bb","ios":"levelo://app?vid=385426d2-efa0-4bcc-94dc-d19e3d4c18bb"},"vehicle_type_id":"4","last_reported":1679256453,"current_range_meters":2800,"station_id":"ce4bh9p2rcd13ifvqec0","pricing_plan_id":"free"},{"bike_id":"442633d5-6b8a-4419-80c0-1c2f205272da","system_id":"levelo_inurba_marseille","lat":43.284534,"lon":5.358662,"is_reserved":false,"is_disabled":false,"rental_uris":{"android":"levelo://app?vid=442633d5-6b8a-4419-80c0-1c2f205272da","ios":"levelo://app?vid=442633d5-6b8a-4419-80c0-1c2f205272da"},"vehicle_type_id":"4","last_reported":1679256453,"current_range_meters":4400,"station_id":"ce4bhah2rcd13ifvqei0","pricing_plan_id":"free"},{"bike_id":"af3e013f-50ae-483b-96f4-066996c16416","system_id":"levelo_inurba_marseille","lat":43.284534,"lon":5.358662,"is_reserved":false,"is_disabled":false,"rental_uris":{"android":"levelo://app?vid=af3e013f-50ae-483b-96f4-066996c16416","ios":"levelo://app?vid=af3e013f-50ae-483b-96f4-066996c16416"},"vehicle_type_id":"4","last_reported":1679256453,"current_range_meters":1600,"station_id":"ce4bhah2rcd13ifvqei0","pricing_plan_id":"free"},{"bike_id":"f7997006-6a62-4a20-bffb-72e272eafe4b","system_id":"levelo_inurba_marseille","lat":43.295713,"lon":5.399639,"is_reserved":false,"is_disabled":false,"rental_uris":{"android":"levelo://app?vid=f7997006-6a62-4a20-bffb-72e272eafe4b","ios":"levelo://app?vid=f7997006-6a62-4a20-bffb-72e272eafe4b"},"vehicle_type_id":"4","last_reported":1679256453,"current_range_meters":3200,"station_id":"ce4bh312rcd13ifvqdj0","pricing_plan_id":"free"},{"bike_id":"1f79477c-8529-484d-9122-e6d0d3ed8cd6","system_id":"levelo_inurba_marseille","lat":43.28542,"lon":5.38421,"is_reserved":false,"is_disabled":false,"rental_uris":{"android":"levelo://app?vid=1f79477c-8529-484d-9122-e6d0d3ed8cd6","ios":"levelo://app?vid=1f79477c-8529-484d-9122-e6d0d3ed8cd6"},"vehicle_type_id":"4","last_reported":1679256453,"current_range_meters":21600,"station_id":"","pricing_plan_id":"free"},{"bike_id":"4149eea1-ed87-43e2-b196-678a2fb8f0c4","system_id":"levelo_inurba_marseille","lat":43.32332,"lon":5.40623,"is_reserved":false,"is_disabled":false,"rental_uris":{"android":"levelo://app?vid=4149eea1-ed87-43e2-b196-678a2fb8f0c4","ios":"levelo://app?vid=4149eea1-ed87-43e2-b196-678a2fb8f0c4"},"vehicle_type_id":"4","last_reported":1679256453,"current_range_meters":14800,"station_id":"","pricing_plan_id":"free"},{"bike_id":"7d510980-0732-4bfa-9b3a-ae99fd33b281","system_id":"levelo_inurba_marseille","lat":43.28476,"lon":5.38408,"is_reserved":false,"is_disabled":false,"rental_uris":{"android":"levelo://app?vid=7d510980-0732-4bfa-9b3a-ae99fd33b281","ios":"levelo://app?vid=7d510980-0732-4bfa-9b3a-ae99fd33b281"},"vehicle_type_id":"4","last_reported":1679256453,"current_range_meters":0,"station_id":"","pricing_plan_id":"free"},{"bike_id":"85a23ddf-ebb3-4f43-a8cc-8e0595f8d86e","system_id":"levelo_inurba_marseille","lat":43.284793,"lon":5.384119,"is_reserved":false,"is_disabled":false,"rental_uris":{"android":"levelo://app?vid=85a23ddf-ebb3-4f43-a8cc-8e0595f8d86e","ios":"levelo://app?vid=85a23ddf-ebb3-4f43-a8cc-8e0595f8d86e"},"vehicle_type_id":"4","last_reported":1679256453,"current_range_meters":1200,"station_id":"ce4bh512rcd13ifvqe3g","pricing_plan_id":"free"},{"bike_id":"44aa3dbe-fd51-4123-9312-ce184b9f178b","system_id":"levelo_inurba_marseille","lat":43.28356,"lon":5.38107,"is_reserved":false,"is_disabled":false,"rental_uris":{"android":"levelo://app?vid=44aa3dbe-fd51-4123-9312-ce184b9f178b","ios":"levelo://app?vid=44aa3dbe-fd51-4123-9312-ce184b9f178b"},"vehicle_type_id":"4","last_reported":1679256453,"current_range_meters":19200,"station_id":"","pricing_plan_id":"free"},{"bike_id":"b579ed3b-0bb7-4676-9c85-1d760474f33b","system_id":"levelo_inurba_marseille","lat":43.292724,"lon":5.401131,"is_reserved":false,"is_disabled":false,"rental_uris":{"android":"levelo://app?vid=b579ed3b-0bb7-4676-9c85-1d760474f33b","ios":"levelo://app?vid=b579ed3b-0bb7-4676-9c85-1d760474f33b"},"vehicle_type_id":"4","last_reported":1679256453,"current_range_meters":400,"station_id":"ce4bh312rcd13ifvqdk0","pricing_plan_id":"free"},{"bike_id":"8ed060a9-65b6-4858-9d05-2ce1cd2a8cc0","system_id":"levelo_inurba_marseille","lat":43.283502,"lon":5.386471,"is_reserved":false,"is_disabled":false,"rental_uris":{"android":"levelo://app?vid=8ed060a9-65b6-4858-9d05-2ce1cd2a8cc0","ios":"levelo://app?vid=8ed060a9-65b6-4858-9d05-2ce1cd2a8cc0"},"vehicle_type_id":"4","last_reported":1679256453,"current_range_meters":11200,"station_id":"ce4bh492rcd13ifvqdvg","pricing_plan_id":"free"},{"bike_id":"d361e6ed-7a24-4f7a-80fa-1fea8242feab","system_id":"levelo_inurba_marseille","lat":43.283502,"lon":5.386471,"is_reserved":false,"is_disabled":false,"rental_uris":{"android":"levelo://app?vid=d361e6ed-7a24-4f7a-80fa-1fea8242feab","ios":"levelo://app?vid=d361e6ed-7a24-4f7a-80fa-1fea8242feab"},"vehicle_type_id":"4","last_reported":1679256453,"current_range_meters":13600,"station_id":"ce4bh492rcd13ifvqdvg","pricing_plan_id":"free"},{"bike_id":"5b08c331-ef19-42fe-a477-f52633e953fb","system_id":"levelo_inurba_marseille","lat":43.281789,"lon":5.352736,"is_reserved":false,"is_disabled":false,"rental_uris":{"android":"levelo://app?vid=5b08c331-ef19-42fe-a477-f52633e953fb","ios":"levelo://app?vid=5b08c331-ef19-42fe-a477-f52633e953fb"},"vehicle_type_id":"4","last_reported":1679256453,"current_range_meters":0,"station_id":"","pricing_plan_id":"free"},{"bike_id":"34cd2010-087d-4293-8191-1d5aceba060e","system_id":"levelo_inurba_marseille","lat":43.29041,"lon":5.399634,"is_reserved":false,"is_disabled":false,"rental_uris":{"android":"levelo://app?vid=34cd2010-087d-4293-8191-1d5aceba060e","ios":"levelo://app?vid=34cd2010-087d-4293-8191-1d5aceba060e"},"vehicle_type_id":"4","last_reported":1679256453,"current_range_meters":400,"station_id":"ce4bh392rcd13ifvqdm0","pricing_plan_id":"free"},{"bike_id":"016d8f84-36c9-4ef8-97bf-884b30dbd2a8","system_id":"levelo_inurba_marseille","lat":43.281044,"lon":5.378308,"is_reserved":false,"is_disabled":false,"rental_uris":{"android":"levelo://app?vid=016d8f84-36c9-4ef8-97bf-884b30dbd2a8","ios":"levelo://app?vid=016d8f84-36c9-4ef8-97bf-884b30dbd2a8"},"vehicle_type_id":"4","last_reported":1679256453,"current_range_meters":11600,"station_id":"ce4bha12rcd13ifvqee0","pricing_plan_id":"free"},{"bike_id":"0c8d1f88-f123-4a55-b23c-8239751104cf","system_id":"levelo_inurba_marseille","lat":43.281044,"lon":5.378308,"is_reserved":false,"is_disabled":false,"rental_uris":{"android":"levelo://app?vid=0c8d1f88-f123-4a55-b23c-8239751104cf","ios":"levelo://app?vid=0c8d1f88-f123-4a55-b23c-8239751104cf"},"vehicle_type_id":"4","last_reported":1679256453,"current_range_meters":6000,"station_id":"ce4bha12rcd13ifvqee0","pricing_plan_id":"free"},{"bike_id":"87116ccd-d1e7-48bf-94cf-651a64edfbdf","system_id":"levelo_inurba_marseille","lat":43.296263,"lon":5.40601,"is_reserved":false,"is_disabled":false,"rental_uris":{"android":"levelo://app?vid=87116ccd-d1e7-48bf-94cf-651a64edfbdf","ios":"levelo://app?vid=87116ccd-d1e7-48bf-94cf-651a64edfbdf"},"vehicle_type_id":"4","last_reported":1679256453,"current_range_meters":1600,"station_id":"ce4bh0h2rcd13ifvqd60","pricing_plan_id":"free"},{"bike_id":"e66e09fa-38ac-422e-80bd-f7f779b61d79","system_id":"levelo_inurba_marseille","lat":43.284462,"lon":5.392121,"is_reserved":false,"is_disabled":false,"rental_uris":{"android":"levelo://app?vid=e66e09fa-38ac-422e-80bd-f7f779b61d79","ios":"levelo://app?vid=e66e09fa-38ac-422e-80bd-f7f779b61d79"},"vehicle_type_id":"4","last_reported":1679256453,"current_range_meters":2000,"station_id":"ce4bhoh2rcd13ifvqh5g","pricing_plan_id":"free"},{"bike_id":"ac5e5f56-fb51-4e39-83f9-f7368de9a02f","system_id":"levelo_inurba_marseille","lat":43.304188,"lon":5.412904,"is_reserved":false,"is_disabled":false,"rental_uris":{"android":"levelo://app?vid=ac5e5f56-fb51-4e39-83f9-f7368de9a02f","ios":"levelo://app?vid=ac5e5f56-fb51-4e39-83f9-f7368de9a02f"},"vehicle_type_id":"4","last_reported":1679256453,"current_range_meters":20800,"station_id":"ce4bhop2rcd13ifvqh8g","pricing_plan_id":"free"},{"bike_id":"55f2c8c4-a1b3-4e25-85e3-0dc931df826e","system_id":"levelo_inurba_marseille","lat":43.304188,"lon":5.412904,"is_reserved":false,"is_disabled":false,"rental_uris":{"android":"levelo://app?vid=55f2c8c4-a1b3-4e25-85e3-0dc931df826e","ios":"levelo://app?vid=55f2c8c4-a1b3-4e25-85e3-0dc931df826e"},"vehicle_type_id":"4","last_reported":1679256453,"current_range_meters":24000,"station_id":"ce4bhop2rcd13ifvqh8g","pricing_plan_id":"free"},{"bike_id":"29671d63-0cc7-4cdf-8065-727b82ee79aa","system_id":"levelo_inurba_marseille","lat":43.304188,"lon":5.412904,"is_reserved":false,"is_disabled":false,"rental_uris":{"android":"levelo://app?vid=29671d63-0cc7-4cdf-8065-727b82ee79aa","ios":"levelo://app?vid=29671d63-0cc7-4cdf-8065-727b82ee79aa"},"vehicle_type_id":"4","last_reported":1679256453,"current_range_meters":31600,"station_id":"ce4bhop2rcd13ifvqh8g","pricing_plan_id":"free"},{"bike_id":"579724e9-47ac-494a-9de9-b143929a2d61","system_id":"levelo_inurba_marseille","lat":43.287154,"lon":5.399979,"is_reserved":false,"is_disabled":false,"rental_uris":{"android":"levelo://app?vid=579724e9-47ac-494a-9de9-b143929a2d61","ios":"levelo://app?vid=579724e9-47ac-494a-9de9-b143929a2d61"},"vehicle_type_id":"4","last_reported":1679256453,"current_range_meters":12000,"station_id":"ce4bho92rcd13ifvqh3g","pricing_plan_id":"free"},{"bike_id":"f54ab1ab-3cb1-42ac-abe2-28da0bbe03ae","system_id":"levelo_inurba_marseille","lat":43.320777,"lon":5.415113,"is_reserved":false,"is_disabled":false,"rental_uris":{"android":"levelo://app?vid=f54ab1ab-3cb1-42ac-abe2-28da0bbe03ae","ios":"levelo://app?vid=f54ab1ab-3cb1-42ac-abe2-28da0bbe03ae"},"vehicle_type_id":"4","last_reported":1679256453,"current_range_meters":19200,"station_id":"","pricing_plan_id":"free"},{"bike_id":"e9d41ed9-6722-49f9-9845-ae38f2ce7d48","system_id":"levelo_inurba_marseille","lat":43.299527,"lon":5.413183,"is_reserved":false,"is_disabled":false,"rental_uris":{"android":"levelo://app?vid=e9d41ed9-6722-49f9-9845-ae38f2ce7d48","ios":"levelo://app?vid=e9d41ed9-6722-49f9-9845-ae38f2ce7d48"},"vehicle_type_id":"4","last_reported":1679256453,"current_range_meters":3600,"station_id":"","pricing_plan_id":"free"},{"bike_id":"1d9cd785-35c2-4153-afee-e820fc6587d5","system_id":"levelo_inurba_marseille","lat":43.299577,"lon":5.413277,"is_reserved":false,"is_disabled":false,"rental_uris":{"android":"levelo://app?vid=1d9cd785-35c2-4153-afee-e820fc6587d5","ios":"levelo://app?vid=1d9cd785-35c2-4153-afee-e820fc6587d5"},"vehicle_type_id":"4","last_reported":1679256453,"current_range_meters":21200,"station_id":"ce4bhp12rcd13ifvqh9g","pricing_plan_id":"free"},{"bike_id":"679fd8f8-2235-438a-a9e9-ce3e34fe297a","system_id":"levelo_inurba_marseille","lat":43.324729,"lon":5.414312,"is_reserved":false,"is_disabled":false,"rental_uris":{"android":"levelo://app?vid=679fd8f8-2235-438a-a9e9-ce3e34fe297a","ios":"levelo://app?vid=679fd8f8-2235-438a-a9e9-ce3e34fe297a"},"vehicle_type_id":"4","last_reported":1679256453,"current_range_meters":4000,"station_id":"","pricing_plan_id":"free"},{"bike_id":"1745123a-25f7-4bce-a1f8-2ff755a9b2d4","system_id":"levelo_inurba_marseille","lat":43.325233,"lon":5.414318,"is_reserved":false,"is_disabled":false,"rental_uris":{"android":"levelo://app?vid=1745123a-25f7-4bce-a1f8-2ff755a9b2d4","ios":"levelo://app?vid=1745123a-25f7-4bce-a1f8-2ff755a9b2d4"},"vehicle_type_id":"4","last_reported":1679256453,"current_range_meters":9200,"station_id":"ce4bhq12rcd13ifvqhhg","pricing_plan_id":"free"},{"bike_id":"e653bbca-3bef-48e1-a043-60ce594de97d","system_id":"levelo_inurba_marseille","lat":43.292569,"lon":5.409107,"is_reserved":false,"is_disabled":false,"rental_uris":{"android":"levelo://app?vid=e653bbca-3bef-48e1-a043-60ce594de97d","ios":"levelo://app?vid=e653bbca-3bef-48e1-a043-60ce594de97d"},"vehicle_type_id":"4","last_reported":1679256453,"current_range_meters":0,"station_id":"ce4bh192rcd13ifvqdc0","pricing_plan_id":"free"},{"bike_id":"efd829ac-b632-46ca-918c-6ba8413bf319","system_id":"levelo_inurba_marseille","lat":43.325243,"lon":5.414326,"is_reserved":false,"is_disabled":false,"rental_uris":{"android":"levelo://app?vid=efd829ac-b632-46ca-918c-6ba8413bf319","ios":"levelo://app?vid=efd829ac-b632-46ca-918c-6ba8413bf319"},"vehicle_type_id":"4","last_reported":1679256453,"current_range_meters":4800,"station_id":"ce4bhq12rcd13ifvqhhg","pricing_plan_id":"free"},{"bike_id":"5f4b27df-7370-4663-9882-3043aab0ae75","system_id":"levelo_inurba_marseille","lat":43.281873,"lon":5.397173,"is_reserved":false,"is_disabled":false,"rental_uris":{"android":"levelo://app?vid=5f4b27df-7370-4663-9882-3043aab0ae75","ios":"levelo://app?vid=5f4b27df-7370-4663-9882-3043aab0ae75"},"vehicle_type_id":"4","last_reported":1679256453,"current_range_meters":19600,"station_id":"","pricing_plan_id":"free"},{"bike_id":"7688683d-9964-494e-a99c-0be814115321","system_id":"levelo_inurba_marseille","lat":43.33612,"lon":5.410321,"is_reserved":false,"is_disabled":false,"rental_uris":{"android":"levelo://app?vid=7688683d-9964-494e-a99c-0be814115321","ios":"levelo://app?vid=7688683d-9964-494e-a99c-0be814115321"},"vehicle_type_id":"4","last_reported":1679256453,"current_range_meters":800,"station_id":"ce4bhqh2rcd13ifvqhmg","pricing_plan_id":"free"},{"bike_id":"bf1fbe30-2902-4f49-a183-f265bbbc264c","system_id":"levelo_inurba_marseille","lat":43.33612,"lon":5.410321,"is_reserved":false,"is_disabled":false,"rental_uris":{"android":"levelo://app?vid=bf1fbe30-2902-4f49-a183-f265bbbc264c","ios":"levelo://app?vid=bf1fbe30-2902-4f49-a183-f265bbbc264c"},"vehicle_type_id":"4","last_reported":1679256453,"current_range_meters":4800,"station_id":"ce4bhqh2rcd13ifvqhmg","pricing_plan_id":"free"},{"bike_id":"e8c13bf2-419d-4930-9926-9d7fb12d8e5a","system_id":"levelo_inurba_marseille","lat":43.27676,"lon":5.38872,"is_reserved":false,"is_disabled":false,"rental_uris":{"android":"levelo://app?vid=e8c13bf2-419d-4930-9926-9d7fb12d8e5a","ios":"levelo://app?vid=e8c13bf2-419d-4930-9926-9d7fb12d8e5a"},"vehicle_type_id":"4","last_reported":1679256453,"current_range_meters":2400,"station_id":"ce4bhi12rcd13ifvqfo0","pricing_plan_id":"free"},{"bike_id":"06c2a2b5-0a03-480c-85d3-eeaeb4322949","system_id":"levelo_inurba_marseille","lat":43.276769,"lon":5.388787,"is_reserved":false,"is_disabled":false,"rental_uris":{"android":"levelo://app?vid=06c2a2b5-0a03-480c-85d3-eeaeb4322949","ios":"levelo://app?vid=06c2a2b5-0a03-480c-85d3-eeaeb4322949"},"vehicle_type_id":"4","last_reported":1679256453,"current_range_meters":0,"station_id":"ce4bhi12rcd13ifvqfo0","pricing_plan_id":"free"},{"bike_id":"f2a4cbaf-10a9-4d58-977b-5eebc8eba43c","system_id":"levelo_inurba_marseille","lat":43.310785,"lon":5.424305,"is_reserved":false,"is_disabled":false,"rental_uris":{"android":"levelo://app?vid=f2a4cbaf-10a9-4d58-977b-5eebc8eba43c","ios":"levelo://app?vid=f2a4cbaf-10a9-4d58-977b-5eebc8eba43c"},"vehicle_type_id":"4","last_reported":1679256453,"current_range_meters":20000,"station_id":"ce4bhp92rcd13ifvqhag","pricing_plan_id":"free"},{"bike_id":"c22722f3-075e-4f5b-bd0f-0d2238cbcbe5","system_id":"levelo_inurba_marseille","lat":43.273125,"lon":5.390731,"is_reserved":false,"is_disabled":false,"rental_uris":{"android":"levelo://app?vid=c22722f3-075e-4f5b-bd0f-0d2238cbcbe5","ios":"levelo://app?vid=c22722f3-075e-4f5b-bd0f-0d2238cbcbe5"},"vehicle_type_id":"4","last_reported":1679256453,"current_range_meters":0,"station_id":"ce4bhgp2rcd13ifvqfe0","pricing_plan_id":"free"},{"bike_id":"238003c8-733e-4f09-acce-6dc0592f4cd8","system_id":"levelo_inurba_marseille","lat":43.274103,"lon":5.394016,"is_reserved":false,"is_disabled":false,"rental_uris":{"android":"levelo://app?vid=238003c8-733e-4f09-acce-6dc0592f4cd8","ios":"levelo://app?vid=238003c8-733e-4f09-acce-6dc0592f4cd8"},"vehicle_type_id":"4","last_reported":1679256453,"current_range_meters":4800,"station_id":"ce4bhdp2rcd13ifvqf20","pricing_plan_id":"free"},{"bike_id":"4f958feb-9223-4a85-ae9d-6bbeb24b0ace","system_id":"levelo_inurba_marseille","lat":43.30413,"lon":5.42542,"is_reserved":false,"is_disabled":false,"rental_uris":{"android":"levelo://app?vid=4f958feb-9223-4a85-ae9d-6bbeb24b0ace","ios":"levelo://app?vid=4f958feb-9223-4a85-ae9d-6bbeb24b0ace"},"vehicle_type_id":"4","last_reported":1679256453,"current_range_meters":5200,"station_id":"","pricing_plan_id":"free"},{"bike_id":"efa38077-8d8b-4846-9329-4529a5e3ae41","system_id":"levelo_inurba_marseille","lat":43.28056,"lon":5.40749,"is_reserved":false,"is_disabled":false,"rental_uris":{"android":"levelo://app?vid=efa38077-8d8b-4846-9329-4529a5e3ae41","ios":"levelo://app?vid=efa38077-8d8b-4846-9329-4529a5e3ae41"},"vehicle_type_id":"4","last_reported":1679256453,"current_range_meters":22400,"station_id":"","pricing_plan_id":"free"},{"bike_id":"db45a927-0e4f-4b75-b410-7a3057cd4673","system_id":"levelo_inurba_marseille","lat":43.274103,"lon":5.394016,"is_reserved":false,"is_disabled":false,"rental_uris":{"android":"levelo://app?vid=db45a927-0e4f-4b75-b410-7a3057cd4673","ios":"levelo://app?vid=db45a927-0e4f-4b75-b410-7a3057cd4673"},"vehicle_type_id":"4","last_reported":1679256453,"current_range_meters":0,"station_id":"ce4bhdp2rcd13ifvqf20","pricing_plan_id":"free"},{"bike_id":"7c25627b-52d2-4e1f-a2c5-ff281379658a","system_id":"levelo_inurba_marseille","lat":43.295585,"lon":5.422885,"is_reserved":false,"is_disabled":false,"rental_uris":{"android":"levelo://app?vid=7c25627b-52d2-4e1f-a2c5-ff281379658a","ios":"levelo://app?vid=7c25627b-52d2-4e1f-a2c5-ff281379658a"},"vehicle_type_id":"4","last_reported":1679256453,"current_range_meters":19600,"station_id":"ce4bhph2rcd13ifvqhdg","pricing_plan_id":"free"},{"bike_id":"294524a0-48d8-47f8-a638-1a025f7bfc14","system_id":"levelo_inurba_marseille","lat":43.295523,"lon":5.422926,"is_reserved":false,"is_disabled":false,"rental_uris":{"android":"levelo://app?vid=294524a0-48d8-47f8-a638-1a025f7bfc14","ios":"levelo://app?vid=294524a0-48d8-47f8-a638-1a025f7bfc14"},"vehicle_type_id":"4","last_reported":1679256453,"current_range_meters":10000,"station_id":"ce4bhph2rcd13ifvqhdg","pricing_plan_id":"free"},{"bike_id":"bc064ba5-50f6-4ce3-8d9b-1239bb2d9bd3","system_id":"levelo_inurba_marseille","lat":43.295557,"lon":5.422903,"is_reserved":false,"is_disabled":false,"rental_uris":{"android":"levelo://app?vid=bc064ba5-50f6-4ce3-8d9b-1239bb2d9bd3","ios":"levelo://app?vid=bc064ba5-50f6-4ce3-8d9b-1239bb2d9bd3"},"vehicle_type_id":"4","last_reported":1679256453,"current_range_meters":800,"station_id":"ce4bhph2rcd13ifvqhdg","pricing_plan_id":"free"},{"bike_id":"87f0a20b-30d2-431b-9d8c-bbe200acabae","system_id":"levelo_inurba_marseille","lat":43.29547,"lon":5.42287,"is_reserved":false,"is_disabled":false,"rental_uris":{"android":"levelo://app?vid=87f0a20b-30d2-431b-9d8c-bbe200acabae","ios":"levelo://app?vid=87f0a20b-30d2-431b-9d8c-bbe200acabae"},"vehicle_type_id":"4","last_reported":1679256453,"current_range_meters":22000,"station_id":"ce4bhph2rcd13ifvqhdg","pricing_plan_id":"free"},{"bike_id":"15357db7-2348-4275-97d7-f561e492026c","system_id":"levelo_inurba_marseille","lat":43.29551,"lon":5.42297,"is_reserved":false,"is_disabled":false,"rental_uris":{"android":"levelo://app?vid=15357db7-2348-4275-97d7-f561e492026c","ios":"levelo://app?vid=15357db7-2348-4275-97d7-f561e492026c"},"vehicle_type_id":"4","last_reported":1679256453,"current_range_meters":1600,"station_id":"ce4bhph2rcd13ifvqhdg","pricing_plan_id":"free"},{"bike_id":"310cec5a-c1bf-4258-a0f9-9ea9f627edda","system_id":"levelo_inurba_marseille","lat":43.278128,"lon":5.407195,"is_reserved":false,"is_disabled":false,"rental_uris":{"android":"levelo://app?vid=310cec5a-c1bf-4258-a0f9-9ea9f627edda","ios":"levelo://app?vid=310cec5a-c1bf-4258-a0f9-9ea9f627edda"},"vehicle_type_id":"4","last_reported":1679256453,"current_range_meters":6400,"station_id":"ce4bhnh2rcd13ifvqgtg","pricing_plan_id":"free"},{"bike_id":"4034f9c3-0ccb-46b6-8961-50741cfd0c27","system_id":"levelo_inurba_marseille","lat":43.278128,"lon":5.407195,"is_reserved":false,"is_disabled":false,"rental_uris":{"android":"levelo://app?vid=4034f9c3-0ccb-46b6-8961-50741cfd0c27","ios":"levelo://app?vid=4034f9c3-0ccb-46b6-8961-50741cfd0c27"},"vehicle_type_id":"4","last_reported":1679256453,"current_range_meters":31600,"station_id":"ce4bhnh2rcd13ifvqgtg","pricing_plan_id":"free"},{"bike_id":"1fe4aaa4-e376-48d4-b0fd-c776d6c9c3c9","system_id":"levelo_inurba_marseille","lat":43.26927,"lon":5.389267,"is_reserved":false,"is_disabled":false,"rental_uris":{"android":"levelo://app?vid=1fe4aaa4-e376-48d4-b0fd-c776d6c9c3c9","ios":"levelo://app?vid=1fe4aaa4-e376-48d4-b0fd-c776d6c9c3c9"},"vehicle_type_id":"4","last_reported":1679256453,"current_range_meters":0,"station_id":"ce4bhhh2rcd13ifvqfl0","pricing_plan_id":"free"},{"bike_id":"6f76e659-0d63-437b-aa9b-b1d2a0f4217c","system_id":"levelo_inurba_marseille","lat":43.27996,"lon":5.416624,"is_reserved":false,"is_disabled":false,"rental_uris":{"android":"levelo://app?vid=6f76e659-0d63-437b-aa9b-b1d2a0f4217c","ios":"levelo://app?vid=6f76e659-0d63-437b-aa9b-b1d2a0f4217c"},"vehicle_type_id":"4","last_reported":1679256453,"current_range_meters":1200,"station_id":"ce4bho12rcd13ifvqh1g","pricing_plan_id":"free"},{"bike_id":"01ee227f-f072-45f4-969e-f6e558aaf24a","system_id":"levelo_inurba_marseille","lat":43.267966,"lon":5.393976,"is_reserved":false,"is_disabled":false,"rental_uris":{"android":"levelo://app?vid=01ee227f-f072-45f4-969e-f6e558aaf24a","ios":"levelo://app?vid=01ee227f-f072-45f4-969e-f6e558aaf24a"},"vehicle_type_id":"4","last_reported":1679256453,"current_range_meters":18000,"station_id":"ce4bhh12rcd13ifvqfg0","pricing_plan_id":"free"},{"bike_id":"bd037dc5-432c-445b-92ae-c32a371e909e","system_id":"levelo_inurba_marseille","lat":43.267959,"lon":5.402685,"is_reserved":false,"is_disabled":false,"rental_uris":{"android":"levelo://app?vid=bd037dc5-432c-445b-92ae-c32a371e909e","ios":"levelo://app?vid=bd037dc5-432c-445b-92ae-c32a371e909e"},"vehicle_type_id":"4","last_reported":1679256453,"current_range_meters":24000,"station_id":"ce501612rcd8frsf0b60","pricing_plan_id":"free"},{"bike_id":"b9b2ed13-39b9-4858-b0d4-0f8fe1286eea","system_id":"levelo_inurba_marseille","lat":43.262012,"lon":5.379307,"is_reserved":false,"is_disabled":false,"rental_uris":{"android":"levelo://app?vid=b9b2ed13-39b9-4858-b0d4-0f8fe1286eea","ios":"levelo://app?vid=b9b2ed13-39b9-4858-b0d4-0f8fe1286eea"},"vehicle_type_id":"4","last_reported":1679256453,"current_range_meters":0,"station_id":"ce4bhjp2rcd13ifvqg90","pricing_plan_id":"free"},{"bike_id":"d09ebda7-f993-4f40-82d4-59806f44c135","system_id":"levelo_inurba_marseille","lat":43.262012,"lon":5.379307,"is_reserved":false,"is_disabled":false,"rental_uris":{"android":"levelo://app?vid=d09ebda7-f993-4f40-82d4-59806f44c135","ios":"levelo://app?vid=d09ebda7-f993-4f40-82d4-59806f44c135"},"vehicle_type_id":"4","last_reported":1679256453,"current_range_meters":400,"station_id":"ce4bhjp2rcd13ifvqg90","pricing_plan_id":"free"},{"bike_id":"e72e7f2b-3be0-42a8-b7f3-746c959d82c1","system_id":"levelo_inurba_marseille","lat":43.267959,"lon":5.402687,"is_reserved":false,"is_disabled":false,"rental_uris":{"android":"levelo://app?vid=e72e7f2b-3be0-42a8-b7f3-746c959d82c1","ios":"levelo://app?vid=e72e7f2b-3be0-42a8-b7f3-746c959d82c1"},"vehicle_type_id":"4","last_reported":1679256453,"current_range_meters":10400,"station_id":"ce501612rcd8frsf0b60","pricing_plan_id":"free"},{"bike_id":"9aac5d88-84f2-49d4-8de1-83fbe49ab068","system_id":"levelo_inurba_marseille","lat":43.2607,"lon":5.393983,"is_reserved":false,"is_disabled":false,"rental_uris":{"android":"levelo://app?vid=9aac5d88-84f2-49d4-8de1-83fbe49ab068","ios":"levelo://app?vid=9aac5d88-84f2-49d4-8de1-83fbe49ab068"},"vehicle_type_id":"4","last_reported":1679256453,"current_range_meters":8400,"station_id":"ce4bhh92rcd13ifvqfj0","pricing_plan_id":"free"},{"bike_id":"39ae7553-5b15-41ed-be49-d087d1ff66f8","system_id":"levelo_inurba_marseille","lat":43.2607,"lon":5.393983,"is_reserved":false,"is_disabled":false,"rental_uris":{"android":"levelo://app?vid=39ae7553-5b15-41ed-be49-d087d1ff66f8","ios":"levelo://app?vid=39ae7553-5b15-41ed-be49-d087d1ff66f8"},"vehicle_type_id":"4","last_reported":1679256453,"current_range_meters":1200,"station_id":"ce4bhh92rcd13ifvqfj0","pricing_plan_id":"free"},{"bike_id":"0312c11b-f530-4c74-8298-1f0b15885c6d","system_id":"levelo_inurba_marseille","lat":43.2607,"lon":5.393983,"is_reserved":false,"is_disabled":false,"rental_uris":{"android":"levelo://app?vid=0312c11b-f530-4c74-8298-1f0b15885c6d","ios":"levelo://app?vid=0312c11b-f530-4c74-8298-1f0b15885c6d"},"vehicle_type_id":"4","last_reported":1679256453,"current_range_meters":2000,"station_id":"ce4bhh92rcd13ifvqfj0","pricing_plan_id":"free"},{"bike_id":"b5fd0508-197a-4071-8a3a-2378b72b0be9","system_id":"levelo_inurba_marseille","lat":43.2607,"lon":5.393983,"is_reserved":false,"is_disabled":false,"rental_uris":{"android":"levelo://app?vid=b5fd0508-197a-4071-8a3a-2378b72b0be9","ios":"levelo://app?vid=b5fd0508-197a-4071-8a3a-2378b72b0be9"},"vehicle_type_id":"4","last_reported":1679256453,"current_range_meters":31600,"station_id":"ce4bhh92rcd13ifvqfj0","pricing_plan_id":"free"},{"bike_id":"106ba0d7-eee6-4035-a2fc-25d6d4db5d3a","system_id":"levelo_inurba_marseille","lat":43.2607,"lon":5.393983,"is_reserved":false,"is_disabled":false,"rental_uris":{"android":"levelo://app?vid=106ba0d7-eee6-4035-a2fc-25d6d4db5d3a","ios":"levelo://app?vid=106ba0d7-eee6-4035-a2fc-25d6d4db5d3a"},"vehicle_type_id":"4","last_reported":1679256453,"current_range_meters":1200,"station_id":"ce4bhh92rcd13ifvqfj0","pricing_plan_id":"free"},{"bike_id":"5bcc2b03-2661-45ba-b3e5-5e662bec71f1","system_id":"levelo_inurba_marseille","lat":43.260909,"lon":5.397624,"is_reserved":false,"is_disabled":false,"rental_uris":{"android":"levelo://app?vid=5bcc2b03-2661-45ba-b3e5-5e662bec71f1","ios":"levelo://app?vid=5bcc2b03-2661-45ba-b3e5-5e662bec71f1"},"vehicle_type_id":"4","last_reported":1679256453,"current_range_meters":19200,"station_id":"","pricing_plan_id":"free"},{"bike_id":"217a32fe-0161-43b0-bec3-ad3345425f35","system_id":"levelo_inurba_marseille","lat":43.29255,"lon":5.44146,"is_reserved":false,"is_disabled":false,"rental_uris":{"android":"levelo://app?vid=217a32fe-0161-43b0-bec3-ad3345425f35","ios":"levelo://app?vid=217a32fe-0161-43b0-bec3-ad3345425f35"},"vehicle_type_id":"4","last_reported":1679256453,"current_range_meters":18400,"station_id":"","pricing_plan_id":"free"},{"bike_id":"22eb2a93-8530-4d89-81c3-2ee96c198141","system_id":"levelo_inurba_marseille","lat":43.270721,"lon":5.422764,"is_reserved":false,"is_disabled":false,"rental_uris":{"android":"levelo://app?vid=22eb2a93-8530-4d89-81c3-2ee96c198141","ios":"levelo://app?vid=22eb2a93-8530-4d89-81c3-2ee96c198141"},"vehicle_type_id":"4","last_reported":1679256453,"current_range_meters":20000,"station_id":"ce4bhk92rcd13ifvqgb0","pricing_plan_id":"free"},{"bike_id":"3647aa3d-2a3f-41e2-8431-ae491d547389","system_id":"levelo_inurba_marseille","lat":43.250023,"lon":5.38919,"is_reserved":false,"is_disabled":false,"rental_uris":{"android":"levelo://app?vid=3647aa3d-2a3f-41e2-8431-ae491d547389","ios":"levelo://app?vid=3647aa3d-2a3f-41e2-8431-ae491d547389"},"vehicle_type_id":"4","last_reported":1679256453,"current_range_meters":0,"station_id":"ce4bhgp2rcd13ifvqfd0","pricing_plan_id":"free"},{"bike_id":"6b0d3edd-1eff-4b01-8433-ca67158991b2","system_id":"levelo_inurba_marseille","lat":43.250023,"lon":5.38919,"is_reserved":false,"is_disabled":false,"rental_uris":{"android":"levelo://app?vid=6b0d3edd-1eff-4b01-8433-ca67158991b2","ios":"levelo://app?vid=6b0d3edd-1eff-4b01-8433-ca67158991b2"},"vehicle_type_id":"4","last_reported":1679256453,"current_range_meters":6800,"station_id":"ce4bhgp2rcd13ifvqfd0","pricing_plan_id":"free"},{"bike_id":"d6ba5441-e7f8-4d02-bff7-30e543542b95","system_id":"levelo_inurba_marseille","lat":43.250009,"lon":5.389195,"is_reserved":false,"is_disabled":false,"rental_uris":{"android":"levelo://app?vid=d6ba5441-e7f8-4d02-bff7-30e543542b95","ios":"levelo://app?vid=d6ba5441-e7f8-4d02-bff7-30e543542b95"},"vehicle_type_id":"4","last_reported":1679256453,"current_range_meters":4000,"station_id":"ce4bhgp2rcd13ifvqfd0","pricing_plan_id":"free"},{"bike_id":"da99ef17-7f7a-4319-8014-293645ffe646","system_id":"levelo_inurba_marseille","lat":43.250966,"lon":5.395186,"is_reserved":false,"is_disabled":false,"rental_uris":{"android":"levelo://app?vid=da99ef17-7f7a-4319-8014-293645ffe646","ios":"levelo://app?vid=da99ef17-7f7a-4319-8014-293645ffe646"},"vehicle_type_id":"4","last_reported":1679256453,"current_range_meters":13200,"station_id":"ce4bhm12rcd13ifvqgkg","pricing_plan_id":"free"},{"bike_id":"ca97ab45-0cf2-48cb-b71c-19ef4310206b","system_id":"levelo_inurba_marseille","lat":43.24693,"lon":5.382096,"is_reserved":false,"is_disabled":false,"rental_uris":{"android":"levelo://app?vid=ca97ab45-0cf2-48cb-b71c-19ef4310206b","ios":"levelo://app?vid=ca97ab45-0cf2-48cb-b71c-19ef4310206b"},"vehicle_type_id":"4","last_reported":1679256453,"current_range_meters":0,"station_id":"ce4bhih2rcd13ifvqfr0","pricing_plan_id":"free"},{"bike_id":"c5a78ac4-6a0c-4509-8ff5-2c5b371e7357","system_id":"levelo_inurba_marseille","lat":43.25102,"lon":5.403214,"is_reserved":false,"is_disabled":false,"rental_uris":{"android":"levelo://app?vid=c5a78ac4-6a0c-4509-8ff5-2c5b371e7357","ios":"levelo://app?vid=c5a78ac4-6a0c-4509-8ff5-2c5b371e7357"},"vehicle_type_id":"4","last_reported":1679256453,"current_range_meters":14000,"station_id":"ce4bhlh2rcd13ifvqgig","pricing_plan_id":"free"},{"bike_id":"936ecc25-fffa-4bca-810c-08d9cae0872b","system_id":"levelo_inurba_marseille","lat":43.245581,"lon":5.395069,"is_reserved":false,"is_disabled":false,"rental_uris":{"android":"levelo://app?vid=936ecc25-fffa-4bca-810c-08d9cae0872b","ios":"levelo://app?vid=936ecc25-fffa-4bca-810c-08d9cae0872b"},"vehicle_type_id":"4","last_reported":1679256453,"current_range_meters":9600,"station_id":"ce4bhlp2rcd13ifvqgjg","pricing_plan_id":"free"},{"bike_id":"6517cd95-8881-4095-a72f-d78547f4b481","system_id":"levelo_inurba_marseille","lat":43.240623,"lon":5.377642,"is_reserved":false,"is_disabled":false,"rental_uris":{"android":"levelo://app?vid=6517cd95-8881-4095-a72f-d78547f4b481","ios":"levelo://app?vid=6517cd95-8881-4095-a72f-d78547f4b481"},"vehicle_type_id":"4","last_reported":1679256453,"current_range_meters":14000,"station_id":"ce4bhnp2rcd13ifvqgvg","pricing_plan_id":"free"},{"bike_id":"eb982e6f-872d-4cea-b0c2-84d869b0cc85","system_id":"levelo_inurba_marseille","lat":43.23962,"lon":5.36635,"is_reserved":false,"is_disabled":false,"rental_uris":{"android":"levelo://app?vid=eb982e6f-872d-4cea-b0c2-84d869b0cc85","ios":"levelo://app?vid=eb982e6f-872d-4cea-b0c2-84d869b0cc85"},"vehicle_type_id":"4","last_reported":1679256453,"current_range_meters":0,"station_id":"ce4bhi12rcd13ifvqfp0","pricing_plan_id":"free"},{"bike_id":"14cb8f56-03cc-4c90-b468-69a917645b30","system_id":"levelo_inurba_marseille","lat":43.239588,"lon":5.366238,"is_reserved":false,"is_disabled":false,"rental_uris":{"android":"levelo://app?vid=14cb8f56-03cc-4c90-b468-69a917645b30","ios":"levelo://app?vid=14cb8f56-03cc-4c90-b468-69a917645b30"},"vehicle_type_id":"4","last_reported":1679256453,"current_range_meters":0,"station_id":"ce4bhi12rcd13ifvqfp0","pricing_plan_id":"free"},{"bike_id":"cd92189d-efdf-449d-afe7-7dd47aa547ce","system_id":"levelo_inurba_marseille","lat":43.241782,"lon":5.397261,"is_reserved":false,"is_disabled":false,"rental_uris":{"android":"levelo://app?vid=cd92189d-efdf-449d-afe7-7dd47aa547ce","ios":"levelo://app?vid=cd92189d-efdf-449d-afe7-7dd47aa547ce"},"vehicle_type_id":"4","last_reported":1679256453,"current_range_meters":3200,"station_id":"ce4bhn12rcd13ifvqgpg","pricing_plan_id":"free"},{"bike_id":"5dda21a0-4fd2-4ce0-bc65-60056dc23de8","system_id":"levelo_inurba_marseille","lat":43.23196,"lon":5.35554,"is_reserved":false,"is_disabled":false,"rental_uris":{"android":"levelo://app?vid=5dda21a0-4fd2-4ce0-bc65-60056dc23de8","ios":"levelo://app?vid=5dda21a0-4fd2-4ce0-bc65-60056dc23de8"},"vehicle_type_id":"4","last_reported":1679256453,"current_range_meters":6000,"station_id":"ce4bhu92rcd13ifvqi70","pricing_plan_id":"free"}]}}