{"last_updated":1701364001,"ttl":30,"version":"2.2","data":{"bikes":[{"bike_id":"85ebfaaa-3017-45f3-906e-a6c2319c069c","system_id":"levelo_inurba_marseille","lat":43.308507,"lon":5.368673,"is_reserved":false,"is_disabled":false,"rental_uris":{"android":"levelo://app?vid=85ebfaaa-3017-45f3-906e-a6c2319c069c","ios":"levelo://app?vid=85ebfaaa-3017-45f3-906e-a6c2319c069c"},"vehicle_type_id":"4","last_reported":1701364001,"current_range_meters":14400,"station_id":"","pricing_plan_id":"free"},{"bike_id":"fb8a7b4b-129a-423b-aae7-264f056c150f","system_id":"levelo_inurba_marseille","lat":43.314811,"lon":5.373103,"is_reserved":false,"is_disabled":false,"rental_uris":{"android":"levelo://app?vid=fb8a7b4b-129a-423b-aae7-264f056c150f","ios":"levelo://app?vid=fb8a7b4b-129a-423b-aae7-264f056c150f"},"vehicle_type_id":"4","last_reported":1701364001,"current_range_meters":20000,"station_id":"ce4bgt12rcd13ifvqcd0","pricing_plan_id":"free"},{"bike_id":"98717e24-0006-4c2b-bf34-da7ce3d028ad","system_id":"levelo_inurba_marseille","lat":43.311125,"lon":5.377624,"is_reserved":false,"is_disabled":false,"rental_uris":{"android":"levelo://app?vid=98717e24-0006-4c2b-bf34-da7ce3d028ad","ios":"levelo://app?vid=98717e24-0006-4c2b-bf34-da7ce3d028ad"},"vehicle_type_id":"4","last_reported":1701364001,"current_range_meters":17200,"station_id":"ce4bgt92rcd13ifvqcg0","pricing_plan_id":"free"},{"bike_id":"82ebf286-6ce0-401c-be59-4f9163ad75fc","system_id":"levelo_inurba_marseille","lat":43.298764,"lon":5.388973,"is_reserved":false,"is_disabled":false,"rental_uris":{"android":"levelo://app?vid=82ebf286-6ce0-401c-be59-4f9163ad75fc","ios":"levelo://app?vid=82ebf286-6ce0-401c-be59-4f9163ad75fc"},"vehicle_type_id":"4","last_reported":1701364001,"current_range_meters":22800,"station_id":"ce4bh392rcd13ifvqdl0","pricing_plan_id":"free"},{"bike_id":"727d231a-d425-4d8f-ad3f-99b5a47572e8","system_id":"levelo_inurba_marseille","lat":43.30439,"lon":5.36753,"is_reserved":false,"is_disabled":false,"rental_uris":{"android":"levelo://app?vid=727d231a-d425-4d8f-ad3f-99b5a47572e8","ios":"levelo://app?vid=727d231a-d425-4d8f-ad3f-99b5a47572e8"},"vehicle_type_id":"4","last_reported":1701364001,"current_range_meters":30000,"station_id":"","pricing_plan_id":"free"},{"bike_id":"f427a2c3-6e4a-446b-ae2f-9be8aa7f4122","system_id":"levelo_inurba_marseille","lat":43.31719,"lon":5.376813,"is_reserved":false,"is_disabled":false,"rental_uris":{"android":"levelo://app?vid=f427a2c3-6e4a-446b-ae2f-9be8aa7f4122","ios":"levelo://app?vid=f427a2c3-6e4a-446b-ae2f-9be8aa7f4122"},"vehicle_type_id":"4","last_reported":1701364001,"current_range_meters":5200,"station_id":"ce4bgth2rcd13ifvqch0","pricing_plan_id":"free"},{"bike_id":"e913f328-1e31-4c22-bd87-f809ea246de4","system_id":"levelo_inurba_marseille","lat":43.317168,"lon":5.376883,"is_reserved":false,"is_disabled":false,"rental_uris":{"android":"levelo://app?vid=e913f328-1e31-4c22-bd87-f809ea246de4","ios":"levelo://app?vid=e913f328-1e31-4c22-bd87-f809ea246de4"},"vehicle_type_id":"4","last_reported":1701364001,"current_range_meters":7200,"station_id":"ce4bgth2rcd13ifvqch0","pricing_plan_id":"free"},{"bike_id":"28b67163-d496-4d2f-a83c-ef6bda2c636e","system_id":"levelo_inurba_marseille","lat":43.308015,"lon":5.376723,"is_reserved":false,"is_disabled":false,"rental_uris":{"android":"levelo://app?vid=28b67163-d496-4d2f-a83c-ef6bda2c636e","ios":"levelo://app?vid=28b67163-d496-4d2f-a83c-ef6bda2c636e"},"vehicle_type_id":"4","last_reported":1701364001,"current_range_meters":5200,"station_id":"ce4bgv92rcd13ifvqcq0","pricing_plan_id":"free"},{"bike_id":"7b15a4d5-d634-43c2-ae1e-13e41fbc272b","system_id":"levelo_inurba_marseille","lat":43.317075,"lon":5.377367,"is_reserved":false,"is_disabled":false,"rental_uris":{"android":"levelo://app?vid=7b15a4d5-d634-43c2-ae1e-13e41fbc272b","ios":"levelo://app?vid=7b15a4d5-d634-43c2-ae1e-13e41fbc272b"},"vehicle_type_id":"4","last_reported":1701364001,"current_range_meters":19600,"station_id":"ce4bgth2rcd13ifvqch0","pricing_plan_id":"free"},{"bike_id":"ea2dc31d-5596-4743-8bd0-04e13a7ad348","system_id":"levelo_inurba_marseille","lat":43.317075,"lon":5.377367,"is_reserved":false,"is_disabled":false,"rental_uris":{"android":"levelo://app?vid=ea2dc31d-5596-4743-8bd0-04e13a7ad348","ios":"levelo://app?vid=ea2dc31d-5596-4743-8bd0-04e13a7ad348"},"vehicle_type_id":"4","last_reported":1701364001,"current_range_meters":26400,"station_id":"ce4bgth2rcd13ifvqch0","pricing_plan_id":"free"},{"bike_id":"93bd3404-f6c2-4355-a154-f7b6ed3729bc","system_id":"levelo_inurba_marseille","lat":43.308588,"lon":5.377775,"is_reserved":false,"is_disabled":false,"rental_uris":{"android":"levelo://app?vid=93bd3404-f6c2-4355-a154-f7b6ed3729bc","ios":"levelo://app?vid=93bd3404-f6c2-4355-a154-f7b6ed3729bc"},"vehicle_type_id":"4","last_reported":1701364001,"current_range_meters":25600,"station_id":"","pricing_plan_id":"free"},{"bike_id":"bef3c888-e26e-4daf-a279-528d05d9f20b","system_id":"levelo_inurba_marseille","lat":43.30143,"lon":5.37413,"is_reserved":false,"is_disabled":false,"rental_uris":{"android":"levelo://app?vid=bef3c888-e26e-4daf-a279-528d05d9f20b","ios":"levelo://app?vid=bef3c888-e26e-4daf-a279-528d05d9f20b"},"vehicle_type_id":"4","last_reported":1701364001,"current_range_meters":21200,"station_id":"ce4bgs92rcd13ifvqcc0","pricing_plan_id":"free"},{"bike_id":"2596256b-53f8-4ec4-b078-b72e517296e2","system_id":"levelo_inurba_marseille","lat":43.301939,"lon":5.366286,"is_reserved":false,"is_disabled":false,"rental_uris":{"android":"levelo://app?vid=2596256b-53f8-4ec4-b078-b72e517296e2","ios":"levelo://app?vid=2596256b-53f8-4ec4-b078-b72e517296e2"},"vehicle_type_id":"4","last_reported":1701364001,"current_range_meters":8400,"station_id":"ce4bgrh2rcd13ifvqc8g","pricing_plan_id":"free"},{"bike_id":"7337ff9e-2e2f-4ef8-a985-8767d7daa112","system_id":"levelo_inurba_marseille","lat":43.32482,"lon":5.36564,"is_reserved":false,"is_disabled":false,"rental_uris":{"android":"levelo://app?vid=7337ff9e-2e2f-4ef8-a985-8767d7daa112","ios":"levelo://app?vid=7337ff9e-2e2f-4ef8-a985-8767d7daa112"},"vehicle_type_id":"4","last_reported":1701364001,"current_range_meters":13200,"station_id":"ce4bhs12rcd13ifvqhvg","pricing_plan_id":"free"},{"bike_id":"9a8c326a-2956-42d0-9bce-9c1da7b272ea","system_id":"levelo_inurba_marseille","lat":43.319955,"lon":5.38159,"is_reserved":false,"is_disabled":false,"rental_uris":{"android":"levelo://app?vid=9a8c326a-2956-42d0-9bce-9c1da7b272ea","ios":"levelo://app?vid=9a8c326a-2956-42d0-9bce-9c1da7b272ea"},"vehicle_type_id":"4","last_reported":1701364001,"current_range_meters":22000,"station_id":"ce4bhr12rcd13ifvqhpg","pricing_plan_id":"free"},{"bike_id":"2275aca5-3158-4c2c-8022-ca5d2714bc86","system_id":"levelo_inurba_marseille","lat":43.319997,"lon":5.381594,"is_reserved":false,"is_disabled":false,"rental_uris":{"android":"levelo://app?vid=2275aca5-3158-4c2c-8022-ca5d2714bc86","ios":"levelo://app?vid=2275aca5-3158-4c2c-8022-ca5d2714bc86"},"vehicle_type_id":"4","last_reported":1701364001,"current_range_meters":22400,"station_id":"ce4bhr12rcd13ifvqhpg","pricing_plan_id":"free"},{"bike_id":"b91615c0-9d38-48a5-a1b0-9d9d25f419db","system_id":"levelo_inurba_marseille","lat":43.29937,"lon":5.36559,"is_reserved":false,"is_disabled":false,"rental_uris":{"android":"levelo://app?vid=b91615c0-9d38-48a5-a1b0-9d9d25f419db","ios":"levelo://app?vid=b91615c0-9d38-48a5-a1b0-9d9d25f419db"},"vehicle_type_id":"4","last_reported":1701364001,"current_range_meters":4400,"station_id":"ce4bgm92rcd13ifvqbr0","pricing_plan_id":"free"},{"bike_id":"cc6df0bd-1823-4517-bd91-3c7f2a078fce","system_id":"levelo_inurba_marseille","lat":43.311722,"lon":5.387247,"is_reserved":false,"is_disabled":false,"rental_uris":{"android":"levelo://app?vid=cc6df0bd-1823-4517-bd91-3c7f2a078fce","ios":"levelo://app?vid=cc6df0bd-1823-4517-bd91-3c7f2a078fce"},"vehicle_type_id":"4","last_reported":1701364001,"current_range_meters":800,"station_id":"ce4bgv12rcd13ifvqcp0","pricing_plan_id":"free"},{"bike_id":"b87316b7-888d-4796-a4a6-feb63aa65d9d","system_id":"levelo_inurba_marseille","lat":43.311722,"lon":5.387247,"is_reserved":false,"is_disabled":false,"rental_uris":{"android":"levelo://app?vid=b87316b7-888d-4796-a4a6-feb63aa65d9d","ios":"levelo://app?vid=b87316b7-888d-4796-a4a6-feb63aa65d9d"},"vehicle_type_id":"4","last_reported":1701364001,"current_range_meters":15600,"station_id":"ce4bgv12rcd13ifvqcp0","pricing_plan_id":"free"},{"bike_id":"aebb5f1f-3a1e-4323-a4f0-ae83e0b78d14","system_id":"levelo_inurba_marseille","lat":43.327603,"lon":5.36705,"is_reserved":false,"is_disabled":false,"rental_uris":{"android":"levelo://app?vid=aebb5f1f-3a1e-4323-a4f0-ae83e0b78d14","ios":"levelo://app?vid=aebb5f1f-3a1e-4323-a4f0-ae83e0b78d14"},"vehicle_type_id":"4","last_reported":1701364001,"current_range_meters":24000,"station_id":"","pricing_plan_id":"free"},{"bike_id":"11fbc002-5b4d-4629-a038-bbbaf88697c2","system_id":"levelo_inurba_marseille","lat":43.322872,"lon":5.382756,"is_reserved":false,"is_disabled":false,"rental_uris":{"android":"levelo://app?vid=11fbc002-5b4d-4629-a038-bbbaf88697c2","ios":"levelo://app?vid=11fbc002-5b4d-4629-a038-bbbaf88697c2"},"vehicle_type_id":"4","last_reported":1701364001,"current_range_meters":26800,"station_id":"ce4bhr12rcd13ifvqhqg","pricing_plan_id":"free"},{"bike_id":"7d646cb2-81d6-46d7-acc5-fc1545f9aa11","system_id":"levelo_inurba_marseille","lat":43.297163,"lon":5.365866,"is_reserved":false,"is_disabled":false,"rental_uris":{"android":"levelo://app?vid=7d646cb2-81d6-46d7-acc5-fc1545f9aa11","ios":"levelo://app?vid=7d646cb2-81d6-46d7-acc5-fc1545f9aa11"},"vehicle_type_id":"4","last_reported":1701364001,"current_range_meters":13600,"station_id":"ce4bgn12rcd13ifvqbt0","pricing_plan_id":"free"},{"bike_id":"565d27d6-1cfe-4479-be67-7c1976909698","system_id":"levelo_inurba_marseille","lat":43.297163,"lon":5.365866,"is_reserved":false,"is_disabled":false,"rental_uris":{"android":"levelo://app?vid=565d27d6-1cfe-4479-be67-7c1976909698","ios":"levelo://app?vid=565d27d6-1cfe-4479-be67-7c1976909698"},"vehicle_type_id":"4","last_reported":1701364001,"current_range_meters":19200,"station_id":"ce4bgn12rcd13ifvqbt0","pricing_plan_id":"free"},{"bike_id":"d068864e-3768-4cb7-8f2c-e01febcf4d60","system_id":"levelo_inurba_marseille","lat":43.2962,"lon":5.36518,"is_reserved":false,"is_disabled":false,"rental_uris":{"android":"levelo://app?vid=d068864e-3768-4cb7-8f2c-e01febcf4d60","ios":"levelo://app?vid=d068864e-3768-4cb7-8f2c-e01febcf4d60"},"vehicle_type_id":"4","last_reported":1701364001,"current_range_meters":12400,"station_id":"","pricing_plan_id":"free"},{"bike_id":"2b24c94c-382b-4740-b254-81573f20bbed","system_id":"levelo_inurba_marseille","lat":43.296017,"lon":5.367967,"is_reserved":false,"is_disabled":false,"rental_uris":{"android":"levelo://app?vid=2b24c94c-382b-4740-b254-81573f20bbed","ios":"levelo://app?vid=2b24c94c-382b-4740-b254-81573f20bbed"},"vehicle_type_id":"4","last_reported":1701364001,"current_range_meters":8000,"station_id":"","pricing_plan_id":"free"},{"bike_id":"79c85c0e-a558-47a0-adfa-73d56e5815e2","system_id":"levelo_inurba_marseille","lat":43.29573,"lon":5.367355,"is_reserved":false,"is_disabled":false,"rental_uris":{"android":"levelo://app?vid=79c85c0e-a558-47a0-adfa-73d56e5815e2","ios":"levelo://app?vid=79c85c0e-a558-47a0-adfa-73d56e5815e2"},"vehicle_type_id":"4","last_reported":1701364001,"current_range_meters":20000,"station_id":"ce4bgph2rcd13ifvqc2g","pricing_plan_id":"free"},{"bike_id":"eee0bd3e-071f-430f-9dcd-5d6629ffbdb4","system_id":"levelo_inurba_marseille","lat":43.309589,"lon":5.390258,"is_reserved":false,"is_disabled":false,"rental_uris":{"android":"levelo://app?vid=eee0bd3e-071f-430f-9dcd-5d6629ffbdb4","ios":"levelo://app?vid=eee0bd3e-071f-430f-9dcd-5d6629ffbdb4"},"vehicle_type_id":"4","last_reported":1701364001,"current_range_meters":8000,"station_id":"ce4bgup2rcd13ifvqco0","pricing_plan_id":"free"},{"bike_id":"62d6693c-ec2b-45d1-b37e-d2a35a93d478","system_id":"levelo_inurba_marseille","lat":43.317557,"lon":5.390173,"is_reserved":false,"is_disabled":false,"rental_uris":{"android":"levelo://app?vid=62d6693c-ec2b-45d1-b37e-d2a35a93d478","ios":"levelo://app?vid=62d6693c-ec2b-45d1-b37e-d2a35a93d478"},"vehicle_type_id":"4","last_reported":1701364001,"current_range_meters":20400,"station_id":"ce4bhqp2rcd13ifvqhng","pricing_plan_id":"free"},{"bike_id":"a2f12fcc-77db-4a5e-9d0a-3e37ef1844fc","system_id":"levelo_inurba_marseille","lat":43.32367,"lon":5.388836,"is_reserved":false,"is_disabled":false,"rental_uris":{"android":"levelo://app?vid=a2f12fcc-77db-4a5e-9d0a-3e37ef1844fc","ios":"levelo://app?vid=a2f12fcc-77db-4a5e-9d0a-3e37ef1844fc"},"vehicle_type_id":"4","last_reported":1701364001,"current_range_meters":24000,"station_id":"ce4bhqp2rcd13ifvqhog","pricing_plan_id":"free"},{"bike_id":"eaa0e7e7-2390-47fa-909b-7b240952cbef","system_id":"levelo_inurba_marseille","lat":43.31938,"lon":5.39229,"is_reserved":false,"is_disabled":false,"rental_uris":{"android":"levelo://app?vid=eaa0e7e7-2390-47fa-909b-7b240952cbef","ios":"levelo://app?vid=eaa0e7e7-2390-47fa-909b-7b240952cbef"},"vehicle_type_id":"4","last_reported":1701364001,"current_range_meters":21600,"station_id":"","pricing_plan_id":"free"},{"bike_id":"a88da8e2-15f1-496c-8f7a-41ac0e4848da","system_id":"levelo_inurba_marseille","lat":43.29601,"lon":5.381084,"is_reserved":false,"is_disabled":false,"rental_uris":{"android":"levelo://app?vid=a88da8e2-15f1-496c-8f7a-41ac0e4848da","ios":"levelo://app?vid=a88da8e2-15f1-496c-8f7a-41ac0e4848da"},"vehicle_type_id":"4","last_reported":1701364001,"current_range_meters":14400,"station_id":"ce4bgl12rcd13ifvqbo0","pricing_plan_id":"free"},{"bike_id":"0c8c5f6a-9dce-45e3-b8a6-a24a16759f0a","system_id":"levelo_inurba_marseille","lat":43.293259,"lon":5.371586,"is_reserved":false,"is_disabled":false,"rental_uris":{"android":"levelo://app?vid=0c8c5f6a-9dce-45e3-b8a6-a24a16759f0a","ios":"levelo://app?vid=0c8c5f6a-9dce-45e3-b8a6-a24a16759f0a"},"vehicle_type_id":"4","last_reported":1701364001,"current_range_meters":14800,"station_id":"ce4bgh92rcd13ifvqb40","pricing_plan_id":"free"},{"bike_id":"c80ffa56-7e0d-4167-b610-8b18b2e574b8","system_id":"levelo_inurba_marseille","lat":43.293259,"lon":5.371586,"is_reserved":false,"is_disabled":false,"rental_uris":{"android":"levelo://app?vid=c80ffa56-7e0d-4167-b610-8b18b2e574b8","ios":"levelo://app?vid=c80ffa56-7e0d-4167-b610-8b18b2e574b8"},"vehicle_type_id":"4","last_reported":1701364001,"current_range_meters":7600,"station_id":"ce4bgh92rcd13ifvqb40","pricing_plan_id":"free"},{"bike_id":"e14d7d13-1708-4a97-8e47-30c79ef400ad","system_id":"levelo_inurba_marseille","lat":43.305994,"lon":5.393687,"is_reserved":false,"is_disabled":false,"rental_uris":{"android":"levelo://app?vid=e14d7d13-1708-4a97-8e47-30c79ef400ad","ios":"levelo://app?vid=e14d7d13-1708-4a97-8e47-30c79ef400ad"},"vehicle_type_id":"4","last_reported":1701364001,"current_range_meters":4000,"station_id":"ce4bh0p2rcd13ifvqd80","pricing_plan_id":"free"},{"bike_id":"53a69545-19cb-433c-a7b5-e8b148752c2a","system_id":"levelo_inurba_marseille","lat":43.302992,"lon":5.392136,"is_reserved":false,"is_disabled":false,"rental_uris":{"android":"levelo://app?vid=53a69545-19cb-433c-a7b5-e8b148752c2a","ios":"levelo://app?vid=53a69545-19cb-433c-a7b5-e8b148752c2a"},"vehicle_type_id":"4","last_reported":1701364001,"current_range_meters":0,"station_id":"ce4bgkh2rcd13ifvqbk0","pricing_plan_id":"free"},{"bike_id":"758f7dbd-4145-4312-9528-c0d04417c6dc","system_id":"levelo_inurba_marseille","lat":43.291671,"lon":5.371575,"is_reserved":false,"is_disabled":false,"rental_uris":{"android":"levelo://app?vid=758f7dbd-4145-4312-9528-c0d04417c6dc","ios":"levelo://app?vid=758f7dbd-4145-4312-9528-c0d04417c6dc"},"vehicle_type_id":"4","last_reported":1701364001,"current_range_meters":8400,"station_id":"ce4bha92rcd13ifvqeh0","pricing_plan_id":"free"},{"bike_id":"c86d97a0-77eb-4bdc-8d38-8a9f378a8dcf","system_id":"levelo_inurba_marseille","lat":43.29193,"lon":5.358093,"is_reserved":false,"is_disabled":false,"rental_uris":{"android":"levelo://app?vid=c86d97a0-77eb-4bdc-8d38-8a9f378a8dcf","ios":"levelo://app?vid=c86d97a0-77eb-4bdc-8d38-8a9f378a8dcf"},"vehicle_type_id":"4","last_reported":1701364001,"current_range_meters":18000,"station_id":"","pricing_plan_id":"free"},{"bike_id":"7b723000-7de8-49c7-b15a-3967d0f2bb19","system_id":"levelo_inurba_marseille","lat":43.309038,"lon":5.396546,"is_reserved":false,"is_disabled":false,"rental_uris":{"android":"levelo://app?vid=7b723000-7de8-49c7-b15a-3967d0f2bb19","ios":"levelo://app?vid=7b723000-7de8-49c7-b15a-3967d0f2bb19"},"vehicle_type_id":"4","last_reported":1701364001,"current_range_meters":15600,"station_id":"ce4bh012rcd13ifvqcv0","pricing_plan_id":"free"},{"bike_id":"12d48ece-01a5-4b11-8306-ee7c4d5e6132","system_id":"levelo_inurba_marseille","lat":43.3133,"lon":5.39693,"is_reserved":false,"is_disabled":false,"rental_uris":{"android":"levelo://app?vid=12d48ece-01a5-4b11-8306-ee7c4d5e6132","ios":"levelo://app?vid=12d48ece-01a5-4b11-8306-ee7c4d5e6132"},"vehicle_type_id":"4","last_reported":1701364001,"current_range_meters":17200,"station_id":"ce4bgvp2rcd13ifvqcu0","pricing_plan_id":"free"},{"bike_id":"003e3848-9a2d-4a03-b685-53c7efbce624","system_id":"levelo_inurba_marseille","lat":43.313291,"lon":5.396838,"is_reserved":false,"is_disabled":false,"rental_uris":{"android":"levelo://app?vid=003e3848-9a2d-4a03-b685-53c7efbce624","ios":"levelo://app?vid=003e3848-9a2d-4a03-b685-53c7efbce624"},"vehicle_type_id":"4","last_reported":1701364001,"current_range_meters":12400,"station_id":"ce4bgvp2rcd13ifvqcu0","pricing_plan_id":"free"},{"bike_id":"c3400f3f-f2dd-42a9-8f15-282fdeacae03","system_id":"levelo_inurba_marseille","lat":43.309047,"lon":5.396551,"is_reserved":false,"is_disabled":false,"rental_uris":{"android":"levelo://app?vid=c3400f3f-f2dd-42a9-8f15-282fdeacae03","ios":"levelo://app?vid=c3400f3f-f2dd-42a9-8f15-282fdeacae03"},"vehicle_type_id":"4","last_reported":1701364001,"current_range_meters":9600,"station_id":"ce4bh012rcd13ifvqcv0","pricing_plan_id":"free"},{"bike_id":"37586b2d-e870-4069-8d21-4e12e8fd976e","system_id":"levelo_inurba_marseille","lat":43.289184,"lon":5.366408,"is_reserved":false,"is_disabled":false,"rental_uris":{"android":"levelo://app?vid=37586b2d-e870-4069-8d21-4e12e8fd976e","ios":"levelo://app?vid=37586b2d-e870-4069-8d21-4e12e8fd976e"},"vehicle_type_id":"4","last_reported":1701364001,"current_range_meters":4400,"station_id":"ce4bhap2rcd13ifvqek0","pricing_plan_id":"free"},{"bike_id":"23c70d72-ff63-4dfb-b145-fb8b794111b7","system_id":"levelo_inurba_marseille","lat":43.289184,"lon":5.366408,"is_reserved":false,"is_disabled":false,"rental_uris":{"android":"levelo://app?vid=23c70d72-ff63-4dfb-b145-fb8b794111b7","ios":"levelo://app?vid=23c70d72-ff63-4dfb-b145-fb8b794111b7"},"vehicle_type_id":"4","last_reported":1701364001,"current_range_meters":11600,"station_id":"ce4bhap2rcd13ifvqek0","pricing_plan_id":"free"},{"bike_id":"433c11ae-8306-4bbf-850d-086e9b9b8b2e","system_id":"levelo_inurba_marseille","lat":43.2909,"lon":5.381212,"is_reserved":false,"is_disabled":false,"rental_uris":{"android":"levelo://app?vid=433c11ae-8306-4bbf-850d-086e9b9b8b2e","ios":"levelo://app?vid=433c11ae-8306-4bbf-850d-086e9b9b8b2e"},"vehicle_type_id":"4","last_reported":1701364001,"current_range_meters":18800,"station_id":"ce4bh512rcd13ifvqe2g","pricing_plan_id":"free"},{"bike_id":"d055ed0f-5d8d-455b-841f-97ffa8524597","system_id":"levelo_inurba_marseille","lat":43.29785,"lon":5.39343,"is_reserved":false,"is_disabled":false,"rental_uris":{"android":"levelo://app?vid=d055ed0f-5d8d-455b-841f-97ffa8524597","ios":"levelo://app?vid=d055ed0f-5d8d-455b-841f-97ffa8524597"},"vehicle_type_id":"4","last_reported":1701364001,"current_range_meters":23200,"station_id":"chh1huq6cuj3fo74tm60","pricing_plan_id":"free"},{"bike_id":"28daeda2-278e-4b89-8069-5006a8ed91df","system_id":"levelo_inurba_marseille","lat":43.29781,"lon":5.39344,"is_reserved":false,"is_disabled":false,"rental_uris":{"android":"levelo://app?vid=28daeda2-278e-4b89-8069-5006a8ed91df","ios":"levelo://app?vid=28daeda2-278e-4b89-8069-5006a8ed91df"},"vehicle_type_id":"4","last_reported":1701364001,"current_range_meters":13600,"station_id":"chh1huq6cuj3fo74tm60","pricing_plan_id":"free"},{"bike_id":"890d125e-102e-4b3b-8ffb-d8149351e9f2","system_id":"levelo_inurba_marseille","lat":43.312609,"lon":5.401662,"is_reserved":false,"is_disabled":false,"rental_uris":{"android":"levelo://app?vid=890d125e-102e-4b3b-8ffb-d8149351e9f2","ios":"levelo://app?vid=890d125e-102e-4b3b-8ffb-d8149351e9f2"},"vehicle_type_id":"4","last_reported":1701364001,"current_range_meters":23600,"station_id":"ce4bh092rcd13ifvqd30","pricing_plan_id":"free"},{"bike_id":"1b9ac009-cff0-486d-a1ea-a93c08923e80","system_id":"levelo_inurba_marseille","lat":43.33752,"lon":5.37455,"is_reserved":false,"is_disabled":false,"rental_uris":{"android":"levelo://app?vid=1b9ac009-cff0-486d-a1ea-a93c08923e80","ios":"levelo://app?vid=1b9ac009-cff0-486d-a1ea-a93c08923e80"},"vehicle_type_id":"4","last_reported":1701364001,"current_range_meters":30400,"station_id":"","pricing_plan_id":"free"},{"bike_id":"2ae93018-1f66-4407-8727-ce3bd016a9f6","system_id":"levelo_inurba_marseille","lat":43.33755,"lon":5.37461,"is_reserved":false,"is_disabled":false,"rental_uris":{"android":"levelo://app?vid=2ae93018-1f66-4407-8727-ce3bd016a9f6","ios":"levelo://app?vid=2ae93018-1f66-4407-8727-ce3bd016a9f6"},"vehicle_type_id":"4","last_reported":1701364001,"current_range_meters":18000,"station_id":"","pricing_plan_id":"free"},{"bike_id":"9005bf3a-3d87-4862-b257-94f5737792e0","system_id":"levelo_inurba_marseille","lat":43.306487,"lon":5.4009,"is_reserved":false,"is_disabled":false,"rental_uris":{"android":"levelo://app?vid=9005bf3a-3d87-4862-b257-94f5737792e0","ios":"levelo://app?vid=9005bf3a-3d87-4862-b257-94f5737792e0"},"vehicle_type_id":"4","last_reported":1701364001,"current_range_meters":4400,"station_id":"ce4bh112rcd13ifvqda0","pricing_plan_id":"free"},{"bike_id":"3e25b092-d027-4838-b074-1b5be9f87fbf","system_id":"levelo_inurba_marseille","lat":43.30642,"lon":5.401031,"is_reserved":false,"is_disabled":false,"rental_uris":{"android":"levelo://app?vid=3e25b092-d027-4838-b074-1b5be9f87fbf","ios":"levelo://app?vid=3e25b092-d027-4838-b074-1b5be9f87fbf"},"vehicle_type_id":"4","last_reported":1701364001,"current_range_meters":4000,"station_id":"ce4bh112rcd13ifvqda0","pricing_plan_id":"free"},{"bike_id":"75aed663-b6bc-472e-a6db-fc3a77bf433a","system_id":"levelo_inurba_marseille","lat":43.337789,"lon":5.374286,"is_reserved":false,"is_disabled":false,"rental_uris":{"android":"levelo://app?vid=75aed663-b6bc-472e-a6db-fc3a77bf433a","ios":"levelo://app?vid=75aed663-b6bc-472e-a6db-fc3a77bf433a"},"vehicle_type_id":"4","last_reported":1701364001,"current_range_meters":27600,"station_id":"","pricing_plan_id":"free"},{"bike_id":"87f2165c-0af4-47bd-abaf-0a1d7902cf06","system_id":"levelo_inurba_marseille","lat":43.29586,"lon":5.39365,"is_reserved":false,"is_disabled":false,"rental_uris":{"android":"levelo://app?vid=87f2165c-0af4-47bd-abaf-0a1d7902cf06","ios":"levelo://app?vid=87f2165c-0af4-47bd-abaf-0a1d7902cf06"},"vehicle_type_id":"4","last_reported":1701364001,"current_range_meters":5600,"station_id":"","pricing_plan_id":"free"},{"bike_id":"d08ac6a5-60f4-4033-bd0b-a216d4180503","system_id":"levelo_inurba_marseille","lat":43.301117,"lon":5.398795,"is_reserved":false,"is_disabled":false,"rental_uris":{"android":"levelo://app?vid=d08ac6a5-60f4-4033-bd0b-a216d4180503","ios":"levelo://app?vid=d08ac6a5-60f4-4033-bd0b-a216d4180503"},"vehicle_type_id":"4","last_reported":1701364001,"current_range_meters":21600,"station_id":"ce4bh0h2rcd13ifvqd40","pricing_plan_id":"free"},{"bike_id":"50a49260-5db8-493c-bbc0-8275c6e29120","system_id":"levelo_inurba_marseille","lat":43.301117,"lon":5.398795,"is_reserved":false,"is_disabled":false,"rental_uris":{"android":"levelo://app?vid=50a49260-5db8-493c-bbc0-8275c6e29120","ios":"levelo://app?vid=50a49260-5db8-493c-bbc0-8275c6e29120"},"vehicle_type_id":"4","last_reported":1701364001,"current_range_meters":14800,"station_id":"ce4bh0h2rcd13ifvqd40","pricing_plan_id":"free"},{"bike_id":"b930dc4e-3488-4b4b-b52b-1874865c3274","system_id":"levelo_inurba_marseille","lat":43.30524,"lon":5.4009,"is_reserved":false,"is_disabled":false,"rental_uris":{"android":"levelo://app?vid=b930dc4e-3488-4b4b-b52b-1874865c3274","ios":"levelo://app?vid=b930dc4e-3488-4b4b-b52b-1874865c3274"},"vehicle_type_id":"4","last_reported":1701364001,"current_range_meters":26800,"station_id":"","pricing_plan_id":"free"},{"bike_id":"a6b65222-d9ec-4f9d-9a68-c66292a83dba","system_id":"levelo_inurba_marseille","lat":43.28707,"lon":5.37389,"is_reserved":false,"is_disabled":false,"rental_uris":{"android":"levelo://app?vid=a6b65222-d9ec-4f9d-9a68-c66292a83dba","ios":"levelo://app?vid=a6b65222-d9ec-4f9d-9a68-c66292a83dba"},"vehicle_type_id":"4","last_reported":1701364001,"current_range_meters":26400,"station_id":"ce4bh3p2rcd13ifvqdq0","pricing_plan_id":"free"},{"bike_id":"9225122e-d6c4-4315-92fe-c6310fede331","system_id":"levelo_inurba_marseille","lat":43.286591,"lon":5.363346,"is_reserved":false,"is_disabled":false,"rental_uris":{"android":"levelo://app?vid=9225122e-d6c4-4315-92fe-c6310fede331","ios":"levelo://app?vid=9225122e-d6c4-4315-92fe-c6310fede331"},"vehicle_type_id":"4","last_reported":1701364001,"current_range_meters":24400,"station_id":"ce4bhah2rcd13ifvqej0","pricing_plan_id":"free"},{"bike_id":"407bca8e-f580-46bd-b529-85af819fddb7","system_id":"levelo_inurba_marseille","lat":43.28697,"lon":5.37388,"is_reserved":false,"is_disabled":false,"rental_uris":{"android":"levelo://app?vid=407bca8e-f580-46bd-b529-85af819fddb7","ios":"levelo://app?vid=407bca8e-f580-46bd-b529-85af819fddb7"},"vehicle_type_id":"4","last_reported":1701364001,"current_range_meters":29200,"station_id":"ce4bh3p2rcd13ifvqdq0","pricing_plan_id":"free"},{"bike_id":"cf98c3e0-a694-47db-9a43-a7c0bc9ce6f9","system_id":"levelo_inurba_marseille","lat":43.2865,"lon":5.3626,"is_reserved":false,"is_disabled":false,"rental_uris":{"android":"levelo://app?vid=cf98c3e0-a694-47db-9a43-a7c0bc9ce6f9","ios":"levelo://app?vid=cf98c3e0-a694-47db-9a43-a7c0bc9ce6f9"},"vehicle_type_id":"4","last_reported":1701364001,"current_range_meters":27600,"station_id":"","pricing_plan_id":"free"},{"bike_id":"3a45f9fd-4914-479e-b282-2ec7ca37b3d1","system_id":"levelo_inurba_marseille","lat":43.302759,"lon":5.400793,"is_reserved":false,"is_disabled":false,"rental_uris":{"android":"levelo://app?vid=3a45f9fd-4914-479e-b282-2ec7ca37b3d1","ios":"levelo://app?vid=3a45f9fd-4914-479e-b282-2ec7ca37b3d1"},"vehicle_type_id":"4","last_reported":1701364001,"current_range_meters":0,"station_id":"ce4bgvh2rcd13ifvqcs0","pricing_plan_id":"free"},{"bike_id":"792e3b25-a617-4057-9b1b-aeba92b4e4c8","system_id":"levelo_inurba_marseille","lat":43.29021,"lon":5.38644,"is_reserved":false,"is_disabled":false,"rental_uris":{"android":"levelo://app?vid=792e3b25-a617-4057-9b1b-aeba92b4e4c8","ios":"levelo://app?vid=792e3b25-a617-4057-9b1b-aeba92b4e4c8"},"vehicle_type_id":"4","last_reported":1701364001,"current_range_meters":22000,"station_id":"ce4bh4p2rcd13ifvqe0g","pricing_plan_id":"free"},{"bike_id":"9a95fb5c-2cad-466e-914f-edd9a4780189","system_id":"levelo_inurba_marseille","lat":43.289307,"lon":5.38406,"is_reserved":false,"is_disabled":false,"rental_uris":{"android":"levelo://app?vid=9a95fb5c-2cad-466e-914f-edd9a4780189","ios":"levelo://app?vid=9a95fb5c-2cad-466e-914f-edd9a4780189"},"vehicle_type_id":"4","last_reported":1701364001,"current_range_meters":27200,"station_id":"ce4bh612rcd13ifvqe6g","pricing_plan_id":"free"},{"bike_id":"3ef699b0-26b6-4a3a-8b0b-c733b19e4e43","system_id":"levelo_inurba_marseille","lat":43.30249,"lon":5.40085,"is_reserved":false,"is_disabled":false,"rental_uris":{"android":"levelo://app?vid=3ef699b0-26b6-4a3a-8b0b-c733b19e4e43","ios":"levelo://app?vid=3ef699b0-26b6-4a3a-8b0b-c733b19e4e43"},"vehicle_type_id":"4","last_reported":1701364001,"current_range_meters":0,"station_id":"ce4bgvh2rcd13ifvqcs0","pricing_plan_id":"free"},{"bike_id":"7b09e736-69c1-4c47-b4db-a44cc5e026ee","system_id":"levelo_inurba_marseille","lat":43.286039,"lon":5.370681,"is_reserved":false,"is_disabled":false,"rental_uris":{"android":"levelo://app?vid=7b09e736-69c1-4c47-b4db-a44cc5e026ee","ios":"levelo://app?vid=7b09e736-69c1-4c47-b4db-a44cc5e026ee"},"vehicle_type_id":"4","last_reported":1701364001,"current_range_meters":20800,"station_id":"ce4bht12rcd13ifvqi60","pricing_plan_id":"free"},{"bike_id":"580a80a7-34f8-4524-af8d-79a1d54322b2","system_id":"levelo_inurba_marseille","lat":43.287185,"lon":5.379373,"is_reserved":false,"is_disabled":false,"rental_uris":{"android":"levelo://app?vid=580a80a7-34f8-4524-af8d-79a1d54322b2","ios":"levelo://app?vid=580a80a7-34f8-4524-af8d-79a1d54322b2"},"vehicle_type_id":"4","last_reported":1701364001,"current_range_meters":18400,"station_id":"ce4bh9p2rcd13ifvqec0","pricing_plan_id":"free"},{"bike_id":"7cfaf51e-2667-43ec-9d0e-801546e21db7","system_id":"levelo_inurba_marseille","lat":43.31649,"lon":5.40438,"is_reserved":false,"is_disabled":false,"rental_uris":{"android":"levelo://app?vid=7cfaf51e-2667-43ec-9d0e-801546e21db7","ios":"levelo://app?vid=7cfaf51e-2667-43ec-9d0e-801546e21db7"},"vehicle_type_id":"4","last_reported":1701364001,"current_range_meters":15600,"station_id":"ce4bh012rcd13ifvqd00","pricing_plan_id":"free"},{"bike_id":"ab9f803d-8c85-4741-95b6-d16ad8f0745c","system_id":"levelo_inurba_marseille","lat":43.31655,"lon":5.40444,"is_reserved":false,"is_disabled":false,"rental_uris":{"android":"levelo://app?vid=ab9f803d-8c85-4741-95b6-d16ad8f0745c","ios":"levelo://app?vid=ab9f803d-8c85-4741-95b6-d16ad8f0745c"},"vehicle_type_id":"4","last_reported":1701364001,"current_range_meters":400,"station_id":"ce4bh012rcd13ifvqd00","pricing_plan_id":"free"},{"bike_id":"55fb18d1-3a66-44a9-a318-d960e4cd31be","system_id":"levelo_inurba_marseille","lat":43.286689,"lon":5.379524,"is_reserved":false,"is_disabled":false,"rental_uris":{"android":"levelo://app?vid=55fb18d1-3a66-44a9-a318-d960e4cd31be","ios":"levelo://app?vid=55fb18d1-3a66-44a9-a318-d960e4cd31be"},"vehicle_type_id":"4","last_reported":1701364001,"current_range_meters":29600,"station_id":"","pricing_plan_id":"free"},{"bike_id":"d621262c-78a6-4009-a6fa-1483f145d27f","system_id":"levelo_inurba_marseille","lat":43.291994,"lon":5.392907,"is_reserved":false,"is_disabled":false,"rental_uris":{"android":"levelo://app?vid=d621262c-78a6-4009-a6fa-1483f145d27f","ios":"levelo://app?vid=d621262c-78a6-4009-a6fa-1483f145d27f"},"vehicle_type_id":"4","last_reported":1701364001,"current_range_meters":26400,"station_id":"ce4bh192rcd13ifvqdd0","pricing_plan_id":"free"},{"bike_id":"72c7e8ef-6daa-4ae9-b1e3-f6f84fd6b4b2","system_id":"levelo_inurba_marseille","lat":43.284548,"lon":5.358804,"is_reserved":false,"is_disabled":false,"rental_uris":{"android":"levelo://app?vid=72c7e8ef-6daa-4ae9-b1e3-f6f84fd6b4b2","ios":"levelo://app?vid=72c7e8ef-6daa-4ae9-b1e3-f6f84fd6b4b2"},"vehicle_type_id":"4","last_reported":1701364001,"current_range_meters":12000,"station_id":"ce4bhah2rcd13ifvqei0","pricing_plan_id":"free"},{"bike_id":"61bed829-5d8e-4f7a-9bd8-d9a4608efce9","system_id":"levelo_inurba_marseille","lat":43.285848,"lon":5.350787,"is_reserved":false,"is_disabled":false,"rental_uris":{"android":"levelo://app?vid=61bed829-5d8e-4f7a-9bd8-d9a4608efce9","ios":"levelo://app?vid=61bed829-5d8e-4f7a-9bd8-d9a4608efce9"},"vehicle_type_id":"4","last_reported":1701364001,"current_range_meters":29200,"station_id":"ce4bhch2rcd13ifvqeug","pricing_plan_id":"free"},{"bike_id":"67ae0e32-7756-4d9e-9be4-489fb727ffb2","system_id":"levelo_inurba_marseille","lat":43.319179,"lon":5.407725,"is_reserved":false,"is_disabled":false,"rental_uris":{"android":"levelo://app?vid=67ae0e32-7756-4d9e-9be4-489fb727ffb2","ios":"levelo://app?vid=67ae0e32-7756-4d9e-9be4-489fb727ffb2"},"vehicle_type_id":"4","last_reported":1701364001,"current_range_meters":26800,"station_id":"ce4bhq12rcd13ifvqhig","pricing_plan_id":"free"},{"bike_id":"b7230b2a-4369-40a6-a90d-c673aef2e41b","system_id":"levelo_inurba_marseille","lat":43.337168,"lon":5.391825,"is_reserved":false,"is_disabled":false,"rental_uris":{"android":"levelo://app?vid=b7230b2a-4369-40a6-a90d-c673aef2e41b","ios":"levelo://app?vid=b7230b2a-4369-40a6-a90d-c673aef2e41b"},"vehicle_type_id":"4","last_reported":1701364001,"current_range_meters":15600,"station_id":"ce4bhr92rcd13ifvqhsg","pricing_plan_id":"free"},{"bike_id":"84132732-d5c2-4549-b3ed-7c713f6d4431","system_id":"levelo_inurba_marseille","lat":43.323464,"lon":5.406297,"is_reserved":false,"is_disabled":false,"rental_uris":{"android":"levelo://app?vid=84132732-d5c2-4549-b3ed-7c713f6d4431","ios":"levelo://app?vid=84132732-d5c2-4549-b3ed-7c713f6d4431"},"vehicle_type_id":"4","last_reported":1701364001,"current_range_meters":26800,"station_id":"ce4bhq92rcd13ifvqhjg","pricing_plan_id":"free"},{"bike_id":"662fa6f8-2032-43e0-bf37-8abb696cda1d","system_id":"levelo_inurba_marseille","lat":43.33717,"lon":5.391857,"is_reserved":false,"is_disabled":false,"rental_uris":{"android":"levelo://app?vid=662fa6f8-2032-43e0-bf37-8abb696cda1d","ios":"levelo://app?vid=662fa6f8-2032-43e0-bf37-8abb696cda1d"},"vehicle_type_id":"4","last_reported":1701364001,"current_range_meters":28000,"station_id":"ce4bhr92rcd13ifvqhsg","pricing_plan_id":"free"},{"bike_id":"8e763866-15af-4d24-9ffd-69dcc89a6abc","system_id":"levelo_inurba_marseille","lat":43.284793,"lon":5.384113,"is_reserved":false,"is_disabled":false,"rental_uris":{"android":"levelo://app?vid=8e763866-15af-4d24-9ffd-69dcc89a6abc","ios":"levelo://app?vid=8e763866-15af-4d24-9ffd-69dcc89a6abc"},"vehicle_type_id":"4","last_reported":1701364001,"current_range_meters":0,"station_id":"ce4bh512rcd13ifvqe3g","pricing_plan_id":"free"},{"bike_id":"8c68c28d-4abb-4088-af9b-5a626bcd1e60","system_id":"levelo_inurba_marseille","lat":43.289363,"lon":5.396322,"is_reserved":false,"is_disabled":false,"rental_uris":{"android":"levelo://app?vid=8c68c28d-4abb-4088-af9b-5a626bcd1e60","ios":"levelo://app?vid=8c68c28d-4abb-4088-af9b-5a626bcd1e60"},"vehicle_type_id":"4","last_reported":1701364001,"current_range_meters":6800,"station_id":"ce4bh3h2rcd13ifvqdn0","pricing_plan_id":"free"},{"bike_id":"f6a236a8-6326-4654-9bde-653b00d4349c","system_id":"levelo_inurba_marseille","lat":43.292724,"lon":5.401131,"is_reserved":false,"is_disabled":false,"rental_uris":{"android":"levelo://app?vid=f6a236a8-6326-4654-9bde-653b00d4349c","ios":"levelo://app?vid=f6a236a8-6326-4654-9bde-653b00d4349c"},"vehicle_type_id":"4","last_reported":1701364001,"current_range_meters":14400,"station_id":"ce4bh312rcd13ifvqdk0","pricing_plan_id":"free"},{"bike_id":"8700974b-89cc-458e-8612-05b23ca756d2","system_id":"levelo_inurba_marseille","lat":43.280382,"lon":5.369291,"is_reserved":false,"is_disabled":false,"rental_uris":{"android":"levelo://app?vid=8700974b-89cc-458e-8612-05b23ca756d2","ios":"levelo://app?vid=8700974b-89cc-458e-8612-05b23ca756d2"},"vehicle_type_id":"4","last_reported":1701364001,"current_range_meters":23600,"station_id":"ce4bha12rcd13ifvqef0","pricing_plan_id":"free"},{"bike_id":"6ed0d0be-a6a6-46f6-8375-b4900641082c","system_id":"levelo_inurba_marseille","lat":43.29041,"lon":5.399634,"is_reserved":false,"is_disabled":false,"rental_uris":{"android":"levelo://app?vid=6ed0d0be-a6a6-46f6-8375-b4900641082c","ios":"levelo://app?vid=6ed0d0be-a6a6-46f6-8375-b4900641082c"},"vehicle_type_id":"4","last_reported":1701364001,"current_range_meters":9200,"station_id":"ce4bh392rcd13ifvqdm0","pricing_plan_id":"free"},{"bike_id":"723d7b0a-d9f8-4ba0-bbcc-69d7e1c943cf","system_id":"levelo_inurba_marseille","lat":43.281044,"lon":5.378308,"is_reserved":false,"is_disabled":false,"rental_uris":{"android":"levelo://app?vid=723d7b0a-d9f8-4ba0-bbcc-69d7e1c943cf","ios":"levelo://app?vid=723d7b0a-d9f8-4ba0-bbcc-69d7e1c943cf"},"vehicle_type_id":"4","last_reported":1701364001,"current_range_meters":14400,"station_id":"ce4bha12rcd13ifvqee0","pricing_plan_id":"free"},{"bike_id":"04d34e09-1aa4-4598-b32e-45da26bbc446","system_id":"levelo_inurba_marseille","lat":43.281044,"lon":5.378308,"is_reserved":false,"is_disabled":false,"rental_uris":{"android":"levelo://app?vid=04d34e09-1aa4-4598-b32e-45da26bbc446","ios":"levelo://app?vid=04d34e09-1aa4-4598-b32e-45da26bbc446"},"vehicle_type_id":"4","last_reported":1701364001,"current_range_meters":6400,"station_id":"ce4bha12rcd13ifvqee0","pricing_plan_id":"free"},{"bike_id":"d11eeb7e-670d-4de6-a605-c49b2da5418a","system_id":"levelo_inurba_marseille","lat":43.281044,"lon":5.378308,"is_reserved":false,"is_disabled":false,"rental_uris":{"android":"levelo://app?vid=d11eeb7e-670d-4de6-a605-c49b2da5418a","ios":"levelo://app?vid=d11eeb7e-670d-4de6-a605-c49b2da5418a"},"vehicle_type_id":"4","last_reported":1701364001,"current_range_meters":28000,"station_id":"ce4bha12rcd13ifvqee0","pricing_plan_id":"free"},{"bike_id":"f9b566e0-9896-4f26-b4cd-4a286109a64c","system_id":"levelo_inurba_marseille","lat":43.296263,"lon":5.40601,"is_reserved":false,"is_disabled":false,"rental_uris":{"android":"levelo://app?vid=f9b566e0-9896-4f26-b4cd-4a286109a64c","ios":"levelo://app?vid=f9b566e0-9896-4f26-b4cd-4a286109a64c"},"vehicle_type_id":"4","last_reported":1701364001,"current_range_meters":20000,"station_id":"ce4bh0h2rcd13ifvqd60","pricing_plan_id":"free"},{"bike_id":"b6a6e56c-6882-46ff-bfd0-e97deba68177","system_id":"levelo_inurba_marseille","lat":43.296263,"lon":5.40601,"is_reserved":false,"is_disabled":false,"rental_uris":{"android":"levelo://app?vid=b6a6e56c-6882-46ff-bfd0-e97deba68177","ios":"levelo://app?vid=b6a6e56c-6882-46ff-bfd0-e97deba68177"},"vehicle_type_id":"4","last_reported":1701364001,"current_range_meters":20400,"station_id":"ce4bh0h2rcd13ifvqd60","pricing_plan_id":"free"},{"bike_id":"d07e4844-c98a-4dc4-8cff-5b7b361e1575","system_id":"levelo_inurba_marseille","lat":43.281044,"lon":5.378308,"is_reserved":false,"is_disabled":false,"rental_uris":{"android":"levelo://app?vid=d07e4844-c98a-4dc4-8cff-5b7b361e1575","ios":"levelo://app?vid=d07e4844-c98a-4dc4-8cff-5b7b361e1575"},"vehicle_type_id":"4","last_reported":1701364001,"current_range_meters":22000,"station_id":"ce4bha12rcd13ifvqee0","pricing_plan_id":"free"},{"bike_id":"c5c42056-e9e3-433b-91b7-ac30da3400f8","system_id":"levelo_inurba_marseille","lat":43.284317,"lon":5.391844,"is_reserved":false,"is_disabled":false,"rental_uris":{"android":"levelo://app?vid=c5c42056-e9e3-433b-91b7-ac30da3400f8","ios":"levelo://app?vid=c5c42056-e9e3-433b-91b7-ac30da3400f8"},"vehicle_type_id":"4","last_reported":1701364001,"current_range_meters":2800,"station_id":"ce4bhoh2rcd13ifvqh5g","pricing_plan_id":"free"},{"bike_id":"513b0c2c-d47f-4765-b484-364f7f087cee","system_id":"levelo_inurba_marseille","lat":43.28573,"lon":5.394992,"is_reserved":false,"is_disabled":false,"rental_uris":{"android":"levelo://app?vid=513b0c2c-d47f-4765-b484-364f7f087cee","ios":"levelo://app?vid=513b0c2c-d47f-4765-b484-364f7f087cee"},"vehicle_type_id":"4","last_reported":1701364001,"current_range_meters":2400,"station_id":"ce4bh292rcd13ifvqdg0","pricing_plan_id":"free"},{"bike_id":"9e04a95b-13bc-474c-8147-5f0c049ae137","system_id":"levelo_inurba_marseille","lat":43.326605,"lon":5.409903,"is_reserved":false,"is_disabled":false,"rental_uris":{"android":"levelo://app?vid=9e04a95b-13bc-474c-8147-5f0c049ae137","ios":"levelo://app?vid=9e04a95b-13bc-474c-8147-5f0c049ae137"},"vehicle_type_id":"4","last_reported":1701364001,"current_range_meters":25200,"station_id":"ce4bhpp2rcd13ifvqhgg","pricing_plan_id":"free"},{"bike_id":"145c5d56-f636-4df2-a5aa-9a438d440c11","system_id":"levelo_inurba_marseille","lat":43.279087,"lon":5.380114,"is_reserved":false,"is_disabled":false,"rental_uris":{"android":"levelo://app?vid=145c5d56-f636-4df2-a5aa-9a438d440c11","ios":"levelo://app?vid=145c5d56-f636-4df2-a5aa-9a438d440c11"},"vehicle_type_id":"4","last_reported":1701364001,"current_range_meters":9200,"station_id":"ce4bhf92rcd13ifvqf50","pricing_plan_id":"free"},{"bike_id":"4868d10c-2b08-412a-8a70-96f9e465a24c","system_id":"levelo_inurba_marseille","lat":43.279087,"lon":5.380114,"is_reserved":false,"is_disabled":false,"rental_uris":{"android":"levelo://app?vid=4868d10c-2b08-412a-8a70-96f9e465a24c","ios":"levelo://app?vid=4868d10c-2b08-412a-8a70-96f9e465a24c"},"vehicle_type_id":"4","last_reported":1701364001,"current_range_meters":8800,"station_id":"ce4bhf92rcd13ifvqf50","pricing_plan_id":"free"},{"bike_id":"e3b344b7-302e-4c07-b693-46e2ecd3b698","system_id":"levelo_inurba_marseille","lat":43.287154,"lon":5.399979,"is_reserved":false,"is_disabled":false,"rental_uris":{"android":"levelo://app?vid=e3b344b7-302e-4c07-b693-46e2ecd3b698","ios":"levelo://app?vid=e3b344b7-302e-4c07-b693-46e2ecd3b698"},"vehicle_type_id":"4","last_reported":1701364001,"current_range_meters":7600,"station_id":"ce4bho92rcd13ifvqh3g","pricing_plan_id":"free"},{"bike_id":"dd46178d-f339-486b-99f9-67ba3a768eaf","system_id":"levelo_inurba_marseille","lat":43.287154,"lon":5.399979,"is_reserved":false,"is_disabled":false,"rental_uris":{"android":"levelo://app?vid=dd46178d-f339-486b-99f9-67ba3a768eaf","ios":"levelo://app?vid=dd46178d-f339-486b-99f9-67ba3a768eaf"},"vehicle_type_id":"4","last_reported":1701364001,"current_range_meters":0,"station_id":"ce4bho92rcd13ifvqh3g","pricing_plan_id":"free"},{"bike_id":"9c943a55-6508-4cfb-854a-3ed8eaa88167","system_id":"levelo_inurba_marseille","lat":43.29962,"lon":5.41321,"is_reserved":false,"is_disabled":false,"rental_uris":{"android":"levelo://app?vid=9c943a55-6508-4cfb-854a-3ed8eaa88167","ios":"levelo://app?vid=9c943a55-6508-4cfb-854a-3ed8eaa88167"},"vehicle_type_id":"4","last_reported":1701364001,"current_range_meters":30000,"station_id":"ce4bhp12rcd13ifvqh9g","pricing_plan_id":"free"},{"bike_id":"090478f9-c763-407f-bcae-33007ff245cf","system_id":"levelo_inurba_marseille","lat":43.29959,"lon":5.41328,"is_reserved":false,"is_disabled":false,"rental_uris":{"android":"levelo://app?vid=090478f9-c763-407f-bcae-33007ff245cf","ios":"levelo://app?vid=090478f9-c763-407f-bcae-33007ff245cf"},"vehicle_type_id":"4","last_reported":1701364001,"current_range_meters":24000,"station_id":"ce4bhp12rcd13ifvqh9g","pricing_plan_id":"free"},{"bike_id":"ab0bc9c5-e3b5-4d1c-a474-568de9ff9e74","system_id":"levelo_inurba_marseille","lat":43.279742,"lon":5.38744,"is_reserved":false,"is_disabled":false,"rental_uris":{"android":"levelo://app?vid=ab0bc9c5-e3b5-4d1c-a474-568de9ff9e74","ios":"levelo://app?vid=ab0bc9c5-e3b5-4d1c-a474-568de9ff9e74"},"vehicle_type_id":"4","last_reported":1701364001,"current_range_meters":12400,"station_id":"ce4bhg12rcd13ifvqf80","pricing_plan_id":"free"},{"bike_id":"cc12bee9-d997-4efe-9fc4-a534e3b5c58e","system_id":"levelo_inurba_marseille","lat":43.292571,"lon":5.409107,"is_reserved":false,"is_disabled":false,"rental_uris":{"android":"levelo://app?vid=cc12bee9-d997-4efe-9fc4-a534e3b5c58e","ios":"levelo://app?vid=cc12bee9-d997-4efe-9fc4-a534e3b5c58e"},"vehicle_type_id":"4","last_reported":1701364001,"current_range_meters":13200,"station_id":"ce4bh192rcd13ifvqdc0","pricing_plan_id":"free"},{"bike_id":"dd8c960d-ad58-4a55-aade-1864d11d3930","system_id":"levelo_inurba_marseille","lat":43.292571,"lon":5.409107,"is_reserved":false,"is_disabled":false,"rental_uris":{"android":"levelo://app?vid=dd8c960d-ad58-4a55-aade-1864d11d3930","ios":"levelo://app?vid=dd8c960d-ad58-4a55-aade-1864d11d3930"},"vehicle_type_id":"4","last_reported":1701364001,"current_range_meters":22800,"station_id":"ce4bh192rcd13ifvqdc0","pricing_plan_id":"free"},{"bike_id":"7f5458af-dc32-412e-bcf0-e10cfa891ccb","system_id":"levelo_inurba_marseille","lat":43.292608,"lon":5.409163,"is_reserved":false,"is_disabled":false,"rental_uris":{"android":"levelo://app?vid=7f5458af-dc32-412e-bcf0-e10cfa891ccb","ios":"levelo://app?vid=7f5458af-dc32-412e-bcf0-e10cfa891ccb"},"vehicle_type_id":"4","last_reported":1701364001,"current_range_meters":24000,"station_id":"ce4bh192rcd13ifvqdc0","pricing_plan_id":"free"},{"bike_id":"6f0a5cfc-c1d3-43ab-833a-cbe3b95e59c9","system_id":"levelo_inurba_marseille","lat":43.280928,"lon":5.39689,"is_reserved":false,"is_disabled":false,"rental_uris":{"android":"levelo://app?vid=6f0a5cfc-c1d3-43ab-833a-cbe3b95e59c9","ios":"levelo://app?vid=6f0a5cfc-c1d3-43ab-833a-cbe3b95e59c9"},"vehicle_type_id":"4","last_reported":1701364001,"current_range_meters":23200,"station_id":"ce4bho12rcd13ifvqh2g","pricing_plan_id":"free"},{"bike_id":"8cf9ce6f-3074-4bdc-8ce3-b9507f602d59","system_id":"levelo_inurba_marseille","lat":43.278405,"lon":5.392035,"is_reserved":false,"is_disabled":false,"rental_uris":{"android":"levelo://app?vid=8cf9ce6f-3074-4bdc-8ce3-b9507f602d59","ios":"levelo://app?vid=8cf9ce6f-3074-4bdc-8ce3-b9507f602d59"},"vehicle_type_id":"4","last_reported":1701364001,"current_range_meters":20400,"station_id":"ce4bhjp2rcd13ifvqga0","pricing_plan_id":"free"},{"bike_id":"db5131cc-ede9-453d-a712-1efd124b1930","system_id":"levelo_inurba_marseille","lat":43.278401,"lon":5.392152,"is_reserved":false,"is_disabled":false,"rental_uris":{"android":"levelo://app?vid=db5131cc-ede9-453d-a712-1efd124b1930","ios":"levelo://app?vid=db5131cc-ede9-453d-a712-1efd124b1930"},"vehicle_type_id":"4","last_reported":1701364001,"current_range_meters":14000,"station_id":"ce4bhjp2rcd13ifvqga0","pricing_plan_id":"free"},{"bike_id":"f34ef10f-c5a3-4bd3-bd8f-843ac41df231","system_id":"levelo_inurba_marseille","lat":43.278401,"lon":5.392152,"is_reserved":false,"is_disabled":false,"rental_uris":{"android":"levelo://app?vid=f34ef10f-c5a3-4bd3-bd8f-843ac41df231","ios":"levelo://app?vid=f34ef10f-c5a3-4bd3-bd8f-843ac41df231"},"vehicle_type_id":"4","last_reported":1701364001,"current_range_meters":3200,"station_id":"ce4bhjp2rcd13ifvqga0","pricing_plan_id":"free"},{"bike_id":"b94cad66-6c96-4513-a618-bee7dd12e9ed","system_id":"levelo_inurba_marseille","lat":43.278399,"lon":5.392139,"is_reserved":false,"is_disabled":false,"rental_uris":{"android":"levelo://app?vid=b94cad66-6c96-4513-a618-bee7dd12e9ed","ios":"levelo://app?vid=b94cad66-6c96-4513-a618-bee7dd12e9ed"},"vehicle_type_id":"4","last_reported":1701364001,"current_range_meters":17200,"station_id":"ce4bhjp2rcd13ifvqga0","pricing_plan_id":"free"},{"bike_id":"4b4bceab-cfa3-4264-8622-0ebe7b11bd54","system_id":"levelo_inurba_marseille","lat":43.27376,"lon":5.362477,"is_reserved":false,"is_disabled":false,"rental_uris":{"android":"levelo://app?vid=4b4bceab-cfa3-4264-8622-0ebe7b11bd54","ios":"levelo://app?vid=4b4bceab-cfa3-4264-8622-0ebe7b11bd54"},"vehicle_type_id":"4","last_reported":1701364001,"current_range_meters":30400,"station_id":"ce4bhbh2rcd13ifvqeo0","pricing_plan_id":"free"},{"bike_id":"59690e8e-9e45-4033-9a84-913757b09596","system_id":"levelo_inurba_marseille","lat":43.33612,"lon":5.410321,"is_reserved":false,"is_disabled":false,"rental_uris":{"android":"levelo://app?vid=59690e8e-9e45-4033-9a84-913757b09596","ios":"levelo://app?vid=59690e8e-9e45-4033-9a84-913757b09596"},"vehicle_type_id":"4","last_reported":1701364001,"current_range_meters":20400,"station_id":"ce4bhqh2rcd13ifvqhmg","pricing_plan_id":"free"},{"bike_id":"fc64c086-4c4e-4098-9262-1f2044e7b22e","system_id":"levelo_inurba_marseille","lat":43.275625,"lon":5.384392,"is_reserved":false,"is_disabled":false,"rental_uris":{"android":"levelo://app?vid=fc64c086-4c4e-4098-9262-1f2044e7b22e","ios":"levelo://app?vid=fc64c086-4c4e-4098-9262-1f2044e7b22e"},"vehicle_type_id":"4","last_reported":1701364001,"current_range_meters":0,"station_id":"ce4bhh92rcd13ifvqfi0","pricing_plan_id":"free"},{"bike_id":"114a133e-34fa-42dc-8f52-14606a7a9e75","system_id":"levelo_inurba_marseille","lat":43.276769,"lon":5.388787,"is_reserved":false,"is_disabled":false,"rental_uris":{"android":"levelo://app?vid=114a133e-34fa-42dc-8f52-14606a7a9e75","ios":"levelo://app?vid=114a133e-34fa-42dc-8f52-14606a7a9e75"},"vehicle_type_id":"4","last_reported":1701364001,"current_range_meters":3200,"station_id":"ce4bhi12rcd13ifvqfo0","pricing_plan_id":"free"},{"bike_id":"33b6ee53-fab5-4753-b415-a7f20ced04bd","system_id":"levelo_inurba_marseille","lat":43.276771,"lon":5.388799,"is_reserved":false,"is_disabled":false,"rental_uris":{"android":"levelo://app?vid=33b6ee53-fab5-4753-b415-a7f20ced04bd","ios":"levelo://app?vid=33b6ee53-fab5-4753-b415-a7f20ced04bd"},"vehicle_type_id":"4","last_reported":1701364001,"current_range_meters":16000,"station_id":"ce4bhi12rcd13ifvqfo0","pricing_plan_id":"free"},{"bike_id":"0209b4d1-3135-49c7-acf2-3e487cefb005","system_id":"levelo_inurba_marseille","lat":43.279952,"lon":5.400085,"is_reserved":false,"is_disabled":false,"rental_uris":{"android":"levelo://app?vid=0209b4d1-3135-49c7-acf2-3e487cefb005","ios":"levelo://app?vid=0209b4d1-3135-49c7-acf2-3e487cefb005"},"vehicle_type_id":"4","last_reported":1701364001,"current_range_meters":400,"station_id":"ce4bho92rcd13ifvqh4g","pricing_plan_id":"free"},{"bike_id":"68234c93-50fa-4eb6-ab5d-05c54968fb5c","system_id":"levelo_inurba_marseille","lat":43.279952,"lon":5.400085,"is_reserved":false,"is_disabled":false,"rental_uris":{"android":"levelo://app?vid=68234c93-50fa-4eb6-ab5d-05c54968fb5c","ios":"levelo://app?vid=68234c93-50fa-4eb6-ab5d-05c54968fb5c"},"vehicle_type_id":"4","last_reported":1701364001,"current_range_meters":31600,"station_id":"ce4bho92rcd13ifvqh4g","pricing_plan_id":"free"},{"bike_id":"dca4749f-edd1-432e-8e13-dc4b41127511","system_id":"levelo_inurba_marseille","lat":43.279975,"lon":5.40009,"is_reserved":false,"is_disabled":false,"rental_uris":{"android":"levelo://app?vid=dca4749f-edd1-432e-8e13-dc4b41127511","ios":"levelo://app?vid=dca4749f-edd1-432e-8e13-dc4b41127511"},"vehicle_type_id":"4","last_reported":1701364001,"current_range_meters":20000,"station_id":"ce4bho92rcd13ifvqh4g","pricing_plan_id":"free"},{"bike_id":"b73400d7-a68b-4fd2-84dc-cb9f34cf29bd","system_id":"levelo_inurba_marseille","lat":43.27437,"lon":5.39406,"is_reserved":false,"is_disabled":false,"rental_uris":{"android":"levelo://app?vid=b73400d7-a68b-4fd2-84dc-cb9f34cf29bd","ios":"levelo://app?vid=b73400d7-a68b-4fd2-84dc-cb9f34cf29bd"},"vehicle_type_id":"4","last_reported":1701364001,"current_range_meters":23600,"station_id":"ce4bhdp2rcd13ifvqf20","pricing_plan_id":"free"},{"bike_id":"7335a393-cc37-4e1d-b729-82d3cd0e69fb","system_id":"levelo_inurba_marseille","lat":43.29517,"lon":5.42262,"is_reserved":false,"is_disabled":false,"rental_uris":{"android":"levelo://app?vid=7335a393-cc37-4e1d-b729-82d3cd0e69fb","ios":"levelo://app?vid=7335a393-cc37-4e1d-b729-82d3cd0e69fb"},"vehicle_type_id":"4","last_reported":1701364001,"current_range_meters":19600,"station_id":"ce4bhph2rcd13ifvqhdg","pricing_plan_id":"free"},{"bike_id":"f6d38aff-a5fe-4ea8-b323-a05c3a6bb4a7","system_id":"levelo_inurba_marseille","lat":43.295511,"lon":5.422926,"is_reserved":false,"is_disabled":false,"rental_uris":{"android":"levelo://app?vid=f6d38aff-a5fe-4ea8-b323-a05c3a6bb4a7","ios":"levelo://app?vid=f6d38aff-a5fe-4ea8-b323-a05c3a6bb4a7"},"vehicle_type_id":"4","last_reported":1701364001,"current_range_meters":2800,"station_id":"ce4bhph2rcd13ifvqhdg","pricing_plan_id":"free"},{"bike_id":"92bfe948-65f0-4178-ab7a-ac0708f4bb16","system_id":"levelo_inurba_marseille","lat":43.27809,"lon":5.40709,"is_reserved":false,"is_disabled":false,"rental_uris":{"android":"levelo://app?vid=92bfe948-65f0-4178-ab7a-ac0708f4bb16","ios":"levelo://app?vid=92bfe948-65f0-4178-ab7a-ac0708f4bb16"},"vehicle_type_id":"4","last_reported":1701364001,"current_range_meters":0,"station_id":"ce4bhnh2rcd13ifvqgtg","pricing_plan_id":"free"},{"bike_id":"84a48f11-9cb9-4c88-9faa-8958c81b0dd1","system_id":"levelo_inurba_marseille","lat":43.265714,"lon":5.372891,"is_reserved":false,"is_disabled":false,"rental_uris":{"android":"levelo://app?vid=84a48f11-9cb9-4c88-9faa-8958c81b0dd1","ios":"levelo://app?vid=84a48f11-9cb9-4c88-9faa-8958c81b0dd1"},"vehicle_type_id":"4","last_reported":1701364001,"current_range_meters":1600,"station_id":"ce4bhg12rcd13ifvqf70","pricing_plan_id":"free"},{"bike_id":"20d8d507-6636-444a-a313-b847f665fe5f","system_id":"levelo_inurba_marseille","lat":43.265714,"lon":5.372891,"is_reserved":false,"is_disabled":false,"rental_uris":{"android":"levelo://app?vid=20d8d507-6636-444a-a313-b847f665fe5f","ios":"levelo://app?vid=20d8d507-6636-444a-a313-b847f665fe5f"},"vehicle_type_id":"4","last_reported":1701364001,"current_range_meters":28800,"station_id":"ce4bhg12rcd13ifvqf70","pricing_plan_id":"free"},{"bike_id":"ba1d4a12-85de-4187-9d44-40012782a16a","system_id":"levelo_inurba_marseille","lat":43.267966,"lon":5.393976,"is_reserved":false,"is_disabled":false,"rental_uris":{"android":"levelo://app?vid=ba1d4a12-85de-4187-9d44-40012782a16a","ios":"levelo://app?vid=ba1d4a12-85de-4187-9d44-40012782a16a"},"vehicle_type_id":"4","last_reported":1701364001,"current_range_meters":20800,"station_id":"ce4bhh12rcd13ifvqfg0","pricing_plan_id":"free"},{"bike_id":"6ff017ef-6d7a-4ac1-98c0-85e676e51efa","system_id":"levelo_inurba_marseille","lat":43.267966,"lon":5.393976,"is_reserved":false,"is_disabled":false,"rental_uris":{"android":"levelo://app?vid=6ff017ef-6d7a-4ac1-98c0-85e676e51efa","ios":"levelo://app?vid=6ff017ef-6d7a-4ac1-98c0-85e676e51efa"},"vehicle_type_id":"4","last_reported":1701364001,"current_range_meters":21200,"station_id":"ce4bhh12rcd13ifvqfg0","pricing_plan_id":"free"},{"bike_id":"de7e7eee-8e5b-4616-9650-f982b1d70389","system_id":"levelo_inurba_marseille","lat":43.267966,"lon":5.393976,"is_reserved":false,"is_disabled":false,"rental_uris":{"android":"levelo://app?vid=de7e7eee-8e5b-4616-9650-f982b1d70389","ios":"levelo://app?vid=de7e7eee-8e5b-4616-9650-f982b1d70389"},"vehicle_type_id":"4","last_reported":1701364001,"current_range_meters":12000,"station_id":"ce4bhh12rcd13ifvqfg0","pricing_plan_id":"free"},{"bike_id":"d37ff2d0-6d18-48be-929f-dbecb7b6f3ca","system_id":"levelo_inurba_marseille","lat":43.267966,"lon":5.393976,"is_reserved":false,"is_disabled":false,"rental_uris":{"android":"levelo://app?vid=d37ff2d0-6d18-48be-929f-dbecb7b6f3ca","ios":"levelo://app?vid=d37ff2d0-6d18-48be-929f-dbecb7b6f3ca"},"vehicle_type_id":"4","last_reported":1701364001,"current_range_meters":29200,"station_id":"ce4bhh12rcd13ifvqfg0","pricing_plan_id":"free"},{"bike_id":"deab3550-3ed4-4c29-b804-ac3e50bc32e3","system_id":"levelo_inurba_marseille","lat":43.308051,"lon":5.43527,"is_reserved":false,"is_disabled":false,"rental_uris":{"android":"levelo://app?vid=deab3550-3ed4-4c29-b804-ac3e50bc32e3","ios":"levelo://app?vid=deab3550-3ed4-4c29-b804-ac3e50bc32e3"},"vehicle_type_id":"4","last_reported":1701364001,"current_range_meters":28400,"station_id":"ce4bhph2rcd13ifvqheg","pricing_plan_id":"free"},{"bike_id":"8e8d349d-09ef-483a-8322-0fd5fbd7b38e","system_id":"levelo_inurba_marseille","lat":43.308051,"lon":5.43527,"is_reserved":false,"is_disabled":false,"rental_uris":{"android":"levelo://app?vid=8e8d349d-09ef-483a-8322-0fd5fbd7b38e","ios":"levelo://app?vid=8e8d349d-09ef-483a-8322-0fd5fbd7b38e"},"vehicle_type_id":"4","last_reported":1701364001,"current_range_meters":29600,"station_id":"ce4bhph2rcd13ifvqheg","pricing_plan_id":"free"},{"bike_id":"7ab63241-0bea-4919-80fc-6d8eef69395f","system_id":"levelo_inurba_marseille","lat":43.308051,"lon":5.43527,"is_reserved":false,"is_disabled":false,"rental_uris":{"android":"levelo://app?vid=7ab63241-0bea-4919-80fc-6d8eef69395f","ios":"levelo://app?vid=7ab63241-0bea-4919-80fc-6d8eef69395f"},"vehicle_type_id":"4","last_reported":1701364001,"current_range_meters":30400,"station_id":"ce4bhph2rcd13ifvqheg","pricing_plan_id":"free"},{"bike_id":"16458095-bdf2-4ee9-a63e-b61b41cf5439","system_id":"levelo_inurba_marseille","lat":43.261782,"lon":5.374515,"is_reserved":false,"is_disabled":false,"rental_uris":{"android":"levelo://app?vid=16458095-bdf2-4ee9-a63e-b61b41cf5439","ios":"levelo://app?vid=16458095-bdf2-4ee9-a63e-b61b41cf5439"},"vehicle_type_id":"4","last_reported":1701364001,"current_range_meters":9200,"station_id":"ce4bhgp2rcd13ifvqfc0","pricing_plan_id":"free"},{"bike_id":"6d50931a-5553-495d-be31-bbcf7bdad9de","system_id":"levelo_inurba_marseille","lat":43.317104,"lon":5.436818,"is_reserved":false,"is_disabled":false,"rental_uris":{"android":"levelo://app?vid=6d50931a-5553-495d-be31-bbcf7bdad9de","ios":"levelo://app?vid=6d50931a-5553-495d-be31-bbcf7bdad9de"},"vehicle_type_id":"4","last_reported":1701364001,"current_range_meters":30400,"station_id":"ce4bhp92rcd13ifvqhcg","pricing_plan_id":"free"},{"bike_id":"5b5a837d-69fb-41ae-9d40-70c417f4b01f","system_id":"levelo_inurba_marseille","lat":43.262012,"lon":5.379307,"is_reserved":false,"is_disabled":false,"rental_uris":{"android":"levelo://app?vid=5b5a837d-69fb-41ae-9d40-70c417f4b01f","ios":"levelo://app?vid=5b5a837d-69fb-41ae-9d40-70c417f4b01f"},"vehicle_type_id":"4","last_reported":1701364001,"current_range_meters":11200,"station_id":"ce4bhjp2rcd13ifvqg90","pricing_plan_id":"free"},{"bike_id":"60c489b1-e49f-4f6e-9b34-1144b15d17c3","system_id":"levelo_inurba_marseille","lat":43.271368,"lon":5.40928,"is_reserved":false,"is_disabled":false,"rental_uris":{"android":"levelo://app?vid=60c489b1-e49f-4f6e-9b34-1144b15d17c3","ios":"levelo://app?vid=60c489b1-e49f-4f6e-9b34-1144b15d17c3"},"vehicle_type_id":"4","last_reported":1701364001,"current_range_meters":26000,"station_id":"ce4bhl12rcd13ifvqgf0","pricing_plan_id":"free"},{"bike_id":"fbbe584b-5ddf-4533-9b92-0cea8f4ab8a1","system_id":"levelo_inurba_marseille","lat":43.271388,"lon":5.409269,"is_reserved":false,"is_disabled":false,"rental_uris":{"android":"levelo://app?vid=fbbe584b-5ddf-4533-9b92-0cea8f4ab8a1","ios":"levelo://app?vid=fbbe584b-5ddf-4533-9b92-0cea8f4ab8a1"},"vehicle_type_id":"4","last_reported":1701364001,"current_range_meters":0,"station_id":"ce4bhl12rcd13ifvqgf0","pricing_plan_id":"free"},{"bike_id":"f0199d75-7a24-466a-b503-ff522a4cd9c6","system_id":"levelo_inurba_marseille","lat":43.299028,"lon":5.436688,"is_reserved":false,"is_disabled":false,"rental_uris":{"android":"levelo://app?vid=f0199d75-7a24-466a-b503-ff522a4cd9c6","ios":"levelo://app?vid=f0199d75-7a24-466a-b503-ff522a4cd9c6"},"vehicle_type_id":"4","last_reported":1701364001,"current_range_meters":24800,"station_id":"ce4bhpp2rcd13ifvqhfg","pricing_plan_id":"free"},{"bike_id":"756979a2-fd14-4620-872a-282b35f74d42","system_id":"levelo_inurba_marseille","lat":43.298768,"lon":5.43643,"is_reserved":false,"is_disabled":false,"rental_uris":{"android":"levelo://app?vid=756979a2-fd14-4620-872a-282b35f74d42","ios":"levelo://app?vid=756979a2-fd14-4620-872a-282b35f74d42"},"vehicle_type_id":"4","last_reported":1701364001,"current_range_meters":27600,"station_id":"ce4bhpp2rcd13ifvqhfg","pricing_plan_id":"free"},{"bike_id":"226f381e-5feb-49bb-9b31-8b36460a28f6","system_id":"levelo_inurba_marseille","lat":43.298768,"lon":5.43643,"is_reserved":false,"is_disabled":false,"rental_uris":{"android":"levelo://app?vid=226f381e-5feb-49bb-9b31-8b36460a28f6","ios":"levelo://app?vid=226f381e-5feb-49bb-9b31-8b36460a28f6"},"vehicle_type_id":"4","last_reported":1701364001,"current_range_meters":28400,"station_id":"ce4bhpp2rcd13ifvqhfg","pricing_plan_id":"free"},{"bike_id":"50a577ff-a244-4b1c-820b-6aaf3cca1c85","system_id":"levelo_inurba_marseille","lat":43.281548,"lon":5.42643,"is_reserved":false,"is_disabled":false,"rental_uris":{"android":"levelo://app?vid=50a577ff-a244-4b1c-820b-6aaf3cca1c85","ios":"levelo://app?vid=50a577ff-a244-4b1c-820b-6aaf3cca1c85"},"vehicle_type_id":"4","last_reported":1701364001,"current_range_meters":18800,"station_id":"ce4bhnh2rcd13ifvqgug","pricing_plan_id":"free"},{"bike_id":"a5b8874c-e197-4fe6-afeb-9d0d4eb92a57","system_id":"levelo_inurba_marseille","lat":43.281548,"lon":5.42643,"is_reserved":false,"is_disabled":false,"rental_uris":{"android":"levelo://app?vid=a5b8874c-e197-4fe6-afeb-9d0d4eb92a57","ios":"levelo://app?vid=a5b8874c-e197-4fe6-afeb-9d0d4eb92a57"},"vehicle_type_id":"4","last_reported":1701364001,"current_range_meters":20800,"station_id":"ce4bhnh2rcd13ifvqgug","pricing_plan_id":"free"},{"bike_id":"5ad1a66a-6d02-443c-935a-baa6e1b7c5ec","system_id":"levelo_inurba_marseille","lat":43.281548,"lon":5.42643,"is_reserved":false,"is_disabled":false,"rental_uris":{"android":"levelo://app?vid=5ad1a66a-6d02-443c-935a-baa6e1b7c5ec","ios":"levelo://app?vid=5ad1a66a-6d02-443c-935a-baa6e1b7c5ec"},"vehicle_type_id":"4","last_reported":1701364001,"current_range_meters":24400,"station_id":"ce4bhnh2rcd13ifvqgug","pricing_plan_id":"free"},{"bike_id":"5a6fda95-fd54-46d8-9bea-20d3295778be","system_id":"levelo_inurba_marseille","lat":43.281548,"lon":5.42643,"is_reserved":false,"is_disabled":false,"rental_uris":{"android":"levelo://app?vid=5a6fda95-fd54-46d8-9bea-20d3295778be","ios":"levelo://app?vid=5a6fda95-fd54-46d8-9bea-20d3295778be"},"vehicle_type_id":"4","last_reported":1701364001,"current_range_meters":15600,"station_id":"ce4bhnh2rcd13ifvqgug","pricing_plan_id":"free"},{"bike_id":"bed25fa4-bb71-4841-86c8-9533507c6bf0","system_id":"levelo_inurba_marseille","lat":43.281548,"lon":5.42643,"is_reserved":false,"is_disabled":false,"rental_uris":{"android":"levelo://app?vid=bed25fa4-bb71-4841-86c8-9533507c6bf0","ios":"levelo://app?vid=bed25fa4-bb71-4841-86c8-9533507c6bf0"},"vehicle_type_id":"4","last_reported":1701364001,"current_range_meters":27600,"station_id":"ce4bhnh2rcd13ifvqgug","pricing_plan_id":"free"},{"bike_id":"c32ee0c6-4335-4bf1-ac94-ae3e4bbdb7a4","system_id":"levelo_inurba_marseille","lat":43.281548,"lon":5.42643,"is_reserved":false,"is_disabled":false,"rental_uris":{"android":"levelo://app?vid=c32ee0c6-4335-4bf1-ac94-ae3e4bbdb7a4","ios":"levelo://app?vid=c32ee0c6-4335-4bf1-ac94-ae3e4bbdb7a4"},"vehicle_type_id":"4","last_reported":1701364001,"current_range_meters":1600,"station_id":"ce4bhnh2rcd13ifvqgug","pricing_plan_id":"free"},{"bike_id":"efed3c0e-19d8-4bab-badc-f1656bd23395","system_id":"levelo_inurba_marseille","lat":43.2607,"lon":5.393983,"is_reserved":false,"is_disabled":false,"rental_uris":{"android":"levelo://app?vid=efed3c0e-19d8-4bab-badc-f1656bd23395","ios":"levelo://app?vid=efed3c0e-19d8-4bab-badc-f1656bd23395"},"vehicle_type_id":"4","last_reported":1701364001,"current_range_meters":7600,"station_id":"ce4bhh92rcd13ifvqfj0","pricing_plan_id":"free"},{"bike_id":"69cfc160-253b-41e4-9f72-65f2a33c262b","system_id":"levelo_inurba_marseille","lat":43.275028,"lon":5.424534,"is_reserved":false,"is_disabled":false,"rental_uris":{"android":"levelo://app?vid=69cfc160-253b-41e4-9f72-65f2a33c262b","ios":"levelo://app?vid=69cfc160-253b-41e4-9f72-65f2a33c262b"},"vehicle_type_id":"4","last_reported":1701364001,"current_range_meters":12800,"station_id":"ce4bhn92rcd13ifvqgrg","pricing_plan_id":"free"},{"bike_id":"737e1a54-dc05-4c41-8093-5646edb25f24","system_id":"levelo_inurba_marseille","lat":43.275028,"lon":5.424534,"is_reserved":false,"is_disabled":false,"rental_uris":{"android":"levelo://app?vid=737e1a54-dc05-4c41-8093-5646edb25f24","ios":"levelo://app?vid=737e1a54-dc05-4c41-8093-5646edb25f24"},"vehicle_type_id":"4","last_reported":1701364001,"current_range_meters":22800,"station_id":"ce4bhn92rcd13ifvqgrg","pricing_plan_id":"free"},{"bike_id":"8d672d8f-89c9-4e1b-be32-37f43663744b","system_id":"levelo_inurba_marseille","lat":43.255756,"lon":5.382303,"is_reserved":false,"is_disabled":false,"rental_uris":{"android":"levelo://app?vid=8d672d8f-89c9-4e1b-be32-37f43663744b","ios":"levelo://app?vid=8d672d8f-89c9-4e1b-be32-37f43663744b"},"vehicle_type_id":"4","last_reported":1701364001,"current_range_meters":28000,"station_id":"ce4bhih2rcd13ifvqfs0","pricing_plan_id":"free"},{"bike_id":"84e3c8e2-d62d-4c4c-92cf-316713d0ef09","system_id":"levelo_inurba_marseille","lat":43.255756,"lon":5.382303,"is_reserved":false,"is_disabled":false,"rental_uris":{"android":"levelo://app?vid=84e3c8e2-d62d-4c4c-92cf-316713d0ef09","ios":"levelo://app?vid=84e3c8e2-d62d-4c4c-92cf-316713d0ef09"},"vehicle_type_id":"4","last_reported":1701364001,"current_range_meters":22800,"station_id":"ce4bhih2rcd13ifvqfs0","pricing_plan_id":"free"},{"bike_id":"f48e67dc-357d-44ed-b02a-407bb9fb7d32","system_id":"levelo_inurba_marseille","lat":43.254947,"lon":5.376454,"is_reserved":false,"is_disabled":false,"rental_uris":{"android":"levelo://app?vid=f48e67dc-357d-44ed-b02a-407bb9fb7d32","ios":"levelo://app?vid=f48e67dc-357d-44ed-b02a-407bb9fb7d32"},"vehicle_type_id":"4","last_reported":1701364001,"current_range_meters":30000,"station_id":"ce4bhh12rcd13ifvqff0","pricing_plan_id":"free"},{"bike_id":"39a41fc6-fb12-4304-b9bd-c12fd73ba948","system_id":"levelo_inurba_marseille","lat":43.270721,"lon":5.422764,"is_reserved":false,"is_disabled":false,"rental_uris":{"android":"levelo://app?vid=39a41fc6-fb12-4304-b9bd-c12fd73ba948","ios":"levelo://app?vid=39a41fc6-fb12-4304-b9bd-c12fd73ba948"},"vehicle_type_id":"4","last_reported":1701364001,"current_range_meters":22000,"station_id":"ce4bhk92rcd13ifvqgb0","pricing_plan_id":"free"},{"bike_id":"1e63fe2d-6676-4230-930c-0039350a5636","system_id":"levelo_inurba_marseille","lat":43.239588,"lon":5.366238,"is_reserved":false,"is_disabled":false,"rental_uris":{"android":"levelo://app?vid=1e63fe2d-6676-4230-930c-0039350a5636","ios":"levelo://app?vid=1e63fe2d-6676-4230-930c-0039350a5636"},"vehicle_type_id":"4","last_reported":1701364001,"current_range_meters":15600,"station_id":"ce4bhi12rcd13ifvqfp0","pricing_plan_id":"free"},{"bike_id":"67e4ea81-e2e3-4466-bb23-1783f0b4c1ac","system_id":"levelo_inurba_marseille","lat":43.257079,"lon":5.411051,"is_reserved":false,"is_disabled":false,"rental_uris":{"android":"levelo://app?vid=67e4ea81-e2e3-4466-bb23-1783f0b4c1ac","ios":"levelo://app?vid=67e4ea81-e2e3-4466-bb23-1783f0b4c1ac"},"vehicle_type_id":"4","last_reported":1701364001,"current_range_meters":10800,"station_id":"ce4bhkp2rcd13ifvqgd0","pricing_plan_id":"free"},{"bike_id":"dc3036c3-c335-434d-8947-02f556276189","system_id":"levelo_inurba_marseille","lat":43.2479,"lon":5.374457,"is_reserved":false,"is_disabled":false,"rental_uris":{"android":"levelo://app?vid=dc3036c3-c335-434d-8947-02f556276189","ios":"levelo://app?vid=dc3036c3-c335-434d-8947-02f556276189"},"vehicle_type_id":"4","last_reported":1701364001,"current_range_meters":16800,"station_id":"ce4bhgh2rcd13ifvqfb0","pricing_plan_id":"free"},{"bike_id":"a7347f2d-ed71-4544-a084-e32ba80ff6d8","system_id":"levelo_inurba_marseille","lat":43.250966,"lon":5.395186,"is_reserved":false,"is_disabled":false,"rental_uris":{"android":"levelo://app?vid=a7347f2d-ed71-4544-a084-e32ba80ff6d8","ios":"levelo://app?vid=a7347f2d-ed71-4544-a084-e32ba80ff6d8"},"vehicle_type_id":"4","last_reported":1701364001,"current_range_meters":10800,"station_id":"ce4bhm12rcd13ifvqgkg","pricing_plan_id":"free"},{"bike_id":"166ca5e1-f383-4fdc-8f4b-6be0a372a49a","system_id":"levelo_inurba_marseille","lat":43.24693,"lon":5.382096,"is_reserved":false,"is_disabled":false,"rental_uris":{"android":"levelo://app?vid=166ca5e1-f383-4fdc-8f4b-6be0a372a49a","ios":"levelo://app?vid=166ca5e1-f383-4fdc-8f4b-6be0a372a49a"},"vehicle_type_id":"4","last_reported":1701364001,"current_range_meters":4000,"station_id":"ce4bhih2rcd13ifvqfr0","pricing_plan_id":"free"},{"bike_id":"dbde6ce7-94c4-4bd0-ac7a-18fa14a33f4f","system_id":"levelo_inurba_marseille","lat":43.25114,"lon":5.40323,"is_reserved":false,"is_disabled":false,"rental_uris":{"android":"levelo://app?vid=dbde6ce7-94c4-4bd0-ac7a-18fa14a33f4f","ios":"levelo://app?vid=dbde6ce7-94c4-4bd0-ac7a-18fa14a33f4f"},"vehicle_type_id":"4","last_reported":1701364001,"current_range_meters":25600,"station_id":"ce4bhlh2rcd13ifvqgig","pricing_plan_id":"free"},{"bike_id":"83ac2bce-b7bc-4d44-aa92-b08fbda0168a","system_id":"levelo_inurba_marseille","lat":43.246467,"lon":5.388984,"is_reserved":false,"is_disabled":false,"rental_uris":{"android":"levelo://app?vid=83ac2bce-b7bc-4d44-aa92-b08fbda0168a","ios":"levelo://app?vid=83ac2bce-b7bc-4d44-aa92-b08fbda0168a"},"vehicle_type_id":"4","last_reported":1701364001,"current_range_meters":31200,"station_id":"ce4bhg12rcd13ifvqf60","pricing_plan_id":"free"},{"bike_id":"b3135f45-d190-4379-84da-81e855aab351","system_id":"levelo_inurba_marseille","lat":43.246467,"lon":5.388984,"is_reserved":false,"is_disabled":false,"rental_uris":{"android":"levelo://app?vid=b3135f45-d190-4379-84da-81e855aab351","ios":"levelo://app?vid=b3135f45-d190-4379-84da-81e855aab351"},"vehicle_type_id":"4","last_reported":1701364001,"current_range_meters":11200,"station_id":"ce4bhg12rcd13ifvqf60","pricing_plan_id":"free"},{"bike_id":"a99d2aa8-6e82-4249-8458-17fd7e6f2b2b","system_id":"levelo_inurba_marseille","lat":43.243884,"lon":5.370736,"is_reserved":false,"is_disabled":false,"rental_uris":{"android":"levelo://app?vid=a99d2aa8-6e82-4249-8458-17fd7e6f2b2b","ios":"levelo://app?vid=a99d2aa8-6e82-4249-8458-17fd7e6f2b2b"},"vehicle_type_id":"4","last_reported":1701364001,"current_range_meters":5600,"station_id":"ce4bhhh2rcd13ifvqfk0","pricing_plan_id":"free"},{"bike_id":"d1641cc4-fd10-4a7a-ac2c-f6aed9b7cdb5","system_id":"levelo_inurba_marseille","lat":43.243883,"lon":5.370578,"is_reserved":false,"is_disabled":false,"rental_uris":{"android":"levelo://app?vid=d1641cc4-fd10-4a7a-ac2c-f6aed9b7cdb5","ios":"levelo://app?vid=d1641cc4-fd10-4a7a-ac2c-f6aed9b7cdb5"},"vehicle_type_id":"4","last_reported":1701364001,"current_range_meters":29600,"station_id":"ce4bhnp2rcd13ifvqgvg","pricing_plan_id":"free"},{"bike_id":"f00a30bf-5870-44f6-8dfc-d926f0dfb5a8","system_id":"levelo_inurba_marseille","lat":43.243884,"lon":5.370737,"is_reserved":false,"is_disabled":false,"rental_uris":{"android":"levelo://app?vid=f00a30bf-5870-44f6-8dfc-d926f0dfb5a8","ios":"levelo://app?vid=f00a30bf-5870-44f6-8dfc-d926f0dfb5a8"},"vehicle_type_id":"4","last_reported":1701364001,"current_range_meters":25200,"station_id":"ce4bhhh2rcd13ifvqfk0","pricing_plan_id":"free"},{"bike_id":"732f713b-f5d0-49ac-be74-465dc63caf5f","system_id":"levelo_inurba_marseille","lat":43.239588,"lon":5.366238,"is_reserved":false,"is_disabled":false,"rental_uris":{"android":"levelo://app?vid=732f713b-f5d0-49ac-be74-465dc63caf5f","ios":"levelo://app?vid=732f713b-f5d0-49ac-be74-465dc63caf5f"},"vehicle_type_id":"4","last_reported":1701364001,"current_range_meters":26400,"station_id":"ce4bhi12rcd13ifvqfp0","pricing_plan_id":"free"},{"bike_id":"f4fac1d7-6682-4527-ae48-2053e13bc7a9","system_id":"levelo_inurba_marseille","lat":43.239588,"lon":5.366238,"is_reserved":false,"is_disabled":false,"rental_uris":{"android":"levelo://app?vid=f4fac1d7-6682-4527-ae48-2053e13bc7a9","ios":"levelo://app?vid=f4fac1d7-6682-4527-ae48-2053e13bc7a9"},"vehicle_type_id":"4","last_reported":1701364001,"current_range_meters":18800,"station_id":"ce4bhi12rcd13ifvqfp0","pricing_plan_id":"free"},{"bike_id":"f73b6012-48d4-4174-90fa-22dbdfa5d171","system_id":"levelo_inurba_marseille","lat":43.239588,"lon":5.366238,"is_reserved":false,"is_disabled":false,"rental_uris":{"android":"levelo://app?vid=f73b6012-48d4-4174-90fa-22dbdfa5d171","ios":"levelo://app?vid=f73b6012-48d4-4174-90fa-22dbdfa5d171"},"vehicle_type_id":"4","last_reported":1701364001,"current_range_meters":6400,"station_id":"ce4bhi12rcd13ifvqfp0","pricing_plan_id":"free"},{"bike_id":"cc2f639f-df9b-4e7f-b2df-823bd9a73329","system_id":"levelo_inurba_marseille","lat":43.239588,"lon":5.366238,"is_reserved":false,"is_disabled":false,"rental_uris":{"android":"levelo://app?vid=cc2f639f-df9b-4e7f-b2df-823bd9a73329","ios":"levelo://app?vid=cc2f639f-df9b-4e7f-b2df-823bd9a73329"},"vehicle_type_id":"4","last_reported":1701364001,"current_range_meters":30000,"station_id":"ce4bhi12rcd13ifvqfp0","pricing_plan_id":"free"},{"bike_id":"03982556-79a2-481f-9084-dee371285ddb","system_id":"levelo_inurba_marseille","lat":43.241782,"lon":5.397261,"is_reserved":false,"is_disabled":false,"rental_uris":{"android":"levelo://app?vid=03982556-79a2-481f-9084-dee371285ddb","ios":"levelo://app?vid=03982556-79a2-481f-9084-dee371285ddb"},"vehicle_type_id":"4","last_reported":1701364001,"current_range_meters":800,"station_id":"ce4bhn12rcd13ifvqgpg","pricing_plan_id":"free"},{"bike_id":"60eef28f-fb20-416c-a4a7-28e4fa926127","system_id":"levelo_inurba_marseille","lat":43.231923,"lon":5.355545,"is_reserved":false,"is_disabled":false,"rental_uris":{"android":"levelo://app?vid=60eef28f-fb20-416c-a4a7-28e4fa926127","ios":"levelo://app?vid=60eef28f-fb20-416c-a4a7-28e4fa926127"},"vehicle_type_id":"4","last_reported":1701364001,"current_range_meters":25600,"station_id":"ce4bhu92rcd13ifvqi70","pricing_plan_id":"free"},{"bike_id":"d1703505-b125-4a98-a807-11024241bc04","system_id":"levelo_inurba_marseille","lat":43.231923,"lon":5.355545,"is_reserved":false,"is_disabled":false,"rental_uris":{"android":"levelo://app?vid=d1703505-b125-4a98-a807-11024241bc04","ios":"levelo://app?vid=d1703505-b125-4a98-a807-11024241bc04"},"vehicle_type_id":"4","last_reported":1701364001,"current_range_meters":31600,"station_id":"ce4bhu92rcd13ifvqi70","pricing_plan_id":"free"},{"bike_id":"42335cd1-7845-453d-a240-a54527ead2ee","system_id":"levelo_inurba_marseille","lat":43.231793,"lon":5.400044,"is_reserved":false,"is_disabled":false,"rental_uris":{"android":"levelo://app?vid=42335cd1-7845-453d-a240-a54527ead2ee","ios":"levelo://app?vid=42335cd1-7845-453d-a240-a54527ead2ee"},"vehicle_type_id":"4","last_reported":1701364001,"current_range_meters":19200,"station_id":"ce4bhn12rcd13ifvqgqg","pricing_plan_id":"free"},{"bike_id":"8eb0ca37-48be-46c0-a9a9-f5b046dc44f1","system_id":"levelo_inurba_marseille","lat":43.231794,"lon":5.400052,"is_reserved":false,"is_disabled":false,"rental_uris":{"android":"levelo://app?vid=8eb0ca37-48be-46c0-a9a9-f5b046dc44f1","ios":"levelo://app?vid=8eb0ca37-48be-46c0-a9a9-f5b046dc44f1"},"vehicle_type_id":"4","last_reported":1701364001,"current_range_meters":15200,"station_id":"ce4bhn12rcd13ifvqgqg","pricing_plan_id":"free"}]}}