{"last_updated":1684138162,"ttl":30,"version":"2.2","data":{"bikes":[{"bike_id":"f63c9f4d-7128-43bd-8f98-deff3c1b8ad1","system_id":"levelo_inurba_marseille","lat":43.31341,"lon":5.367098,"is_reserved":false,"is_disabled":false,"rental_uris":{"android":"levelo://app?vid=f63c9f4d-7128-43bd-8f98-deff3c1b8ad1","ios":"levelo://app?vid=f63c9f4d-7128-43bd-8f98-deff3c1b8ad1"},"vehicle_type_id":"4","last_reported":1684138162,"current_range_meters":30400,"station_id":"ce4bgr92rcd13ifvqc6g","pricing_plan_id":"free"},{"bike_id":"625b4ec8-24db-43d8-8c52-7885275d6ee2","system_id":"levelo_inurba_marseille","lat":43.31341,"lon":5.367098,"is_reserved":false,"is_disabled":false,"rental_uris":{"android":"levelo://app?vid=625b4ec8-24db-43d8-8c52-7885275d6ee2","ios":"levelo://app?vid=625b4ec8-24db-43d8-8c52-7885275d6ee2"},"vehicle_type_id":"4","last_reported":1684138162,"current_range_meters":30800,"station_id":"ce4bgr92rcd13ifvqc6g","pricing_plan_id":"free"},{"bike_id":"a49a85a8-4f03-416b-aa34-3dda9d9d6a68","system_id":"levelo_inurba_marseille","lat":43.31341,"lon":5.367098,"is_reserved":false,"is_disabled":false,"rental_uris":{"android":"levelo://app?vid=a49a85a8-4f03-416b-aa34-3dda9d9d6a68","ios":"levelo://app?vid=a49a85a8-4f03-416b-aa34-3dda9d9d6a68"},"vehicle_type_id":"4","last_reported":1684138162,"current_range_meters":23600,"station_id":"ce4bgr92rcd13ifvqc6g","pricing_plan_id":"free"},{"bike_id":"d0369c99-fa2b-4312-bab4-5fbf76841f19","system_id":"levelo_inurba_marseille","lat":43.313391,"lon":5.36706,"is_reserved":false,"is_disabled":false,"rental_uris":{"android":"levelo://app?vid=d0369c99-fa2b-4312-bab4-5fbf76841f19","ios":"levelo://app?vid=d0369c99-fa2b-4312-bab4-5fbf76841f19"},"vehicle_type_id":"4","last_reported":1684138162,"current_range_meters":24400,"station_id":"ce4bgr92rcd13ifvqc6g","pricing_plan_id":"free"},{"bike_id":"7e99c316-3e2c-47cd-af7b-c38b37c9122c","system_id":"levelo_inurba_marseille","lat":43.313391,"lon":5.36706,"is_reserved":false,"is_disabled":false,"rental_uris":{"android":"levelo://app?vid=7e99c316-3e2c-47cd-af7b-c38b37c9122c","ios":"levelo://app?vid=7e99c316-3e2c-47cd-af7b-c38b37c9122c"},"vehicle_type_id":"4","last_reported":1684138162,"current_range_meters":28800,"station_id":"ce4bgr92rcd13ifvqc6g","pricing_plan_id":"free"},{"bike_id":"13bf6098-fdd5-4a63-8363-c62a6dc2fd83","system_id":"levelo_inurba_marseille","lat":43.313391,"lon":5.36706,"is_reserved":false,"is_disabled":false,"rental_uris":{"android":"levelo://app?vid=13bf6098-fdd5-4a63-8363-c62a6dc2fd83","ios":"levelo://app?vid=13bf6098-fdd5-4a63-8363-c62a6dc2fd83"},"vehicle_type_id":"4","last_reported":1684138162,"current_range_meters":28000,"station_id":"ce4bgr92rcd13ifvqc6g","pricing_plan_id":"free"},{"bike_id":"6f284399-54bb-45e5-90e8-26de975ce98d","system_id":"levelo_inurba_marseille","lat":43.313391,"lon":5.36706,"is_reserved":false,"is_disabled":false,"rental_uris":{"android":"levelo://app?vid=6f284399-54bb-45e5-90e8-26de975ce98d","ios":"levelo://app?vid=6f284399-54bb-45e5-90e8-26de975ce98d"},"vehicle_type_id":"4","last_reported":1684138162,"current_range_meters":30000,"station_id":"ce4bgr92rcd13ifvqc6g","pricing_plan_id":"free"},{"bike_id":"ffc1bdc9-3270-4198-9f22-05b7f4c60f80","system_id":"levelo_inurba_marseille","lat":43.313391,"lon":5.36706,"is_reserved":false,"is_disabled":false,"rental_uris":{"android":"levelo://app?vid=ffc1bdc9-3270-4198-9f22-05b7f4c60f80","ios":"levelo://app?vid=ffc1bdc9-3270-4198-9f22-05b7f4c60f80"},"vehicle_type_id":"4","last_reported":1684138162,"current_range_meters":14400,"station_id":"ce4bgr92rcd13ifvqc6g","pricing_plan_id":"free"},{"bike_id":"71835020-a154-46ed-949d-e49174e82d92","system_id":"levelo_inurba_marseille","lat":43.313391,"lon":5.36706,"is_reserved":false,"is_disabled":false,"rental_uris":{"android":"levelo://app?vid=71835020-a154-46ed-949d-e49174e82d92","ios":"levelo://app?vid=71835020-a154-46ed-949d-e49174e82d92"},"vehicle_type_id":"4","last_reported":1684138162,"current_range_meters":15600,"station_id":"ce4bgr92rcd13ifvqc6g","pricing_plan_id":"free"},{"bike_id":"cdc54b89-0a76-4644-b2b0-3162d5d1438a","system_id":"levelo_inurba_marseille","lat":43.31341,"lon":5.367098,"is_reserved":false,"is_disabled":false,"rental_uris":{"android":"levelo://app?vid=cdc54b89-0a76-4644-b2b0-3162d5d1438a","ios":"levelo://app?vid=cdc54b89-0a76-4644-b2b0-3162d5d1438a"},"vehicle_type_id":"4","last_reported":1684138162,"current_range_meters":27200,"station_id":"ce4bgr92rcd13ifvqc6g","pricing_plan_id":"free"},{"bike_id":"82f59c2f-3a65-4cad-a257-4dae6ea2bc4c","system_id":"levelo_inurba_marseille","lat":43.312239,"lon":5.368562,"is_reserved":false,"is_disabled":false,"rental_uris":{"android":"levelo://app?vid=82f59c2f-3a65-4cad-a257-4dae6ea2bc4c","ios":"levelo://app?vid=82f59c2f-3a65-4cad-a257-4dae6ea2bc4c"},"vehicle_type_id":"4","last_reported":1684138162,"current_range_meters":31200,"station_id":"ce4bgl92rcd13ifvqbq0","pricing_plan_id":"free"},{"bike_id":"a235c6bb-f626-47af-a695-1f3b704f85a7","system_id":"levelo_inurba_marseille","lat":43.312239,"lon":5.368562,"is_reserved":false,"is_disabled":false,"rental_uris":{"android":"levelo://app?vid=a235c6bb-f626-47af-a695-1f3b704f85a7","ios":"levelo://app?vid=a235c6bb-f626-47af-a695-1f3b704f85a7"},"vehicle_type_id":"4","last_reported":1684138162,"current_range_meters":30800,"station_id":"ce4bgl92rcd13ifvqbq0","pricing_plan_id":"free"},{"bike_id":"5f7ccbe0-7ba3-46c2-ba76-bcdfabe3626c","system_id":"levelo_inurba_marseille","lat":43.312239,"lon":5.368562,"is_reserved":false,"is_disabled":false,"rental_uris":{"android":"levelo://app?vid=5f7ccbe0-7ba3-46c2-ba76-bcdfabe3626c","ios":"levelo://app?vid=5f7ccbe0-7ba3-46c2-ba76-bcdfabe3626c"},"vehicle_type_id":"4","last_reported":1684138162,"current_range_meters":17600,"station_id":"ce4bgl92rcd13ifvqbq0","pricing_plan_id":"free"},{"bike_id":"0aae1dc5-f73e-45c5-b794-a5492ad865cd","system_id":"levelo_inurba_marseille","lat":43.312239,"lon":5.368562,"is_reserved":false,"is_disabled":false,"rental_uris":{"android":"levelo://app?vid=0aae1dc5-f73e-45c5-b794-a5492ad865cd","ios":"levelo://app?vid=0aae1dc5-f73e-45c5-b794-a5492ad865cd"},"vehicle_type_id":"4","last_reported":1684138162,"current_range_meters":31200,"station_id":"ce4bgl92rcd13ifvqbq0","pricing_plan_id":"free"},{"bike_id":"c5587543-677e-4441-b84f-890b907ac93f","system_id":"levelo_inurba_marseille","lat":43.312239,"lon":5.368562,"is_reserved":false,"is_disabled":false,"rental_uris":{"android":"levelo://app?vid=c5587543-677e-4441-b84f-890b907ac93f","ios":"levelo://app?vid=c5587543-677e-4441-b84f-890b907ac93f"},"vehicle_type_id":"4","last_reported":1684138162,"current_range_meters":28400,"station_id":"ce4bgl92rcd13ifvqbq0","pricing_plan_id":"free"},{"bike_id":"ccfd9ed1-a977-4812-91d3-0c894b07de7b","system_id":"levelo_inurba_marseille","lat":43.315199,"lon":5.36664,"is_reserved":false,"is_disabled":false,"rental_uris":{"android":"levelo://app?vid=ccfd9ed1-a977-4812-91d3-0c894b07de7b","ios":"levelo://app?vid=ccfd9ed1-a977-4812-91d3-0c894b07de7b"},"vehicle_type_id":"4","last_reported":1684138162,"current_range_meters":18800,"station_id":"ce4bh9p2rcd13ifvqec0","pricing_plan_id":"free"},{"bike_id":"685f471f-ee94-4ece-853c-ecc0ea10c057","system_id":"levelo_inurba_marseille","lat":43.309076,"lon":5.368465,"is_reserved":false,"is_disabled":false,"rental_uris":{"android":"levelo://app?vid=685f471f-ee94-4ece-853c-ecc0ea10c057","ios":"levelo://app?vid=685f471f-ee94-4ece-853c-ecc0ea10c057"},"vehicle_type_id":"4","last_reported":1684138162,"current_range_meters":30400,"station_id":"ce4bgn92rcd13ifvqbvg","pricing_plan_id":"free"},{"bike_id":"c98fd8bc-a8ea-4356-a1ff-ee4a8fd5c4f2","system_id":"levelo_inurba_marseille","lat":43.309076,"lon":5.368465,"is_reserved":false,"is_disabled":false,"rental_uris":{"android":"levelo://app?vid=c98fd8bc-a8ea-4356-a1ff-ee4a8fd5c4f2","ios":"levelo://app?vid=c98fd8bc-a8ea-4356-a1ff-ee4a8fd5c4f2"},"vehicle_type_id":"4","last_reported":1684138162,"current_range_meters":28000,"station_id":"ce4bgn92rcd13ifvqbvg","pricing_plan_id":"free"},{"bike_id":"4a87d382-110e-48c3-98b7-96b9bf654a7d","system_id":"levelo_inurba_marseille","lat":43.309076,"lon":5.368465,"is_reserved":false,"is_disabled":false,"rental_uris":{"android":"levelo://app?vid=4a87d382-110e-48c3-98b7-96b9bf654a7d","ios":"levelo://app?vid=4a87d382-110e-48c3-98b7-96b9bf654a7d"},"vehicle_type_id":"4","last_reported":1684138162,"current_range_meters":22400,"station_id":"ce4bgn92rcd13ifvqbvg","pricing_plan_id":"free"},{"bike_id":"8b2e003d-ff95-4e30-96fa-1b9c541945ae","system_id":"levelo_inurba_marseille","lat":43.309076,"lon":5.368465,"is_reserved":false,"is_disabled":false,"rental_uris":{"android":"levelo://app?vid=8b2e003d-ff95-4e30-96fa-1b9c541945ae","ios":"levelo://app?vid=8b2e003d-ff95-4e30-96fa-1b9c541945ae"},"vehicle_type_id":"4","last_reported":1684138162,"current_range_meters":31200,"station_id":"ce4bgn92rcd13ifvqbvg","pricing_plan_id":"free"},{"bike_id":"7444f141-ea52-4621-9998-9ec3106e3de4","system_id":"levelo_inurba_marseille","lat":43.309076,"lon":5.368465,"is_reserved":false,"is_disabled":false,"rental_uris":{"android":"levelo://app?vid=7444f141-ea52-4621-9998-9ec3106e3de4","ios":"levelo://app?vid=7444f141-ea52-4621-9998-9ec3106e3de4"},"vehicle_type_id":"4","last_reported":1684138162,"current_range_meters":31200,"station_id":"ce4bgn92rcd13ifvqbvg","pricing_plan_id":"free"},{"bike_id":"f260de48-bd4d-4507-9e32-1431d10844a3","system_id":"levelo_inurba_marseille","lat":43.309076,"lon":5.368465,"is_reserved":false,"is_disabled":false,"rental_uris":{"android":"levelo://app?vid=f260de48-bd4d-4507-9e32-1431d10844a3","ios":"levelo://app?vid=f260de48-bd4d-4507-9e32-1431d10844a3"},"vehicle_type_id":"4","last_reported":1684138162,"current_range_meters":20000,"station_id":"ce4bgn92rcd13ifvqbvg","pricing_plan_id":"free"},{"bike_id":"3811303b-9d1b-4f1a-a57e-0b97e759ce98","system_id":"levelo_inurba_marseille","lat":43.309076,"lon":5.368465,"is_reserved":false,"is_disabled":false,"rental_uris":{"android":"levelo://app?vid=3811303b-9d1b-4f1a-a57e-0b97e759ce98","ios":"levelo://app?vid=3811303b-9d1b-4f1a-a57e-0b97e759ce98"},"vehicle_type_id":"4","last_reported":1684138162,"current_range_meters":16000,"station_id":"ce4bgn92rcd13ifvqbvg","pricing_plan_id":"free"},{"bike_id":"282f93e1-4f48-404f-9d64-edfb54854307","system_id":"levelo_inurba_marseille","lat":43.309076,"lon":5.368465,"is_reserved":false,"is_disabled":false,"rental_uris":{"android":"levelo://app?vid=282f93e1-4f48-404f-9d64-edfb54854307","ios":"levelo://app?vid=282f93e1-4f48-404f-9d64-edfb54854307"},"vehicle_type_id":"4","last_reported":1684138162,"current_range_meters":13200,"station_id":"ce4bgn92rcd13ifvqbvg","pricing_plan_id":"free"},{"bike_id":"c11d841f-280d-4942-ba29-bc530c7cb73b","system_id":"levelo_inurba_marseille","lat":43.309076,"lon":5.368465,"is_reserved":false,"is_disabled":false,"rental_uris":{"android":"levelo://app?vid=c11d841f-280d-4942-ba29-bc530c7cb73b","ios":"levelo://app?vid=c11d841f-280d-4942-ba29-bc530c7cb73b"},"vehicle_type_id":"4","last_reported":1684138162,"current_range_meters":31200,"station_id":"ce4bgn92rcd13ifvqbvg","pricing_plan_id":"free"},{"bike_id":"d74cf747-81c5-4c44-938b-cbd280f5b029","system_id":"levelo_inurba_marseille","lat":43.309076,"lon":5.368465,"is_reserved":false,"is_disabled":false,"rental_uris":{"android":"levelo://app?vid=d74cf747-81c5-4c44-938b-cbd280f5b029","ios":"levelo://app?vid=d74cf747-81c5-4c44-938b-cbd280f5b029"},"vehicle_type_id":"4","last_reported":1684138162,"current_range_meters":23600,"station_id":"ce4bgn92rcd13ifvqbvg","pricing_plan_id":"free"},{"bike_id":"40bedd74-e81c-47d9-9064-71d7fc73661a","system_id":"levelo_inurba_marseille","lat":43.30898,"lon":5.36846,"is_reserved":false,"is_disabled":false,"rental_uris":{"android":"levelo://app?vid=40bedd74-e81c-47d9-9064-71d7fc73661a","ios":"levelo://app?vid=40bedd74-e81c-47d9-9064-71d7fc73661a"},"vehicle_type_id":"4","last_reported":1684138162,"current_range_meters":26800,"station_id":"ce4bgn92rcd13ifvqbvg","pricing_plan_id":"free"},{"bike_id":"6dcfa273-a144-4dd1-a99d-bd6bccba07ad","system_id":"levelo_inurba_marseille","lat":43.31484,"lon":5.37297,"is_reserved":false,"is_disabled":false,"rental_uris":{"android":"levelo://app?vid=6dcfa273-a144-4dd1-a99d-bd6bccba07ad","ios":"levelo://app?vid=6dcfa273-a144-4dd1-a99d-bd6bccba07ad"},"vehicle_type_id":"4","last_reported":1684138162,"current_range_meters":0,"station_id":"ce4bgt12rcd13ifvqcd0","pricing_plan_id":"free"},{"bike_id":"7efe993e-a391-44a7-92c1-54795378c89e","system_id":"levelo_inurba_marseille","lat":43.314811,"lon":5.373103,"is_reserved":false,"is_disabled":false,"rental_uris":{"android":"levelo://app?vid=7efe993e-a391-44a7-92c1-54795378c89e","ios":"levelo://app?vid=7efe993e-a391-44a7-92c1-54795378c89e"},"vehicle_type_id":"4","last_reported":1684138162,"current_range_meters":3200,"station_id":"ce4bgt12rcd13ifvqcd0","pricing_plan_id":"free"},{"bike_id":"7ab0cde9-0a17-4f62-9440-1ecc15fcf084","system_id":"levelo_inurba_marseille","lat":43.314811,"lon":5.373103,"is_reserved":false,"is_disabled":false,"rental_uris":{"android":"levelo://app?vid=7ab0cde9-0a17-4f62-9440-1ecc15fcf084","ios":"levelo://app?vid=7ab0cde9-0a17-4f62-9440-1ecc15fcf084"},"vehicle_type_id":"4","last_reported":1684138162,"current_range_meters":20000,"station_id":"ce4bgt12rcd13ifvqcd0","pricing_plan_id":"free"},{"bike_id":"ef42665b-7a58-430a-a09b-24ad7325a98d","system_id":"levelo_inurba_marseille","lat":43.30588,"lon":5.36563,"is_reserved":false,"is_disabled":false,"rental_uris":{"android":"levelo://app?vid=ef42665b-7a58-430a-a09b-24ad7325a98d","ios":"levelo://app?vid=ef42665b-7a58-430a-a09b-24ad7325a98d"},"vehicle_type_id":"4","last_reported":1684138162,"current_range_meters":8400,"station_id":"","pricing_plan_id":"free"},{"bike_id":"34d2043d-5d6a-44f7-b569-4c349af652a9","system_id":"levelo_inurba_marseille","lat":43.305368,"lon":5.367343,"is_reserved":false,"is_disabled":false,"rental_uris":{"android":"levelo://app?vid=34d2043d-5d6a-44f7-b569-4c349af652a9","ios":"levelo://app?vid=34d2043d-5d6a-44f7-b569-4c349af652a9"},"vehicle_type_id":"4","last_reported":1684138162,"current_range_meters":4000,"station_id":"ce4bgrp2rcd13ifvqc9g","pricing_plan_id":"free"},{"bike_id":"e3b54415-436e-48a6-9c57-afa442a95e06","system_id":"levelo_inurba_marseille","lat":43.305368,"lon":5.367343,"is_reserved":false,"is_disabled":false,"rental_uris":{"android":"levelo://app?vid=e3b54415-436e-48a6-9c57-afa442a95e06","ios":"levelo://app?vid=e3b54415-436e-48a6-9c57-afa442a95e06"},"vehicle_type_id":"4","last_reported":1684138162,"current_range_meters":22400,"station_id":"ce4bgrp2rcd13ifvqc9g","pricing_plan_id":"free"},{"bike_id":"e9fbf0e4-55d6-4084-9627-b8749ad8057d","system_id":"levelo_inurba_marseille","lat":43.305368,"lon":5.367343,"is_reserved":false,"is_disabled":false,"rental_uris":{"android":"levelo://app?vid=e9fbf0e4-55d6-4084-9627-b8749ad8057d","ios":"levelo://app?vid=e9fbf0e4-55d6-4084-9627-b8749ad8057d"},"vehicle_type_id":"4","last_reported":1684138162,"current_range_meters":0,"station_id":"ce4bgrp2rcd13ifvqc9g","pricing_plan_id":"free"},{"bike_id":"018eb2e3-df11-4a44-9b22-5bc18958493e","system_id":"levelo_inurba_marseille","lat":43.305368,"lon":5.367343,"is_reserved":false,"is_disabled":false,"rental_uris":{"android":"levelo://app?vid=018eb2e3-df11-4a44-9b22-5bc18958493e","ios":"levelo://app?vid=018eb2e3-df11-4a44-9b22-5bc18958493e"},"vehicle_type_id":"4","last_reported":1684138162,"current_range_meters":2000,"station_id":"ce4bgrp2rcd13ifvqc9g","pricing_plan_id":"free"},{"bike_id":"780fe62f-7993-4864-9f0a-006946f1086e","system_id":"levelo_inurba_marseille","lat":43.305546,"lon":5.365217,"is_reserved":false,"is_disabled":false,"rental_uris":{"android":"levelo://app?vid=780fe62f-7993-4864-9f0a-006946f1086e","ios":"levelo://app?vid=780fe62f-7993-4864-9f0a-006946f1086e"},"vehicle_type_id":"4","last_reported":1684138162,"current_range_meters":23200,"station_id":"","pricing_plan_id":"free"},{"bike_id":"b28b9bd5-62f1-4081-aea0-d1c26aef1153","system_id":"levelo_inurba_marseille","lat":43.305368,"lon":5.367343,"is_reserved":false,"is_disabled":false,"rental_uris":{"android":"levelo://app?vid=b28b9bd5-62f1-4081-aea0-d1c26aef1153","ios":"levelo://app?vid=b28b9bd5-62f1-4081-aea0-d1c26aef1153"},"vehicle_type_id":"4","last_reported":1684138162,"current_range_meters":23200,"station_id":"ce4bgrp2rcd13ifvqc9g","pricing_plan_id":"free"},{"bike_id":"b7bd7f29-6c74-46d9-bb1c-bfdc2e6df3f5","system_id":"levelo_inurba_marseille","lat":43.305368,"lon":5.367343,"is_reserved":false,"is_disabled":false,"rental_uris":{"android":"levelo://app?vid=b7bd7f29-6c74-46d9-bb1c-bfdc2e6df3f5","ios":"levelo://app?vid=b7bd7f29-6c74-46d9-bb1c-bfdc2e6df3f5"},"vehicle_type_id":"4","last_reported":1684138162,"current_range_meters":28800,"station_id":"ce4bgrp2rcd13ifvqc9g","pricing_plan_id":"free"},{"bike_id":"69e24047-f02b-409b-b601-c5c38f010318","system_id":"levelo_inurba_marseille","lat":43.305368,"lon":5.367343,"is_reserved":false,"is_disabled":false,"rental_uris":{"android":"levelo://app?vid=69e24047-f02b-409b-b601-c5c38f010318","ios":"levelo://app?vid=69e24047-f02b-409b-b601-c5c38f010318"},"vehicle_type_id":"4","last_reported":1684138162,"current_range_meters":23600,"station_id":"ce4bgrp2rcd13ifvqc9g","pricing_plan_id":"free"},{"bike_id":"5cb90591-2a1d-4ac6-88d7-412b6ebb308c","system_id":"levelo_inurba_marseille","lat":43.305706,"lon":5.365654,"is_reserved":false,"is_disabled":false,"rental_uris":{"android":"levelo://app?vid=5cb90591-2a1d-4ac6-88d7-412b6ebb308c","ios":"levelo://app?vid=5cb90591-2a1d-4ac6-88d7-412b6ebb308c"},"vehicle_type_id":"4","last_reported":1684138162,"current_range_meters":400,"station_id":"ce4bgs12rcd13ifvqcag","pricing_plan_id":"free"},{"bike_id":"491a0cc7-d8c3-441c-bd6d-fd484a3992ea","system_id":"levelo_inurba_marseille","lat":43.305368,"lon":5.367343,"is_reserved":false,"is_disabled":false,"rental_uris":{"android":"levelo://app?vid=491a0cc7-d8c3-441c-bd6d-fd484a3992ea","ios":"levelo://app?vid=491a0cc7-d8c3-441c-bd6d-fd484a3992ea"},"vehicle_type_id":"4","last_reported":1684138162,"current_range_meters":25600,"station_id":"ce4bgrp2rcd13ifvqc9g","pricing_plan_id":"free"},{"bike_id":"f8662903-56ae-4fc0-8516-d7afbeeffa7f","system_id":"levelo_inurba_marseille","lat":43.305368,"lon":5.367343,"is_reserved":false,"is_disabled":false,"rental_uris":{"android":"levelo://app?vid=f8662903-56ae-4fc0-8516-d7afbeeffa7f","ios":"levelo://app?vid=f8662903-56ae-4fc0-8516-d7afbeeffa7f"},"vehicle_type_id":"4","last_reported":1684138162,"current_range_meters":25200,"station_id":"ce4bgrp2rcd13ifvqc9g","pricing_plan_id":"free"},{"bike_id":"7c752dfd-0f8a-4751-b79f-f6dce9f2bcbc","system_id":"levelo_inurba_marseille","lat":43.305714,"lon":5.365633,"is_reserved":false,"is_disabled":false,"rental_uris":{"android":"levelo://app?vid=7c752dfd-0f8a-4751-b79f-f6dce9f2bcbc","ios":"levelo://app?vid=7c752dfd-0f8a-4751-b79f-f6dce9f2bcbc"},"vehicle_type_id":"4","last_reported":1684138162,"current_range_meters":12400,"station_id":"ce4bgs12rcd13ifvqcag","pricing_plan_id":"free"},{"bike_id":"2bb143d6-d6e4-469b-a9f1-5b703433aec8","system_id":"levelo_inurba_marseille","lat":43.305368,"lon":5.367343,"is_reserved":false,"is_disabled":false,"rental_uris":{"android":"levelo://app?vid=2bb143d6-d6e4-469b-a9f1-5b703433aec8","ios":"levelo://app?vid=2bb143d6-d6e4-469b-a9f1-5b703433aec8"},"vehicle_type_id":"4","last_reported":1684138162,"current_range_meters":21200,"station_id":"ce4bgrp2rcd13ifvqc9g","pricing_plan_id":"free"},{"bike_id":"107788a6-9a45-4504-b8c3-54ca5dec89ff","system_id":"levelo_inurba_marseille","lat":43.30539,"lon":5.36531,"is_reserved":false,"is_disabled":false,"rental_uris":{"android":"levelo://app?vid=107788a6-9a45-4504-b8c3-54ca5dec89ff","ios":"levelo://app?vid=107788a6-9a45-4504-b8c3-54ca5dec89ff"},"vehicle_type_id":"4","last_reported":1684138162,"current_range_meters":18000,"station_id":"","pricing_plan_id":"free"},{"bike_id":"983c4d76-6332-47d0-be8b-715a473bfd33","system_id":"levelo_inurba_marseille","lat":43.305714,"lon":5.365633,"is_reserved":false,"is_disabled":false,"rental_uris":{"android":"levelo://app?vid=983c4d76-6332-47d0-be8b-715a473bfd33","ios":"levelo://app?vid=983c4d76-6332-47d0-be8b-715a473bfd33"},"vehicle_type_id":"4","last_reported":1684138162,"current_range_meters":19200,"station_id":"ce4bgs12rcd13ifvqcag","pricing_plan_id":"free"},{"bike_id":"eac5a56e-b95b-4bc7-9d2c-529ecf536048","system_id":"levelo_inurba_marseille","lat":43.305989,"lon":5.37225,"is_reserved":false,"is_disabled":false,"rental_uris":{"android":"levelo://app?vid=eac5a56e-b95b-4bc7-9d2c-529ecf536048","ios":"levelo://app?vid=eac5a56e-b95b-4bc7-9d2c-529ecf536048"},"vehicle_type_id":"4","last_reported":1684138162,"current_range_meters":31200,"station_id":"ce4bgqh2rcd13ifvqc4g","pricing_plan_id":"free"},{"bike_id":"151d50bc-3aee-48d5-9527-783274464e00","system_id":"levelo_inurba_marseille","lat":43.31204,"lon":5.37792,"is_reserved":false,"is_disabled":false,"rental_uris":{"android":"levelo://app?vid=151d50bc-3aee-48d5-9527-783274464e00","ios":"levelo://app?vid=151d50bc-3aee-48d5-9527-783274464e00"},"vehicle_type_id":"4","last_reported":1684138162,"current_range_meters":5600,"station_id":"","pricing_plan_id":"free"},{"bike_id":"3fcba7a3-c0db-4208-bafe-e7e226d2a8c2","system_id":"levelo_inurba_marseille","lat":43.30304,"lon":5.368987,"is_reserved":false,"is_disabled":false,"rental_uris":{"android":"levelo://app?vid=3fcba7a3-c0db-4208-bafe-e7e226d2a8c2","ios":"levelo://app?vid=3fcba7a3-c0db-4208-bafe-e7e226d2a8c2"},"vehicle_type_id":"4","last_reported":1684138162,"current_range_meters":27600,"station_id":"ce4bgqh2rcd13ifvqc5g","pricing_plan_id":"free"},{"bike_id":"1630899b-eae6-42fa-969e-a3367358f409","system_id":"levelo_inurba_marseille","lat":43.30304,"lon":5.368987,"is_reserved":false,"is_disabled":false,"rental_uris":{"android":"levelo://app?vid=1630899b-eae6-42fa-969e-a3367358f409","ios":"levelo://app?vid=1630899b-eae6-42fa-969e-a3367358f409"},"vehicle_type_id":"4","last_reported":1684138162,"current_range_meters":27200,"station_id":"ce4bgqh2rcd13ifvqc5g","pricing_plan_id":"free"},{"bike_id":"1a8fc1dc-429f-490a-b644-9f1092dc1c0e","system_id":"levelo_inurba_marseille","lat":43.303046,"lon":5.368981,"is_reserved":false,"is_disabled":false,"rental_uris":{"android":"levelo://app?vid=1a8fc1dc-429f-490a-b644-9f1092dc1c0e","ios":"levelo://app?vid=1a8fc1dc-429f-490a-b644-9f1092dc1c0e"},"vehicle_type_id":"4","last_reported":1684138162,"current_range_meters":30400,"station_id":"ce4bgqh2rcd13ifvqc5g","pricing_plan_id":"free"},{"bike_id":"f83d3bf0-d857-4e10-94b7-cd9b1e24f661","system_id":"levelo_inurba_marseille","lat":43.30304,"lon":5.368987,"is_reserved":false,"is_disabled":false,"rental_uris":{"android":"levelo://app?vid=f83d3bf0-d857-4e10-94b7-cd9b1e24f661","ios":"levelo://app?vid=f83d3bf0-d857-4e10-94b7-cd9b1e24f661"},"vehicle_type_id":"4","last_reported":1684138162,"current_range_meters":26000,"station_id":"ce4bgqh2rcd13ifvqc5g","pricing_plan_id":"free"},{"bike_id":"f02a0624-5cec-46fb-9726-7f2b821e5cce","system_id":"levelo_inurba_marseille","lat":43.30304,"lon":5.368987,"is_reserved":false,"is_disabled":false,"rental_uris":{"android":"levelo://app?vid=f02a0624-5cec-46fb-9726-7f2b821e5cce","ios":"levelo://app?vid=f02a0624-5cec-46fb-9726-7f2b821e5cce"},"vehicle_type_id":"4","last_reported":1684138162,"current_range_meters":27600,"station_id":"ce4bgqh2rcd13ifvqc5g","pricing_plan_id":"free"},{"bike_id":"5d6b2b53-1d62-49c2-92de-53776623e5f3","system_id":"levelo_inurba_marseille","lat":43.303046,"lon":5.368981,"is_reserved":false,"is_disabled":false,"rental_uris":{"android":"levelo://app?vid=5d6b2b53-1d62-49c2-92de-53776623e5f3","ios":"levelo://app?vid=5d6b2b53-1d62-49c2-92de-53776623e5f3"},"vehicle_type_id":"4","last_reported":1684138162,"current_range_meters":31200,"station_id":"ce4bgqh2rcd13ifvqc5g","pricing_plan_id":"free"},{"bike_id":"a5587dda-33f4-494a-9481-a1c5040e20cc","system_id":"levelo_inurba_marseille","lat":43.303046,"lon":5.368981,"is_reserved":false,"is_disabled":false,"rental_uris":{"android":"levelo://app?vid=a5587dda-33f4-494a-9481-a1c5040e20cc","ios":"levelo://app?vid=a5587dda-33f4-494a-9481-a1c5040e20cc"},"vehicle_type_id":"4","last_reported":1684138162,"current_range_meters":31200,"station_id":"ce4bgqh2rcd13ifvqc5g","pricing_plan_id":"free"},{"bike_id":"eedd2769-30d3-46d2-b97b-5a84be1da0f7","system_id":"levelo_inurba_marseille","lat":43.30313,"lon":5.36893,"is_reserved":false,"is_disabled":false,"rental_uris":{"android":"levelo://app?vid=eedd2769-30d3-46d2-b97b-5a84be1da0f7","ios":"levelo://app?vid=eedd2769-30d3-46d2-b97b-5a84be1da0f7"},"vehicle_type_id":"4","last_reported":1684138162,"current_range_meters":24000,"station_id":"ce4bgqh2rcd13ifvqc5g","pricing_plan_id":"free"},{"bike_id":"64b682f5-9cb8-4716-833e-d2f9b938c8f4","system_id":"levelo_inurba_marseille","lat":43.30304,"lon":5.368987,"is_reserved":false,"is_disabled":false,"rental_uris":{"android":"levelo://app?vid=64b682f5-9cb8-4716-833e-d2f9b938c8f4","ios":"levelo://app?vid=64b682f5-9cb8-4716-833e-d2f9b938c8f4"},"vehicle_type_id":"4","last_reported":1684138162,"current_range_meters":30400,"station_id":"ce4bgqh2rcd13ifvqc5g","pricing_plan_id":"free"},{"bike_id":"b0457de3-2925-4f23-b648-a1920b9d815b","system_id":"levelo_inurba_marseille","lat":43.30304,"lon":5.368987,"is_reserved":false,"is_disabled":false,"rental_uris":{"android":"levelo://app?vid=b0457de3-2925-4f23-b648-a1920b9d815b","ios":"levelo://app?vid=b0457de3-2925-4f23-b648-a1920b9d815b"},"vehicle_type_id":"4","last_reported":1684138162,"current_range_meters":29600,"station_id":"ce4bgqh2rcd13ifvqc5g","pricing_plan_id":"free"},{"bike_id":"cc79eb4a-c0b6-4f93-bd10-1fc2c9f739f6","system_id":"levelo_inurba_marseille","lat":43.30304,"lon":5.368987,"is_reserved":false,"is_disabled":false,"rental_uris":{"android":"levelo://app?vid=cc79eb4a-c0b6-4f93-bd10-1fc2c9f739f6","ios":"levelo://app?vid=cc79eb4a-c0b6-4f93-bd10-1fc2c9f739f6"},"vehicle_type_id":"4","last_reported":1684138162,"current_range_meters":30800,"station_id":"ce4bgqh2rcd13ifvqc5g","pricing_plan_id":"free"},{"bike_id":"796a76ae-83d1-492d-a102-91492a3fd054","system_id":"levelo_inurba_marseille","lat":43.30304,"lon":5.368987,"is_reserved":false,"is_disabled":false,"rental_uris":{"android":"levelo://app?vid=796a76ae-83d1-492d-a102-91492a3fd054","ios":"levelo://app?vid=796a76ae-83d1-492d-a102-91492a3fd054"},"vehicle_type_id":"4","last_reported":1684138162,"current_range_meters":28400,"station_id":"ce4bgqh2rcd13ifvqc5g","pricing_plan_id":"free"},{"bike_id":"f970da5e-47b1-4491-a0a2-bc30a6f6f37e","system_id":"levelo_inurba_marseille","lat":43.30304,"lon":5.368987,"is_reserved":false,"is_disabled":false,"rental_uris":{"android":"levelo://app?vid=f970da5e-47b1-4491-a0a2-bc30a6f6f37e","ios":"levelo://app?vid=f970da5e-47b1-4491-a0a2-bc30a6f6f37e"},"vehicle_type_id":"4","last_reported":1684138162,"current_range_meters":12000,"station_id":"ce4bgqh2rcd13ifvqc5g","pricing_plan_id":"free"},{"bike_id":"ef98ec0e-b48d-422e-8a5d-2a3b57249d03","system_id":"levelo_inurba_marseille","lat":43.315289,"lon":5.380349,"is_reserved":false,"is_disabled":false,"rental_uris":{"android":"levelo://app?vid=ef98ec0e-b48d-422e-8a5d-2a3b57249d03","ios":"levelo://app?vid=ef98ec0e-b48d-422e-8a5d-2a3b57249d03"},"vehicle_type_id":"4","last_reported":1684138162,"current_range_meters":27200,"station_id":"ce4bhsp2rcd13ifvqi50","pricing_plan_id":"free"},{"bike_id":"d3c39370-7a79-4241-9a28-3c0f490a7f7b","system_id":"levelo_inurba_marseille","lat":43.301939,"lon":5.366286,"is_reserved":false,"is_disabled":false,"rental_uris":{"android":"levelo://app?vid=d3c39370-7a79-4241-9a28-3c0f490a7f7b","ios":"levelo://app?vid=d3c39370-7a79-4241-9a28-3c0f490a7f7b"},"vehicle_type_id":"4","last_reported":1684138162,"current_range_meters":16000,"station_id":"ce4bgrh2rcd13ifvqc8g","pricing_plan_id":"free"},{"bike_id":"a21c5715-b220-4a5d-b0b5-4a0b2f53c00e","system_id":"levelo_inurba_marseille","lat":43.301939,"lon":5.366286,"is_reserved":false,"is_disabled":false,"rental_uris":{"android":"levelo://app?vid=a21c5715-b220-4a5d-b0b5-4a0b2f53c00e","ios":"levelo://app?vid=a21c5715-b220-4a5d-b0b5-4a0b2f53c00e"},"vehicle_type_id":"4","last_reported":1684138162,"current_range_meters":25600,"station_id":"ce4bgrh2rcd13ifvqc8g","pricing_plan_id":"free"},{"bike_id":"e59abcd3-eb98-4ec9-9840-b356d05da047","system_id":"levelo_inurba_marseille","lat":43.301939,"lon":5.366286,"is_reserved":false,"is_disabled":false,"rental_uris":{"android":"levelo://app?vid=e59abcd3-eb98-4ec9-9840-b356d05da047","ios":"levelo://app?vid=e59abcd3-eb98-4ec9-9840-b356d05da047"},"vehicle_type_id":"4","last_reported":1684138162,"current_range_meters":31600,"station_id":"ce4bgrh2rcd13ifvqc8g","pricing_plan_id":"free"},{"bike_id":"dc655efd-29b0-415d-95c9-2ef4c725f7ba","system_id":"levelo_inurba_marseille","lat":43.308012,"lon":5.381511,"is_reserved":false,"is_disabled":false,"rental_uris":{"android":"levelo://app?vid=dc655efd-29b0-415d-95c9-2ef4c725f7ba","ios":"levelo://app?vid=dc655efd-29b0-415d-95c9-2ef4c725f7ba"},"vehicle_type_id":"4","last_reported":1684138162,"current_range_meters":13600,"station_id":"ce4bgt12rcd13ifvqce0","pricing_plan_id":"free"},{"bike_id":"1fb3b44f-fc42-481c-8f69-3c301da7a449","system_id":"levelo_inurba_marseille","lat":43.30441,"lon":5.378415,"is_reserved":false,"is_disabled":false,"rental_uris":{"android":"levelo://app?vid=1fb3b44f-fc42-481c-8f69-3c301da7a449","ios":"levelo://app?vid=1fb3b44f-fc42-481c-8f69-3c301da7a449"},"vehicle_type_id":"4","last_reported":1684138162,"current_range_meters":28800,"station_id":"ce4bgup2rcd13ifvqcn0","pricing_plan_id":"free"},{"bike_id":"e70ec8c7-cdb0-4c45-a84c-44eb0a1b106d","system_id":"levelo_inurba_marseille","lat":43.304606,"lon":5.379026,"is_reserved":false,"is_disabled":false,"rental_uris":{"android":"levelo://app?vid=e70ec8c7-cdb0-4c45-a84c-44eb0a1b106d","ios":"levelo://app?vid=e70ec8c7-cdb0-4c45-a84c-44eb0a1b106d"},"vehicle_type_id":"4","last_reported":1684138162,"current_range_meters":31600,"station_id":"ce4bgup2rcd13ifvqcn0","pricing_plan_id":"free"},{"bike_id":"fddf2732-1508-42c7-b493-3b72fc073d6d","system_id":"levelo_inurba_marseille","lat":43.304606,"lon":5.379026,"is_reserved":false,"is_disabled":false,"rental_uris":{"android":"levelo://app?vid=fddf2732-1508-42c7-b493-3b72fc073d6d","ios":"levelo://app?vid=fddf2732-1508-42c7-b493-3b72fc073d6d"},"vehicle_type_id":"4","last_reported":1684138162,"current_range_meters":10400,"station_id":"ce4bgup2rcd13ifvqcn0","pricing_plan_id":"free"},{"bike_id":"4c489b09-f16c-4eb3-8b7d-67ef0a73a5f3","system_id":"levelo_inurba_marseille","lat":43.30465,"lon":5.37897,"is_reserved":false,"is_disabled":false,"rental_uris":{"android":"levelo://app?vid=4c489b09-f16c-4eb3-8b7d-67ef0a73a5f3","ios":"levelo://app?vid=4c489b09-f16c-4eb3-8b7d-67ef0a73a5f3"},"vehicle_type_id":"4","last_reported":1684138162,"current_range_meters":9600,"station_id":"ce4bgup2rcd13ifvqcn0","pricing_plan_id":"free"},{"bike_id":"a8f36b63-a689-422b-bbc9-0d047dae734a","system_id":"levelo_inurba_marseille","lat":43.304606,"lon":5.379026,"is_reserved":false,"is_disabled":false,"rental_uris":{"android":"levelo://app?vid=a8f36b63-a689-422b-bbc9-0d047dae734a","ios":"levelo://app?vid=a8f36b63-a689-422b-bbc9-0d047dae734a"},"vehicle_type_id":"4","last_reported":1684138162,"current_range_meters":23600,"station_id":"ce4bgup2rcd13ifvqcn0","pricing_plan_id":"free"},{"bike_id":"5e06fb65-90e2-448c-a831-306537f42159","system_id":"levelo_inurba_marseille","lat":43.304606,"lon":5.379026,"is_reserved":false,"is_disabled":false,"rental_uris":{"android":"levelo://app?vid=5e06fb65-90e2-448c-a831-306537f42159","ios":"levelo://app?vid=5e06fb65-90e2-448c-a831-306537f42159"},"vehicle_type_id":"4","last_reported":1684138162,"current_range_meters":31200,"station_id":"ce4bgup2rcd13ifvqcn0","pricing_plan_id":"free"},{"bike_id":"a3d9af29-077e-4683-ab49-698b847f404d","system_id":"levelo_inurba_marseille","lat":43.30458,"lon":5.37899,"is_reserved":false,"is_disabled":false,"rental_uris":{"android":"levelo://app?vid=a3d9af29-077e-4683-ab49-698b847f404d","ios":"levelo://app?vid=a3d9af29-077e-4683-ab49-698b847f404d"},"vehicle_type_id":"4","last_reported":1684138162,"current_range_meters":24000,"station_id":"ce4bgup2rcd13ifvqcn0","pricing_plan_id":"free"},{"bike_id":"d465fb3d-68f9-4022-a809-5e1a491f5694","system_id":"levelo_inurba_marseille","lat":43.304606,"lon":5.379026,"is_reserved":false,"is_disabled":false,"rental_uris":{"android":"levelo://app?vid=d465fb3d-68f9-4022-a809-5e1a491f5694","ios":"levelo://app?vid=d465fb3d-68f9-4022-a809-5e1a491f5694"},"vehicle_type_id":"4","last_reported":1684138162,"current_range_meters":30000,"station_id":"ce4bgup2rcd13ifvqcn0","pricing_plan_id":"free"},{"bike_id":"ace869d2-1d80-4b11-b241-6c3df0cd929d","system_id":"levelo_inurba_marseille","lat":43.304606,"lon":5.379026,"is_reserved":false,"is_disabled":false,"rental_uris":{"android":"levelo://app?vid=ace869d2-1d80-4b11-b241-6c3df0cd929d","ios":"levelo://app?vid=ace869d2-1d80-4b11-b241-6c3df0cd929d"},"vehicle_type_id":"4","last_reported":1684138162,"current_range_meters":31200,"station_id":"ce4bgup2rcd13ifvqcn0","pricing_plan_id":"free"},{"bike_id":"1276c490-72e6-4f7b-b449-101ebb0e4a94","system_id":"levelo_inurba_marseille","lat":43.304606,"lon":5.379026,"is_reserved":false,"is_disabled":false,"rental_uris":{"android":"levelo://app?vid=1276c490-72e6-4f7b-b449-101ebb0e4a94","ios":"levelo://app?vid=1276c490-72e6-4f7b-b449-101ebb0e4a94"},"vehicle_type_id":"4","last_reported":1684138162,"current_range_meters":31600,"station_id":"ce4bgup2rcd13ifvqcn0","pricing_plan_id":"free"},{"bike_id":"5db9ca51-2961-430e-bc90-736d65b4ef69","system_id":"levelo_inurba_marseille","lat":43.304606,"lon":5.379026,"is_reserved":false,"is_disabled":false,"rental_uris":{"android":"levelo://app?vid=5db9ca51-2961-430e-bc90-736d65b4ef69","ios":"levelo://app?vid=5db9ca51-2961-430e-bc90-736d65b4ef69"},"vehicle_type_id":"4","last_reported":1684138162,"current_range_meters":32000,"station_id":"ce4bgup2rcd13ifvqcn0","pricing_plan_id":"free"},{"bike_id":"e0a8c8b7-685b-463f-b964-f88d35db16a8","system_id":"levelo_inurba_marseille","lat":43.299222,"lon":5.365554,"is_reserved":false,"is_disabled":false,"rental_uris":{"android":"levelo://app?vid=e0a8c8b7-685b-463f-b964-f88d35db16a8","ios":"levelo://app?vid=e0a8c8b7-685b-463f-b964-f88d35db16a8"},"vehicle_type_id":"4","last_reported":1684138162,"current_range_meters":24400,"station_id":"ce4bgm92rcd13ifvqbr0","pricing_plan_id":"free"},{"bike_id":"bdabbcf2-ed6b-4901-b6d5-684cb9f6d188","system_id":"levelo_inurba_marseille","lat":43.299222,"lon":5.365554,"is_reserved":false,"is_disabled":false,"rental_uris":{"android":"levelo://app?vid=bdabbcf2-ed6b-4901-b6d5-684cb9f6d188","ios":"levelo://app?vid=bdabbcf2-ed6b-4901-b6d5-684cb9f6d188"},"vehicle_type_id":"4","last_reported":1684138162,"current_range_meters":18400,"station_id":"ce4bgm92rcd13ifvqbr0","pricing_plan_id":"free"},{"bike_id":"f4a02d53-d501-4a35-a330-4c50748b6586","system_id":"levelo_inurba_marseille","lat":43.299222,"lon":5.365554,"is_reserved":false,"is_disabled":false,"rental_uris":{"android":"levelo://app?vid=f4a02d53-d501-4a35-a330-4c50748b6586","ios":"levelo://app?vid=f4a02d53-d501-4a35-a330-4c50748b6586"},"vehicle_type_id":"4","last_reported":1684138162,"current_range_meters":28000,"station_id":"ce4bgm92rcd13ifvqbr0","pricing_plan_id":"free"},{"bike_id":"5ec737c8-c78f-47fa-877d-e74118dbb401","system_id":"levelo_inurba_marseille","lat":43.299222,"lon":5.365554,"is_reserved":false,"is_disabled":false,"rental_uris":{"android":"levelo://app?vid=5ec737c8-c78f-47fa-877d-e74118dbb401","ios":"levelo://app?vid=5ec737c8-c78f-47fa-877d-e74118dbb401"},"vehicle_type_id":"4","last_reported":1684138162,"current_range_meters":28000,"station_id":"ce4bgm92rcd13ifvqbr0","pricing_plan_id":"free"},{"bike_id":"6a189226-a063-4950-b3ee-0c40718a3f3b","system_id":"levelo_inurba_marseille","lat":43.298433,"lon":5.362774,"is_reserved":false,"is_disabled":false,"rental_uris":{"android":"levelo://app?vid=6a189226-a063-4950-b3ee-0c40718a3f3b","ios":"levelo://app?vid=6a189226-a063-4950-b3ee-0c40718a3f3b"},"vehicle_type_id":"4","last_reported":1684138162,"current_range_meters":32000,"station_id":"ce4bgpp2rcd13ifvqc3g","pricing_plan_id":"free"},{"bike_id":"f473e951-ac01-4b43-b7da-1bbf29c3fac0","system_id":"levelo_inurba_marseille","lat":43.298433,"lon":5.362774,"is_reserved":false,"is_disabled":false,"rental_uris":{"android":"levelo://app?vid=f473e951-ac01-4b43-b7da-1bbf29c3fac0","ios":"levelo://app?vid=f473e951-ac01-4b43-b7da-1bbf29c3fac0"},"vehicle_type_id":"4","last_reported":1684138162,"current_range_meters":32000,"station_id":"ce4bgpp2rcd13ifvqc3g","pricing_plan_id":"free"},{"bike_id":"e41d030a-c6f4-4d3d-9806-6545c3274dae","system_id":"levelo_inurba_marseille","lat":43.298433,"lon":5.362774,"is_reserved":false,"is_disabled":false,"rental_uris":{"android":"levelo://app?vid=e41d030a-c6f4-4d3d-9806-6545c3274dae","ios":"levelo://app?vid=e41d030a-c6f4-4d3d-9806-6545c3274dae"},"vehicle_type_id":"4","last_reported":1684138162,"current_range_meters":18800,"station_id":"ce4bgpp2rcd13ifvqc3g","pricing_plan_id":"free"},{"bike_id":"50d26511-2476-44a9-91e2-3288a344d3a5","system_id":"levelo_inurba_marseille","lat":43.298433,"lon":5.362774,"is_reserved":false,"is_disabled":false,"rental_uris":{"android":"levelo://app?vid=50d26511-2476-44a9-91e2-3288a344d3a5","ios":"levelo://app?vid=50d26511-2476-44a9-91e2-3288a344d3a5"},"vehicle_type_id":"4","last_reported":1684138162,"current_range_meters":28400,"station_id":"ce4bgpp2rcd13ifvqc3g","pricing_plan_id":"free"},{"bike_id":"20939ce2-4196-494f-88a1-a9789c32405c","system_id":"levelo_inurba_marseille","lat":43.298433,"lon":5.362774,"is_reserved":false,"is_disabled":false,"rental_uris":{"android":"levelo://app?vid=20939ce2-4196-494f-88a1-a9789c32405c","ios":"levelo://app?vid=20939ce2-4196-494f-88a1-a9789c32405c"},"vehicle_type_id":"4","last_reported":1684138162,"current_range_meters":31600,"station_id":"ce4bgpp2rcd13ifvqc3g","pricing_plan_id":"free"},{"bike_id":"ccd2c50a-a183-4088-9bc6-b4c86473955c","system_id":"levelo_inurba_marseille","lat":43.298433,"lon":5.362774,"is_reserved":false,"is_disabled":false,"rental_uris":{"android":"levelo://app?vid=ccd2c50a-a183-4088-9bc6-b4c86473955c","ios":"levelo://app?vid=ccd2c50a-a183-4088-9bc6-b4c86473955c"},"vehicle_type_id":"4","last_reported":1684138162,"current_range_meters":24800,"station_id":"ce4bgpp2rcd13ifvqc3g","pricing_plan_id":"free"},{"bike_id":"82e79927-c0b2-4968-8bb4-d7b2b8ad7110","system_id":"levelo_inurba_marseille","lat":43.298433,"lon":5.362774,"is_reserved":false,"is_disabled":false,"rental_uris":{"android":"levelo://app?vid=82e79927-c0b2-4968-8bb4-d7b2b8ad7110","ios":"levelo://app?vid=82e79927-c0b2-4968-8bb4-d7b2b8ad7110"},"vehicle_type_id":"4","last_reported":1684138162,"current_range_meters":30400,"station_id":"ce4bgpp2rcd13ifvqc3g","pricing_plan_id":"free"},{"bike_id":"50d50075-a86a-413d-890d-64105e6353bf","system_id":"levelo_inurba_marseille","lat":43.298433,"lon":5.362774,"is_reserved":false,"is_disabled":false,"rental_uris":{"android":"levelo://app?vid=50d50075-a86a-413d-890d-64105e6353bf","ios":"levelo://app?vid=50d50075-a86a-413d-890d-64105e6353bf"},"vehicle_type_id":"4","last_reported":1684138162,"current_range_meters":28000,"station_id":"ce4bgpp2rcd13ifvqc3g","pricing_plan_id":"free"},{"bike_id":"1c673dca-f635-49ac-a23e-dc0252b98f59","system_id":"levelo_inurba_marseille","lat":43.298433,"lon":5.362774,"is_reserved":false,"is_disabled":false,"rental_uris":{"android":"levelo://app?vid=1c673dca-f635-49ac-a23e-dc0252b98f59","ios":"levelo://app?vid=1c673dca-f635-49ac-a23e-dc0252b98f59"},"vehicle_type_id":"4","last_reported":1684138162,"current_range_meters":31200,"station_id":"ce4bgpp2rcd13ifvqc3g","pricing_plan_id":"free"},{"bike_id":"cf2bbf5d-dc2b-4042-ba23-5ed5ee9ba03a","system_id":"levelo_inurba_marseille","lat":43.298433,"lon":5.362774,"is_reserved":false,"is_disabled":false,"rental_uris":{"android":"levelo://app?vid=cf2bbf5d-dc2b-4042-ba23-5ed5ee9ba03a","ios":"levelo://app?vid=cf2bbf5d-dc2b-4042-ba23-5ed5ee9ba03a"},"vehicle_type_id":"4","last_reported":1684138162,"current_range_meters":19600,"station_id":"ce4bgpp2rcd13ifvqc3g","pricing_plan_id":"free"},{"bike_id":"04f7c5ee-bbbf-4f8e-9a41-c2bae0b04f40","system_id":"levelo_inurba_marseille","lat":43.298433,"lon":5.362774,"is_reserved":false,"is_disabled":false,"rental_uris":{"android":"levelo://app?vid=04f7c5ee-bbbf-4f8e-9a41-c2bae0b04f40","ios":"levelo://app?vid=04f7c5ee-bbbf-4f8e-9a41-c2bae0b04f40"},"vehicle_type_id":"4","last_reported":1684138162,"current_range_meters":11600,"station_id":"ce4bgpp2rcd13ifvqc3g","pricing_plan_id":"free"},{"bike_id":"1fe94058-2147-437a-8fe0-2255de2ab2e4","system_id":"levelo_inurba_marseille","lat":43.298433,"lon":5.362774,"is_reserved":false,"is_disabled":false,"rental_uris":{"android":"levelo://app?vid=1fe94058-2147-437a-8fe0-2255de2ab2e4","ios":"levelo://app?vid=1fe94058-2147-437a-8fe0-2255de2ab2e4"},"vehicle_type_id":"4","last_reported":1684138162,"current_range_meters":29600,"station_id":"ce4bgpp2rcd13ifvqc3g","pricing_plan_id":"free"},{"bike_id":"37840a73-d588-4264-8873-06a03151aa60","system_id":"levelo_inurba_marseille","lat":43.311722,"lon":5.387247,"is_reserved":false,"is_disabled":false,"rental_uris":{"android":"levelo://app?vid=37840a73-d588-4264-8873-06a03151aa60","ios":"levelo://app?vid=37840a73-d588-4264-8873-06a03151aa60"},"vehicle_type_id":"4","last_reported":1684138162,"current_range_meters":3600,"station_id":"ce4bgv12rcd13ifvqcp0","pricing_plan_id":"free"},{"bike_id":"35612af8-0e7b-4c6b-bf0b-ae26a9ebda3c","system_id":"levelo_inurba_marseille","lat":43.299243,"lon":5.37481,"is_reserved":false,"is_disabled":false,"rental_uris":{"android":"levelo://app?vid=35612af8-0e7b-4c6b-bf0b-ae26a9ebda3c","ios":"levelo://app?vid=35612af8-0e7b-4c6b-bf0b-ae26a9ebda3c"},"vehicle_type_id":"4","last_reported":1684138162,"current_range_meters":18400,"station_id":"ce4bgjh2rcd13ifvqbg0","pricing_plan_id":"free"},{"bike_id":"a2808112-169b-407f-87a1-ea7be9e759e1","system_id":"levelo_inurba_marseille","lat":43.299243,"lon":5.374807,"is_reserved":false,"is_disabled":false,"rental_uris":{"android":"levelo://app?vid=a2808112-169b-407f-87a1-ea7be9e759e1","ios":"levelo://app?vid=a2808112-169b-407f-87a1-ea7be9e759e1"},"vehicle_type_id":"4","last_reported":1684138162,"current_range_meters":28800,"station_id":"ce4bgjh2rcd13ifvqbg0","pricing_plan_id":"free"},{"bike_id":"2f96f4b7-d3f1-4b87-b98f-caf50ba6d13d","system_id":"levelo_inurba_marseille","lat":43.32763,"lon":5.367,"is_reserved":false,"is_disabled":false,"rental_uris":{"android":"levelo://app?vid=2f96f4b7-d3f1-4b87-b98f-caf50ba6d13d","ios":"levelo://app?vid=2f96f4b7-d3f1-4b87-b98f-caf50ba6d13d"},"vehicle_type_id":"4","last_reported":1684138162,"current_range_meters":4400,"station_id":"","pricing_plan_id":"free"},{"bike_id":"aaca5fdf-1dee-4b81-aa4f-2d7102ec2d0c","system_id":"levelo_inurba_marseille","lat":43.32821,"lon":5.36681,"is_reserved":false,"is_disabled":false,"rental_uris":{"android":"levelo://app?vid=aaca5fdf-1dee-4b81-aa4f-2d7102ec2d0c","ios":"levelo://app?vid=aaca5fdf-1dee-4b81-aa4f-2d7102ec2d0c"},"vehicle_type_id":"4","last_reported":1684138162,"current_range_meters":16400,"station_id":"ce4bhs92rcd13ifvqi0g","pricing_plan_id":"free"},{"bike_id":"fcb8e442-741e-4499-9197-ba4e4bf715f3","system_id":"levelo_inurba_marseille","lat":43.328371,"lon":5.366909,"is_reserved":false,"is_disabled":false,"rental_uris":{"android":"levelo://app?vid=fcb8e442-741e-4499-9197-ba4e4bf715f3","ios":"levelo://app?vid=fcb8e442-741e-4499-9197-ba4e4bf715f3"},"vehicle_type_id":"4","last_reported":1684138162,"current_range_meters":21600,"station_id":"ce4bhs92rcd13ifvqi0g","pricing_plan_id":"free"},{"bike_id":"57db9bef-a53b-4c3a-a980-27dd062faa04","system_id":"levelo_inurba_marseille","lat":43.328371,"lon":5.366909,"is_reserved":false,"is_disabled":false,"rental_uris":{"android":"levelo://app?vid=57db9bef-a53b-4c3a-a980-27dd062faa04","ios":"levelo://app?vid=57db9bef-a53b-4c3a-a980-27dd062faa04"},"vehicle_type_id":"4","last_reported":1684138162,"current_range_meters":23600,"station_id":"ce4bhs92rcd13ifvqi0g","pricing_plan_id":"free"},{"bike_id":"96e15ffa-c3cf-44ea-80e9-5b5a2cbd10d1","system_id":"levelo_inurba_marseille","lat":43.32826,"lon":5.36694,"is_reserved":false,"is_disabled":false,"rental_uris":{"android":"levelo://app?vid=96e15ffa-c3cf-44ea-80e9-5b5a2cbd10d1","ios":"levelo://app?vid=96e15ffa-c3cf-44ea-80e9-5b5a2cbd10d1"},"vehicle_type_id":"4","last_reported":1684138162,"current_range_meters":24400,"station_id":"ce4bhs92rcd13ifvqi0g","pricing_plan_id":"free"},{"bike_id":"8680a3b3-6650-4118-a013-2de9fe7b5489","system_id":"levelo_inurba_marseille","lat":43.328371,"lon":5.366909,"is_reserved":false,"is_disabled":false,"rental_uris":{"android":"levelo://app?vid=8680a3b3-6650-4118-a013-2de9fe7b5489","ios":"levelo://app?vid=8680a3b3-6650-4118-a013-2de9fe7b5489"},"vehicle_type_id":"4","last_reported":1684138162,"current_range_meters":6800,"station_id":"ce4bhs92rcd13ifvqi0g","pricing_plan_id":"free"},{"bike_id":"3f1ee445-79dc-4a77-99ec-f861244bce43","system_id":"levelo_inurba_marseille","lat":43.32827,"lon":5.36688,"is_reserved":false,"is_disabled":false,"rental_uris":{"android":"levelo://app?vid=3f1ee445-79dc-4a77-99ec-f861244bce43","ios":"levelo://app?vid=3f1ee445-79dc-4a77-99ec-f861244bce43"},"vehicle_type_id":"4","last_reported":1684138162,"current_range_meters":18000,"station_id":"ce4bhs92rcd13ifvqi0g","pricing_plan_id":"free"},{"bike_id":"0b6427df-3608-417c-8846-6545ddce1520","system_id":"levelo_inurba_marseille","lat":43.328371,"lon":5.366909,"is_reserved":false,"is_disabled":false,"rental_uris":{"android":"levelo://app?vid=0b6427df-3608-417c-8846-6545ddce1520","ios":"levelo://app?vid=0b6427df-3608-417c-8846-6545ddce1520"},"vehicle_type_id":"4","last_reported":1684138162,"current_range_meters":22400,"station_id":"ce4bhs92rcd13ifvqi0g","pricing_plan_id":"free"},{"bike_id":"d38aa3ff-737e-49c3-86fb-25e7891d4359","system_id":"levelo_inurba_marseille","lat":43.328371,"lon":5.366909,"is_reserved":false,"is_disabled":false,"rental_uris":{"android":"levelo://app?vid=d38aa3ff-737e-49c3-86fb-25e7891d4359","ios":"levelo://app?vid=d38aa3ff-737e-49c3-86fb-25e7891d4359"},"vehicle_type_id":"4","last_reported":1684138162,"current_range_meters":400,"station_id":"ce4bhs92rcd13ifvqi0g","pricing_plan_id":"free"},{"bike_id":"b449a4e4-2b40-420f-9a30-3bbbb718557f","system_id":"levelo_inurba_marseille","lat":43.328371,"lon":5.366909,"is_reserved":false,"is_disabled":false,"rental_uris":{"android":"levelo://app?vid=b449a4e4-2b40-420f-9a30-3bbbb718557f","ios":"levelo://app?vid=b449a4e4-2b40-420f-9a30-3bbbb718557f"},"vehicle_type_id":"4","last_reported":1684138162,"current_range_meters":12800,"station_id":"ce4bhs92rcd13ifvqi0g","pricing_plan_id":"free"},{"bike_id":"216acc05-cd3c-4a35-b67b-82ab6e8e46bc","system_id":"levelo_inurba_marseille","lat":43.32829,"lon":5.36687,"is_reserved":false,"is_disabled":false,"rental_uris":{"android":"levelo://app?vid=216acc05-cd3c-4a35-b67b-82ab6e8e46bc","ios":"levelo://app?vid=216acc05-cd3c-4a35-b67b-82ab6e8e46bc"},"vehicle_type_id":"4","last_reported":1684138162,"current_range_meters":12000,"station_id":"ce4bhs92rcd13ifvqi0g","pricing_plan_id":"free"},{"bike_id":"acb3285f-1a59-4939-bacf-1321efdfa740","system_id":"levelo_inurba_marseille","lat":43.3283,"lon":5.36688,"is_reserved":false,"is_disabled":false,"rental_uris":{"android":"levelo://app?vid=acb3285f-1a59-4939-bacf-1321efdfa740","ios":"levelo://app?vid=acb3285f-1a59-4939-bacf-1321efdfa740"},"vehicle_type_id":"4","last_reported":1684138162,"current_range_meters":21200,"station_id":"ce4bhs92rcd13ifvqi0g","pricing_plan_id":"free"},{"bike_id":"e888ba52-688b-4a73-8b99-e09c27686c1c","system_id":"levelo_inurba_marseille","lat":43.328371,"lon":5.366909,"is_reserved":false,"is_disabled":false,"rental_uris":{"android":"levelo://app?vid=e888ba52-688b-4a73-8b99-e09c27686c1c","ios":"levelo://app?vid=e888ba52-688b-4a73-8b99-e09c27686c1c"},"vehicle_type_id":"4","last_reported":1684138162,"current_range_meters":14400,"station_id":"ce4bhs92rcd13ifvqi0g","pricing_plan_id":"free"},{"bike_id":"5bc79a87-8c51-4256-972d-10ecdbdb6305","system_id":"levelo_inurba_marseille","lat":43.328371,"lon":5.366912,"is_reserved":false,"is_disabled":false,"rental_uris":{"android":"levelo://app?vid=5bc79a87-8c51-4256-972d-10ecdbdb6305","ios":"levelo://app?vid=5bc79a87-8c51-4256-972d-10ecdbdb6305"},"vehicle_type_id":"4","last_reported":1684138162,"current_range_meters":11600,"station_id":"ce4bhs92rcd13ifvqi0g","pricing_plan_id":"free"},{"bike_id":"dff8f60e-2589-4771-b1f4-fa1893563f27","system_id":"levelo_inurba_marseille","lat":43.32831,"lon":5.36691,"is_reserved":false,"is_disabled":false,"rental_uris":{"android":"levelo://app?vid=dff8f60e-2589-4771-b1f4-fa1893563f27","ios":"levelo://app?vid=dff8f60e-2589-4771-b1f4-fa1893563f27"},"vehicle_type_id":"4","last_reported":1684138162,"current_range_meters":2000,"station_id":"ce4bhs92rcd13ifvqi0g","pricing_plan_id":"free"},{"bike_id":"6161b423-133d-4809-8fa2-10db872e2cfb","system_id":"levelo_inurba_marseille","lat":43.328371,"lon":5.366912,"is_reserved":false,"is_disabled":false,"rental_uris":{"android":"levelo://app?vid=6161b423-133d-4809-8fa2-10db872e2cfb","ios":"levelo://app?vid=6161b423-133d-4809-8fa2-10db872e2cfb"},"vehicle_type_id":"4","last_reported":1684138162,"current_range_meters":26800,"station_id":"ce4bhs92rcd13ifvqi0g","pricing_plan_id":"free"},{"bike_id":"03aabb40-6213-4726-8efd-c29eca272db0","system_id":"levelo_inurba_marseille","lat":43.328371,"lon":5.366909,"is_reserved":false,"is_disabled":false,"rental_uris":{"android":"levelo://app?vid=03aabb40-6213-4726-8efd-c29eca272db0","ios":"levelo://app?vid=03aabb40-6213-4726-8efd-c29eca272db0"},"vehicle_type_id":"4","last_reported":1684138162,"current_range_meters":6400,"station_id":"ce4bhs92rcd13ifvqi0g","pricing_plan_id":"free"},{"bike_id":"f7e16b9b-dda5-4bba-9d80-00bc064f0f46","system_id":"levelo_inurba_marseille","lat":43.32835,"lon":5.36685,"is_reserved":false,"is_disabled":false,"rental_uris":{"android":"levelo://app?vid=f7e16b9b-dda5-4bba-9d80-00bc064f0f46","ios":"levelo://app?vid=f7e16b9b-dda5-4bba-9d80-00bc064f0f46"},"vehicle_type_id":"4","last_reported":1684138162,"current_range_meters":10400,"station_id":"ce4bhs92rcd13ifvqi0g","pricing_plan_id":"free"},{"bike_id":"4b3b8c7e-c60b-4f83-8e71-e80094005b2c","system_id":"levelo_inurba_marseille","lat":43.328371,"lon":5.366909,"is_reserved":false,"is_disabled":false,"rental_uris":{"android":"levelo://app?vid=4b3b8c7e-c60b-4f83-8e71-e80094005b2c","ios":"levelo://app?vid=4b3b8c7e-c60b-4f83-8e71-e80094005b2c"},"vehicle_type_id":"4","last_reported":1684138162,"current_range_meters":8000,"station_id":"ce4bhs92rcd13ifvqi0g","pricing_plan_id":"free"},{"bike_id":"ef619222-d86f-4984-a46f-cda033f9cc5b","system_id":"levelo_inurba_marseille","lat":43.32837,"lon":5.36686,"is_reserved":false,"is_disabled":false,"rental_uris":{"android":"levelo://app?vid=ef619222-d86f-4984-a46f-cda033f9cc5b","ios":"levelo://app?vid=ef619222-d86f-4984-a46f-cda033f9cc5b"},"vehicle_type_id":"4","last_reported":1684138162,"current_range_meters":26400,"station_id":"ce4bhs92rcd13ifvqi0g","pricing_plan_id":"free"},{"bike_id":"77cb6d31-b7a9-4c11-be72-a269c1ce26a3","system_id":"levelo_inurba_marseille","lat":43.29709,"lon":5.366,"is_reserved":false,"is_disabled":false,"rental_uris":{"android":"levelo://app?vid=77cb6d31-b7a9-4c11-be72-a269c1ce26a3","ios":"levelo://app?vid=77cb6d31-b7a9-4c11-be72-a269c1ce26a3"},"vehicle_type_id":"4","last_reported":1684138162,"current_range_meters":27600,"station_id":"","pricing_plan_id":"free"},{"bike_id":"c6125fc0-4491-405a-ac5c-057ff415c226","system_id":"levelo_inurba_marseille","lat":43.296129,"lon":5.370777,"is_reserved":false,"is_disabled":false,"rental_uris":{"android":"levelo://app?vid=c6125fc0-4491-405a-ac5c-057ff415c226","ios":"levelo://app?vid=c6125fc0-4491-405a-ac5c-057ff415c226"},"vehicle_type_id":"4","last_reported":1684138162,"current_range_meters":30400,"station_id":"ce4bgnh2rcd13ifvqc0g","pricing_plan_id":"free"},{"bike_id":"dc99e7ef-6c0d-4e9d-8932-2998f5ffbb2b","system_id":"levelo_inurba_marseille","lat":43.296129,"lon":5.370777,"is_reserved":false,"is_disabled":false,"rental_uris":{"android":"levelo://app?vid=dc99e7ef-6c0d-4e9d-8932-2998f5ffbb2b","ios":"levelo://app?vid=dc99e7ef-6c0d-4e9d-8932-2998f5ffbb2b"},"vehicle_type_id":"4","last_reported":1684138162,"current_range_meters":30800,"station_id":"ce4bgnh2rcd13ifvqc0g","pricing_plan_id":"free"},{"bike_id":"40a6edd7-61df-4446-960b-ada495f96412","system_id":"levelo_inurba_marseille","lat":43.296129,"lon":5.370777,"is_reserved":false,"is_disabled":false,"rental_uris":{"android":"levelo://app?vid=40a6edd7-61df-4446-960b-ada495f96412","ios":"levelo://app?vid=40a6edd7-61df-4446-960b-ada495f96412"},"vehicle_type_id":"4","last_reported":1684138162,"current_range_meters":22800,"station_id":"ce4bgnh2rcd13ifvqc0g","pricing_plan_id":"free"},{"bike_id":"a5cb192c-4624-4e3e-a69d-969286e265a1","system_id":"levelo_inurba_marseille","lat":43.296129,"lon":5.370777,"is_reserved":false,"is_disabled":false,"rental_uris":{"android":"levelo://app?vid=a5cb192c-4624-4e3e-a69d-969286e265a1","ios":"levelo://app?vid=a5cb192c-4624-4e3e-a69d-969286e265a1"},"vehicle_type_id":"4","last_reported":1684138162,"current_range_meters":29600,"station_id":"ce4bgnh2rcd13ifvqc0g","pricing_plan_id":"free"},{"bike_id":"8c9417ea-25c1-49b7-b675-24cc762934d4","system_id":"levelo_inurba_marseille","lat":43.296129,"lon":5.370777,"is_reserved":false,"is_disabled":false,"rental_uris":{"android":"levelo://app?vid=8c9417ea-25c1-49b7-b675-24cc762934d4","ios":"levelo://app?vid=8c9417ea-25c1-49b7-b675-24cc762934d4"},"vehicle_type_id":"4","last_reported":1684138162,"current_range_meters":24400,"station_id":"ce4bgnh2rcd13ifvqc0g","pricing_plan_id":"free"},{"bike_id":"112129e6-805c-4a63-83a3-c4ef56751b02","system_id":"levelo_inurba_marseille","lat":43.296131,"lon":5.370773,"is_reserved":false,"is_disabled":false,"rental_uris":{"android":"levelo://app?vid=112129e6-805c-4a63-83a3-c4ef56751b02","ios":"levelo://app?vid=112129e6-805c-4a63-83a3-c4ef56751b02"},"vehicle_type_id":"4","last_reported":1684138162,"current_range_meters":17600,"station_id":"ce4bgnh2rcd13ifvqc0g","pricing_plan_id":"free"},{"bike_id":"0f4f66a8-5e63-44f9-be54-1024e5fd134b","system_id":"levelo_inurba_marseille","lat":43.296129,"lon":5.370777,"is_reserved":false,"is_disabled":false,"rental_uris":{"android":"levelo://app?vid=0f4f66a8-5e63-44f9-be54-1024e5fd134b","ios":"levelo://app?vid=0f4f66a8-5e63-44f9-be54-1024e5fd134b"},"vehicle_type_id":"4","last_reported":1684138162,"current_range_meters":30800,"station_id":"ce4bgnh2rcd13ifvqc0g","pricing_plan_id":"free"},{"bike_id":"f5674d82-40d9-405a-8552-a8ac7c230d99","system_id":"levelo_inurba_marseille","lat":43.296131,"lon":5.370773,"is_reserved":false,"is_disabled":false,"rental_uris":{"android":"levelo://app?vid=f5674d82-40d9-405a-8552-a8ac7c230d99","ios":"levelo://app?vid=f5674d82-40d9-405a-8552-a8ac7c230d99"},"vehicle_type_id":"4","last_reported":1684138162,"current_range_meters":4800,"station_id":"ce4bgnh2rcd13ifvqc0g","pricing_plan_id":"free"},{"bike_id":"b34ac5fd-011c-4349-bfa4-ebdf1434833b","system_id":"levelo_inurba_marseille","lat":43.29573,"lon":5.367355,"is_reserved":false,"is_disabled":false,"rental_uris":{"android":"levelo://app?vid=b34ac5fd-011c-4349-bfa4-ebdf1434833b","ios":"levelo://app?vid=b34ac5fd-011c-4349-bfa4-ebdf1434833b"},"vehicle_type_id":"4","last_reported":1684138162,"current_range_meters":27200,"station_id":"ce4bgph2rcd13ifvqc2g","pricing_plan_id":"free"},{"bike_id":"3379bf6e-6a5c-4cac-9a5b-0a03502986d4","system_id":"levelo_inurba_marseille","lat":43.29573,"lon":5.367355,"is_reserved":false,"is_disabled":false,"rental_uris":{"android":"levelo://app?vid=3379bf6e-6a5c-4cac-9a5b-0a03502986d4","ios":"levelo://app?vid=3379bf6e-6a5c-4cac-9a5b-0a03502986d4"},"vehicle_type_id":"4","last_reported":1684138162,"current_range_meters":17200,"station_id":"ce4bgph2rcd13ifvqc2g","pricing_plan_id":"free"},{"bike_id":"d62d6c8e-0b54-4ccd-b1e5-12101f8275b2","system_id":"levelo_inurba_marseille","lat":43.299028,"lon":5.381509,"is_reserved":false,"is_disabled":false,"rental_uris":{"android":"levelo://app?vid=d62d6c8e-0b54-4ccd-b1e5-12101f8275b2","ios":"levelo://app?vid=d62d6c8e-0b54-4ccd-b1e5-12101f8275b2"},"vehicle_type_id":"4","last_reported":1684138162,"current_range_meters":6400,"station_id":"ce4bgj12rcd13ifvqbc0","pricing_plan_id":"free"},{"bike_id":"eca067d7-b4d2-4e33-9e8b-240c61b2a73e","system_id":"levelo_inurba_marseille","lat":43.30952,"lon":5.39031,"is_reserved":false,"is_disabled":false,"rental_uris":{"android":"levelo://app?vid=eca067d7-b4d2-4e33-9e8b-240c61b2a73e","ios":"levelo://app?vid=eca067d7-b4d2-4e33-9e8b-240c61b2a73e"},"vehicle_type_id":"4","last_reported":1684138162,"current_range_meters":23200,"station_id":"ce4bgup2rcd13ifvqco0","pricing_plan_id":"free"},{"bike_id":"8370993a-3901-4882-b54e-776ec8660c49","system_id":"levelo_inurba_marseille","lat":43.30945,"lon":5.3903,"is_reserved":false,"is_disabled":false,"rental_uris":{"android":"levelo://app?vid=8370993a-3901-4882-b54e-776ec8660c49","ios":"levelo://app?vid=8370993a-3901-4882-b54e-776ec8660c49"},"vehicle_type_id":"4","last_reported":1684138162,"current_range_meters":21200,"station_id":"ce4bgup2rcd13ifvqco0","pricing_plan_id":"free"},{"bike_id":"a7e4749d-cb2e-4d5c-9cd4-547dad8708c3","system_id":"levelo_inurba_marseille","lat":43.296921,"lon":5.376579,"is_reserved":false,"is_disabled":false,"rental_uris":{"android":"levelo://app?vid=a7e4749d-cb2e-4d5c-9cd4-547dad8708c3","ios":"levelo://app?vid=a7e4749d-cb2e-4d5c-9cd4-547dad8708c3"},"vehicle_type_id":"4","last_reported":1684138162,"current_range_meters":24800,"station_id":"ce4bgkh2rcd13ifvqbl0","pricing_plan_id":"free"},{"bike_id":"22b28bcb-2dd8-40dd-84c3-9ce89683f3ad","system_id":"levelo_inurba_marseille","lat":43.30948,"lon":5.39036,"is_reserved":false,"is_disabled":false,"rental_uris":{"android":"levelo://app?vid=22b28bcb-2dd8-40dd-84c3-9ce89683f3ad","ios":"levelo://app?vid=22b28bcb-2dd8-40dd-84c3-9ce89683f3ad"},"vehicle_type_id":"4","last_reported":1684138162,"current_range_meters":0,"station_id":"ce4bgup2rcd13ifvqco0","pricing_plan_id":"free"},{"bike_id":"7eb43376-4cb8-41ae-92a8-8ee934b3d69c","system_id":"levelo_inurba_marseille","lat":43.296935,"lon":5.376544,"is_reserved":false,"is_disabled":false,"rental_uris":{"android":"levelo://app?vid=7eb43376-4cb8-41ae-92a8-8ee934b3d69c","ios":"levelo://app?vid=7eb43376-4cb8-41ae-92a8-8ee934b3d69c"},"vehicle_type_id":"4","last_reported":1684138162,"current_range_meters":3200,"station_id":"ce4bgkh2rcd13ifvqbl0","pricing_plan_id":"free"},{"bike_id":"aa0f4d7b-3509-40a8-b61d-699c89804695","system_id":"levelo_inurba_marseille","lat":43.30948,"lon":5.39038,"is_reserved":false,"is_disabled":false,"rental_uris":{"android":"levelo://app?vid=aa0f4d7b-3509-40a8-b61d-699c89804695","ios":"levelo://app?vid=aa0f4d7b-3509-40a8-b61d-699c89804695"},"vehicle_type_id":"4","last_reported":1684138162,"current_range_meters":25200,"station_id":"ce4bgup2rcd13ifvqco0","pricing_plan_id":"free"},{"bike_id":"bddf32ac-5e43-4784-82f6-24c5c6b833a4","system_id":"levelo_inurba_marseille","lat":43.296935,"lon":5.376544,"is_reserved":false,"is_disabled":false,"rental_uris":{"android":"levelo://app?vid=bddf32ac-5e43-4784-82f6-24c5c6b833a4","ios":"levelo://app?vid=bddf32ac-5e43-4784-82f6-24c5c6b833a4"},"vehicle_type_id":"4","last_reported":1684138162,"current_range_meters":29600,"station_id":"ce4bgkh2rcd13ifvqbl0","pricing_plan_id":"free"},{"bike_id":"99a87a0e-3e70-4942-b0af-803165a3d2b5","system_id":"levelo_inurba_marseille","lat":43.30958,"lon":5.39043,"is_reserved":false,"is_disabled":false,"rental_uris":{"android":"levelo://app?vid=99a87a0e-3e70-4942-b0af-803165a3d2b5","ios":"levelo://app?vid=99a87a0e-3e70-4942-b0af-803165a3d2b5"},"vehicle_type_id":"4","last_reported":1684138162,"current_range_meters":5200,"station_id":"ce4bgup2rcd13ifvqco0","pricing_plan_id":"free"},{"bike_id":"3cae4e44-1b6c-46c6-8c04-d2c11feb823a","system_id":"levelo_inurba_marseille","lat":43.30936,"lon":5.3904,"is_reserved":false,"is_disabled":false,"rental_uris":{"android":"levelo://app?vid=3cae4e44-1b6c-46c6-8c04-d2c11feb823a","ios":"levelo://app?vid=3cae4e44-1b6c-46c6-8c04-d2c11feb823a"},"vehicle_type_id":"4","last_reported":1684138162,"current_range_meters":0,"station_id":"","pricing_plan_id":"free"},{"bike_id":"838003d3-9d94-43e7-9d9e-278bdbf56dbe","system_id":"levelo_inurba_marseille","lat":43.309589,"lon":5.390258,"is_reserved":false,"is_disabled":false,"rental_uris":{"android":"levelo://app?vid=838003d3-9d94-43e7-9d9e-278bdbf56dbe","ios":"levelo://app?vid=838003d3-9d94-43e7-9d9e-278bdbf56dbe"},"vehicle_type_id":"4","last_reported":1684138162,"current_range_meters":8000,"station_id":"ce4bgup2rcd13ifvqco0","pricing_plan_id":"free"},{"bike_id":"cd4ea5aa-dbff-4d2d-bbfb-154d16dc490d","system_id":"levelo_inurba_marseille","lat":43.298037,"lon":5.381066,"is_reserved":false,"is_disabled":false,"rental_uris":{"android":"levelo://app?vid=cd4ea5aa-dbff-4d2d-bbfb-154d16dc490d","ios":"levelo://app?vid=cd4ea5aa-dbff-4d2d-bbfb-154d16dc490d"},"vehicle_type_id":"4","last_reported":1684138162,"current_range_meters":4000,"station_id":"ce4bgip2rcd13ifvqbb0","pricing_plan_id":"free"},{"bike_id":"1edea89a-acdf-4447-b983-755dd67d80d7","system_id":"levelo_inurba_marseille","lat":43.298037,"lon":5.381066,"is_reserved":false,"is_disabled":false,"rental_uris":{"android":"levelo://app?vid=1edea89a-acdf-4447-b983-755dd67d80d7","ios":"levelo://app?vid=1edea89a-acdf-4447-b983-755dd67d80d7"},"vehicle_type_id":"4","last_reported":1684138162,"current_range_meters":20000,"station_id":"ce4bgip2rcd13ifvqbb0","pricing_plan_id":"free"},{"bike_id":"bff1b063-147b-463a-943e-7ac91f549462","system_id":"levelo_inurba_marseille","lat":43.298037,"lon":5.381066,"is_reserved":false,"is_disabled":false,"rental_uris":{"android":"levelo://app?vid=bff1b063-147b-463a-943e-7ac91f549462","ios":"levelo://app?vid=bff1b063-147b-463a-943e-7ac91f549462"},"vehicle_type_id":"4","last_reported":1684138162,"current_range_meters":0,"station_id":"ce4bgip2rcd13ifvqbb0","pricing_plan_id":"free"},{"bike_id":"8df0d340-3f04-4e17-9e84-eefc58efc621","system_id":"levelo_inurba_marseille","lat":43.298037,"lon":5.381066,"is_reserved":false,"is_disabled":false,"rental_uris":{"android":"levelo://app?vid=8df0d340-3f04-4e17-9e84-eefc58efc621","ios":"levelo://app?vid=8df0d340-3f04-4e17-9e84-eefc58efc621"},"vehicle_type_id":"4","last_reported":1684138162,"current_range_meters":6000,"station_id":"ce4bgip2rcd13ifvqbb0","pricing_plan_id":"free"},{"bike_id":"3fd08da8-a9cb-4cec-95bf-e8db18330d5f","system_id":"levelo_inurba_marseille","lat":43.298037,"lon":5.381066,"is_reserved":false,"is_disabled":false,"rental_uris":{"android":"levelo://app?vid=3fd08da8-a9cb-4cec-95bf-e8db18330d5f","ios":"levelo://app?vid=3fd08da8-a9cb-4cec-95bf-e8db18330d5f"},"vehicle_type_id":"4","last_reported":1684138162,"current_range_meters":5600,"station_id":"ce4bgip2rcd13ifvqbb0","pricing_plan_id":"free"},{"bike_id":"c13eedf7-abb8-4fb6-826b-691e256b3e8e","system_id":"levelo_inurba_marseille","lat":43.296263,"lon":5.377094,"is_reserved":false,"is_disabled":false,"rental_uris":{"android":"levelo://app?vid=c13eedf7-abb8-4fb6-826b-691e256b3e8e","ios":"levelo://app?vid=c13eedf7-abb8-4fb6-826b-691e256b3e8e"},"vehicle_type_id":"4","last_reported":1684138162,"current_range_meters":4800,"station_id":"ce4bgi92rcd13ifvqb90","pricing_plan_id":"free"},{"bike_id":"b27e00b0-24bd-4779-afd7-5480a2a57a2d","system_id":"levelo_inurba_marseille","lat":43.29603,"lon":5.37719,"is_reserved":false,"is_disabled":false,"rental_uris":{"android":"levelo://app?vid=b27e00b0-24bd-4779-afd7-5480a2a57a2d","ios":"levelo://app?vid=b27e00b0-24bd-4779-afd7-5480a2a57a2d"},"vehicle_type_id":"4","last_reported":1684138162,"current_range_meters":20800,"station_id":"","pricing_plan_id":"free"},{"bike_id":"ef291e32-aeec-4623-9c6f-a9bf5991878c","system_id":"levelo_inurba_marseille","lat":43.295279,"lon":5.375048,"is_reserved":false,"is_disabled":false,"rental_uris":{"android":"levelo://app?vid=ef291e32-aeec-4623-9c6f-a9bf5991878c","ios":"levelo://app?vid=ef291e32-aeec-4623-9c6f-a9bf5991878c"},"vehicle_type_id":"4","last_reported":1684138162,"current_range_meters":26000,"station_id":"ce4bgkp2rcd13ifvqbmg","pricing_plan_id":"free"},{"bike_id":"6f6b02ce-a50b-443a-a31d-aed834771e7b","system_id":"levelo_inurba_marseille","lat":43.31438,"lon":5.39271,"is_reserved":false,"is_disabled":false,"rental_uris":{"android":"levelo://app?vid=6f6b02ce-a50b-443a-a31d-aed834771e7b","ios":"levelo://app?vid=6f6b02ce-a50b-443a-a31d-aed834771e7b"},"vehicle_type_id":"4","last_reported":1684138162,"current_range_meters":0,"station_id":"","pricing_plan_id":"free"},{"bike_id":"2ff023d1-4f17-4d13-897c-0016bd78796c","system_id":"levelo_inurba_marseille","lat":43.32365,"lon":5.38883,"is_reserved":false,"is_disabled":false,"rental_uris":{"android":"levelo://app?vid=2ff023d1-4f17-4d13-897c-0016bd78796c","ios":"levelo://app?vid=2ff023d1-4f17-4d13-897c-0016bd78796c"},"vehicle_type_id":"4","last_reported":1684138162,"current_range_meters":400,"station_id":"","pricing_plan_id":"free"},{"bike_id":"e5969652-2610-444a-bde8-6f6518d76559","system_id":"levelo_inurba_marseille","lat":43.29602,"lon":5.381084,"is_reserved":false,"is_disabled":false,"rental_uris":{"android":"levelo://app?vid=e5969652-2610-444a-bde8-6f6518d76559","ios":"levelo://app?vid=e5969652-2610-444a-bde8-6f6518d76559"},"vehicle_type_id":"4","last_reported":1684138162,"current_range_meters":10800,"station_id":"ce4bgl12rcd13ifvqbo0","pricing_plan_id":"free"},{"bike_id":"d73f21da-ca4e-475d-8b57-4683b797fd39","system_id":"levelo_inurba_marseille","lat":43.293168,"lon":5.371809,"is_reserved":false,"is_disabled":false,"rental_uris":{"android":"levelo://app?vid=d73f21da-ca4e-475d-8b57-4683b797fd39","ios":"levelo://app?vid=d73f21da-ca4e-475d-8b57-4683b797fd39"},"vehicle_type_id":"4","last_reported":1684138162,"current_range_meters":1200,"station_id":"ce4bgh92rcd13ifvqb40","pricing_plan_id":"free"},{"bike_id":"41a01a32-3942-4d9e-8a59-de32df25e797","system_id":"levelo_inurba_marseille","lat":43.29309,"lon":5.37169,"is_reserved":false,"is_disabled":false,"rental_uris":{"android":"levelo://app?vid=41a01a32-3942-4d9e-8a59-de32df25e797","ios":"levelo://app?vid=41a01a32-3942-4d9e-8a59-de32df25e797"},"vehicle_type_id":"4","last_reported":1684138162,"current_range_meters":14400,"station_id":"ce4bgh92rcd13ifvqb40","pricing_plan_id":"free"},{"bike_id":"d45c5a22-d830-4b24-88da-30fd847d3869","system_id":"levelo_inurba_marseille","lat":43.29308,"lon":5.37175,"is_reserved":false,"is_disabled":false,"rental_uris":{"android":"levelo://app?vid=d45c5a22-d830-4b24-88da-30fd847d3869","ios":"levelo://app?vid=d45c5a22-d830-4b24-88da-30fd847d3869"},"vehicle_type_id":"4","last_reported":1684138162,"current_range_meters":22000,"station_id":"ce4bgh92rcd13ifvqb40","pricing_plan_id":"free"},{"bike_id":"bb020d4d-a17d-480c-affd-2399d2c76521","system_id":"levelo_inurba_marseille","lat":43.292749,"lon":5.368402,"is_reserved":false,"is_disabled":false,"rental_uris":{"android":"levelo://app?vid=bb020d4d-a17d-480c-affd-2399d2c76521","ios":"levelo://app?vid=bb020d4d-a17d-480c-affd-2399d2c76521"},"vehicle_type_id":"4","last_reported":1684138162,"current_range_meters":30000,"station_id":"ce4bhbp2rcd13ifvqesg","pricing_plan_id":"free"},{"bike_id":"4f195850-bea0-488f-91c8-44682063ab24","system_id":"levelo_inurba_marseille","lat":43.29286,"lon":5.37156,"is_reserved":false,"is_disabled":false,"rental_uris":{"android":"levelo://app?vid=4f195850-bea0-488f-91c8-44682063ab24","ios":"levelo://app?vid=4f195850-bea0-488f-91c8-44682063ab24"},"vehicle_type_id":"4","last_reported":1684138162,"current_range_meters":23200,"station_id":"","pricing_plan_id":"free"},{"bike_id":"281abda0-b155-46dd-a9a9-0e556c60ba93","system_id":"levelo_inurba_marseille","lat":43.293009,"lon":5.374584,"is_reserved":false,"is_disabled":false,"rental_uris":{"android":"levelo://app?vid=281abda0-b155-46dd-a9a9-0e556c60ba93","ios":"levelo://app?vid=281abda0-b155-46dd-a9a9-0e556c60ba93"},"vehicle_type_id":"4","last_reported":1684138162,"current_range_meters":22800,"station_id":"ce4bgi12rcd13ifvqb70","pricing_plan_id":"free"},{"bike_id":"e6743ecf-98bc-4eae-93fb-804311138766","system_id":"levelo_inurba_marseille","lat":43.305994,"lon":5.393687,"is_reserved":false,"is_disabled":false,"rental_uris":{"android":"levelo://app?vid=e6743ecf-98bc-4eae-93fb-804311138766","ios":"levelo://app?vid=e6743ecf-98bc-4eae-93fb-804311138766"},"vehicle_type_id":"4","last_reported":1684138162,"current_range_meters":0,"station_id":"ce4bh0p2rcd13ifvqd80","pricing_plan_id":"free"},{"bike_id":"c0c49ba4-e09f-46d2-9de6-dd26a59b547b","system_id":"levelo_inurba_marseille","lat":43.292899,"lon":5.374669,"is_reserved":false,"is_disabled":false,"rental_uris":{"android":"levelo://app?vid=c0c49ba4-e09f-46d2-9de6-dd26a59b547b","ios":"levelo://app?vid=c0c49ba4-e09f-46d2-9de6-dd26a59b547b"},"vehicle_type_id":"4","last_reported":1684138162,"current_range_meters":20800,"station_id":"","pricing_plan_id":"free"},{"bike_id":"850f1553-b2cf-4613-88e9-820b45757b80","system_id":"levelo_inurba_marseille","lat":43.2936,"lon":5.37835,"is_reserved":false,"is_disabled":false,"rental_uris":{"android":"levelo://app?vid=850f1553-b2cf-4613-88e9-820b45757b80","ios":"levelo://app?vid=850f1553-b2cf-4613-88e9-820b45757b80"},"vehicle_type_id":"4","last_reported":1684138162,"current_range_meters":800,"station_id":"ce4bgjh2rcd13ifvqbf0","pricing_plan_id":"free"},{"bike_id":"dec18649-db47-4c39-98fc-f9910b0f6245","system_id":"levelo_inurba_marseille","lat":43.2936,"lon":5.37835,"is_reserved":false,"is_disabled":false,"rental_uris":{"android":"levelo://app?vid=dec18649-db47-4c39-98fc-f9910b0f6245","ios":"levelo://app?vid=dec18649-db47-4c39-98fc-f9910b0f6245"},"vehicle_type_id":"4","last_reported":1684138162,"current_range_meters":4400,"station_id":"ce4bgjh2rcd13ifvqbf0","pricing_plan_id":"free"},{"bike_id":"0c52628f-2413-40ea-a6ab-35cb220f52ab","system_id":"levelo_inurba_marseille","lat":43.2936,"lon":5.37835,"is_reserved":false,"is_disabled":false,"rental_uris":{"android":"levelo://app?vid=0c52628f-2413-40ea-a6ab-35cb220f52ab","ios":"levelo://app?vid=0c52628f-2413-40ea-a6ab-35cb220f52ab"},"vehicle_type_id":"4","last_reported":1684138162,"current_range_meters":12400,"station_id":"ce4bgjh2rcd13ifvqbf0","pricing_plan_id":"free"},{"bike_id":"ca17a0a3-a6d0-4da6-9da1-f267468bd21c","system_id":"levelo_inurba_marseille","lat":43.2936,"lon":5.37835,"is_reserved":false,"is_disabled":false,"rental_uris":{"android":"levelo://app?vid=ca17a0a3-a6d0-4da6-9da1-f267468bd21c","ios":"levelo://app?vid=ca17a0a3-a6d0-4da6-9da1-f267468bd21c"},"vehicle_type_id":"4","last_reported":1684138162,"current_range_meters":17600,"station_id":"ce4bgjh2rcd13ifvqbf0","pricing_plan_id":"free"},{"bike_id":"ea3ea279-6c6b-4a64-9059-ba771e7d6f42","system_id":"levelo_inurba_marseille","lat":43.29221,"lon":5.36061,"is_reserved":false,"is_disabled":false,"rental_uris":{"android":"levelo://app?vid=ea3ea279-6c6b-4a64-9059-ba771e7d6f42","ios":"levelo://app?vid=ea3ea279-6c6b-4a64-9059-ba771e7d6f42"},"vehicle_type_id":"4","last_reported":1684138162,"current_range_meters":31200,"station_id":"ce4bhbh2rcd13ifvqeqg","pricing_plan_id":"free"},{"bike_id":"a967f6d9-708c-4955-bc0d-fba37f6e78e0","system_id":"levelo_inurba_marseille","lat":43.291675,"lon":5.371583,"is_reserved":false,"is_disabled":false,"rental_uris":{"android":"levelo://app?vid=a967f6d9-708c-4955-bc0d-fba37f6e78e0","ios":"levelo://app?vid=a967f6d9-708c-4955-bc0d-fba37f6e78e0"},"vehicle_type_id":"4","last_reported":1684138162,"current_range_meters":26400,"station_id":"ce4bha92rcd13ifvqeh0","pricing_plan_id":"free"},{"bike_id":"caa694b2-2ac7-4228-89f0-8564a9f21e17","system_id":"levelo_inurba_marseille","lat":43.31563,"lon":5.39655,"is_reserved":false,"is_disabled":false,"rental_uris":{"android":"levelo://app?vid=caa694b2-2ac7-4228-89f0-8564a9f21e17","ios":"levelo://app?vid=caa694b2-2ac7-4228-89f0-8564a9f21e17"},"vehicle_type_id":"4","last_reported":1684138162,"current_range_meters":0,"station_id":"","pricing_plan_id":"free"},{"bike_id":"2f0e27a1-7b84-47b4-bd18-fe3e96d83c0f","system_id":"levelo_inurba_marseille","lat":43.29195,"lon":5.35802,"is_reserved":false,"is_disabled":false,"rental_uris":{"android":"levelo://app?vid=2f0e27a1-7b84-47b4-bd18-fe3e96d83c0f","ios":"levelo://app?vid=2f0e27a1-7b84-47b4-bd18-fe3e96d83c0f"},"vehicle_type_id":"4","last_reported":1684138162,"current_range_meters":14000,"station_id":"","pricing_plan_id":"free"},{"bike_id":"33d90f4e-902c-42cb-a01c-35fd24789e35","system_id":"levelo_inurba_marseille","lat":43.29185,"lon":5.35803,"is_reserved":false,"is_disabled":false,"rental_uris":{"android":"levelo://app?vid=33d90f4e-902c-42cb-a01c-35fd24789e35","ios":"levelo://app?vid=33d90f4e-902c-42cb-a01c-35fd24789e35"},"vehicle_type_id":"4","last_reported":1684138162,"current_range_meters":5600,"station_id":"","pricing_plan_id":"free"},{"bike_id":"9f129774-36e1-42f1-8229-a7c2be11d89e","system_id":"levelo_inurba_marseille","lat":43.30489,"lon":5.39704,"is_reserved":false,"is_disabled":false,"rental_uris":{"android":"levelo://app?vid=9f129774-36e1-42f1-8229-a7c2be11d89e","ios":"levelo://app?vid=9f129774-36e1-42f1-8229-a7c2be11d89e"},"vehicle_type_id":"4","last_reported":1684138162,"current_range_meters":12000,"station_id":"","pricing_plan_id":"free"},{"bike_id":"8afb2759-85c6-4b86-b407-4112fc5a02e9","system_id":"levelo_inurba_marseille","lat":43.294162,"lon":5.386292,"is_reserved":false,"is_disabled":false,"rental_uris":{"android":"levelo://app?vid=8afb2759-85c6-4b86-b407-4112fc5a02e9","ios":"levelo://app?vid=8afb2759-85c6-4b86-b407-4112fc5a02e9"},"vehicle_type_id":"4","last_reported":1684138162,"current_range_meters":800,"station_id":"ce4bh2h2rcd13ifvqdh0","pricing_plan_id":"free"},{"bike_id":"a1d7437a-e831-4d65-a274-fbf27fb80bc5","system_id":"levelo_inurba_marseille","lat":43.289184,"lon":5.366408,"is_reserved":false,"is_disabled":false,"rental_uris":{"android":"levelo://app?vid=a1d7437a-e831-4d65-a274-fbf27fb80bc5","ios":"levelo://app?vid=a1d7437a-e831-4d65-a274-fbf27fb80bc5"},"vehicle_type_id":"4","last_reported":1684138162,"current_range_meters":7600,"station_id":"ce4bhap2rcd13ifvqek0","pricing_plan_id":"free"},{"bike_id":"8c51270e-1f83-4ecf-a1d7-3341ddf6b0a9","system_id":"levelo_inurba_marseille","lat":43.33076,"lon":5.38854,"is_reserved":false,"is_disabled":false,"rental_uris":{"android":"levelo://app?vid=8c51270e-1f83-4ecf-a1d7-3341ddf6b0a9","ios":"levelo://app?vid=8c51270e-1f83-4ecf-a1d7-3341ddf6b0a9"},"vehicle_type_id":"4","last_reported":1684138162,"current_range_meters":1600,"station_id":"","pricing_plan_id":"free"},{"bike_id":"a98ff5bd-e355-4be9-973d-4bb68d559ab4","system_id":"levelo_inurba_marseille","lat":43.33043,"lon":5.38917,"is_reserved":false,"is_disabled":false,"rental_uris":{"android":"levelo://app?vid=a98ff5bd-e355-4be9-973d-4bb68d559ab4","ios":"levelo://app?vid=a98ff5bd-e355-4be9-973d-4bb68d559ab4"},"vehicle_type_id":"4","last_reported":1684138162,"current_range_meters":6000,"station_id":"ce4bhr92rcd13ifvqhrg","pricing_plan_id":"free"},{"bike_id":"9faa9a70-65e2-441d-83cd-e3b2349f1c67","system_id":"levelo_inurba_marseille","lat":43.33044,"lon":5.38917,"is_reserved":false,"is_disabled":false,"rental_uris":{"android":"levelo://app?vid=9faa9a70-65e2-441d-83cd-e3b2349f1c67","ios":"levelo://app?vid=9faa9a70-65e2-441d-83cd-e3b2349f1c67"},"vehicle_type_id":"4","last_reported":1684138162,"current_range_meters":4000,"station_id":"ce4bhr92rcd13ifvqhrg","pricing_plan_id":"free"},{"bike_id":"1e1c0ab0-cd87-425d-bea8-5653e85d486b","system_id":"levelo_inurba_marseille","lat":43.289743,"lon":5.378304,"is_reserved":false,"is_disabled":false,"rental_uris":{"android":"levelo://app?vid=1e1c0ab0-cd87-425d-bea8-5653e85d486b","ios":"levelo://app?vid=1e1c0ab0-cd87-425d-bea8-5653e85d486b"},"vehicle_type_id":"4","last_reported":1684138162,"current_range_meters":23200,"station_id":"ce4bh9p2rcd13ifvqed0","pricing_plan_id":"free"},{"bike_id":"dd3bcec9-ae50-4fbf-a09f-69d2a9181cde","system_id":"levelo_inurba_marseille","lat":43.290995,"lon":5.381361,"is_reserved":false,"is_disabled":false,"rental_uris":{"android":"levelo://app?vid=dd3bcec9-ae50-4fbf-a09f-69d2a9181cde","ios":"levelo://app?vid=dd3bcec9-ae50-4fbf-a09f-69d2a9181cde"},"vehicle_type_id":"4","last_reported":1684138162,"current_range_meters":0,"station_id":"ce4bh512rcd13ifvqe2g","pricing_plan_id":"free"},{"bike_id":"9b07a990-2aad-4923-a51a-8f5c87b19014","system_id":"levelo_inurba_marseille","lat":43.295169,"lon":5.390426,"is_reserved":false,"is_disabled":false,"rental_uris":{"android":"levelo://app?vid=9b07a990-2aad-4923-a51a-8f5c87b19014","ios":"levelo://app?vid=9b07a990-2aad-4923-a51a-8f5c87b19014"},"vehicle_type_id":"4","last_reported":1684138162,"current_range_meters":20800,"station_id":"ce4bh3p2rcd13ifvqdp0","pricing_plan_id":"free"},{"bike_id":"1d551742-4b76-465b-b55a-106aad3997fb","system_id":"levelo_inurba_marseille","lat":43.28856,"lon":5.358371,"is_reserved":false,"is_disabled":false,"rental_uris":{"android":"levelo://app?vid=1d551742-4b76-465b-b55a-106aad3997fb","ios":"levelo://app?vid=1d551742-4b76-465b-b55a-106aad3997fb"},"vehicle_type_id":"4","last_reported":1684138162,"current_range_meters":17600,"station_id":"ce4bhb12rcd13ifvqem0","pricing_plan_id":"free"},{"bike_id":"235bfca5-3523-4573-9b75-a1fadb68ed6a","system_id":"levelo_inurba_marseille","lat":43.337328,"lon":5.374538,"is_reserved":false,"is_disabled":false,"rental_uris":{"android":"levelo://app?vid=235bfca5-3523-4573-9b75-a1fadb68ed6a","ios":"levelo://app?vid=235bfca5-3523-4573-9b75-a1fadb68ed6a"},"vehicle_type_id":"4","last_reported":1684138162,"current_range_meters":24400,"station_id":"ce4bhah2rcd13ifvqei0","pricing_plan_id":"free"},{"bike_id":"5b3ce0e7-ddde-4f08-9689-05c27b8dd4cc","system_id":"levelo_inurba_marseille","lat":43.337436,"lon":5.374627,"is_reserved":false,"is_disabled":false,"rental_uris":{"android":"levelo://app?vid=5b3ce0e7-ddde-4f08-9689-05c27b8dd4cc","ios":"levelo://app?vid=5b3ce0e7-ddde-4f08-9689-05c27b8dd4cc"},"vehicle_type_id":"4","last_reported":1684138162,"current_range_meters":24800,"station_id":"ce4bhnp2rcd13ifvqgvg","pricing_plan_id":"free"},{"bike_id":"968fbc00-6495-4062-b34a-44facc1c6f1f","system_id":"levelo_inurba_marseille","lat":43.290336,"lon":5.386425,"is_reserved":false,"is_disabled":false,"rental_uris":{"android":"levelo://app?vid=968fbc00-6495-4062-b34a-44facc1c6f1f","ios":"levelo://app?vid=968fbc00-6495-4062-b34a-44facc1c6f1f"},"vehicle_type_id":"4","last_reported":1684138162,"current_range_meters":0,"station_id":"ce4bh4p2rcd13ifvqe0g","pricing_plan_id":"free"},{"bike_id":"80fe3258-4266-4381-a46a-39d26c4b9344","system_id":"levelo_inurba_marseille","lat":43.287184,"lon":5.37937,"is_reserved":false,"is_disabled":false,"rental_uris":{"android":"levelo://app?vid=80fe3258-4266-4381-a46a-39d26c4b9344","ios":"levelo://app?vid=80fe3258-4266-4381-a46a-39d26c4b9344"},"vehicle_type_id":"4","last_reported":1684138162,"current_range_meters":6800,"station_id":"ce4bh9p2rcd13ifvqec0","pricing_plan_id":"free"},{"bike_id":"f626c95b-c510-4613-8792-bf9d36e01269","system_id":"levelo_inurba_marseille","lat":43.291994,"lon":5.392907,"is_reserved":false,"is_disabled":false,"rental_uris":{"android":"levelo://app?vid=f626c95b-c510-4613-8792-bf9d36e01269","ios":"levelo://app?vid=f626c95b-c510-4613-8792-bf9d36e01269"},"vehicle_type_id":"4","last_reported":1684138162,"current_range_meters":6400,"station_id":"ce4bh192rcd13ifvqdd0","pricing_plan_id":"free"},{"bike_id":"b4ccf662-7c5f-4dce-b565-c55f8c022920","system_id":"levelo_inurba_marseille","lat":43.287185,"lon":5.379373,"is_reserved":false,"is_disabled":false,"rental_uris":{"android":"levelo://app?vid=b4ccf662-7c5f-4dce-b565-c55f8c022920","ios":"levelo://app?vid=b4ccf662-7c5f-4dce-b565-c55f8c022920"},"vehicle_type_id":"4","last_reported":1684138162,"current_range_meters":22000,"station_id":"ce4bh9p2rcd13ifvqec0","pricing_plan_id":"free"},{"bike_id":"2a40faff-8209-4d35-bf00-38b62510dd67","system_id":"levelo_inurba_marseille","lat":43.287184,"lon":5.37937,"is_reserved":false,"is_disabled":false,"rental_uris":{"android":"levelo://app?vid=2a40faff-8209-4d35-bf00-38b62510dd67","ios":"levelo://app?vid=2a40faff-8209-4d35-bf00-38b62510dd67"},"vehicle_type_id":"4","last_reported":1684138162,"current_range_meters":21200,"station_id":"ce4bh9p2rcd13ifvqec0","pricing_plan_id":"free"},{"bike_id":"ca167c22-61e6-43b4-9b7c-6cdb90408729","system_id":"levelo_inurba_marseille","lat":43.28457,"lon":5.35891,"is_reserved":false,"is_disabled":false,"rental_uris":{"android":"levelo://app?vid=ca167c22-61e6-43b4-9b7c-6cdb90408729","ios":"levelo://app?vid=ca167c22-61e6-43b4-9b7c-6cdb90408729"},"vehicle_type_id":"4","last_reported":1684138162,"current_range_meters":7200,"station_id":"ce4bhah2rcd13ifvqei0","pricing_plan_id":"free"},{"bike_id":"30a493d0-3a57-450c-b03c-02f40cdaa4fd","system_id":"levelo_inurba_marseille","lat":43.284534,"lon":5.358662,"is_reserved":false,"is_disabled":false,"rental_uris":{"android":"levelo://app?vid=30a493d0-3a57-450c-b03c-02f40cdaa4fd","ios":"levelo://app?vid=30a493d0-3a57-450c-b03c-02f40cdaa4fd"},"vehicle_type_id":"4","last_reported":1684138162,"current_range_meters":16400,"station_id":"ce4bhah2rcd13ifvqei0","pricing_plan_id":"free"},{"bike_id":"fa2d50bc-8dc8-430d-be76-c77a5114f634","system_id":"levelo_inurba_marseille","lat":43.28668,"lon":5.38663,"is_reserved":false,"is_disabled":false,"rental_uris":{"android":"levelo://app?vid=fa2d50bc-8dc8-430d-be76-c77a5114f634","ios":"levelo://app?vid=fa2d50bc-8dc8-430d-be76-c77a5114f634"},"vehicle_type_id":"4","last_reported":1684138162,"current_range_meters":0,"station_id":"ce4bh492rcd13ifvqdug","pricing_plan_id":"free"},{"bike_id":"81ea3d8a-39b0-43e8-ad41-10023ee88224","system_id":"levelo_inurba_marseille","lat":43.3372,"lon":5.39189,"is_reserved":false,"is_disabled":false,"rental_uris":{"android":"levelo://app?vid=81ea3d8a-39b0-43e8-ad41-10023ee88224","ios":"levelo://app?vid=81ea3d8a-39b0-43e8-ad41-10023ee88224"},"vehicle_type_id":"4","last_reported":1684138162,"current_range_meters":3600,"station_id":"ce4bhr92rcd13ifvqhsg","pricing_plan_id":"free"},{"bike_id":"9a30e542-ac95-48ed-b689-dd46afc99845","system_id":"levelo_inurba_marseille","lat":43.33721,"lon":5.39196,"is_reserved":false,"is_disabled":false,"rental_uris":{"android":"levelo://app?vid=9a30e542-ac95-48ed-b689-dd46afc99845","ios":"levelo://app?vid=9a30e542-ac95-48ed-b689-dd46afc99845"},"vehicle_type_id":"4","last_reported":1684138162,"current_range_meters":2000,"station_id":"ce4bhr92rcd13ifvqhsg","pricing_plan_id":"free"},{"bike_id":"34c1b101-34ea-48d0-a9e9-bd788b5fae52","system_id":"levelo_inurba_marseille","lat":43.284793,"lon":5.384113,"is_reserved":false,"is_disabled":false,"rental_uris":{"android":"levelo://app?vid=34c1b101-34ea-48d0-a9e9-bd788b5fae52","ios":"levelo://app?vid=34c1b101-34ea-48d0-a9e9-bd788b5fae52"},"vehicle_type_id":"4","last_reported":1684138162,"current_range_meters":18000,"station_id":"ce4bh512rcd13ifvqe3g","pricing_plan_id":"free"},{"bike_id":"961cbdee-709b-418f-84fd-cd739c4726e1","system_id":"levelo_inurba_marseille","lat":43.33731,"lon":5.3919,"is_reserved":false,"is_disabled":false,"rental_uris":{"android":"levelo://app?vid=961cbdee-709b-418f-84fd-cd739c4726e1","ios":"levelo://app?vid=961cbdee-709b-418f-84fd-cd739c4726e1"},"vehicle_type_id":"4","last_reported":1684138162,"current_range_meters":31200,"station_id":"ce4bhr92rcd13ifvqhsg","pricing_plan_id":"free"},{"bike_id":"0bd3c5db-7863-4ae1-95c6-5ba90b33b2eb","system_id":"levelo_inurba_marseille","lat":43.284793,"lon":5.384113,"is_reserved":false,"is_disabled":false,"rental_uris":{"android":"levelo://app?vid=0bd3c5db-7863-4ae1-95c6-5ba90b33b2eb","ios":"levelo://app?vid=0bd3c5db-7863-4ae1-95c6-5ba90b33b2eb"},"vehicle_type_id":"4","last_reported":1684138162,"current_range_meters":7600,"station_id":"ce4bh512rcd13ifvqe3g","pricing_plan_id":"free"},{"bike_id":"9366c8e0-d5ec-4a50-8f50-87ba4f0dea7b","system_id":"levelo_inurba_marseille","lat":43.284793,"lon":5.384113,"is_reserved":false,"is_disabled":false,"rental_uris":{"android":"levelo://app?vid=9366c8e0-d5ec-4a50-8f50-87ba4f0dea7b","ios":"levelo://app?vid=9366c8e0-d5ec-4a50-8f50-87ba4f0dea7b"},"vehicle_type_id":"4","last_reported":1684138162,"current_range_meters":2000,"station_id":"ce4bh512rcd13ifvqe3g","pricing_plan_id":"free"},{"bike_id":"1007b132-239c-403a-ad48-1218b865fd42","system_id":"levelo_inurba_marseille","lat":43.284787,"lon":5.384116,"is_reserved":false,"is_disabled":false,"rental_uris":{"android":"levelo://app?vid=1007b132-239c-403a-ad48-1218b865fd42","ios":"levelo://app?vid=1007b132-239c-403a-ad48-1218b865fd42"},"vehicle_type_id":"4","last_reported":1684138162,"current_range_meters":11200,"station_id":"ce4bh512rcd13ifvqe3g","pricing_plan_id":"free"},{"bike_id":"0dcf1d2e-efb5-4bb9-b09a-68c3848dbf48","system_id":"levelo_inurba_marseille","lat":43.283494,"lon":5.380945,"is_reserved":false,"is_disabled":false,"rental_uris":{"android":"levelo://app?vid=0dcf1d2e-efb5-4bb9-b09a-68c3848dbf48","ios":"levelo://app?vid=0dcf1d2e-efb5-4bb9-b09a-68c3848dbf48"},"vehicle_type_id":"4","last_reported":1684138162,"current_range_meters":25200,"station_id":"ce4bh412rcd13ifvqdr0","pricing_plan_id":"free"},{"bike_id":"ae8fccfc-40a4-475c-bba8-2d9a140d02a6","system_id":"levelo_inurba_marseille","lat":43.283494,"lon":5.380945,"is_reserved":false,"is_disabled":false,"rental_uris":{"android":"levelo://app?vid=ae8fccfc-40a4-475c-bba8-2d9a140d02a6","ios":"levelo://app?vid=ae8fccfc-40a4-475c-bba8-2d9a140d02a6"},"vehicle_type_id":"4","last_reported":1684138162,"current_range_meters":20400,"station_id":"ce4bh412rcd13ifvqdr0","pricing_plan_id":"free"},{"bike_id":"b50db00f-b399-430f-81fd-b9f332b4015c","system_id":"levelo_inurba_marseille","lat":43.283494,"lon":5.380945,"is_reserved":false,"is_disabled":false,"rental_uris":{"android":"levelo://app?vid=b50db00f-b399-430f-81fd-b9f332b4015c","ios":"levelo://app?vid=b50db00f-b399-430f-81fd-b9f332b4015c"},"vehicle_type_id":"4","last_reported":1684138162,"current_range_meters":19600,"station_id":"ce4bh412rcd13ifvqdr0","pricing_plan_id":"free"},{"bike_id":"828b7e20-ba8a-4498-868c-cc5dd6793473","system_id":"levelo_inurba_marseille","lat":43.28267,"lon":5.35058,"is_reserved":false,"is_disabled":false,"rental_uris":{"android":"levelo://app?vid=828b7e20-ba8a-4498-868c-cc5dd6793473","ios":"levelo://app?vid=828b7e20-ba8a-4498-868c-cc5dd6793473"},"vehicle_type_id":"4","last_reported":1684138162,"current_range_meters":0,"station_id":"ce4bhbp2rcd13ifvqerg","pricing_plan_id":"free"},{"bike_id":"5066d9de-17e7-4ad5-9880-c4d34d9728c6","system_id":"levelo_inurba_marseille","lat":43.290412,"lon":5.399633,"is_reserved":false,"is_disabled":false,"rental_uris":{"android":"levelo://app?vid=5066d9de-17e7-4ad5-9880-c4d34d9728c6","ios":"levelo://app?vid=5066d9de-17e7-4ad5-9880-c4d34d9728c6"},"vehicle_type_id":"4","last_reported":1684138162,"current_range_meters":8800,"station_id":"ce4bh392rcd13ifvqdm0","pricing_plan_id":"free"},{"bike_id":"f3f6400d-5b43-41c3-b997-9f6df26efe2f","system_id":"levelo_inurba_marseille","lat":43.290412,"lon":5.399633,"is_reserved":false,"is_disabled":false,"rental_uris":{"android":"levelo://app?vid=f3f6400d-5b43-41c3-b997-9f6df26efe2f","ios":"levelo://app?vid=f3f6400d-5b43-41c3-b997-9f6df26efe2f"},"vehicle_type_id":"4","last_reported":1684138162,"current_range_meters":14400,"station_id":"ce4bh392rcd13ifvqdm0","pricing_plan_id":"free"},{"bike_id":"3c7135d6-8e27-4cf5-b31e-0cf137a91bb3","system_id":"levelo_inurba_marseille","lat":43.296263,"lon":5.40601,"is_reserved":false,"is_disabled":false,"rental_uris":{"android":"levelo://app?vid=3c7135d6-8e27-4cf5-b31e-0cf137a91bb3","ios":"levelo://app?vid=3c7135d6-8e27-4cf5-b31e-0cf137a91bb3"},"vehicle_type_id":"4","last_reported":1684138162,"current_range_meters":30800,"station_id":"ce4bh0h2rcd13ifvqd60","pricing_plan_id":"free"},{"bike_id":"5b6718ff-375b-4f1a-9625-408d26ef0f7e","system_id":"levelo_inurba_marseille","lat":43.296263,"lon":5.40601,"is_reserved":false,"is_disabled":false,"rental_uris":{"android":"levelo://app?vid=5b6718ff-375b-4f1a-9625-408d26ef0f7e","ios":"levelo://app?vid=5b6718ff-375b-4f1a-9625-408d26ef0f7e"},"vehicle_type_id":"4","last_reported":1684138162,"current_range_meters":800,"station_id":"ce4bh0h2rcd13ifvqd60","pricing_plan_id":"free"},{"bike_id":"15e9b0be-8238-4a86-873c-5344df3f3e58","system_id":"levelo_inurba_marseille","lat":43.284462,"lon":5.392121,"is_reserved":false,"is_disabled":false,"rental_uris":{"android":"levelo://app?vid=15e9b0be-8238-4a86-873c-5344df3f3e58","ios":"levelo://app?vid=15e9b0be-8238-4a86-873c-5344df3f3e58"},"vehicle_type_id":"4","last_reported":1684138162,"current_range_meters":8000,"station_id":"ce4bhoh2rcd13ifvqh5g","pricing_plan_id":"free"},{"bike_id":"8588cc81-a79c-42c4-978b-fbc371da9764","system_id":"levelo_inurba_marseille","lat":43.28573,"lon":5.3949,"is_reserved":false,"is_disabled":false,"rental_uris":{"android":"levelo://app?vid=8588cc81-a79c-42c4-978b-fbc371da9764","ios":"levelo://app?vid=8588cc81-a79c-42c4-978b-fbc371da9764"},"vehicle_type_id":"4","last_reported":1684138162,"current_range_meters":0,"station_id":"ce4bh292rcd13ifvqdg0","pricing_plan_id":"free"},{"bike_id":"fd700dbc-887a-4d4f-9a6c-081298d62d53","system_id":"levelo_inurba_marseille","lat":43.304188,"lon":5.412904,"is_reserved":false,"is_disabled":false,"rental_uris":{"android":"levelo://app?vid=fd700dbc-887a-4d4f-9a6c-081298d62d53","ios":"levelo://app?vid=fd700dbc-887a-4d4f-9a6c-081298d62d53"},"vehicle_type_id":"4","last_reported":1684138162,"current_range_meters":24400,"station_id":"ce4bhop2rcd13ifvqh8g","pricing_plan_id":"free"},{"bike_id":"6bc29ab1-1fc9-467b-8767-f2b290919518","system_id":"levelo_inurba_marseille","lat":43.2809,"lon":5.38641,"is_reserved":false,"is_disabled":false,"rental_uris":{"android":"levelo://app?vid=6bc29ab1-1fc9-467b-8767-f2b290919518","ios":"levelo://app?vid=6bc29ab1-1fc9-467b-8767-f2b290919518"},"vehicle_type_id":"4","last_reported":1684138162,"current_range_meters":16400,"station_id":"","pricing_plan_id":"free"},{"bike_id":"d75dc3fa-2251-4f3d-acdb-6c0be913c493","system_id":"levelo_inurba_marseille","lat":43.27969,"lon":5.38701,"is_reserved":false,"is_disabled":false,"rental_uris":{"android":"levelo://app?vid=d75dc3fa-2251-4f3d-acdb-6c0be913c493","ios":"levelo://app?vid=d75dc3fa-2251-4f3d-acdb-6c0be913c493"},"vehicle_type_id":"4","last_reported":1684138162,"current_range_meters":24000,"station_id":"ce4bhg12rcd13ifvqf80","pricing_plan_id":"free"},{"bike_id":"52fbabae-9e67-4640-a485-e7e13d4eaad3","system_id":"levelo_inurba_marseille","lat":43.27965,"lon":5.3872,"is_reserved":false,"is_disabled":false,"rental_uris":{"android":"levelo://app?vid=52fbabae-9e67-4640-a485-e7e13d4eaad3","ios":"levelo://app?vid=52fbabae-9e67-4640-a485-e7e13d4eaad3"},"vehicle_type_id":"4","last_reported":1684138162,"current_range_meters":31600,"station_id":"","pricing_plan_id":"free"},{"bike_id":"edc2d7e2-c3c2-4d0c-8c06-4f40e2a256ea","system_id":"levelo_inurba_marseille","lat":43.279712,"lon":5.387431,"is_reserved":false,"is_disabled":false,"rental_uris":{"android":"levelo://app?vid=edc2d7e2-c3c2-4d0c-8c06-4f40e2a256ea","ios":"levelo://app?vid=edc2d7e2-c3c2-4d0c-8c06-4f40e2a256ea"},"vehicle_type_id":"4","last_reported":1684138162,"current_range_meters":28000,"station_id":"","pricing_plan_id":"free"},{"bike_id":"2b5f42f9-6736-4dd9-97a1-6c4c26bf8af5","system_id":"levelo_inurba_marseille","lat":43.279742,"lon":5.38744,"is_reserved":false,"is_disabled":false,"rental_uris":{"android":"levelo://app?vid=2b5f42f9-6736-4dd9-97a1-6c4c26bf8af5","ios":"levelo://app?vid=2b5f42f9-6736-4dd9-97a1-6c4c26bf8af5"},"vehicle_type_id":"4","last_reported":1684138162,"current_range_meters":4400,"station_id":"ce4bhg12rcd13ifvqf80","pricing_plan_id":"free"},{"bike_id":"b6934545-bf4a-43df-bfaf-0793b069c5bd","system_id":"levelo_inurba_marseille","lat":43.279742,"lon":5.38744,"is_reserved":false,"is_disabled":false,"rental_uris":{"android":"levelo://app?vid=b6934545-bf4a-43df-bfaf-0793b069c5bd","ios":"levelo://app?vid=b6934545-bf4a-43df-bfaf-0793b069c5bd"},"vehicle_type_id":"4","last_reported":1684138162,"current_range_meters":16800,"station_id":"ce4bhg12rcd13ifvqf80","pricing_plan_id":"free"},{"bike_id":"773d4303-030c-481e-818e-8ce71ffd227e","system_id":"levelo_inurba_marseille","lat":43.279742,"lon":5.38744,"is_reserved":false,"is_disabled":false,"rental_uris":{"android":"levelo://app?vid=773d4303-030c-481e-818e-8ce71ffd227e","ios":"levelo://app?vid=773d4303-030c-481e-818e-8ce71ffd227e"},"vehicle_type_id":"4","last_reported":1684138162,"current_range_meters":18000,"station_id":"ce4bhg12rcd13ifvqf80","pricing_plan_id":"free"},{"bike_id":"42b289c3-b827-49bc-bda8-d44f1df7cf0a","system_id":"levelo_inurba_marseille","lat":43.325233,"lon":5.414318,"is_reserved":false,"is_disabled":false,"rental_uris":{"android":"levelo://app?vid=42b289c3-b827-49bc-bda8-d44f1df7cf0a","ios":"levelo://app?vid=42b289c3-b827-49bc-bda8-d44f1df7cf0a"},"vehicle_type_id":"4","last_reported":1684138162,"current_range_meters":13600,"station_id":"ce4bhq12rcd13ifvqhhg","pricing_plan_id":"free"},{"bike_id":"181a86fb-48ce-41c1-80f0-855608baad69","system_id":"levelo_inurba_marseille","lat":43.325233,"lon":5.414318,"is_reserved":false,"is_disabled":false,"rental_uris":{"android":"levelo://app?vid=181a86fb-48ce-41c1-80f0-855608baad69","ios":"levelo://app?vid=181a86fb-48ce-41c1-80f0-855608baad69"},"vehicle_type_id":"4","last_reported":1684138162,"current_range_meters":17200,"station_id":"ce4bhq12rcd13ifvqhhg","pricing_plan_id":"free"},{"bike_id":"e7be2b56-18a2-46a2-a3ed-42889b7d8c83","system_id":"levelo_inurba_marseille","lat":43.32539,"lon":5.41425,"is_reserved":false,"is_disabled":false,"rental_uris":{"android":"levelo://app?vid=e7be2b56-18a2-46a2-a3ed-42889b7d8c83","ios":"levelo://app?vid=e7be2b56-18a2-46a2-a3ed-42889b7d8c83"},"vehicle_type_id":"4","last_reported":1684138162,"current_range_meters":2800,"station_id":"ce4bhq12rcd13ifvqhhg","pricing_plan_id":"free"},{"bike_id":"015f7b10-9505-409b-86e3-3181adc64d98","system_id":"levelo_inurba_marseille","lat":43.325233,"lon":5.414318,"is_reserved":false,"is_disabled":false,"rental_uris":{"android":"levelo://app?vid=015f7b10-9505-409b-86e3-3181adc64d98","ios":"levelo://app?vid=015f7b10-9505-409b-86e3-3181adc64d98"},"vehicle_type_id":"4","last_reported":1684138162,"current_range_meters":18800,"station_id":"ce4bhq12rcd13ifvqhhg","pricing_plan_id":"free"},{"bike_id":"ba2d1ad9-6dbf-4682-a143-88295599c35b","system_id":"levelo_inurba_marseille","lat":43.27626,"lon":5.36105,"is_reserved":false,"is_disabled":false,"rental_uris":{"android":"levelo://app?vid=ba2d1ad9-6dbf-4682-a143-88295599c35b","ios":"levelo://app?vid=ba2d1ad9-6dbf-4682-a143-88295599c35b"},"vehicle_type_id":"4","last_reported":1684138162,"current_range_meters":31200,"station_id":"ce4bgj92rcd13ifvqbe0","pricing_plan_id":"free"},{"bike_id":"5af5171e-20d5-4bbf-af1c-74b05e6d9e79","system_id":"levelo_inurba_marseille","lat":43.276252,"lon":5.361034,"is_reserved":false,"is_disabled":false,"rental_uris":{"android":"levelo://app?vid=5af5171e-20d5-4bbf-af1c-74b05e6d9e79","ios":"levelo://app?vid=5af5171e-20d5-4bbf-af1c-74b05e6d9e79"},"vehicle_type_id":"4","last_reported":1684138162,"current_range_meters":7200,"station_id":"ce4bgj92rcd13ifvqbe0","pricing_plan_id":"free"},{"bike_id":"e28abb2b-ad42-4e31-b6d9-154de602d51e","system_id":"levelo_inurba_marseille","lat":43.276246,"lon":5.361037,"is_reserved":false,"is_disabled":false,"rental_uris":{"android":"levelo://app?vid=e28abb2b-ad42-4e31-b6d9-154de602d51e","ios":"levelo://app?vid=e28abb2b-ad42-4e31-b6d9-154de602d51e"},"vehicle_type_id":"4","last_reported":1684138162,"current_range_meters":15600,"station_id":"ce4bgj92rcd13ifvqbe0","pricing_plan_id":"free"},{"bike_id":"17af0b71-d59c-4bd3-96c0-d68801548339","system_id":"levelo_inurba_marseille","lat":43.325233,"lon":5.414318,"is_reserved":false,"is_disabled":false,"rental_uris":{"android":"levelo://app?vid=17af0b71-d59c-4bd3-96c0-d68801548339","ios":"levelo://app?vid=17af0b71-d59c-4bd3-96c0-d68801548339"},"vehicle_type_id":"4","last_reported":1684138162,"current_range_meters":31200,"station_id":"ce4bhq12rcd13ifvqhhg","pricing_plan_id":"free"},{"bike_id":"50b03646-e459-47e2-b76f-064e656ff559","system_id":"levelo_inurba_marseille","lat":43.32543,"lon":5.41433,"is_reserved":false,"is_disabled":false,"rental_uris":{"android":"levelo://app?vid=50b03646-e459-47e2-b76f-064e656ff559","ios":"levelo://app?vid=50b03646-e459-47e2-b76f-064e656ff559"},"vehicle_type_id":"4","last_reported":1684138162,"current_range_meters":1200,"station_id":"ce4bhq12rcd13ifvqhhg","pricing_plan_id":"free"},{"bike_id":"ef42593a-33cd-483e-bb2c-52104a39304c","system_id":"levelo_inurba_marseille","lat":43.325233,"lon":5.414318,"is_reserved":false,"is_disabled":false,"rental_uris":{"android":"levelo://app?vid=ef42593a-33cd-483e-bb2c-52104a39304c","ios":"levelo://app?vid=ef42593a-33cd-483e-bb2c-52104a39304c"},"vehicle_type_id":"4","last_reported":1684138162,"current_range_meters":24800,"station_id":"ce4bhq12rcd13ifvqhhg","pricing_plan_id":"free"},{"bike_id":"b93dc929-b67e-40e9-ba28-dbe90b6eafce","system_id":"levelo_inurba_marseille","lat":43.27622,"lon":5.36112,"is_reserved":false,"is_disabled":false,"rental_uris":{"android":"levelo://app?vid=b93dc929-b67e-40e9-ba28-dbe90b6eafce","ios":"levelo://app?vid=b93dc929-b67e-40e9-ba28-dbe90b6eafce"},"vehicle_type_id":"4","last_reported":1684138162,"current_range_meters":31200,"station_id":"ce4bgj92rcd13ifvqbe0","pricing_plan_id":"free"},{"bike_id":"6c044750-ddc3-4cc4-a7a2-e5e3a4f2e574","system_id":"levelo_inurba_marseille","lat":43.276217,"lon":5.36108,"is_reserved":false,"is_disabled":false,"rental_uris":{"android":"levelo://app?vid=6c044750-ddc3-4cc4-a7a2-e5e3a4f2e574","ios":"levelo://app?vid=6c044750-ddc3-4cc4-a7a2-e5e3a4f2e574"},"vehicle_type_id":"4","last_reported":1684138162,"current_range_meters":31200,"station_id":"ce4bgj92rcd13ifvqbe0","pricing_plan_id":"free"},{"bike_id":"db4c06c4-7ebe-4673-b2cb-90f55c7c7db4","system_id":"levelo_inurba_marseille","lat":43.32543,"lon":5.41437,"is_reserved":false,"is_disabled":false,"rental_uris":{"android":"levelo://app?vid=db4c06c4-7ebe-4673-b2cb-90f55c7c7db4","ios":"levelo://app?vid=db4c06c4-7ebe-4673-b2cb-90f55c7c7db4"},"vehicle_type_id":"4","last_reported":1684138162,"current_range_meters":23600,"station_id":"ce4bhq12rcd13ifvqhhg","pricing_plan_id":"free"},{"bike_id":"05eb26c3-08a2-4c3c-be45-e5c2ef419a21","system_id":"levelo_inurba_marseille","lat":43.276207,"lon":5.361065,"is_reserved":false,"is_disabled":false,"rental_uris":{"android":"levelo://app?vid=05eb26c3-08a2-4c3c-be45-e5c2ef419a21","ios":"levelo://app?vid=05eb26c3-08a2-4c3c-be45-e5c2ef419a21"},"vehicle_type_id":"4","last_reported":1684138162,"current_range_meters":31200,"station_id":"ce4bgj92rcd13ifvqbe0","pricing_plan_id":"free"},{"bike_id":"b870d11e-f400-4436-bce6-986714feddec","system_id":"levelo_inurba_marseille","lat":43.276202,"lon":5.361065,"is_reserved":false,"is_disabled":false,"rental_uris":{"android":"levelo://app?vid=b870d11e-f400-4436-bce6-986714feddec","ios":"levelo://app?vid=b870d11e-f400-4436-bce6-986714feddec"},"vehicle_type_id":"4","last_reported":1684138162,"current_range_meters":31200,"station_id":"ce4bgj92rcd13ifvqbe0","pricing_plan_id":"free"},{"bike_id":"be8f29dc-e14c-4d8a-82d8-25863b1af925","system_id":"levelo_inurba_marseille","lat":43.32546,"lon":5.41438,"is_reserved":false,"is_disabled":false,"rental_uris":{"android":"levelo://app?vid=be8f29dc-e14c-4d8a-82d8-25863b1af925","ios":"levelo://app?vid=be8f29dc-e14c-4d8a-82d8-25863b1af925"},"vehicle_type_id":"4","last_reported":1684138162,"current_range_meters":6000,"station_id":"ce4bhq12rcd13ifvqhhg","pricing_plan_id":"free"},