{"last_updated":1753265571,"ttl":60,"version":"2.2","data":{"bikes":[{"bike_id":"93b10926-98d6-476d-97fe-f620baf657e2","system_id":"levelo_inurba_marseille","lat":43.27937,"lon":5.4105,"is_reserved":false,"is_disabled":false,"rental_uris":{"android":"levelo://app?vid=93b10926-98d6-476d-97fe-f620baf657e2","ios":"levelo://app?vid=93b10926-98d6-476d-97fe-f620baf657e2"},"vehicle_type_id":"4","last_reported":1753265571,"current_range_meters":2800,"station_id":"ce4bhnp2rcd13ifvqh0g","pricing_plan_id":"cebpf4jnsgd1na2vs0mg"},{"bike_id":"88282109-afe5-4285-8ab8-2e2400ae19e6","system_id":"levelo_inurba_marseille","lat":43.29497,"lon":5.38179,"is_reserved":false,"is_disabled":false,"rental_uris":{"android":"levelo://app?vid=88282109-afe5-4285-8ab8-2e2400ae19e6","ios":"levelo://app?vid=88282109-afe5-4285-8ab8-2e2400ae19e6"},"vehicle_type_id":"4","last_reported":1753265571,"current_range_meters":3200,"station_id":"","pricing_plan_id":"cebpf4jnsgd1na2vs0mg"},{"bike_id":"374764e9-1483-4c39-a939-2017d46b717a","system_id":"levelo_inurba_marseille","lat":43.28033,"lon":5.35015,"is_reserved":false,"is_disabled":false,"rental_uris":{"android":"levelo://app?vid=374764e9-1483-4c39-a939-2017d46b717a","ios":"levelo://app?vid=374764e9-1483-4c39-a939-2017d46b717a"},"vehicle_type_id":"4","last_reported":1753265571,"current_range_meters":3200,"station_id":"","pricing_plan_id":"cebpf4jnsgd1na2vs0mg"},{"bike_id":"42413a25-16d1-4419-b44a-45580e0c6ac6","system_id":"levelo_inurba_marseille","lat":43.337567,"lon":5.374838,"is_reserved":false,"is_disabled":false,"rental_uris":{"android":"levelo://app?vid=42413a25-16d1-4419-b44a-45580e0c6ac6","ios":"levelo://app?vid=42413a25-16d1-4419-b44a-45580e0c6ac6"},"vehicle_type_id":"4","last_reported":1753265571,"current_range_meters":4000,"station_id":"","pricing_plan_id":"cebpf4jnsgd1na2vs0mg"},{"bike_id":"291026d9-5e70-4457-9891-0439b760e53a","system_id":"levelo_inurba_marseille","lat":43.261995,"lon":5.374452,"is_reserved":false,"is_disabled":false,"rental_uris":{"android":"levelo://app?vid=291026d9-5e70-4457-9891-0439b760e53a","ios":"levelo://app?vid=291026d9-5e70-4457-9891-0439b760e53a"},"vehicle_type_id":"4","last_reported":1753265571,"current_range_meters":4800,"station_id":"ce4bhgp2rcd13ifvqfc0","pricing_plan_id":"cebpf4jnsgd1na2vs0mg"},{"bike_id":"2ad9d163-9da4-42d8-bf6e-567f9b73cfad","system_id":"levelo_inurba_marseille","lat":43.32349,"lon":5.36755,"is_reserved":false,"is_disabled":false,"rental_uris":{"android":"levelo://app?vid=2ad9d163-9da4-42d8-bf6e-567f9b73cfad","ios":"levelo://app?vid=2ad9d163-9da4-42d8-bf6e-567f9b73cfad"},"vehicle_type_id":"4","last_reported":1753265571,"current_range_meters":5600,"station_id":"ce4bhsh2rcd13ifvqi2g","pricing_plan_id":"cebpf4jnsgd1na2vs0mg"},{"bike_id":"0d9104b6-9d30-46e9-ab88-7e3a828c6104","system_id":"levelo_inurba_marseille","lat":43.27072,"lon":5.42271,"is_reserved":false,"is_disabled":false,"rental_uris":{"android":"levelo://app?vid=0d9104b6-9d30-46e9-ab88-7e3a828c6104","ios":"levelo://app?vid=0d9104b6-9d30-46e9-ab88-7e3a828c6104"},"vehicle_type_id":"4","last_reported":1753265571,"current_range_meters":5600,"station_id":"ce4bhk92rcd13ifvqgb0","pricing_plan_id":"cebpf4jnsgd1na2vs0mg"},{"bike_id":"2b451820-cdbc-4155-a854-0b75d719dc0e","system_id":"levelo_inurba_marseille","lat":43.31718,"lon":5.40459,"is_reserved":false,"is_disabled":false,"rental_uris":{"android":"levelo://app?vid=2b451820-cdbc-4155-a854-0b75d719dc0e","ios":"levelo://app?vid=2b451820-cdbc-4155-a854-0b75d719dc0e"},"vehicle_type_id":"4","last_reported":1753265571,"current_range_meters":6000,"station_id":"ce4bh012rcd13ifvqd00","pricing_plan_id":"cebpf4jnsgd1na2vs0mg"},{"bike_id":"64507030-c9df-4d6f-9cfb-3f98a21eb09f","system_id":"levelo_inurba_marseille","lat":43.280359,"lon":5.369394,"is_reserved":false,"is_disabled":false,"rental_uris":{"android":"levelo://app?vid=64507030-c9df-4d6f-9cfb-3f98a21eb09f","ios":"levelo://app?vid=64507030-c9df-4d6f-9cfb-3f98a21eb09f"},"vehicle_type_id":"4","last_reported":1753265571,"current_range_meters":6400,"station_id":"ce4bha12rcd13ifvqef0","pricing_plan_id":"cebpf4jnsgd1na2vs0mg"},{"bike_id":"bbeb59ee-7469-4891-af32-15a7fdc6bd8a","system_id":"levelo_inurba_marseille","lat":43.290405,"lon":5.39966,"is_reserved":false,"is_disabled":false,"rental_uris":{"android":"levelo://app?vid=bbeb59ee-7469-4891-af32-15a7fdc6bd8a","ios":"levelo://app?vid=bbeb59ee-7469-4891-af32-15a7fdc6bd8a"},"vehicle_type_id":"4","last_reported":1753265571,"current_range_meters":6400,"station_id":"ce4bh392rcd13ifvqdm0","pricing_plan_id":"cebpf4jnsgd1na2vs0mg"},{"bike_id":"f386350c-679c-4655-b486-ee009d100abe","system_id":"levelo_inurba_marseille","lat":43.29521,"lon":5.38548,"is_reserved":false,"is_disabled":true,"rental_uris":{"android":"levelo://app?vid=f386350c-679c-4655-b486-ee009d100abe","ios":"levelo://app?vid=f386350c-679c-4655-b486-ee009d100abe"},"vehicle_type_id":"4","last_reported":1753265571,"current_range_meters":6400,"station_id":"ce4bgih2rcd13ifvqba0","pricing_plan_id":"cebpf4jnsgd1na2vs0mg"},{"bike_id":"4cb90d2a-26f5-4679-ac4a-28b9c011f2de","system_id":"levelo_inurba_marseille","lat":43.29627,"lon":5.40595,"is_reserved":false,"is_disabled":false,"rental_uris":{"android":"levelo://app?vid=4cb90d2a-26f5-4679-ac4a-28b9c011f2de","ios":"levelo://app?vid=4cb90d2a-26f5-4679-ac4a-28b9c011f2de"},"vehicle_type_id":"4","last_reported":1753265571,"current_range_meters":6400,"station_id":"ce4bh0h2rcd13ifvqd60","pricing_plan_id":"cebpf4jnsgd1na2vs0mg"},{"bike_id":"51102329-c7ca-45fd-8362-598a7c7fd5fd","system_id":"levelo_inurba_marseille","lat":43.3136,"lon":5.36716,"is_reserved":false,"is_disabled":false,"rental_uris":{"android":"levelo://app?vid=51102329-c7ca-45fd-8362-598a7c7fd5fd","ios":"levelo://app?vid=51102329-c7ca-45fd-8362-598a7c7fd5fd"},"vehicle_type_id":"4","last_reported":1753265571,"current_range_meters":6800,"station_id":"ce4bgr92rcd13ifvqc6g","pricing_plan_id":"cebpf4jnsgd1na2vs0mg"},{"bike_id":"a0f18db6-adff-4e3d-a908-250eed711bbe","system_id":"levelo_inurba_marseille","lat":43.29848,"lon":5.36288,"is_reserved":false,"is_disabled":false,"rental_uris":{"android":"levelo://app?vid=a0f18db6-adff-4e3d-a908-250eed711bbe","ios":"levelo://app?vid=a0f18db6-adff-4e3d-a908-250eed711bbe"},"vehicle_type_id":"4","last_reported":1753265571,"current_range_meters":6800,"station_id":"ce4bgpp2rcd13ifvqc3g","pricing_plan_id":"cebpf4jnsgd1na2vs0mg"},{"bike_id":"7c8673cb-ec04-4783-9b28-49021319ffb8","system_id":"levelo_inurba_marseille","lat":43.21189,"lon":5.35074,"is_reserved":false,"is_disabled":false,"rental_uris":{"android":"levelo://app?vid=7c8673cb-ec04-4783-9b28-49021319ffb8","ios":"levelo://app?vid=7c8673cb-ec04-4783-9b28-49021319ffb8"},"vehicle_type_id":"4","last_reported":1753265571,"current_range_meters":7200,"station_id":"st_cvj6sg6p6f1abm77japg","pricing_plan_id":"cebpf4jnsgd1na2vs0mg"},{"bike_id":"70dd277f-ab1c-4eb1-a21c-8dc4fba5bf54","system_id":"levelo_inurba_marseille","lat":43.23152,"lon":5.43712,"is_reserved":false,"is_disabled":false,"rental_uris":{"android":"levelo://app?vid=70dd277f-ab1c-4eb1-a21c-8dc4fba5bf54","ios":"levelo://app?vid=70dd277f-ab1c-4eb1-a21c-8dc4fba5bf54"},"vehicle_type_id":"4","last_reported":1753265571,"current_range_meters":7200,"station_id":"ce4bhmp2rcd13ifvqgog","pricing_plan_id":"cebpf4jnsgd1na2vs0mg"},{"bike_id":"578a1290-cb58-4490-88af-e004e436d0da","system_id":"levelo_inurba_marseille","lat":43.31486,"lon":5.37294,"is_reserved":false,"is_disabled":false,"rental_uris":{"android":"levelo://app?vid=578a1290-cb58-4490-88af-e004e436d0da","ios":"levelo://app?vid=578a1290-cb58-4490-88af-e004e436d0da"},"vehicle_type_id":"4","last_reported":1753265571,"current_range_meters":7200,"station_id":"ce4bgt12rcd13ifvqcd0","pricing_plan_id":"cebpf4jnsgd1na2vs0mg"},{"bike_id":"1cadf23e-06bf-4da3-adb6-d6a0c876be56","system_id":"levelo_inurba_marseille","lat":43.27936,"lon":5.41054,"is_reserved":false,"is_disabled":false,"rental_uris":{"android":"levelo://app?vid=1cadf23e-06bf-4da3-adb6-d6a0c876be56","ios":"levelo://app?vid=1cadf23e-06bf-4da3-adb6-d6a0c876be56"},"vehicle_type_id":"4","last_reported":1753265571,"current_range_meters":7200,"station_id":"ce4bhnp2rcd13ifvqh0g","pricing_plan_id":"cebpf4jnsgd1na2vs0mg"},{"bike_id":"da7b7d6f-04dc-4745-93d0-71f20d75ee1f","system_id":"levelo_inurba_marseille","lat":43.27175,"lon":5.40996,"is_reserved":false,"is_disabled":false,"rental_uris":{"android":"levelo://app?vid=da7b7d6f-04dc-4745-93d0-71f20d75ee1f","ios":"levelo://app?vid=da7b7d6f-04dc-4745-93d0-71f20d75ee1f"},"vehicle_type_id":"4","last_reported":1753265571,"current_range_meters":7200,"station_id":"ce4bhl12rcd13ifvqgf0","pricing_plan_id":"cebpf4jnsgd1na2vs0mg"},{"bike_id":"a92d24cd-06e4-4692-84f1-79176d853276","system_id":"levelo_inurba_marseille","lat":43.26783,"lon":5.39413,"is_reserved":false,"is_disabled":false,"rental_uris":{"android":"levelo://app?vid=a92d24cd-06e4-4692-84f1-79176d853276","ios":"levelo://app?vid=a92d24cd-06e4-4692-84f1-79176d853276"},"vehicle_type_id":"4","last_reported":1753265571,"current_range_meters":7200,"station_id":"ce4bhh12rcd13ifvqfg0","pricing_plan_id":"cebpf4jnsgd1na2vs0mg"},{"bike_id":"b3936c08-0694-4adc-baca-e05c80978c9a","system_id":"levelo_inurba_marseille","lat":43.26485,"lon":5.3955,"is_reserved":false,"is_disabled":false,"rental_uris":{"android":"levelo://app?vid=b3936c08-0694-4adc-baca-e05c80978c9a","ios":"levelo://app?vid=b3936c08-0694-4adc-baca-e05c80978c9a"},"vehicle_type_id":"4","last_reported":1753265571,"current_range_meters":8000,"station_id":"ce4bhi12rcd13ifvqfq0","pricing_plan_id":"cebpf4jnsgd1na2vs0mg"},{"bike_id":"f3ad7f3f-05ef-4976-a8bd-7743271afd02","system_id":"levelo_inurba_marseille","lat":43.23149,"lon":5.43729,"is_reserved":false,"is_disabled":false,"rental_uris":{"android":"levelo://app?vid=f3ad7f3f-05ef-4976-a8bd-7743271afd02","ios":"levelo://app?vid=f3ad7f3f-05ef-4976-a8bd-7743271afd02"},"vehicle_type_id":"4","last_reported":1753265571,"current_range_meters":8000,"station_id":"ce4bhmp2rcd13ifvqgog","pricing_plan_id":"cebpf4jnsgd1na2vs0mg"},{"bike_id":"83766871-d64f-4fc8-9d3b-2ceaf03b1036","system_id":"levelo_inurba_marseille","lat":43.21188,"lon":5.35061,"is_reserved":false,"is_disabled":false,"rental_uris":{"android":"levelo://app?vid=83766871-d64f-4fc8-9d3b-2ceaf03b1036","ios":"levelo://app?vid=83766871-d64f-4fc8-9d3b-2ceaf03b1036"},"vehicle_type_id":"4","last_reported":1753265571,"current_range_meters":8000,"station_id":"st_cvj6sg6p6f1abm77japg","pricing_plan_id":"cebpf4jnsgd1na2vs0mg"},{"bike_id":"3e031751-f204-425b-9719-e6f2efc72004","system_id":"levelo_inurba_marseille","lat":43.30609,"lon":5.37233,"is_reserved":false,"is_disabled":false,"rental_uris":{"android":"levelo://app?vid=3e031751-f204-425b-9719-e6f2efc72004","ios":"levelo://app?vid=3e031751-f204-425b-9719-e6f2efc72004"},"vehicle_type_id":"4","last_reported":1753265571,"current_range_meters":8000,"station_id":"ce4bgqh2rcd13ifvqc4g","pricing_plan_id":"cebpf4jnsgd1na2vs0mg"},{"bike_id":"3f622cdb-77ba-4269-8d75-328b2246a3a1","system_id":"levelo_inurba_marseille","lat":43.29198,"lon":5.39325,"is_reserved":false,"is_disabled":false,"rental_uris":{"android":"levelo://app?vid=3f622cdb-77ba-4269-8d75-328b2246a3a1","ios":"levelo://app?vid=3f622cdb-77ba-4269-8d75-328b2246a3a1"},"vehicle_type_id":"4","last_reported":1753265571,"current_range_meters":7200,"station_id":"ce4bh192rcd13ifvqdd0","pricing_plan_id":"cebpf4jnsgd1na2vs0mg"},{"bike_id":"b9aacc29-13a6-4afc-80b8-29c60a0f1d7e","system_id":"levelo_inurba_marseille","lat":43.2955,"lon":5.42289,"is_reserved":false,"is_disabled":false,"rental_uris":{"android":"levelo://app?vid=b9aacc29-13a6-4afc-80b8-29c60a0f1d7e","ios":"levelo://app?vid=b9aacc29-13a6-4afc-80b8-29c60a0f1d7e"},"vehicle_type_id":"4","last_reported":1753265571,"current_range_meters":8400,"station_id":"ce4bhph2rcd13ifvqhdg","pricing_plan_id":"cebpf4jnsgd1na2vs0mg"},{"bike_id":"9ae7d50c-a3ea-4136-8080-315c191e000a","system_id":"levelo_inurba_marseille","lat":43.287585,"lon":5.384083,"is_reserved":false,"is_disabled":false,"rental_uris":{"android":"levelo://app?vid=9ae7d50c-a3ea-4136-8080-315c191e000a","ios":"levelo://app?vid=9ae7d50c-a3ea-4136-8080-315c191e000a"},"vehicle_type_id":"4","last_reported":1753265571,"current_range_meters":8800,"station_id":"","pricing_plan_id":"cebpf4jnsgd1na2vs0mg"},{"bike_id":"7d7b2b4b-11f4-4e57-a169-0df7424b14df","system_id":"levelo_inurba_marseille","lat":43.28153,"lon":5.42644,"is_reserved":false,"is_disabled":false,"rental_uris":{"android":"levelo://app?vid=7d7b2b4b-11f4-4e57-a169-0df7424b14df","ios":"levelo://app?vid=7d7b2b4b-11f4-4e57-a169-0df7424b14df"},"vehicle_type_id":"4","last_reported":1753265571,"current_range_meters":9200,"station_id":"ce4bhnh2rcd13ifvqgug","pricing_plan_id":"cebpf4jnsgd1na2vs0mg"},{"bike_id":"5eed9fa5-5444-4e01-9ca6-2f35add3d73a","system_id":"levelo_inurba_marseille","lat":43.30796,"lon":5.38156,"is_reserved":false,"is_disabled":true,"rental_uris":{"android":"levelo://app?vid=5eed9fa5-5444-4e01-9ca6-2f35add3d73a","ios":"levelo://app?vid=5eed9fa5-5444-4e01-9ca6-2f35add3d73a"},"vehicle_type_id":"4","last_reported":1753265571,"current_range_meters":9200,"station_id":"ce4bgt12rcd13ifvqce0","pricing_plan_id":"cebpf4jnsgd1na2vs0mg"},{"bike_id":"81f48beb-cba8-4a10-929a-d7834448108c","system_id":"levelo_inurba_marseille","lat":43.332491,"lon":5.398981,"is_reserved":false,"is_disabled":false,"rental_uris":{"android":"levelo://app?vid=81f48beb-cba8-4a10-929a-d7834448108c","ios":"levelo://app?vid=81f48beb-cba8-4a10-929a-d7834448108c"},"vehicle_type_id":"4","last_reported":1753265571,"current_range_meters":9200,"station_id":"","pricing_plan_id":"cebpf4jnsgd1na2vs0mg"},{"bike_id":"736a259d-42e5-458a-b188-81d9dc5fa867","system_id":"levelo_inurba_marseille","lat":43.31342,"lon":5.36716,"is_reserved":false,"is_disabled":false,"rental_uris":{"android":"levelo://app?vid=736a259d-42e5-458a-b188-81d9dc5fa867","ios":"levelo://app?vid=736a259d-42e5-458a-b188-81d9dc5fa867"},"vehicle_type_id":"4","last_reported":1753265571,"current_range_meters":9600,"station_id":"ce4bgr92rcd13ifvqc6g","pricing_plan_id":"cebpf4jnsgd1na2vs0mg"},{"bike_id":"e4761578-ae86-4dfa-b146-0428e5d8cca7","system_id":"levelo_inurba_marseille","lat":43.24169,"lon":5.36411,"is_reserved":false,"is_disabled":false,"rental_uris":{"android":"levelo://app?vid=e4761578-ae86-4dfa-b146-0428e5d8cca7","ios":"levelo://app?vid=e4761578-ae86-4dfa-b146-0428e5d8cca7"},"vehicle_type_id":"4","last_reported":1753265571,"current_range_meters":9600,"station_id":"cpo36qri1sfpv3e86is0","pricing_plan_id":"cebpf4jnsgd1na2vs0mg"},{"bike_id":"8a8c67ff-0285-441e-afaf-3eac3565f663","system_id":"levelo_inurba_marseille","lat":43.32371,"lon":5.36729,"is_reserved":false,"is_disabled":false,"rental_uris":{"android":"levelo://app?vid=8a8c67ff-0285-441e-afaf-3eac3565f663","ios":"levelo://app?vid=8a8c67ff-0285-441e-afaf-3eac3565f663"},"vehicle_type_id":"4","last_reported":1753265571,"current_range_meters":9600,"station_id":"ce4bhsh2rcd13ifvqi2g","pricing_plan_id":"cebpf4jnsgd1na2vs0mg"},{"bike_id":"a5f1f0d6-c678-45f4-9b29-96eaa29a3e36","system_id":"levelo_inurba_marseille","lat":43.25138,"lon":5.37348,"is_reserved":false,"is_disabled":true,"rental_uris":{"android":"levelo://app?vid=a5f1f0d6-c678-45f4-9b29-96eaa29a3e36","ios":"levelo://app?vid=a5f1f0d6-c678-45f4-9b29-96eaa29a3e36"},"vehicle_type_id":"4","last_reported":1753265571,"current_range_meters":9600,"station_id":"","pricing_plan_id":"cebpf4jnsgd1na2vs0mg"},{"bike_id":"3cef1158-540c-4055-a46b-73e02d1c17f7","system_id":"levelo_inurba_marseille","lat":43.31381,"lon":5.37433,"is_reserved":false,"is_disabled":false,"rental_uris":{"android":"levelo://app?vid=3cef1158-540c-4055-a46b-73e02d1c17f7","ios":"levelo://app?vid=3cef1158-540c-4055-a46b-73e02d1c17f7"},"vehicle_type_id":"4","last_reported":1753265571,"current_range_meters":10000,"station_id":"","pricing_plan_id":"cebpf4jnsgd1na2vs0mg"},{"bike_id":"82ceb4a8-177f-4cad-9325-4446dc1a95ae","system_id":"levelo_inurba_marseille","lat":43.29302,"lon":5.37471,"is_reserved":false,"is_disabled":false,"rental_uris":{"android":"levelo://app?vid=82ceb4a8-177f-4cad-9325-4446dc1a95ae","ios":"levelo://app?vid=82ceb4a8-177f-4cad-9325-4446dc1a95ae"},"vehicle_type_id":"4","last_reported":1753265571,"current_range_meters":10000,"station_id":"ce4bgi12rcd13ifvqb70","pricing_plan_id":"cebpf4jnsgd1na2vs0mg"},{"bike_id":"99aa306a-ef81-4d19-8bbb-673d204cb934","system_id":"levelo_inurba_marseille","lat":43.28408,"lon":5.34986,"is_reserved":false,"is_disabled":false,"rental_uris":{"android":"levelo://app?vid=99aa306a-ef81-4d19-8bbb-673d204cb934","ios":"levelo://app?vid=99aa306a-ef81-4d19-8bbb-673d204cb934"},"vehicle_type_id":"4","last_reported":1753265571,"current_range_meters":10000,"station_id":"ce4bhbh2rcd13ifvqepg","pricing_plan_id":"cebpf4jnsgd1na2vs0mg"},{"bike_id":"29c741f5-4cb9-45d9-a398-c95e390d8223","system_id":"levelo_inurba_marseille","lat":43.27806,"lon":5.40717,"is_reserved":false,"is_disabled":false,"rental_uris":{"android":"levelo://app?vid=29c741f5-4cb9-45d9-a398-c95e390d8223","ios":"levelo://app?vid=29c741f5-4cb9-45d9-a398-c95e390d8223"},"vehicle_type_id":"4","last_reported":1753265571,"current_range_meters":10000,"station_id":"ce4bhnh2rcd13ifvqgtg","pricing_plan_id":"cebpf4jnsgd1na2vs0mg"},{"bike_id":"16100beb-e197-47d5-9edf-547f55d12c2a","system_id":"levelo_inurba_marseille","lat":43.29566,"lon":5.37526,"is_reserved":false,"is_disabled":false,"rental_uris":{"android":"levelo://app?vid=16100beb-e197-47d5-9edf-547f55d12c2a","ios":"levelo://app?vid=16100beb-e197-47d5-9edf-547f55d12c2a"},"vehicle_type_id":"4","last_reported":1753265571,"current_range_meters":10000,"station_id":"ce4bgh92rcd13ifvqb50","pricing_plan_id":"cebpf4jnsgd1na2vs0mg"},{"bike_id":"f24c7691-e8fe-4276-ac5f-1b0628e23069","system_id":"levelo_inurba_marseille","lat":43.282695,"lon":5.35054,"is_reserved":false,"is_disabled":false,"rental_uris":{"android":"levelo://app?vid=f24c7691-e8fe-4276-ac5f-1b0628e23069","ios":"levelo://app?vid=f24c7691-e8fe-4276-ac5f-1b0628e23069"},"vehicle_type_id":"4","last_reported":1753265571,"current_range_meters":10800,"station_id":"ce4bhbp2rcd13ifvqerg","pricing_plan_id":"cebpf4jnsgd1na2vs0mg"},{"bike_id":"3808bbbc-bf71-4de1-97ee-2481d526b56a","system_id":"levelo_inurba_marseille","lat":43.270721,"lon":5.4228,"is_reserved":false,"is_disabled":false,"rental_uris":{"android":"levelo://app?vid=3808bbbc-bf71-4de1-97ee-2481d526b56a","ios":"levelo://app?vid=3808bbbc-bf71-4de1-97ee-2481d526b56a"},"vehicle_type_id":"4","last_reported":1753265571,"current_range_meters":10000,"station_id":"ce4bhk92rcd13ifvqgb0","pricing_plan_id":"cebpf4jnsgd1na2vs0mg"},{"bike_id":"bd638ca3-4382-4199-805e-77ccea6ab161","system_id":"levelo_inurba_marseille","lat":43.30565,"lon":5.36613,"is_reserved":false,"is_disabled":false,"rental_uris":{"android":"levelo://app?vid=bd638ca3-4382-4199-805e-77ccea6ab161","ios":"levelo://app?vid=bd638ca3-4382-4199-805e-77ccea6ab161"},"vehicle_type_id":"4","last_reported":1753265571,"current_range_meters":10800,"station_id":"ce4bgs12rcd13ifvqcag","pricing_plan_id":"cebpf4jnsgd1na2vs0mg"},{"bike_id":"47861ee3-c2fb-4a23-bd66-32fcd0b0ef8f","system_id":"levelo_inurba_marseille","lat":43.30448,"lon":5.37918,"is_reserved":false,"is_disabled":false,"rental_uris":{"android":"levelo://app?vid=47861ee3-c2fb-4a23-bd66-32fcd0b0ef8f","ios":"levelo://app?vid=47861ee3-c2fb-4a23-bd66-32fcd0b0ef8f"},"vehicle_type_id":"4","last_reported":1753265571,"current_range_meters":10800,"station_id":"ce4bgup2rcd13ifvqcn0","pricing_plan_id":"cebpf4jnsgd1na2vs0mg"},{"bike_id":"3c21b9e1-b296-4844-a6d5-b8d19c7f36c9","system_id":"levelo_inurba_marseille","lat":43.2915,"lon":5.38419,"is_reserved":false,"is_disabled":false,"rental_uris":{"android":"levelo://app?vid=3c21b9e1-b296-4844-a6d5-b8d19c7f36c9","ios":"levelo://app?vid=3c21b9e1-b296-4844-a6d5-b8d19c7f36c9"},"vehicle_type_id":"4","last_reported":1753265571,"current_range_meters":10800,"station_id":"","pricing_plan_id":"cebpf4jnsgd1na2vs0mg"},{"bike_id":"5e81f9d8-b827-46c0-adb6-47e33c315495","system_id":"levelo_inurba_marseille","lat":43.29557,"lon":5.37514,"is_reserved":false,"is_disabled":false,"rental_uris":{"android":"levelo://app?vid=5e81f9d8-b827-46c0-adb6-47e33c315495","ios":"levelo://app?vid=5e81f9d8-b827-46c0-adb6-47e33c315495"},"vehicle_type_id":"4","last_reported":1753265571,"current_range_meters":10800,"station_id":"ce4bgh92rcd13ifvqb50","pricing_plan_id":"cebpf4jnsgd1na2vs0mg"},{"bike_id":"aa5097b6-6968-4aec-b711-e7780938924b","system_id":"levelo_inurba_marseille","lat":43.329588,"lon":5.358912,"is_reserved":false,"is_disabled":false,"rental_uris":{"android":"levelo://app?vid=aa5097b6-6968-4aec-b711-e7780938924b","ios":"levelo://app?vid=aa5097b6-6968-4aec-b711-e7780938924b"},"vehicle_type_id":"4","last_reported":1753265571,"current_range_meters":10800,"station_id":"","pricing_plan_id":"cebpf4jnsgd1na2vs0mg"},{"bike_id":"166b2014-cbba-4884-a73f-8f4ac4283046","system_id":"levelo_inurba_marseille","lat":43.28421,"lon":5.3498,"is_reserved":false,"is_disabled":false,"rental_uris":{"android":"levelo://app?vid=166b2014-cbba-4884-a73f-8f4ac4283046","ios":"levelo://app?vid=166b2014-cbba-4884-a73f-8f4ac4283046"},"vehicle_type_id":"4","last_reported":1753265571,"current_range_meters":11200,"station_id":"ce4bhbh2rcd13ifvqepg","pricing_plan_id":"cebpf4jnsgd1na2vs0mg"},{"bike_id":"3b3494bb-05fd-4ccf-bf55-676418ecfa0b","system_id":"levelo_inurba_marseille","lat":43.29258,"lon":5.37628,"is_reserved":false,"is_disabled":false,"rental_uris":{"android":"levelo://app?vid=3b3494bb-05fd-4ccf-bf55-676418ecfa0b","ios":"levelo://app?vid=3b3494bb-05fd-4ccf-bf55-676418ecfa0b"},"vehicle_type_id":"4","last_reported":1753265571,"current_range_meters":11200,"station_id":"ce4bgi12rcd13ifvqb80","pricing_plan_id":"cebpf4jnsgd1na2vs0mg"},{"bike_id":"c9dbd36b-479c-4a5c-b200-3aa7673340d9","system_id":"levelo_inurba_marseille","lat":43.241448,"lon":5.363743,"is_reserved":false,"is_disabled":true,"rental_uris":{"android":"levelo://app?vid=c9dbd36b-479c-4a5c-b200-3aa7673340d9","ios":"levelo://app?vid=c9dbd36b-479c-4a5c-b200-3aa7673340d9"},"vehicle_type_id":"4","last_reported":1753265571,"current_range_meters":11200,"station_id":"","pricing_plan_id":"cebpf4jnsgd1na2vs0mg"},{"bike_id":"b8157e49-d09e-4d5e-90fd-5d667c09b9a5","system_id":"levelo_inurba_marseille","lat":43.29058,"lon":5.3717,"is_reserved":false,"is_disabled":false,"rental_uris":{"android":"levelo://app?vid=b8157e49-d09e-4d5e-90fd-5d667c09b9a5","ios":"levelo://app?vid=b8157e49-d09e-4d5e-90fd-5d667c09b9a5"},"vehicle_type_id":"4","last_reported":1753265571,"current_range_meters":11200,"station_id":"ce4bgh92rcd13ifvqb40","pricing_plan_id":"cebpf4jnsgd1na2vs0mg"},{"bike_id":"1ba7cd8e-7a69-4d00-abba-49c8ec6b4161","system_id":"levelo_inurba_marseille","lat":43.3094,"lon":5.40145,"is_reserved":false,"is_disabled":false,"rental_uris":{"android":"levelo://app?vid=1ba7cd8e-7a69-4d00-abba-49c8ec6b4161","ios":"levelo://app?vid=1ba7cd8e-7a69-4d00-abba-49c8ec6b4161"},"vehicle_type_id":"4","last_reported":1753265571,"current_range_meters":11200,"station_id":"ce4bgvp2rcd13ifvqct0","pricing_plan_id":"cebpf4jnsgd1na2vs0mg"},{"bike_id":"fe50cf1d-fc61-4e48-98f2-ea42037cc2b3","system_id":"levelo_inurba_marseille","lat":43.22954,"lon":5.35356,"is_reserved":false,"is_disabled":false,"rental_uris":{"android":"levelo://app?vid=fe50cf1d-fc61-4e48-98f2-ea42037cc2b3","ios":"levelo://app?vid=fe50cf1d-fc61-4e48-98f2-ea42037cc2b3"},"vehicle_type_id":"4","last_reported":1753265571,"current_range_meters":11200,"station_id":"cpo3532slgdg3j2ikp40","pricing_plan_id":"cebpf4jnsgd1na2vs0mg"},{"bike_id":"8960251f-0d36-4b88-aa7d-f433d3bacb89","system_id":"levelo_inurba_marseille","lat":43.30133,"lon":5.38776,"is_reserved":false,"is_disabled":false,"rental_uris":{"android":"levelo://app?vid=8960251f-0d36-4b88-aa7d-f433d3bacb89","ios":"levelo://app?vid=8960251f-0d36-4b88-aa7d-f433d3bacb89"},"vehicle_type_id":"4","last_reported":1753265571,"current_range_meters":11600,"station_id":"ce4bghh2rcd13ifvqb60","pricing_plan_id":"cebpf4jnsgd1na2vs0mg"},{"bike_id":"c781d235-2c4e-4337-97ca-5d2cff97caf4","system_id":"levelo_inurba_marseille","lat":43.28474,"lon":5.38431,"is_reserved":false,"is_disabled":false,"rental_uris":{"android":"levelo://app?vid=c781d235-2c4e-4337-97ca-5d2cff97caf4","ios":"levelo://app?vid=c781d235-2c4e-4337-97ca-5d2cff97caf4"},"vehicle_type_id":"4","last_reported":1753265571,"current_range_meters":11600,"station_id":"ce4bh512rcd13ifvqe3g","pricing_plan_id":"cebpf4jnsgd1na2vs0mg"},{"bike_id":"e3ef4faa-d730-47b2-abb3-6a73b910941a","system_id":"levelo_inurba_marseille","lat":43.30545,"lon":5.36538,"is_reserved":false,"is_disabled":false,"rental_uris":{"android":"levelo://app?vid=e3ef4faa-d730-47b2-abb3-6a73b910941a","ios":"levelo://app?vid=e3ef4faa-d730-47b2-abb3-6a73b910941a"},"vehicle_type_id":"4","last_reported":1753265571,"current_range_meters":11600,"station_id":"ce4bgs12rcd13ifvqcag","pricing_plan_id":"cebpf4jnsgd1na2vs0mg"},{"bike_id":"e44893bb-5cdf-4921-b4e8-39ee578180a1","system_id":"levelo_inurba_marseille","lat":43.24087,"lon":5.37769,"is_reserved":false,"is_disabled":false,"rental_uris":{"android":"levelo://app?vid=e44893bb-5cdf-4921-b4e8-39ee578180a1","ios":"levelo://app?vid=e44893bb-5cdf-4921-b4e8-39ee578180a1"},"vehicle_type_id":"4","last_reported":1753265571,"current_range_meters":11600,"station_id":"ce4bhnp2rcd13ifvqgvg","pricing_plan_id":"cebpf4jnsgd1na2vs0mg"},{"bike_id":"c4ee3487-c16b-44ca-8298-494c3d643291","system_id":"levelo_inurba_marseille","lat":43.248074,"lon":5.3746,"is_reserved":false,"is_disabled":false,"rental_uris":{"android":"levelo://app?vid=c4ee3487-c16b-44ca-8298-494c3d643291","ios":"levelo://app?vid=c4ee3487-c16b-44ca-8298-494c3d643291"},"vehicle_type_id":"4","last_reported":1753265571,"current_range_meters":12000,"station_id":"ce4bhk92rcd13ifvqgb0","pricing_plan_id":"cebpf4jnsgd1na2vs0mg"},{"bike_id":"4355f60b-bb67-4c5e-a729-7d6782d7e997","system_id":"levelo_inurba_marseille","lat":43.27943,"lon":5.41044,"is_reserved":false,"is_disabled":false,"rental_uris":{"android":"levelo://app?vid=4355f60b-bb67-4c5e-a729-7d6782d7e997","ios":"levelo://app?vid=4355f60b-bb67-4c5e-a729-7d6782d7e997"},"vehicle_type_id":"4","last_reported":1753265571,"current_range_meters":12400,"station_id":"ce4bhnp2rcd13ifvqh0g","pricing_plan_id":"cebpf4jnsgd1na2vs0mg"},{"bike_id":"1e6792f6-e23b-4a70-9f0d-cfc180638578","system_id":"levelo_inurba_marseille","lat":43.27413,"lon":5.39416,"is_reserved":false,"is_disabled":false,"rental_uris":{"android":"levelo://app?vid=1e6792f6-e23b-4a70-9f0d-cfc180638578","ios":"levelo://app?vid=1e6792f6-e23b-4a70-9f0d-cfc180638578"},"vehicle_type_id":"4","last_reported":1753265571,"current_range_meters":12000,"station_id":"ce4bhgp2rcd13ifvqfe0","pricing_plan_id":"cebpf4jnsgd1na2vs0mg"},{"bike_id":"e2f9d9c5-c6be-4619-a31e-8145c4ceec67","system_id":"levelo_inurba_marseille","lat":43.30167,"lon":5.38076,"is_reserved":false,"is_disabled":false,"rental_uris":{"android":"levelo://app?vid=e2f9d9c5-c6be-4619-a31e-8145c4ceec67","ios":"levelo://app?vid=e2f9d9c5-c6be-4619-a31e-8145c4ceec67"},"vehicle_type_id":"4","last_reported":1753265571,"current_range_meters":12400,"station_id":"ce4bgjp2rcd13ifvqbh0","pricing_plan_id":"cebpf4jnsgd1na2vs0mg"},{"bike_id":"0ea7a10a-9a1f-48d6-ba0c-cd300cee1999","system_id":"levelo_inurba_marseille","lat":43.27074,"lon":5.42262,"is_reserved":false,"is_disabled":false,"rental_uris":{"android":"levelo://app?vid=0ea7a10a-9a1f-48d6-ba0c-cd300cee1999","ios":"levelo://app?vid=0ea7a10a-9a1f-48d6-ba0c-cd300cee1999"},"vehicle_type_id":"4","last_reported":1753265571,"current_range_meters":12400,"station_id":"ce4bhk92rcd13ifvqgb0","pricing_plan_id":"cebpf4jnsgd1na2vs0mg"},{"bike_id":"7f63f9a0-7ea4-40f1-844d-1425837a99f2","system_id":"levelo_inurba_marseille","lat":43.29658,"lon":5.38025,"is_reserved":false,"is_disabled":false,"rental_uris":{"android":"levelo://app?vid=7f63f9a0-7ea4-40f1-844d-1425837a99f2","ios":"levelo://app?vid=7f63f9a0-7ea4-40f1-844d-1425837a99f2"},"vehicle_type_id":"4","last_reported":1753265571,"current_range_meters":12800,"station_id":"","pricing_plan_id":"cebpf4jnsgd1na2vs0mg"},{"bike_id":"9a143ed1-a3c7-421c-a22c-84e79d27e230","system_id":"levelo_inurba_marseille","lat":43.28422,"lon":5.34997,"is_reserved":false,"is_disabled":false,"rental_uris":{"android":"levelo://app?vid=9a143ed1-a3c7-421c-a22c-84e79d27e230","ios":"levelo://app?vid=9a143ed1-a3c7-421c-a22c-84e79d27e230"},"vehicle_type_id":"4","last_reported":1753265571,"current_range_meters":12800,"station_id":"ce4bhbh2rcd13ifvqepg","pricing_plan_id":"cebpf4jnsgd1na2vs0mg"},{"bike_id":"56354f0c-2378-4924-bc88-0b30e5ba8ae0","system_id":"levelo_inurba_marseille","lat":43.31351,"lon":5.36721,"is_reserved":false,"is_disabled":false,"rental_uris":{"android":"levelo://app?vid=56354f0c-2378-4924-bc88-0b30e5ba8ae0","ios":"levelo://app?vid=56354f0c-2378-4924-bc88-0b30e5ba8ae0"},"vehicle_type_id":"4","last_reported":1753265571,"current_range_meters":12800,"station_id":"ce4bgr92rcd13ifvqc6g","pricing_plan_id":"cebpf4jnsgd1na2vs0mg"},{"bike_id":"b692ffec-bbac-4f9b-bd1a-8933518c8001","system_id":"levelo_inurba_marseille","lat":43.27703,"lon":5.39955,"is_reserved":false,"is_disabled":false,"rental_uris":{"android":"levelo://app?vid=b692ffec-bbac-4f9b-bd1a-8933518c8001","ios":"levelo://app?vid=b692ffec-bbac-4f9b-bd1a-8933518c8001"},"vehicle_type_id":"4","last_reported":1753265571,"current_range_meters":12800,"station_id":"","pricing_plan_id":"cebpf4jnsgd1na2vs0mg"},{"bike_id":"2474ea6b-360b-4966-8546-322af4cc5978","system_id":"levelo_inurba_marseille","lat":43.29038,"lon":5.40013,"is_reserved":false,"is_disabled":false,"rental_uris":{"android":"levelo://app?vid=2474ea6b-360b-4966-8546-322af4cc5978","ios":"levelo://app?vid=2474ea6b-360b-4966-8546-322af4cc5978"},"vehicle_type_id":"4","last_reported":1753265571,"current_range_meters":12800,"station_id":"ce4bh392rcd13ifvqdm0","pricing_plan_id":"cebpf4jnsgd1na2vs0mg"},{"bike_id":"4d7914c1-dd35-431c-9179-9f5b12907bab","system_id":"levelo_inurba_marseille","lat":43.29305,"lon":5.37462,"is_reserved":false,"is_disabled":false,"rental_uris":{"android":"levelo://app?vid=4d7914c1-dd35-431c-9179-9f5b12907bab","ios":"levelo://app?vid=4d7914c1-dd35-431c-9179-9f5b12907bab"},"vehicle_type_id":"4","last_reported":1753265571,"current_range_meters":12800,"station_id":"ce4bgi12rcd13ifvqb70","pricing_plan_id":"cebpf4jnsgd1na2vs0mg"},{"bike_id":"e4ed7ce2-a223-4e8e-968a-d024369c857c","system_id":"levelo_inurba_marseille","lat":43.2499,"lon":5.38954,"is_reserved":false,"is_disabled":false,"rental_uris":{"android":"levelo://app?vid=e4ed7ce2-a223-4e8e-968a-d024369c857c","ios":"levelo://app?vid=e4ed7ce2-a223-4e8e-968a-d024369c857c"},"vehicle_type_id":"4","last_reported":1753265571,"current_range_meters":13600,"station_id":"ce4bhgp2rcd13ifvqfd0","pricing_plan_id":"cebpf4jnsgd1na2vs0mg"},{"bike_id":"07e7ec69-2e3a-4f54-b2ae-191ac00bd485","system_id":"levelo_inurba_marseille","lat":43.2985,"lon":5.36256,"is_reserved":false,"is_disabled":false,"rental_uris":{"android":"levelo://app?vid=07e7ec69-2e3a-4f54-b2ae-191ac00bd485","ios":"levelo://app?vid=07e7ec69-2e3a-4f54-b2ae-191ac00bd485"},"vehicle_type_id":"4","last_reported":1753265571,"current_range_meters":13600,"station_id":"ce4bgpp2rcd13ifvqc3g","pricing_plan_id":"cebpf4jnsgd1na2vs0mg"},{"bike_id":"1185244c-0a9a-4b65-8324-7eb9f23022cf","system_id":"levelo_inurba_marseille","lat":43.272134,"lon":5.391732,"is_reserved":false,"is_disabled":false,"rental_uris":{"android":"levelo://app?vid=1185244c-0a9a-4b65-8324-7eb9f23022cf","ios":"levelo://app?vid=1185244c-0a9a-4b65-8324-7eb9f23022cf"},"vehicle_type_id":"4","last_reported":1753265571,"current_range_meters":13600,"station_id":"ce4bhhp2rcd13ifvqfm0","pricing_plan_id":"cebpf4jnsgd1na2vs0mg"},{"bike_id":"4470b598-c9b0-4641-a688-8bc80cf9a969","system_id":"levelo_inurba_marseille","lat":43.29065,"lon":5.40182,"is_reserved":false,"is_disabled":false,"rental_uris":{"android":"levelo://app?vid=4470b598-c9b0-4641-a688-8bc80cf9a969","ios":"levelo://app?vid=4470b598-c9b0-4641-a688-8bc80cf9a969"},"vehicle_type_id":"4","last_reported":1753265571,"current_range_meters":13600,"station_id":"","pricing_plan_id":"cebpf4jnsgd1na2vs0mg"},{"bike_id":"cc926983-7496-48df-9677-b8723ddc96b9","system_id":"levelo_inurba_marseille","lat":43.22931,"lon":5.3539,"is_reserved":false,"is_disabled":false,"rental_uris":{"android":"levelo://app?vid=cc926983-7496-48df-9677-b8723ddc96b9","ios":"levelo://app?vid=cc926983-7496-48df-9677-b8723ddc96b9"},"vehicle_type_id":"4","last_reported":1753265571,"current_range_meters":14000,"station_id":"cpo3532slgdg3j2ikp40","pricing_plan_id":"cebpf4jnsgd1na2vs0mg"},{"bike_id":"fb81ee79-6688-4d05-be53-1ac881d0c7b8","system_id":"levelo_inurba_marseille","lat":43.2319,"lon":5.35574,"is_reserved":false,"is_disabled":false,"rental_uris":{"android":"levelo://app?vid=fb81ee79-6688-4d05-be53-1ac881d0c7b8","ios":"levelo://app?vid=fb81ee79-6688-4d05-be53-1ac881d0c7b8"},"vehicle_type_id":"4","last_reported":1753265571,"current_range_meters":14000,"station_id":"ce4bhu92rcd13ifvqi70","pricing_plan_id":"cebpf4jnsgd1na2vs0mg"},{"bike_id":"d3157127-69a0-4870-88d3-20cbc57cba00","system_id":"levelo_inurba_marseille","lat":43.29097,"lon":5.38135,"is_reserved":false,"is_disabled":false,"rental_uris":{"android":"levelo://app?vid=d3157127-69a0-4870-88d3-20cbc57cba00","ios":"levelo://app?vid=d3157127-69a0-4870-88d3-20cbc57cba00"},"vehicle_type_id":"4","last_reported":1753265571,"current_range_meters":14000,"station_id":"ce4bh512rcd13ifvqe2g","pricing_plan_id":"cebpf4jnsgd1na2vs0mg"},{"bike_id":"db4f7d16-4447-4752-b9fa-314b60a317e8","system_id":"levelo_inurba_marseille","lat":43.29893,"lon":5.37937,"is_reserved":false,"is_disabled":false,"rental_uris":{"android":"levelo://app?vid=db4f7d16-4447-4752-b9fa-314b60a317e8","ios":"levelo://app?vid=db4f7d16-4447-4752-b9fa-314b60a317e8"},"vehicle_type_id":"4","last_reported":1753265571,"current_range_meters":14000,"station_id":"","pricing_plan_id":"cebpf4jnsgd1na2vs0mg"},{"bike_id":"fe07410f-2ac3-4d42-a644-c798c7a25a84","system_id":"levelo_inurba_marseille","lat":43.26571,"lon":5.372879,"is_reserved":false,"is_disabled":false,"rental_uris":{"android":"levelo://app?vid=fe07410f-2ac3-4d42-a644-c798c7a25a84","ios":"levelo://app?vid=fe07410f-2ac3-4d42-a644-c798c7a25a84"},"vehicle_type_id":"4","last_reported":1753265571,"current_range_meters":14000,"station_id":"","pricing_plan_id":"cebpf4jnsgd1na2vs0mg"},{"bike_id":"4f07190e-caac-415f-b780-172edb0f66b7","system_id":"levelo_inurba_marseille","lat":43.31237,"lon":5.36838,"is_reserved":false,"is_disabled":false,"rental_uris":{"android":"levelo://app?vid=4f07190e-caac-415f-b780-172edb0f66b7","ios":"levelo://app?vid=4f07190e-caac-415f-b780-172edb0f66b7"},"vehicle_type_id":"4","last_reported":1753265571,"current_range_meters":14000,"station_id":"ce4bgl92rcd13ifvqbq0","pricing_plan_id":"cebpf4jnsgd1na2vs0mg"},{"bike_id":"9b394a06-77f6-47b8-918c-c000038e29f2","system_id":"levelo_inurba_marseille","lat":43.23156,"lon":5.43702,"is_reserved":false,"is_disabled":false,"rental_uris":{"android":"levelo://app?vid=9b394a06-77f6-47b8-918c-c000038e29f2","ios":"levelo://app?vid=9b394a06-77f6-47b8-918c-c000038e29f2"},"vehicle_type_id":"4","last_reported":1753265571,"current_range_meters":14400,"station_id":"ce4bhmp2rcd13ifvqgog","pricing_plan_id":"cebpf4jnsgd1na2vs0mg"},{"bike_id":"baeaa38b-45d8-4c0a-9232-d96056c034e4","system_id":"levelo_inurba_marseille","lat":43.29562,"lon":5.37519,"is_reserved":false,"is_disabled":false,"rental_uris":{"android":"levelo://app?vid=baeaa38b-45d8-4c0a-9232-d96056c034e4","ios":"levelo://app?vid=baeaa38b-45d8-4c0a-9232-d96056c034e4"},"vehicle_type_id":"4","last_reported":1753265571,"current_range_meters":14400,"station_id":"ce4bgh92rcd13ifvqb50","pricing_plan_id":"cebpf4jnsgd1na2vs0mg"},{"bike_id":"ea731c2a-e1c3-44a2-becb-45da31f72b6f","system_id":"levelo_inurba_marseille","lat":43.31363,"lon":5.36722,"is_reserved":false,"is_disabled":false,"rental_uris":{"android":"levelo://app?vid=ea731c2a-e1c3-44a2-becb-45da31f72b6f","ios":"levelo://app?vid=ea731c2a-e1c3-44a2-becb-45da31f72b6f"},"vehicle_type_id":"4","last_reported":1753265571,"current_range_meters":14800,"station_id":"ce4bgr92rcd13ifvqc6g","pricing_plan_id":"cebpf4jnsgd1na2vs0mg"},{"bike_id":"bd4053fb-a507-47f8-b050-a61dab05872e","system_id":"levelo_inurba_marseille","lat":43.25577,"lon":5.38243,"is_reserved":false,"is_disabled":false,"rental_uris":{"android":"levelo://app?vid=bd4053fb-a507-47f8-b050-a61dab05872e","ios":"levelo://app?vid=bd4053fb-a507-47f8-b050-a61dab05872e"},"vehicle_type_id":"4","last_reported":1753265571,"current_range_meters":14800,"station_id":"ce4bhih2rcd13ifvqfs0","pricing_plan_id":"cebpf4jnsgd1na2vs0mg"},{"bike_id":"bbc2b271-396f-4875-9f1d-0fcc163d87b6","system_id":"levelo_inurba_marseille","lat":43.29051,"lon":5.399344,"is_reserved":false,"is_disabled":false,"rental_uris":{"android":"levelo://app?vid=bbc2b271-396f-4875-9f1d-0fcc163d87b6","ios":"levelo://app?vid=bbc2b271-396f-4875-9f1d-0fcc163d87b6"},"vehicle_type_id":"4","last_reported":1753265571,"current_range_meters":14800,"station_id":"ce4bh392rcd13ifvqdm0","pricing_plan_id":"cebpf4jnsgd1na2vs0mg"},{"bike_id":"9b5baf63-d843-4090-808c-7461a839e99a","system_id":"levelo_inurba_marseille","lat":43.23197,"lon":5.35577,"is_reserved":false,"is_disabled":false,"rental_uris":{"android":"levelo://app?vid=9b5baf63-d843-4090-808c-7461a839e99a","ios":"levelo://app?vid=9b5baf63-d843-4090-808c-7461a839e99a"},"vehicle_type_id":"4","last_reported":1753265571,"current_range_meters":14800,"station_id":"ce4bhu92rcd13ifvqi70","pricing_plan_id":"cebpf4jnsgd1na2vs0mg"},{"bike_id":"3754dc81-55ff-4f0a-a645-505427e326c9","system_id":"levelo_inurba_marseille","lat":43.30319,"lon":5.38618,"is_reserved":false,"is_disabled":false,"rental_uris":{"android":"levelo://app?vid=3754dc81-55ff-4f0a-a645-505427e326c9","ios":"levelo://app?vid=3754dc81-55ff-4f0a-a645-505427e326c9"},"vehicle_type_id":"4","last_reported":1753265571,"current_range_meters":15200,"station_id":"ce4bgip2rcd13ifvqbb0","pricing_plan_id":"cebpf4jnsgd1na2vs0mg"},{"bike_id":"e3a9e6d1-788b-4774-babe-289560a0bee7","system_id":"levelo_inurba_marseille","lat":43.29971,"lon":5.37426,"is_reserved":false,"is_disabled":false,"rental_uris":{"android":"levelo://app?vid=e3a9e6d1-788b-4774-babe-289560a0bee7","ios":"levelo://app?vid=e3a9e6d1-788b-4774-babe-289560a0bee7"},"vehicle_type_id":"4","last_reported":1753265571,"current_range_meters":15200,"station_id":"","pricing_plan_id":"cebpf4jnsgd1na2vs0mg"},{"bike_id":"d509b331-e799-4503-90e7-40b1e687c26f","system_id":"levelo_inurba_marseille","lat":43.28607,"lon":5.37083,"is_reserved":false,"is_disabled":true,"rental_uris":{"android":"levelo://app?vid=d509b331-e799-4503-90e7-40b1e687c26f","ios":"levelo://app?vid=d509b331-e799-4503-90e7-40b1e687c26f"},"vehicle_type_id":"4","last_reported":1753265571,"current_range_meters":15200,"station_id":"ce4bht12rcd13ifvqi60","pricing_plan_id":"cebpf4jnsgd1na2vs0mg"},{"bike_id":"447cebff-3145-45a6-8e32-4e3504be28dd","system_id":"levelo_inurba_marseille","lat":43.28409,"lon":5.34989,"is_reserved":false,"is_disabled":false,"rental_uris":{"android":"levelo://app?vid=447cebff-3145-45a6-8e32-4e3504be28dd","ios":"levelo://app?vid=447cebff-3145-45a6-8e32-4e3504be28dd"},"vehicle_type_id":"4","last_reported":1753265571,"current_range_meters":15200,"station_id":"ce4bhbh2rcd13ifvqepg","pricing_plan_id":"cebpf4jnsgd1na2vs0mg"},{"bike_id":"bfd7e908-297b-4fb3-954a-c8cd06553c6a","system_id":"levelo_inurba_marseille","lat":43.309152,"lon":5.368455,"is_reserved":false,"is_disabled":false,"rental_uris":{"android":"levelo://app?vid=bfd7e908-297b-4fb3-954a-c8cd06553c6a","ios":"levelo://app?vid=bfd7e908-297b-4fb3-954a-c8cd06553c6a"},"vehicle_type_id":"4","last_reported":1753265571,"current_range_meters":15200,"station_id":"ce4bgn92rcd13ifvqbvg","pricing_plan_id":"cebpf4jnsgd1na2vs0mg"},{"bike_id":"0c5ecf2e-9b65-44cc-a240-da39f3359f19","system_id":"levelo_inurba_marseille","lat":43.29299,"lon":5.37461,"is_reserved":false,"is_disabled":false,"rental_uris":{"android":"levelo://app?vid=0c5ecf2e-9b65-44cc-a240-da39f3359f19","ios":"levelo://app?vid=0c5ecf2e-9b65-44cc-a240-da39f3359f19"},"vehicle_type_id":"4","last_reported":1753265571,"current_range_meters":15200,"station_id":"ce4bgi12rcd13ifvqb70","pricing_plan_id":"cebpf4jnsgd1na2vs0mg"},{"bike_id":"b147d87d-ad6b-4ee0-89e1-f2e85a2edd30","system_id":"levelo_inurba_marseille","lat":43.32105,"lon":5.36794,"is_reserved":false,"is_disabled":false,"rental_uris":{"android":"levelo://app?vid=b147d87d-ad6b-4ee0-89e1-f2e85a2edd30","ios":"levelo://app?vid=b147d87d-ad6b-4ee0-89e1-f2e85a2edd30"},"vehicle_type_id":"4","last_reported":1753265571,"current_range_meters":15200,"station_id":"ce4bhrh2rcd13ifvqhug","pricing_plan_id":"cebpf4jnsgd1na2vs0mg"},{"bike_id":"cef7c436-6927-42e9-aa9f-de28d427e1f2","system_id":"levelo_inurba_marseille","lat":43.250042,"lon":5.389464,"is_reserved":false,"is_disabled":false,"rental_uris":{"android":"levelo://app?vid=cef7c436-6927-42e9-aa9f-de28d427e1f2","ios":"levelo://app?vid=cef7c436-6927-42e9-aa9f-de28d427e1f2"},"vehicle_type_id":"4","last_reported":1753265571,"current_range_meters":16000,"station_id":"ce4bhgp2rcd13ifvqfd0","pricing_plan_id":"cebpf4jnsgd1na2vs0mg"},{"bike_id":"6d6c8df7-00e5-48f4-9f91-d2d6d4cdb8e0","system_id":"levelo_inurba_marseille","lat":43.273793,"lon":5.362616,"is_reserved":false,"is_disabled":false,"rental_uris":{"android":"levelo://app?vid=6d6c8df7-00e5-48f4-9f91-d2d6d4cdb8e0","ios":"levelo://app?vid=6d6c8df7-00e5-48f4-9f91-d2d6d4cdb8e0"},"vehicle_type_id":"4","last_reported":1753265571,"current_range_meters":16000,"station_id":"ce4bhbh2rcd13ifvqeo0","pricing_plan_id":"cebpf4jnsgd1na2vs0mg"},{"bike_id":"03cc02f4-f3bc-4a57-b2c3-3381e124a3e3","system_id":"levelo_inurba_marseille","lat":43.31241,"lon":5.3679,"is_reserved":false,"is_disabled":false,"rental_uris":{"android":"levelo://app?vid=03cc02f4-f3bc-4a57-b2c3-3381e124a3e3","ios":"levelo://app?vid=03cc02f4-f3bc-4a57-b2c3-3381e124a3e3"},"vehicle_type_id":"4","last_reported":1753265571,"current_range_meters":37600,"station_id":"ce4bgl92rcd13ifvqbq0","pricing_plan_id":"cebpf4jnsgd1na2vs0mg"},{"bike_id":"4ab27091-1662-4811-87b9-a886b076324d","system_id":"levelo_inurba_marseille","lat":43.32479,"lon":5.36562,"is_reserved":false,"is_disabled":false,"rental_uris":{"android":"levelo://app?vid=4ab27091-1662-4811-87b9-a886b076324d","ios":"levelo://app?vid=4ab27091-1662-4811-87b9-a886b076324d"},"vehicle_type_id":"4","last_reported":1753265571,"current_range_meters":16000,"station_id":"ce4bhs12rcd13ifvqhvg","pricing_plan_id":"cebpf4jnsgd1na2vs0mg"},{"bike_id":"add9499e-5500-47a8-81a2-1576bf87a6d6","system_id":"levelo_inurba_marseille","lat":43.26679,"lon":5.38283,"is_reserved":false,"is_disabled":false,"rental_uris":{"android":"levelo://app?vid=add9499e-5500-47a8-81a2-1576bf87a6d6","ios":"levelo://app?vid=add9499e-5500-47a8-81a2-1576bf87a6d6"},"vehicle_type_id":"4","last_reported":1753265571,"current_range_meters":16000,"station_id":"ce4bhg92rcd13ifvqf90","pricing_plan_id":"cebpf4jnsgd1na2vs0mg"},{"bike_id":"820f7ded-a613-42b4-8c0a-617cf52f5647","system_id":"levelo_inurba_marseille","lat":43.30879,"lon":5.37211,"is_reserved":false,"is_disabled":false,"rental_uris":{"android":"levelo://app?vid=820f7ded-a613-42b4-8c0a-617cf52f5647","ios":"levelo://app?vid=820f7ded-a613-42b4-8c0a-617cf52f5647"},"vehicle_type_id":"4","last_reported":1753265571,"current_range_meters":16000,"station_id":"ce4bguh2rcd13ifvqckg","pricing_plan_id":"cebpf4jnsgd1na2vs0mg"},{"bike_id":"541e3f7a-640b-4d8c-977d-949ca2a087ab","system_id":"levelo_inurba_marseille","lat":43.30796,"lon":5.379577,"is_reserved":false,"is_disabled":true,"rental_uris":{"android":"levelo://app?vid=541e3f7a-640b-4d8c-977d-949ca2a087ab","ios":"levelo://app?vid=541e3f7a-640b-4d8c-977d-949ca2a087ab"},"vehicle_type_id":"4","last_reported":1753265571,"current_range_meters":16000,"station_id":"ce4bgt12rcd13ifvqce0","pricing_plan_id":"cebpf4jnsgd1na2vs0mg"},{"bike_id":"fedc9b46-f587-4e6b-b1ec-5adbe36a6c96","system_id":"levelo_inurba_marseille","lat":43.259255,"lon":5.409071,"is_reserved":false,"is_disabled":false,"rental_uris":{"android":"levelo://app?vid=fedc9b46-f587-4e6b-b1ec-5adbe36a6c96","ios":"levelo://app?vid=fedc9b46-f587-4e6b-b1ec-5adbe36a6c96"},"vehicle_type_id":"4","last_reported":1753265571,"current_range_meters":16000,"station_id":"ce4bhm92rcd13ifvqglg","pricing_plan_id":"cebpf4jnsgd1na2vs0mg"},{"bike_id":"2704fd55-0669-4cd3-a002-e3ba2e827fa5","system_id":"levelo_inurba_marseille","lat":43.29847,"lon":5.36271,"is_reserved":false,"is_disabled":false,"rental_uris":{"android":"levelo://app?vid=2704fd55-0669-4cd3-a002-e3ba2e827fa5","ios":"levelo://app?vid=2704fd55-0669-4cd3-a002-e3ba2e827fa5"},"vehicle_type_id":"4","last_reported":1753265571,"current_range_meters":16400,"station_id":"ce4bgpp2rcd13ifvqc3g","pricing_plan_id":"cebpf4jnsgd1na2vs0mg"},{"bike_id":"f9c9ff83-8548-4acb-a33b-495af4adeef4","system_id":"levelo_inurba_marseille","lat":43.32361,"lon":5.36775,"is_reserved":false,"is_disabled":false,"rental_uris":{"android":"levelo://app?vid=f9c9ff83-8548-4acb-a33b-495af4adeef4","ios":"levelo://app?vid=f9c9ff83-8548-4acb-a33b-495af4adeef4"},"vehicle_type_id":"4","last_reported":1753265571,"current_range_meters":16400,"station_id":"ce4bhsh2rcd13ifvqi2g","pricing_plan_id":"cebpf4jnsgd1na2vs0mg"},{"bike_id":"15764a2d-4dc5-45e2-a0da-be3a32d790d4","system_id":"levelo_inurba_marseille","lat":43.323397,"lon":5.40638,"is_reserved":false,"is_disabled":false,"rental_uris":{"android":"levelo://app?vid=15764a2d-4dc5-45e2-a0da-be3a32d790d4","ios":"levelo://app?vid=15764a2d-4dc5-45e2-a0da-be3a32d790d4"},"vehicle_type_id":"4","last_reported":1753265571,"current_range_meters":16400,"station_id":"ce4bhq92rcd13ifvqhjg","pricing_plan_id":"cebpf4jnsgd1na2vs0mg"},{"bike_id":"0579eba6-87e7-46c4-8fda-81c1082b21fe","system_id":"levelo_inurba_marseille","lat":43.292739,"lon":5.368476,"is_reserved":false,"is_disabled":false,"rental_uris":{"android":"levelo://app?vid=0579eba6-87e7-46c4-8fda-81c1082b21fe","ios":"levelo://app?vid=0579eba6-87e7-46c4-8fda-81c1082b21fe"},"vehicle_type_id":"4","last_reported":1753265571,"current_range_meters":16400,"station_id":"ce4bhbp2rcd13ifvqesg","pricing_plan_id":"cebpf4jnsgd1na2vs0mg"},{"bike_id":"6ba8bf23-faf4-4e7f-a0da-6f0984da5df1","system_id":"levelo_inurba_marseille","lat":43.26208,"lon":5.37444,"is_reserved":false,"is_disabled":false,"rental_uris":{"android":"levelo://app?vid=6ba8bf23-faf4-4e7f-a0da-6f0984da5df1","ios":"levelo://app?vid=6ba8bf23-faf4-4e7f-a0da-6f0984da5df1"},"vehicle_type_id":"4","last_reported":1753265571,"current_range_meters":16400,"station_id":"ce4bhgp2rcd13ifvqfc0","pricing_plan_id":"cebpf4jnsgd1na2vs0mg"},{"bike_id":"f3217e35-0bb5-43ab-beb0-dd5e233a7114","system_id":"levelo_inurba_marseille","lat":43.25575,"lon":5.38241,"is_reserved":false,"is_disabled":false,"rental_uris":{"android":"levelo://app?vid=f3217e35-0bb5-43ab-beb0-dd5e233a7114","ios":"levelo://app?vid=f3217e35-0bb5-43ab-beb0-dd5e233a7114"},"vehicle_type_id":"4","last_reported":1753265571,"current_range_meters":16800,"station_id":"ce4bhih2rcd13ifvqfs0","pricing_plan_id":"cebpf4jnsgd1na2vs0mg"},{"bike_id":"b5ce8d93-17c0-45a5-b2b1-eefce45c2d79","system_id":"levelo_inurba_marseille","lat":43.31817,"lon":5.43528,"is_reserved":false,"is_disabled":false,"rental_uris":{"android":"levelo://app?vid=b5ce8d93-17c0-45a5-b2b1-eefce45c2d79","ios":"levelo://app?vid=b5ce8d93-17c0-45a5-b2b1-eefce45c2d79"},"vehicle_type_id":"4","last_reported":1753265571,"current_range_meters":16800,"station_id":"","pricing_plan_id":"cebpf4jnsgd1na2vs0mg"},{"bike_id":"82ac67a4-f160-4183-8787-791e1e658c64","system_id":"levelo_inurba_marseille","lat":43.29256,"lon":5.37637,"is_reserved":false,"is_disabled":false,"rental_uris":{"android":"levelo://app?vid=82ac67a4-f160-4183-8787-791e1e658c64","ios":"levelo://app?vid=82ac67a4-f160-4183-8787-791e1e658c64"},"vehicle_type_id":"4","last_reported":1753265571,"current_range_meters":16800,"station_id":"ce4bgi12rcd13ifvqb80","pricing_plan_id":"cebpf4jnsgd1na2vs0mg"},{"bike_id":"a0de01aa-cd68-4a4d-8bab-65fa167b8610","system_id":"levelo_inurba_marseille","lat":43.23184,"lon":5.35562,"is_reserved":false,"is_disabled":false,"rental_uris":{"android":"levelo://app?vid=a0de01aa-cd68-4a4d-8bab-65fa167b8610","ios":"levelo://app?vid=a0de01aa-cd68-4a4d-8bab-65fa167b8610"},"vehicle_type_id":"4","last_reported":1753265571,"current_range_meters":16800,"station_id":"ce4bhu92rcd13ifvqi70","pricing_plan_id":"cebpf4jnsgd1na2vs0mg"},{"bike_id":"e8404a02-06ac-4381-bbb2-1247e5f5c9f1","system_id":"levelo_inurba_marseille","lat":43.25937,"lon":5.40903,"is_reserved":false,"is_disabled":false,"rental_uris":{"android":"levelo://app?vid=e8404a02-06ac-4381-bbb2-1247e5f5c9f1","ios":"levelo://app?vid=e8404a02-06ac-4381-bbb2-1247e5f5c9f1"},"vehicle_type_id":"4","last_reported":1753265571,"current_range_meters":16800,"station_id":"ce4bhm92rcd13ifvqglg","pricing_plan_id":"cebpf4jnsgd1na2vs0mg"},{"bike_id":"147a0eef-0188-4a48-86c4-7567351f8d73","system_id":"levelo_inurba_marseille","lat":43.29296,"lon":5.37462,"is_reserved":false,"is_disabled":false,"rental_uris":{"android":"levelo://app?vid=147a0eef-0188-4a48-86c4-7567351f8d73","ios":"levelo://app?vid=147a0eef-0188-4a48-86c4-7567351f8d73"},"vehicle_type_id":"4","last_reported":1753265571,"current_range_meters":16800,"station_id":"ce4bgi12rcd13ifvqb70","pricing_plan_id":"cebpf4jnsgd1na2vs0mg"},{"bike_id":"9ce312f1-cb07-4159-91d6-c11a68a5ee71","system_id":"levelo_inurba_marseille","lat":43.21188,"lon":5.35083,"is_reserved":false,"is_disabled":false,"rental_uris":{"android":"levelo://app?vid=9ce312f1-cb07-4159-91d6-c11a68a5ee71","ios":"levelo://app?vid=9ce312f1-cb07-4159-91d6-c11a68a5ee71"},"vehicle_type_id":"4","last_reported":1753265571,"current_range_meters":16800,"station_id":"st_cvj6sg6p6f1abm77japg","pricing_plan_id":"cebpf4jnsgd1na2vs0mg"},{"bike_id":"4117a8ac-d74f-4dbc-849b-ae08c8cbf878","system_id":"levelo_inurba_marseille","lat":43.30171,"lon":5.38074,"is_reserved":false,"is_disabled":false,"rental_uris":{"android":"levelo://app?vid=4117a8ac-d74f-4dbc-849b-ae08c8cbf878","ios":"levelo://app?vid=4117a8ac-d74f-4dbc-849b-ae08c8cbf878"},"vehicle_type_id":"4","last_reported":1753265571,"current_range_meters":16800,"station_id":"ce4bgjp2rcd13ifvqbh0","pricing_plan_id":"cebpf4jnsgd1na2vs0mg"},{"bike_id":"ad88a7b3-e0b1-4e08-ab7d-28d2c2d92c18","system_id":"levelo_inurba_marseille","lat":43.30531,"lon":5.36711,"is_reserved":false,"is_disabled":false,"rental_uris":{"android":"levelo://app?vid=ad88a7b3-e0b1-4e08-ab7d-28d2c2d92c18","ios":"levelo://app?vid=ad88a7b3-e0b1-4e08-ab7d-28d2c2d92c18"},"vehicle_type_id":"4","last_reported":1753265571,"current_range_meters":17200,"station_id":"ce4bgrp2rcd13ifvqc9g","pricing_plan_id":"cebpf4jnsgd1na2vs0mg"},{"bike_id":"9e7bef7c-53f8-4848-95ce-ebad9a02dd2f","system_id":"levelo_inurba_marseille","lat":43.25843,"lon":5.3988,"is_reserved":false,"is_disabled":false,"rental_uris":{"android":"levelo://app?vid=9e7bef7c-53f8-4848-95ce-ebad9a02dd2f","ios":"levelo://app?vid=9e7bef7c-53f8-4848-95ce-ebad9a02dd2f"},"vehicle_type_id":"4","last_reported":1753265571,"current_range_meters":17200,"station_id":"ce4bhl92rcd13ifvqghg","pricing_plan_id":"cebpf4jnsgd1na2vs0mg"},{"bike_id":"cbb79036-d706-4346-9421-a3a0bc47c5ac","system_id":"levelo_inurba_marseille","lat":43.31072,"lon":5.38355,"is_reserved":false,"is_disabled":false,"rental_uris":{"android":"levelo://app?vid=cbb79036-d706-4346-9421-a3a0bc47c5ac","ios":"levelo://app?vid=cbb79036-d706-4346-9421-a3a0bc47c5ac"},"vehicle_type_id":"4","last_reported":1753265571,"current_range_meters":17200,"station_id":"ce4bgv92rcd13ifvqcr0","pricing_plan_id":"cebpf4jnsgd1na2vs0mg"},{"bike_id":"7e7f0fe1-be26-4471-8257-922dbc407504","system_id":"levelo_inurba_marseille","lat":43.26558,"lon":5.373,"is_reserved":false,"is_disabled":false,"rental_uris":{"android":"levelo://app?vid=7e7f0fe1-be26-4471-8257-922dbc407504","ios":"levelo://app?vid=7e7f0fe1-be26-4471-8257-922dbc407504"},"vehicle_type_id":"4","last_reported":1753265571,"current_range_meters":17600,"station_id":"ce4bhg12rcd13ifvqf70","pricing_plan_id":"cebpf4jnsgd1na2vs0mg"},{"bike_id":"f493a3a9-7f6b-470e-bce7-7019418af039","system_id":"levelo_inurba_marseille","lat":43.279028,"lon":5.380048,"is_reserved":false,"is_disabled":false,"rental_uris":{"android":"levelo://app?vid=f493a3a9-7f6b-470e-bce7-7019418af039","ios":"levelo://app?vid=f493a3a9-7f6b-470e-bce7-7019418af039"},"vehicle_type_id":"4","last_reported":1753265571,"current_range_meters":17600,"station_id":"ce4bhf92rcd13ifvqf50","pricing_plan_id":"cebpf4jnsgd1na2vs0mg"},{"bike_id":"02e21f1f-2973-461c-b579-e3c69785aa09","system_id":"levelo_inurba_marseille","lat":43.30531,"lon":5.36717,"is_reserved":false,"is_disabled":false,"rental_uris":{"android":"levelo://app?vid=02e21f1f-2973-461c-b579-e3c69785aa09","ios":"levelo://app?vid=02e21f1f-2973-461c-b579-e3c69785aa09"},"vehicle_type_id":"4","last_reported":1753265571,"current_range_meters":17600,"station_id":"ce4bgrp2rcd13ifvqc9g","pricing_plan_id":"cebpf4jnsgd1na2vs0mg"},{"bike_id":"0a7e2862-d8ec-4c77-89d9-cfcdd51f8d75","system_id":"levelo_inurba_marseille","lat":43.31481,"lon":5.37302,"is_reserved":false,"is_disabled":false,"rental_uris":{"android":"levelo://app?vid=0a7e2862-d8ec-4c77-89d9-cfcdd51f8d75","ios":"levelo://app?vid=0a7e2862-d8ec-4c77-89d9-cfcdd51f8d75"},"vehicle_type_id":"4","last_reported":1753265571,"current_range_meters":17600,"station_id":"ce4bgt12rcd13ifvqcd0","pricing_plan_id":"cebpf4jnsgd1na2vs0mg"},{"bike_id":"64135585-4d0e-4628-ba93-734f6a1bd1b8","system_id":"levelo_inurba_marseille","lat":43.250443,"lon":5.396103,"is_reserved":false,"is_disabled":false,"rental_uris":{"android":"levelo://app?vid=64135585-4d0e-4628-ba93-734f6a1bd1b8","ios":"levelo://app?vid=64135585-4d0e-4628-ba93-734f6a1bd1b8"},"vehicle_type_id":"4","last_reported":1753265571,"current_range_meters":18000,"station_id":"ce4bhm12rcd13ifvqgkg","pricing_plan_id":"cebpf4jnsgd1na2vs0mg"},{"bike_id":"5ac85406-65d0-4336-aa89-4b04b2e6689e","system_id":"levelo_inurba_marseille","lat":43.33279,"lon":5.41988,"is_reserved":false,"is_disabled":false,"rental_uris":{"android":"levelo://app?vid=5ac85406-65d0-4336-aa89-4b04b2e6689e","ios":"levelo://app?vid=5ac85406-65d0-4336-aa89-4b04b2e6689e"},"vehicle_type_id":"4","last_reported":1753265571,"current_range_meters":18000,"station_id":"","pricing_plan_id":"cebpf4jnsgd1na2vs0mg"},{"bike_id":"496cac02-0e91-4f64-97b9-cb34cf0ab931","system_id":"levelo_inurba_marseille","lat":43.22507,"lon":5.34775,"is_reserved":false,"is_disabled":false,"rental_uris":{"android":"levelo://app?vid=496cac02-0e91-4f64-97b9-cb34cf0ab931","ios":"levelo://app?vid=496cac02-0e91-4f64-97b9-cb34cf0ab931"},"vehicle_type_id":"4","last_reported":1753265571,"current_range_meters":18000,"station_id":"st_cvj5dfep6f1abm77gieg","pricing_plan_id":"cebpf4jnsgd1na2vs0mg"},{"bike_id":"8aa1cb7c-9659-44e2-a128-f9cc7e3d7b20","system_id":"levelo_inurba_marseille","lat":43.21191,"lon":5.35076,"is_reserved":false,"is_disabled":false,"rental_uris":{"android":"levelo://app?vid=8aa1cb7c-9659-44e2-a128-f9cc7e3d7b20","ios":"levelo://app?vid=8aa1cb7c-9659-44e2-a128-f9cc7e3d7b20"},"vehicle_type_id":"4","last_reported":1753265571,"current_range_meters":18000,"station_id":"st_cvj6sg6p6f1abm77japg","pricing_plan_id":"cebpf4jnsgd1na2vs0mg"},{"bike_id":"7a8cb97c-0034-46dc-a245-57a51b419f4c","system_id":"levelo_inurba_marseille","lat":43.30532,"lon":5.36715,"is_reserved":false,"is_disabled":false,"rental_uris":{"android":"levelo://app?vid=7a8cb97c-0034-46dc-a245-57a51b419f4c","ios":"levelo://app?vid=7a8cb97c-0034-46dc-a245-57a51b419f4c"},"vehicle_type_id":"4","last_reported":1753265571,"current_range_meters":18000,"station_id":"ce4bgrp2rcd13ifvqc9g","pricing_plan_id":"cebpf4jnsgd1na2vs0mg"},{"bike_id":"ae131367-d818-44a0-9e1d-4aa65dcdb16a","system_id":"levelo_inurba_marseille","lat":43.2748,"lon":5.39642,"is_reserved":false,"is_disabled":false,"rental_uris":{"android":"levelo://app?vid=ae131367-d818-44a0-9e1d-4aa65dcdb16a","ios":"levelo://app?vid=ae131367-d818-44a0-9e1d-4aa65dcdb16a"},"vehicle_type_id":"4","last_reported":1753265571,"current_range_meters":18000,"station_id":"","pricing_plan_id":"cebpf4jnsgd1na2vs0mg"},{"bike_id":"eabf8af7-0ba6-4ed7-9dc1-8770e1d0db11","system_id":"levelo_inurba_marseille","lat":43.305287,"lon":5.367015,"is_reserved":false,"is_disabled":false,"rental_uris":{"android":"levelo://app?vid=eabf8af7-0ba6-4ed7-9dc1-8770e1d0db11","ios":"levelo://app?vid=eabf8af7-0ba6-4ed7-9dc1-8770e1d0db11"},"vehicle_type_id":"4","last_reported":1753265571,"current_range_meters":18000,"station_id":"ce4bgrp2rcd13ifvqc9g","pricing_plan_id":"cebpf4jnsgd1na2vs0mg"},{"bike_id":"7efcf337-4140-49e9-92b0-3f0aa143c851","system_id":"levelo_inurba_marseille","lat":43.2984,"lon":5.36266,"is_reserved":false,"is_disabled":false,"rental_uris":{"android":"levelo://app?vid=7efcf337-4140-49e9-92b0-3f0aa143c851","ios":"levelo://app?vid=7efcf337-4140-49e9-92b0-3f0aa143c851"},"vehicle_type_id":"4","last_reported":1753265571,"current_range_meters":18000,"station_id":"ce4bgpp2rcd13ifvqc3g","pricing_plan_id":"cebpf4jnsgd1na2vs0mg"},{"bike_id":"089b038a-b59f-4294-87b9-05d0c9263440","system_id":"levelo_inurba_marseille","lat":43.29252,"lon":5.37657,"is_reserved":false,"is_disabled":false,"rental_uris":{"android":"levelo://app?vid=089b038a-b59f-4294-87b9-05d0c9263440","ios":"levelo://app?vid=089b038a-b59f-4294-87b9-05d0c9263440"},"vehicle_type_id":"4","last_reported":1753265571,"current_range_meters":18000,"station_id":"ce4bgi12rcd13ifvqb80","pricing_plan_id":"cebpf4jnsgd1na2vs0mg"},{"bike_id":"bc0bf34e-7dd4-4a64-b29e-55c3332ed35e","system_id":"levelo_inurba_marseille","lat":43.31692,"lon":5.3777,"is_reserved":false,"is_disabled":false,"rental_uris":{"android":"levelo://app?vid=bc0bf34e-7dd4-4a64-b29e-55c3332ed35e","ios":"levelo://app?vid=bc0bf34e-7dd4-4a64-b29e-55c3332ed35e"},"vehicle_type_id":"4","last_reported":1753265571,"current_range_meters":18000,"station_id":"ce4bgth2rcd13ifvqch0","pricing_plan_id":"cebpf4jnsgd1na2vs0mg"},{"bike_id":"3cd09fc8-9554-4236-8496-0931a7be09d1","system_id":"levelo_inurba_marseille","lat":43.21199,"lon":5.35088,"is_reserved":false,"is_disabled":false,"rental_uris":{"android":"levelo://app?vid=3cd09fc8-9554-4236-8496-0931a7be09d1","ios":"levelo://app?vid=3cd09fc8-9554-4236-8496-0931a7be09d1"},"vehicle_type_id":"4","last_reported":1753265571,"current_range_meters":18000,"station_id":"st_cvj6sg6p6f1abm77japg","pricing_plan_id":"cebpf4jnsgd1na2vs0mg"},{"bike_id":"6bb1f31c-9335-4f39-9585-31374a4775f9","system_id":"levelo_inurba_marseille","lat":43.325583,"lon":5.379059,"is_reserved":false,"is_disabled":false,"rental_uris":{"android":"levelo://app?vid=6bb1f31c-9335-4f39-9585-31374a4775f9","ios":"levelo://app?vid=6bb1f31c-9335-4f39-9585-31374a4775f9"},"vehicle_type_id":"4","last_reported":1753265571,"current_range_meters":18000,"station_id":"","pricing_plan_id":"cebpf4jnsgd1na2vs0mg"},{"bike_id":"908a65a2-61a6-4bc8-baac-11bc4d5e1e65","system_id":"levelo_inurba_marseille","lat":43.28267,"lon":5.35124,"is_reserved":false,"is_disabled":false,"rental_uris":{"android":"levelo://app?vid=908a65a2-61a6-4bc8-baac-11bc4d5e1e65","ios":"levelo://app?vid=908a65a2-61a6-4bc8-baac-11bc4d5e1e65"},"vehicle_type_id":"4","last_reported":1753265571,"current_range_meters":18000,"station_id":"","pricing_plan_id":"cebpf4jnsgd1na2vs0mg"},{"bike_id":"fbed0589-65b6-4a23-b23e-a05869c0aa5a","system_id":"levelo_inurba_marseille","lat":43.29036,"lon":5.39984,"is_reserved":false,"is_disabled":false,"rental_uris":{"android":"levelo://app?vid=fbed0589-65b6-4a23-b23e-a05869c0aa5a","ios":"levelo://app?vid=fbed0589-65b6-4a23-b23e-a05869c0aa5a"},"vehicle_type_id":"4","last_reported":1753265571,"current_range_meters":18000,"station_id":"ce4bh392rcd13ifvqdm0","pricing_plan_id":"cebpf4jnsgd1na2vs0mg"},{"bike_id":"99145286-903e-4392-876d-cccb7746f888","system_id":"levelo_inurba_marseille","lat":43.306,"lon":5.37236,"is_reserved":false,"is_disabled":false,"rental_uris":{"android":"levelo://app?vid=99145286-903e-4392-876d-cccb7746f888","ios":"levelo://app?vid=99145286-903e-4392-876d-cccb7746f888"},"vehicle_type_id":"4","last_reported":1753265571,"current_range_meters":18000,"station_id":"ce4bgqh2rcd13ifvqc4g","pricing_plan_id":"cebpf4jnsgd1na2vs0mg"},{"bike_id":"6021a504-979b-4f91-af66-2471777713cc","system_id":"levelo_inurba_marseille","lat":43.24163,"lon":5.36417,"is_reserved":false,"is_disabled":false,"rental_uris":{"android":"levelo://app?vid=6021a504-979b-4f91-af66-2471777713cc","ios":"levelo://app?vid=6021a504-979b-4f91-af66-2471777713cc"},"vehicle_type_id":"4","last_reported":1753265571,"current_range_meters":18000,"station_id":"cpo36qri1sfpv3e86is0","pricing_plan_id":"cebpf4jnsgd1na2vs0mg"},{"bike_id":"082e0405-ad1e-4a8d-8dd4-fcc80c6889bc","system_id":"levelo_inurba_marseille","lat":43.27719,"lon":5.39955,"is_reserved":false,"is_disabled":false,"rental_uris":{"android":"levelo://app?vid=082e0405-ad1e-4a8d-8dd4-fcc80c6889bc","ios":"levelo://app?vid=082e0405-ad1e-4a8d-8dd4-fcc80c6889bc"},"vehicle_type_id":"4","last_reported":1753265571,"current_range_meters":18000,"station_id":"","pricing_plan_id":"cebpf4jnsgd1na2vs0mg"},{"bike_id":"14168552-349d-439d-960a-cfdd0a062c30","system_id":"levelo_inurba_marseille","lat":43.31466,"lon":5.37294,"is_reserved":false,"is_disabled":false,"rental_uris":{"android":"levelo://app?vid=14168552-349d-439d-960a-cfdd0a062c30","ios":"levelo://app?vid=14168552-349d-439d-960a-cfdd0a062c30"},"vehicle_type_id":"4","last_reported":1753265571,"current_range_meters":18800,"station_id":"ce4bgt12rcd13ifvqcd0","pricing_plan_id":"cebpf4jnsgd1na2vs0mg"},{"bike_id":"c056311f-78c9-4e18-8685-91c659ddb125","system_id":"levelo_inurba_marseille","lat":43.31596,"lon":5.38973,"is_reserved":false,"is_disabled":false,"rental_uris":{"android":"levelo://app?vid=c056311f-78c9-4e18-8685-91c659ddb125","ios":"levelo://app?vid=c056311f-78c9-4e18-8685-91c659ddb125"},"vehicle_type_id":"4","last_reported":1753265571,"current_range_meters":18800,"station_id":"","pricing_plan_id":"cebpf4jnsgd1na2vs0mg"},{"bike_id":"1699da3b-157a-4d07-ba4d-8fe9df7d93c7","system_id":"levelo_inurba_marseille","lat":43.30375,"lon":5.41931,"is_reserved":false,"is_disabled":false,"rental_uris":{"android":"levelo://app?vid=1699da3b-157a-4d07-ba4d-8fe9df7d93c7","ios":"levelo://app?vid=1699da3b-157a-4d07-ba4d-8fe9df7d93c7"},"vehicle_type_id":"4","last_reported":1753265571,"current_range_meters":18800,"station_id":"","pricing_plan_id":"cebpf4jnsgd1na2vs0mg"},{"bike_id":"70737bad-8214-4681-8a7d-fa98042cf105","system_id":"levelo_inurba_marseille","lat":43.28968,"lon":5.40206,"is_reserved":false,"is_disabled":false,"rental_uris":{"android":"levelo://app?vid=70737bad-8214-4681-8a7d-fa98042cf105","ios":"levelo://app?vid=70737bad-8214-4681-8a7d-fa98042cf105"},"vehicle_type_id":"4","last_reported":1753265571,"current_range_meters":18800,"station_id":"","pricing_plan_id":"cebpf4jnsgd1na2vs0mg"},{"bike_id":"7573ccce-ef91-4f78-a7ee-c12fda672a92","system_id":"levelo_inurba_marseille","lat":43.23198,"lon":5.35549,"is_reserved":false,"is_disabled":false,"rental_uris":{"android":"levelo://app?vid=7573ccce-ef91-4f78-a7ee-c12fda672a92","ios":"levelo://app?vid=7573ccce-ef91-4f78-a7ee-c12fda672a92"},"vehicle_type_id":"4","last_reported":1753265571,"current_range_meters":18800,"station_id":"ce4bhu92rcd13ifvqi70","pricing_plan_id":"cebpf4jnsgd1na2vs0mg"},{"bike_id":"65cfc668-e696-436a-8459-301709050b86","system_id":"levelo_inurba_marseille","lat":43.29254,"lon":5.37621,"is_reserved":false,"is_disabled":false,"rental_uris":{"android":"levelo://app?vid=65cfc668-e696-436a-8459-301709050b86","ios":"levelo://app?vid=65cfc668-e696-436a-8459-301709050b86"},"vehicle_type_id":"4","last_reported":1753265571,"current_range_meters":18800,"station_id":"ce4bgi12rcd13ifvqb80","pricing_plan_id":"cebpf4jnsgd1na2vs0mg"},{"bike_id":"05970a07-fdcf-4afc-a5d3-cebe37e8443f","system_id":"levelo_inurba_marseille","lat":43.29303,"lon":5.3743,"is_reserved":false,"is_disabled":false,"rental_uris":{"android":"levelo://app?vid=05970a07-fdcf-4afc-a5d3-cebe37e8443f","ios":"levelo://app?vid=05970a07-fdcf-4afc-a5d3-cebe37e8443f"},"vehicle_type_id":"4","last_reported":1753265571,"current_range_meters":18800,"station_id":"ce4bgi12rcd13ifvqb70","pricing_plan_id":"cebpf4jnsgd1na2vs0mg"},{"bike_id":"88ba686c-e916-48b4-a187-3089cccb5922","system_id":"levelo_inurba_marseille","lat":43.31492,"lon":5.37291,"is_reserved":false,"is_disabled":false,"rental_uris":{"android":"levelo://app?vid=88ba686c-e916-48b4-a187-3089cccb5922","ios":"levelo://app?vid=88ba686c-e916-48b4-a187-3089cccb5922"},"vehicle_type_id":"4","last_reported":1753265571,"current_range_meters":18800,"station_id":"ce4bgt12rcd13ifvqcd0","pricing_plan_id":"cebpf4jnsgd1na2vs0mg"},{"bike_id":"18b86593-4f21-41ed-81b3-f3a5b378dc91","system_id":"levelo_inurba_marseille","lat":43.312339,"lon":5.381309,"is_reserved":false,"is_disabled":false,"rental_uris":{"android":"levelo://app?vid=18b86593-4f21-41ed-81b3-f3a5b378dc91","ios":"levelo://app?vid=18b86593-4f21-41ed-81b3-f3a5b378dc91"},"vehicle_type_id":"4","last_reported":1753265571,"current_range_meters":18800,"station_id":"","pricing_plan_id":"cebpf4jnsgd1na2vs0mg"},{"bike_id":"5c64c419-999b-4e71-829c-80662d6b2b75","system_id":"levelo_inurba_marseille","lat":43.2936,"lon":5.37822,"is_reserved":false,"is_disabled":false,"rental_uris":{"android":"levelo://app?vid=5c64c419-999b-4e71-829c-80662d6b2b75","ios":"levelo://app?vid=5c64c419-999b-4e71-829c-80662d6b2b75"},"vehicle_type_id":"4","last_reported":1753265571,"current_range_meters":18800,"station_id":"ce4bgjh2rcd13ifvqbf0","pricing_plan_id":"cebpf4jnsgd1na2vs0mg"},{"bike_id":"8ae20bdf-bf90-461a-986c-b66f491b84cd","system_id":"levelo_inurba_marseille","lat":43.30384,"lon":5.42494,"is_reserved":false,"is_disabled":false,"rental_uris":{"android":"levelo://app?vid=8ae20bdf-bf90-461a-986c-b66f491b84cd","ios":"levelo://app?vid=8ae20bdf-bf90-461a-986c-b66f491b84cd"},"vehicle_type_id":"4","last_reported":1753265571,"current_range_meters":18800,"station_id":"ce4bhoh2rcd13ifvqh6g","pricing_plan_id":"cebpf4jnsgd1na2vs0mg"},{"bike_id":"54943e91-61ee-496b-9667-a7c6c3a25bb5","system_id":"levelo_inurba_marseille","lat":43.26214,"lon":5.37442,"is_reserved":false,"is_disabled":false,"rental_uris":{"android":"levelo://app?vid=54943e91-61ee-496b-9667-a7c6c3a25bb5","ios":"levelo://app?vid=54943e91-61ee-496b-9667-a7c6c3a25bb5"},"vehicle_type_id":"4","last_reported":1753265571,"current_range_meters":18800,"station_id":"ce4bhgp2rcd13ifvqfc0","pricing_plan_id":"cebpf4jnsgd1na2vs0mg"},{"bike_id":"d33a195d-1aba-4725-a7a9-74d21f9597a0","system_id":"levelo_inurba_marseille","lat":43.26212,"lon":5.37442,"is_reserved":false,"is_disabled":false,"rental_uris":{"android":"levelo://app?vid=d33a195d-1aba-4725-a7a9-74d21f9597a0","ios":"levelo://app?vid=d33a195d-1aba-4725-a7a9-74d21f9597a0"},"vehicle_type_id":"4","last_reported":1753265571,"current_range_meters":19200,"station_id":"ce4bhgp2rcd13ifvqfc0","pricing_plan_id":"cebpf4jnsgd1na2vs0mg"},{"bike_id":"c99642c3-4514-4e02-b22f-2e035b5f2b33","system_id":"levelo_inurba_marseille","lat":43.308067,"lon":5.376671,"is_reserved":false,"is_disabled":false,"rental_uris":{"android":"levelo://app?vid=c99642c3-4514-4e02-b22f-2e035b5f2b33","ios":"levelo://app?vid=c99642c3-4514-4e02-b22f-2e035b5f2b33"},"vehicle_type_id":"4","last_reported":1753265571,"current_range_meters":19200,"station_id":"ce4bgv92rcd13ifvqcq0","pricing_plan_id":"cebpf4jnsgd1na2vs0mg"},{"bike_id":"d30f66f5-9995-4a0a-832b-41fe2c74d0c0","system_id":"levelo_inurba_marseille","lat":43.22503,"lon":5.3477,"is_reserved":false,"is_disabled":false,"rental_uris":{"android":"levelo://app?vid=d30f66f5-9995-4a0a-832b-41fe2c74d0c0","ios":"levelo://app?vid=d30f66f5-9995-4a0a-832b-41fe2c74d0c0"},"vehicle_type_id":"4","last_reported":1753265571,"current_range_meters":19200,"station_id":"st_cvj5dfep6f1abm77gieg","pricing_plan_id":"cebpf4jnsgd1na2vs0mg"},{"bike_id":"61cb5b9a-9cee-4d3f-8bba-365148ee2e42","system_id":"levelo_inurba_marseille","lat":43.25867,"lon":5.39901,"is_reserved":false,"is_disabled":false,"rental_uris":{"android":"levelo://app?vid=61cb5b9a-9cee-4d3f-8bba-365148ee2e42","ios":"levelo://app?vid=61cb5b9a-9cee-4d3f-8bba-365148ee2e42"},"vehicle_type_id":"4","last_reported":1753265571,"current_range_meters":19200,"station_id":"ce4bhl92rcd13ifvqghg","pricing_plan_id":"cebpf4jnsgd1na2vs0mg"},{"bike_id":"540bf034-f01c-40e5-a779-10bbd6856c25","system_id":"levelo_inurba_marseille","lat":43.24543,"lon":5.39521,"is_reserved":false,"is_disabled":false,"rental_uris":{"android":"levelo://app?vid=540bf034-f01c-40e5-a779-10bbd6856c25","ios":"levelo://app?vid=540bf034-f01c-40e5-a779-10bbd6856c25"},"vehicle_type_id":"4","last_reported":1753265571,"current_range_meters":19200,"station_id":"ce4bhlp2rcd13ifvqgjg","pricing_plan_id":"cebpf4jnsgd1na2vs0mg"},{"bike_id":"750d370d-abb4-47b3-b4f7-7ef76b03801f","system_id":"levelo_inurba_marseille","lat":43.296853,"lon":5.379373,"is_reserved":false,"is_disabled":false,"rental_uris":{"android":"levelo://app?vid=750d370d-abb4-47b3-b4f7-7ef76b03801f","ios":"levelo://app?vid=750d370d-abb4-47b3-b4f7-7ef76b03801f"},"vehicle_type_id":"4","last_reported":1753265571,"current_range_meters":19200,"station_id":"","pricing_plan_id":"cebpf4jnsgd1na2vs0mg"},{"bike_id":"b7dad234-e0b1-49ef-a753-683227550af8","system_id":"levelo_inurba_marseille","lat":43.309,"lon":5.36852,"is_reserved":false,"is_disabled":false,"rental_uris":{"android":"levelo://app?vid=b7dad234-e0b1-49ef-a753-683227550af8","ios":"levelo://app?vid=b7dad234-e0b1-49ef-a753-683227550af8"},"vehicle_type_id":"4","last_reported":1753265571,"current_range_meters":19200,"station_id":"ce4bgn92rcd13ifvqbvg","pricing_plan_id":"cebpf4jnsgd1na2vs0mg"},{"bike_id":"fe47c1a4-6a90-463c-83ff-c05ec50d7dd7","system_id":"levelo_inurba_marseille","lat":43.300399,"lon":5.374404,"is_reserved":false,"is_disabled":true,"rental_uris":{"android":"levelo://app?vid=fe47c1a4-6a90-463c-83ff-c05ec50d7dd7","ios":"levelo://app?vid=fe47c1a4-6a90-463c-83ff-c05ec50d7dd7"},"vehicle_type_id":"4","last_reported":1753265571,"current_range_meters":19200,"station_id":"","pricing_plan_id":"cebpf4jnsgd1na2vs0mg"},{"bike_id":"4df352e7-3eb5-456f-9209-305610bcc633","system_id":"levelo_inurba_marseille","lat":43.245443,"lon":5.395212,"is_reserved":false,"is_disabled":false,"rental_uris":{"android":"levelo://app?vid=4df352e7-3eb5-456f-9209-305610bcc633","ios":"levelo://app?vid=4df352e7-3eb5-456f-9209-305610bcc633"},"vehicle_type_id":"4","last_reported":1753265571,"current_range_meters":18800,"station_id":"ce4bhlp2rcd13ifvqgjg","pricing_plan_id":"cebpf4jnsgd1na2vs0mg"},{"bike_id":"1ad257b5-7f83-42c1-867f-92635ff1abbf","system_id":"levelo_inurba_marseille","lat":43.22934,"lon":5.35389,"is_reserved":false,"is_disabled":false,"rental_uris":{"android":"levelo://app?vid=1ad257b5-7f83-42c1-867f-92635ff1abbf","ios":"levelo://app?vid=1ad257b5-7f83-42c1-867f-92635ff1abbf"},"vehicle_type_id":"4","last_reported":1753265571,"current_range_meters":19200,"station_id":"cpo3532slgdg3j2ikp40","pricing_plan_id":"cebpf4jnsgd1na2vs0mg"},{"bike_id":"efdf0447-af19-4022-99ec-3e2e9fa94d64","system_id":"levelo_inurba_marseille","lat":43.28416,"lon":5.34987,"is_reserved":false,"is_disabled":false,"rental_uris":{"android":"levelo://app?vid=efdf0447-af19-4022-99ec-3e2e9fa94d64","ios":"levelo://app?vid=efdf0447-af19-4022-99ec-3e2e9fa94d64"},"vehicle_type_id":"4","last_reported":1753265571,"current_range_meters":19200,"station_id":"ce4bhbh2rcd13ifvqepg","pricing_plan_id":"cebpf4jnsgd1na2vs0mg"},{"bike_id":"434ce345-e9bf-4da2-a761-735fa5b1474a","system_id":"levelo_inurba_marseille","lat":43.29273,"lon":5.3843,"is_reserved":false,"is_disabled":false,"rental_uris":{"android":"levelo://app?vid=434ce345-e9bf-4da2-a761-735fa5b1474a","ios":"levelo://app?vid=434ce345-e9bf-4da2-a761-735fa5b1474a"},"vehicle_type_id":"4","last_reported":1753265571,"current_range_meters":19200,"station_id":"ce4bh692rcd13ifvqea0","pricing_plan_id":"cebpf4jnsgd1na2vs0mg"},{"bike_id":"070feb58-c419-4eec-b950-6b188f4eb9a1","system_id":"levelo_inurba_marseille","lat":43.27073,"lon":5.42279,"is_reserved":false,"is_disabled":false,"rental_uris":{"android":"levelo://app?vid=070feb58-c419-4eec-b950-6b188f4eb9a1","ios":"levelo://app?vid=070feb58-c419-4eec-b950-6b188f4eb9a1"},"vehicle_type_id":"4","last_reported":1753265571,"current_range_meters":19600,"station_id":"ce4bhk92rcd13ifvqgb0","pricing_plan_id":"cebpf4jnsgd1na2vs0mg"},{"bike_id":"0063384d-b427-49db-b8ac-b40219c5e899","system_id":"levelo_inurba_marseille","lat":43.29546,"lon":5.37474,"is_reserved":false,"is_disabled":false,"rental_uris":{"android":"levelo://app?vid=0063384d-b427-49db-b8ac-b40219c5e899","ios":"levelo://app?vid=0063384d-b427-49db-b8ac-b40219c5e899"},"vehicle_type_id":"4","last_reported":1753265571,"current_range_meters":19600,"station_id":"ce4bgkp2rcd13ifvqbmg","pricing_plan_id":"cebpf4jnsgd1na2vs0mg"},{"bike_id":"42a29b45-35d3-4fa1-a15a-aa36567215f4","system_id":"levelo_inurba_marseille","lat":43.30521,"lon":5.36712,"is_reserved":false,"is_disabled":false,"rental_uris":{"android":"levelo://app?vid=42a29b45-35d3-4fa1-a15a-aa36567215f4","ios":"levelo://app?vid=42a29b45-35d3-4fa1-a15a-aa36567215f4"},"vehicle_type_id":"4","last_reported":1753265571,"current_range_meters":19600,"station_id":"ce4bgrp2rcd13ifvqc9g","pricing_plan_id":"cebpf4jnsgd1na2vs0mg"},{"bike_id":"1575ae10-d836-4d6e-b102-7f31afc0a7cf","system_id":"levelo_inurba_marseille","lat":43.23449,"lon":5.41266,"is_reserved":false,"is_disabled":false,"rental_uris":{"android":"levelo://app?vid=1575ae10-d836-4d6e-b102-7f31afc0a7cf","ios":"levelo://app?vid=1575ae10-d836-4d6e-b102-7f31afc0a7cf"},"vehicle_type_id":"4","last_reported":1753265571,"current_range_meters":19600,"station_id":"","pricing_plan_id":"cebpf4jnsgd1na2vs0mg"},{"bike_id":"20586eb9-d076-4483-9da1-32bd7f971b1a","system_id":"levelo_inurba_marseille","lat":43.25932,"lon":5.40894,"is_reserved":false,"is_disabled":false,"rental_uris":{"android":"levelo://app?vid=20586eb9-d076-4483-9da1-32bd7f971b1a","ios":"levelo://app?vid=20586eb9-d076-4483-9da1-32bd7f971b1a"},"vehicle_type_id":"4","last_reported":1753265571,"current_range_meters":19600,"station_id":"ce4bhm92rcd13ifvqglg","pricing_plan_id":"cebpf4jnsgd1na2vs0mg"},{"bike_id":"77787b35-f710-4176-af5e-defc5fb2a6a3","system_id":"levelo_inurba_marseille","lat":43.28618,"lon":5.35125,"is_reserved":false,"is_disabled":false,"rental_uris":{"android":"levelo://app?vid=77787b35-f710-4176-af5e-defc5fb2a6a3","ios":"levelo://app?vid=77787b35-f710-4176-af5e-defc5fb2a6a3"},"vehicle_type_id":"4","last_reported":1753265571,"current_range_meters":19600,"station_id":"ce4bhch2rcd13ifvqeug","pricing_plan_id":"cebpf4jnsgd1na2vs0mg"},{"bike_id":"ee4679ff-cefd-44e7-be2c-608969d991ed","system_id":"levelo_inurba_marseille","lat":43.29366,"lon":5.37828,"is_reserved":false,"is_disabled":false,"rental_uris":{"android":"levelo://app?vid=ee4679ff-cefd-44e7-be2c-608969d991ed","ios":"levelo://app?vid=ee4679ff-cefd-44e7-be2c-608969d991ed"},"vehicle_type_id":"4","last_reported":1753265571,"current_range_meters":19600,"station_id":"ce4bgjh2rcd13ifvqbf0","pricing_plan_id":"cebpf4jnsgd1na2vs0mg"},{"bike_id":"35a86048-76dd-4de0-afb2-7da8772fad44","system_id":"levelo_inurba_marseille","lat":43.21521,"lon":5.3474,"is_reserved":false,"is_disabled":false,"rental_uris":{"android":"levelo://app?vid=35a86048-76dd-4de0-afb2-7da8772fad44","ios":"levelo://app?vid=35a86048-76dd-4de0-afb2-7da8772fad44"},"vehicle_type_id":"4","last_reported":1753265571,"current_range_meters":19600,"station_id":"","pricing_plan_id":"cebpf4jnsgd1na2vs0mg"},{"bike_id":"154842fb-66cb-4d03-b336-ad8705751d21","system_id":"levelo_inurba_marseille","lat":43.279548,"lon":5.410352,"is_reserved":false,"is_disabled":false,"rental_uris":{"android":"levelo://app?vid=154842fb-66cb-4d03-b336-ad8705751d21","ios":"levelo://app?vid=154842fb-66cb-4d03-b336-ad8705751d21"},"vehicle_type_id":"4","last_reported":1753265571,"current_range_meters":19600,"station_id":"ce4bhnp2rcd13ifvqh0g","pricing_plan_id":"cebpf4jnsgd1na2vs0mg"},{"bike_id":"76c65f84-3b49-4269-890c-8259fe6ade74","system_id":"levelo_inurba_marseille","lat":43.323591,"lon":5.36749,"is_reserved":false,"is_disabled":false,"rental_uris":{"android":"levelo://app?vid=76c65f84-3b49-4269-890c-8259fe6ade74","ios":"levelo://app?vid=76c65f84-3b49-4269-890c-8259fe6ade74"},"vehicle_type_id":"4","last_reported":1753265571,"current_range_meters":19600,"station_id":"ce4bhsh2rcd13ifvqi2g","pricing_plan_id":"cebpf4jnsgd1na2vs0mg"},{"bike_id":"e246d1c9-8a7e-4c9d-983b-668f75fd83e7","system_id":"levelo_inurba_marseille","lat":43.26557,"lon":5.3729,"is_reserved":false,"is_disabled":false,"rental_uris":{"android":"levelo://app?vid=e246d1c9-8a7e-4c9d-983b-668f75fd83e7","ios":"levelo://app?vid=e246d1c9-8a7e-4c9d-983b-668f75fd83e7"},"vehicle_type_id":"4","last_reported":1753265571,"current_range_meters":19600,"station_id":"ce4bhg12rcd13ifvqf70","pricing_plan_id":"cebpf4jnsgd1na2vs0mg"},{"bike_id":"a9defd13-6503-41ad-8f8f-e372d526dafc","system_id":"levelo_inurba_marseille","lat":43.29861,"lon":5.39741,"is_reserved":false,"is_disabled":false,"rental_uris":{"android":"levelo://app?vid=a9defd13-6503-41ad-8f8f-e372d526dafc","ios":"levelo://app?vid=a9defd13-6503-41ad-8f8f-e372d526dafc"},"vehicle_type_id":"4","last_reported":1753265571,"current_range_meters":20000,"station_id":"ce4bh0h2rcd13ifvqd50","pricing_plan_id":"cebpf4jnsgd1na2vs0mg"},{"bike_id":"f22a6236-8b9b-4adf-a89c-0bfcb55884c0","system_id":"levelo_inurba_marseille","lat":43.27903,"lon":5.38004,"is_reserved":false,"is_disabled":false,"rental_uris":{"android":"levelo://app?vid=f22a6236-8b9b-4adf-a89c-0bfcb55884c0","ios":"levelo://app?vid=f22a6236-8b9b-4adf-a89c-0bfcb55884c0"},"vehicle_type_id":"4","last_reported":1753265571,"current_range_meters":20000,"station_id":"ce4bhf92rcd13ifvqf50","pricing_plan_id":"cebpf4jnsgd1na2vs0mg"},{"bike_id":"e523051c-5030-44aa-b68b-2c0edf03f717","system_id":"levelo_inurba_marseille","lat":43.24383,"lon":5.370569,"is_reserved":false,"is_disabled":false,"rental_uris":{"android":"levelo://app?vid=e523051c-5030-44aa-b68b-2c0edf03f717","ios":"levelo://app?vid=e523051c-5030-44aa-b68b-2c0edf03f717"},"vehicle_type_id":"4","last_reported":1753265571,"current_range_meters":20000,"station_id":"ce4bhhh2rcd13ifvqfk0","pricing_plan_id":"cebpf4jnsgd1na2vs0mg"},{"bike_id":"cebbc3b6-4cc7-4dfc-95eb-2a61f47c2a68","system_id":"levelo_inurba_marseille","lat":43.32355,"lon":5.36749,"is_reserved":false,"is_disabled":false,"rental_uris":{"android":"levelo://app?vid=cebbc3b6-4cc7-4dfc-95eb-2a61f47c2a68","ios":"levelo://app?vid=cebbc3b6-4cc7-4dfc-95eb-2a61f47c2a68"},"vehicle_type_id":"4","last_reported":1753265571,"current_range_meters":20000,"station_id":"ce4bhsh2rcd13ifvqi2g","pricing_plan_id":"cebpf4jnsgd1na2vs0mg"},{"bike_id":"25eb5069-d164-4830-a1fb-a6d28f2e5c56","system_id":"levelo_inurba_marseille","lat":43.31112,"lon":5.37776,"is_reserved":false,"is_disabled":false,"rental_uris":{"android":"levelo://app?vid=25eb5069-d164-4830-a1fb-a6d28f2e5c56","ios":"levelo://app?vid=25eb5069-d164-4830-a1fb-a6d28f2e5c56"},"vehicle_type_id":"4","last_reported":1753265571,"current_range_meters":20000,"station_id":"ce4bgt92rcd13ifvqcg0","pricing_plan_id":"cebpf4jnsgd1na2vs0mg"},{"bike_id":"5d2a4027-c4e2-4789-b8d3-60410bc4c347","system_id":"levelo_inurba_marseille","lat":43.24996,"lon":5.38918,"is_reserved":false,"is_disabled":false,"rental_uris":{"android":"levelo://app?vid=5d2a4027-c4e2-4789-b8d3-60410bc4c347","ios":"levelo://app?vid=5d2a4027-c4e2-4789-b8d3-60410bc4c347"},"vehicle_type_id":"4","last_reported":1753265571,"current_range_meters":20000,"station_id":"ce4bhgp2rcd13ifvqfd0","pricing_plan_id":"cebpf4jnsgd1na2vs0mg"},{"bike_id":"8006020a-6cfe-4131-82ca-a6c8f07671d2","system_id":"levelo_inurba_marseille","lat":43.31188,"lon":5.37694,"is_reserved":false,"is_disabled":false,"rental_uris":{"android":"levelo://app?vid=8006020a-6cfe-4131-82ca-a6c8f07671d2","ios":"levelo://app?vid=8006020a-6cfe-4131-82ca-a6c8f07671d2"},"vehicle_type_id":"4","last_reported":1753265571,"current_range_meters":20000,"station_id":"","pricing_plan_id":"cebpf4jnsgd1na2vs0mg"},{"bike_id":"0ab84abf-a0e6-4e1d-b407-030e9176d6a6","system_id":"levelo_inurba_marseille","lat":43.29044,"lon":5.39953,"is_reserved":false,"is_disabled":false,"rental_uris":{"android":"levelo://app?vid=0ab84abf-a0e6-4e1d-b407-030e9176d6a6","ios":"levelo://app?vid=0ab84abf-a0e6-4e1d-b407-030e9176d6a6"},"vehicle_type_id":"4","last_reported":1753265571,"current_range_meters":20000,"station_id":"ce4bh392rcd13ifvqdm0","pricing_plan_id":"cebpf4jnsgd1na2vs0mg"},{"bike_id":"ca788c69-481e-4a5c-a7d7-885830dece9b","system_id":"levelo_inurba_marseille","lat":43.28611,"lon":5.351,"is_reserved":false,"is_disabled":false,"rental_uris":{"android":"levelo://app?vid=ca788c69-481e-4a5c-a7d7-885830dece9b","ios":"levelo://app?vid=ca788c69-481e-4a5c-a7d7-885830dece9b"},"vehicle_type_id":"4","last_reported":1753265571,"current_range_meters":20000,"station_id":"ce4bhch2rcd13ifvqeug","pricing_plan_id":"cebpf4jnsgd1na2vs0mg"},{"bike_id":"f7f07796-c7c9-4a74-80e9-fb85744448b8","system_id":"levelo_inurba_marseille","lat":43.2293,"lon":5.35386,"is_reserved":false,"is_disabled":false,"rental_uris":{"android":"levelo://app?vid=f7f07796-c7c9-4a74-80e9-fb85744448b8","ios":"levelo://app?vid=f7f07796-c7c9-4a74-80e9-fb85744448b8"},"vehicle_type_id":"4","last_reported":1753265571,"current_range_meters":20000,"station_id":"cpo3532slgdg3j2ikp40","pricing_plan_id":"cebpf4jnsgd1na2vs0mg"},{"bike_id":"62a2878f-63bb-453f-ad91-3283fec0542f","system_id":"levelo_inurba_marseille","lat":43.3054,"lon":5.36562,"is_reserved":false,"is_disabled":false,"rental_uris":{"android":"levelo://app?vid=62a2878f-63bb-453f-ad91-3283fec0542f","ios":"levelo://app?vid=62a2878f-63bb-453f-ad91-3283fec0542f"},"vehicle_type_id":"4","last_reported":1753265571,"current_range_meters":20000,"station_id":"ce4bgs12rcd13ifvqcag","pricing_plan_id":"cebpf4jnsgd1na2vs0mg"},{"bike_id":"e16ca76f-d344-469c-97a6-da17aef07752","system_id":"levelo_inurba_marseille","lat":43.30906,"lon":5.36874,"is_reserved":false,"is_disabled":false,"rental_uris":{"android":"levelo://app?vid=e16ca76f-d344-469c-97a6-da17aef07752","ios":"levelo://app?vid=e16ca76f-d344-469c-97a6-da17aef07752"},"vehicle_type_id":"4","last_reported":1753265571,"current_range_meters":20400,"station_id":"ce4bgn92rcd13ifvqbvg","pricing_plan_id":"cebpf4jnsgd1na2vs0mg"},{"bike_id":"c69d4821-b6ee-43a7-a25d-5299c84379db","system_id":"levelo_inurba_marseille","lat":43.24545,"lon":5.39527,"is_reserved":false,"is_disabled":false,"rental_uris":{"android":"levelo://app?vid=c69d4821-b6ee-43a7-a25d-5299c84379db","ios":"levelo://app?vid=c69d4821-b6ee-43a7-a25d-5299c84379db"},"vehicle_type_id":"4","last_reported":1753265571,"current_range_meters":20400,"station_id":"ce4bhlp2rcd13ifvqgjg","pricing_plan_id":"cebpf4jnsgd1na2vs0mg"},{"bike_id":"e9b482b2-4e49-4742-9c65-cfc5a0f28d0c","system_id":"levelo_inurba_marseille","lat":43.26212,"lon":5.37439,"is_reserved":false,"is_disabled":false,"rental_uris":{"android":"levelo://app?vid=e9b482b2-4e49-4742-9c65-cfc5a0f28d0c","ios":"levelo://app?vid=e9b482b2-4e49-4742-9c65-cfc5a0f28d0c"},"vehicle_type_id":"4","last_reported":1753265571,"current_range_meters":20400,"station_id":"ce4bhgp2rcd13ifvqfc0","pricing_plan_id":"cebpf4jnsgd1na2vs0mg"},{"bike_id":"0e5988ec-c2eb-4c70-9097-10e136050aab","system_id":"levelo_inurba_marseille","lat":43.29006,"lon":5.35621,"is_reserved":false,"is_disabled":false,"rental_uris":{"android":"levelo://app?vid=0e5988ec-c2eb-4c70-9097-10e136050aab","ios":"levelo://app?vid=0e5988ec-c2eb-4c70-9097-10e136050aab"},"vehicle_type_id":"4","last_reported":1753265571,"current_range_meters":20400,"station_id":"ce4bhb92rcd13ifvqen0","pricing_plan_id":"cebpf4jnsgd1na2vs0mg"},{"bike_id":"eaea15aa-98ae-4f78-b37a-80e2e4524837","system_id":"levelo_inurba_marseille","lat":43.297916,"lon":5.381026,"is_reserved":false,"is_disabled":false,"rental_uris":{"android":"levelo://app?vid=eaea15aa-98ae-4f78-b37a-80e2e4524837","ios":"levelo://app?vid=eaea15aa-98ae-4f78-b37a-80e2e4524837"},"vehicle_type_id":"4","last_reported":1753265571,"current_range_meters":20400,"station_id":"","pricing_plan_id":"cebpf4jnsgd1na2vs0mg"},{"bike_id":"1420eefa-6516-4ca4-9341-a2b942797887","system_id":"levelo_inurba_marseille","lat":43.25946,"lon":5.41354,"is_reserved":false,"is_disabled":false,"rental_uris":{"android":"levelo://app?vid=1420eefa-6516-4ca4-9341-a2b942797887","ios":"levelo://app?vid=1420eefa-6516-4ca4-9341-a2b942797887"},"vehicle_type_id":"4","last_reported":1753265571,"current_range_meters":20400,"station_id":"","pricing_plan_id":"cebpf4jnsgd1na2vs0mg"},{"bike_id":"39f786ba-2ec0-4280-a523-e7e1ef1edf6d","system_id":"levelo_inurba_marseille","lat":43.29904,"lon":5.37466,"is_reserved":false,"is_disabled":false,"rental_uris":{"android":"levelo://app?vid=39f786ba-2ec0-4280-a523-e7e1ef1edf6d","ios":"levelo://app?vid=39f786ba-2ec0-4280-a523-e7e1ef1edf6d"},"vehicle_type_id":"4","last_reported":1753265571,"current_range_meters":20400,"station_id":"ce4bgjh2rcd13ifvqbg0","pricing_plan_id":"cebpf4jnsgd1na2vs0mg"},{"bike_id":"a7679d78-86ed-4616-85eb-b5c76affcef5","system_id":"levelo_inurba_marseille","lat":43.29724,"lon":5.37695,"is_reserved":false,"is_disabled":false,"rental_uris":{"android":"levelo://app?vid=a7679d78-86ed-4616-85eb-b5c76affcef5","ios":"levelo://app?vid=a7679d78-86ed-4616-85eb-b5c76affcef5"},"vehicle_type_id":"4","last_reported":1753265571,"current_range_meters":20400,"station_id":"ce4bgkh2rcd13ifvqbl0","pricing_plan_id":"cebpf4jnsgd1na2vs0mg"},{"bike_id":"15d367de-17b0-4dc7-a6ae-9f74942a498e","system_id":"levelo_inurba_marseille","lat":43.306062,"lon":5.372138,"is_reserved":false,"is_disabled":false,"rental_uris":{"android":"levelo://app?vid=15d367de-17b0-4dc7-a6ae-9f74942a498e","ios":"levelo://app?vid=15d367de-17b0-4dc7-a6ae-9f74942a498e"},"vehicle_type_id":"4","last_reported":1753265571,"current_range_meters":20400,"station_id":"ce4bgqh2rcd13ifvqc4g","pricing_plan_id":"cebpf4jnsgd1na2vs0mg"},{"bike_id":"9890cbf2-d60f-403e-8351-951a33345799","system_id":"levelo_inurba_marseille","lat":43.29094,"lon":5.38155,"is_reserved":false,"is_disabled":true,"rental_uris":{"android":"levelo://app?vid=9890cbf2-d60f-403e-8351-951a33345799","ios":"levelo://app?vid=9890cbf2-d60f-403e-8351-951a33345799"},"vehicle_type_id":"4","last_reported":1753265571,"current_range_meters":20400,"station_id":"ce4bh512rcd13ifvqe2g","pricing_plan_id":"cebpf4jnsgd1na2vs0mg"},{"bike_id":"251b1ce6-03d1-43ee-8d28-1dd3a3d65e04","system_id":"levelo_inurba_marseille","lat":43.299266,"lon":5.365442,"is_reserved":false,"is_disabled":false,"rental_uris":{"android":"levelo://app?vid=251b1ce6-03d1-43ee-8d28-1dd3a3d65e04","ios":"levelo://app?vid=251b1ce6-03d1-43ee-8d28-1dd3a3d65e04"},"vehicle_type_id":"4","last_reported":1753265571,"current_range_meters":20400,"station_id":"ce4bgkp2rcd13ifvqbmg","pricing_plan_id":"cebpf4jnsgd1na2vs0mg"},{"bike_id":"66573328-cce6-4ec1-bbb6-cb5d6bb22ede","system_id":"levelo_inurba_marseille","lat":43.28268,"lon":5.35073,"is_reserved":false,"is_disabled":false,"rental_uris":{"android":"levelo://app?vid=66573328-cce6-4ec1-bbb6-cb5d6bb22ede","ios":"levelo://app?vid=66573328-cce6-4ec1-bbb6-cb5d6bb22ede"},"vehicle_type_id":"4","last_reported":1753265571,"current_range_meters":20800,"station_id":"ce4bhbp2rcd13ifvqerg","pricing_plan_id":"cebpf4jnsgd1na2vs0mg"},{"bike_id":"ea956df8-a8ad-45bc-846b-fb133b9d8ad8","system_id":"levelo_inurba_marseille","lat":43.29367,"lon":5.3785,"is_reserved":false,"is_disabled":false,"rental_uris":{"android":"levelo://app?vid=ea956df8-a8ad-45bc-846b-fb133b9d8ad8","ios":"levelo://app?vid=ea956df8-a8ad-45bc-846b-fb133b9d8ad8"},"vehicle_type_id":"4","last_reported":1753265571,"current_range_meters":20400,"station_id":"ce4bgjh2rcd13ifvqbf0","pricing_plan_id":"cebpf4jnsgd1na2vs0mg"},{"bike_id":"395fcc95-9e25-41c4-a4f7-c969641286d4","system_id":"levelo_inurba_marseille","lat":43.30466,"lon":5.37934,"is_reserved":false,"is_disabled":false,"rental_uris":{"android":"levelo://app?vid=395fcc95-9e25-41c4-a4f7-c969641286d4","ios":"levelo://app?vid=395fcc95-9e25-41c4-a4f7-c969641286d4"},"vehicle_type_id":"4","last_reported":1753265571,"current_range_meters":20800,"station_id":"ce4bgup2rcd13ifvqcn0","pricing_plan_id":"cebpf4jnsgd1na2vs0mg"},{"bike_id":"28605d09-df3b-4d8b-b431-69a0b7829352","system_id":"levelo_inurba_marseille","lat":43.292243,"lon":5.360726,"is_reserved":false,"is_disabled":false,"rental_uris":{"android":"levelo://app?vid=28605d09-df3b-4d8b-b431-69a0b7829352","ios":"levelo://app?vid=28605d09-df3b-4d8b-b431-69a0b7829352"},"vehicle_type_id":"4","last_reported":1753265571,"current_range_meters":20800,"station_id":"ce4bhbh2rcd13ifvqeqg","pricing_plan_id":"cebpf4jnsgd1na2vs0mg"},{"bike_id":"601adf52-90e3-489a-bc83-509af55cc34c","system_id":"levelo_inurba_marseille","lat":43.27942,"lon":5.41047,"is_reserved":false,"is_disabled":false,"rental_uris":{"android":"levelo://app?vid=601adf52-90e3-489a-bc83-509af55cc34c","ios":"levelo://app?vid=601adf52-90e3-489a-bc83-509af55cc34c"},"vehicle_type_id":"4","last_reported":1753265571,"current_range_meters":20800,"station_id":"ce4bhnp2rcd13ifvqh0g","pricing_plan_id":"cebpf4jnsgd1na2vs0mg"},{"bike_id":"8787168e-9a87-4a77-8681-77c72b09cfe1","system_id":"levelo_inurba_marseille","lat":43.30245,"lon":5.40054,"is_reserved":false,"is_disabled":false,"rental_uris":{"android":"levelo://app?vid=8787168e-9a87-4a77-8681-77c72b09cfe1","ios":"levelo://app?vid=8787168e-9a87-4a77-8681-77c72b09cfe1"},"vehicle_type_id":"4","last_reported":1753265571,"current_range_meters":20800,"station_id":"ce4bgvh2rcd13ifvqcs0","pricing_plan_id":"cebpf4jnsgd1na2vs0mg"},{"bike_id":"0fcd8dff-21d6-4858-9eb3-4a2bc10325cf","system_id":"levelo_inurba_marseille","lat":43.284088,"lon":5.349783,"is_reserved":false,"is_disabled":false,"rental_uris":{"android":"levelo://app?vid=0fcd8dff-21d6-4858-9eb3-4a2bc10325cf","ios":"levelo://app?vid=0fcd8dff-21d6-4858-9eb3-4a2bc10325cf"},"vehicle_type_id":"4","last_reported":1753265571,"current_range_meters":20800,"station_id":"ce4bhbh2rcd13ifvqepg","pricing_plan_id":"cebpf4jnsgd1na2vs0mg"},{"bike_id":"f40aa4c1-6d31-4f57-bc7c-c7bfc5b75c00","system_id":"levelo_inurba_marseille","lat":43.29912,"lon":5.37478,"is_reserved":false,"is_disabled":false,"rental_uris":{"android":"levelo://app?vid=f40aa4c1-6d31-4f57-bc7c-c7bfc5b75c00","ios":"levelo://app?vid=f40aa4c1-6d31-4f57-bc7c-c7bfc5b75c00"},"vehicle_type_id":"4","last_reported":1753265571,"current_range_meters":20800,"station_id":"ce4bgjh2rcd13ifvqbg0","pricing_plan_id":"cebpf4jnsgd1na2vs0mg"},{"bike_id":"4ab7d58d-3df7-4292-a37a-1c65b36abd14","system_id":"levelo_inurba_marseille","lat":43.30532,"lon":5.36542,"is_reserved":false,"is_disabled":false,"rental_uris":{"android":"levelo://app?vid=4ab7d58d-3df7-4292-a37a-1c65b36abd14","ios":"levelo://app?vid=4ab7d58d-3df7-4292-a37a-1c65b36abd14"},"vehicle_type_id":"4","last_reported":1753265571,"current_range_meters":20800,"station_id":"ce4bgs12rcd13ifvqcag","pricing_plan_id":"cebpf4jnsgd1na2vs0mg"},{"bike_id":"590af624-988a-48b3-80c1-7e4f8d048e85","system_id":"levelo_inurba_marseille","lat":43.29253,"lon":5.37635,"is_reserved":false,"is_disabled":false,"rental_uris":{"android":"levelo://app?vid=590af624-988a-48b3-80c1-7e4f8d048e85","ios":"levelo://app?vid=590af624-988a-48b3-80c1-7e4f8d048e85"},"vehicle_type_id":"4","last_reported":1753265571,"current_range_meters":21600,"station_id":"ce4bgi12rcd13ifvqb80","pricing_plan_id":"cebpf4jnsgd1na2vs0mg"},{"bike_id":"92be15a0-5afb-442e-b5af-97e9b858194b","system_id":"levelo_inurba_marseille","lat":43.2439,"lon":5.37064,"is_reserved":false,"is_disabled":false,"rental_uris":{"android":"levelo://app?vid=92be15a0-5afb-442e-b5af-97e9b858194b","ios":"levelo://app?vid=92be15a0-5afb-442e-b5af-97e9b858194b"},"vehicle_type_id":"4","last_reported":1753265571,"current_range_meters":21600,"station_id":"ce4bhhh2rcd13ifvqfk0","pricing_plan_id":"cebpf4jnsgd1na2vs0mg"},{"bike_id":"33ce2ff8-7e21-4229-9288-7ac129269db8","system_id":"levelo_inurba_marseille","lat":43.32112,"lon":5.36795,"is_reserved":false,"is_disabled":false,"rental_uris":{"android":"levelo://app?vid=33ce2ff8-7e21-4229-9288-7ac129269db8","ios":"levelo://app?vid=33ce2ff8-7e21-4229-9288-7ac129269db8"},"vehicle_type_id":"4","last_reported":1753265571,"current_range_meters":22000,"station_id":"ce4bhrh2rcd13ifvqhug","pricing_plan_id":"cebpf4jnsgd1na2vs0mg"},{"bike_id":"0ee24610-0bd7-4d9c-88e6-def4b759fe09","system_id":"levelo_inurba_marseille","lat":43.24802,"lon":5.37456,"is_reserved":false,"is_disabled":false,"rental_uris":{"android":"levelo://app?vid=0ee24610-0bd7-4d9c-88e6-def4b759fe09","ios":"levelo://app?vid=0ee24610-0bd7-4d9c-88e6-def4b759fe09"},"vehicle_type_id":"4","last_reported":1753265571,"current_range_meters":22000,"station_id":"ce4bhgh2rcd13ifvqfb0","pricing_plan_id":"cebpf4jnsgd1na2vs0mg"},{"bike_id":"198cd75b-408b-4990-9b13-b0c9207b9be4","system_id":"levelo_inurba_marseille","lat":43.30179,"lon":5.38053,"is_reserved":false,"is_disabled":false,"rental_uris":{"android":"levelo://app?vid=198cd75b-408b-4990-9b13-b0c9207b9be4","ios":"levelo://app?vid=198cd75b-408b-4990-9b13-b0c9207b9be4"},"vehicle_type_id":"4","last_reported":1753265571,"current_range_meters":22000,"station_id":"","pricing_plan_id":"cebpf4jnsgd1na2vs0mg"},{"bike_id":"442c67f9-c065-40cb-aaf5-9f14215d74b6","system_id":"levelo_inurba_marseille","lat":43.29509,"lon":5.37497,"is_reserved":false,"is_disabled":false,"rental_uris":{"android":"levelo://app?vid=442c67f9-c065-40cb-aaf5-9f14215d74b6","ios":"levelo://app?vid=442c67f9-c065-40cb-aaf5-9f14215d74b6"},"vehicle_type_id":"4","last_reported":1753265571,"current_range_meters":22000,"station_id":"ce4bgkp2rcd13ifvqbmg","pricing_plan_id":"cebpf4jnsgd1na2vs0mg"},{"bike_id":"bf4c10c0-0a32-404d-bef4-7f75c8f4c0f7","system_id":"levelo_inurba_marseille","lat":43.29017,"lon":5.35616,"is_reserved":false,"is_disabled":false,"rental_uris":{"android":"levelo://app?vid=bf4c10c0-0a32-404d-bef4-7f75c8f4c0f7","ios":"levelo://app?vid=bf4c10c0-0a32-404d-bef4-7f75c8f4c0f7"},"vehicle_type_id":"4","last_reported":1753265571,"current_range_meters":22000,"station_id":"ce4bhb92rcd13ifvqen0","pricing_plan_id":"cebpf4jnsgd1na2vs0mg"},{"bike_id":"95e029be-2931-42c4-91fe-32f1075ca97c","system_id":"levelo_inurba_marseille","lat":43.321082,"lon":5.367687,"is_reserved":false,"is_disabled":false,"rental_uris":{"android":"levelo://app?vid=95e029be-2931-42c4-91fe-32f1075ca97c","ios":"levelo://app?vid=95e029be-2931-42c4-91fe-32f1075ca97c"},"vehicle_type_id":"4","last_reported":1753265571,"current_range_meters":22000,"station_id":"ce4bhrh2rcd13ifvqhug","pricing_plan_id":"cebpf4jnsgd1na2vs0mg"},{"bike_id":"a667f09d-1793-4e9e-bff1-4163e7ff8612","system_id":"levelo_inurba_marseille","lat":43.23195,"lon":5.35566,"is_reserved":false,"is_disabled":false,"rental_uris":{"android":"levelo://app?vid=a667f09d-1793-4e9e-bff1-4163e7ff8612","ios":"levelo://app?vid=a667f09d-1793-4e9e-bff1-4163e7ff8612"},"vehicle_type_id":"4","last_reported":1753265571,"current_range_meters":22000,"station_id":"ce4bhu92rcd13ifvqi70","pricing_plan_id":"cebpf4jnsgd1na2vs0mg"},{"bike_id":"d3c1ab3f-88a6-49cd-82b5-1e60237e3646","system_id":"levelo_inurba_marseille","lat":43.3148,"lon":5.37306,"is_reserved":false,"is_disabled":false,"rental_uris":{"android":"levelo://app?vid=d3c1ab3f-88a6-49cd-82b5-1e60237e3646","ios":"levelo://app?vid=d3c1ab3f-88a6-49cd-82b5-1e60237e3646"},"vehicle_type_id":"4","last_reported":1753265571,"current_range_meters":22000,"station_id":"ce4bgt12rcd13ifvqcd0","pricing_plan_id":"cebpf4jnsgd1na2vs0mg"},{"bike_id":"d8ab8225-ebfc-48f1-9981-f15e3b9960ea","system_id":"levelo_inurba_marseille","lat":43.22922,"lon":5.35366,"is_reserved":false,"is_disabled":false,"rental_uris":{"android":"levelo://app?vid=d8ab8225-ebfc-48f1-9981-f15e3b9960ea","ios":"levelo://app?vid=d8ab8225-ebfc-48f1-9981-f15e3b9960ea"},"vehicle_type_id":"4","last_reported":1753265571,"current_range_meters":22000,"station_id":"cpo3532slgdg3j2ikp40","pricing_plan_id":"cebpf4jnsgd1na2vs0mg"},{"bike_id":"ace7e9f2-d583-4157-aafd-35aba7652150","system_id":"levelo_inurba_marseille","lat":43.28416,"lon":5.34981,"is_reserved":false,"is_disabled":false,"rental_uris":{"android":"levelo://app?vid=ace7e9f2-d583-4157-aafd-35aba7652150","ios":"levelo://app?vid=ace7e9f2-d583-4157-aafd-35aba7652150"},"vehicle_type_id":"4","last_reported":1753265571,"current_range_meters":22000,"station_id":"ce4bhbh2rcd13ifvqepg","pricing_plan_id":"cebpf4jnsgd1na2vs0mg"},{"bike_id":"9e71a50e-df43-4a48-bc37-13460235be7b","system_id":"levelo_inurba_marseille","lat":43.241666,"lon":5.363864,"is_reserved":false,"is_disabled":false,"rental_uris":{"android":"levelo://app?vid=9e71a50e-df43-4a48-bc37-13460235be7b","ios":"levelo://app?vid=9e71a50e-df43-4a48-bc37-13460235be7b"},"vehicle_type_id":"4","last_reported":1753265571,"current_range_meters":22000,"station_id":"cpo36qri1sfpv3e86is0","pricing_plan_id":"cebpf4jnsgd1na2vs0mg"},{"bike_id":"be52bcfd-d8a6-4c51-9325-b6122d7a5e6f","system_id":"levelo_inurba_marseille","lat":43.29968,"lon":5.3849,"is_reserved":false,"is_disabled":false,"rental_uris":{"android":"levelo://app?vid=be52bcfd-d8a6-4c51-9325-b6122d7a5e6f","ios":"levelo://app?vid=be52bcfd-d8a6-4c51-9325-b6122d7a5e6f"},"vehicle_type_id":"4","last_reported":1753265571,"current_range_meters":22400,"station_id":"ce4bgj92rcd13ifvqbd0","pricing_plan_id":"cebpf4jnsgd1na2vs0mg"},{"bike_id":"38dca896-c579-480f-89db-8f6c5dddf6b3","system_id":"levelo_inurba_marseille","lat":43.28427,"lon":5.39186,"is_reserved":false,"is_disabled":false,"rental_uris":{"android":"levelo://app?vid=38dca896-c579-480f-89db-8f6c5dddf6b3","ios":"levelo://app?vid=38dca896-c579-480f-89db-8f6c5dddf6b3"},"vehicle_type_id":"4","last_reported":1753265571,"current_range_meters":22400,"station_id":"ce4bhoh2rcd13ifvqh5g","pricing_plan_id":"cebpf4jnsgd1na2vs0mg"},{"bike_id":"0aa2d153-96d1-4d69-83b8-d39119aa9dd5","system_id":"levelo_inurba_marseille","lat":43.33536,"lon":5.36209,"is_reserved":false,"is_disabled":false,"rental_uris":{"android":"levelo://app?vid=0aa2d153-96d1-4d69-83b8-d39119aa9dd5","ios":"levelo://app?vid=0aa2d153-96d1-4d69-83b8-d39119aa9dd5"},"vehicle_type_id":"4","last_reported":1753265571,"current_range_meters":22400,"station_id":"","pricing_plan_id":"cebpf4jnsgd1na2vs0mg"},{"bike_id":"e3d8a677-cc3a-49d9-ac62-a785aeb15a68","system_id":"levelo_inurba_marseille","lat":43.29082,"lon":5.40004,"is_reserved":false,"is_disabled":true,"rental_uris":{"android":"levelo://app?vid=e3d8a677-cc3a-49d9-ac62-a785aeb15a68","ios":"levelo://app?vid=e3d8a677-cc3a-49d9-ac62-a785aeb15a68"},"vehicle_type_id":"4","last_reported":1753265571,"current_range_meters":22400,"station_id":"","pricing_plan_id":"cebpf4jnsgd1na2vs0mg"},{"bike_id":"3805eb6d-85d3-45cd-a428-48f5459ccba6","system_id":"levelo_inurba_marseille","lat":43.299162,"lon":5.374771,"is_reserved":false,"is_disabled":false,"rental_uris":{"android":"levelo://app?vid=3805eb6d-85d3-45cd-a428-48f5459ccba6","ios":"levelo://app?vid=3805eb6d-85d3-45cd-a428-48f5459ccba6"},"vehicle_type_id":"4","last_reported":1753265571,"current_range_meters":22400,"station_id":"ce4bgjh2rcd13ifvqbg0","pricing_plan_id":"cebpf4jnsgd1na2vs0mg"},{"bike_id":"c54592b7-a4e8-485f-9c52-821d77a7b64c","system_id":"levelo_inurba_marseille","lat":43.262301,"lon":5.404315,"is_reserved":false,"is_disabled":false,"rental_uris":{"android":"levelo://app?vid=c54592b7-a4e8-485f-9c52-821d77a7b64c","ios":"levelo://app?vid=c54592b7-a4e8-485f-9c52-821d77a7b64c"},"vehicle_type_id":"4","last_reported":1753265571,"current_range_meters":22800,"station_id":"ce4bhmh2rcd13ifvqgmg","pricing_plan_id":"cebpf4jnsgd1na2vs0mg"},