{"last_updated":1737483159,"ttl":60,"version":"2.2","data":{"bikes":[{"bike_id":"9643f19f-7a92-4dc5-8ba1-dc75ad6a95e0","system_id":"levelo_inurba_marseille","lat":43.31267,"lon":5.40178,"is_reserved":false,"is_disabled":false,"rental_uris":{"android":"levelo://app?vid=9643f19f-7a92-4dc5-8ba1-dc75ad6a95e0","ios":"levelo://app?vid=9643f19f-7a92-4dc5-8ba1-dc75ad6a95e0"},"vehicle_type_id":"4","last_reported":1737483159,"current_range_meters":15200,"station_id":"ce4bh092rcd13ifvqd30","pricing_plan_id":"cebpf4jnsgd1na2vs0mg"},{"bike_id":"0fcc71e3-2624-43dd-986b-24fced952228","system_id":"levelo_inurba_marseille","lat":43.31719,"lon":5.424,"is_reserved":false,"is_disabled":false,"rental_uris":{"android":"levelo://app?vid=0fcc71e3-2624-43dd-986b-24fced952228","ios":"levelo://app?vid=0fcc71e3-2624-43dd-986b-24fced952228"},"vehicle_type_id":"4","last_reported":1737483159,"current_range_meters":32000,"station_id":"ce4bhp92rcd13ifvqhbg","pricing_plan_id":"cebpf4jnsgd1na2vs0mg"},{"bike_id":"d3702038-bd9f-4bca-898b-6971e8b60969","system_id":"levelo_inurba_marseille","lat":43.2762,"lon":5.36111,"is_reserved":false,"is_disabled":false,"rental_uris":{"android":"levelo://app?vid=d3702038-bd9f-4bca-898b-6971e8b60969","ios":"levelo://app?vid=d3702038-bd9f-4bca-898b-6971e8b60969"},"vehicle_type_id":"4","last_reported":1737483159,"current_range_meters":38400,"station_id":"ce4bgj92rcd13ifvqbe0","pricing_plan_id":"cebpf4jnsgd1na2vs0mg"},{"bike_id":"3948ea88-cf3f-4efe-ace3-cb99aab83717","system_id":"levelo_inurba_marseille","lat":43.28614,"lon":5.35106,"is_reserved":false,"is_disabled":false,"rental_uris":{"android":"levelo://app?vid=3948ea88-cf3f-4efe-ace3-cb99aab83717","ios":"levelo://app?vid=3948ea88-cf3f-4efe-ace3-cb99aab83717"},"vehicle_type_id":"4","last_reported":1737483159,"current_range_meters":23200,"station_id":"ce4bhch2rcd13ifvqeug","pricing_plan_id":"cebpf4jnsgd1na2vs0mg"},{"bike_id":"55dbad9e-5e23-4ba1-9963-87f7576ac874","system_id":"levelo_inurba_marseille","lat":43.28149,"lon":5.42642,"is_reserved":false,"is_disabled":false,"rental_uris":{"android":"levelo://app?vid=55dbad9e-5e23-4ba1-9963-87f7576ac874","ios":"levelo://app?vid=55dbad9e-5e23-4ba1-9963-87f7576ac874"},"vehicle_type_id":"4","last_reported":1737483159,"current_range_meters":39200,"station_id":"ce4bhnh2rcd13ifvqgug","pricing_plan_id":"cebpf4jnsgd1na2vs0mg"},{"bike_id":"1856f170-24ac-4a8a-9a69-23935e5abfc5","system_id":"levelo_inurba_marseille","lat":43.29539,"lon":5.38534,"is_reserved":false,"is_disabled":false,"rental_uris":{"android":"levelo://app?vid=1856f170-24ac-4a8a-9a69-23935e5abfc5","ios":"levelo://app?vid=1856f170-24ac-4a8a-9a69-23935e5abfc5"},"vehicle_type_id":"4","last_reported":1737483159,"current_range_meters":39200,"station_id":"ce4bgih2rcd13ifvqba0","pricing_plan_id":"cebpf4jnsgd1na2vs0mg"},{"bike_id":"9742cda9-1313-4377-8746-6c0737176838","system_id":"levelo_inurba_marseille","lat":43.29423,"lon":5.38636,"is_reserved":false,"is_disabled":false,"rental_uris":{"android":"levelo://app?vid=9742cda9-1313-4377-8746-6c0737176838","ios":"levelo://app?vid=9742cda9-1313-4377-8746-6c0737176838"},"vehicle_type_id":"4","last_reported":1737483159,"current_range_meters":30800,"station_id":"ce4bh2h2rcd13ifvqdh0","pricing_plan_id":"cebpf4jnsgd1na2vs0mg"},{"bike_id":"579da97f-04e4-4a85-bf0e-7715dc714586","system_id":"levelo_inurba_marseille","lat":43.28705,"lon":5.37392,"is_reserved":false,"is_disabled":false,"rental_uris":{"android":"levelo://app?vid=579da97f-04e4-4a85-bf0e-7715dc714586","ios":"levelo://app?vid=579da97f-04e4-4a85-bf0e-7715dc714586"},"vehicle_type_id":"4","last_reported":1737483159,"current_range_meters":39200,"station_id":"ce4bh3p2rcd13ifvqdq0","pricing_plan_id":"cebpf4jnsgd1na2vs0mg"},{"bike_id":"4f054069-62e2-4b40-8b60-396fc497e5a6","system_id":"levelo_inurba_marseille","lat":43.30801,"lon":5.38137,"is_reserved":false,"is_disabled":false,"rental_uris":{"android":"levelo://app?vid=4f054069-62e2-4b40-8b60-396fc497e5a6","ios":"levelo://app?vid=4f054069-62e2-4b40-8b60-396fc497e5a6"},"vehicle_type_id":"4","last_reported":1737483159,"current_range_meters":25200,"station_id":"ce4bgt12rcd13ifvqce0","pricing_plan_id":"cebpf4jnsgd1na2vs0mg"},{"bike_id":"7bb5cbe7-960b-4bbe-abf2-43db3023ead0","system_id":"levelo_inurba_marseille","lat":43.29629,"lon":5.37154,"is_reserved":false,"is_disabled":true,"rental_uris":{"android":"levelo://app?vid=7bb5cbe7-960b-4bbe-abf2-43db3023ead0","ios":"levelo://app?vid=7bb5cbe7-960b-4bbe-abf2-43db3023ead0"},"vehicle_type_id":"4","last_reported":1737483159,"current_range_meters":0,"station_id":"ce4bgnh2rcd13ifvqc0g","pricing_plan_id":"cebpf4jnsgd1na2vs0mg"},{"bike_id":"d828c6c0-2857-4d4f-a9aa-7c7d934ecae7","system_id":"levelo_inurba_marseille","lat":43.25084,"lon":5.39506,"is_reserved":false,"is_disabled":false,"rental_uris":{"android":"levelo://app?vid=d828c6c0-2857-4d4f-a9aa-7c7d934ecae7","ios":"levelo://app?vid=d828c6c0-2857-4d4f-a9aa-7c7d934ecae7"},"vehicle_type_id":"4","last_reported":1737483159,"current_range_meters":10800,"station_id":"ce4bhm12rcd13ifvqgkg","pricing_plan_id":"cebpf4jnsgd1na2vs0mg"},{"bike_id":"f5c03bce-9d84-4901-bb40-6ab3b31b6a90","system_id":"levelo_inurba_marseille","lat":43.27989,"lon":5.40027,"is_reserved":false,"is_disabled":false,"rental_uris":{"android":"levelo://app?vid=f5c03bce-9d84-4901-bb40-6ab3b31b6a90","ios":"levelo://app?vid=f5c03bce-9d84-4901-bb40-6ab3b31b6a90"},"vehicle_type_id":"4","last_reported":1737483159,"current_range_meters":29600,"station_id":"ce4bho92rcd13ifvqh4g","pricing_plan_id":"cebpf4jnsgd1na2vs0mg"},{"bike_id":"ab85e102-e8bc-48d9-ac36-4d53a9a08718","system_id":"levelo_inurba_marseille","lat":43.29898,"lon":5.39747,"is_reserved":false,"is_disabled":false,"rental_uris":{"android":"levelo://app?vid=ab85e102-e8bc-48d9-ac36-4d53a9a08718","ios":"levelo://app?vid=ab85e102-e8bc-48d9-ac36-4d53a9a08718"},"vehicle_type_id":"4","last_reported":1737483159,"current_range_meters":38800,"station_id":"ce4bh0h2rcd13ifvqd50","pricing_plan_id":"cebpf4jnsgd1na2vs0mg"},{"bike_id":"2948c027-3674-4ca2-a017-33393e39f681","system_id":"levelo_inurba_marseille","lat":43.27048,"lon":5.40292,"is_reserved":false,"is_disabled":false,"rental_uris":{"android":"levelo://app?vid=2948c027-3674-4ca2-a017-33393e39f681","ios":"levelo://app?vid=2948c027-3674-4ca2-a017-33393e39f681"},"vehicle_type_id":"4","last_reported":1737483159,"current_range_meters":8800,"station_id":"ce4bho92rcd13ifvqh4g","pricing_plan_id":"cebpf4jnsgd1na2vs0mg"},{"bike_id":"549c3120-8a46-4f1e-a28b-a21a94795783","system_id":"levelo_inurba_marseille","lat":43.27614,"lon":5.36102,"is_reserved":false,"is_disabled":false,"rental_uris":{"android":"levelo://app?vid=549c3120-8a46-4f1e-a28b-a21a94795783","ios":"levelo://app?vid=549c3120-8a46-4f1e-a28b-a21a94795783"},"vehicle_type_id":"4","last_reported":1737483159,"current_range_meters":35200,"station_id":"ce4bgj92rcd13ifvqbe0","pricing_plan_id":"cebpf4jnsgd1na2vs0mg"},{"bike_id":"06cfd958-c471-4dfe-8613-29275f91d3d2","system_id":"levelo_inurba_marseille","lat":43.29079,"lon":5.37185,"is_reserved":false,"is_disabled":false,"rental_uris":{"android":"levelo://app?vid=06cfd958-c471-4dfe-8613-29275f91d3d2","ios":"levelo://app?vid=06cfd958-c471-4dfe-8613-29275f91d3d2"},"vehicle_type_id":"4","last_reported":1737483159,"current_range_meters":38800,"station_id":"ce4bh5p2rcd13ifvqe4g","pricing_plan_id":"cebpf4jnsgd1na2vs0mg"},{"bike_id":"52bc02ea-6c67-46bf-8fc2-851775630678","system_id":"levelo_inurba_marseille","lat":43.26499,"lon":5.39539,"is_reserved":false,"is_disabled":false,"rental_uris":{"android":"levelo://app?vid=52bc02ea-6c67-46bf-8fc2-851775630678","ios":"levelo://app?vid=52bc02ea-6c67-46bf-8fc2-851775630678"},"vehicle_type_id":"4","last_reported":1737483159,"current_range_meters":4400,"station_id":"ce4bhi12rcd13ifvqfq0","pricing_plan_id":"cebpf4jnsgd1na2vs0mg"},{"bike_id":"a2771881-b956-4a9a-9bc9-a89642d437c9","system_id":"levelo_inurba_marseille","lat":43.23197,"lon":5.35549,"is_reserved":false,"is_disabled":false,"rental_uris":{"android":"levelo://app?vid=a2771881-b956-4a9a-9bc9-a89642d437c9","ios":"levelo://app?vid=a2771881-b956-4a9a-9bc9-a89642d437c9"},"vehicle_type_id":"4","last_reported":1737483159,"current_range_meters":38800,"station_id":"ce4bhu92rcd13ifvqi70","pricing_plan_id":"cebpf4jnsgd1na2vs0mg"},{"bike_id":"0bb5992e-424b-4c3d-b9b8-c1fb3fef77ea","system_id":"levelo_inurba_marseille","lat":43.30545,"lon":5.36525,"is_reserved":false,"is_disabled":false,"rental_uris":{"android":"levelo://app?vid=0bb5992e-424b-4c3d-b9b8-c1fb3fef77ea","ios":"levelo://app?vid=0bb5992e-424b-4c3d-b9b8-c1fb3fef77ea"},"vehicle_type_id":"4","last_reported":1737483159,"current_range_meters":9200,"station_id":"ce4bgs12rcd13ifvqcag","pricing_plan_id":"cebpf4jnsgd1na2vs0mg"},{"bike_id":"4d071c99-59bc-4138-8b76-2f04d780bbaa","system_id":"levelo_inurba_marseille","lat":43.26233,"lon":5.40454,"is_reserved":false,"is_disabled":false,"rental_uris":{"android":"levelo://app?vid=4d071c99-59bc-4138-8b76-2f04d780bbaa","ios":"levelo://app?vid=4d071c99-59bc-4138-8b76-2f04d780bbaa"},"vehicle_type_id":"4","last_reported":1737483159,"current_range_meters":17200,"station_id":"","pricing_plan_id":"cebpf4jnsgd1na2vs0mg"},{"bike_id":"486e33e8-7855-495b-91db-d85039beecf1","system_id":"levelo_inurba_marseille","lat":43.25564,"lon":5.38234,"is_reserved":false,"is_disabled":false,"rental_uris":{"android":"levelo://app?vid=486e33e8-7855-495b-91db-d85039beecf1","ios":"levelo://app?vid=486e33e8-7855-495b-91db-d85039beecf1"},"vehicle_type_id":"4","last_reported":1737483159,"current_range_meters":14800,"station_id":"ce4bhih2rcd13ifvqfs0","pricing_plan_id":"cebpf4jnsgd1na2vs0mg"},{"bike_id":"48646053-32fc-4975-9af3-6eb74098e911","system_id":"levelo_inurba_marseille","lat":43.28083,"lon":5.39652,"is_reserved":false,"is_disabled":false,"rental_uris":{"android":"levelo://app?vid=48646053-32fc-4975-9af3-6eb74098e911","ios":"levelo://app?vid=48646053-32fc-4975-9af3-6eb74098e911"},"vehicle_type_id":"4","last_reported":1737483159,"current_range_meters":39200,"station_id":"ce4bho12rcd13ifvqh2g","pricing_plan_id":"cebpf4jnsgd1na2vs0mg"},{"bike_id":"b4f85f8e-5eb1-4657-a691-e2355c2e8a45","system_id":"levelo_inurba_marseille","lat":43.28412,"lon":5.37524,"is_reserved":false,"is_disabled":false,"rental_uris":{"android":"levelo://app?vid=b4f85f8e-5eb1-4657-a691-e2355c2e8a45","ios":"levelo://app?vid=b4f85f8e-5eb1-4657-a691-e2355c2e8a45"},"vehicle_type_id":"4","last_reported":1737483159,"current_range_meters":16800,"station_id":"ce4bh412rcd13ifvqds0","pricing_plan_id":"cebpf4jnsgd1na2vs0mg"},{"bike_id":"c9c473dd-f8ae-47ca-89cb-84a46ca13bc6","system_id":"levelo_inurba_marseille","lat":43.29864,"lon":5.39736,"is_reserved":false,"is_disabled":false,"rental_uris":{"android":"levelo://app?vid=c9c473dd-f8ae-47ca-89cb-84a46ca13bc6","ios":"levelo://app?vid=c9c473dd-f8ae-47ca-89cb-84a46ca13bc6"},"vehicle_type_id":"4","last_reported":1737483159,"current_range_meters":35600,"station_id":"ce4bh0h2rcd13ifvqd50","pricing_plan_id":"cebpf4jnsgd1na2vs0mg"},{"bike_id":"2f66b440-b45a-4bb4-849a-004ece20b123","system_id":"levelo_inurba_marseille","lat":43.30317,"lon":5.36897,"is_reserved":false,"is_disabled":false,"rental_uris":{"android":"levelo://app?vid=2f66b440-b45a-4bb4-849a-004ece20b123","ios":"levelo://app?vid=2f66b440-b45a-4bb4-849a-004ece20b123"},"vehicle_type_id":"4","last_reported":1737483159,"current_range_meters":8400,"station_id":"ce4bgqh2rcd13ifvqc5g","pricing_plan_id":"cebpf4jnsgd1na2vs0mg"},{"bike_id":"1ffdeccd-e33c-4221-84f0-26fd4d079508","system_id":"levelo_inurba_marseille","lat":43.30334,"lon":5.40441,"is_reserved":false,"is_disabled":false,"rental_uris":{"android":"levelo://app?vid=1ffdeccd-e33c-4221-84f0-26fd4d079508","ios":"levelo://app?vid=1ffdeccd-e33c-4221-84f0-26fd4d079508"},"vehicle_type_id":"4","last_reported":1737483159,"current_range_meters":17600,"station_id":"ce4bh012rcd13ifvqd10","pricing_plan_id":"cebpf4jnsgd1na2vs0mg"},{"bike_id":"7a66c201-1458-4405-b390-8cea4db3f22c","system_id":"levelo_inurba_marseille","lat":43.29443,"lon":5.39756,"is_reserved":false,"is_disabled":false,"rental_uris":{"android":"levelo://app?vid=7a66c201-1458-4405-b390-8cea4db3f22c","ios":"levelo://app?vid=7a66c201-1458-4405-b390-8cea4db3f22c"},"vehicle_type_id":"4","last_reported":1737483159,"current_range_meters":24400,"station_id":"ce4bh3h2rcd13ifvqdo0","pricing_plan_id":"cebpf4jnsgd1na2vs0mg"},{"bike_id":"36a4346b-40e4-4e09-844c-85bfc6ac68a0","system_id":"levelo_inurba_marseille","lat":43.29886,"lon":5.38925,"is_reserved":false,"is_disabled":false,"rental_uris":{"android":"levelo://app?vid=36a4346b-40e4-4e09-844c-85bfc6ac68a0","ios":"levelo://app?vid=36a4346b-40e4-4e09-844c-85bfc6ac68a0"},"vehicle_type_id":"4","last_reported":1737483159,"current_range_meters":29600,"station_id":"ce4bh392rcd13ifvqdl0","pricing_plan_id":"cebpf4jnsgd1na2vs0mg"},{"bike_id":"2de721d7-051a-43b9-9c1b-9ea9d7e4f7d0","system_id":"levelo_inurba_marseille","lat":43.29627,"lon":5.3717,"is_reserved":false,"is_disabled":true,"rental_uris":{"android":"levelo://app?vid=2de721d7-051a-43b9-9c1b-9ea9d7e4f7d0","ios":"levelo://app?vid=2de721d7-051a-43b9-9c1b-9ea9d7e4f7d0"},"vehicle_type_id":"4","last_reported":1737483159,"current_range_meters":0,"station_id":"ce4bgnh2rcd13ifvqc0g","pricing_plan_id":"cebpf4jnsgd1na2vs0mg"},{"bike_id":"63ac8898-13b7-41ff-9418-e58ae0dbf1ba","system_id":"levelo_inurba_marseille","lat":43.27815,"lon":5.40712,"is_reserved":false,"is_disabled":true,"rental_uris":{"android":"levelo://app?vid=63ac8898-13b7-41ff-9418-e58ae0dbf1ba","ios":"levelo://app?vid=63ac8898-13b7-41ff-9418-e58ae0dbf1ba"},"vehicle_type_id":"4","last_reported":1737483159,"current_range_meters":27600,"station_id":"ce4bhnh2rcd13ifvqgtg","pricing_plan_id":"cebpf4jnsgd1na2vs0mg"},{"bike_id":"d91be513-c350-4df2-80c9-9eac41eaf470","system_id":"levelo_inurba_marseille","lat":43.27933,"lon":5.38701,"is_reserved":false,"is_disabled":true,"rental_uris":{"android":"levelo://app?vid=d91be513-c350-4df2-80c9-9eac41eaf470","ios":"levelo://app?vid=d91be513-c350-4df2-80c9-9eac41eaf470"},"vehicle_type_id":"4","last_reported":1737483159,"current_range_meters":0,"station_id":"","pricing_plan_id":"cebpf4jnsgd1na2vs0mg"},{"bike_id":"56c16567-a209-442e-b152-823591129e8b","system_id":"levelo_inurba_marseille","lat":43.28274,"lon":5.35062,"is_reserved":false,"is_disabled":false,"rental_uris":{"android":"levelo://app?vid=56c16567-a209-442e-b152-823591129e8b","ios":"levelo://app?vid=56c16567-a209-442e-b152-823591129e8b"},"vehicle_type_id":"4","last_reported":1737483159,"current_range_meters":3600,"station_id":"ce4bhbp2rcd13ifvqerg","pricing_plan_id":"cebpf4jnsgd1na2vs0mg"},{"bike_id":"bda5c3c5-1ce2-40be-87ca-14619f5b97ef","system_id":"levelo_inurba_marseille","lat":43.3133,"lon":5.39689,"is_reserved":false,"is_disabled":false,"rental_uris":{"android":"levelo://app?vid=bda5c3c5-1ce2-40be-87ca-14619f5b97ef","ios":"levelo://app?vid=bda5c3c5-1ce2-40be-87ca-14619f5b97ef"},"vehicle_type_id":"4","last_reported":1737483159,"current_range_meters":39200,"station_id":"ce4bgvp2rcd13ifvqcu0","pricing_plan_id":"cebpf4jnsgd1na2vs0mg"},{"bike_id":"c53aa5a0-eeea-4393-a278-fafd5f6a5b06","system_id":"levelo_inurba_marseille","lat":43.2945,"lon":5.39753,"is_reserved":false,"is_disabled":false,"rental_uris":{"android":"levelo://app?vid=c53aa5a0-eeea-4393-a278-fafd5f6a5b06","ios":"levelo://app?vid=c53aa5a0-eeea-4393-a278-fafd5f6a5b06"},"vehicle_type_id":"4","last_reported":1737483159,"current_range_meters":4800,"station_id":"ce4bh3h2rcd13ifvqdo0","pricing_plan_id":"cebpf4jnsgd1na2vs0mg"},{"bike_id":"aac04fa0-0701-4ce8-9545-0dc9661c82a0","system_id":"levelo_inurba_marseille","lat":43.31124,"lon":5.3777,"is_reserved":false,"is_disabled":false,"rental_uris":{"android":"levelo://app?vid=aac04fa0-0701-4ce8-9545-0dc9661c82a0","ios":"levelo://app?vid=aac04fa0-0701-4ce8-9545-0dc9661c82a0"},"vehicle_type_id":"4","last_reported":1737483159,"current_range_meters":20800,"station_id":"ce4bgt92rcd13ifvqcg0","pricing_plan_id":"cebpf4jnsgd1na2vs0mg"},{"bike_id":"5abf3f81-8b66-4826-861d-55abbb651539","system_id":"levelo_inurba_marseille","lat":43.337444,"lon":5.374475,"is_reserved":false,"is_disabled":true,"rental_uris":{"android":"levelo://app?vid=5abf3f81-8b66-4826-861d-55abbb651539","ios":"levelo://app?vid=5abf3f81-8b66-4826-861d-55abbb651539"},"vehicle_type_id":"4","last_reported":1737483159,"current_range_meters":0,"station_id":"","pricing_plan_id":"cebpf4jnsgd1na2vs0mg"},{"bike_id":"482d5205-a37c-4f5f-8be9-7d1f95ca025d","system_id":"levelo_inurba_marseille","lat":43.25829,"lon":5.3944,"is_reserved":false,"is_disabled":false,"rental_uris":{"android":"levelo://app?vid=482d5205-a37c-4f5f-8be9-7d1f95ca025d","ios":"levelo://app?vid=482d5205-a37c-4f5f-8be9-7d1f95ca025d"},"vehicle_type_id":"4","last_reported":1737483159,"current_range_meters":16800,"station_id":"ce4bhip2rcd13ifvqft0","pricing_plan_id":"cebpf4jnsgd1na2vs0mg"},{"bike_id":"9bc726c4-f0ae-46a7-9894-3042b33f1aaf","system_id":"levelo_inurba_marseille","lat":43.23148,"lon":5.43706,"is_reserved":false,"is_disabled":false,"rental_uris":{"android":"levelo://app?vid=9bc726c4-f0ae-46a7-9894-3042b33f1aaf","ios":"levelo://app?vid=9bc726c4-f0ae-46a7-9894-3042b33f1aaf"},"vehicle_type_id":"4","last_reported":1737483159,"current_range_meters":38800,"station_id":"ce4bhmp2rcd13ifvqgog","pricing_plan_id":"cebpf4jnsgd1na2vs0mg"},{"bike_id":"04656797-d164-454b-8244-55edc7fec428","system_id":"levelo_inurba_marseille","lat":43.31722,"lon":5.42403,"is_reserved":false,"is_disabled":false,"rental_uris":{"android":"levelo://app?vid=04656797-d164-454b-8244-55edc7fec428","ios":"levelo://app?vid=04656797-d164-454b-8244-55edc7fec428"},"vehicle_type_id":"4","last_reported":1737483159,"current_range_meters":39200,"station_id":"ce4bhp92rcd13ifvqhbg","pricing_plan_id":"cebpf4jnsgd1na2vs0mg"},{"bike_id":"8f0e139a-dde3-4169-8e33-598bfa2994af","system_id":"levelo_inurba_marseille","lat":43.29518,"lon":5.3904,"is_reserved":false,"is_disabled":false,"rental_uris":{"android":"levelo://app?vid=8f0e139a-dde3-4169-8e33-598bfa2994af","ios":"levelo://app?vid=8f0e139a-dde3-4169-8e33-598bfa2994af"},"vehicle_type_id":"4","last_reported":1737483159,"current_range_meters":31200,"station_id":"ce4bh3p2rcd13ifvqdp0","pricing_plan_id":"cebpf4jnsgd1na2vs0mg"},{"bike_id":"1f16ad06-6773-4946-8305-97dc88287b9f","system_id":"levelo_inurba_marseille","lat":43.30805,"lon":5.3735,"is_reserved":false,"is_disabled":false,"rental_uris":{"android":"levelo://app?vid=1f16ad06-6773-4946-8305-97dc88287b9f","ios":"levelo://app?vid=1f16ad06-6773-4946-8305-97dc88287b9f"},"vehicle_type_id":"4","last_reported":1737483159,"current_range_meters":25600,"station_id":"","pricing_plan_id":"cebpf4jnsgd1na2vs0mg"},{"bike_id":"3b374bdf-c314-4020-9f65-92ca0a141019","system_id":"levelo_inurba_marseille","lat":43.29737,"lon":5.3662,"is_reserved":false,"is_disabled":false,"rental_uris":{"android":"levelo://app?vid=3b374bdf-c314-4020-9f65-92ca0a141019","ios":"levelo://app?vid=3b374bdf-c314-4020-9f65-92ca0a141019"},"vehicle_type_id":"4","last_reported":1737483159,"current_range_meters":38800,"station_id":"ce4bgn12rcd13ifvqbt0","pricing_plan_id":"cebpf4jnsgd1na2vs0mg"},{"bike_id":"985d31d0-67ba-4589-bc61-b9dd7f015be0","system_id":"levelo_inurba_marseille","lat":43.2936,"lon":5.37826,"is_reserved":false,"is_disabled":true,"rental_uris":{"android":"levelo://app?vid=985d31d0-67ba-4589-bc61-b9dd7f015be0","ios":"levelo://app?vid=985d31d0-67ba-4589-bc61-b9dd7f015be0"},"vehicle_type_id":"4","last_reported":1737483159,"current_range_meters":1200,"station_id":"ce4bgjh2rcd13ifvqbf0","pricing_plan_id":"cebpf4jnsgd1na2vs0mg"},{"bike_id":"2dba50ed-3ea3-4236-9c91-49787f02ddd5","system_id":"levelo_inurba_marseille","lat":43.27212,"lon":5.41007,"is_reserved":false,"is_disabled":false,"rental_uris":{"android":"levelo://app?vid=2dba50ed-3ea3-4236-9c91-49787f02ddd5","ios":"levelo://app?vid=2dba50ed-3ea3-4236-9c91-49787f02ddd5"},"vehicle_type_id":"4","last_reported":1737483159,"current_range_meters":35600,"station_id":"ce4bhl12rcd13ifvqgf0","pricing_plan_id":"cebpf4jnsgd1na2vs0mg"},{"bike_id":"1f6dc155-db14-4993-a445-66a4306b1945","system_id":"levelo_inurba_marseille","lat":43.2841,"lon":5.37522,"is_reserved":false,"is_disabled":false,"rental_uris":{"android":"levelo://app?vid=1f6dc155-db14-4993-a445-66a4306b1945","ios":"levelo://app?vid=1f6dc155-db14-4993-a445-66a4306b1945"},"vehicle_type_id":"4","last_reported":1737483159,"current_range_meters":28000,"station_id":"ce4bh412rcd13ifvqds0","pricing_plan_id":"cebpf4jnsgd1na2vs0mg"},{"bike_id":"fb051a1b-f405-4fb7-8edb-82e638aff8f9","system_id":"levelo_inurba_marseille","lat":43.298413,"lon":5.362207,"is_reserved":false,"is_disabled":false,"rental_uris":{"android":"levelo://app?vid=fb051a1b-f405-4fb7-8edb-82e638aff8f9","ios":"levelo://app?vid=fb051a1b-f405-4fb7-8edb-82e638aff8f9"},"vehicle_type_id":"4","last_reported":1737483159,"current_range_meters":38400,"station_id":"ce4bgpp2rcd13ifvqc3g","pricing_plan_id":"cebpf4jnsgd1na2vs0mg"},{"bike_id":"63468950-507d-45fc-b23b-b241b7129b89","system_id":"levelo_inurba_marseille","lat":43.23191,"lon":5.4,"is_reserved":false,"is_disabled":false,"rental_uris":{"android":"levelo://app?vid=63468950-507d-45fc-b23b-b241b7129b89","ios":"levelo://app?vid=63468950-507d-45fc-b23b-b241b7129b89"},"vehicle_type_id":"4","last_reported":1737483159,"current_range_meters":32800,"station_id":"ce4bhn12rcd13ifvqgqg","pricing_plan_id":"cebpf4jnsgd1na2vs0mg"},{"bike_id":"c1751df2-a375-41a4-ac9f-3f3e0a9abd7f","system_id":"levelo_inurba_marseille","lat":43.29294,"lon":5.37449,"is_reserved":false,"is_disabled":false,"rental_uris":{"android":"levelo://app?vid=c1751df2-a375-41a4-ac9f-3f3e0a9abd7f","ios":"levelo://app?vid=c1751df2-a375-41a4-ac9f-3f3e0a9abd7f"},"vehicle_type_id":"4","last_reported":1737483159,"current_range_meters":27600,"station_id":"ce4bgi12rcd13ifvqb70","pricing_plan_id":"cebpf4jnsgd1na2vs0mg"},{"bike_id":"b75b339b-ddfa-456c-9c10-959aeccc02db","system_id":"levelo_inurba_marseille","lat":43.2466,"lon":5.38161,"is_reserved":false,"is_disabled":false,"rental_uris":{"android":"levelo://app?vid=b75b339b-ddfa-456c-9c10-959aeccc02db","ios":"levelo://app?vid=b75b339b-ddfa-456c-9c10-959aeccc02db"},"vehicle_type_id":"4","last_reported":1737483159,"current_range_meters":28000,"station_id":"ce4bhih2rcd13ifvqfr0","pricing_plan_id":"cebpf4jnsgd1na2vs0mg"},{"bike_id":"5f3e33e0-1440-43a4-8e39-b11dd60dc85b","system_id":"levelo_inurba_marseille","lat":43.28329,"lon":5.38074,"is_reserved":false,"is_disabled":false,"rental_uris":{"android":"levelo://app?vid=5f3e33e0-1440-43a4-8e39-b11dd60dc85b","ios":"levelo://app?vid=5f3e33e0-1440-43a4-8e39-b11dd60dc85b"},"vehicle_type_id":"4","last_reported":1737483159,"current_range_meters":38800,"station_id":"ce4bh412rcd13ifvqdr0","pricing_plan_id":"cebpf4jnsgd1na2vs0mg"},{"bike_id":"bcd175e1-1fd1-4b01-ba8a-35156c99c1cc","system_id":"levelo_inurba_marseille","lat":43.31278,"lon":5.40185,"is_reserved":false,"is_disabled":false,"rental_uris":{"android":"levelo://app?vid=bcd175e1-1fd1-4b01-ba8a-35156c99c1cc","ios":"levelo://app?vid=bcd175e1-1fd1-4b01-ba8a-35156c99c1cc"},"vehicle_type_id":"4","last_reported":1737483159,"current_range_meters":38800,"station_id":"ce4bh092rcd13ifvqd30","pricing_plan_id":"cebpf4jnsgd1na2vs0mg"},{"bike_id":"89d12cd8-f184-4864-80fb-ae587f301e19","system_id":"levelo_inurba_marseille","lat":43.27834,"lon":5.392,"is_reserved":false,"is_disabled":true,"rental_uris":{"android":"levelo://app?vid=89d12cd8-f184-4864-80fb-ae587f301e19","ios":"levelo://app?vid=89d12cd8-f184-4864-80fb-ae587f301e19"},"vehicle_type_id":"4","last_reported":1737483159,"current_range_meters":400,"station_id":"ce4bhjp2rcd13ifvqga0","pricing_plan_id":"cebpf4jnsgd1na2vs0mg"},{"bike_id":"167e9de6-d22e-4be2-9a0b-254645a4d40c","system_id":"levelo_inurba_marseille","lat":43.29795,"lon":5.39346,"is_reserved":false,"is_disabled":false,"rental_uris":{"android":"levelo://app?vid=167e9de6-d22e-4be2-9a0b-254645a4d40c","ios":"levelo://app?vid=167e9de6-d22e-4be2-9a0b-254645a4d40c"},"vehicle_type_id":"4","last_reported":1737483159,"current_range_meters":26000,"station_id":"chh1huq6cuj3fo74tm60","pricing_plan_id":"cebpf4jnsgd1na2vs0mg"},{"bike_id":"25cce461-9c2a-4621-ab6f-7612add39744","system_id":"levelo_inurba_marseille","lat":43.31338,"lon":5.39699,"is_reserved":false,"is_disabled":false,"rental_uris":{"android":"levelo://app?vid=25cce461-9c2a-4621-ab6f-7612add39744","ios":"levelo://app?vid=25cce461-9c2a-4621-ab6f-7612add39744"},"vehicle_type_id":"4","last_reported":1737483159,"current_range_meters":39200,"station_id":"ce4bgvp2rcd13ifvqcu0","pricing_plan_id":"cebpf4jnsgd1na2vs0mg"},{"bike_id":"35ab74bf-ca0a-4c59-8b95-2fc582079dd5","system_id":"levelo_inurba_marseille","lat":43.30101,"lon":5.39081,"is_reserved":false,"is_disabled":false,"rental_uris":{"android":"levelo://app?vid=35ab74bf-ca0a-4c59-8b95-2fc582079dd5","ios":"levelo://app?vid=35ab74bf-ca0a-4c59-8b95-2fc582079dd5"},"vehicle_type_id":"4","last_reported":1737483159,"current_range_meters":33600,"station_id":"ce4bh192rcd13ifvqdb0","pricing_plan_id":"cebpf4jnsgd1na2vs0mg"},{"bike_id":"de382397-460c-4a38-9842-3e592792412d","system_id":"levelo_inurba_marseille","lat":43.26927,"lon":5.3891,"is_reserved":false,"is_disabled":false,"rental_uris":{"android":"levelo://app?vid=de382397-460c-4a38-9842-3e592792412d","ios":"levelo://app?vid=de382397-460c-4a38-9842-3e592792412d"},"vehicle_type_id":"4","last_reported":1737483159,"current_range_meters":23200,"station_id":"ce4bhhh2rcd13ifvqfl0","pricing_plan_id":"cebpf4jnsgd1na2vs0mg"},{"bike_id":"2b2a080b-639b-4823-8970-300e7eb9a076","system_id":"levelo_inurba_marseille","lat":43.31173,"lon":5.38716,"is_reserved":false,"is_disabled":false,"rental_uris":{"android":"levelo://app?vid=2b2a080b-639b-4823-8970-300e7eb9a076","ios":"levelo://app?vid=2b2a080b-639b-4823-8970-300e7eb9a076"},"vehicle_type_id":"4","last_reported":1737483159,"current_range_meters":22000,"station_id":"ce4bgv12rcd13ifvqcp0","pricing_plan_id":"cebpf4jnsgd1na2vs0mg"},{"bike_id":"229dd1d5-aa46-48d3-b747-f187a4236bff","system_id":"levelo_inurba_marseille","lat":43.32361,"lon":5.38891,"is_reserved":false,"is_disabled":false,"rental_uris":{"android":"levelo://app?vid=229dd1d5-aa46-48d3-b747-f187a4236bff","ios":"levelo://app?vid=229dd1d5-aa46-48d3-b747-f187a4236bff"},"vehicle_type_id":"4","last_reported":1737483159,"current_range_meters":26800,"station_id":"ce4bhqp2rcd13ifvqhog","pricing_plan_id":"cebpf4jnsgd1na2vs0mg"},{"bike_id":"16b5f34e-f3e2-4324-b0c8-0221b4770b7d","system_id":"levelo_inurba_marseille","lat":43.28154,"lon":5.42635,"is_reserved":false,"is_disabled":false,"rental_uris":{"android":"levelo://app?vid=16b5f34e-f3e2-4324-b0c8-0221b4770b7d","ios":"levelo://app?vid=16b5f34e-f3e2-4324-b0c8-0221b4770b7d"},"vehicle_type_id":"4","last_reported":1737483159,"current_range_meters":32000,"station_id":"ce4bhnh2rcd13ifvqgug","pricing_plan_id":"cebpf4jnsgd1na2vs0mg"},{"bike_id":"a237ffd8-0a39-46c3-9d88-3f4b2e64fb00","system_id":"levelo_inurba_marseille","lat":43.307913,"lon":5.368105,"is_reserved":false,"is_disabled":false,"rental_uris":{"android":"levelo://app?vid=a237ffd8-0a39-46c3-9d88-3f4b2e64fb00","ios":"levelo://app?vid=a237ffd8-0a39-46c3-9d88-3f4b2e64fb00"},"vehicle_type_id":"4","last_reported":1737483159,"current_range_meters":35200,"station_id":"ce4bgn92rcd13ifvqbvg","pricing_plan_id":"cebpf4jnsgd1na2vs0mg"},{"bike_id":"d2d8e450-ceb4-4e79-abe9-ded25f1a7625","system_id":"levelo_inurba_marseille","lat":43.28668,"lon":5.36349,"is_reserved":false,"is_disabled":false,"rental_uris":{"android":"levelo://app?vid=d2d8e450-ceb4-4e79-abe9-ded25f1a7625","ios":"levelo://app?vid=d2d8e450-ceb4-4e79-abe9-ded25f1a7625"},"vehicle_type_id":"4","last_reported":1737483159,"current_range_meters":39200,"station_id":"ce4bhah2rcd13ifvqej0","pricing_plan_id":"cebpf4jnsgd1na2vs0mg"},{"bike_id":"b6cc31be-151e-4d56-8839-e71a9cd45b18","system_id":"levelo_inurba_marseille","lat":43.23194,"lon":5.35555,"is_reserved":false,"is_disabled":false,"rental_uris":{"android":"levelo://app?vid=b6cc31be-151e-4d56-8839-e71a9cd45b18","ios":"levelo://app?vid=b6cc31be-151e-4d56-8839-e71a9cd45b18"},"vehicle_type_id":"4","last_reported":1737483159,"current_range_meters":36000,"station_id":"ce4bhu92rcd13ifvqi70","pricing_plan_id":"cebpf4jnsgd1na2vs0mg"},{"bike_id":"2799c8cc-756c-4aea-b7b0-0c1669879e7b","system_id":"levelo_inurba_marseille","lat":43.28847,"lon":5.35875,"is_reserved":false,"is_disabled":false,"rental_uris":{"android":"levelo://app?vid=2799c8cc-756c-4aea-b7b0-0c1669879e7b","ios":"levelo://app?vid=2799c8cc-756c-4aea-b7b0-0c1669879e7b"},"vehicle_type_id":"4","last_reported":1737483159,"current_range_meters":13600,"station_id":"ce4bhb12rcd13ifvqem0","pricing_plan_id":"cebpf4jnsgd1na2vs0mg"},{"bike_id":"fe64966a-e343-4da5-b7d8-a247430a1c88","system_id":"levelo_inurba_marseille","lat":43.3298,"lon":5.39188,"is_reserved":false,"is_disabled":false,"rental_uris":{"android":"levelo://app?vid=fe64966a-e343-4da5-b7d8-a247430a1c88","ios":"levelo://app?vid=fe64966a-e343-4da5-b7d8-a247430a1c88"},"vehicle_type_id":"4","last_reported":1737483159,"current_range_meters":27600,"station_id":"","pricing_plan_id":"cebpf4jnsgd1na2vs0mg"},{"bike_id":"15524234-5401-4aa4-b353-f94ac2bcdc0d","system_id":"levelo_inurba_marseille","lat":43.29425,"lon":5.38625,"is_reserved":false,"is_disabled":false,"rental_uris":{"android":"levelo://app?vid=15524234-5401-4aa4-b353-f94ac2bcdc0d","ios":"levelo://app?vid=15524234-5401-4aa4-b353-f94ac2bcdc0d"},"vehicle_type_id":"4","last_reported":1737483159,"current_range_meters":38800,"station_id":"ce4bh2h2rcd13ifvqdh0","pricing_plan_id":"cebpf4jnsgd1na2vs0mg"},{"bike_id":"1653f421-5e2b-4c2e-a6d1-56404dc1cb20","system_id":"levelo_inurba_marseille","lat":43.26558,"lon":5.37284,"is_reserved":false,"is_disabled":false,"rental_uris":{"android":"levelo://app?vid=1653f421-5e2b-4c2e-a6d1-56404dc1cb20","ios":"levelo://app?vid=1653f421-5e2b-4c2e-a6d1-56404dc1cb20"},"vehicle_type_id":"4","last_reported":1737483159,"current_range_meters":35600,"station_id":"ce4bhg12rcd13ifvqf70","pricing_plan_id":"cebpf4jnsgd1na2vs0mg"},{"bike_id":"3690aea7-07e6-4f20-9da7-ec7d8770835d","system_id":"levelo_inurba_marseille","lat":43.31165,"lon":5.3872,"is_reserved":false,"is_disabled":false,"rental_uris":{"android":"levelo://app?vid=3690aea7-07e6-4f20-9da7-ec7d8770835d","ios":"levelo://app?vid=3690aea7-07e6-4f20-9da7-ec7d8770835d"},"vehicle_type_id":"4","last_reported":1737483159,"current_range_meters":18000,"station_id":"ce4bgv12rcd13ifvqcp0","pricing_plan_id":"cebpf4jnsgd1na2vs0mg"},{"bike_id":"7913d9ce-121f-49fa-9a7c-09d5d8f80136","system_id":"levelo_inurba_marseille","lat":43.27904,"lon":5.38018,"is_reserved":false,"is_disabled":false,"rental_uris":{"android":"levelo://app?vid=7913d9ce-121f-49fa-9a7c-09d5d8f80136","ios":"levelo://app?vid=7913d9ce-121f-49fa-9a7c-09d5d8f80136"},"vehicle_type_id":"4","last_reported":1737483159,"current_range_meters":28400,"station_id":"ce4bhf92rcd13ifvqf50","pricing_plan_id":"cebpf4jnsgd1na2vs0mg"},{"bike_id":"325f5d95-3834-4102-8bbb-39fd80a69fc8","system_id":"levelo_inurba_marseille","lat":43.33164,"lon":5.40657,"is_reserved":false,"is_disabled":false,"rental_uris":{"android":"levelo://app?vid=325f5d95-3834-4102-8bbb-39fd80a69fc8","ios":"levelo://app?vid=325f5d95-3834-4102-8bbb-39fd80a69fc8"},"vehicle_type_id":"4","last_reported":1737483159,"current_range_meters":36800,"station_id":"","pricing_plan_id":"cebpf4jnsgd1na2vs0mg"},{"bike_id":"38406af1-5b85-4db9-8352-5ca42fe7f43c","system_id":"levelo_inurba_marseille","lat":43.25581,"lon":5.38232,"is_reserved":false,"is_disabled":false,"rental_uris":{"android":"levelo://app?vid=38406af1-5b85-4db9-8352-5ca42fe7f43c","ios":"levelo://app?vid=38406af1-5b85-4db9-8352-5ca42fe7f43c"},"vehicle_type_id":"4","last_reported":1737483159,"current_range_meters":10800,"station_id":"ce4bhih2rcd13ifvqfs0","pricing_plan_id":"cebpf4jnsgd1na2vs0mg"},{"bike_id":"e1b86826-a513-4fa0-8111-6fab965861d5","system_id":"levelo_inurba_marseille","lat":43.31713,"lon":5.4371,"is_reserved":false,"is_disabled":false,"rental_uris":{"android":"levelo://app?vid=e1b86826-a513-4fa0-8111-6fab965861d5","ios":"levelo://app?vid=e1b86826-a513-4fa0-8111-6fab965861d5"},"vehicle_type_id":"4","last_reported":1737483159,"current_range_meters":13600,"station_id":"ce4bhp92rcd13ifvqhcg","pricing_plan_id":"cebpf4jnsgd1na2vs0mg"},{"bike_id":"ffd1b389-c3e7-4e31-bba8-d5204fb953c6","system_id":"levelo_inurba_marseille","lat":43.28941,"lon":5.36416,"is_reserved":false,"is_disabled":false,"rental_uris":{"android":"levelo://app?vid=ffd1b389-c3e7-4e31-bba8-d5204fb953c6","ios":"levelo://app?vid=ffd1b389-c3e7-4e31-bba8-d5204fb953c6"},"vehicle_type_id":"4","last_reported":1737483159,"current_range_meters":32800,"station_id":"ce4bhc92rcd13ifvqetg","pricing_plan_id":"cebpf4jnsgd1na2vs0mg"},{"bike_id":"cfb7bb33-106d-4ac0-9223-5a80bd6716f4","system_id":"levelo_inurba_marseille","lat":43.29529,"lon":5.38539,"is_reserved":false,"is_disabled":false,"rental_uris":{"android":"levelo://app?vid=cfb7bb33-106d-4ac0-9223-5a80bd6716f4","ios":"levelo://app?vid=cfb7bb33-106d-4ac0-9223-5a80bd6716f4"},"vehicle_type_id":"4","last_reported":1737483159,"current_range_meters":39200,"station_id":"ce4bgih2rcd13ifvqba0","pricing_plan_id":"cebpf4jnsgd1na2vs0mg"},{"bike_id":"2512448d-137b-4c58-a2dc-a8485ce50ee5","system_id":"levelo_inurba_marseille","lat":43.27813,"lon":5.40725,"is_reserved":false,"is_disabled":true,"rental_uris":{"android":"levelo://app?vid=2512448d-137b-4c58-a2dc-a8485ce50ee5","ios":"levelo://app?vid=2512448d-137b-4c58-a2dc-a8485ce50ee5"},"vehicle_type_id":"4","last_reported":1737483159,"current_range_meters":0,"station_id":"ce4bhnh2rcd13ifvqgtg","pricing_plan_id":"cebpf4jnsgd1na2vs0mg"},{"bike_id":"634209e3-3cbb-4c60-90f5-360bdd80956f","system_id":"levelo_inurba_marseille","lat":43.30469,"lon":5.37908,"is_reserved":false,"is_disabled":false,"rental_uris":{"android":"levelo://app?vid=634209e3-3cbb-4c60-90f5-360bdd80956f","ios":"levelo://app?vid=634209e3-3cbb-4c60-90f5-360bdd80956f"},"vehicle_type_id":"4","last_reported":1737483159,"current_range_meters":18800,"station_id":"ce4bgup2rcd13ifvqcn0","pricing_plan_id":"cebpf4jnsgd1na2vs0mg"},{"bike_id":"f74368c7-d357-4224-9e6d-5e00530203e7","system_id":"levelo_inurba_marseille","lat":43.28074,"lon":5.39647,"is_reserved":false,"is_disabled":false,"rental_uris":{"android":"levelo://app?vid=f74368c7-d357-4224-9e6d-5e00530203e7","ios":"levelo://app?vid=f74368c7-d357-4224-9e6d-5e00530203e7"},"vehicle_type_id":"4","last_reported":1737483159,"current_range_meters":39200,"station_id":"ce4bho12rcd13ifvqh2g","pricing_plan_id":"cebpf4jnsgd1na2vs0mg"},{"bike_id":"25204642-af9c-46b0-b7a6-736065cefdd6","system_id":"levelo_inurba_marseille","lat":43.28475,"lon":5.3841,"is_reserved":false,"is_disabled":false,"rental_uris":{"android":"levelo://app?vid=25204642-af9c-46b0-b7a6-736065cefdd6","ios":"levelo://app?vid=25204642-af9c-46b0-b7a6-736065cefdd6"},"vehicle_type_id":"4","last_reported":1737483159,"current_range_meters":22800,"station_id":"ce4bh512rcd13ifvqe3g","pricing_plan_id":"cebpf4jnsgd1na2vs0mg"},{"bike_id":"b2914432-1e6b-4d29-a281-869af3bb4d4f","system_id":"levelo_inurba_marseille","lat":43.30089,"lon":5.39073,"is_reserved":false,"is_disabled":false,"rental_uris":{"android":"levelo://app?vid=b2914432-1e6b-4d29-a281-869af3bb4d4f","ios":"levelo://app?vid=b2914432-1e6b-4d29-a281-869af3bb4d4f"},"vehicle_type_id":"4","last_reported":1737483159,"current_range_meters":25200,"station_id":"ce4bh192rcd13ifvqdb0","pricing_plan_id":"cebpf4jnsgd1na2vs0mg"},{"bike_id":"1f5cb474-798b-4357-9d76-fbb42e648fb5","system_id":"levelo_inurba_marseille","lat":43.286259,"lon":5.350979,"is_reserved":false,"is_disabled":false,"rental_uris":{"android":"levelo://app?vid=1f5cb474-798b-4357-9d76-fbb42e648fb5","ios":"levelo://app?vid=1f5cb474-798b-4357-9d76-fbb42e648fb5"},"vehicle_type_id":"4","last_reported":1737483159,"current_range_meters":14000,"station_id":"ce4bhch2rcd13ifvqeug","pricing_plan_id":"cebpf4jnsgd1na2vs0mg"},{"bike_id":"6efe31cc-0992-44f6-9461-e1e3f6c96fc9","system_id":"levelo_inurba_marseille","lat":43.296181,"lon":5.371685,"is_reserved":false,"is_disabled":false,"rental_uris":{"android":"levelo://app?vid=6efe31cc-0992-44f6-9461-e1e3f6c96fc9","ios":"levelo://app?vid=6efe31cc-0992-44f6-9461-e1e3f6c96fc9"},"vehicle_type_id":"4","last_reported":1737483159,"current_range_meters":10800,"station_id":"ce4bgnh2rcd13ifvqc0g","pricing_plan_id":"cebpf4jnsgd1na2vs0mg"},{"bike_id":"fdbf52a4-5b86-40d6-993c-74a826bb5b91","system_id":"levelo_inurba_marseille","lat":43.29224,"lon":5.36048,"is_reserved":false,"is_disabled":false,"rental_uris":{"android":"levelo://app?vid=fdbf52a4-5b86-40d6-993c-74a826bb5b91","ios":"levelo://app?vid=fdbf52a4-5b86-40d6-993c-74a826bb5b91"},"vehicle_type_id":"4","last_reported":1737483159,"current_range_meters":36400,"station_id":"ce4bhbh2rcd13ifvqeqg","pricing_plan_id":"cebpf4jnsgd1na2vs0mg"},{"bike_id":"32469476-dee1-438e-9405-5dc261e0c7ec","system_id":"levelo_inurba_marseille","lat":43.28483,"lon":5.38535,"is_reserved":false,"is_disabled":false,"rental_uris":{"android":"levelo://app?vid=32469476-dee1-438e-9405-5dc261e0c7ec","ios":"levelo://app?vid=32469476-dee1-438e-9405-5dc261e0c7ec"},"vehicle_type_id":"4","last_reported":1737483159,"current_range_meters":38800,"station_id":"ce4bh8p2rcd13ifvqeb0","pricing_plan_id":"cebpf4jnsgd1na2vs0mg"},{"bike_id":"ffd7c4fe-f08d-4068-a8be-e9f7f9b28e25","system_id":"levelo_inurba_marseille","lat":43.26786,"lon":5.39408,"is_reserved":false,"is_disabled":false,"rental_uris":{"android":"levelo://app?vid=ffd7c4fe-f08d-4068-a8be-e9f7f9b28e25","ios":"levelo://app?vid=ffd7c4fe-f08d-4068-a8be-e9f7f9b28e25"},"vehicle_type_id":"4","last_reported":1737483159,"current_range_meters":6000,"station_id":"ce4bhh12rcd13ifvqfg0","pricing_plan_id":"cebpf4jnsgd1na2vs0mg"},{"bike_id":"21a91e03-5954-4c62-a3e4-77ec3ce55606","system_id":"levelo_inurba_marseille","lat":43.27684,"lon":5.38867,"is_reserved":false,"is_disabled":false,"rental_uris":{"android":"levelo://app?vid=21a91e03-5954-4c62-a3e4-77ec3ce55606","ios":"levelo://app?vid=21a91e03-5954-4c62-a3e4-77ec3ce55606"},"vehicle_type_id":"4","last_reported":1737483159,"current_range_meters":38400,"station_id":"ce4bhi12rcd13ifvqfo0","pricing_plan_id":"cebpf4jnsgd1na2vs0mg"},{"bike_id":"de27201a-fa66-4847-a69c-e793d066586a","system_id":"levelo_inurba_marseille","lat":43.31113,"lon":5.37773,"is_reserved":false,"is_disabled":false,"rental_uris":{"android":"levelo://app?vid=de27201a-fa66-4847-a69c-e793d066586a","ios":"levelo://app?vid=de27201a-fa66-4847-a69c-e793d066586a"},"vehicle_type_id":"4","last_reported":1737483159,"current_range_meters":18000,"station_id":"ce4bgt92rcd13ifvqcg0","pricing_plan_id":"cebpf4jnsgd1na2vs0mg"},{"bike_id":"f542ccc3-203e-41c0-bd66-f7c023f2d04d","system_id":"levelo_inurba_marseille","lat":43.28081,"lon":5.39664,"is_reserved":false,"is_disabled":false,"rental_uris":{"android":"levelo://app?vid=f542ccc3-203e-41c0-bd66-f7c023f2d04d","ios":"levelo://app?vid=f542ccc3-203e-41c0-bd66-f7c023f2d04d"},"vehicle_type_id":"4","last_reported":1737483159,"current_range_meters":36000,"station_id":"ce4bho12rcd13ifvqh2g","pricing_plan_id":"cebpf4jnsgd1na2vs0mg"},{"bike_id":"784a4db8-b523-44fa-863a-df01fcaa4721","system_id":"levelo_inurba_marseille","lat":43.23961,"lon":5.3665,"is_reserved":false,"is_disabled":false,"rental_uris":{"android":"levelo://app?vid=784a4db8-b523-44fa-863a-df01fcaa4721","ios":"levelo://app?vid=784a4db8-b523-44fa-863a-df01fcaa4721"},"vehicle_type_id":"4","last_reported":1737483159,"current_range_meters":16000,"station_id":"ce4bhi12rcd13ifvqfp0","pricing_plan_id":"cebpf4jnsgd1na2vs0mg"},{"bike_id":"51f18ef2-87ea-47fa-bbdc-b18149212c4f","system_id":"levelo_inurba_marseille","lat":43.30813,"lon":5.38149,"is_reserved":false,"is_disabled":true,"rental_uris":{"android":"levelo://app?vid=51f18ef2-87ea-47fa-bbdc-b18149212c4f","ios":"levelo://app?vid=51f18ef2-87ea-47fa-bbdc-b18149212c4f"},"vehicle_type_id":"4","last_reported":1737483159,"current_range_meters":1200,"station_id":"ce4bgt12rcd13ifvqce0","pricing_plan_id":"cebpf4jnsgd1na2vs0mg"},{"bike_id":"6ffa5ae6-244c-434c-a87a-7ede18f58791","system_id":"levelo_inurba_marseille","lat":43.2953,"lon":5.38531,"is_reserved":false,"is_disabled":false,"rental_uris":{"android":"levelo://app?vid=6ffa5ae6-244c-434c-a87a-7ede18f58791","ios":"levelo://app?vid=6ffa5ae6-244c-434c-a87a-7ede18f58791"},"vehicle_type_id":"4","last_reported":1737483159,"current_range_meters":28400,"station_id":"ce4bgih2rcd13ifvqba0","pricing_plan_id":"cebpf4jnsgd1na2vs0mg"},{"bike_id":"cb800b4d-ddb4-4a43-9264-6a686c51415e","system_id":"levelo_inurba_marseille","lat":43.29416,"lon":5.3862,"is_reserved":false,"is_disabled":false,"rental_uris":{"android":"levelo://app?vid=cb800b4d-ddb4-4a43-9264-6a686c51415e","ios":"levelo://app?vid=cb800b4d-ddb4-4a43-9264-6a686c51415e"},"vehicle_type_id":"4","last_reported":1737483159,"current_range_meters":28000,"station_id":"ce4bh2h2rcd13ifvqdh0","pricing_plan_id":"cebpf4jnsgd1na2vs0mg"},{"bike_id":"6e1433da-ca9f-4090-b658-fb877339609a","system_id":"levelo_inurba_marseille","lat":43.27808,"lon":5.40716,"is_reserved":false,"is_disabled":false,"rental_uris":{"android":"levelo://app?vid=6e1433da-ca9f-4090-b658-fb877339609a","ios":"levelo://app?vid=6e1433da-ca9f-4090-b658-fb877339609a"},"vehicle_type_id":"4","last_reported":1737483159,"current_range_meters":36800,"station_id":"ce4bhnh2rcd13ifvqgtg","pricing_plan_id":"cebpf4jnsgd1na2vs0mg"},{"bike_id":"6c0999b3-4884-47b5-a5c8-f2c40c6b22a6","system_id":"levelo_inurba_marseille","lat":43.29191,"lon":5.35804,"is_reserved":false,"is_disabled":false,"rental_uris":{"android":"levelo://app?vid=6c0999b3-4884-47b5-a5c8-f2c40c6b22a6","ios":"levelo://app?vid=6c0999b3-4884-47b5-a5c8-f2c40c6b22a6"},"vehicle_type_id":"4","last_reported":1737483159,"current_range_meters":10800,"station_id":"ce4bhb12rcd13ifvqel0","pricing_plan_id":"cebpf4jnsgd1na2vs0mg"},{"bike_id":"2501ae24-5703-45d3-ac01-dec581041e28","system_id":"levelo_inurba_marseille","lat":43.28631,"lon":5.36369,"is_reserved":false,"is_disabled":false,"rental_uris":{"android":"levelo://app?vid=2501ae24-5703-45d3-ac01-dec581041e28","ios":"levelo://app?vid=2501ae24-5703-45d3-ac01-dec581041e28"},"vehicle_type_id":"4","last_reported":1737483159,"current_range_meters":10800,"station_id":"ce4bhah2rcd13ifvqej0","pricing_plan_id":"cebpf4jnsgd1na2vs0mg"},{"bike_id":"ffcb1802-2e6d-47da-9acb-e5d81dd77549","system_id":"levelo_inurba_marseille","lat":43.29307,"lon":5.37166,"is_reserved":false,"is_disabled":false,"rental_uris":{"android":"levelo://app?vid=ffcb1802-2e6d-47da-9acb-e5d81dd77549","ios":"levelo://app?vid=ffcb1802-2e6d-47da-9acb-e5d81dd77549"},"vehicle_type_id":"4","last_reported":1737483159,"current_range_meters":28800,"station_id":"ce4bgh92rcd13ifvqb40","pricing_plan_id":"cebpf4jnsgd1na2vs0mg"},{"bike_id":"a858181c-287f-411d-8c00-36df8d78bf00","system_id":"levelo_inurba_marseille","lat":43.31365,"lon":5.38502,"is_reserved":false,"is_disabled":false,"rental_uris":{"android":"levelo://app?vid=a858181c-287f-411d-8c00-36df8d78bf00","ios":"levelo://app?vid=a858181c-287f-411d-8c00-36df8d78bf00"},"vehicle_type_id":"4","last_reported":1737483159,"current_range_meters":26000,"station_id":"ce4bgt92rcd13ifvqcf0","pricing_plan_id":"cebpf4jnsgd1na2vs0mg"},{"bike_id":"5a3399d5-97bb-4fe3-b679-1e5236ae7dc4","system_id":"levelo_inurba_marseille","lat":43.29264,"lon":5.38425,"is_reserved":false,"is_disabled":false,"rental_uris":{"android":"levelo://app?vid=5a3399d5-97bb-4fe3-b679-1e5236ae7dc4","ios":"levelo://app?vid=5a3399d5-97bb-4fe3-b679-1e5236ae7dc4"},"vehicle_type_id":"4","last_reported":1737483159,"current_range_meters":30400,"station_id":"ce4bh692rcd13ifvqea0","pricing_plan_id":"cebpf4jnsgd1na2vs0mg"},{"bike_id":"24afdfab-37c4-4735-92c6-d449a19a0169","system_id":"levelo_inurba_marseille","lat":43.28147,"lon":5.42632,"is_reserved":false,"is_disabled":false,"rental_uris":{"android":"levelo://app?vid=24afdfab-37c4-4735-92c6-d449a19a0169","ios":"levelo://app?vid=24afdfab-37c4-4735-92c6-d449a19a0169"},"vehicle_type_id":"4","last_reported":1737483159,"current_range_meters":3600,"station_id":"ce4bhnh2rcd13ifvqgug","pricing_plan_id":"cebpf4jnsgd1na2vs0mg"},{"bike_id":"ecb5b041-6b5e-4078-9351-03e340d23225","system_id":"levelo_inurba_marseille","lat":43.2558,"lon":5.38239,"is_reserved":false,"is_disabled":true,"rental_uris":{"android":"levelo://app?vid=ecb5b041-6b5e-4078-9351-03e340d23225","ios":"levelo://app?vid=ecb5b041-6b5e-4078-9351-03e340d23225"},"vehicle_type_id":"4","last_reported":1737483159,"current_range_meters":0,"station_id":"ce4bhih2rcd13ifvqfs0","pricing_plan_id":"cebpf4jnsgd1na2vs0mg"},{"bike_id":"3e2413f1-be2a-4539-9db1-7ce3307c11de","system_id":"levelo_inurba_marseille","lat":43.30668,"lon":5.40094,"is_reserved":false,"is_disabled":false,"rental_uris":{"android":"levelo://app?vid=3e2413f1-be2a-4539-9db1-7ce3307c11de","ios":"levelo://app?vid=3e2413f1-be2a-4539-9db1-7ce3307c11de"},"vehicle_type_id":"4","last_reported":1737483159,"current_range_meters":36800,"station_id":"ce4bh112rcd13ifvqda0","pricing_plan_id":"cebpf4jnsgd1na2vs0mg"},{"bike_id":"37a48087-9dec-4721-9289-10dfaa05a716","system_id":"levelo_inurba_marseille","lat":43.30138,"lon":5.37421,"is_reserved":false,"is_disabled":true,"rental_uris":{"android":"levelo://app?vid=37a48087-9dec-4721-9289-10dfaa05a716","ios":"levelo://app?vid=37a48087-9dec-4721-9289-10dfaa05a716"},"vehicle_type_id":"4","last_reported":1737483159,"current_range_meters":1600,"station_id":"ce4bgs92rcd13ifvqcc0","pricing_plan_id":"cebpf4jnsgd1na2vs0mg"},{"bike_id":"82b9fcb3-21e7-403c-b9c6-7c15b2e435d8","system_id":"levelo_inurba_marseille","lat":43.28144,"lon":5.42633,"is_reserved":false,"is_disabled":false,"rental_uris":{"android":"levelo://app?vid=82b9fcb3-21e7-403c-b9c6-7c15b2e435d8","ios":"levelo://app?vid=82b9fcb3-21e7-403c-b9c6-7c15b2e435d8"},"vehicle_type_id":"4","last_reported":1737483159,"current_range_meters":16000,"station_id":"ce4bhnh2rcd13ifvqgug","pricing_plan_id":"cebpf4jnsgd1na2vs0mg"},{"bike_id":"9bbc0c80-c34a-4773-ac63-6269ca87c177","system_id":"levelo_inurba_marseille","lat":43.30091,"lon":5.39088,"is_reserved":false,"is_disabled":false,"rental_uris":{"android":"levelo://app?vid=9bbc0c80-c34a-4773-ac63-6269ca87c177","ios":"levelo://app?vid=9bbc0c80-c34a-4773-ac63-6269ca87c177"},"vehicle_type_id":"4","last_reported":1737483159,"current_range_meters":38800,"station_id":"ce4bh192rcd13ifvqdb0","pricing_plan_id":"cebpf4jnsgd1na2vs0mg"},{"bike_id":"fb351521-7339-453e-ad06-c068124edeec","system_id":"levelo_inurba_marseille","lat":43.23191,"lon":5.39989,"is_reserved":false,"is_disabled":false,"rental_uris":{"android":"levelo://app?vid=fb351521-7339-453e-ad06-c068124edeec","ios":"levelo://app?vid=fb351521-7339-453e-ad06-c068124edeec"},"vehicle_type_id":"4","last_reported":1737483159,"current_range_meters":23200,"station_id":"ce4bhn12rcd13ifvqgqg","pricing_plan_id":"cebpf4jnsgd1na2vs0mg"},{"bike_id":"bce1d3ee-d3d5-4ba5-86ad-1732acd21442","system_id":"levelo_inurba_marseille","lat":43.25587,"lon":5.38238,"is_reserved":false,"is_disabled":false,"rental_uris":{"android":"levelo://app?vid=bce1d3ee-d3d5-4ba5-86ad-1732acd21442","ios":"levelo://app?vid=bce1d3ee-d3d5-4ba5-86ad-1732acd21442"},"vehicle_type_id":"4","last_reported":1737483159,"current_range_meters":27200,"station_id":"ce4bhih2rcd13ifvqfs0","pricing_plan_id":"cebpf4jnsgd1na2vs0mg"},{"bike_id":"7eecce52-558f-4dde-ae95-2d5fe7730cb3","system_id":"levelo_inurba_marseille","lat":43.29433,"lon":5.39745,"is_reserved":false,"is_disabled":false,"rental_uris":{"android":"levelo://app?vid=7eecce52-558f-4dde-ae95-2d5fe7730cb3","ios":"levelo://app?vid=7eecce52-558f-4dde-ae95-2d5fe7730cb3"},"vehicle_type_id":"4","last_reported":1737483159,"current_range_meters":22000,"station_id":"ce4bh3h2rcd13ifvqdo0","pricing_plan_id":"cebpf4jnsgd1na2vs0mg"},{"bike_id":"433332e9-d60c-430d-b45e-281a863288df","system_id":"levelo_inurba_marseille","lat":43.25119,"lon":5.40317,"is_reserved":false,"is_disabled":false,"rental_uris":{"android":"levelo://app?vid=433332e9-d60c-430d-b45e-281a863288df","ios":"levelo://app?vid=433332e9-d60c-430d-b45e-281a863288df"},"vehicle_type_id":"4","last_reported":1737483159,"current_range_meters":21600,"station_id":"ce4bhlh2rcd13ifvqgig","pricing_plan_id":"cebpf4jnsgd1na2vs0mg"},{"bike_id":"50348d1e-afd5-4713-af14-072368523fb3","system_id":"levelo_inurba_marseille","lat":43.27492,"lon":5.42454,"is_reserved":false,"is_disabled":false,"rental_uris":{"android":"levelo://app?vid=50348d1e-afd5-4713-af14-072368523fb3","ios":"levelo://app?vid=50348d1e-afd5-4713-af14-072368523fb3"},"vehicle_type_id":"4","last_reported":1737483159,"current_range_meters":6800,"station_id":"ce4bhn92rcd13ifvqgrg","pricing_plan_id":"cebpf4jnsgd1na2vs0mg"},{"bike_id":"927c86c8-6c98-40ae-9411-d6655e1ef49b","system_id":"levelo_inurba_marseille","lat":43.29269,"lon":5.38441,"is_reserved":false,"is_disabled":false,"rental_uris":{"android":"levelo://app?vid=927c86c8-6c98-40ae-9411-d6655e1ef49b","ios":"levelo://app?vid=927c86c8-6c98-40ae-9411-d6655e1ef49b"},"vehicle_type_id":"4","last_reported":1737483159,"current_range_meters":9200,"station_id":"ce4bh692rcd13ifvqea0","pricing_plan_id":"cebpf4jnsgd1na2vs0mg"},{"bike_id":"5f8e19c0-9d34-400f-8357-29490985c9f2","system_id":"levelo_inurba_marseille","lat":43.27375,"lon":5.36253,"is_reserved":false,"is_disabled":true,"rental_uris":{"android":"levelo://app?vid=5f8e19c0-9d34-400f-8357-29490985c9f2","ios":"levelo://app?vid=5f8e19c0-9d34-400f-8357-29490985c9f2"},"vehicle_type_id":"4","last_reported":1737483159,"current_range_meters":800,"station_id":"ce4bhbh2rcd13ifvqeo0","pricing_plan_id":"cebpf4jnsgd1na2vs0mg"},{"bike_id":"3251b621-179f-437f-84f8-9d5f1f665e8e","system_id":"levelo_inurba_marseille","lat":43.28403,"lon":5.37507,"is_reserved":false,"is_disabled":false,"rental_uris":{"android":"levelo://app?vid=3251b621-179f-437f-84f8-9d5f1f665e8e","ios":"levelo://app?vid=3251b621-179f-437f-84f8-9d5f1f665e8e"},"vehicle_type_id":"4","last_reported":1737483159,"current_range_meters":38800,"station_id":"ce4bh412rcd13ifvqds0","pricing_plan_id":"cebpf4jnsgd1na2vs0mg"},{"bike_id":"49e863e7-823e-4e9b-9150-30a232f530d5","system_id":"levelo_inurba_marseille","lat":43.28471,"lon":5.358815,"is_reserved":false,"is_disabled":false,"rental_uris":{"android":"levelo://app?vid=49e863e7-823e-4e9b-9150-30a232f530d5","ios":"levelo://app?vid=49e863e7-823e-4e9b-9150-30a232f530d5"},"vehicle_type_id":"4","last_reported":1737483159,"current_range_meters":28000,"station_id":"ce4bhah2rcd13ifvqei0","pricing_plan_id":"cebpf4jnsgd1na2vs0mg"},{"bike_id":"041da02b-9c7e-425f-8720-65c9a3555272","system_id":"levelo_inurba_marseille","lat":43.31759,"lon":5.39002,"is_reserved":false,"is_disabled":false,"rental_uris":{"android":"levelo://app?vid=041da02b-9c7e-425f-8720-65c9a3555272","ios":"levelo://app?vid=041da02b-9c7e-425f-8720-65c9a3555272"},"vehicle_type_id":"4","last_reported":1737483159,"current_range_meters":18800,"station_id":"ce4bhqp2rcd13ifvqhng","pricing_plan_id":"cebpf4jnsgd1na2vs0mg"},{"bike_id":"a546c9b0-986b-47f8-b1d7-665e2fa1229f","system_id":"levelo_inurba_marseille","lat":43.28102,"lon":5.37857,"is_reserved":false,"is_disabled":true,"rental_uris":{"android":"levelo://app?vid=a546c9b0-986b-47f8-b1d7-665e2fa1229f","ios":"levelo://app?vid=a546c9b0-986b-47f8-b1d7-665e2fa1229f"},"vehicle_type_id":"4","last_reported":1737483159,"current_range_meters":38800,"station_id":"ce4bha12rcd13ifvqee0","pricing_plan_id":"cebpf4jnsgd1na2vs0mg"},{"bike_id":"59690343-b378-4b3f-b623-2e3b6d7474de","system_id":"levelo_inurba_marseille","lat":43.292,"lon":5.39329,"is_reserved":false,"is_disabled":false,"rental_uris":{"android":"levelo://app?vid=59690343-b378-4b3f-b623-2e3b6d7474de","ios":"levelo://app?vid=59690343-b378-4b3f-b623-2e3b6d7474de"},"vehicle_type_id":"4","last_reported":1737483159,"current_range_meters":31200,"station_id":"ce4bh192rcd13ifvqdd0","pricing_plan_id":"cebpf4jnsgd1na2vs0mg"},{"bike_id":"f51e40c5-1e97-4dd9-9171-29c610b4f74b","system_id":"levelo_inurba_marseille","lat":43.27832,"lon":5.39207,"is_reserved":false,"is_disabled":false,"rental_uris":{"android":"levelo://app?vid=f51e40c5-1e97-4dd9-9171-29c610b4f74b","ios":"levelo://app?vid=f51e40c5-1e97-4dd9-9171-29c610b4f74b"},"vehicle_type_id":"4","last_reported":1737483159,"current_range_meters":9200,"station_id":"ce4bhjp2rcd13ifvqga0","pricing_plan_id":"cebpf4jnsgd1na2vs0mg"},{"bike_id":"3356754e-0c6b-414e-b862-a97347cffe1e","system_id":"levelo_inurba_marseille","lat":43.29255,"lon":5.38534,"is_reserved":false,"is_disabled":false,"rental_uris":{"android":"levelo://app?vid=3356754e-0c6b-414e-b862-a97347cffe1e","ios":"levelo://app?vid=3356754e-0c6b-414e-b862-a97347cffe1e"},"vehicle_type_id":"4","last_reported":1737483159,"current_range_meters":33600,"station_id":"ce4bh4p2rcd13ifvqe0g","pricing_plan_id":"cebpf4jnsgd1na2vs0mg"},{"bike_id":"5bc55e98-e67e-42e5-ae2a-43409348dcdd","system_id":"levelo_inurba_marseille","lat":43.3234,"lon":5.40621,"is_reserved":false,"is_disabled":false,"rental_uris":{"android":"levelo://app?vid=5bc55e98-e67e-42e5-ae2a-43409348dcdd","ios":"levelo://app?vid=5bc55e98-e67e-42e5-ae2a-43409348dcdd"},"vehicle_type_id":"4","last_reported":1737483159,"current_range_meters":16800,"station_id":"ce4bhq92rcd13ifvqhjg","pricing_plan_id":"cebpf4jnsgd1na2vs0mg"},{"bike_id":"3c4c4c63-f53d-4583-b3f2-9acaf3c54323","system_id":"levelo_inurba_marseille","lat":43.29515,"lon":5.3941,"is_reserved":false,"is_disabled":false,"rental_uris":{"android":"levelo://app?vid=3c4c4c63-f53d-4583-b3f2-9acaf3c54323","ios":"levelo://app?vid=3c4c4c63-f53d-4583-b3f2-9acaf3c54323"},"vehicle_type_id":"4","last_reported":1737483159,"current_range_meters":36000,"station_id":"ce4bh292rcd13ifvqdf0","pricing_plan_id":"cebpf4jnsgd1na2vs0mg"},{"bike_id":"a4983d36-afbd-419e-b4a5-c806c5754719","system_id":"levelo_inurba_marseille","lat":43.25089,"lon":5.39523,"is_reserved":false,"is_disabled":true,"rental_uris":{"android":"levelo://app?vid=a4983d36-afbd-419e-b4a5-c806c5754719","ios":"levelo://app?vid=a4983d36-afbd-419e-b4a5-c806c5754719"},"vehicle_type_id":"4","last_reported":1737483159,"current_range_meters":2000,"station_id":"ce4bhm12rcd13ifvqgkg","pricing_plan_id":"cebpf4jnsgd1na2vs0mg"},{"bike_id":"4e4d1d66-0c07-4829-81c1-c5a03a4c569d","system_id":"levelo_inurba_marseille","lat":43.30524,"lon":5.36712,"is_reserved":false,"is_disabled":false,"rental_uris":{"android":"levelo://app?vid=4e4d1d66-0c07-4829-81c1-c5a03a4c569d","ios":"levelo://app?vid=4e4d1d66-0c07-4829-81c1-c5a03a4c569d"},"vehicle_type_id":"4","last_reported":1737483159,"current_range_meters":11200,"station_id":"ce4bgrp2rcd13ifvqc9g","pricing_plan_id":"cebpf4jnsgd1na2vs0mg"},{"bike_id":"6974ec36-364b-47ec-afbc-e384777462d5","system_id":"levelo_inurba_marseille","lat":43.29419,"lon":5.38633,"is_reserved":false,"is_disabled":false,"rental_uris":{"android":"levelo://app?vid=6974ec36-364b-47ec-afbc-e384777462d5","ios":"levelo://app?vid=6974ec36-364b-47ec-afbc-e384777462d5"},"vehicle_type_id":"4","last_reported":1737483159,"current_range_meters":28400,"station_id":"ce4bh2h2rcd13ifvqdh0","pricing_plan_id":"cebpf4jnsgd1na2vs0mg"},{"bike_id":"a3b1e206-aa7d-4bdf-b6a1-ef4900b16820","system_id":"levelo_inurba_marseille","lat":43.29613,"lon":5.3811,"is_reserved":false,"is_disabled":false,"rental_uris":{"android":"levelo://app?vid=a3b1e206-aa7d-4bdf-b6a1-ef4900b16820","ios":"levelo://app?vid=a3b1e206-aa7d-4bdf-b6a1-ef4900b16820"},"vehicle_type_id":"4","last_reported":1737483159,"current_range_meters":25200,"station_id":"ce4bgl12rcd13ifvqbo0","pricing_plan_id":"cebpf4jnsgd1na2vs0mg"},{"bike_id":"f7ff9809-554a-403c-a5f6-8cd0fbc6d406","system_id":"levelo_inurba_marseille","lat":43.30676,"lon":5.40079,"is_reserved":false,"is_disabled":false,"rental_uris":{"android":"levelo://app?vid=f7ff9809-554a-403c-a5f6-8cd0fbc6d406","ios":"levelo://app?vid=f7ff9809-554a-403c-a5f6-8cd0fbc6d406"},"vehicle_type_id":"4","last_reported":1737483159,"current_range_meters":38800,"station_id":"ce4bh112rcd13ifvqda0","pricing_plan_id":"cebpf4jnsgd1na2vs0mg"},{"bike_id":"8439acfb-9128-494c-ac6b-dbd300404054","system_id":"levelo_inurba_marseille","lat":43.31324,"lon":5.39687,"is_reserved":false,"is_disabled":false,"rental_uris":{"android":"levelo://app?vid=8439acfb-9128-494c-ac6b-dbd300404054","ios":"levelo://app?vid=8439acfb-9128-494c-ac6b-dbd300404054"},"vehicle_type_id":"4","last_reported":1737483159,"current_range_meters":8400,"station_id":"ce4bgvp2rcd13ifvqcu0","pricing_plan_id":"cebpf4jnsgd1na2vs0mg"},{"bike_id":"c43bdcb7-720e-4011-905f-292afc14076a","system_id":"levelo_inurba_marseille","lat":43.26553,"lon":5.37286,"is_reserved":false,"is_disabled":true,"rental_uris":{"android":"levelo://app?vid=c43bdcb7-720e-4011-905f-292afc14076a","ios":"levelo://app?vid=c43bdcb7-720e-4011-905f-292afc14076a"},"vehicle_type_id":"4","last_reported":1737483159,"current_range_meters":0,"station_id":"ce4bhg12rcd13ifvqf70","pricing_plan_id":"cebpf4jnsgd1na2vs0mg"},{"bike_id":"0c9501e4-9bf3-49f5-bd4b-a7e3268be1e2","system_id":"levelo_inurba_marseille","lat":43.29202,"lon":5.39329,"is_reserved":false,"is_disabled":false,"rental_uris":{"android":"levelo://app?vid=0c9501e4-9bf3-49f5-bd4b-a7e3268be1e2","ios":"levelo://app?vid=0c9501e4-9bf3-49f5-bd4b-a7e3268be1e2"},"vehicle_type_id":"4","last_reported":1737483159,"current_range_meters":20000,"station_id":"ce4bh192rcd13ifvqdd0","pricing_plan_id":"cebpf4jnsgd1na2vs0mg"},{"bike_id":"2fc90e2b-7bc3-4c1c-b9a1-54e988a74917","system_id":"levelo_inurba_marseille","lat":43.279439,"lon":5.389008,"is_reserved":false,"is_disabled":true,"rental_uris":{"android":"levelo://app?vid=2fc90e2b-7bc3-4c1c-b9a1-54e988a74917","ios":"levelo://app?vid=2fc90e2b-7bc3-4c1c-b9a1-54e988a74917"},"vehicle_type_id":"4","last_reported":1737483159,"current_range_meters":32800,"station_id":"","pricing_plan_id":"cebpf4jnsgd1na2vs0mg"},{"bike_id":"6afeeefa-11c0-4f74-82c2-cb592a43a0b2","system_id":"levelo_inurba_marseille","lat":43.2815,"lon":5.42648,"is_reserved":false,"is_disabled":false,"rental_uris":{"android":"levelo://app?vid=6afeeefa-11c0-4f74-82c2-cb592a43a0b2","ios":"levelo://app?vid=6afeeefa-11c0-4f74-82c2-cb592a43a0b2"},"vehicle_type_id":"4","last_reported":1737483159,"current_range_meters":39200,"station_id":"ce4bhnh2rcd13ifvqgug","pricing_plan_id":"cebpf4jnsgd1na2vs0mg"},{"bike_id":"00e35fc2-35c5-4644-b020-6e83e47be0fd","system_id":"levelo_inurba_marseille","lat":43.28928,"lon":5.36638,"is_reserved":false,"is_disabled":false,"rental_uris":{"android":"levelo://app?vid=00e35fc2-35c5-4644-b020-6e83e47be0fd","ios":"levelo://app?vid=00e35fc2-35c5-4644-b020-6e83e47be0fd"},"vehicle_type_id":"4","last_reported":1737483159,"current_range_meters":9600,"station_id":"ce4bhap2rcd13ifvqek0","pricing_plan_id":"cebpf4jnsgd1na2vs0mg"},{"bike_id":"450e13ff-425a-47ca-ab16-669a6a7ad5b5","system_id":"levelo_inurba_marseille","lat":43.25091,"lon":5.39519,"is_reserved":false,"is_disabled":false,"rental_uris":{"android":"levelo://app?vid=450e13ff-425a-47ca-ab16-669a6a7ad5b5","ios":"levelo://app?vid=450e13ff-425a-47ca-ab16-669a6a7ad5b5"},"vehicle_type_id":"4","last_reported":1737483159,"current_range_meters":38800,"station_id":"ce4bhm12rcd13ifvqgkg","pricing_plan_id":"cebpf4jnsgd1na2vs0mg"},{"bike_id":"6ad4ce4e-7f96-45d7-80ea-5b19a44b34c3","system_id":"levelo_inurba_marseille","lat":43.31325,"lon":5.39712,"is_reserved":false,"is_disabled":false,"rental_uris":{"android":"levelo://app?vid=6ad4ce4e-7f96-45d7-80ea-5b19a44b34c3","ios":"levelo://app?vid=6ad4ce4e-7f96-45d7-80ea-5b19a44b34c3"},"vehicle_type_id":"4","last_reported":1737483159,"current_range_meters":16400,"station_id":"ce4bgvp2rcd13ifvqcu0","pricing_plan_id":"cebpf4jnsgd1na2vs0mg"},{"bike_id":"227e78bf-cdca-4dfa-9c62-95921093e4a7","system_id":"levelo_inurba_marseille","lat":43.28413,"lon":5.34986,"is_reserved":false,"is_disabled":false,"rental_uris":{"android":"levelo://app?vid=227e78bf-cdca-4dfa-9c62-95921093e4a7","ios":"levelo://app?vid=227e78bf-cdca-4dfa-9c62-95921093e4a7"},"vehicle_type_id":"4","last_reported":1737483159,"current_range_meters":14800,"station_id":"ce4bhbh2rcd13ifvqepg","pricing_plan_id":"cebpf4jnsgd1na2vs0mg"},{"bike_id":"d61d4029-99f8-479f-ae0c-ba04f9224ce8","system_id":"levelo_inurba_marseille","lat":43.2988,"lon":5.38912,"is_reserved":false,"is_disabled":false,"rental_uris":{"android":"levelo://app?vid=d61d4029-99f8-479f-ae0c-ba04f9224ce8","ios":"levelo://app?vid=d61d4029-99f8-479f-ae0c-ba04f9224ce8"},"vehicle_type_id":"4","last_reported":1737483159,"current_range_meters":38800,"station_id":"ce4bh392rcd13ifvqdl0","pricing_plan_id":"cebpf4jnsgd1na2vs0mg"},{"bike_id":"14bf62af-c950-435b-82dd-0bca67231add","system_id":"levelo_inurba_marseille","lat":43.25724,"lon":5.41124,"is_reserved":false,"is_disabled":false,"rental_uris":{"android":"levelo://app?vid=14bf62af-c950-435b-82dd-0bca67231add","ios":"levelo://app?vid=14bf62af-c950-435b-82dd-0bca67231add"},"vehicle_type_id":"4","last_reported":1737483159,"current_range_meters":38800,"station_id":"ce4bhkp2rcd13ifvqgd0","pricing_plan_id":"cebpf4jnsgd1na2vs0mg"},{"bike_id":"509edcb3-c5bb-4913-aeae-8110c0663740","system_id":"levelo_inurba_marseille","lat":43.29574,"lon":5.39951,"is_reserved":false,"is_disabled":true,"rental_uris":{"android":"levelo://app?vid=509edcb3-c5bb-4913-aeae-8110c0663740","ios":"levelo://app?vid=509edcb3-c5bb-4913-aeae-8110c0663740"},"vehicle_type_id":"4","last_reported":1737483159,"current_range_meters":24800,"station_id":"ce4bh312rcd13ifvqdj0","pricing_plan_id":"cebpf4jnsgd1na2vs0mg"},{"bike_id":"afe08c82-81e2-4b65-a0b5-320d4680824d","system_id":"levelo_inurba_marseille","lat":43.29262,"lon":5.38445,"is_reserved":false,"is_disabled":false,"rental_uris":{"android":"levelo://app?vid=afe08c82-81e2-4b65-a0b5-320d4680824d","ios":"levelo://app?vid=afe08c82-81e2-4b65-a0b5-320d4680824d"},"vehicle_type_id":"4","last_reported":1737483159,"current_range_meters":12000,"station_id":"ce4bh692rcd13ifvqea0","pricing_plan_id":"cebpf4jnsgd1na2vs0mg"},{"bike_id":"7a9e4994-6fdf-4d47-8b3f-6e68343ec598","system_id":"levelo_inurba_marseille","lat":43.28475,"lon":5.38424,"is_reserved":false,"is_disabled":false,"rental_uris":{"android":"levelo://app?vid=7a9e4994-6fdf-4d47-8b3f-6e68343ec598","ios":"levelo://app?vid=7a9e4994-6fdf-4d47-8b3f-6e68343ec598"},"vehicle_type_id":"4","last_reported":1737483159,"current_range_meters":27200,"station_id":"ce4bh512rcd13ifvqe3g","pricing_plan_id":"cebpf4jnsgd1na2vs0mg"},{"bike_id":"f422bbff-0f2f-49ed-9b1c-227ec1411414","system_id":"levelo_inurba_marseille","lat":43.27982,"lon":5.40035,"is_reserved":false,"is_disabled":false,"rental_uris":{"android":"levelo://app?vid=f422bbff-0f2f-49ed-9b1c-227ec1411414","ios":"levelo://app?vid=f422bbff-0f2f-49ed-9b1c-227ec1411414"},"vehicle_type_id":"4","last_reported":1737483159,"current_range_meters":8400,"station_id":"ce4bho92rcd13ifvqh4g","pricing_plan_id":"cebpf4jnsgd1na2vs0mg"},{"bike_id":"641a8296-ae52-4500-8f2d-eec6d49b0e11","system_id":"levelo_inurba_marseille","lat":43.29521,"lon":5.39038,"is_reserved":false,"is_disabled":false,"rental_uris":{"android":"levelo://app?vid=641a8296-ae52-4500-8f2d-eec6d49b0e11","ios":"levelo://app?vid=641a8296-ae52-4500-8f2d-eec6d49b0e11"},"vehicle_type_id":"4","last_reported":1737483159,"current_range_meters":10000,"station_id":"ce4bh3p2rcd13ifvqdp0","pricing_plan_id":"cebpf4jnsgd1na2vs0mg"},{"bike_id":"f1e53540-21ab-4f69-93a5-258d82c2555d","system_id":"levelo_inurba_marseille","lat":43.29563,"lon":5.39977,"is_reserved":false,"is_disabled":false,"rental_uris":{"android":"levelo://app?vid=f1e53540-21ab-4f69-93a5-258d82c2555d","ios":"levelo://app?vid=f1e53540-21ab-4f69-93a5-258d82c2555d"},"vehicle_type_id":"4","last_reported":1737483159,"current_range_meters":9200,"station_id":"ce4bh312rcd13ifvqdj0","pricing_plan_id":"cebpf4jnsgd1na2vs0mg"},{"bike_id":"02ad824b-d7dc-42dc-aeab-fa239be6d8ae","system_id":"levelo_inurba_marseille","lat":43.30334,"lon":5.404323,"is_reserved":false,"is_disabled":false,"rental_uris":{"android":"levelo://app?vid=02ad824b-d7dc-42dc-aeab-fa239be6d8ae","ios":"levelo://app?vid=02ad824b-d7dc-42dc-aeab-fa239be6d8ae"},"vehicle_type_id":"4","last_reported":1737483159,"current_range_meters":34000,"station_id":"ce4bh012rcd13ifvqd10","pricing_plan_id":"cebpf4jnsgd1na2vs0mg"},{"bike_id":"4e574611-a3f8-452a-a155-fe58a7adfdc0","system_id":"levelo_inurba_marseille","lat":43.30325,"lon":5.40439,"is_reserved":false,"is_disabled":false,"rental_uris":{"android":"levelo://app?vid=4e574611-a3f8-452a-a155-fe58a7adfdc0","ios":"levelo://app?vid=4e574611-a3f8-452a-a155-fe58a7adfdc0"},"vehicle_type_id":"4","last_reported":1737483159,"current_range_meters":38000,"station_id":"ce4bh012rcd13ifvqd10","pricing_plan_id":"cebpf4jnsgd1na2vs0mg"},{"bike_id":"2b45d3a7-91d8-49d0-8c5f-128d9bc93a89","system_id":"levelo_inurba_marseille","lat":43.29417,"lon":5.38626,"is_reserved":false,"is_disabled":false,"rental_uris":{"android":"levelo://app?vid=2b45d3a7-91d8-49d0-8c5f-128d9bc93a89","ios":"levelo://app?vid=2b45d3a7-91d8-49d0-8c5f-128d9bc93a89"},"vehicle_type_id":"4","last_reported":1737483159,"current_range_meters":38400,"station_id":"ce4bh2h2rcd13ifvqdh0","pricing_plan_id":"cebpf4jnsgd1na2vs0mg"},{"bike_id":"1b265ace-f324-4a94-b2ba-bd62704a3331","system_id":"levelo_inurba_marseille","lat":43.29622,"lon":5.37727,"is_reserved":false,"is_disabled":false,"rental_uris":{"android":"levelo://app?vid=1b265ace-f324-4a94-b2ba-bd62704a3331","ios":"levelo://app?vid=1b265ace-f324-4a94-b2ba-bd62704a3331"},"vehicle_type_id":"4","last_reported":1737483159,"current_range_meters":27600,"station_id":"ce4bgi92rcd13ifvqb90","pricing_plan_id":"cebpf4jnsgd1na2vs0mg"},{"bike_id":"b9644ea8-12ae-4147-a329-a7f9e6c7ce09","system_id":"levelo_inurba_marseille","lat":43.2582,"lon":5.39451,"is_reserved":false,"is_disabled":false,"rental_uris":{"android":"levelo://app?vid=b9644ea8-12ae-4147-a329-a7f9e6c7ce09","ios":"levelo://app?vid=b9644ea8-12ae-4147-a329-a7f9e6c7ce09"},"vehicle_type_id":"4","last_reported":1737483159,"current_range_meters":31200,"station_id":"ce4bhip2rcd13ifvqft0","pricing_plan_id":"cebpf4jnsgd1na2vs0mg"},{"bike_id":"6b3fa79b-efa4-49e4-8349-a92455f84dea","system_id":"levelo_inurba_marseille","lat":43.32333,"lon":5.4062,"is_reserved":false,"is_disabled":false,"rental_uris":{"android":"levelo://app?vid=6b3fa79b-efa4-49e4-8349-a92455f84dea","ios":"levelo://app?vid=6b3fa79b-efa4-49e4-8349-a92455f84dea"},"vehicle_type_id":"4","last_reported":1737483159,"current_range_meters":33600,"station_id":"ce4bhq92rcd13ifvqhjg","pricing_plan_id":"cebpf4jnsgd1na2vs0mg"},{"bike_id":"ce727daa-4df6-4930-bda1-ea76f30235a9","system_id":"levelo_inurba_marseille","lat":43.27932,"lon":5.41062,"is_reserved":false,"is_disabled":true,"rental_uris":{"android":"levelo://app?vid=ce727daa-4df6-4930-bda1-ea76f30235a9","ios":"levelo://app?vid=ce727daa-4df6-4930-bda1-ea76f30235a9"},"vehicle_type_id":"4","last_reported":1737483159,"current_range_meters":0,"station_id":"ce4bhnp2rcd13ifvqh0g","pricing_plan_id":"cebpf4jnsgd1na2vs0mg"},{"bike_id":"cc5393f4-6726-4fc6-9e57-be60bb90a8cb","system_id":"levelo_inurba_marseille","lat":43.29062,"lon":5.35911,"is_reserved":false,"is_disabled":false,"rental_uris":{"android":"levelo://app?vid=cc5393f4-6726-4fc6-9e57-be60bb90a8cb","ios":"levelo://app?vid=cc5393f4-6726-4fc6-9e57-be60bb90a8cb"},"vehicle_type_id":"4","last_reported":1737483159,"current_range_meters":19200,"station_id":"ce4bha92rcd13ifvqeg0","pricing_plan_id":"cebpf4jnsgd1na2vs0mg"},{"bike_id":"301ad218-79fc-4f77-96f2-3aac2d1a8ccf","system_id":"levelo_inurba_marseille","lat":43.25923,"lon":5.39432,"is_reserved":false,"is_disabled":true,"rental_uris":{"android":"levelo://app?vid=301ad218-79fc-4f77-96f2-3aac2d1a8ccf","ios":"levelo://app?vid=301ad218-79fc-4f77-96f2-3aac2d1a8ccf"},"vehicle_type_id":"4","last_reported":1737483159,"current_range_meters":6400,"station_id":"","pricing_plan_id":"cebpf4jnsgd1na2vs0mg"},{"bike_id":"ca279d35-c06e-4dd2-aa5c-d642960b3239","system_id":"levelo_inurba_marseille","lat":43.28616,"lon":5.35105,"is_reserved":false,"is_disabled":false,"rental_uris":{"android":"levelo://app?vid=ca279d35-c06e-4dd2-aa5c-d642960b3239","ios":"levelo://app?vid=ca279d35-c06e-4dd2-aa5c-d642960b3239"},"vehicle_type_id":"4","last_reported":1737483159,"current_range_meters":20800,"station_id":"ce4bhch2rcd13ifvqeug","pricing_plan_id":"cebpf4jnsgd1na2vs0mg"},{"bike_id":"36313935-8c2e-4995-b78c-2ec8117060b7","system_id":"levelo_inurba_marseille","lat":43.2846,"lon":5.3589,"is_reserved":false,"is_disabled":false,"rental_uris":{"android":"levelo://app?vid=36313935-8c2e-4995-b78c-2ec8117060b7","ios":"levelo://app?vid=36313935-8c2e-4995-b78c-2ec8117060b7"},"vehicle_type_id":"4","last_reported":1737483159,"current_range_meters":31200,"station_id":"ce4bhah2rcd13ifvqei0","pricing_plan_id":"cebpf4jnsgd1na2vs0mg"},{"bike_id":"009e4e21-eaff-4df3-a6cd-96d6c5c81fda","system_id":"levelo_inurba_marseille","lat":43.305529,"lon":5.365225,"is_reserved":false,"is_disabled":false,"rental_uris":{"android":"levelo://app?vid=009e4e21-eaff-4df3-a6cd-96d6c5c81fda","ios":"levelo://app?vid=009e4e21-eaff-4df3-a6cd-96d6c5c81fda"},"vehicle_type_id":"4","last_reported":1737483159,"current_range_meters":22800,"station_id":"","pricing_plan_id":"cebpf4jnsgd1na2vs0mg"},{"bike_id":"a478c8e4-70f7-4330-80af-a80f08fe66b3","system_id":"levelo_inurba_marseille","lat":43.25724,"lon":5.41105,"is_reserved":false,"is_disabled":false,"rental_uris":{"android":"levelo://app?vid=a478c8e4-70f7-4330-80af-a80f08fe66b3","ios":"levelo://app?vid=a478c8e4-70f7-4330-80af-a80f08fe66b3"},"vehicle_type_id":"4","last_reported":1737483159,"current_range_meters":24000,"station_id":"ce4bhkp2rcd13ifvqgd0","pricing_plan_id":"cebpf4jnsgd1na2vs0mg"},{"bike_id":"4806a606-9d68-4dda-865e-687fe402f8eb","system_id":"levelo_inurba_marseille","lat":43.33718,"lon":5.39185,"is_reserved":false,"is_disabled":false,"rental_uris":{"android":"levelo://app?vid=4806a606-9d68-4dda-865e-687fe402f8eb","ios":"levelo://app?vid=4806a606-9d68-4dda-865e-687fe402f8eb"},"vehicle_type_id":"4","last_reported":1737483159,"current_range_meters":10800,"station_id":"ce4bhr92rcd13ifvqhsg","pricing_plan_id":"cebpf4jnsgd1na2vs0mg"},{"bike_id":"308cc682-94fd-427f-a7f4-c7ad2e8f89c9","system_id":"levelo_inurba_marseille","lat":43.2846,"lon":5.35892,"is_reserved":false,"is_disabled":false,"rental_uris":{"android":"levelo://app?vid=308cc682-94fd-427f-a7f4-c7ad2e8f89c9","ios":"levelo://app?vid=308cc682-94fd-427f-a7f4-c7ad2e8f89c9"},"vehicle_type_id":"4","last_reported":1737483159,"current_range_meters":30000,"station_id":"ce4bhah2rcd13ifvqei0","pricing_plan_id":"cebpf4jnsgd1na2vs0mg"},{"bike_id":"b834a014-a9be-4559-bbaa-15aa5f1cbaa1","system_id":"levelo_inurba_marseille","lat":43.23189,"lon":5.35559,"is_reserved":false,"is_disabled":false,"rental_uris":{"android":"levelo://app?vid=b834a014-a9be-4559-bbaa-15aa5f1cbaa1","ios":"levelo://app?vid=b834a014-a9be-4559-bbaa-15aa5f1cbaa1"},"vehicle_type_id":"4","last_reported":1737483159,"current_range_meters":36800,"station_id":"ce4bhu92rcd13ifvqi70","pricing_plan_id":"cebpf4jnsgd1na2vs0mg"},{"bike_id":"5f776b34-b727-4c57-9619-656fb56904de","system_id":"levelo_inurba_marseille","lat":43.31727,"lon":5.42397,"is_reserved":false,"is_disabled":false,"rental_uris":{"android":"levelo://app?vid=5f776b34-b727-4c57-9619-656fb56904de","ios":"levelo://app?vid=5f776b34-b727-4c57-9619-656fb56904de"},"vehicle_type_id":"4","last_reported":1737483159,"current_range_meters":37600,"station_id":"ce4bhp92rcd13ifvqhbg","pricing_plan_id":"cebpf4jnsgd1na2vs0mg"},{"bike_id":"ca0dc8e0-206b-40b7-8d43-9b4ec69057c7","system_id":"levelo_inurba_marseille","lat":43.247052,"lon":5.374049,"is_reserved":false,"is_disabled":false,"rental_uris":{"android":"levelo://app?vid=ca0dc8e0-206b-40b7-8d43-9b4ec69057c7","ios":"levelo://app?vid=ca0dc8e0-206b-40b7-8d43-9b4ec69057c7"},"vehicle_type_id":"4","last_reported":1737483159,"current_range_meters":19200,"station_id":"ce4bhgh2rcd13ifvqfb0","pricing_plan_id":"cebpf4jnsgd1na2vs0mg"},{"bike_id":"e68b1a06-e343-4aee-acef-4b2247b0a6d0","system_id":"levelo_inurba_marseille","lat":43.29937,"lon":5.36544,"is_reserved":false,"is_disabled":false,"rental_uris":{"android":"levelo://app?vid=e68b1a06-e343-4aee-acef-4b2247b0a6d0","ios":"levelo://app?vid=e68b1a06-e343-4aee-acef-4b2247b0a6d0"},"vehicle_type_id":"4","last_reported":1737483159,"current_range_meters":24000,"station_id":"ce4bgm92rcd13ifvqbr0","pricing_plan_id":"cebpf4jnsgd1na2vs0mg"},{"bike_id":"748437f3-7778-48d5-a968-a6ee3b0408c7","system_id":"levelo_inurba_marseille","lat":43.28073,"lon":5.39644,"is_reserved":false,"is_disabled":false,"rental_uris":{"android":"levelo://app?vid=748437f3-7778-48d5-a968-a6ee3b0408c7","ios":"levelo://app?vid=748437f3-7778-48d5-a968-a6ee3b0408c7"},"vehicle_type_id":"4","last_reported":1737483159,"current_range_meters":36800,"station_id":"ce4bho12rcd13ifvqh2g","pricing_plan_id":"cebpf4jnsgd1na2vs0mg"},{"bike_id":"d30c6dcf-861f-40e2-9275-5e16f82ebb89","system_id":"levelo_inurba_marseille","lat":43.31073,"lon":5.40093,"is_reserved":false,"is_disabled":false,"rental_uris":{"android":"levelo://app?vid=d30c6dcf-861f-40e2-9275-5e16f82ebb89","ios":"levelo://app?vid=d30c6dcf-861f-40e2-9275-5e16f82ebb89"},"vehicle_type_id":"4","last_reported":1737483159,"current_range_meters":16400,"station_id":"","pricing_plan_id":"cebpf4jnsgd1na2vs0mg"},{"bike_id":"d8b49f42-144a-4cb8-8172-0b5099baab4f","system_id":"levelo_inurba_marseille","lat":43.23965,"lon":5.36632,"is_reserved":false,"is_disabled":false,"rental_uris":{"android":"levelo://app?vid=d8b49f42-144a-4cb8-8172-0b5099baab4f","ios":"levelo://app?vid=d8b49f42-144a-4cb8-8172-0b5099baab4f"},"vehicle_type_id":"4","last_reported":1737483159,"current_range_meters":27600,"station_id":"ce4bhi12rcd13ifvqfp0","pricing_plan_id":"cebpf4jnsgd1na2vs0mg"},{"bike_id":"4e96caf2-4b70-4f27-ab7b-b13b75318a29","system_id":"levelo_inurba_marseille","lat":43.30648,"lon":5.40099,"is_reserved":false,"is_disabled":false,"rental_uris":{"android":"levelo://app?vid=4e96caf2-4b70-4f27-ab7b-b13b75318a29","ios":"levelo://app?vid=4e96caf2-4b70-4f27-ab7b-b13b75318a29"},"vehicle_type_id":"4","last_reported":1737483159,"current_range_meters":25600,"station_id":"ce4bh112rcd13ifvqda0","pricing_plan_id":"cebpf4jnsgd1na2vs0mg"},{"bike_id":"454a40ec-90bc-4b15-b730-27231f92b90e","system_id":"levelo_inurba_marseille","lat":43.33026,"lon":5.39046,"is_reserved":false,"is_disabled":false,"rental_uris":{"android":"levelo://app?vid=454a40ec-90bc-4b15-b730-27231f92b90e","ios":"levelo://app?vid=454a40ec-90bc-4b15-b730-27231f92b90e"},"vehicle_type_id":"4","last_reported":1737483159,"current_range_meters":39200,"station_id":"ce4bhr92rcd13ifvqhrg","pricing_plan_id":"cebpf4jnsgd1na2vs0mg"},{"bike_id":"f48ef6ea-4ef2-4dce-a486-e088ebe84980","system_id":"levelo_inurba_marseille","lat":43.29276,"lon":5.36845,"is_reserved":false,"is_disabled":false,"rental_uris":{"android":"levelo://app?vid=f48ef6ea-4ef2-4dce-a486-e088ebe84980","ios":"levelo://app?vid=f48ef6ea-4ef2-4dce-a486-e088ebe84980"},"vehicle_type_id":"4","last_reported":1737483159,"current_range_meters":6000,"station_id":"ce4bhbp2rcd13ifvqesg","pricing_plan_id":"cebpf4jnsgd1na2vs0mg"},{"bike_id":"e4ee8ff5-67ba-4f76-8dea-95e4c50917fc","system_id":"levelo_inurba_marseille","lat":43.292555,"lon":5.384362,"is_reserved":false,"is_disabled":false,"rental_uris":{"android":"levelo://app?vid=e4ee8ff5-67ba-4f76-8dea-95e4c50917fc","ios":"levelo://app?vid=e4ee8ff5-67ba-4f76-8dea-95e4c50917fc"},"vehicle_type_id":"4","last_reported":1737483159,"current_range_meters":20800,"station_id":"ce4bh692rcd13ifvqea0","pricing_plan_id":"cebpf4jnsgd1na2vs0mg"},{"bike_id":"dd4faa78-7e04-45c3-a01d-ebc2adb1c7e6","system_id":"levelo_inurba_marseille","lat":43.30921,"lon":5.36853,"is_reserved":false,"is_disabled":false,"rental_uris":{"android":"levelo://app?vid=dd4faa78-7e04-45c3-a01d-ebc2adb1c7e6","ios":"levelo://app?vid=dd4faa78-7e04-45c3-a01d-ebc2adb1c7e6"},"vehicle_type_id":"4","last_reported":1737483159,"current_range_meters":30000,"station_id":"ce4bgn92rcd13ifvqbvg","pricing_plan_id":"cebpf4jnsgd1na2vs0mg"},{"bike_id":"4d73addb-9a2c-42ca-90aa-6fa767cadab0","system_id":"levelo_inurba_marseille","lat":43.31362,"lon":5.38493,"is_reserved":false,"is_disabled":false,"rental_uris":{"android":"levelo://app?vid=4d73addb-9a2c-42ca-90aa-6fa767cadab0","ios":"levelo://app?vid=4d73addb-9a2c-42ca-90aa-6fa767cadab0"},"vehicle_type_id":"4","last_reported":1737483159,"current_range_meters":30000,"station_id":"ce4bgt92rcd13ifvqcf0","pricing_plan_id":"cebpf4jnsgd1na2vs0mg"},{"bike_id":"f14c58a6-8335-459d-9789-bcc62848d77c","system_id":"levelo_inurba_marseille","lat":43.29532,"lon":5.38543,"is_reserved":false,"is_disabled":false,"rental_uris":{"android":"levelo://app?vid=f14c58a6-8335-459d-9789-bcc62848d77c","ios":"levelo://app?vid=f14c58a6-8335-459d-9789-bcc62848d77c"},"vehicle_type_id":"4","last_reported":1737483159,"current_range_meters":24400,"station_id":"ce4bgih2rcd13ifvqba0","pricing_plan_id":"cebpf4jnsgd1na2vs0mg"},{"bike_id":"312defff-485f-448a-9532-0d3c659073cd","system_id":"levelo_inurba_marseille","lat":43.30132,"lon":5.38788,"is_reserved":false,"is_disabled":false,"rental_uris":{"android":"levelo://app?vid=312defff-485f-448a-9532-0d3c659073cd","ios":"levelo://app?vid=312defff-485f-448a-9532-0d3c659073cd"},"vehicle_type_id":"4","last_reported":1737483159,"current_range_meters":37600,"station_id":"ce4bghh2rcd13ifvqb60","pricing_plan_id":"cebpf4jnsgd1na2vs0mg"},{"bike_id":"b2598b4d-9a68-478b-8e42-9c332ae2a893","system_id":"levelo_inurba_marseille","lat":43.28727,"lon":5.36097,"is_reserved":false,"is_disabled":false,"rental_uris":{"android":"levelo://app?vid=b2598b4d-9a68-478b-8e42-9c332ae2a893","ios":"levelo://app?vid=b2598b4d-9a68-478b-8e42-9c332ae2a893"},"vehicle_type_id":"4","last_reported":1737483159,"current_range_meters":39200,"station_id":"cki0cbj6b192h4jlfktg","pricing_plan_id":"cebpf4jnsgd1na2vs0mg"},{"bike_id":"a95c4a82-20f8-4222-b1c2-f5c9c6934a26","system_id":"levelo_inurba_marseille","lat":43.28088,"lon":5.39673,"is_reserved":false,"is_disabled":false,"rental_uris":{"android":"levelo://app?vid=a95c4a82-20f8-4222-b1c2-f5c9c6934a26","ios":"levelo://app?vid=a95c4a82-20f8-4222-b1c2-f5c9c6934a26"},"vehicle_type_id":"4","last_reported":1737483159,"current_range_meters":38800,"station_id":"ce4bho12rcd13ifvqh2g","pricing_plan_id":"cebpf4jnsgd1na2vs0mg"},{"bike_id":"50c516e1-5596-42c4-b417-47c37543885e","system_id":"levelo_inurba_marseille","lat":43.30129,"lon":5.3987,"is_reserved":false,"is_disabled":false,"rental_uris":{"android":"levelo://app?vid=50c516e1-5596-42c4-b417-47c37543885e","ios":"levelo://app?vid=50c516e1-5596-42c4-b417-47c37543885e"},"vehicle_type_id":"4","last_reported":1737483159,"current_range_meters":27200,"station_id":"ce4bh0h2rcd13ifvqd40","pricing_plan_id":"cebpf4jnsgd1na2vs0mg"},{"bike_id":"c6decd17-1175-44f6-b8a3-8b21f868ffaf","system_id":"levelo_inurba_marseille","lat":43.28722,"lon":5.36087,"is_reserved":false,"is_disabled":false,"rental_uris":{"android":"levelo://app?vid=c6decd17-1175-44f6-b8a3-8b21f868ffaf","ios":"levelo://app?vid=c6decd17-1175-44f6-b8a3-8b21f868ffaf"},"vehicle_type_id":"4","last_reported":1737483159,"current_range_meters":38800,"station_id":"cki0cbj6b192h4jlfktg","pricing_plan_id":"cebpf4jnsgd1na2vs0mg"},{"bike_id":"3d0ff210-1bf1-4b65-b116-e903d3aeffbb","system_id":"levelo_inurba_marseille","lat":43.27991,"lon":5.40012,"is_reserved":false,"is_disabled":false,"rental_uris":{"android":"levelo://app?vid=3d0ff210-1bf1-4b65-b116-e903d3aeffbb","ios":"levelo://app?vid=3d0ff210-1bf1-4b65-b116-e903d3aeffbb"},"vehicle_type_id":"4","last_reported":1737483159,"current_range_meters":18800,"station_id":"ce4bho92rcd13ifvqh4g","pricing_plan_id":"cebpf4jnsgd1na2vs0mg"},{"bike_id":"1db9dfc3-7af9-4222-9466-9677d8ad30df","system_id":"levelo_inurba_marseille","lat":43.28481,"lon":5.38424,"is_reserved":false,"is_disabled":false,"rental_uris":{"android":"levelo://app?vid=1db9dfc3-7af9-4222-9466-9677d8ad30df","ios":"levelo://app?vid=1db9dfc3-7af9-4222-9466-9677d8ad30df"},"vehicle_type_id":"4","last_reported":1737483159,"current_range_meters":33600,"station_id":"ce4bh512rcd13ifvqe3g","pricing_plan_id":"cebpf4jnsgd1na2vs0mg"},{"bike_id":"a125f3cf-7d62-4e96-b816-99257e7bfdce","system_id":"levelo_inurba_marseille","lat":43.25008,"lon":5.38937,"is_reserved":false,"is_disabled":false,"rental_uris":{"android":"levelo://app?vid=a125f3cf-7d62-4e96-b816-99257e7bfdce","ios":"levelo://app?vid=a125f3cf-7d62-4e96-b816-99257e7bfdce"},"vehicle_type_id":"4","last_reported":1737483159,"current_range_meters":16000,"station_id":"ce4bhgp2rcd13ifvqfd0","pricing_plan_id":"cebpf4jnsgd1na2vs0mg"},{"bike_id":"188bc35e-b96d-4353-8224-81939b718e35","system_id":"levelo_inurba_marseille","lat":43.32362,"lon":5.38887,"is_reserved":false,"is_disabled":false,"rental_uris":{"android":"levelo://app?vid=188bc35e-b96d-4353-8224-81939b718e35","ios":"levelo://app?vid=188bc35e-b96d-4353-8224-81939b718e35"},"vehicle_type_id":"4","last_reported":1737483159,"current_range_meters":29600,"station_id":"ce4bhqp2rcd13ifvqhog","pricing_plan_id":"cebpf4jnsgd1na2vs0mg"},{"bike_id":"42707e4f-fc86-4055-94d3-267e0305077b","system_id":"levelo_inurba_marseille","lat":43.298611,"lon":5.362885,"is_reserved":false,"is_disabled":false,"rental_uris":{"android":"levelo://app?vid=42707e4f-fc86-4055-94d3-267e0305077b","ios":"levelo://app?vid=42707e4f-fc86-4055-94d3-267e0305077b"},"vehicle_type_id":"4","last_reported":1737483159,"current_range_meters":38800,"station_id":"ce4bgpp2rcd13ifvqc3g","pricing_plan_id":"cebpf4jnsgd1na2vs0mg"},{"bike_id":"d7066ef6-f78a-4ee8-bc2b-f4a8832f1df2","system_id":"levelo_inurba_marseille","lat":43.24996,"lon":5.38927,"is_reserved":false,"is_disabled":false,"rental_uris":{"android":"levelo://app?vid=d7066ef6-f78a-4ee8-bc2b-f4a8832f1df2","ios":"levelo://app?vid=d7066ef6-f78a-4ee8-bc2b-f4a8832f1df2"},"vehicle_type_id":"4","last_reported":1737483159,"current_range_meters":8400,"station_id":"ce4bhgp2rcd13ifvqfd0","pricing_plan_id":"cebpf4jnsgd1na2vs0mg"},{"bike_id":"7aa0960a-1cfb-4822-873e-dd187a11905b","system_id":"levelo_inurba_marseille","lat":43.31503,"lon":5.42966,"is_reserved":false,"is_disabled":false,"rental_uris":{"android":"levelo://app?vid=7aa0960a-1cfb-4822-873e-dd187a11905b","ios":"levelo://app?vid=7aa0960a-1cfb-4822-873e-dd187a11905b"},"vehicle_type_id":"4","last_reported":1737483159,"current_range_meters":36400,"station_id":"","pricing_plan_id":"cebpf4jnsgd1na2vs0mg"},{"bike_id":"bdce6ba5-64e6-497d-91b4-fa3ed31b216a","system_id":"levelo_inurba_marseille","lat":43.30138,"lon":5.39863,"is_reserved":false,"is_disabled":false,"rental_uris":{"android":"levelo://app?vid=bdce6ba5-64e6-497d-91b4-fa3ed31b216a","ios":"levelo://app?vid=bdce6ba5-64e6-497d-91b4-fa3ed31b216a"},"vehicle_type_id":"4","last_reported":1737483159,"current_range_meters":27600,"station_id":"ce4bh0h2rcd13ifvqd40","pricing_plan_id":"cebpf4jnsgd1na2vs0mg"},{"bike_id":"698671a8-f03e-4f8b-9a64-66ae0c700a62","system_id":"levelo_inurba_marseille","lat":43.29423,"lon":5.38626,"is_reserved":false,"is_disabled":false,"rental_uris":{"android":"levelo://app?vid=698671a8-f03e-4f8b-9a64-66ae0c700a62","ios":"levelo://app?vid=698671a8-f03e-4f8b-9a64-66ae0c700a62"},"vehicle_type_id":"4","last_reported":1737483159,"current_range_meters":6000,"station_id":"ce4bh2h2rcd13ifvqdh0","pricing_plan_id":"cebpf4jnsgd1na2vs0mg"},{"bike_id":"35b4ad4d-703f-4bfc-af27-7bfc77dab111","system_id":"levelo_inurba_marseille","lat":43.30258,"lon":5.40071,"is_reserved":false,"is_disabled":false,"rental_uris":{"android":"levelo://app?vid=35b4ad4d-703f-4bfc-af27-7bfc77dab111","ios":"levelo://app?vid=35b4ad4d-703f-4bfc-af27-7bfc77dab111"},"vehicle_type_id":"4","last_reported":1737483159,"current_range_meters":19600,"station_id":"ce4bgvh2rcd13ifvqcs0","pricing_plan_id":"cebpf4jnsgd1na2vs0mg"},{"bike_id":"73209e18-4149-4f1a-9f39-3410ec8579a2","system_id":"levelo_inurba_marseille","lat":43.33026,"lon":5.39059,"is_reserved":false,"is_disabled":false,"rental_uris":{"android":"levelo://app?vid=73209e18-4149-4f1a-9f39-3410ec8579a2","ios":"levelo://app?vid=73209e18-4149-4f1a-9f39-3410ec8579a2"},"vehicle_type_id":"4","last_reported":1737483159,"current_range_meters":7200,"station_id":"ce4bhr92rcd13ifvqhrg","pricing_plan_id":"cebpf4jnsgd1na2vs0mg"},{"bike_id":"29a99124-c597-46dd-a348-ca6fbd8f0528","system_id":"levelo_inurba_marseille","lat":43.29523,"lon":5.39402,"is_reserved":false,"is_disabled":false,"rental_uris":{"android":"levelo://app?vid=29a99124-c597-46dd-a348-ca6fbd8f0528","ios":"levelo://app?vid=29a99124-c597-46dd-a348-ca6fbd8f0528"},"vehicle_type_id":"4","last_reported":1737483159,"current_range_meters":26800,"station_id":"ce4bh292rcd13ifvqdf0","pricing_plan_id":"cebpf4jnsgd1na2vs0mg"},{"bike_id":"daa95c34-b998-42f7-a8b9-b93b3a858a82","system_id":"levelo_inurba_marseille","lat":43.31361,"lon":5.38499,"is_reserved":false,"is_disabled":false,"rental_uris":{"android":"levelo://app?vid=daa95c34-b998-42f7-a8b9-b93b3a858a82","ios":"levelo://app?vid=daa95c34-b998-42f7-a8b9-b93b3a858a82"},"vehicle_type_id":"4","last_reported":1737483159,"current_range_meters":38400,"station_id":"ce4bgt92rcd13ifvqcf0","pricing_plan_id":"cebpf4jnsgd1na2vs0mg"},{"bike_id":"ac60b8e6-40f9-44a5-8d16-b88f803db539","system_id":"levelo_inurba_marseille","lat":43.27621,"lon":5.3612,"is_reserved":false,"is_disabled":false,"rental_uris":{"android":"levelo://app?vid=ac60b8e6-40f9-44a5-8d16-b88f803db539","ios":"levelo://app?vid=ac60b8e6-40f9-44a5-8d16-b88f803db539"},"vehicle_type_id":"4","last_reported":1737483159,"current_range_meters":39200,"station_id":"ce4bgj92rcd13ifvqbe0","pricing_plan_id":"cebpf4jnsgd1na2vs0mg"},{"bike_id":"01cd13ee-681d-4a61-8609-68d170d4511a","system_id":"levelo_inurba_marseille","lat":43.29624,"lon":5.37172,"is_reserved":false,"is_disabled":true,"rental_uris":{"android":"levelo://app?vid=01cd13ee-681d-4a61-8609-68d170d4511a","ios":"levelo://app?vid=01cd13ee-681d-4a61-8609-68d170d4511a"},"vehicle_type_id":"4","last_reported":1737483159,"current_range_meters":400,"station_id":"ce4bgnh2rcd13ifvqc0g","pricing_plan_id":"cebpf4jnsgd1na2vs0mg"},{"bike_id":"de261717-ca35-4e92-831f-d11499afafef","system_id":"levelo_inurba_marseille","lat":43.29511,"lon":5.39418,"is_reserved":false,"is_disabled":false,"rental_uris":{"android":"levelo://app?vid=de261717-ca35-4e92-831f-d11499afafef","ios":"levelo://app?vid=de261717-ca35-4e92-831f-d11499afafef"},"vehicle_type_id":"4","last_reported":1737483159,"current_range_meters":16400,"station_id":"ce4bh292rcd13ifvqdf0","pricing_plan_id":"cebpf4jnsgd1na2vs0mg"},{"bike_id":"4bd40555-5ceb-49d0-9dcd-042735dca289","system_id":"levelo_inurba_marseille","lat":43.24664,"lon":5.38168,"is_reserved":false,"is_disabled":false,"rental_uris":{"android":"levelo://app?vid=4bd40555-5ceb-49d0-9dcd-042735dca289","ios":"levelo://app?vid=4bd40555-5ceb-49d0-9dcd-042735dca289"},"vehicle_type_id":"4","last_reported":1737483159,"current_range_meters":24400,"station_id":"ce4bhih2rcd13ifvqfr0","pricing_plan_id":"cebpf4jnsgd1na2vs0mg"},{"bike_id":"b316ad35-7694-467c-b9b4-f878042a292b","system_id":"levelo_inurba_marseille","lat":43.29094,"lon":5.38115,"is_reserved":false,"is_disabled":false,"rental_uris":{"android":"levelo://app?vid=b316ad35-7694-467c-b9b4-f878042a292b","ios":"levelo://app?vid=b316ad35-7694-467c-b9b4-f878042a292b"},"vehicle_type_id":"4","last_reported":1737483159,"current_range_meters":17200,"station_id":"ce4bh512rcd13ifvqe2g","pricing_plan_id":"cebpf4jnsgd1na2vs0mg"},{"bike_id":"60b7d049-237a-4dbd-ad0c-436ecde1802f","system_id":"levelo_inurba_marseille","lat":43.23185,"lon":5.35548,"is_reserved":false,"is_disabled":false,"rental_uris":{"android":"levelo://app?vid=60b7d049-237a-4dbd-ad0c-436ecde1802f","ios":"levelo://app?vid=60b7d049-237a-4dbd-ad0c-436ecde1802f"},"vehicle_type_id":"4","last_reported":1737483159,"current_range_meters":19600,"station_id":"ce4bhu92rcd13ifvqi70","pricing_plan_id":"cebpf4jnsgd1na2vs0mg"},{"bike_id":"fe7011bb-5454-4247-a00a-90c1b444d493","system_id":"levelo_inurba_marseille","lat":43.23959,"lon":5.36648,"is_reserved":false,"is_disabled":false,"rental_uris":{"android":"levelo://app?vid=fe7011bb-5454-4247-a00a-90c1b444d493","ios":"levelo://app?vid=fe7011bb-5454-4247-a00a-90c1b444d493"},"vehicle_type_id":"4","last_reported":1737483159,"current_range_meters":12000,"station_id":"ce4bhi12rcd13ifvqfp0","pricing_plan_id":"cebpf4jnsgd1na2vs0mg"},{"bike_id":"11ca121e-b99b-4ab6-b21d-d57195b11f9b","system_id":"levelo_inurba_marseille","lat":43.29419,"lon":5.38624,"is_reserved":false,"is_disabled":false,"rental_uris":{"android":"levelo://app?vid=11ca121e-b99b-4ab6-b21d-d57195b11f9b","ios":"levelo://app?vid=11ca121e-b99b-4ab6-b21d-d57195b11f9b"},"vehicle_type_id":"4","last_reported":1737483159,"current_range_meters":21600,"station_id":"ce4bh2h2rcd13ifvqdh0","pricing_plan_id":"cebpf4jnsgd1na2vs0mg"},{"bike_id":"108732b6-5e06-4482-8db5-ff0a5532a5b2","system_id":"levelo_inurba_marseille","lat":43.32284,"lon":5.38277,"is_reserved":false,"is_disabled":false,"rental_uris":{"android":"levelo://app?vid=108732b6-5e06-4482-8db5-ff0a5532a5b2","ios":"levelo://app?vid=108732b6-5e06-4482-8db5-ff0a5532a5b2"},"vehicle_type_id":"4","last_reported":1737483159,"current_range_meters":36800,"station_id":"ce4bhr12rcd13ifvqhqg","pricing_plan_id":"cebpf4jnsgd1na2vs0mg"},{"bike_id":"d3e303b4-5fb1-45fa-a778-5adfd53174a4","system_id":"levelo_inurba_marseille","lat":43.30188,"lon":5.36623,"is_reserved":false,"is_disabled":false,"rental_uris":{"android":"levelo://app?vid=d3e303b4-5fb1-45fa-a778-5adfd53174a4","ios":"levelo://app?vid=d3e303b4-5fb1-45fa-a778-5adfd53174a4"},"vehicle_type_id":"4","last_reported":1737483159,"current_range_meters":16400,"station_id":"ce4bgrh2rcd13ifvqc8g","pricing_plan_id":"cebpf4jnsgd1na2vs0mg"},{"bike_id":"f4cd2278-ce69-4a70-9327-76172aeda7fb","system_id":"levelo_inurba_marseille","lat":43.24382,"lon":5.40144,"is_reserved":false,"is_disabled":false,"rental_uris":{"android":"levelo://app?vid=f4cd2278-ce69-4a70-9327-76172aeda7fb","ios":"levelo://app?vid=f4cd2278-ce69-4a70-9327-76172aeda7fb"},"vehicle_type_id":"4","last_reported":1737483159,"current_range_meters":17200,"station_id":"","pricing_plan_id":"cebpf4jnsgd1na2vs0mg"},{"bike_id":"1f44efd1-3459-405c-b6fd-2b9e778660a9","system_id":"levelo_inurba_marseille","lat":43.2953,"lon":5.38533,"is_reserved":false,"is_disabled":false,"rental_uris":{"android":"levelo://app?vid=1f44efd1-3459-405c-b6fd-2b9e778660a9","ios":"levelo://app?vid=1f44efd1-3459-405c-b6fd-2b9e778660a9"},"vehicle_type_id":"4","last_reported":1737483159,"current_range_meters":22800,"station_id":"ce4bgih2rcd13ifvqba0","pricing_plan_id":"cebpf4jnsgd1na2vs0mg"},{"bike_id":"74d89b75-d9b8-4895-9221-42ebeb782c94","system_id":"levelo_inurba_marseille","lat":43.26802,"lon":5.40267,"is_reserved":false,"is_disabled":false,"rental_uris":{"android":"levelo://app?vid=74d89b75-d9b8-4895-9221-42ebeb782c94","ios":"levelo://app?vid=74d89b75-d9b8-4895-9221-42ebeb782c94"},"vehicle_type_id":"4","last_reported":1737483159,"current_range_meters":39200,"station_id":"ce501612rcd8frsf0b60","pricing_plan_id":"cebpf4jnsgd1na2vs0mg"},{"bike_id":"32a600cc-e2f7-40d5-a782-84fc1e0f52aa","system_id":"levelo_inurba_marseille","lat":43.29875,"lon":5.3972,"is_reserved":false,"is_disabled":false,"rental_uris":{"android":"levelo://app?vid=32a600cc-e2f7-40d5-a782-84fc1e0f52aa","ios":"levelo://app?vid=32a600cc-e2f7-40d5-a782-84fc1e0f52aa"},"vehicle_type_id":"4","last_reported":1737483159,"current_range_meters":24000,"station_id":"ce4bh0h2rcd13ifvqd50","pricing_plan_id":"cebpf4jnsgd1na2vs0mg"},{"bike_id":"a67d981a-7457-420f-a045-c63e13757cc6","system_id":"levelo_inurba_marseille","lat":43.29601,"lon":5.36739,"is_reserved":false,"is_disabled":false,"rental_uris":{"android":"levelo://app?vid=a67d981a-7457-420f-a045-c63e13757cc6","ios":"levelo://app?vid=a67d981a-7457-420f-a045-c63e13757cc6"},"vehicle_type_id":"4","last_reported":1737483159,"current_range_meters":38000,"station_id":"ce4bgph2rcd13ifvqc2g","pricing_plan_id":"cebpf4jnsgd1na2vs0mg"},{"bike_id":"c9869f97-1647-4a57-871a-0fcfaed72fa0","system_id":"levelo_inurba_marseille","lat":43.27998,"lon":5.41658,"is_reserved":false,"is_disabled":true,"rental_uris":{"android":"levelo://app?vid=c9869f97-1647-4a57-871a-0fcfaed72fa0","ios":"levelo://app?vid=c9869f97-1647-4a57-871a-0fcfaed72fa0"},"vehicle_type_id":"4","last_reported":1737483159,"current_range_meters":400,"station_id":"ce4bho12rcd13ifvqh1g","pricing_plan_id":"cebpf4jnsgd1na2vs0mg"},{"bike_id":"797e707b-eb38-4efa-956c-b530099149fb","system_id":"levelo_inurba_marseille","lat":43.29574,"lon":5.39978,"is_reserved":false,"is_disabled":false,"rental_uris":{"android":"levelo://app?vid=797e707b-eb38-4efa-956c-b530099149fb","ios":"levelo://app?vid=797e707b-eb38-4efa-956c-b530099149fb"},"vehicle_type_id":"4","last_reported":1737483159,"current_range_meters":20800,"station_id":"ce4bh312rcd13ifvqdj0","pricing_plan_id":"cebpf4jnsgd1na2vs0mg"},{"bike_id":"6d7fe95a-e88d-4fb7-a96e-3e6d5f428771","system_id":"levelo_inurba_marseille","lat":43.2873,"lon":5.36084,"is_reserved":false,"is_disabled":false,"rental_uris":{"android":"levelo://app?vid=6d7fe95a-e88d-4fb7-a96e-3e6d5f428771","ios":"levelo://app?vid=6d7fe95a-e88d-4fb7-a96e-3e6d5f428771"},"vehicle_type_id":"4","last_reported":1737483159,"current_range_meters":22800,"station_id":"cki0cbj6b192h4jlfktg","pricing_plan_id":"cebpf4jnsgd1na2vs0mg"},{"bike_id":"fbe9b618-0ec0-4683-a72b-6e2e3e743bdb","system_id":"levelo_inurba_marseille","lat":43.30294,"lon":5.3689,"is_reserved":false,"is_disabled":false,"rental_uris":{"android":"levelo://app?vid=fbe9b618-0ec0-4683-a72b-6e2e3e743bdb","ios":"levelo://app?vid=fbe9b618-0ec0-4683-a72b-6e2e3e743bdb"},"vehicle_type_id":"4","last_reported":1737483159,"current_range_meters":12800,"station_id":"ce4bgqh2rcd13ifvqc5g","pricing_plan_id":"cebpf4jnsgd1na2vs0mg"},{"bike_id":"b1178cb4-439f-49c8-944f-b5adf4637300","system_id":"levelo_inurba_marseille","lat":43.28149,"lon":5.42647,"is_reserved":false,"is_disabled":false,"rental_uris":{"android":"levelo://app?vid=b1178cb4-439f-49c8-944f-b5adf4637300","ios":"levelo://app?vid=b1178cb4-439f-49c8-944f-b5adf4637300"},"vehicle_type_id":"4","last_reported":1737483159,"current_range_meters":24000,"station_id":"ce4bhnh2rcd13ifvqgug","pricing_plan_id":"cebpf4jnsgd1na2vs0mg"},{"bike_id":"60ab01c6-08e2-4f91-9069-075505ce944c","system_id":"levelo_inurba_marseille","lat":43.23188,"lon":5.39992,"is_reserved":false,"is_disabled":false,"rental_uris":{"android":"levelo://app?vid=60ab01c6-08e2-4f91-9069-075505ce944c","ios":"levelo://app?vid=60ab01c6-08e2-4f91-9069-075505ce944c"},"vehicle_type_id":"4","last_reported":1737483159,"current_range_meters":24000,"station_id":"ce4bhn12rcd13ifvqgqg","pricing_plan_id":"cebpf4jnsgd1na2vs0mg"},{"bike_id":"82a459ab-9388-419d-ac9e-10cf5c3742fa","system_id":"levelo_inurba_marseille","lat":43.27809,"lon":5.40713,"is_reserved":false,"is_disabled":false,"rental_uris":{"android":"levelo://app?vid=82a459ab-9388-419d-ac9e-10cf5c3742fa","ios":"levelo://app?vid=82a459ab-9388-419d-ac9e-10cf5c3742fa"},"vehicle_type_id":"4","last_reported":1737483159,"current_range_meters":24000,"station_id":"ce4bhnh2rcd13ifvqgtg","pricing_plan_id":"cebpf4jnsgd1na2vs0mg"},{"bike_id":"b2993094-75f0-4fda-8331-bbb4c21cd3d5","system_id":"levelo_inurba_marseille","lat":43.30906,"lon":5.36848,"is_reserved":false,"is_disabled":false,"rental_uris":{"android":"levelo://app?vid=b2993094-75f0-4fda-8331-bbb4c21cd3d5","ios":"levelo://app?vid=b2993094-75f0-4fda-8331-bbb4c21cd3d5"},"vehicle_type_id":"4","last_reported":1737483159,"current_range_meters":9600,"station_id":"ce4bgn92rcd13ifvqbvg","pricing_plan_id":"cebpf4jnsgd1na2vs0mg"},{"bike_id":"b0c412fd-c72e-4dc8-948d-5f5f179a083f","system_id":"levelo_inurba_marseille","lat":43.31329,"lon":5.39694,"is_reserved":false,"is_disabled":false,"rental_uris":{"android":"levelo://app?vid=b0c412fd-c72e-4dc8-948d-5f5f179a083f","ios":"levelo://app?vid=b0c412fd-c72e-4dc8-948d-5f5f179a083f"},"vehicle_type_id":"4","last_reported":1737483159,"current_range_meters":23200,"station_id":"ce4bgvp2rcd13ifvqcu0","pricing_plan_id":"cebpf4jnsgd1na2vs0mg"},{"bike_id":"c4913309-fb37-4ff1-9dca-b63c6786cbe1","system_id":"levelo_inurba_marseille","lat":43.30608,"lon":5.37217,"is_reserved":false,"is_disabled":false,"rental_uris":{"android":"levelo://app?vid=c4913309-fb37-4ff1-9dca-b63c6786cbe1","ios":"levelo://app?vid=c4913309-fb37-4ff1-9dca-b63c6786cbe1"},"vehicle_type_id":"4","last_reported":1737483159,"current_range_meters":22400,"station_id":"ce4bgqh2rcd13ifvqc4g","pricing_plan_id":"cebpf4jnsgd1na2vs0mg"},{"bike_id":"f869a568-f48f-4430-a988-6cadd62ba905","system_id":"levelo_inurba_marseille","lat":43.28667,"lon":5.36355,"is_reserved":false,"is_disabled":false,"rental_uris":{"android":"levelo://app?vid=f869a568-f48f-4430-a988-6cadd62ba905","ios":"levelo://app?vid=f869a568-f48f-4430-a988-6cadd62ba905"},"vehicle_type_id":"4","last_reported":1737483159,"current_range_meters":38400,"station_id":"ce4bhah2rcd13ifvqej0","pricing_plan_id":"cebpf4jnsgd1na2vs0mg"},{"bike_id":"de695776-f513-4e38-9108-fb33192a39fb","system_id":"levelo_inurba_marseille","lat":43.2396,"lon":5.36632,"is_reserved":false,"is_disabled":false,"rental_uris":{"android":"levelo://app?vid=de695776-f513-4e38-9108-fb33192a39fb","ios":"levelo://app?vid=de695776-f513-4e38-9108-fb33192a39fb"},"vehicle_type_id":"4","last_reported":1737483159,"current_range_meters":38800,"station_id":"ce4bhi12rcd13ifvqfp0","pricing_plan_id":"cebpf4jnsgd1na2vs0mg"},{"bike_id":"2e9fcf37-6b27-4efd-9867-62961c98bc46","system_id":"levelo_inurba_marseille","lat":43.2993,"lon":5.36539,"is_reserved":false,"is_disabled":false,"rental_uris":{"android":"levelo://app?vid=2e9fcf37-6b27-4efd-9867-62961c98bc46","ios":"levelo://app?vid=2e9fcf37-6b27-4efd-9867-62961c98bc46"},"vehicle_type_id":"4","last_reported":1737483159,"current_range_meters":29600,"station_id":"ce4bgm92rcd13ifvqbr0","pricing_plan_id":"cebpf4jnsgd1na2vs0mg"},{"bike_id":"44abb039-6be8-4fbf-89e7-3a52e2f0bfbd","system_id":"levelo_inurba_marseille","lat":43.29007,"lon":5.35618,"is_reserved":false,"is_disabled":false,"rental_uris":{"android":"levelo://app?vid=44abb039-6be8-4fbf-89e7-3a52e2f0bfbd","ios":"levelo://app?vid=44abb039-6be8-4fbf-89e7-3a52e2f0bfbd"},"vehicle_type_id":"4","last_reported":1737483159,"current_range_meters":28400,"station_id":"ce4bhb92rcd13ifvqen0","pricing_plan_id":"cebpf4jnsgd1na2vs0mg"},{"bike_id":"6d863f0d-be8c-4f64-94a8-442c899f3859","system_id":"levelo_inurba_marseille","lat":43.28729,"lon":5.36091,"is_reserved":false,"is_disabled":false,"rental_uris":{"android":"levelo://app?vid=6d863f0d-be8c-4f64-94a8-442c899f3859","ios":"levelo://app?vid=6d863f0d-be8c-4f64-94a8-442c899f3859"},"vehicle_type_id":"4","last_reported":1737483159,"current_range_meters":38000,"station_id":"cki0cbj6b192h4jlfktg","pricing_plan_id":"cebpf4jnsgd1na2vs0mg"},{"bike_id":"28b43ca4-dfca-404a-a8b9-1a5ba415d62f","system_id":"levelo_inurba_marseille","lat":43.27812,"lon":5.40716,"is_reserved":false,"is_disabled":false,"rental_uris":{"android":"levelo://app?vid=28b43ca4-dfca-404a-a8b9-1a5ba415d62f","ios":"levelo://app?vid=28b43ca4-dfca-404a-a8b9-1a5ba415d62f"},"vehicle_type_id":"4","last_reported":1737483159,"current_range_meters":8400,"station_id":"ce4bhnh2rcd13ifvqgtg","pricing_plan_id":"cebpf4jnsgd1na2vs0mg"},{"bike_id":"a1a3cc1b-69ba-49fa-bf51-a202e25d99b1","system_id":"levelo_inurba_marseille","lat":43.29424,"lon":5.38653,"is_reserved":false,"is_disabled":false,"rental_uris":{"android":"levelo://app?vid=a1a3cc1b-69ba-49fa-bf51-a202e25d99b1","ios":"levelo://app?vid=a1a3cc1b-69ba-49fa-bf51-a202e25d99b1"},"vehicle_type_id":"4","last_reported":1737483159,"current_range_meters":36800,"station_id":"ce4bh2h2rcd13ifvqdh0","pricing_plan_id":"cebpf4jnsgd1na2vs0mg"},