{"last_updated":1687810080,"ttl":30,"version":"2.2","data":{"bikes":[{"bike_id":"25e4bc6d-91ae-4df3-bbff-18d570139ae2","system_id":"levelo_inurba_marseille","lat":43.313391,"lon":5.36706,"is_reserved":false,"is_disabled":false,"rental_uris":{"android":"levelo://app?vid=25e4bc6d-91ae-4df3-bbff-18d570139ae2","ios":"levelo://app?vid=25e4bc6d-91ae-4df3-bbff-18d570139ae2"},"vehicle_type_id":"4","last_reported":1687810081,"current_range_meters":16400,"station_id":"ce4bgr92rcd13ifvqc6g","pricing_plan_id":"free"},{"bike_id":"ecb690ab-2134-4ba6-939c-8e10fff88600","system_id":"levelo_inurba_marseille","lat":43.312239,"lon":5.368562,"is_reserved":false,"is_disabled":false,"rental_uris":{"android":"levelo://app?vid=ecb690ab-2134-4ba6-939c-8e10fff88600","ios":"levelo://app?vid=ecb690ab-2134-4ba6-939c-8e10fff88600"},"vehicle_type_id":"4","last_reported":1687810081,"current_range_meters":0,"station_id":"ce4bgl92rcd13ifvqbq0","pricing_plan_id":"free"},{"bike_id":"b132646b-cbed-489d-8f6b-b3413ad809ec","system_id":"levelo_inurba_marseille","lat":43.309076,"lon":5.368465,"is_reserved":false,"is_disabled":false,"rental_uris":{"android":"levelo://app?vid=b132646b-cbed-489d-8f6b-b3413ad809ec","ios":"levelo://app?vid=b132646b-cbed-489d-8f6b-b3413ad809ec"},"vehicle_type_id":"4","last_reported":1687810081,"current_range_meters":7600,"station_id":"ce4bgn92rcd13ifvqbvg","pricing_plan_id":"free"},{"bike_id":"c779c2a9-f487-4d26-a7c2-5a54f5f74da4","system_id":"levelo_inurba_marseille","lat":43.314811,"lon":5.373103,"is_reserved":false,"is_disabled":false,"rental_uris":{"android":"levelo://app?vid=c779c2a9-f487-4d26-a7c2-5a54f5f74da4","ios":"levelo://app?vid=c779c2a9-f487-4d26-a7c2-5a54f5f74da4"},"vehicle_type_id":"4","last_reported":1687810081,"current_range_meters":28800,"station_id":"ce4bgt12rcd13ifvqcd0","pricing_plan_id":"free"},{"bike_id":"d0ee2a5f-5e6a-47b3-b457-3bc127841c2f","system_id":"levelo_inurba_marseille","lat":43.314811,"lon":5.373104,"is_reserved":false,"is_disabled":false,"rental_uris":{"android":"levelo://app?vid=d0ee2a5f-5e6a-47b3-b457-3bc127841c2f","ios":"levelo://app?vid=d0ee2a5f-5e6a-47b3-b457-3bc127841c2f"},"vehicle_type_id":"4","last_reported":1687810081,"current_range_meters":4000,"station_id":"ce4bgt12rcd13ifvqcd0","pricing_plan_id":"free"},{"bike_id":"81100bb7-0d78-41ec-9edf-fb06e1633c2d","system_id":"levelo_inurba_marseille","lat":43.308606,"lon":5.372099,"is_reserved":false,"is_disabled":false,"rental_uris":{"android":"levelo://app?vid=81100bb7-0d78-41ec-9edf-fb06e1633c2d","ios":"levelo://app?vid=81100bb7-0d78-41ec-9edf-fb06e1633c2d"},"vehicle_type_id":"4","last_reported":1687810081,"current_range_meters":28800,"station_id":"ce4bguh2rcd13ifvqckg","pricing_plan_id":"free"},{"bike_id":"2ff7b2a9-b262-4ed2-8e5f-cd5fb7fbfe98","system_id":"levelo_inurba_marseille","lat":43.305989,"lon":5.37225,"is_reserved":false,"is_disabled":false,"rental_uris":{"android":"levelo://app?vid=2ff7b2a9-b262-4ed2-8e5f-cd5fb7fbfe98","ios":"levelo://app?vid=2ff7b2a9-b262-4ed2-8e5f-cd5fb7fbfe98"},"vehicle_type_id":"4","last_reported":1687810081,"current_range_meters":19200,"station_id":"ce4bgqh2rcd13ifvqc4g","pricing_plan_id":"free"},{"bike_id":"4a4c79ce-9c96-45b2-b610-6d621427e80b","system_id":"levelo_inurba_marseille","lat":43.311125,"lon":5.377624,"is_reserved":false,"is_disabled":false,"rental_uris":{"android":"levelo://app?vid=4a4c79ce-9c96-45b2-b610-6d621427e80b","ios":"levelo://app?vid=4a4c79ce-9c96-45b2-b610-6d621427e80b"},"vehicle_type_id":"4","last_reported":1687810081,"current_range_meters":26400,"station_id":"ce4bgt92rcd13ifvqcg0","pricing_plan_id":"free"},{"bike_id":"756deead-accc-44c6-b59e-79973a51a1c5","system_id":"levelo_inurba_marseille","lat":43.311131,"lon":5.377651,"is_reserved":false,"is_disabled":false,"rental_uris":{"android":"levelo://app?vid=756deead-accc-44c6-b59e-79973a51a1c5","ios":"levelo://app?vid=756deead-accc-44c6-b59e-79973a51a1c5"},"vehicle_type_id":"4","last_reported":1687810081,"current_range_meters":10400,"station_id":"ce4bgt92rcd13ifvqcg0","pricing_plan_id":"free"},{"bike_id":"70ad30be-1750-4991-a778-d49a1399eaf6","system_id":"levelo_inurba_marseille","lat":43.311131,"lon":5.377651,"is_reserved":false,"is_disabled":false,"rental_uris":{"android":"levelo://app?vid=70ad30be-1750-4991-a778-d49a1399eaf6","ios":"levelo://app?vid=70ad30be-1750-4991-a778-d49a1399eaf6"},"vehicle_type_id":"4","last_reported":1687810081,"current_range_meters":21600,"station_id":"ce4bgt92rcd13ifvqcg0","pricing_plan_id":"free"},{"bike_id":"963528f5-c8b7-47c7-b695-ab47183755ab","system_id":"levelo_inurba_marseille","lat":43.311131,"lon":5.377651,"is_reserved":false,"is_disabled":false,"rental_uris":{"android":"levelo://app?vid=963528f5-c8b7-47c7-b695-ab47183755ab","ios":"levelo://app?vid=963528f5-c8b7-47c7-b695-ab47183755ab"},"vehicle_type_id":"4","last_reported":1687810081,"current_range_meters":19600,"station_id":"ce4bgt92rcd13ifvqcg0","pricing_plan_id":"free"},{"bike_id":"d1e472ae-a69c-44de-81eb-45c8a3cfcc38","system_id":"levelo_inurba_marseille","lat":43.311131,"lon":5.377651,"is_reserved":false,"is_disabled":false,"rental_uris":{"android":"levelo://app?vid=d1e472ae-a69c-44de-81eb-45c8a3cfcc38","ios":"levelo://app?vid=d1e472ae-a69c-44de-81eb-45c8a3cfcc38"},"vehicle_type_id":"4","last_reported":1687810081,"current_range_meters":3200,"station_id":"ce4bgt92rcd13ifvqcg0","pricing_plan_id":"free"},{"bike_id":"e717f42b-dee9-4509-b1b6-8348409a5762","system_id":"levelo_inurba_marseille","lat":43.303046,"lon":5.368981,"is_reserved":false,"is_disabled":false,"rental_uris":{"android":"levelo://app?vid=e717f42b-dee9-4509-b1b6-8348409a5762","ios":"levelo://app?vid=e717f42b-dee9-4509-b1b6-8348409a5762"},"vehicle_type_id":"4","last_reported":1687810081,"current_range_meters":2400,"station_id":"ce4bgqh2rcd13ifvqc5g","pricing_plan_id":"free"},{"bike_id":"b806b103-a0e0-45e4-98d4-8bdc9a311024","system_id":"levelo_inurba_marseille","lat":43.303046,"lon":5.368981,"is_reserved":false,"is_disabled":false,"rental_uris":{"android":"levelo://app?vid=b806b103-a0e0-45e4-98d4-8bdc9a311024","ios":"levelo://app?vid=b806b103-a0e0-45e4-98d4-8bdc9a311024"},"vehicle_type_id":"4","last_reported":1687810081,"current_range_meters":29600,"station_id":"ce4bgqh2rcd13ifvqc5g","pricing_plan_id":"free"},{"bike_id":"97620f7c-d937-4ad2-a0cd-b4c15627539e","system_id":"levelo_inurba_marseille","lat":43.31529,"lon":5.38034,"is_reserved":false,"is_disabled":false,"rental_uris":{"android":"levelo://app?vid=97620f7c-d937-4ad2-a0cd-b4c15627539e","ios":"levelo://app?vid=97620f7c-d937-4ad2-a0cd-b4c15627539e"},"vehicle_type_id":"4","last_reported":1687810081,"current_range_meters":15600,"station_id":"ce4bhsp2rcd13ifvqi50","pricing_plan_id":"free"},{"bike_id":"bebc1c6e-53cb-447e-b363-d0d9b5a3694f","system_id":"levelo_inurba_marseille","lat":43.31532,"lon":5.38037,"is_reserved":false,"is_disabled":false,"rental_uris":{"android":"levelo://app?vid=bebc1c6e-53cb-447e-b363-d0d9b5a3694f","ios":"levelo://app?vid=bebc1c6e-53cb-447e-b363-d0d9b5a3694f"},"vehicle_type_id":"4","last_reported":1687810081,"current_range_meters":1600,"station_id":"ce4bhsp2rcd13ifvqi50","pricing_plan_id":"free"},{"bike_id":"13a3aef8-b3d5-49ca-94e2-e3328e93324f","system_id":"levelo_inurba_marseille","lat":43.308012,"lon":5.381511,"is_reserved":false,"is_disabled":false,"rental_uris":{"android":"levelo://app?vid=13a3aef8-b3d5-49ca-94e2-e3328e93324f","ios":"levelo://app?vid=13a3aef8-b3d5-49ca-94e2-e3328e93324f"},"vehicle_type_id":"4","last_reported":1687810081,"current_range_meters":17600,"station_id":"ce4bgt12rcd13ifvqce0","pricing_plan_id":"free"},{"bike_id":"c3b3f379-b768-48f8-87ad-3b24bd285f33","system_id":"levelo_inurba_marseille","lat":43.30147,"lon":5.37416,"is_reserved":false,"is_disabled":false,"rental_uris":{"android":"levelo://app?vid=c3b3f379-b768-48f8-87ad-3b24bd285f33","ios":"levelo://app?vid=c3b3f379-b768-48f8-87ad-3b24bd285f33"},"vehicle_type_id":"4","last_reported":1687810081,"current_range_meters":0,"station_id":"ce4bgs92rcd13ifvqcc0","pricing_plan_id":"free"},{"bike_id":"6d34e2e0-deb8-4c5b-ba1d-44fe5c3cbee8","system_id":"levelo_inurba_marseille","lat":43.319935,"lon":5.381699,"is_reserved":false,"is_disabled":false,"rental_uris":{"android":"levelo://app?vid=6d34e2e0-deb8-4c5b-ba1d-44fe5c3cbee8","ios":"levelo://app?vid=6d34e2e0-deb8-4c5b-ba1d-44fe5c3cbee8"},"vehicle_type_id":"4","last_reported":1687810081,"current_range_meters":19600,"station_id":"ce4bhr12rcd13ifvqhpg","pricing_plan_id":"free"},{"bike_id":"a9d45a8e-731a-4c2e-85f8-4585d5e878ab","system_id":"levelo_inurba_marseille","lat":43.319935,"lon":5.381699,"is_reserved":false,"is_disabled":false,"rental_uris":{"android":"levelo://app?vid=a9d45a8e-731a-4c2e-85f8-4585d5e878ab","ios":"levelo://app?vid=a9d45a8e-731a-4c2e-85f8-4585d5e878ab"},"vehicle_type_id":"4","last_reported":1687810081,"current_range_meters":8000,"station_id":"ce4bhr12rcd13ifvqhpg","pricing_plan_id":"free"},{"bike_id":"32079ba2-9792-4bca-810e-462ba0a5cedd","system_id":"levelo_inurba_marseille","lat":43.319935,"lon":5.381699,"is_reserved":false,"is_disabled":false,"rental_uris":{"android":"levelo://app?vid=32079ba2-9792-4bca-810e-462ba0a5cedd","ios":"levelo://app?vid=32079ba2-9792-4bca-810e-462ba0a5cedd"},"vehicle_type_id":"4","last_reported":1687810081,"current_range_meters":14000,"station_id":"ce4bhr12rcd13ifvqhpg","pricing_plan_id":"free"},{"bike_id":"31670502-705d-41e1-8f8d-3db99d4cb96d","system_id":"levelo_inurba_marseille","lat":43.313571,"lon":5.384829,"is_reserved":false,"is_disabled":false,"rental_uris":{"android":"levelo://app?vid=31670502-705d-41e1-8f8d-3db99d4cb96d","ios":"levelo://app?vid=31670502-705d-41e1-8f8d-3db99d4cb96d"},"vehicle_type_id":"4","last_reported":1687810081,"current_range_meters":32000,"station_id":"ce4bgt92rcd13ifvqcf0","pricing_plan_id":"free"},{"bike_id":"41a6ce6d-3975-4f6b-8ad0-5a26bb2989bb","system_id":"levelo_inurba_marseille","lat":43.313571,"lon":5.384829,"is_reserved":false,"is_disabled":false,"rental_uris":{"android":"levelo://app?vid=41a6ce6d-3975-4f6b-8ad0-5a26bb2989bb","ios":"levelo://app?vid=41a6ce6d-3975-4f6b-8ad0-5a26bb2989bb"},"vehicle_type_id":"4","last_reported":1687810081,"current_range_meters":30400,"station_id":"ce4bgt92rcd13ifvqcf0","pricing_plan_id":"free"},{"bike_id":"b73f9874-724c-4169-93c0-36992a1fadec","system_id":"levelo_inurba_marseille","lat":43.313571,"lon":5.384829,"is_reserved":false,"is_disabled":false,"rental_uris":{"android":"levelo://app?vid=b73f9874-724c-4169-93c0-36992a1fadec","ios":"levelo://app?vid=b73f9874-724c-4169-93c0-36992a1fadec"},"vehicle_type_id":"4","last_reported":1687810081,"current_range_meters":28000,"station_id":"ce4bgt92rcd13ifvqcf0","pricing_plan_id":"free"},{"bike_id":"c8303303-eff3-4bb4-b219-aa7b6fe56c3f","system_id":"levelo_inurba_marseille","lat":43.313571,"lon":5.384829,"is_reserved":false,"is_disabled":false,"rental_uris":{"android":"levelo://app?vid=c8303303-eff3-4bb4-b219-aa7b6fe56c3f","ios":"levelo://app?vid=c8303303-eff3-4bb4-b219-aa7b6fe56c3f"},"vehicle_type_id":"4","last_reported":1687810081,"current_range_meters":30400,"station_id":"ce4bgt92rcd13ifvqcf0","pricing_plan_id":"free"},{"bike_id":"5ecd859f-60bb-4249-8d00-dc9c5baa3769","system_id":"levelo_inurba_marseille","lat":43.313571,"lon":5.384829,"is_reserved":false,"is_disabled":false,"rental_uris":{"android":"levelo://app?vid=5ecd859f-60bb-4249-8d00-dc9c5baa3769","ios":"levelo://app?vid=5ecd859f-60bb-4249-8d00-dc9c5baa3769"},"vehicle_type_id":"4","last_reported":1687810081,"current_range_meters":31200,"station_id":"ce4bgt92rcd13ifvqcf0","pricing_plan_id":"free"},{"bike_id":"10834992-a3a9-4915-96ca-eb51396eae71","system_id":"levelo_inurba_marseille","lat":43.29872,"lon":5.36546,"is_reserved":false,"is_disabled":false,"rental_uris":{"android":"levelo://app?vid=10834992-a3a9-4915-96ca-eb51396eae71","ios":"levelo://app?vid=10834992-a3a9-4915-96ca-eb51396eae71"},"vehicle_type_id":"4","last_reported":1687810081,"current_range_meters":25200,"station_id":"","pricing_plan_id":"free"},{"bike_id":"8a0c1bcf-4d35-4cf1-9f58-f962959e75f4","system_id":"levelo_inurba_marseille","lat":43.311722,"lon":5.387247,"is_reserved":false,"is_disabled":false,"rental_uris":{"android":"levelo://app?vid=8a0c1bcf-4d35-4cf1-9f58-f962959e75f4","ios":"levelo://app?vid=8a0c1bcf-4d35-4cf1-9f58-f962959e75f4"},"vehicle_type_id":"4","last_reported":1687810081,"current_range_meters":24000,"station_id":"ce4bgv12rcd13ifvqcp0","pricing_plan_id":"free"},{"bike_id":"4ccc7856-0e66-44d5-9600-1858a43e4d71","system_id":"levelo_inurba_marseille","lat":43.299243,"lon":5.374807,"is_reserved":false,"is_disabled":false,"rental_uris":{"android":"levelo://app?vid=4ccc7856-0e66-44d5-9600-1858a43e4d71","ios":"levelo://app?vid=4ccc7856-0e66-44d5-9600-1858a43e4d71"},"vehicle_type_id":"4","last_reported":1687810081,"current_range_meters":12000,"station_id":"ce4bgjh2rcd13ifvqbg0","pricing_plan_id":"free"},{"bike_id":"485c2ec5-2fe2-4328-8a31-d78a53da5680","system_id":"levelo_inurba_marseille","lat":43.297774,"lon":5.370875,"is_reserved":false,"is_disabled":false,"rental_uris":{"android":"levelo://app?vid=485c2ec5-2fe2-4328-8a31-d78a53da5680","ios":"levelo://app?vid=485c2ec5-2fe2-4328-8a31-d78a53da5680"},"vehicle_type_id":"4","last_reported":1687810081,"current_range_meters":30000,"station_id":"ce4bgop2rcd13ifvqc1g","pricing_plan_id":"free"},{"bike_id":"de6fa577-766d-468e-87e0-ad3237d9d518","system_id":"levelo_inurba_marseille","lat":43.297794,"lon":5.370888,"is_reserved":false,"is_disabled":false,"rental_uris":{"android":"levelo://app?vid=de6fa577-766d-468e-87e0-ad3237d9d518","ios":"levelo://app?vid=de6fa577-766d-468e-87e0-ad3237d9d518"},"vehicle_type_id":"4","last_reported":1687810081,"current_range_meters":20800,"station_id":"ce4bgop2rcd13ifvqc1g","pricing_plan_id":"free"},{"bike_id":"1580a472-182f-4d91-8a6c-4c3a23a9c034","system_id":"levelo_inurba_marseille","lat":43.302,"lon":5.3821,"is_reserved":false,"is_disabled":false,"rental_uris":{"android":"levelo://app?vid=1580a472-182f-4d91-8a6c-4c3a23a9c034","ios":"levelo://app?vid=1580a472-182f-4d91-8a6c-4c3a23a9c034"},"vehicle_type_id":"4","last_reported":1687810081,"current_range_meters":8400,"station_id":"","pricing_plan_id":"free"},{"bike_id":"a7f0de62-cbcb-4f09-8e9e-1b6465dbbc67","system_id":"levelo_inurba_marseille","lat":43.32823,"lon":5.36691,"is_reserved":false,"is_disabled":false,"rental_uris":{"android":"levelo://app?vid=a7f0de62-cbcb-4f09-8e9e-1b6465dbbc67","ios":"levelo://app?vid=a7f0de62-cbcb-4f09-8e9e-1b6465dbbc67"},"vehicle_type_id":"4","last_reported":1687810081,"current_range_meters":24800,"station_id":"ce4bhs92rcd13ifvqi0g","pricing_plan_id":"free"},{"bike_id":"67dae117-9f00-4d7d-aabd-157674c206a8","system_id":"levelo_inurba_marseille","lat":43.32824,"lon":5.3669,"is_reserved":false,"is_disabled":false,"rental_uris":{"android":"levelo://app?vid=67dae117-9f00-4d7d-aabd-157674c206a8","ios":"levelo://app?vid=67dae117-9f00-4d7d-aabd-157674c206a8"},"vehicle_type_id":"4","last_reported":1687810081,"current_range_meters":6000,"station_id":"ce4bhs92rcd13ifvqi0g","pricing_plan_id":"free"},{"bike_id":"19952690-4398-4bce-a952-2259d64ee381","system_id":"levelo_inurba_marseille","lat":43.32824,"lon":5.36685,"is_reserved":false,"is_disabled":false,"rental_uris":{"android":"levelo://app?vid=19952690-4398-4bce-a952-2259d64ee381","ios":"levelo://app?vid=19952690-4398-4bce-a952-2259d64ee381"},"vehicle_type_id":"4","last_reported":1687810081,"current_range_meters":13200,"station_id":"ce4bhs92rcd13ifvqi0g","pricing_plan_id":"free"},{"bike_id":"be4c2b1e-4409-4655-b800-08e6615894b0","system_id":"levelo_inurba_marseille","lat":43.328371,"lon":5.366909,"is_reserved":false,"is_disabled":false,"rental_uris":{"android":"levelo://app?vid=be4c2b1e-4409-4655-b800-08e6615894b0","ios":"levelo://app?vid=be4c2b1e-4409-4655-b800-08e6615894b0"},"vehicle_type_id":"4","last_reported":1687810081,"current_range_meters":28000,"station_id":"ce4bhs92rcd13ifvqi0g","pricing_plan_id":"free"},{"bike_id":"65f5abd3-b84a-41f7-b88b-1130d5dca958","system_id":"levelo_inurba_marseille","lat":43.32826,"lon":5.36696,"is_reserved":false,"is_disabled":false,"rental_uris":{"android":"levelo://app?vid=65f5abd3-b84a-41f7-b88b-1130d5dca958","ios":"levelo://app?vid=65f5abd3-b84a-41f7-b88b-1130d5dca958"},"vehicle_type_id":"4","last_reported":1687810081,"current_range_meters":3600,"station_id":"ce4bhs92rcd13ifvqi0g","pricing_plan_id":"free"},{"bike_id":"8679cc42-f60f-4d46-8ef1-a90dcd0c6845","system_id":"levelo_inurba_marseille","lat":43.32826,"lon":5.36686,"is_reserved":false,"is_disabled":false,"rental_uris":{"android":"levelo://app?vid=8679cc42-f60f-4d46-8ef1-a90dcd0c6845","ios":"levelo://app?vid=8679cc42-f60f-4d46-8ef1-a90dcd0c6845"},"vehicle_type_id":"4","last_reported":1687810081,"current_range_meters":13200,"station_id":"ce4bhs92rcd13ifvqi0g","pricing_plan_id":"free"},{"bike_id":"1a986163-fd5b-44c7-bf15-50a76c7f7598","system_id":"levelo_inurba_marseille","lat":43.32827,"lon":5.36699,"is_reserved":false,"is_disabled":false,"rental_uris":{"android":"levelo://app?vid=1a986163-fd5b-44c7-bf15-50a76c7f7598","ios":"levelo://app?vid=1a986163-fd5b-44c7-bf15-50a76c7f7598"},"vehicle_type_id":"4","last_reported":1687810081,"current_range_meters":7600,"station_id":"ce4bhs92rcd13ifvqi0g","pricing_plan_id":"free"},{"bike_id":"c0ba4054-03d2-4233-93b4-0461723bc0b5","system_id":"levelo_inurba_marseille","lat":43.328371,"lon":5.366909,"is_reserved":false,"is_disabled":false,"rental_uris":{"android":"levelo://app?vid=c0ba4054-03d2-4233-93b4-0461723bc0b5","ios":"levelo://app?vid=c0ba4054-03d2-4233-93b4-0461723bc0b5"},"vehicle_type_id":"4","last_reported":1687810081,"current_range_meters":28000,"station_id":"ce4bhs92rcd13ifvqi0g","pricing_plan_id":"free"},{"bike_id":"1a470b1a-9939-4abe-b104-58b18427e48b","system_id":"levelo_inurba_marseille","lat":43.32828,"lon":5.36682,"is_reserved":false,"is_disabled":false,"rental_uris":{"android":"levelo://app?vid=1a470b1a-9939-4abe-b104-58b18427e48b","ios":"levelo://app?vid=1a470b1a-9939-4abe-b104-58b18427e48b"},"vehicle_type_id":"4","last_reported":1687810081,"current_range_meters":12800,"station_id":"ce4bhs92rcd13ifvqi0g","pricing_plan_id":"free"},{"bike_id":"5108659d-1431-4d89-a11a-e27336cba391","system_id":"levelo_inurba_marseille","lat":43.328371,"lon":5.366909,"is_reserved":false,"is_disabled":false,"rental_uris":{"android":"levelo://app?vid=5108659d-1431-4d89-a11a-e27336cba391","ios":"levelo://app?vid=5108659d-1431-4d89-a11a-e27336cba391"},"vehicle_type_id":"4","last_reported":1687810081,"current_range_meters":25600,"station_id":"ce4bhs92rcd13ifvqi0g","pricing_plan_id":"free"},{"bike_id":"79b3ec09-df6d-417b-b222-05ecdd4fc299","system_id":"levelo_inurba_marseille","lat":43.297177,"lon":5.366043,"is_reserved":false,"is_disabled":false,"rental_uris":{"android":"levelo://app?vid=79b3ec09-df6d-417b-b222-05ecdd4fc299","ios":"levelo://app?vid=79b3ec09-df6d-417b-b222-05ecdd4fc299"},"vehicle_type_id":"4","last_reported":1687810081,"current_range_meters":2400,"station_id":"ce4bgn12rcd13ifvqbt0","pricing_plan_id":"free"},{"bike_id":"001a89e7-273e-49df-8ae3-4954e3a2d210","system_id":"levelo_inurba_marseille","lat":43.29712,"lon":5.36606,"is_reserved":false,"is_disabled":false,"rental_uris":{"android":"levelo://app?vid=001a89e7-273e-49df-8ae3-4954e3a2d210","ios":"levelo://app?vid=001a89e7-273e-49df-8ae3-4954e3a2d210"},"vehicle_type_id":"4","last_reported":1687810081,"current_range_meters":5200,"station_id":"ce4bgn12rcd13ifvqbt0","pricing_plan_id":"free"},{"bike_id":"de087542-21b0-413c-a660-903336b701da","system_id":"levelo_inurba_marseille","lat":43.297163,"lon":5.365866,"is_reserved":false,"is_disabled":false,"rental_uris":{"android":"levelo://app?vid=de087542-21b0-413c-a660-903336b701da","ios":"levelo://app?vid=de087542-21b0-413c-a660-903336b701da"},"vehicle_type_id":"4","last_reported":1687810081,"current_range_meters":16800,"station_id":"ce4bgn12rcd13ifvqbt0","pricing_plan_id":"free"},{"bike_id":"a833092f-941d-4795-8d2f-811f43bb6457","system_id":"levelo_inurba_marseille","lat":43.29706,"lon":5.36604,"is_reserved":false,"is_disabled":false,"rental_uris":{"android":"levelo://app?vid=a833092f-941d-4795-8d2f-811f43bb6457","ios":"levelo://app?vid=a833092f-941d-4795-8d2f-811f43bb6457"},"vehicle_type_id":"4","last_reported":1687810081,"current_range_meters":24400,"station_id":"","pricing_plan_id":"free"},{"bike_id":"8d98417a-cbe4-4269-8bc9-598373a7d5de","system_id":"levelo_inurba_marseille","lat":43.32872,"lon":5.363,"is_reserved":false,"is_disabled":false,"rental_uris":{"android":"levelo://app?vid=8d98417a-cbe4-4269-8bc9-598373a7d5de","ios":"levelo://app?vid=8d98417a-cbe4-4269-8bc9-598373a7d5de"},"vehicle_type_id":"4","last_reported":1687810081,"current_range_meters":11200,"station_id":"","pricing_plan_id":"free"},{"bike_id":"5dd58428-1fa0-4863-87ac-6127ad34b4c2","system_id":"levelo_inurba_marseille","lat":43.29573,"lon":5.367355,"is_reserved":false,"is_disabled":false,"rental_uris":{"android":"levelo://app?vid=5dd58428-1fa0-4863-87ac-6127ad34b4c2","ios":"levelo://app?vid=5dd58428-1fa0-4863-87ac-6127ad34b4c2"},"vehicle_type_id":"4","last_reported":1687810081,"current_range_meters":0,"station_id":"ce4bgph2rcd13ifvqc2g","pricing_plan_id":"free"},{"bike_id":"338bc0b8-4667-44ab-8c89-6e447c50f698","system_id":"levelo_inurba_marseille","lat":43.29573,"lon":5.367355,"is_reserved":false,"is_disabled":false,"rental_uris":{"android":"levelo://app?vid=338bc0b8-4667-44ab-8c89-6e447c50f698","ios":"levelo://app?vid=338bc0b8-4667-44ab-8c89-6e447c50f698"},"vehicle_type_id":"4","last_reported":1687810081,"current_range_meters":25600,"station_id":"ce4bgph2rcd13ifvqc2g","pricing_plan_id":"free"},{"bike_id":"d820dfcf-9f30-4a0c-9ccb-49c1ff725277","system_id":"levelo_inurba_marseille","lat":43.29573,"lon":5.367355,"is_reserved":false,"is_disabled":false,"rental_uris":{"android":"levelo://app?vid=d820dfcf-9f30-4a0c-9ccb-49c1ff725277","ios":"levelo://app?vid=d820dfcf-9f30-4a0c-9ccb-49c1ff725277"},"vehicle_type_id":"4","last_reported":1687810081,"current_range_meters":18800,"station_id":"ce4bgph2rcd13ifvqc2g","pricing_plan_id":"free"},{"bike_id":"2cbf720e-3337-496e-96d1-b3933acbb3d7","system_id":"levelo_inurba_marseille","lat":43.29573,"lon":5.367355,"is_reserved":false,"is_disabled":false,"rental_uris":{"android":"levelo://app?vid=2cbf720e-3337-496e-96d1-b3933acbb3d7","ios":"levelo://app?vid=2cbf720e-3337-496e-96d1-b3933acbb3d7"},"vehicle_type_id":"4","last_reported":1687810081,"current_range_meters":1600,"station_id":"ce4bgph2rcd13ifvqc2g","pricing_plan_id":"free"},{"bike_id":"b4e0d5a6-fec5-4bea-8d20-772bcbd107aa","system_id":"levelo_inurba_marseille","lat":43.296921,"lon":5.376579,"is_reserved":false,"is_disabled":false,"rental_uris":{"android":"levelo://app?vid=b4e0d5a6-fec5-4bea-8d20-772bcbd107aa","ios":"levelo://app?vid=b4e0d5a6-fec5-4bea-8d20-772bcbd107aa"},"vehicle_type_id":"4","last_reported":1687810081,"current_range_meters":13200,"station_id":"ce4bgkh2rcd13ifvqbl0","pricing_plan_id":"free"},{"bike_id":"1ed115b8-f2ca-48a4-96b4-027f6993b2a3","system_id":"levelo_inurba_marseille","lat":43.309589,"lon":5.390258,"is_reserved":false,"is_disabled":false,"rental_uris":{"android":"levelo://app?vid=1ed115b8-f2ca-48a4-96b4-027f6993b2a3","ios":"levelo://app?vid=1ed115b8-f2ca-48a4-96b4-027f6993b2a3"},"vehicle_type_id":"4","last_reported":1687810081,"current_range_meters":23600,"station_id":"ce4bgup2rcd13ifvqco0","pricing_plan_id":"free"},{"bike_id":"f751824e-4de3-4c73-a818-35554dc390f6","system_id":"levelo_inurba_marseille","lat":43.309589,"lon":5.390258,"is_reserved":false,"is_disabled":false,"rental_uris":{"android":"levelo://app?vid=f751824e-4de3-4c73-a818-35554dc390f6","ios":"levelo://app?vid=f751824e-4de3-4c73-a818-35554dc390f6"},"vehicle_type_id":"4","last_reported":1687810081,"current_range_meters":16400,"station_id":"ce4bgup2rcd13ifvqco0","pricing_plan_id":"free"},{"bike_id":"d8fb9954-648e-4d6f-805f-da7fca5f6af0","system_id":"levelo_inurba_marseille","lat":43.309589,"lon":5.390258,"is_reserved":false,"is_disabled":false,"rental_uris":{"android":"levelo://app?vid=d8fb9954-648e-4d6f-805f-da7fca5f6af0","ios":"levelo://app?vid=d8fb9954-648e-4d6f-805f-da7fca5f6af0"},"vehicle_type_id":"4","last_reported":1687810081,"current_range_meters":24400,"station_id":"ce4bgup2rcd13ifvqco0","pricing_plan_id":"free"},{"bike_id":"78d06ac5-fe78-4fdb-b81b-ccc5676fccdc","system_id":"levelo_inurba_marseille","lat":43.317557,"lon":5.390173,"is_reserved":false,"is_disabled":false,"rental_uris":{"android":"levelo://app?vid=78d06ac5-fe78-4fdb-b81b-ccc5676fccdc","ios":"levelo://app?vid=78d06ac5-fe78-4fdb-b81b-ccc5676fccdc"},"vehicle_type_id":"4","last_reported":1687810081,"current_range_meters":8000,"station_id":"ce4bhqp2rcd13ifvqhng","pricing_plan_id":"free"},{"bike_id":"3f609fa9-00e8-4b81-96ee-1ad9dbebb365","system_id":"levelo_inurba_marseille","lat":43.317557,"lon":5.390173,"is_reserved":false,"is_disabled":false,"rental_uris":{"android":"levelo://app?vid=3f609fa9-00e8-4b81-96ee-1ad9dbebb365","ios":"levelo://app?vid=3f609fa9-00e8-4b81-96ee-1ad9dbebb365"},"vehicle_type_id":"4","last_reported":1687810081,"current_range_meters":18800,"station_id":"ce4bhqp2rcd13ifvqhng","pricing_plan_id":"free"},{"bike_id":"67490cfa-9e08-4636-bcd2-676f6825334b","system_id":"levelo_inurba_marseille","lat":43.317557,"lon":5.390173,"is_reserved":false,"is_disabled":false,"rental_uris":{"android":"levelo://app?vid=67490cfa-9e08-4636-bcd2-676f6825334b","ios":"levelo://app?vid=67490cfa-9e08-4636-bcd2-676f6825334b"},"vehicle_type_id":"4","last_reported":1687810081,"current_range_meters":30400,"station_id":"ce4bhqp2rcd13ifvqhng","pricing_plan_id":"free"},{"bike_id":"4d57b7ab-4637-4dab-8b86-6e7c94e253c6","system_id":"levelo_inurba_marseille","lat":43.304278,"lon":5.388868,"is_reserved":false,"is_disabled":false,"rental_uris":{"android":"levelo://app?vid=4d57b7ab-4637-4dab-8b86-6e7c94e253c6","ios":"levelo://app?vid=4d57b7ab-4637-4dab-8b86-6e7c94e253c6"},"vehicle_type_id":"4","last_reported":1687810081,"current_range_meters":800,"station_id":"ce4bgk12rcd13ifvqbi0","pricing_plan_id":"free"},{"bike_id":"81b14206-9665-4a54-98fd-bcdbd9b62ba8","system_id":"levelo_inurba_marseille","lat":43.304278,"lon":5.388868,"is_reserved":false,"is_disabled":false,"rental_uris":{"android":"levelo://app?vid=81b14206-9665-4a54-98fd-bcdbd9b62ba8","ios":"levelo://app?vid=81b14206-9665-4a54-98fd-bcdbd9b62ba8"},"vehicle_type_id":"4","last_reported":1687810081,"current_range_meters":0,"station_id":"ce4bgk12rcd13ifvqbi0","pricing_plan_id":"free"},{"bike_id":"83c1f930-0480-40ea-ab7e-3e2108dc7dca","system_id":"levelo_inurba_marseille","lat":43.29609,"lon":5.37725,"is_reserved":false,"is_disabled":false,"rental_uris":{"android":"levelo://app?vid=83c1f930-0480-40ea-ab7e-3e2108dc7dca","ios":"levelo://app?vid=83c1f930-0480-40ea-ab7e-3e2108dc7dca"},"vehicle_type_id":"4","last_reported":1687810081,"current_range_meters":23200,"station_id":"ce4bgi92rcd13ifvqb90","pricing_plan_id":"free"},{"bike_id":"8205acf7-8672-44d5-b737-fbf64241bf1a","system_id":"levelo_inurba_marseille","lat":43.29566,"lon":5.37893,"is_reserved":false,"is_disabled":false,"rental_uris":{"android":"levelo://app?vid=8205acf7-8672-44d5-b737-fbf64241bf1a","ios":"levelo://app?vid=8205acf7-8672-44d5-b737-fbf64241bf1a"},"vehicle_type_id":"4","last_reported":1687810081,"current_range_meters":0,"station_id":"","pricing_plan_id":"free"},{"bike_id":"84b90389-71a1-472e-abe2-a5875bb0b9cb","system_id":"levelo_inurba_marseille","lat":43.32367,"lon":5.388836,"is_reserved":false,"is_disabled":false,"rental_uris":{"android":"levelo://app?vid=84b90389-71a1-472e-abe2-a5875bb0b9cb","ios":"levelo://app?vid=84b90389-71a1-472e-abe2-a5875bb0b9cb"},"vehicle_type_id":"4","last_reported":1687810081,"current_range_meters":29200,"station_id":"ce4bhqp2rcd13ifvqhog","pricing_plan_id":"free"},{"bike_id":"07a94051-5312-4999-a998-8b0c1e5bccd9","system_id":"levelo_inurba_marseille","lat":43.32367,"lon":5.388836,"is_reserved":false,"is_disabled":false,"rental_uris":{"android":"levelo://app?vid=07a94051-5312-4999-a998-8b0c1e5bccd9","ios":"levelo://app?vid=07a94051-5312-4999-a998-8b0c1e5bccd9"},"vehicle_type_id":"4","last_reported":1687810081,"current_range_meters":4800,"station_id":"ce4bhqp2rcd13ifvqhog","pricing_plan_id":"free"},{"bike_id":"d57605e6-bfd2-4b23-b9ba-8ae9ae1cdc0a","system_id":"levelo_inurba_marseille","lat":43.29601,"lon":5.381084,"is_reserved":false,"is_disabled":false,"rental_uris":{"android":"levelo://app?vid=d57605e6-bfd2-4b23-b9ba-8ae9ae1cdc0a","ios":"levelo://app?vid=d57605e6-bfd2-4b23-b9ba-8ae9ae1cdc0a"},"vehicle_type_id":"4","last_reported":1687810081,"current_range_meters":3600,"station_id":"ce4bgl12rcd13ifvqbo0","pricing_plan_id":"free"},{"bike_id":"112f0f1e-758d-4ead-b13e-dff87f435111","system_id":"levelo_inurba_marseille","lat":43.29601,"lon":5.381084,"is_reserved":false,"is_disabled":false,"rental_uris":{"android":"levelo://app?vid=112f0f1e-758d-4ead-b13e-dff87f435111","ios":"levelo://app?vid=112f0f1e-758d-4ead-b13e-dff87f435111"},"vehicle_type_id":"4","last_reported":1687810081,"current_range_meters":14000,"station_id":"ce4bgl12rcd13ifvqbo0","pricing_plan_id":"free"},{"bike_id":"4e6b8b80-0d9f-430a-8690-5057e063c378","system_id":"levelo_inurba_marseille","lat":43.29601,"lon":5.381084,"is_reserved":false,"is_disabled":false,"rental_uris":{"android":"levelo://app?vid=4e6b8b80-0d9f-430a-8690-5057e063c378","ios":"levelo://app?vid=4e6b8b80-0d9f-430a-8690-5057e063c378"},"vehicle_type_id":"4","last_reported":1687810081,"current_range_meters":24800,"station_id":"ce4bgl12rcd13ifvqbo0","pricing_plan_id":"free"},{"bike_id":"7ff6aeb3-5a16-4e67-8f74-327a1317192f","system_id":"levelo_inurba_marseille","lat":43.29357,"lon":5.37422,"is_reserved":false,"is_disabled":false,"rental_uris":{"android":"levelo://app?vid=7ff6aeb3-5a16-4e67-8f74-327a1317192f","ios":"levelo://app?vid=7ff6aeb3-5a16-4e67-8f74-327a1317192f"},"vehicle_type_id":"4","last_reported":1687810081,"current_range_meters":8400,"station_id":"","pricing_plan_id":"free"},{"bike_id":"1996ba4a-a49a-46ba-85e2-ccd883ad6e1b","system_id":"levelo_inurba_marseille","lat":43.293249,"lon":5.371578,"is_reserved":false,"is_disabled":false,"rental_uris":{"android":"levelo://app?vid=1996ba4a-a49a-46ba-85e2-ccd883ad6e1b","ios":"levelo://app?vid=1996ba4a-a49a-46ba-85e2-ccd883ad6e1b"},"vehicle_type_id":"4","last_reported":1687810081,"current_range_meters":27200,"station_id":"ce4bgh92rcd13ifvqb40","pricing_plan_id":"free"},{"bike_id":"4783d9b9-a677-4f36-ad6a-330e59bc93c3","system_id":"levelo_inurba_marseille","lat":43.29305,"lon":5.37163,"is_reserved":false,"is_disabled":false,"rental_uris":{"android":"levelo://app?vid=4783d9b9-a677-4f36-ad6a-330e59bc93c3","ios":"levelo://app?vid=4783d9b9-a677-4f36-ad6a-330e59bc93c3"},"vehicle_type_id":"4","last_reported":1687810081,"current_range_meters":0,"station_id":"ce4bgh92rcd13ifvqb40","pricing_plan_id":"free"},{"bike_id":"778ce9c1-7733-452d-8807-9a91449be7b8","system_id":"levelo_inurba_marseille","lat":43.292749,"lon":5.368398,"is_reserved":false,"is_disabled":false,"rental_uris":{"android":"levelo://app?vid=778ce9c1-7733-452d-8807-9a91449be7b8","ios":"levelo://app?vid=778ce9c1-7733-452d-8807-9a91449be7b8"},"vehicle_type_id":"4","last_reported":1687810081,"current_range_meters":27600,"station_id":"ce4bhbp2rcd13ifvqesg","pricing_plan_id":"free"},{"bike_id":"933bd4ea-eda0-4b66-a195-6594809c1c64","system_id":"levelo_inurba_marseille","lat":43.30304,"lon":5.39188,"is_reserved":false,"is_disabled":false,"rental_uris":{"android":"levelo://app?vid=933bd4ea-eda0-4b66-a195-6594809c1c64","ios":"levelo://app?vid=933bd4ea-eda0-4b66-a195-6594809c1c64"},"vehicle_type_id":"4","last_reported":1687810081,"current_range_meters":17600,"station_id":"ce4bgkh2rcd13ifvqbk0","pricing_plan_id":"free"},{"bike_id":"b146d3cc-0265-45c2-bce5-0d207831b217","system_id":"levelo_inurba_marseille","lat":43.29905,"lon":5.38811,"is_reserved":false,"is_disabled":false,"rental_uris":{"android":"levelo://app?vid=b146d3cc-0265-45c2-bce5-0d207831b217","ios":"levelo://app?vid=b146d3cc-0265-45c2-bce5-0d207831b217"},"vehicle_type_id":"4","last_reported":1687810081,"current_range_meters":16400,"station_id":"","pricing_plan_id":"free"},{"bike_id":"e5a2ad59-de46-4907-b257-1dfca0da1b41","system_id":"levelo_inurba_marseille","lat":43.302992,"lon":5.392136,"is_reserved":false,"is_disabled":false,"rental_uris":{"android":"levelo://app?vid=e5a2ad59-de46-4907-b257-1dfca0da1b41","ios":"levelo://app?vid=e5a2ad59-de46-4907-b257-1dfca0da1b41"},"vehicle_type_id":"4","last_reported":1687810081,"current_range_meters":16400,"station_id":"ce4bgkh2rcd13ifvqbk0","pricing_plan_id":"free"},{"bike_id":"f8cb8ab9-caeb-4c8a-9222-2863136cfdf0","system_id":"levelo_inurba_marseille","lat":43.2936,"lon":5.37835,"is_reserved":false,"is_disabled":false,"rental_uris":{"android":"levelo://app?vid=f8cb8ab9-caeb-4c8a-9222-2863136cfdf0","ios":"levelo://app?vid=f8cb8ab9-caeb-4c8a-9222-2863136cfdf0"},"vehicle_type_id":"4","last_reported":1687810081,"current_range_meters":29200,"station_id":"ce4bgjh2rcd13ifvqbf0","pricing_plan_id":"free"},{"bike_id":"4f35d981-b82f-4214-8e55-086df6d3bb00","system_id":"levelo_inurba_marseille","lat":43.2936,"lon":5.37835,"is_reserved":false,"is_disabled":false,"rental_uris":{"android":"levelo://app?vid=4f35d981-b82f-4214-8e55-086df6d3bb00","ios":"levelo://app?vid=4f35d981-b82f-4214-8e55-086df6d3bb00"},"vehicle_type_id":"4","last_reported":1687810081,"current_range_meters":20800,"station_id":"ce4bgjh2rcd13ifvqbf0","pricing_plan_id":"free"},{"bike_id":"2a61ddf6-c074-4d3e-8d24-001b980752bf","system_id":"levelo_inurba_marseille","lat":43.300852,"lon":5.390859,"is_reserved":false,"is_disabled":false,"rental_uris":{"android":"levelo://app?vid=2a61ddf6-c074-4d3e-8d24-001b980752bf","ios":"levelo://app?vid=2a61ddf6-c074-4d3e-8d24-001b980752bf"},"vehicle_type_id":"4","last_reported":1687810081,"current_range_meters":0,"station_id":"ce4bh192rcd13ifvqdb0","pricing_plan_id":"free"},{"bike_id":"c6811d12-65e9-4943-a7fb-fbd19d5d41b0","system_id":"levelo_inurba_marseille","lat":43.300852,"lon":5.390859,"is_reserved":false,"is_disabled":false,"rental_uris":{"android":"levelo://app?vid=c6811d12-65e9-4943-a7fb-fbd19d5d41b0","ios":"levelo://app?vid=c6811d12-65e9-4943-a7fb-fbd19d5d41b0"},"vehicle_type_id":"4","last_reported":1687810081,"current_range_meters":4800,"station_id":"ce4bh192rcd13ifvqdb0","pricing_plan_id":"free"},{"bike_id":"b57d3810-6fae-4048-8ee7-3a259c05562a","system_id":"levelo_inurba_marseille","lat":43.2936,"lon":5.37835,"is_reserved":false,"is_disabled":false,"rental_uris":{"android":"levelo://app?vid=b57d3810-6fae-4048-8ee7-3a259c05562a","ios":"levelo://app?vid=b57d3810-6fae-4048-8ee7-3a259c05562a"},"vehicle_type_id":"4","last_reported":1687810081,"current_range_meters":30400,"station_id":"ce4bgjh2rcd13ifvqbf0","pricing_plan_id":"free"},{"bike_id":"872b248d-f8fe-4c8b-a924-f6ecc12facc8","system_id":"levelo_inurba_marseille","lat":43.30091,"lon":5.39088,"is_reserved":false,"is_disabled":false,"rental_uris":{"android":"levelo://app?vid=872b248d-f8fe-4c8b-a924-f6ecc12facc8","ios":"levelo://app?vid=872b248d-f8fe-4c8b-a924-f6ecc12facc8"},"vehicle_type_id":"4","last_reported":1687810081,"current_range_meters":26000,"station_id":"","pricing_plan_id":"free"},{"bike_id":"7c75c4d9-bf97-4557-8701-35379471f28f","system_id":"levelo_inurba_marseille","lat":43.300852,"lon":5.390859,"is_reserved":false,"is_disabled":false,"rental_uris":{"android":"levelo://app?vid=7c75c4d9-bf97-4557-8701-35379471f28f","ios":"levelo://app?vid=7c75c4d9-bf97-4557-8701-35379471f28f"},"vehicle_type_id":"4","last_reported":1687810081,"current_range_meters":8400,"station_id":"ce4bh192rcd13ifvqdb0","pricing_plan_id":"free"},{"bike_id":"94bd2cd8-5c5a-46d4-bf59-e36efb3c29d5","system_id":"levelo_inurba_marseille","lat":43.298764,"lon":5.388973,"is_reserved":false,"is_disabled":false,"rental_uris":{"android":"levelo://app?vid=94bd2cd8-5c5a-46d4-bf59-e36efb3c29d5","ios":"levelo://app?vid=94bd2cd8-5c5a-46d4-bf59-e36efb3c29d5"},"vehicle_type_id":"4","last_reported":1687810081,"current_range_meters":11200,"station_id":"ce4bh392rcd13ifvqdl0","pricing_plan_id":"free"},{"bike_id":"db1b5e2e-595d-4e69-be7f-20da414221fc","system_id":"levelo_inurba_marseille","lat":43.298764,"lon":5.388973,"is_reserved":false,"is_disabled":false,"rental_uris":{"android":"levelo://app?vid=db1b5e2e-595d-4e69-be7f-20da414221fc","ios":"levelo://app?vid=db1b5e2e-595d-4e69-be7f-20da414221fc"},"vehicle_type_id":"4","last_reported":1687810081,"current_range_meters":18800,"station_id":"ce4bh392rcd13ifvqdl0","pricing_plan_id":"free"},{"bike_id":"7c80c686-801d-4374-86e8-eea0335aa282","system_id":"levelo_inurba_marseille","lat":43.291675,"lon":5.371583,"is_reserved":false,"is_disabled":false,"rental_uris":{"android":"levelo://app?vid=7c80c686-801d-4374-86e8-eea0335aa282","ios":"levelo://app?vid=7c80c686-801d-4374-86e8-eea0335aa282"},"vehicle_type_id":"4","last_reported":1687810081,"current_range_meters":20000,"station_id":"ce4bha92rcd13ifvqeh0","pricing_plan_id":"free"},{"bike_id":"7082c999-d9b0-4d5d-a60d-9906e1f353ca","system_id":"levelo_inurba_marseille","lat":43.309038,"lon":5.396546,"is_reserved":false,"is_disabled":false,"rental_uris":{"android":"levelo://app?vid=7082c999-d9b0-4d5d-a60d-9906e1f353ca","ios":"levelo://app?vid=7082c999-d9b0-4d5d-a60d-9906e1f353ca"},"vehicle_type_id":"4","last_reported":1687810081,"current_range_meters":16000,"station_id":"ce4bh012rcd13ifvqcv0","pricing_plan_id":"free"},{"bike_id":"1de3f3a3-f5bf-4b6c-bf04-5526c486238c","system_id":"levelo_inurba_marseille","lat":43.31331,"lon":5.39691,"is_reserved":false,"is_disabled":false,"rental_uris":{"android":"levelo://app?vid=1de3f3a3-f5bf-4b6c-bf04-5526c486238c","ios":"levelo://app?vid=1de3f3a3-f5bf-4b6c-bf04-5526c486238c"},"vehicle_type_id":"4","last_reported":1687810081,"current_range_meters":1200,"station_id":"","pricing_plan_id":"free"},{"bike_id":"9bd68ae6-9090-4fda-acc2-5ea7e806d2fb","system_id":"levelo_inurba_marseille","lat":43.31334,"lon":5.39691,"is_reserved":false,"is_disabled":false,"rental_uris":{"android":"levelo://app?vid=9bd68ae6-9090-4fda-acc2-5ea7e806d2fb","ios":"levelo://app?vid=9bd68ae6-9090-4fda-acc2-5ea7e806d2fb"},"vehicle_type_id":"4","last_reported":1687810081,"current_range_meters":11200,"station_id":"","pricing_plan_id":"free"},{"bike_id":"52416a68-abf1-4d46-9d03-bbcef5a46558","system_id":"levelo_inurba_marseille","lat":43.309038,"lon":5.396546,"is_reserved":false,"is_disabled":false,"rental_uris":{"android":"levelo://app?vid=52416a68-abf1-4d46-9d03-bbcef5a46558","ios":"levelo://app?vid=52416a68-abf1-4d46-9d03-bbcef5a46558"},"vehicle_type_id":"4","last_reported":1687810081,"current_range_meters":11600,"station_id":"ce4bh012rcd13ifvqcv0","pricing_plan_id":"free"},{"bike_id":"238036e1-d4ac-4140-92e9-0623302adc9e","system_id":"levelo_inurba_marseille","lat":43.313291,"lon":5.396838,"is_reserved":false,"is_disabled":false,"rental_uris":{"android":"levelo://app?vid=238036e1-d4ac-4140-92e9-0623302adc9e","ios":"levelo://app?vid=238036e1-d4ac-4140-92e9-0623302adc9e"},"vehicle_type_id":"4","last_reported":1687810081,"current_range_meters":5200,"station_id":"ce4bgvp2rcd13ifvqcu0","pricing_plan_id":"free"},{"bike_id":"3e06da08-b581-4ebc-ae87-6660ab4c58b0","system_id":"levelo_inurba_marseille","lat":43.29529,"lon":5.385581,"is_reserved":false,"is_disabled":false,"rental_uris":{"android":"levelo://app?vid=3e06da08-b581-4ebc-ae87-6660ab4c58b0","ios":"levelo://app?vid=3e06da08-b581-4ebc-ae87-6660ab4c58b0"},"vehicle_type_id":"4","last_reported":1687810081,"current_range_meters":3600,"station_id":"ce4bgih2rcd13ifvqba0","pricing_plan_id":"free"},{"bike_id":"c1d7453f-72df-46ee-8ccf-7831cc7ccaec","system_id":"levelo_inurba_marseille","lat":43.29529,"lon":5.385581,"is_reserved":false,"is_disabled":false,"rental_uris":{"android":"levelo://app?vid=c1d7453f-72df-46ee-8ccf-7831cc7ccaec","ios":"levelo://app?vid=c1d7453f-72df-46ee-8ccf-7831cc7ccaec"},"vehicle_type_id":"4","last_reported":1687810081,"current_range_meters":23600,"station_id":"ce4bgih2rcd13ifvqba0","pricing_plan_id":"free"},{"bike_id":"9cc38a3e-7324-4e58-afec-2dc3abc0c9e0","system_id":"levelo_inurba_marseille","lat":43.290779,"lon":5.371482,"is_reserved":false,"is_disabled":false,"rental_uris":{"android":"levelo://app?vid=9cc38a3e-7324-4e58-afec-2dc3abc0c9e0","ios":"levelo://app?vid=9cc38a3e-7324-4e58-afec-2dc3abc0c9e0"},"vehicle_type_id":"4","last_reported":1687810081,"current_range_meters":23200,"station_id":"ce4bh5p2rcd13ifvqe4g","pricing_plan_id":"free"},{"bike_id":"b2f75654-fe8e-4fad-98ad-f9c335bf6af6","system_id":"levelo_inurba_marseille","lat":43.286591,"lon":5.363346,"is_reserved":false,"is_disabled":false,"rental_uris":{"android":"levelo://app?vid=b2f75654-fe8e-4fad-98ad-f9c335bf6af6","ios":"levelo://app?vid=b2f75654-fe8e-4fad-98ad-f9c335bf6af6"},"vehicle_type_id":"4","last_reported":1687810081,"current_range_meters":0,"station_id":"ce4bhah2rcd13ifvqej0","pricing_plan_id":"free"},{"bike_id":"5af76903-f83e-4270-9ef9-9f3cf83455c1","system_id":"levelo_inurba_marseille","lat":43.290449,"lon":5.35915,"is_reserved":false,"is_disabled":false,"rental_uris":{"android":"levelo://app?vid=5af76903-f83e-4270-9ef9-9f3cf83455c1","ios":"levelo://app?vid=5af76903-f83e-4270-9ef9-9f3cf83455c1"},"vehicle_type_id":"4","last_reported":1687810081,"current_range_meters":5600,"station_id":"ce4bh9p2rcd13ifvqec0","pricing_plan_id":"free"},{"bike_id":"d6d7e9f4-0f40-4e0c-9429-a87471963e76","system_id":"levelo_inurba_marseille","lat":43.29446,"lon":5.3863,"is_reserved":false,"is_disabled":false,"rental_uris":{"android":"levelo://app?vid=d6d7e9f4-0f40-4e0c-9429-a87471963e76","ios":"levelo://app?vid=d6d7e9f4-0f40-4e0c-9429-a87471963e76"},"vehicle_type_id":"4","last_reported":1687810081,"current_range_meters":0,"station_id":"","pricing_plan_id":"free"},{"bike_id":"20b2702a-2cf1-439f-b7da-41f192fa1a0a","system_id":"levelo_inurba_marseille","lat":43.29411,"lon":5.38614,"is_reserved":false,"is_disabled":false,"rental_uris":{"android":"levelo://app?vid=20b2702a-2cf1-439f-b7da-41f192fa1a0a","ios":"levelo://app?vid=20b2702a-2cf1-439f-b7da-41f192fa1a0a"},"vehicle_type_id":"4","last_reported":1687810081,"current_range_meters":10400,"station_id":"","pricing_plan_id":"free"},{"bike_id":"ead3ec98-2f3e-44fb-abb6-b8d0cb7158f6","system_id":"levelo_inurba_marseille","lat":43.30262,"lon":5.39581,"is_reserved":false,"is_disabled":false,"rental_uris":{"android":"levelo://app?vid=ead3ec98-2f3e-44fb-abb6-b8d0cb7158f6","ios":"levelo://app?vid=ead3ec98-2f3e-44fb-abb6-b8d0cb7158f6"},"vehicle_type_id":"4","last_reported":1687810081,"current_range_meters":22400,"station_id":"","pricing_plan_id":"free"},{"bike_id":"8d976632-b776-4dab-b6eb-2bdd82cd7db3","system_id":"levelo_inurba_marseille","lat":43.290412,"lon":5.399633,"is_reserved":false,"is_disabled":false,"rental_uris":{"android":"levelo://app?vid=8d976632-b776-4dab-b6eb-2bdd82cd7db3","ios":"levelo://app?vid=8d976632-b776-4dab-b6eb-2bdd82cd7db3"},"vehicle_type_id":"4","last_reported":1687810081,"current_range_meters":16400,"station_id":"ce4bh392rcd13ifvqdm0","pricing_plan_id":"free"},{"bike_id":"1df7ec76-469d-440a-822e-b3cd9884f4d2","system_id":"levelo_inurba_marseille","lat":43.294162,"lon":5.386292,"is_reserved":false,"is_disabled":false,"rental_uris":{"android":"levelo://app?vid=1df7ec76-469d-440a-822e-b3cd9884f4d2","ios":"levelo://app?vid=1df7ec76-469d-440a-822e-b3cd9884f4d2"},"vehicle_type_id":"4","last_reported":1687810081,"current_range_meters":400,"station_id":"ce4bh2h2rcd13ifvqdh0","pricing_plan_id":"free"},{"bike_id":"a9c781fe-fa38-4d81-be79-4d08ec4ce71c","system_id":"levelo_inurba_marseille","lat":43.292644,"lon":5.384257,"is_reserved":false,"is_disabled":false,"rental_uris":{"android":"levelo://app?vid=a9c781fe-fa38-4d81-be79-4d08ec4ce71c","ios":"levelo://app?vid=a9c781fe-fa38-4d81-be79-4d08ec4ce71c"},"vehicle_type_id":"4","last_reported":1687810081,"current_range_meters":12000,"station_id":"ce4bh692rcd13ifvqea0","pricing_plan_id":"free"},{"bike_id":"754e5558-9c00-4f25-9717-e92d62d9025a","system_id":"levelo_inurba_marseille","lat":43.304274,"lon":5.397513,"is_reserved":false,"is_disabled":false,"rental_uris":{"android":"levelo://app?vid=754e5558-9c00-4f25-9717-e92d62d9025a","ios":"levelo://app?vid=754e5558-9c00-4f25-9717-e92d62d9025a"},"vehicle_type_id":"4","last_reported":1687810081,"current_range_meters":11600,"station_id":"ce4bh092rcd13ifvqd20","pricing_plan_id":"free"},{"bike_id":"ab8bdc3f-3311-4466-b49f-5ba7af0b3c53","system_id":"levelo_inurba_marseille","lat":43.304296,"lon":5.397513,"is_reserved":false,"is_disabled":false,"rental_uris":{"android":"levelo://app?vid=ab8bdc3f-3311-4466-b49f-5ba7af0b3c53","ios":"levelo://app?vid=ab8bdc3f-3311-4466-b49f-5ba7af0b3c53"},"vehicle_type_id":"4","last_reported":1687810081,"current_range_meters":400,"station_id":"ce4bh092rcd13ifvqd20","pricing_plan_id":"free"},{"bike_id":"a2ed2944-9c2d-4eeb-968b-4b9e1c9722b7","system_id":"levelo_inurba_marseille","lat":43.29266,"lon":5.38439,"is_reserved":false,"is_disabled":false,"rental_uris":{"android":"levelo://app?vid=a2ed2944-9c2d-4eeb-968b-4b9e1c9722b7","ios":"levelo://app?vid=a2ed2944-9c2d-4eeb-968b-4b9e1c9722b7"},"vehicle_type_id":"4","last_reported":1687810081,"current_range_meters":19200,"station_id":"ce4bh692rcd13ifvqea0","pricing_plan_id":"free"},{"bike_id":"acb90037-839c-4c00-af58-5316aba79585","system_id":"levelo_inurba_marseille","lat":43.292644,"lon":5.384257,"is_reserved":false,"is_disabled":false,"rental_uris":{"android":"levelo://app?vid=acb90037-839c-4c00-af58-5316aba79585","ios":"levelo://app?vid=acb90037-839c-4c00-af58-5316aba79585"},"vehicle_type_id":"4","last_reported":1687810081,"current_range_meters":29200,"station_id":"ce4bh692rcd13ifvqea0","pricing_plan_id":"free"},{"bike_id":"db846198-43aa-403e-897f-bd64c9da31bc","system_id":"levelo_inurba_marseille","lat":43.292642,"lon":5.384254,"is_reserved":false,"is_disabled":false,"rental_uris":{"android":"levelo://app?vid=db846198-43aa-403e-897f-bd64c9da31bc","ios":"levelo://app?vid=db846198-43aa-403e-897f-bd64c9da31bc"},"vehicle_type_id":"4","last_reported":1687810081,"current_range_meters":22000,"station_id":"ce4bh692rcd13ifvqea0","pricing_plan_id":"free"},{"bike_id":"43608929-45a9-4448-9222-dc12e442402a","system_id":"levelo_inurba_marseille","lat":43.292644,"lon":5.384257,"is_reserved":false,"is_disabled":false,"rental_uris":{"android":"levelo://app?vid=43608929-45a9-4448-9222-dc12e442402a","ios":"levelo://app?vid=43608929-45a9-4448-9222-dc12e442402a"},"vehicle_type_id":"4","last_reported":1687810081,"current_range_meters":17600,"station_id":"ce4bh692rcd13ifvqea0","pricing_plan_id":"free"},{"bike_id":"d5a790f6-8471-409b-a36a-f98c1e0b4204","system_id":"levelo_inurba_marseille","lat":43.30446,"lon":5.39758,"is_reserved":false,"is_disabled":false,"rental_uris":{"android":"levelo://app?vid=d5a790f6-8471-409b-a36a-f98c1e0b4204","ios":"levelo://app?vid=d5a790f6-8471-409b-a36a-f98c1e0b4204"},"vehicle_type_id":"4","last_reported":1687810081,"current_range_meters":17600,"station_id":"","pricing_plan_id":"free"},{"bike_id":"14e1809f-3905-427c-a9b1-9252a4764104","system_id":"levelo_inurba_marseille","lat":43.29263,"lon":5.38442,"is_reserved":false,"is_disabled":false,"rental_uris":{"android":"levelo://app?vid=14e1809f-3905-427c-a9b1-9252a4764104","ios":"levelo://app?vid=14e1809f-3905-427c-a9b1-9252a4764104"},"vehicle_type_id":"4","last_reported":1687810081,"current_range_meters":27600,"station_id":"ce4bh692rcd13ifvqea0","pricing_plan_id":"free"},{"bike_id":"9db621a9-a26f-484d-ae48-755a45e4e797","system_id":"levelo_inurba_marseille","lat":43.29257,"lon":5.38447,"is_reserved":false,"is_disabled":false,"rental_uris":{"android":"levelo://app?vid=9db621a9-a26f-484d-ae48-755a45e4e797","ios":"levelo://app?vid=9db621a9-a26f-484d-ae48-755a45e4e797"},"vehicle_type_id":"4","last_reported":1687810081,"current_range_meters":8000,"station_id":"ce4bh692rcd13ifvqea0","pricing_plan_id":"free"},{"bike_id":"33cf7f02-a58b-47fb-9ce2-d9c47752d497","system_id":"levelo_inurba_marseille","lat":43.30475,"lon":5.39787,"is_reserved":false,"is_disabled":false,"rental_uris":{"android":"levelo://app?vid=33cf7f02-a58b-47fb-9ce2-d9c47752d497","ios":"levelo://app?vid=33cf7f02-a58b-47fb-9ce2-d9c47752d497"},"vehicle_type_id":"4","last_reported":1687810081,"current_range_meters":8400,"station_id":"","pricing_plan_id":"free"},{"bike_id":"b3ef2810-358a-43a0-a312-6225dc5eb570","system_id":"levelo_inurba_marseille","lat":43.33044,"lon":5.3892,"is_reserved":false,"is_disabled":false,"rental_uris":{"android":"levelo://app?vid=b3ef2810-358a-43a0-a312-6225dc5eb570","ios":"levelo://app?vid=b3ef2810-358a-43a0-a312-6225dc5eb570"},"vehicle_type_id":"4","last_reported":1687810081,"current_range_meters":19200,"station_id":"ce4bhr92rcd13ifvqhrg","pricing_plan_id":"free"},{"bike_id":"f1a27c7d-0f5c-4e3a-b050-c2635d9472b5","system_id":"levelo_inurba_marseille","lat":43.290995,"lon":5.381361,"is_reserved":false,"is_disabled":false,"rental_uris":{"android":"levelo://app?vid=f1a27c7d-0f5c-4e3a-b050-c2635d9472b5","ios":"levelo://app?vid=f1a27c7d-0f5c-4e3a-b050-c2635d9472b5"},"vehicle_type_id":"4","last_reported":1687810081,"current_range_meters":0,"station_id":"ce4bh512rcd13ifvqe2g","pricing_plan_id":"free"},{"bike_id":"eb61614e-c91a-4655-9ec9-8f489a8d76af","system_id":"levelo_inurba_marseille","lat":43.289743,"lon":5.378304,"is_reserved":false,"is_disabled":false,"rental_uris":{"android":"levelo://app?vid=eb61614e-c91a-4655-9ec9-8f489a8d76af","ios":"levelo://app?vid=eb61614e-c91a-4655-9ec9-8f489a8d76af"},"vehicle_type_id":"4","last_reported":1687810081,"current_range_meters":0,"station_id":"ce4bh9p2rcd13ifvqed0","pricing_plan_id":"free"},{"bike_id":"86743372-416b-467d-bffd-766895430cff","system_id":"levelo_inurba_marseille","lat":43.290995,"lon":5.381361,"is_reserved":false,"is_disabled":false,"rental_uris":{"android":"levelo://app?vid=86743372-416b-467d-bffd-766895430cff","ios":"levelo://app?vid=86743372-416b-467d-bffd-766895430cff"},"vehicle_type_id":"4","last_reported":1687810081,"current_range_meters":800,"station_id":"ce4bh512rcd13ifvqe2g","pricing_plan_id":"free"},{"bike_id":"20cc8fdc-e4b7-4fee-8fb2-abe2506fa5ca","system_id":"levelo_inurba_marseille","lat":43.2952,"lon":5.3904,"is_reserved":false,"is_disabled":false,"rental_uris":{"android":"levelo://app?vid=20cc8fdc-e4b7-4fee-8fb2-abe2506fa5ca","ios":"levelo://app?vid=20cc8fdc-e4b7-4fee-8fb2-abe2506fa5ca"},"vehicle_type_id":"4","last_reported":1687810081,"current_range_meters":10800,"station_id":"ce4bh3p2rcd13ifvqdp0","pricing_plan_id":"free"},{"bike_id":"51cbd4c9-2ee2-428c-a590-5ba91353134d","system_id":"levelo_inurba_marseille","lat":43.295169,"lon":5.390426,"is_reserved":false,"is_disabled":false,"rental_uris":{"android":"levelo://app?vid=51cbd4c9-2ee2-428c-a590-5ba91353134d","ios":"levelo://app?vid=51cbd4c9-2ee2-428c-a590-5ba91353134d"},"vehicle_type_id":"4","last_reported":1687810081,"current_range_meters":22800,"station_id":"ce4bh3p2rcd13ifvqdp0","pricing_plan_id":"free"},{"bike_id":"0c18e0f1-9839-4ada-bb61-d1ed3b2ca49c","system_id":"levelo_inurba_marseille","lat":43.30962,"lon":5.40055,"is_reserved":false,"is_disabled":false,"rental_uris":{"android":"levelo://app?vid=0c18e0f1-9839-4ada-bb61-d1ed3b2ca49c","ios":"levelo://app?vid=0c18e0f1-9839-4ada-bb61-d1ed3b2ca49c"},"vehicle_type_id":"4","last_reported":1687810081,"current_range_meters":17600,"station_id":"","pricing_plan_id":"free"},{"bike_id":"aaba5036-3eca-4117-a391-0e3c1edd3bc0","system_id":"levelo_inurba_marseille","lat":43.295196,"lon":5.39397,"is_reserved":false,"is_disabled":false,"rental_uris":{"android":"levelo://app?vid=aaba5036-3eca-4117-a391-0e3c1edd3bc0","ios":"levelo://app?vid=aaba5036-3eca-4117-a391-0e3c1edd3bc0"},"vehicle_type_id":"4","last_reported":1687810081,"current_range_meters":5600,"station_id":"ce4bh292rcd13ifvqdf0","pricing_plan_id":"free"},{"bike_id":"31c285d7-a7f3-48b0-8c8f-decf2ef1a3d3","system_id":"levelo_inurba_marseille","lat":43.337368,"lon":5.374722,"is_reserved":false,"is_disabled":false,"rental_uris":{"android":"levelo://app?vid=31c285d7-a7f3-48b0-8c8f-decf2ef1a3d3","ios":"levelo://app?vid=31c285d7-a7f3-48b0-8c8f-decf2ef1a3d3"},"vehicle_type_id":"4","last_reported":1687810081,"current_range_meters":23200,"station_id":"","pricing_plan_id":"free"},{"bike_id":"718509af-f2f4-485e-8a93-37ac283fdbf7","system_id":"levelo_inurba_marseille","lat":43.3094,"lon":5.40136,"is_reserved":false,"is_disabled":false,"rental_uris":{"android":"levelo://app?vid=718509af-f2f4-485e-8a93-37ac283fdbf7","ios":"levelo://app?vid=718509af-f2f4-485e-8a93-37ac283fdbf7"},"vehicle_type_id":"4","last_reported":1687810081,"current_range_meters":800,"station_id":"ce4bgvp2rcd13ifvqct0","pricing_plan_id":"free"},{"bike_id":"c180ae38-f769-441f-8a55-5a6e4930e6ad","system_id":"levelo_inurba_marseille","lat":43.3375,"lon":5.37439,"is_reserved":false,"is_disabled":false,"rental_uris":{"android":"levelo://app?vid=c180ae38-f769-441f-8a55-5a6e4930e6ad","ios":"levelo://app?vid=c180ae38-f769-441f-8a55-5a6e4930e6ad"},"vehicle_type_id":"4","last_reported":1687810081,"current_range_meters":16000,"station_id":"","pricing_plan_id":"free"},{"bike_id":"3f8a925a-6a54-4259-a38f-9cf091aab246","system_id":"levelo_inurba_marseille","lat":43.29228,"lon":5.38756,"is_reserved":false,"is_disabled":false,"rental_uris":{"android":"levelo://app?vid=3f8a925a-6a54-4259-a38f-9cf091aab246","ios":"levelo://app?vid=3f8a925a-6a54-4259-a38f-9cf091aab246"},"vehicle_type_id":"4","last_reported":1687810081,"current_range_meters":10000,"station_id":"","pricing_plan_id":"free"},{"bike_id":"e6cdcdc2-4cd8-4f2f-99f1-22c90f33f7e2","system_id":"levelo_inurba_marseille","lat":43.309371,"lon":5.401449,"is_reserved":false,"is_disabled":false,"rental_uris":{"android":"levelo://app?vid=e6cdcdc2-4cd8-4f2f-99f1-22c90f33f7e2","ios":"levelo://app?vid=e6cdcdc2-4cd8-4f2f-99f1-22c90f33f7e2"},"vehicle_type_id":"4","last_reported":1687810081,"current_range_meters":31200,"station_id":"ce4bgvp2rcd13ifvqct0","pricing_plan_id":"free"},{"bike_id":"a6b108f6-8cca-4806-bce6-4e6b29893a79","system_id":"levelo_inurba_marseille","lat":43.30642,"lon":5.401031,"is_reserved":false,"is_disabled":false,"rental_uris":{"android":"levelo://app?vid=a6b108f6-8cca-4806-bce6-4e6b29893a79","ios":"levelo://app?vid=a6b108f6-8cca-4806-bce6-4e6b29893a79"},"vehicle_type_id":"4","last_reported":1687810081,"current_range_meters":5200,"station_id":"ce4bh112rcd13ifvqda0","pricing_plan_id":"free"},{"bike_id":"1eee50ae-68c5-479e-acb0-fe318eea6da4","system_id":"levelo_inurba_marseille","lat":43.30642,"lon":5.401031,"is_reserved":false,"is_disabled":false,"rental_uris":{"android":"levelo://app?vid=1eee50ae-68c5-479e-acb0-fe318eea6da4","ios":"levelo://app?vid=1eee50ae-68c5-479e-acb0-fe318eea6da4"},"vehicle_type_id":"4","last_reported":1687810081,"current_range_meters":20000,"station_id":"ce4bh112rcd13ifvqda0","pricing_plan_id":"free"},{"bike_id":"db46b3d7-9860-4110-b1fd-6b896d99052d","system_id":"levelo_inurba_marseille","lat":43.30642,"lon":5.401031,"is_reserved":false,"is_disabled":false,"rental_uris":{"android":"levelo://app?vid=db46b3d7-9860-4110-b1fd-6b896d99052d","ios":"levelo://app?vid=db46b3d7-9860-4110-b1fd-6b896d99052d"},"vehicle_type_id":"4","last_reported":1687810081,"current_range_meters":0,"station_id":"ce4bh112rcd13ifvqda0","pricing_plan_id":"free"},{"bike_id":"8ebdae48-74b4-4e4b-9df2-c4c8efb21ca6","system_id":"levelo_inurba_marseille","lat":43.30642,"lon":5.401031,"is_reserved":false,"is_disabled":false,"rental_uris":{"android":"levelo://app?vid=8ebdae48-74b4-4e4b-9df2-c4c8efb21ca6","ios":"levelo://app?vid=8ebdae48-74b4-4e4b-9df2-c4c8efb21ca6"},"vehicle_type_id":"4","last_reported":1687810081,"current_range_meters":6000,"station_id":"ce4bh112rcd13ifvqda0","pricing_plan_id":"free"},{"bike_id":"61450379-fa37-4245-93c6-d41763e3c7da","system_id":"levelo_inurba_marseille","lat":43.30642,"lon":5.401031,"is_reserved":false,"is_disabled":false,"rental_uris":{"android":"levelo://app?vid=61450379-fa37-4245-93c6-d41763e3c7da","ios":"levelo://app?vid=61450379-fa37-4245-93c6-d41763e3c7da"},"vehicle_type_id":"4","last_reported":1687810081,"current_range_meters":3600,"station_id":"ce4bh112rcd13ifvqda0","pricing_plan_id":"free"},{"bike_id":"a7860304-51f5-479c-83f2-0fa70e3db3e9","system_id":"levelo_inurba_marseille","lat":43.290345,"lon":5.38646,"is_reserved":false,"is_disabled":false,"rental_uris":{"android":"levelo://app?vid=a7860304-51f5-479c-83f2-0fa70e3db3e9","ios":"levelo://app?vid=a7860304-51f5-479c-83f2-0fa70e3db3e9"},"vehicle_type_id":"4","last_reported":1687810081,"current_range_meters":18000,"station_id":"ce4bh4p2rcd13ifvqe0g","pricing_plan_id":"free"},{"bike_id":"ef3233c5-199d-46a6-ab03-a0580bdeb84a","system_id":"levelo_inurba_marseille","lat":43.28672,"lon":5.36356,"is_reserved":false,"is_disabled":false,"rental_uris":{"android":"levelo://app?vid=ef3233c5-199d-46a6-ab03-a0580bdeb84a","ios":"levelo://app?vid=ef3233c5-199d-46a6-ab03-a0580bdeb84a"},"vehicle_type_id":"4","last_reported":1687810081,"current_range_meters":4800,"station_id":"ce4bhah2rcd13ifvqej0","pricing_plan_id":"free"},{"bike_id":"64f9d6bc-83ab-4038-8e13-8ce353d023c5","system_id":"levelo_inurba_marseille","lat":43.298681,"lon":5.397225,"is_reserved":false,"is_disabled":false,"rental_uris":{"android":"levelo://app?vid=64f9d6bc-83ab-4038-8e13-8ce353d023c5","ios":"levelo://app?vid=64f9d6bc-83ab-4038-8e13-8ce353d023c5"},"vehicle_type_id":"4","last_reported":1687810081,"current_range_meters":3600,"station_id":"ce4bh0h2rcd13ifvqd50","pricing_plan_id":"free"},{"bike_id":"9c9b52de-42cc-475e-8ab8-088bb577902e","system_id":"levelo_inurba_marseille","lat":43.29871,"lon":5.39733,"is_reserved":false,"is_disabled":false,"rental_uris":{"android":"levelo://app?vid=9c9b52de-42cc-475e-8ab8-088bb577902e","ios":"levelo://app?vid=9c9b52de-42cc-475e-8ab8-088bb577902e"},"vehicle_type_id":"4","last_reported":1687810081,"current_range_meters":22000,"station_id":"ce4bh0h2rcd13ifvqd50","pricing_plan_id":"free"},{"bike_id":"7966cefe-a78d-424d-8131-c63be627899c","system_id":"levelo_inurba_marseille","lat":43.286961,"lon":5.373785,"is_reserved":false,"is_disabled":false,"rental_uris":{"android":"levelo://app?vid=7966cefe-a78d-424d-8131-c63be627899c","ios":"levelo://app?vid=7966cefe-a78d-424d-8131-c63be627899c"},"vehicle_type_id":"4","last_reported":1687810081,"current_range_meters":31600,"station_id":"ce4bh3p2rcd13ifvqdq0","pricing_plan_id":"free"},{"bike_id":"4049a526-52c9-44a6-a502-38714dac3b6c","system_id":"levelo_inurba_marseille","lat":43.298681,"lon":5.397225,"is_reserved":false,"is_disabled":false,"rental_uris":{"android":"levelo://app?vid=4049a526-52c9-44a6-a502-38714dac3b6c","ios":"levelo://app?vid=4049a526-52c9-44a6-a502-38714dac3b6c"},"vehicle_type_id":"4","last_reported":1687810081,"current_range_meters":5200,"station_id":"ce4bh0h2rcd13ifvqd50","pricing_plan_id":"free"},{"bike_id":"2640b4b3-1e2e-4e29-a992-f35f1fca174b","system_id":"levelo_inurba_marseille","lat":43.295196,"lon":5.39397,"is_reserved":false,"is_disabled":false,"rental_uris":{"android":"levelo://app?vid=2640b4b3-1e2e-4e29-a992-f35f1fca174b","ios":"levelo://app?vid=2640b4b3-1e2e-4e29-a992-f35f1fca174b"},"vehicle_type_id":"4","last_reported":1687810081,"current_range_meters":25200,"station_id":"ce4bh292rcd13ifvqdf0","pricing_plan_id":"free"},{"bike_id":"b396d169-d448-40fa-91b2-66eaaa18ff42","system_id":"levelo_inurba_marseille","lat":43.286591,"lon":5.363346,"is_reserved":false,"is_disabled":false,"rental_uris":{"android":"levelo://app?vid=b396d169-d448-40fa-91b2-66eaaa18ff42","ios":"levelo://app?vid=b396d169-d448-40fa-91b2-66eaaa18ff42"},"vehicle_type_id":"4","last_reported":1687810081,"current_range_meters":0,"station_id":"ce4bhah2rcd13ifvqej0","pricing_plan_id":"free"},{"bike_id":"5fc4b15b-e51c-49cd-9467-b8aa29aad44e","system_id":"levelo_inurba_marseille","lat":43.286593,"lon":5.363346,"is_reserved":false,"is_disabled":false,"rental_uris":{"android":"levelo://app?vid=5fc4b15b-e51c-49cd-9467-b8aa29aad44e","ios":"levelo://app?vid=5fc4b15b-e51c-49cd-9467-b8aa29aad44e"},"vehicle_type_id":"4","last_reported":1687810081,"current_range_meters":22800,"station_id":"ce4bhah2rcd13ifvqej0","pricing_plan_id":"free"},{"bike_id":"62674688-486e-4d46-bbb8-8853d5b4ef03","system_id":"levelo_inurba_marseille","lat":43.295196,"lon":5.39397,"is_reserved":false,"is_disabled":false,"rental_uris":{"android":"levelo://app?vid=62674688-486e-4d46-bbb8-8853d5b4ef03","ios":"levelo://app?vid=62674688-486e-4d46-bbb8-8853d5b4ef03"},"vehicle_type_id":"4","last_reported":1687810081,"current_range_meters":1200,"station_id":"ce4bh292rcd13ifvqdf0","pricing_plan_id":"free"},{"bike_id":"876d9c45-e0f2-464d-918f-a5a66bfe05ab","system_id":"levelo_inurba_marseille","lat":43.295196,"lon":5.39397,"is_reserved":false,"is_disabled":false,"rental_uris":{"android":"levelo://app?vid=876d9c45-e0f2-464d-918f-a5a66bfe05ab","ios":"levelo://app?vid=876d9c45-e0f2-464d-918f-a5a66bfe05ab"},"vehicle_type_id":"4","last_reported":1687810081,"current_range_meters":0,"station_id":"ce4bh292rcd13ifvqdf0","pricing_plan_id":"free"},{"bike_id":"7c54c3dd-9192-47f6-8b3d-e455beac7e5d","system_id":"levelo_inurba_marseille","lat":43.295196,"lon":5.39397,"is_reserved":false,"is_disabled":false,"rental_uris":{"android":"levelo://app?vid=7c54c3dd-9192-47f6-8b3d-e455beac7e5d","ios":"levelo://app?vid=7c54c3dd-9192-47f6-8b3d-e455beac7e5d"},"vehicle_type_id":"4","last_reported":1687810081,"current_range_meters":13200,"station_id":"ce4bh292rcd13ifvqdf0","pricing_plan_id":"free"},{"bike_id":"4938cf35-0097-4527-9ca9-168642139fa5","system_id":"levelo_inurba_marseille","lat":43.302759,"lon":5.400793,"is_reserved":false,"is_disabled":false,"rental_uris":{"android":"levelo://app?vid=4938cf35-0097-4527-9ca9-168642139fa5","ios":"levelo://app?vid=4938cf35-0097-4527-9ca9-168642139fa5"},"vehicle_type_id":"4","last_reported":1687810081,"current_range_meters":0,"station_id":"ce4bgvh2rcd13ifvqcs0","pricing_plan_id":"free"},{"bike_id":"e85ef1b1-2a92-4111-973e-26de4b2a50f9","system_id":"levelo_inurba_marseille","lat":43.302759,"lon":5.400793,"is_reserved":false,"is_disabled":false,"rental_uris":{"android":"levelo://app?vid=e85ef1b1-2a92-4111-973e-26de4b2a50f9","ios":"levelo://app?vid=e85ef1b1-2a92-4111-973e-26de4b2a50f9"},"vehicle_type_id":"4","last_reported":1687810081,"current_range_meters":3600,"station_id":"ce4bgvh2rcd13ifvqcs0","pricing_plan_id":"free"},{"bike_id":"0708d849-b1c1-42d0-9777-7dae28084c9b","system_id":"levelo_inurba_marseille","lat":43.290345,"lon":5.38646,"is_reserved":false,"is_disabled":false,"rental_uris":{"android":"levelo://app?vid=0708d849-b1c1-42d0-9777-7dae28084c9b","ios":"levelo://app?vid=0708d849-b1c1-42d0-9777-7dae28084c9b"},"vehicle_type_id":"4","last_reported":1687810081,"current_range_meters":6000,"station_id":"ce4bh4p2rcd13ifvqe0g","pricing_plan_id":"free"},{"bike_id":"eed05927-79aa-4b22-b0b6-1a965e63ed5b","system_id":"levelo_inurba_marseille","lat":43.290345,"lon":5.38646,"is_reserved":false,"is_disabled":false,"rental_uris":{"android":"levelo://app?vid=eed05927-79aa-4b22-b0b6-1a965e63ed5b","ios":"levelo://app?vid=eed05927-79aa-4b22-b0b6-1a965e63ed5b"},"vehicle_type_id":"4","last_reported":1687810081,"current_range_meters":7200,"station_id":"ce4bh4p2rcd13ifvqe0g","pricing_plan_id":"free"},{"bike_id":"d5662e84-6bd6-4115-b416-da05cb1f5479","system_id":"levelo_inurba_marseille","lat":43.302759,"lon":5.400793,"is_reserved":false,"is_disabled":false,"rental_uris":{"android":"levelo://app?vid=d5662e84-6bd6-4115-b416-da05cb1f5479","ios":"levelo://app?vid=d5662e84-6bd6-4115-b416-da05cb1f5479"},"vehicle_type_id":"4","last_reported":1687810081,"current_range_meters":16400,"station_id":"ce4bgvh2rcd13ifvqcs0","pricing_plan_id":"free"},{"bike_id":"45f71ce6-c269-454f-858e-71a88b9544b8","system_id":"levelo_inurba_marseille","lat":43.302759,"lon":5.400793,"is_reserved":false,"is_disabled":false,"rental_uris":{"android":"levelo://app?vid=45f71ce6-c269-454f-858e-71a88b9544b8","ios":"levelo://app?vid=45f71ce6-c269-454f-858e-71a88b9544b8"},"vehicle_type_id":"4","last_reported":1687810081,"current_range_meters":10000,"station_id":"ce4bgvh2rcd13ifvqcs0","pricing_plan_id":"free"},{"bike_id":"78d971c6-e981-4cc9-9a34-08dd0093b34e","system_id":"levelo_inurba_marseille","lat":43.30263,"lon":5.40077,"is_reserved":false,"is_disabled":false,"rental_uris":{"android":"levelo://app?vid=78d971c6-e981-4cc9-9a34-08dd0093b34e","ios":"levelo://app?vid=78d971c6-e981-4cc9-9a34-08dd0093b34e"},"vehicle_type_id":"4","last_reported":1687810081,"current_range_meters":19600,"station_id":"ce4bgvh2rcd13ifvqcs0","pricing_plan_id":"free"},{"bike_id":"874d1d83-4dfc-43fd-a266-1b963e2b5ab6","system_id":"levelo_inurba_marseille","lat":43.302759,"lon":5.400793,"is_reserved":false,"is_disabled":false,"rental_uris":{"android":"levelo://app?vid=874d1d83-4dfc-43fd-a266-1b963e2b5ab6","ios":"levelo://app?vid=874d1d83-4dfc-43fd-a266-1b963e2b5ab6"},"vehicle_type_id":"4","last_reported":1687810081,"current_range_meters":16000,"station_id":"ce4bgvh2rcd13ifvqcs0","pricing_plan_id":"free"},{"bike_id":"a92b2715-1df5-456b-8998-98199992bc67","system_id":"levelo_inurba_marseille","lat":43.302759,"lon":5.400793,"is_reserved":false,"is_disabled":false,"rental_uris":{"android":"levelo://app?vid=a92b2715-1df5-456b-8998-98199992bc67","ios":"levelo://app?vid=a92b2715-1df5-456b-8998-98199992bc67"},"vehicle_type_id":"4","last_reported":1687810081,"current_range_meters":26800,"station_id":"ce4bgvh2rcd13ifvqcs0","pricing_plan_id":"free"},{"bike_id":"4e196d92-0d1d-47e3-9f48-653b846262ab","system_id":"levelo_inurba_marseille","lat":43.286039,"lon":5.370681,"is_reserved":false,"is_disabled":false,"rental_uris":{"android":"levelo://app?vid=4e196d92-0d1d-47e3-9f48-653b846262ab","ios":"levelo://app?vid=4e196d92-0d1d-47e3-9f48-653b846262ab"},"vehicle_type_id":"4","last_reported":1687810081,"current_range_meters":12000,"station_id":"ce4bht12rcd13ifvqi60","pricing_plan_id":"free"},{"bike_id":"66a32732-8ac3-4a21-a5df-4a97cb284d6d","system_id":"levelo_inurba_marseille","lat":43.302759,"lon":5.400793,"is_reserved":false,"is_disabled":false,"rental_uris":{"android":"levelo://app?vid=66a32732-8ac3-4a21-a5df-4a97cb284d6d","ios":"levelo://app?vid=66a32732-8ac3-4a21-a5df-4a97cb284d6d"},"vehicle_type_id":"4","last_reported":1687810081,"current_range_meters":0,"station_id":"ce4bgvh2rcd13ifvqcs0","pricing_plan_id":"free"},{"bike_id":"9a61b4ad-b737-4318-89c6-633a180f9bec","system_id":"levelo_inurba_marseille","lat":43.286039,"lon":5.370681,"is_reserved":false,"is_disabled":false,"rental_uris":{"android":"levelo://app?vid=9a61b4ad-b737-4318-89c6-633a180f9bec","ios":"levelo://app?vid=9a61b4ad-b737-4318-89c6-633a180f9bec"},"vehicle_type_id":"4","last_reported":1687810081,"current_range_meters":6400,"station_id":"ce4bht12rcd13ifvqi60","pricing_plan_id":"free"},{"bike_id":"7664401f-f963-44f3-85c1-48555fba7b5e","system_id":"levelo_inurba_marseille","lat":43.286039,"lon":5.370681,"is_reserved":false,"is_disabled":false,"rental_uris":{"android":"levelo://app?vid=7664401f-f963-44f3-85c1-48555fba7b5e","ios":"levelo://app?vid=7664401f-f963-44f3-85c1-48555fba7b5e"},"vehicle_type_id":"4","last_reported":1687810081,"current_range_meters":22000,"station_id":"ce4bht12rcd13ifvqi60","pricing_plan_id":"free"},{"bike_id":"58bf6b23-2505-4b35-bd86-8324a86a09fe","system_id":"levelo_inurba_marseille","lat":43.286039,"lon":5.370681,"is_reserved":false,"is_disabled":false,"rental_uris":{"android":"levelo://app?vid=58bf6b23-2505-4b35-bd86-8324a86a09fe","ios":"levelo://app?vid=58bf6b23-2505-4b35-bd86-8324a86a09fe"},"vehicle_type_id":"4","last_reported":1687810081,"current_range_meters":4800,"station_id":"ce4bht12rcd13ifvqi60","pricing_plan_id":"free"},{"bike_id":"d69fed3a-efe9-46fb-b1dc-1240b8978d3e","system_id":"levelo_inurba_marseille","lat":43.31643,"lon":5.40429,"is_reserved":false,"is_disabled":false,"rental_uris":{"android":"levelo://app?vid=d69fed3a-efe9-46fb-b1dc-1240b8978d3e","ios":"levelo://app?vid=d69fed3a-efe9-46fb-b1dc-1240b8978d3e"},"vehicle_type_id":"4","last_reported":1687810081,"current_range_meters":8000,"station_id":"ce4bh012rcd13ifvqd00","pricing_plan_id":"free"},{"bike_id":"32ebfb38-90ad-49ba-adce-a9a22d416a21","system_id":"levelo_inurba_marseille","lat":43.29231,"lon":5.39211,"is_reserved":false,"is_disabled":false,"rental_uris":{"android":"levelo://app?vid=32ebfb38-90ad-49ba-adce-a9a22d416a21","ios":"levelo://app?vid=32ebfb38-90ad-49ba-adce-a9a22d416a21"},"vehicle_type_id":"4","last_reported":1687810081,"current_range_meters":17200,"station_id":"","pricing_plan_id":"free"},{"bike_id":"cde74999-8e08-4b38-9bb1-c1a36201035e","system_id":"levelo_inurba_marseille","lat":43.291994,"lon":5.392907,"is_reserved":false,"is_disabled":false,"rental_uris":{"android":"levelo://app?vid=cde74999-8e08-4b38-9bb1-c1a36201035e","ios":"levelo://app?vid=cde74999-8e08-4b38-9bb1-c1a36201035e"},"vehicle_type_id":"4","last_reported":1687810081,"current_range_meters":14800,"station_id":"ce4bh192rcd13ifvqdd0","pricing_plan_id":"free"},{"bike_id":"18fff717-5ffd-4e84-a78e-29d34f4f1915","system_id":"levelo_inurba_marseille","lat":43.28492,"lon":5.35963,"is_reserved":false,"is_disabled":false,"rental_uris":{"android":"levelo://app?vid=18fff717-5ffd-4e84-a78e-29d34f4f1915","ios":"levelo://app?vid=18fff717-5ffd-4e84-a78e-29d34f4f1915"},"vehicle_type_id":"4","last_reported":1687810081,"current_range_meters":21200,"station_id":"","pricing_plan_id":"free"},{"bike_id":"06d5e4d9-bfef-447a-a0df-169dba12f9a2","system_id":"levelo_inurba_marseille","lat":43.28465,"lon":5.35895,"is_reserved":false,"is_disabled":false,"rental_uris":{"android":"levelo://app?vid=06d5e4d9-bfef-447a-a0df-169dba12f9a2","ios":"levelo://app?vid=06d5e4d9-bfef-447a-a0df-169dba12f9a2"},"vehicle_type_id":"4","last_reported":1687810081,"current_range_meters":25600,"station_id":"ce4bhah2rcd13ifvqei0","pricing_plan_id":"free"},{"bike_id":"30479b60-904b-4ab9-a981-d948308cf520","system_id":"levelo_inurba_marseille","lat":43.28462,"lon":5.35893,"is_reserved":false,"is_disabled":false,"rental_uris":{"android":"levelo://app?vid=30479b60-904b-4ab9-a981-d948308cf520","ios":"levelo://app?vid=30479b60-904b-4ab9-a981-d948308cf520"},"vehicle_type_id":"4","last_reported":1687810081,"current_range_meters":23200,"station_id":"ce4bhah2rcd13ifvqei0","pricing_plan_id":"free"},{"bike_id":"031e545f-4329-436c-84f2-e1f2820f0f5e","system_id":"levelo_inurba_marseille","lat":43.284534,"lon":5.358662,"is_reserved":false,"is_disabled":false,"rental_uris":{"android":"levelo://app?vid=031e545f-4329-436c-84f2-e1f2820f0f5e","ios":"levelo://app?vid=031e545f-4329-436c-84f2-e1f2820f0f5e"},"vehicle_type_id":"4","last_reported":1687810081,"current_range_meters":16800,"station_id":"ce4bhah2rcd13ifvqei0","pricing_plan_id":"free"},{"bike_id":"5519cd89-b95b-44d6-960c-4cd13b669abd","system_id":"levelo_inurba_marseille","lat":43.284534,"lon":5.358662,"is_reserved":false,"is_disabled":false,"rental_uris":{"android":"levelo://app?vid=5519cd89-b95b-44d6-960c-4cd13b669abd","ios":"levelo://app?vid=5519cd89-b95b-44d6-960c-4cd13b669abd"},"vehicle_type_id":"4","last_reported":1687810081,"current_range_meters":4400,"station_id":"ce4bhah2rcd13ifvqei0","pricing_plan_id":"free"},{"bike_id":"980511b9-38c4-4dae-9ddf-25fe90c7b9de","system_id":"levelo_inurba_marseille","lat":43.28458,"lon":5.35892,"is_reserved":false,"is_disabled":false,"rental_uris":{"android":"levelo://app?vid=980511b9-38c4-4dae-9ddf-25fe90c7b9de","ios":"levelo://app?vid=980511b9-38c4-4dae-9ddf-25fe90c7b9de"},"vehicle_type_id":"4","last_reported":1687810081,"current_range_meters":2800,"station_id":"ce4bhah2rcd13ifvqei0","pricing_plan_id":"free"},{"bike_id":"1c6c39c3-7998-492c-8b9f-b1e9b043d065","system_id":"levelo_inurba_marseille","lat":43.28456,"lon":5.35895,"is_reserved":false,"is_disabled":false,"rental_uris":{"android":"levelo://app?vid=1c6c39c3-7998-492c-8b9f-b1e9b043d065","ios":"levelo://app?vid=1c6c39c3-7998-492c-8b9f-b1e9b043d065"},"vehicle_type_id":"4","last_reported":1687810081,"current_range_meters":31200,"station_id":"ce4bhah2rcd13ifvqei0","pricing_plan_id":"free"},{"bike_id":"a2708ae7-124e-446d-8d8b-b6b272081942","system_id":"levelo_inurba_marseille","lat":43.284534,"lon":5.358662,"is_reserved":false,"is_disabled":false,"rental_uris":{"android":"levelo://app?vid=a2708ae7-124e-446d-8d8b-b6b272081942","ios":"levelo://app?vid=a2708ae7-124e-446d-8d8b-b6b272081942"},"vehicle_type_id":"4","last_reported":1687810081,"current_range_meters":14800,"station_id":"ce4bhah2rcd13ifvqei0","pricing_plan_id":"free"},{"bike_id":"d68c7b00-a3ee-4a90-be1b-8334b9fcfb95","system_id":"levelo_inurba_marseille","lat":43.284534,"lon":5.358662,"is_reserved":false,"is_disabled":false,"rental_uris":{"android":"levelo://app?vid=d68c7b00-a3ee-4a90-be1b-8334b9fcfb95","ios":"levelo://app?vid=d68c7b00-a3ee-4a90-be1b-8334b9fcfb95"},"vehicle_type_id":"4","last_reported":1687810081,"current_range_meters":18400,"station_id":"ce4bhah2rcd13ifvqei0","pricing_plan_id":"free"},{"bike_id":"70b887c7-fd0b-4bfc-b267-07745d5d3ec1","system_id":"levelo_inurba_marseille","lat":43.28457,"lon":5.35876,"is_reserved":false,"is_disabled":false,"rental_uris":{"android":"levelo://app?vid=70b887c7-fd0b-4bfc-b267-07745d5d3ec1","ios":"levelo://app?vid=70b887c7-fd0b-4bfc-b267-07745d5d3ec1"},"vehicle_type_id":"4","last_reported":1687810081,"current_range_meters":0,"station_id":"ce4bhah2rcd13ifvqei0","pricing_plan_id":"free"},{"bike_id":"d16e9c96-645c-4496-8d58-9640d33be41c","system_id":"levelo_inurba_marseille","lat":43.28455,"lon":5.35885,"is_reserved":false,"is_disabled":false,"rental_uris":{"android":"levelo://app?vid=d16e9c96-645c-4496-8d58-9640d33be41c","ios":"levelo://app?vid=d16e9c96-645c-4496-8d58-9640d33be41c"},"vehicle_type_id":"4","last_reported":1687810081,"current_range_meters":30000,"station_id":"ce4bhah2rcd13ifvqei0","pricing_plan_id":"free"},{"bike_id":"207f1e41-709b-411a-9855-4872f7d0ae04","system_id":"levelo_inurba_marseille","lat":43.284534,"lon":5.358662,"is_reserved":false,"is_disabled":false,"rental_uris":{"android":"levelo://app?vid=207f1e41-709b-411a-9855-4872f7d0ae04","ios":"levelo://app?vid=207f1e41-709b-411a-9855-4872f7d0ae04"},"vehicle_type_id":"4","last_reported":1687810081,"current_range_meters":11200,"station_id":"ce4bhah2rcd13ifvqei0","pricing_plan_id":"free"},{"bike_id":"148a80d4-6431-422b-a0b8-d10f3ef79616","system_id":"levelo_inurba_marseille","lat":43.284534,"lon":5.358662,"is_reserved":false,"is_disabled":false,"rental_uris":{"android":"levelo://app?vid=148a80d4-6431-422b-a0b8-d10f3ef79616","ios":"levelo://app?vid=148a80d4-6431-422b-a0b8-d10f3ef79616"},"vehicle_type_id":"4","last_reported":1687810081,"current_range_meters":16000,"station_id":"ce4bhah2rcd13ifvqei0","pricing_plan_id":"free"},{"bike_id":"a24db388-e43f-4fe4-966d-fe9598dab9f2","system_id":"levelo_inurba_marseille","lat":43.28434,"lon":5.37512,"is_reserved":false,"is_disabled":false,"rental_uris":{"android":"levelo://app?vid=a24db388-e43f-4fe4-966d-fe9598dab9f2","ios":"levelo://app?vid=a24db388-e43f-4fe4-966d-fe9598dab9f2"},"vehicle_type_id":"4","last_reported":1687810081,"current_range_meters":0,"station_id":"","pricing_plan_id":"free"},{"bike_id":"d4ba645f-5c71-4224-84a9-76e56e5b6b23","system_id":"levelo_inurba_marseille","lat":43.283998,"lon":5.375062,"is_reserved":false,"is_disabled":false,"rental_uris":{"android":"levelo://app?vid=d4ba645f-5c71-4224-84a9-76e56e5b6b23","ios":"levelo://app?vid=d4ba645f-5c71-4224-84a9-76e56e5b6b23"},"vehicle_type_id":"4","last_reported":1687810081,"current_range_meters":29200,"station_id":"ce4bh412rcd13ifvqds0","pricing_plan_id":"free"},{"bike_id":"10a23232-015b-42da-8869-075d5ee155d9","system_id":"levelo_inurba_marseille","lat":43.29714,"lon":5.40074,"is_reserved":false,"is_disabled":false,"rental_uris":{"android":"levelo://app?vid=10a23232-015b-42da-8869-075d5ee155d9","ios":"levelo://app?vid=10a23232-015b-42da-8869-075d5ee155d9"},"vehicle_type_id":"4","last_reported":1687810081,"current_range_meters":2000,"station_id":"","pricing_plan_id":"free"},{"bike_id":"dcef8bf1-136a-4ff1-aef5-cd02a1aca86f","system_id":"levelo_inurba_marseille","lat":43.283998,"lon":5.375062,"is_reserved":false,"is_disabled":false,"rental_uris":{"android":"levelo://app?vid=dcef8bf1-136a-4ff1-aef5-cd02a1aca86f","ios":"levelo://app?vid=dcef8bf1-136a-4ff1-aef5-cd02a1aca86f"},"vehicle_type_id":"4","last_reported":1687810081,"current_range_meters":5200,"station_id":"ce4bh412rcd13ifvqds0","pricing_plan_id":"free"},{"bike_id":"858aebac-2f30-4580-9621-142462d174c8","system_id":"levelo_inurba_marseille","lat":43.286595,"lon":5.386795,"is_reserved":false,"is_disabled":false,"rental_uris":{"android":"levelo://app?vid=858aebac-2f30-4580-9621-142462d174c8","ios":"levelo://app?vid=858aebac-2f30-4580-9621-142462d174c8"},"vehicle_type_id":"4","last_reported":1687810081,"current_range_meters":24800,"station_id":"ce4bh492rcd13ifvqdug","pricing_plan_id":"free"},{"bike_id":"89526005-4ecf-4813-b09d-787bcbcfaca5","system_id":"levelo_inurba_marseille","lat":43.295194,"lon":5.39397,"is_reserved":false,"is_disabled":false,"rental_uris":{"android":"levelo://app?vid=89526005-4ecf-4813-b09d-787bcbcfaca5","ios":"levelo://app?vid=89526005-4ecf-4813-b09d-787bcbcfaca5"},"vehicle_type_id":"4","last_reported":1687810081,"current_range_meters":25600,"station_id":"ce4bh292rcd13ifvqdf0","pricing_plan_id":"free"},{"bike_id":"6c837732-17db-41e6-8b55-e15d550b3c10","system_id":"levelo_inurba_marseille","lat":43.279087,"lon":5.380114,"is_reserved":false,"is_disabled":false,"rental_uris":{"android":"levelo://app?vid=6c837732-17db-41e6-8b55-e15d550b3c10","ios":"levelo://app?vid=6c837732-17db-41e6-8b55-e15d550b3c10"},"vehicle_type_id":"4","last_reported":1687810081,"current_range_meters":5200,"station_id":"ce4bhf92rcd13ifvqf50","pricing_plan_id":"free"},{"bike_id":"47cf2591-be30-4574-b81b-5471f953e13f","system_id":"levelo_inurba_marseille","lat":43.323464,"lon":5.406297,"is_reserved":false,"is_disabled":false,"rental_uris":{"android":"levelo://app?vid=47cf2591-be30-4574-b81b-5471f953e13f","ios":"levelo://app?vid=47cf2591-be30-4574-b81b-5471f953e13f"},"vehicle_type_id":"4","last_reported":1687810081,"current_range_meters":24800,"station_id":"ce4bhq92rcd13ifvqhjg","pricing_plan_id":"free"},{"bike_id":"d8993012-f625-4efd-88c4-85eda110c160","system_id":"levelo_inurba_marseille","lat":43.28475,"lon":5.38413,"is_reserved":false,"is_disabled":false,"rental_uris":{"android":"levelo://app?vid=d8993012-f625-4efd-88c4-85eda110c160","ios":"levelo://app?vid=d8993012-f625-4efd-88c4-85eda110c160"},"vehicle_type_id":"4","last_reported":1687810081,"current_range_meters":14800,"station_id":"ce4bh512rcd13ifvqe3g","pricing_plan_id":"free"},{"bike_id":"a5c855aa-9289-4804-820a-fe64e13123cf","system_id":"levelo_inurba_marseille","lat":43.284787,"lon":5.384116,"is_reserved":false,"is_disabled":false,"rental_uris":{"android":"levelo://app?vid=a5c855aa-9289-4804-820a-fe64e13123cf","ios":"levelo://app?vid=a5c855aa-9289-4804-820a-fe64e13123cf"},"vehicle_type_id":"4","last_reported":1687810081,"current_range_meters":29200,"station_id":"ce4bh512rcd13ifvqe3g","pricing_plan_id":"free"},{"bike_id":"499322f4-7d8f-4d8c-99bf-fcefb0fbeb34","system_id":"levelo_inurba_marseille","lat":43.284787,"lon":5.384116,"is_reserved":false,"is_disabled":false,"rental_uris":{"android":"levelo://app?vid=499322f4-7d8f-4d8c-99bf-fcefb0fbeb34","ios":"levelo://app?vid=499322f4-7d8f-4d8c-99bf-fcefb0fbeb34"},"vehicle_type_id":"4","last_reported":1687810081,"current_range_meters":21200,"station_id":"ce4bh512rcd13ifvqe3g","pricing_plan_id":"free"},{"bike_id":"fe8d7fdb-aadb-42f3-8f5a-906f59533407","system_id":"levelo_inurba_marseille","lat":43.284787,"lon":5.384116,"is_reserved":false,"is_disabled":false,"rental_uris":{"android":"levelo://app?vid=fe8d7fdb-aadb-42f3-8f5a-906f59533407","ios":"levelo://app?vid=fe8d7fdb-aadb-42f3-8f5a-906f59533407"},"vehicle_type_id":"4","last_reported":1687810081,"current_range_meters":20000,"station_id":"ce4bh512rcd13ifvqe3g","pricing_plan_id":"free"},{"bike_id":"b4c950db-352f-4a1a-8e3c-c05101a6dad0","system_id":"levelo_inurba_marseille","lat":43.288501,"lon":5.393087,"is_reserved":false,"is_disabled":false,"rental_uris":{"android":"levelo://app?vid=b4c950db-352f-4a1a-8e3c-c05101a6dad0","ios":"levelo://app?vid=b4c950db-352f-4a1a-8e3c-c05101a6dad0"},"vehicle_type_id":"4","last_reported":1687810081,"current_range_meters":31600,"station_id":"ce4bh2p2rcd13ifvqdi0","pricing_plan_id":"free"},{"bike_id":"62dd546d-328b-4b82-9828-a0de5b52a3b7","system_id":"levelo_inurba_marseille","lat":43.288497,"lon":5.393089,"is_reserved":false,"is_disabled":false,"rental_uris":{"android":"levelo://app?vid=62dd546d-328b-4b82-9828-a0de5b52a3b7","ios":"levelo://app?vid=62dd546d-328b-4b82-9828-a0de5b52a3b7"},"vehicle_type_id":"4","last_reported":1687810081,"current_range_meters":0,"station_id":"ce4bh2p2rcd13ifvqdi0","pricing_plan_id":"free"},{"bike_id":"8957d524-f5b4-4034-925e-96cacef29c5a","system_id":"levelo_inurba_marseille","lat":43.30625,"lon":5.4091,"is_reserved":false,"is_disabled":false,"rental_uris":{"android":"levelo://app?vid=8957d524-f5b4-4034-925e-96cacef29c5a","ios":"levelo://app?vid=8957d524-f5b4-4034-925e-96cacef29c5a"},"vehicle_type_id":"4","last_reported":1687810081,"current_range_meters":0,"station_id":"","pricing_plan_id":"free"},{"bike_id":"ce7b90a9-9944-4c04-bc42-f2b9d36e3340","system_id":"levelo_inurba_marseille","lat":43.289363,"lon":5.396322,"is_reserved":false,"is_disabled":false,"rental_uris":{"android":"levelo://app?vid=ce7b90a9-9944-4c04-bc42-f2b9d36e3340","ios":"levelo://app?vid=ce7b90a9-9944-4c04-bc42-f2b9d36e3340"},"vehicle_type_id":"4","last_reported":1687810081,"current_range_meters":6400,"station_id":"ce4bh3h2rcd13ifvqdn0","pricing_plan_id":"free"},{"bike_id":"8f3ec72b-5d23-435a-a9ca-4bfac156ff95","system_id":"levelo_inurba_marseille","lat":43.29276,"lon":5.40112,"is_reserved":false,"is_disabled":false,"rental_uris":{"android":"levelo://app?vid=8f3ec72b-5d23-435a-a9ca-4bfac156ff95","ios":"levelo://app?vid=8f3ec72b-5d23-435a-a9ca-4bfac156ff95"},"vehicle_type_id":"4","last_reported":1687810081,"current_range_meters":27200,"station_id":"ce4bh312rcd13ifvqdk0","pricing_plan_id":"free"},{"bike_id":"31d8f23c-30fd-4bd5-9e7a-a837f9d23cf3","system_id":"levelo_inurba_marseille","lat":43.32041,"lon":5.40964,"is_reserved":false,"is_disabled":false,"rental_uris":{"android":"levelo://app?vid=31d8f23c-30fd-4bd5-9e7a-a837f9d23cf3","ios":"levelo://app?vid=31d8f23c-30fd-4bd5-9e7a-a837f9d23cf3"},"vehicle_type_id":"4","last_reported":1687810081,"current_range_meters":2000,"station_id":"","pricing_plan_id":"free"},{"bike_id":"cafe7315-5323-49e8-a003-d5af89f6283e","system_id":"levelo_inurba_marseille","lat":43.3094,"lon":5.41071,"is_reserved":false,"is_disabled":false,"rental_uris":{"android":"levelo://app?vid=cafe7315-5323-49e8-a003-d5af89f6283e","ios":"levelo://app?vid=cafe7315-5323-49e8-a003-d5af89f6283e"},"vehicle_type_id":"4","last_reported":1687810081,"current_range_meters":8000,"station_id":"","pricing_plan_id":"free"},{"bike_id":"ab4d8288-269b-47ab-b15a-ed1c8901f317","system_id":"levelo_inurba_marseille","lat":43.282744,"lon":5.350533,"is_reserved":false,"is_disabled":false,"rental_uris":{"android":"levelo://app?vid=ab4d8288-269b-47ab-b15a-ed1c8901f317","ios":"levelo://app?vid=ab4d8288-269b-47ab-b15a-ed1c8901f317"},"vehicle_type_id":"4","last_reported":1687810081,"current_range_meters":7200,"station_id":"ce4bhbp2rcd13ifvqerg","pricing_plan_id":"free"},{"bike_id":"a5ad7820-3ecc-449c-b044-86d0faf2799c","system_id":"levelo_inurba_marseille","lat":43.280382,"lon":5.369291,"is_reserved":false,"is_disabled":false,"rental_uris":{"android":"levelo://app?vid=a5ad7820-3ecc-449c-b044-86d0faf2799c","ios":"levelo://app?vid=a5ad7820-3ecc-449c-b044-86d0faf2799c"},"vehicle_type_id":"4","last_reported":1687810081,"current_range_meters":0,"station_id":"ce4bha12rcd13ifvqef0","pricing_plan_id":"free"},{"bike_id":"b5eaa8d8-a356-4b49-b9f0-2f9e569e6620","system_id":"levelo_inurba_marseille","lat":43.280382,"lon":5.369291,"is_reserved":false,"is_disabled":false,"rental_uris":{"android":"levelo://app?vid=b5eaa8d8-a356-4b49-b9f0-2f9e569e6620","ios":"levelo://app?vid=b5eaa8d8-a356-4b49-b9f0-2f9e569e6620"},"vehicle_type_id":"4","last_reported":1687810081,"current_range_meters":10000,"station_id":"ce4bha12rcd13ifvqef0","pricing_plan_id":"free"},{"bike_id":"4979989a-d632-4c6b-a56a-4da71a9d8c96","system_id":"levelo_inurba_marseille","lat":43.28039,"lon":5.369297,"is_reserved":false,"is_disabled":false,"rental_uris":{"android":"levelo://app?vid=4979989a-d632-4c6b-a56a-4da71a9d8c96","ios":"levelo://app?vid=4979989a-d632-4c6b-a56a-4da71a9d8c96"},"vehicle_type_id":"4","last_reported":1687810081,"current_range_meters":17600,"station_id":"ce4bha12rcd13ifvqef0","pricing_plan_id":"free"},{"bike_id":"13cdae53-b88b-4cc8-8957-a14bc7100021","system_id":"levelo_inurba_marseille","lat":43.28039,"lon":5.369297,"is_reserved":false,"is_disabled":false,"rental_uris":{"android":"levelo://app?vid=13cdae53-b88b-4cc8-8957-a14bc7100021","ios":"levelo://app?vid=13cdae53-b88b-4cc8-8957-a14bc7100021"},"vehicle_type_id":"4","last_reported":1687810081,"current_range_meters":29200,"station_id":"ce4bha12rcd13ifvqef0","pricing_plan_id":"free"},{"bike_id":"c6dd8561-223e-4973-8b48-ded371504c97","system_id":"levelo_inurba_marseille","lat":43.28039,"lon":5.369297,"is_reserved":false,"is_disabled":false,"rental_uris":{"android":"levelo://app?vid=c6dd8561-223e-4973-8b48-ded371504c97","ios":"levelo://app?vid=c6dd8561-223e-4973-8b48-ded371504c97"},"vehicle_type_id":"4","last_reported":1687810081,"current_range_meters":13600,"station_id":"ce4bha12rcd13ifvqef0","pricing_plan_id":"free"},{"bike_id":"050644fb-a48a-4169-ad75-aea03305db8e","system_id":"levelo_inurba_marseille","lat":43.28039,"lon":5.369297,"is_reserved":false,"is_disabled":false,"rental_uris":{"android":"levelo://app?vid=050644fb-a48a-4169-ad75-aea03305db8e","ios":"levelo://app?vid=050644fb-a48a-4169-ad75-aea03305db8e"},"vehicle_type_id":"4","last_reported":1687810081,"current_range_meters":12400,"station_id":"ce4bha12rcd13ifvqef0","pricing_plan_id":"free"},{"bike_id":"e117cfb8-9ead-42d7-a4d8-88ba21e7f6dc","system_id":"levelo_inurba_marseille","lat":43.28039,"lon":5.369297,"is_reserved":false,"is_disabled":false,"rental_uris":{"android":"levelo://app?vid=e117cfb8-9ead-42d7-a4d8-88ba21e7f6dc","ios":"levelo://app?vid=e117cfb8-9ead-42d7-a4d8-88ba21e7f6dc"},"vehicle_type_id":"4","last_reported":1687810081,"current_range_meters":32000,"station_id":"ce4bha12rcd13ifvqef0","pricing_plan_id":"free"},{"bike_id":"c1666ad2-d30b-401d-9efb-cc4f0cad4f0c","system_id":"levelo_inurba_marseille","lat":43.280382,"lon":5.369291,"is_reserved":false,"is_disabled":false,"rental_uris":{"android":"levelo://app?vid=c1666ad2-d30b-401d-9efb-cc4f0cad4f0c","ios":"levelo://app?vid=c1666ad2-d30b-401d-9efb-cc4f0cad4f0c"},"vehicle_type_id":"4","last_reported":1687810081,"current_range_meters":20000,"station_id":"ce4bha12rcd13ifvqef0","pricing_plan_id":"free"},{"bike_id":"dcf2543c-e283-4c23-a79a-8c6780b76e40","system_id":"levelo_inurba_marseille","lat":43.28039,"lon":5.369297,"is_reserved":false,"is_disabled":false,"rental_uris":{"android":"levelo://app?vid=dcf2543c-e283-4c23-a79a-8c6780b76e40","ios":"levelo://app?vid=dcf2543c-e283-4c23-a79a-8c6780b76e40"},"vehicle_type_id":"4","last_reported":1687810081,"current_range_meters":16400,"station_id":"ce4bha12rcd13ifvqef0","pricing_plan_id":"free"},{"bike_id":"27b662c9-e7f3-43fe-8094-4128c2548506","system_id":"levelo_inurba_marseille","lat":43.280382,"lon":5.369291,"is_reserved":false,"is_disabled":false,"rental_uris":{"android":"levelo://app?vid=27b662c9-e7f3-43fe-8094-4128c2548506","ios":"levelo://app?vid=27b662c9-e7f3-43fe-8094-4128c2548506"},"vehicle_type_id":"4","last_reported":1687810081,"current_range_meters":19600,"station_id":"ce4bha12rcd13ifvqef0","pricing_plan_id":"free"},{"bike_id":"9b382138-2125-4eb2-af1c-e1336bd6bdec","system_id":"levelo_inurba_marseille","lat":43.280382,"lon":5.369291,"is_reserved":false,"is_disabled":false,"rental_uris":{"android":"levelo://app?vid=9b382138-2125-4eb2-af1c-e1336bd6bdec","ios":"levelo://app?vid=9b382138-2125-4eb2-af1c-e1336bd6bdec"},"vehicle_type_id":"4","last_reported":1687810081,"current_range_meters":5600,"station_id":"ce4bha12rcd13ifvqef0","pricing_plan_id":"free"},{"bike_id":"5a063bba-ae9f-448e-b741-40ab1aa6eeeb","system_id":"levelo_inurba_marseille","lat":43.281044,"lon":5.378308,"is_reserved":false,"is_disabled":false,"rental_uris":{"android":"levelo://app?vid=5a063bba-ae9f-448e-b741-40ab1aa6eeeb","ios":"levelo://app?vid=5a063bba-ae9f-448e-b741-40ab1aa6eeeb"},"vehicle_type_id":"4","last_reported":1687810081,"current_range_meters":23600,"station_id":"ce4bha12rcd13ifvqee0","pricing_plan_id":"free"},{"bike_id":"cbb456c2-c87b-48bf-aca6-cbd3cf62942a","system_id":"levelo_inurba_marseille","lat":43.290412,"lon":5.399633,"is_reserved":false,"is_disabled":false,"rental_uris":{"android":"levelo://app?vid=cbb456c2-c87b-48bf-aca6-cbd3cf62942a","ios":"levelo://app?vid=cbb456c2-c87b-48bf-aca6-cbd3cf62942a"},"vehicle_type_id":"4","last_reported":1687810081,"current_range_meters":9600,"station_id":"ce4bh392rcd13ifvqdm0","pricing_plan_id":"free"},{"bike_id":"0891e0f0-4366-4e64-a934-c51022ba00b7","system_id":"levelo_inurba_marseille","lat":43.281044,"lon":5.378308,"is_reserved":false,"is_disabled":false,"rental_uris":{"android":"levelo://app?vid=0891e0f0-4366-4e64-a934-c51022ba00b7","ios":"levelo://app?vid=0891e0f0-4366-4e64-a934-c51022ba00b7"},"vehicle_type_id":"4","last_reported":1687810081,"current_range_meters":800,"station_id":"ce4bha12rcd13ifvqee0","pricing_plan_id":"free"},{"bike_id":"e42e005e-b4c2-4e9a-87f9-de4837c92158","system_id":"levelo_inurba_marseille","lat":43.28105,"lon":5.3783,"is_reserved":false,"is_disabled":false,"rental_uris":{"android":"levelo://app?vid=e42e005e-b4c2-4e9a-87f9-de4837c92158","ios":"levelo://app?vid=e42e005e-b4c2-4e9a-87f9-de4837c92158"},"vehicle_type_id":"4","last_reported":1687810081,"current_range_meters":6800,"station_id":"ce4bha12rcd13ifvqee0","pricing_plan_id":"free"},{"bike_id":"65e00ae6-322c-4b8c-9d55-e4e24b50f651","system_id":"levelo_inurba_marseille","lat":43.29638,"lon":5.40594,"is_reserved":false,"is_disabled":false,"rental_uris":{"android":"levelo://app?vid=65e00ae6-322c-4b8c-9d55-e4e24b50f651","ios":"levelo://app?vid=65e00ae6-322c-4b8c-9d55-e4e24b50f651"},"vehicle_type_id":"4","last_reported":1687810081,"current_range_meters":23200,"station_id":"ce4bh0h2rcd13ifvqd60","pricing_plan_id":"free"},{"bike_id":"929e4a0f-52ea-4ff3-a631-9b3f6d39d7e9","system_id":"levelo_inurba_marseille","lat":43.296263,"lon":5.40601,"is_reserved":false,"is_disabled":false,"rental_uris":{"android":"levelo://app?vid=929e4a0f-52ea-4ff3-a631-9b3f6d39d7e9","ios":"levelo://app?vid=929e4a0f-52ea-4ff3-a631-9b3f6d39d7e9"},"vehicle_type_id":"4","last_reported":1687810081,"current_range_meters":800,"station_id":"ce4bh0h2rcd13ifvqd60","pricing_plan_id":"free"},{"bike_id":"19f86866-c640-4109-8aed-eaebeca78c35","system_id":"levelo_inurba_marseille","lat":43.281044,"lon":5.378308,"is_reserved":false,"is_disabled":false,"rental_uris":{"android":"levelo://app?vid=19f86866-c640-4109-8aed-eaebeca78c35","ios":"levelo://app?vid=19f86866-c640-4109-8aed-eaebeca78c35"},"vehicle_type_id":"4","last_reported":1687810081,"current_range_meters":16000,"station_id":"ce4bha12rcd13ifvqee0","pricing_plan_id":"free"},{"bike_id":"8407486c-d48e-4a32-ad1e-02548a18f26b","system_id":"levelo_inurba_marseille","lat":43.281044,"lon":5.378308,"is_reserved":false,"is_disabled":false,"rental_uris":{"android":"levelo://app?vid=8407486c-d48e-4a32-ad1e-02548a18f26b","ios":"levelo://app?vid=8407486c-d48e-4a32-ad1e-02548a18f26b"},"vehicle_type_id":"4","last_reported":1687810081,"current_range_meters":10800,"station_id":"ce4bha12rcd13ifvqee0","pricing_plan_id":"free"},{"bike_id":"681b3880-1b73-453e-a8e7-53d079eda7f3","system_id":"levelo_inurba_marseille","lat":43.281044,"lon":5.378308,"is_reserved":false,"is_disabled":false,"rental_uris":{"android":"levelo://app?vid=681b3880-1b73-453e-a8e7-53d079eda7f3","ios":"levelo://app?vid=681b3880-1b73-453e-a8e7-53d079eda7f3"},"vehicle_type_id":"4","last_reported":1687810081,"current_range_meters":24000,"station_id":"ce4bha12rcd13ifvqee0","pricing_plan_id":"free"},{"bike_id":"fdde9556-934c-4900-a79d-1bb1c728b4d2","system_id":"levelo_inurba_marseille","lat":43.290412,"lon":5.399633,"is_reserved":false,"is_disabled":false,"rental_uris":{"android":"levelo://app?vid=fdde9556-934c-4900-a79d-1bb1c728b4d2","ios":"levelo://app?vid=fdde9556-934c-4900-a79d-1bb1c728b4d2"},"vehicle_type_id":"4","last_reported":1687810081,"current_range_meters":12000,"station_id":"ce4bh392rcd13ifvqdm0","pricing_plan_id":"free"},{"bike_id":"0c9eee73-532e-4f1f-8b23-5a0693e22298","system_id":"levelo_inurba_marseille","lat":43.32654,"lon":5.40985,"is_reserved":false,"is_disabled":false,"rental_uris":{"android":"levelo://app?vid=0c9eee73-532e-4f1f-8b23-5a0693e22298","ios":"levelo://app?vid=0c9eee73-532e-4f1f-8b23-5a0693e22298"},"vehicle_type_id":"4","last_reported":1687810081,"current_range_meters":26800,"station_id":"ce4bhpp2rcd13ifvqhgg","pricing_plan_id":"free"},{"bike_id":"7f4e5f33-3d6b-4470-b773-9bb881f7fc86","system_id":"levelo_inurba_marseille","lat":43.326551,"lon":5.409982,"is_reserved":false,"is_disabled":false,"rental_uris":{"android":"levelo://app?vid=7f4e5f33-3d6b-4470-b773-9bb881f7fc86","ios":"levelo://app?vid=7f4e5f33-3d6b-4470-b773-9bb881f7fc86"},"vehicle_type_id":"4","last_reported":1687810081,"current_range_meters":0,"station_id":"ce4bhpp2rcd13ifvqhgg","pricing_plan_id":"free"},{"bike_id":"2c5cb0ad-be1f-48eb-9979-5b3d2034a041","system_id":"levelo_inurba_marseille","lat":43.304188,"lon":5.412904,"is_reserved":false,"is_disabled":false,"rental_uris":{"android":"levelo://app?vid=2c5cb0ad-be1f-48eb-9979-5b3d2034a041","ios":"levelo://app?vid=2c5cb0ad-be1f-48eb-9979-5b3d2034a041"},"vehicle_type_id":"4","last_reported":1687810081,"current_range_meters":12400,"station_id":"ce4bhop2rcd13ifvqh8g","pricing_plan_id":"free"},{"bike_id":"2766a7f4-1a42-47b6-86ee-38a3063f82a9","system_id":"levelo_inurba_marseille","lat":43.304188,"lon":5.412904,"is_reserved":false,"is_disabled":false,"rental_uris":{"android":"levelo://app?vid=2766a7f4-1a42-47b6-86ee-38a3063f82a9","ios":"levelo://app?vid=2766a7f4-1a42-47b6-86ee-38a3063f82a9"},"vehicle_type_id":"4","last_reported":1687810081,"current_range_meters":23200,"station_id":"ce4bhop2rcd13ifvqh8g","pricing_plan_id":"free"},{"bike_id":"308df25e-f2e3-4243-a145-67f3248235c1","system_id":"levelo_inurba_marseille","lat":43.279087,"lon":5.380114,"is_reserved":false,"is_disabled":false,"rental_uris":{"android":"levelo://app?vid=308df25e-f2e3-4243-a145-67f3248235c1","ios":"levelo://app?vid=308df25e-f2e3-4243-a145-67f3248235c1"},"vehicle_type_id":"4","last_reported":1687810081,"current_range_meters":24000,"station_id":"ce4bhf92rcd13ifvqf50","pricing_plan_id":"free"},{"bike_id":"e6fee480-914c-4a60-b9ec-7955fb033bbd","system_id":"levelo_inurba_marseille","lat":43.287154,"lon":5.399979,"is_reserved":false,"is_disabled":false,"rental_uris":{"android":"levelo://app?vid=e6fee480-914c-4a60-b9ec-7955fb033bbd","ios":"levelo://app?vid=e6fee480-914c-4a60-b9ec-7955fb033bbd"},"vehicle_type_id":"4","last_reported":1687810081,"current_range_meters":21200,"station_id":"ce4bho92rcd13ifvqh3g","pricing_plan_id":"free"},{"bike_id":"f43f4373-2d82-494a-b4f0-058c74870f5b","system_id":"levelo_inurba_marseille","lat":43.287154,"lon":5.399979,"is_reserved":false,"is_disabled":false,"rental_uris":{"android":"levelo://app?vid=f43f4373-2d82-494a-b4f0-058c74870f5b","ios":"levelo://app?vid=f43f4373-2d82-494a-b4f0-058c74870f5b"},"vehicle_type_id":"4","last_reported":1687810081,"current_range_meters":2000,"station_id":"ce4bho92rcd13ifvqh3g","pricing_plan_id":"free"},{"bike_id":"02718b47-e333-4652-ba99-750acabdefa0","system_id":"levelo_inurba_marseille","lat":43.287154,"lon":5.399979,"is_reserved":false,"is_disabled":false,"rental_uris":{"android":"levelo://app?vid=02718b47-e333-4652-ba99-750acabdefa0","ios":"levelo://app?vid=02718b47-e333-4652-ba99-750acabdefa0"},"vehicle_type_id":"4","last_reported":1687810081,"current_range_meters":0,"station_id":"ce4bho92rcd13ifvqh3g","pricing_plan_id":"free"},{"bike_id":"d0586436-d988-4ece-ac37-0c867db512e6","system_id":"levelo_inurba_marseille","lat":43.287154,"lon":5.399979,"is_reserved":false,"is_disabled":false,"rental_uris":{"android":"levelo://app?vid=d0586436-d988-4ece-ac37-0c867db512e6","ios":"levelo://app?vid=d0586436-d988-4ece-ac37-0c867db512e6"},"vehicle_type_id":"4","last_reported":1687810081,"current_range_meters":9600,"station_id":"ce4bho92rcd13ifvqh3g","pricing_plan_id":"free"},{"bike_id":"50fd953c-9754-45f4-aec7-ae52bb9eb6fe","system_id":"levelo_inurba_marseille","lat":43.287154,"lon":5.399979,"is_reserved":false,"is_disabled":false,"rental_uris":{"android":"levelo://app?vid=50fd953c-9754-45f4-aec7-ae52bb9eb6fe","ios":"levelo://app?vid=50fd953c-9754-45f4-aec7-ae52bb9eb6fe"},"vehicle_type_id":"4","last_reported":1687810081,"current_range_meters":31600,"station_id":"ce4bho92rcd13ifvqh3g","pricing_plan_id":"free"},{"bike_id":"9f3db0a4-63b4-4dc1-8e5f-d42d6781149c","system_id":"levelo_inurba_marseille","lat":43.31954,"lon":5.41538,"is_reserved":false,"is_disabled":false,"rental_uris":{"android":"levelo://app?vid=9f3db0a4-63b4-4dc1-8e5f-d42d6781149c","ios":"levelo://app?vid=9f3db0a4-63b4-4dc1-8e5f-d42d6781149c"},"vehicle_type_id":"4","last_reported":1687810081,"current_range_meters":31200,"station_id":"","pricing_plan_id":"free"},{"bike_id":"9aaf7d7e-bfc6-4fa5-b90c-4a37d79ca54f","system_id":"levelo_inurba_marseille","lat":43.299579,"lon":5.413255,"is_reserved":false,"is_disabled":false,"rental_uris":{"android":"levelo://app?vid=9aaf7d7e-bfc6-4fa5-b90c-4a37d79ca54f","ios":"levelo://app?vid=9aaf7d7e-bfc6-4fa5-b90c-4a37d79ca54f"},"vehicle_type_id":"4","last_reported":1687810081,"current_range_meters":18800,"station_id":"ce4bhp12rcd13ifvqh9g","pricing_plan_id":"free"},{"bike_id":"0dc951fd-b369-4de6-83fe-6be4bad386fe","system_id":"levelo_inurba_marseille","lat":43.292569,"lon":5.409107,"is_reserved":false,"is_disabled":false,"rental_uris":{"android":"levelo://app?vid=0dc951fd-b369-4de6-83fe-6be4bad386fe","ios":"levelo://app?vid=0dc951fd-b369-4de6-83fe-6be4bad386fe"},"vehicle_type_id":"4","last_reported":1687810081,"current_range_meters":8400,"station_id":"ce4bh192rcd13ifvqdc0","pricing_plan_id":"free"},{"bike_id":"554cfb99-1ed4-4764-85fc-94ac36d8927e","system_id":"levelo_inurba_marseille","lat":43.292569,"lon":5.409107,"is_reserved":false,"is_disabled":false,"rental_uris":{"android":"levelo://app?vid=554cfb99-1ed4-4764-85fc-94ac36d8927e","ios":"levelo://app?vid=554cfb99-1ed4-4764-85fc-94ac36d8927e"},"vehicle_type_id":"4","last_reported":1687810081,"current_range_meters":17600,"station_id":"ce4bh192rcd13ifvqdc0","pricing_plan_id":"free"},{"bike_id":"841dcea2-6955-4006-836c-1bb8e82923e4","system_id":"levelo_inurba_marseille","lat":43.325233,"lon":5.414318,"is_reserved":false,"is_disabled":false,"rental_uris":{"android":"levelo://app?vid=841dcea2-6955-4006-836c-1bb8e82923e4","ios":"levelo://app?vid=841dcea2-6955-4006-836c-1bb8e82923e4"},"vehicle_type_id":"4","last_reported":1687810081,"current_range_meters":19200,"station_id":"ce4bhq12rcd13ifvqhhg","pricing_plan_id":"free"},{"bike_id":"6e8613a8-2a27-4fc7-a986-beade0bc6871","system_id":"levelo_inurba_marseille","lat":43.336134,"lon":5.410341,"is_reserved":false,"is_disabled":false,"rental_uris":{"android":"levelo://app?vid=6e8613a8-2a27-4fc7-a986-beade0bc6871","ios":"levelo://app?vid=6e8613a8-2a27-4fc7-a986-beade0bc6871"},"vehicle_type_id":"4","last_reported":1687810081,"current_range_meters":28000,"station_id":"ce4bhqh2rcd13ifvqhmg","pricing_plan_id":"free"},