{"last_updated":1720804120,"ttl":30,"version":"2.2","data":{"bikes":[{"bike_id":"82a480c7-bb80-4d1d-919d-5baf1e036144","system_id":"levelo_inurba_marseille","lat":43.313391,"lon":5.36706,"is_reserved":false,"is_disabled":false,"rental_uris":{"android":"levelo://app?vid=82a480c7-bb80-4d1d-919d-5baf1e036144","ios":"levelo://app?vid=82a480c7-bb80-4d1d-919d-5baf1e036144"},"vehicle_type_id":"4","last_reported":1720804120,"current_range_meters":400,"station_id":"ce4bgr92rcd13ifvqc6g","pricing_plan_id":"cebpf4jnsgd1na2vs0mg"},{"bike_id":"737b4a9f-eca1-4f4f-9509-bd3ddc92a32a","system_id":"levelo_inurba_marseille","lat":43.312415,"lon":5.368235,"is_reserved":false,"is_disabled":false,"rental_uris":{"android":"levelo://app?vid=737b4a9f-eca1-4f4f-9509-bd3ddc92a32a","ios":"levelo://app?vid=737b4a9f-eca1-4f4f-9509-bd3ddc92a32a"},"vehicle_type_id":"4","last_reported":1720804120,"current_range_meters":14400,"station_id":"ce4bgl92rcd13ifvqbq0","pricing_plan_id":"cebpf4jnsgd1na2vs0mg"},{"bike_id":"7b382d0c-880a-469f-906c-d8e074c757a5","system_id":"levelo_inurba_marseille","lat":43.312323,"lon":5.368248,"is_reserved":false,"is_disabled":false,"rental_uris":{"android":"levelo://app?vid=7b382d0c-880a-469f-906c-d8e074c757a5","ios":"levelo://app?vid=7b382d0c-880a-469f-906c-d8e074c757a5"},"vehicle_type_id":"4","last_reported":1720804120,"current_range_meters":21200,"station_id":"ce4bgl92rcd13ifvqbq0","pricing_plan_id":"cebpf4jnsgd1na2vs0mg"},{"bike_id":"52451372-c2db-41cb-9436-7135fb16ed9f","system_id":"levelo_inurba_marseille","lat":43.312239,"lon":5.368562,"is_reserved":false,"is_disabled":false,"rental_uris":{"android":"levelo://app?vid=52451372-c2db-41cb-9436-7135fb16ed9f","ios":"levelo://app?vid=52451372-c2db-41cb-9436-7135fb16ed9f"},"vehicle_type_id":"4","last_reported":1720804120,"current_range_meters":24800,"station_id":"ce4bgl92rcd13ifvqbq0","pricing_plan_id":"cebpf4jnsgd1na2vs0mg"},{"bike_id":"ad34eb1d-7d3c-4e04-8e3f-05d9e76ceb2a","system_id":"levelo_inurba_marseille","lat":43.31373,"lon":5.36819,"is_reserved":false,"is_disabled":false,"rental_uris":{"android":"levelo://app?vid=ad34eb1d-7d3c-4e04-8e3f-05d9e76ceb2a","ios":"levelo://app?vid=ad34eb1d-7d3c-4e04-8e3f-05d9e76ceb2a"},"vehicle_type_id":"4","last_reported":1720804120,"current_range_meters":0,"station_id":"","pricing_plan_id":"cebpf4jnsgd1na2vs0mg"},{"bike_id":"a9efe478-64a7-4560-bece-633023dda35c","system_id":"levelo_inurba_marseille","lat":43.31212,"lon":5.36864,"is_reserved":false,"is_disabled":false,"rental_uris":{"android":"levelo://app?vid=a9efe478-64a7-4560-bece-633023dda35c","ios":"levelo://app?vid=a9efe478-64a7-4560-bece-633023dda35c"},"vehicle_type_id":"4","last_reported":1720804120,"current_range_meters":26800,"station_id":"ce4bgl92rcd13ifvqbq0","pricing_plan_id":"cebpf4jnsgd1na2vs0mg"},{"bike_id":"c62972e8-1112-4b9f-bf8e-19589145c007","system_id":"levelo_inurba_marseille","lat":43.309076,"lon":5.368465,"is_reserved":false,"is_disabled":false,"rental_uris":{"android":"levelo://app?vid=c62972e8-1112-4b9f-bf8e-19589145c007","ios":"levelo://app?vid=c62972e8-1112-4b9f-bf8e-19589145c007"},"vehicle_type_id":"4","last_reported":1720804120,"current_range_meters":2000,"station_id":"ce4bgn92rcd13ifvqbvg","pricing_plan_id":"cebpf4jnsgd1na2vs0mg"},{"bike_id":"2f93c034-01fa-46a1-9322-716edb893ce4","system_id":"levelo_inurba_marseille","lat":43.309076,"lon":5.368465,"is_reserved":false,"is_disabled":false,"rental_uris":{"android":"levelo://app?vid=2f93c034-01fa-46a1-9322-716edb893ce4","ios":"levelo://app?vid=2f93c034-01fa-46a1-9322-716edb893ce4"},"vehicle_type_id":"4","last_reported":1720804120,"current_range_meters":31200,"station_id":"ce4bgn92rcd13ifvqbvg","pricing_plan_id":"cebpf4jnsgd1na2vs0mg"},{"bike_id":"0eb8a82e-4bf0-4194-904d-d1f0e8bf1113","system_id":"levelo_inurba_marseille","lat":43.314811,"lon":5.373103,"is_reserved":false,"is_disabled":false,"rental_uris":{"android":"levelo://app?vid=0eb8a82e-4bf0-4194-904d-d1f0e8bf1113","ios":"levelo://app?vid=0eb8a82e-4bf0-4194-904d-d1f0e8bf1113"},"vehicle_type_id":"4","last_reported":1720804120,"current_range_meters":4400,"station_id":"ce4bgt12rcd13ifvqcd0","pricing_plan_id":"cebpf4jnsgd1na2vs0mg"},{"bike_id":"586f9110-f07e-4563-8317-50ffe5e46bd2","system_id":"levelo_inurba_marseille","lat":43.30891,"lon":5.3719,"is_reserved":false,"is_disabled":false,"rental_uris":{"android":"levelo://app?vid=586f9110-f07e-4563-8317-50ffe5e46bd2","ios":"levelo://app?vid=586f9110-f07e-4563-8317-50ffe5e46bd2"},"vehicle_type_id":"4","last_reported":1720804120,"current_range_meters":18000,"station_id":"ce4bguh2rcd13ifvqckg","pricing_plan_id":"cebpf4jnsgd1na2vs0mg"},{"bike_id":"79d7311c-7fee-4d49-9eb3-7c267fccbb93","system_id":"levelo_inurba_marseille","lat":43.309034,"lon":5.371783,"is_reserved":false,"is_disabled":false,"rental_uris":{"android":"levelo://app?vid=79d7311c-7fee-4d49-9eb3-7c267fccbb93","ios":"levelo://app?vid=79d7311c-7fee-4d49-9eb3-7c267fccbb93"},"vehicle_type_id":"4","last_reported":1720804120,"current_range_meters":2000,"station_id":"ce4bguh2rcd13ifvqckg","pricing_plan_id":"cebpf4jnsgd1na2vs0mg"},{"bike_id":"1739d720-47f6-483c-9da7-b69ab37e6158","system_id":"levelo_inurba_marseille","lat":43.305712,"lon":5.365641,"is_reserved":false,"is_disabled":false,"rental_uris":{"android":"levelo://app?vid=1739d720-47f6-483c-9da7-b69ab37e6158","ios":"levelo://app?vid=1739d720-47f6-483c-9da7-b69ab37e6158"},"vehicle_type_id":"4","last_reported":1720804120,"current_range_meters":0,"station_id":"ce4bgs12rcd13ifvqcag","pricing_plan_id":"cebpf4jnsgd1na2vs0mg"},{"bike_id":"3038b494-4165-4c16-88a0-b40979c262ab","system_id":"levelo_inurba_marseille","lat":43.305712,"lon":5.365641,"is_reserved":false,"is_disabled":false,"rental_uris":{"android":"levelo://app?vid=3038b494-4165-4c16-88a0-b40979c262ab","ios":"levelo://app?vid=3038b494-4165-4c16-88a0-b40979c262ab"},"vehicle_type_id":"4","last_reported":1720804120,"current_range_meters":26800,"station_id":"ce4bgs12rcd13ifvqcag","pricing_plan_id":"cebpf4jnsgd1na2vs0mg"},{"bike_id":"9135645f-4d1e-475b-b31b-7041f27bacc9","system_id":"levelo_inurba_marseille","lat":43.30602,"lon":5.37225,"is_reserved":false,"is_disabled":false,"rental_uris":{"android":"levelo://app?vid=9135645f-4d1e-475b-b31b-7041f27bacc9","ios":"levelo://app?vid=9135645f-4d1e-475b-b31b-7041f27bacc9"},"vehicle_type_id":"4","last_reported":1720804120,"current_range_meters":2000,"station_id":"ce4bgqh2rcd13ifvqc4g","pricing_plan_id":"cebpf4jnsgd1na2vs0mg"},{"bike_id":"9b7361a4-2bae-463c-8367-f7eea88e0bf6","system_id":"levelo_inurba_marseille","lat":43.305989,"lon":5.37225,"is_reserved":false,"is_disabled":false,"rental_uris":{"android":"levelo://app?vid=9b7361a4-2bae-463c-8367-f7eea88e0bf6","ios":"levelo://app?vid=9b7361a4-2bae-463c-8367-f7eea88e0bf6"},"vehicle_type_id":"4","last_reported":1720804120,"current_range_meters":25200,"station_id":"ce4bgqh2rcd13ifvqc4g","pricing_plan_id":"cebpf4jnsgd1na2vs0mg"},{"bike_id":"92c65cf0-f8c6-42e8-bc50-650690341db8","system_id":"levelo_inurba_marseille","lat":43.30601,"lon":5.37231,"is_reserved":false,"is_disabled":false,"rental_uris":{"android":"levelo://app?vid=92c65cf0-f8c6-42e8-bc50-650690341db8","ios":"levelo://app?vid=92c65cf0-f8c6-42e8-bc50-650690341db8"},"vehicle_type_id":"4","last_reported":1720804120,"current_range_meters":5200,"station_id":"ce4bgqh2rcd13ifvqc4g","pricing_plan_id":"cebpf4jnsgd1na2vs0mg"},{"bike_id":"bbce23e1-b590-43a8-a934-798dabaab35d","system_id":"levelo_inurba_marseille","lat":43.305917,"lon":5.372209,"is_reserved":false,"is_disabled":false,"rental_uris":{"android":"levelo://app?vid=bbce23e1-b590-43a8-a934-798dabaab35d","ios":"levelo://app?vid=bbce23e1-b590-43a8-a934-798dabaab35d"},"vehicle_type_id":"4","last_reported":1720804120,"current_range_meters":17600,"station_id":"ce4bgqh2rcd13ifvqc4g","pricing_plan_id":"cebpf4jnsgd1na2vs0mg"},{"bike_id":"c52a39f8-3c52-40dc-a943-c9541c30da65","system_id":"levelo_inurba_marseille","lat":43.30784,"lon":5.37655,"is_reserved":false,"is_disabled":false,"rental_uris":{"android":"levelo://app?vid=c52a39f8-3c52-40dc-a943-c9541c30da65","ios":"levelo://app?vid=c52a39f8-3c52-40dc-a943-c9541c30da65"},"vehicle_type_id":"4","last_reported":1720804120,"current_range_meters":0,"station_id":"ce4bgv92rcd13ifvqcq0","pricing_plan_id":"cebpf4jnsgd1na2vs0mg"},{"bike_id":"9461cd58-95f3-4edd-bd12-6a03ac9e2b60","system_id":"levelo_inurba_marseille","lat":43.317075,"lon":5.377367,"is_reserved":false,"is_disabled":false,"rental_uris":{"android":"levelo://app?vid=9461cd58-95f3-4edd-bd12-6a03ac9e2b60","ios":"levelo://app?vid=9461cd58-95f3-4edd-bd12-6a03ac9e2b60"},"vehicle_type_id":"4","last_reported":1720804120,"current_range_meters":0,"station_id":"ce4bgth2rcd13ifvqch0","pricing_plan_id":"cebpf4jnsgd1na2vs0mg"},{"bike_id":"c55e70dc-b723-4101-a3d9-eb56a7402e04","system_id":"levelo_inurba_marseille","lat":43.317075,"lon":5.377367,"is_reserved":false,"is_disabled":false,"rental_uris":{"android":"levelo://app?vid=c55e70dc-b723-4101-a3d9-eb56a7402e04","ios":"levelo://app?vid=c55e70dc-b723-4101-a3d9-eb56a7402e04"},"vehicle_type_id":"4","last_reported":1720804120,"current_range_meters":0,"station_id":"ce4bgth2rcd13ifvqch0","pricing_plan_id":"cebpf4jnsgd1na2vs0mg"},{"bike_id":"97cc9f89-444d-4208-8d8e-1ba8c80a6527","system_id":"levelo_inurba_marseille","lat":43.3031,"lon":5.36898,"is_reserved":false,"is_disabled":false,"rental_uris":{"android":"levelo://app?vid=97cc9f89-444d-4208-8d8e-1ba8c80a6527","ios":"levelo://app?vid=97cc9f89-444d-4208-8d8e-1ba8c80a6527"},"vehicle_type_id":"4","last_reported":1720804120,"current_range_meters":0,"station_id":"ce4bgqh2rcd13ifvqc5g","pricing_plan_id":"cebpf4jnsgd1na2vs0mg"},{"bike_id":"2b4da476-2e26-40be-9aee-5dbf144bd864","system_id":"levelo_inurba_marseille","lat":43.30943,"lon":5.3798,"is_reserved":false,"is_disabled":false,"rental_uris":{"android":"levelo://app?vid=2b4da476-2e26-40be-9aee-5dbf144bd864","ios":"levelo://app?vid=2b4da476-2e26-40be-9aee-5dbf144bd864"},"vehicle_type_id":"4","last_reported":1720804120,"current_range_meters":11600,"station_id":"","pricing_plan_id":"cebpf4jnsgd1na2vs0mg"},{"bike_id":"c84e5d5e-deca-4987-b045-8fc423e458f1","system_id":"levelo_inurba_marseille","lat":43.315289,"lon":5.380349,"is_reserved":false,"is_disabled":false,"rental_uris":{"android":"levelo://app?vid=c84e5d5e-deca-4987-b045-8fc423e458f1","ios":"levelo://app?vid=c84e5d5e-deca-4987-b045-8fc423e458f1"},"vehicle_type_id":"4","last_reported":1720804120,"current_range_meters":20400,"station_id":"ce4bhsp2rcd13ifvqi50","pricing_plan_id":"cebpf4jnsgd1na2vs0mg"},{"bike_id":"4f5911fc-49fe-403a-ac23-3afccd2ea769","system_id":"levelo_inurba_marseille","lat":43.301939,"lon":5.366286,"is_reserved":false,"is_disabled":false,"rental_uris":{"android":"levelo://app?vid=4f5911fc-49fe-403a-ac23-3afccd2ea769","ios":"levelo://app?vid=4f5911fc-49fe-403a-ac23-3afccd2ea769"},"vehicle_type_id":"4","last_reported":1720804120,"current_range_meters":0,"station_id":"ce4bgrh2rcd13ifvqc8g","pricing_plan_id":"cebpf4jnsgd1na2vs0mg"},{"bike_id":"8da9afd1-1893-455d-9ccf-47ec74dbc576","system_id":"levelo_inurba_marseille","lat":43.301939,"lon":5.366286,"is_reserved":false,"is_disabled":false,"rental_uris":{"android":"levelo://app?vid=8da9afd1-1893-455d-9ccf-47ec74dbc576","ios":"levelo://app?vid=8da9afd1-1893-455d-9ccf-47ec74dbc576"},"vehicle_type_id":"4","last_reported":1720804120,"current_range_meters":28000,"station_id":"ce4bgrh2rcd13ifvqc8g","pricing_plan_id":"cebpf4jnsgd1na2vs0mg"},{"bike_id":"0822b291-a403-4b69-80eb-3cb31ebf3554","system_id":"levelo_inurba_marseille","lat":43.304606,"lon":5.379026,"is_reserved":false,"is_disabled":false,"rental_uris":{"android":"levelo://app?vid=0822b291-a403-4b69-80eb-3cb31ebf3554","ios":"levelo://app?vid=0822b291-a403-4b69-80eb-3cb31ebf3554"},"vehicle_type_id":"4","last_reported":1720804120,"current_range_meters":0,"station_id":"ce4bgup2rcd13ifvqcn0","pricing_plan_id":"cebpf4jnsgd1na2vs0mg"},{"bike_id":"bbb80f50-0505-4a32-9c81-7a44ef9fdaf2","system_id":"levelo_inurba_marseille","lat":43.304606,"lon":5.379026,"is_reserved":false,"is_disabled":false,"rental_uris":{"android":"levelo://app?vid=bbb80f50-0505-4a32-9c81-7a44ef9fdaf2","ios":"levelo://app?vid=bbb80f50-0505-4a32-9c81-7a44ef9fdaf2"},"vehicle_type_id":"4","last_reported":1720804120,"current_range_meters":18400,"station_id":"ce4bgup2rcd13ifvqcn0","pricing_plan_id":"cebpf4jnsgd1na2vs0mg"},{"bike_id":"4e624164-2605-48e0-acf2-d0a732428c2a","system_id":"levelo_inurba_marseille","lat":43.324771,"lon":5.36557,"is_reserved":false,"is_disabled":false,"rental_uris":{"android":"levelo://app?vid=4e624164-2605-48e0-acf2-d0a732428c2a","ios":"levelo://app?vid=4e624164-2605-48e0-acf2-d0a732428c2a"},"vehicle_type_id":"4","last_reported":1720804120,"current_range_meters":28400,"station_id":"ce4bhs12rcd13ifvqhvg","pricing_plan_id":"cebpf4jnsgd1na2vs0mg"},{"bike_id":"0e7fe59f-5ad0-48bf-8d54-5d335a22a7ae","system_id":"levelo_inurba_marseille","lat":43.324771,"lon":5.36557,"is_reserved":false,"is_disabled":false,"rental_uris":{"android":"levelo://app?vid=0e7fe59f-5ad0-48bf-8d54-5d335a22a7ae","ios":"levelo://app?vid=0e7fe59f-5ad0-48bf-8d54-5d335a22a7ae"},"vehicle_type_id":"4","last_reported":1720804120,"current_range_meters":5200,"station_id":"ce4bhs12rcd13ifvqhvg","pricing_plan_id":"cebpf4jnsgd1na2vs0mg"},{"bike_id":"b2467970-f090-49ef-917b-314eb75c4ae2","system_id":"levelo_inurba_marseille","lat":43.324771,"lon":5.36557,"is_reserved":false,"is_disabled":false,"rental_uris":{"android":"levelo://app?vid=b2467970-f090-49ef-917b-314eb75c4ae2","ios":"levelo://app?vid=b2467970-f090-49ef-917b-314eb75c4ae2"},"vehicle_type_id":"4","last_reported":1720804120,"current_range_meters":18800,"station_id":"ce4bhs12rcd13ifvqhvg","pricing_plan_id":"cebpf4jnsgd1na2vs0mg"},{"bike_id":"d2f7e0eb-b6ee-4f3f-ac51-7fed0857ac51","system_id":"levelo_inurba_marseille","lat":43.324771,"lon":5.36557,"is_reserved":false,"is_disabled":false,"rental_uris":{"android":"levelo://app?vid=d2f7e0eb-b6ee-4f3f-ac51-7fed0857ac51","ios":"levelo://app?vid=d2f7e0eb-b6ee-4f3f-ac51-7fed0857ac51"},"vehicle_type_id":"4","last_reported":1720804120,"current_range_meters":6400,"station_id":"ce4bhs12rcd13ifvqhvg","pricing_plan_id":"cebpf4jnsgd1na2vs0mg"},{"bike_id":"3c17435f-310e-485b-972d-cd31e082182f","system_id":"levelo_inurba_marseille","lat":43.324771,"lon":5.36557,"is_reserved":false,"is_disabled":false,"rental_uris":{"android":"levelo://app?vid=3c17435f-310e-485b-972d-cd31e082182f","ios":"levelo://app?vid=3c17435f-310e-485b-972d-cd31e082182f"},"vehicle_type_id":"4","last_reported":1720804120,"current_range_meters":31200,"station_id":"ce4bhs12rcd13ifvqhvg","pricing_plan_id":"cebpf4jnsgd1na2vs0mg"},{"bike_id":"c53e9829-a3a9-4e4e-8a81-ce3165d11b49","system_id":"levelo_inurba_marseille","lat":43.324771,"lon":5.36557,"is_reserved":false,"is_disabled":false,"rental_uris":{"android":"levelo://app?vid=c53e9829-a3a9-4e4e-8a81-ce3165d11b49","ios":"levelo://app?vid=c53e9829-a3a9-4e4e-8a81-ce3165d11b49"},"vehicle_type_id":"4","last_reported":1720804120,"current_range_meters":15200,"station_id":"ce4bhs12rcd13ifvqhvg","pricing_plan_id":"cebpf4jnsgd1na2vs0mg"},{"bike_id":"b7075c7b-2c25-42ab-883a-e6ad095eb7ec","system_id":"levelo_inurba_marseille","lat":43.324771,"lon":5.36557,"is_reserved":false,"is_disabled":false,"rental_uris":{"android":"levelo://app?vid=b7075c7b-2c25-42ab-883a-e6ad095eb7ec","ios":"levelo://app?vid=b7075c7b-2c25-42ab-883a-e6ad095eb7ec"},"vehicle_type_id":"4","last_reported":1720804120,"current_range_meters":6800,"station_id":"ce4bhs12rcd13ifvqhvg","pricing_plan_id":"cebpf4jnsgd1na2vs0mg"},{"bike_id":"8b993565-4389-4f56-a4e7-106e965104a9","system_id":"levelo_inurba_marseille","lat":43.324771,"lon":5.36557,"is_reserved":false,"is_disabled":false,"rental_uris":{"android":"levelo://app?vid=8b993565-4389-4f56-a4e7-106e965104a9","ios":"levelo://app?vid=8b993565-4389-4f56-a4e7-106e965104a9"},"vehicle_type_id":"4","last_reported":1720804120,"current_range_meters":12800,"station_id":"ce4bhs12rcd13ifvqhvg","pricing_plan_id":"cebpf4jnsgd1na2vs0mg"},{"bike_id":"50b67951-f4db-4738-8c48-e3a67b6e799e","system_id":"levelo_inurba_marseille","lat":43.324771,"lon":5.36557,"is_reserved":false,"is_disabled":false,"rental_uris":{"android":"levelo://app?vid=50b67951-f4db-4738-8c48-e3a67b6e799e","ios":"levelo://app?vid=50b67951-f4db-4738-8c48-e3a67b6e799e"},"vehicle_type_id":"4","last_reported":1720804120,"current_range_meters":31200,"station_id":"ce4bhs12rcd13ifvqhvg","pricing_plan_id":"cebpf4jnsgd1na2vs0mg"},{"bike_id":"8cef89db-5f5e-49ee-9ae1-a8cf17c4a2ad","system_id":"levelo_inurba_marseille","lat":43.324771,"lon":5.36557,"is_reserved":false,"is_disabled":false,"rental_uris":{"android":"levelo://app?vid=8cef89db-5f5e-49ee-9ae1-a8cf17c4a2ad","ios":"levelo://app?vid=8cef89db-5f5e-49ee-9ae1-a8cf17c4a2ad"},"vehicle_type_id":"4","last_reported":1720804120,"current_range_meters":4800,"station_id":"ce4bhs12rcd13ifvqhvg","pricing_plan_id":"cebpf4jnsgd1na2vs0mg"},{"bike_id":"f4ba6f77-dc39-4097-a212-f7dd56cfda40","system_id":"levelo_inurba_marseille","lat":43.324771,"lon":5.36557,"is_reserved":false,"is_disabled":false,"rental_uris":{"android":"levelo://app?vid=f4ba6f77-dc39-4097-a212-f7dd56cfda40","ios":"levelo://app?vid=f4ba6f77-dc39-4097-a212-f7dd56cfda40"},"vehicle_type_id":"4","last_reported":1720804120,"current_range_meters":30400,"station_id":"ce4bhs12rcd13ifvqhvg","pricing_plan_id":"cebpf4jnsgd1na2vs0mg"},{"bike_id":"db9a0873-aacd-4a7a-963a-7892999e588f","system_id":"levelo_inurba_marseille","lat":43.302784,"lon":5.377158,"is_reserved":false,"is_disabled":false,"rental_uris":{"android":"levelo://app?vid=db9a0873-aacd-4a7a-963a-7892999e588f","ios":"levelo://app?vid=db9a0873-aacd-4a7a-963a-7892999e588f"},"vehicle_type_id":"4","last_reported":1720804120,"current_range_meters":30800,"station_id":"ce4bguh2rcd13ifvqcj0","pricing_plan_id":"cebpf4jnsgd1na2vs0mg"},{"bike_id":"a33ab46c-064f-43c8-a7be-653cef9b9fd6","system_id":"levelo_inurba_marseille","lat":43.310804,"lon":5.38359,"is_reserved":false,"is_disabled":false,"rental_uris":{"android":"levelo://app?vid=a33ab46c-064f-43c8-a7be-653cef9b9fd6","ios":"levelo://app?vid=a33ab46c-064f-43c8-a7be-653cef9b9fd6"},"vehicle_type_id":"4","last_reported":1720804120,"current_range_meters":16400,"station_id":"ce4bgv92rcd13ifvqcr0","pricing_plan_id":"cebpf4jnsgd1na2vs0mg"},{"bike_id":"29880bd2-872c-4260-9b4a-ed1f04c7c1ef","system_id":"levelo_inurba_marseille","lat":43.302784,"lon":5.377158,"is_reserved":false,"is_disabled":false,"rental_uris":{"android":"levelo://app?vid=29880bd2-872c-4260-9b4a-ed1f04c7c1ef","ios":"levelo://app?vid=29880bd2-872c-4260-9b4a-ed1f04c7c1ef"},"vehicle_type_id":"4","last_reported":1720804120,"current_range_meters":31200,"station_id":"ce4bguh2rcd13ifvqcj0","pricing_plan_id":"cebpf4jnsgd1na2vs0mg"},{"bike_id":"94bee035-4296-4131-8141-43f7f60c4f94","system_id":"levelo_inurba_marseille","lat":43.30143,"lon":5.374183,"is_reserved":false,"is_disabled":false,"rental_uris":{"android":"levelo://app?vid=94bee035-4296-4131-8141-43f7f60c4f94","ios":"levelo://app?vid=94bee035-4296-4131-8141-43f7f60c4f94"},"vehicle_type_id":"4","last_reported":1720804120,"current_range_meters":0,"station_id":"ce4bgs92rcd13ifvqcc0","pricing_plan_id":"cebpf4jnsgd1na2vs0mg"},{"bike_id":"395bd8e3-20f3-419f-9a5e-0c4b2c864d9c","system_id":"levelo_inurba_marseille","lat":43.301429,"lon":5.37413,"is_reserved":false,"is_disabled":false,"rental_uris":{"android":"levelo://app?vid=395bd8e3-20f3-419f-9a5e-0c4b2c864d9c","ios":"levelo://app?vid=395bd8e3-20f3-419f-9a5e-0c4b2c864d9c"},"vehicle_type_id":"4","last_reported":1720804120,"current_range_meters":2400,"station_id":"ce4bgs92rcd13ifvqcc0","pricing_plan_id":"cebpf4jnsgd1na2vs0mg"},{"bike_id":"d79663e1-2e50-4ae5-985a-b8a1ffad9aaf","system_id":"levelo_inurba_marseille","lat":43.30593,"lon":5.38175,"is_reserved":false,"is_disabled":false,"rental_uris":{"android":"levelo://app?vid=d79663e1-2e50-4ae5-985a-b8a1ffad9aaf","ios":"levelo://app?vid=d79663e1-2e50-4ae5-985a-b8a1ffad9aaf"},"vehicle_type_id":"4","last_reported":1720804120,"current_range_meters":18800,"station_id":"","pricing_plan_id":"cebpf4jnsgd1na2vs0mg"},{"bike_id":"b30ee835-fac7-4ccd-9dba-4a9276a29180","system_id":"levelo_inurba_marseille","lat":43.319935,"lon":5.381699,"is_reserved":false,"is_disabled":false,"rental_uris":{"android":"levelo://app?vid=b30ee835-fac7-4ccd-9dba-4a9276a29180","ios":"levelo://app?vid=b30ee835-fac7-4ccd-9dba-4a9276a29180"},"vehicle_type_id":"4","last_reported":1720804120,"current_range_meters":16800,"station_id":"ce4bhr12rcd13ifvqhpg","pricing_plan_id":"cebpf4jnsgd1na2vs0mg"},{"bike_id":"55063381-6cb6-41f2-b51f-0642bef6bc1d","system_id":"levelo_inurba_marseille","lat":43.313571,"lon":5.384829,"is_reserved":false,"is_disabled":false,"rental_uris":{"android":"levelo://app?vid=55063381-6cb6-41f2-b51f-0642bef6bc1d","ios":"levelo://app?vid=55063381-6cb6-41f2-b51f-0642bef6bc1d"},"vehicle_type_id":"4","last_reported":1720804120,"current_range_meters":6400,"station_id":"ce4bgt92rcd13ifvqcf0","pricing_plan_id":"cebpf4jnsgd1na2vs0mg"},{"bike_id":"95e9e7fa-62bd-4500-a89f-08b913affc5a","system_id":"levelo_inurba_marseille","lat":43.313571,"lon":5.384829,"is_reserved":false,"is_disabled":false,"rental_uris":{"android":"levelo://app?vid=95e9e7fa-62bd-4500-a89f-08b913affc5a","ios":"levelo://app?vid=95e9e7fa-62bd-4500-a89f-08b913affc5a"},"vehicle_type_id":"4","last_reported":1720804120,"current_range_meters":12000,"station_id":"ce4bgt92rcd13ifvqcf0","pricing_plan_id":"cebpf4jnsgd1na2vs0mg"},{"bike_id":"f1adccbb-6767-47f7-b9cb-a9e9d375fdea","system_id":"levelo_inurba_marseille","lat":43.313571,"lon":5.384829,"is_reserved":false,"is_disabled":false,"rental_uris":{"android":"levelo://app?vid=f1adccbb-6767-47f7-b9cb-a9e9d375fdea","ios":"levelo://app?vid=f1adccbb-6767-47f7-b9cb-a9e9d375fdea"},"vehicle_type_id":"4","last_reported":1720804120,"current_range_meters":8400,"station_id":"ce4bgt92rcd13ifvqcf0","pricing_plan_id":"cebpf4jnsgd1na2vs0mg"},{"bike_id":"234c170e-05c8-4bea-9932-7c17249cb0ad","system_id":"levelo_inurba_marseille","lat":43.299724,"lon":5.371829,"is_reserved":false,"is_disabled":false,"rental_uris":{"android":"levelo://app?vid=234c170e-05c8-4bea-9932-7c17249cb0ad","ios":"levelo://app?vid=234c170e-05c8-4bea-9932-7c17249cb0ad"},"vehicle_type_id":"4","last_reported":1720804120,"current_range_meters":6800,"station_id":"ce4bgr92rcd13ifvqc7g","pricing_plan_id":"cebpf4jnsgd1na2vs0mg"},{"bike_id":"9f36c790-de9d-4b71-b185-8bc6cdda5e54","system_id":"levelo_inurba_marseille","lat":43.299724,"lon":5.371829,"is_reserved":false,"is_disabled":false,"rental_uris":{"android":"levelo://app?vid=9f36c790-de9d-4b71-b185-8bc6cdda5e54","ios":"levelo://app?vid=9f36c790-de9d-4b71-b185-8bc6cdda5e54"},"vehicle_type_id":"4","last_reported":1720804120,"current_range_meters":400,"station_id":"ce4bgr92rcd13ifvqc7g","pricing_plan_id":"cebpf4jnsgd1na2vs0mg"},{"bike_id":"d03e8e55-0b81-4eea-874a-c62bfe582cd7","system_id":"levelo_inurba_marseille","lat":43.299222,"lon":5.365554,"is_reserved":false,"is_disabled":false,"rental_uris":{"android":"levelo://app?vid=d03e8e55-0b81-4eea-874a-c62bfe582cd7","ios":"levelo://app?vid=d03e8e55-0b81-4eea-874a-c62bfe582cd7"},"vehicle_type_id":"4","last_reported":1720804120,"current_range_meters":22000,"station_id":"ce4bgm92rcd13ifvqbr0","pricing_plan_id":"cebpf4jnsgd1na2vs0mg"},{"bike_id":"c309e1da-aa3b-486e-9232-82d027b734cf","system_id":"levelo_inurba_marseille","lat":43.298388,"lon":5.364627,"is_reserved":false,"is_disabled":false,"rental_uris":{"android":"levelo://app?vid=c309e1da-aa3b-486e-9232-82d027b734cf","ios":"levelo://app?vid=c309e1da-aa3b-486e-9232-82d027b734cf"},"vehicle_type_id":"4","last_reported":1720804120,"current_range_meters":14800,"station_id":"","pricing_plan_id":"cebpf4jnsgd1na2vs0mg"},{"bike_id":"3258b5e4-a0da-4471-bebc-4677955c05af","system_id":"levelo_inurba_marseille","lat":43.298518,"lon":5.362873,"is_reserved":false,"is_disabled":false,"rental_uris":{"android":"levelo://app?vid=3258b5e4-a0da-4471-bebc-4677955c05af","ios":"levelo://app?vid=3258b5e4-a0da-4471-bebc-4677955c05af"},"vehicle_type_id":"4","last_reported":1720804120,"current_range_meters":0,"station_id":"ce4bgpp2rcd13ifvqc3g","pricing_plan_id":"cebpf4jnsgd1na2vs0mg"},{"bike_id":"6a8178a2-9327-405e-a3f6-97652a358d7e","system_id":"levelo_inurba_marseille","lat":43.298433,"lon":5.362774,"is_reserved":false,"is_disabled":false,"rental_uris":{"android":"levelo://app?vid=6a8178a2-9327-405e-a3f6-97652a358d7e","ios":"levelo://app?vid=6a8178a2-9327-405e-a3f6-97652a358d7e"},"vehicle_type_id":"4","last_reported":1720804120,"current_range_meters":2800,"station_id":"ce4bgpp2rcd13ifvqc3g","pricing_plan_id":"cebpf4jnsgd1na2vs0mg"},{"bike_id":"2dabb98a-7373-42b6-9431-ed38d3d93d94","system_id":"levelo_inurba_marseille","lat":43.298433,"lon":5.362774,"is_reserved":false,"is_disabled":false,"rental_uris":{"android":"levelo://app?vid=2dabb98a-7373-42b6-9431-ed38d3d93d94","ios":"levelo://app?vid=2dabb98a-7373-42b6-9431-ed38d3d93d94"},"vehicle_type_id":"4","last_reported":1720804120,"current_range_meters":4000,"station_id":"ce4bgpp2rcd13ifvqc3g","pricing_plan_id":"cebpf4jnsgd1na2vs0mg"},{"bike_id":"ff7465ea-b547-4a99-b3fb-c80d80427210","system_id":"levelo_inurba_marseille","lat":43.299243,"lon":5.374807,"is_reserved":false,"is_disabled":false,"rental_uris":{"android":"levelo://app?vid=ff7465ea-b547-4a99-b3fb-c80d80427210","ios":"levelo://app?vid=ff7465ea-b547-4a99-b3fb-c80d80427210"},"vehicle_type_id":"4","last_reported":1720804120,"current_range_meters":0,"station_id":"ce4bgjh2rcd13ifvqbg0","pricing_plan_id":"cebpf4jnsgd1na2vs0mg"},{"bike_id":"b797d313-a3e5-4922-baf9-4754d7c727cd","system_id":"levelo_inurba_marseille","lat":43.32291,"lon":5.38253,"is_reserved":false,"is_disabled":false,"rental_uris":{"android":"levelo://app?vid=b797d313-a3e5-4922-baf9-4754d7c727cd","ios":"levelo://app?vid=b797d313-a3e5-4922-baf9-4754d7c727cd"},"vehicle_type_id":"4","last_reported":1720804120,"current_range_meters":24400,"station_id":"ce4bhr12rcd13ifvqhqg","pricing_plan_id":"cebpf4jnsgd1na2vs0mg"},{"bike_id":"0d15c903-169d-465f-bac5-4a7351b8190b","system_id":"levelo_inurba_marseille","lat":43.297774,"lon":5.370875,"is_reserved":false,"is_disabled":false,"rental_uris":{"android":"levelo://app?vid=0d15c903-169d-465f-bac5-4a7351b8190b","ios":"levelo://app?vid=0d15c903-169d-465f-bac5-4a7351b8190b"},"vehicle_type_id":"4","last_reported":1720804120,"current_range_meters":0,"station_id":"ce4bgop2rcd13ifvqc1g","pricing_plan_id":"cebpf4jnsgd1na2vs0mg"},{"bike_id":"e8c32059-a562-4fdf-a2bc-d95f9fe7d940","system_id":"levelo_inurba_marseille","lat":43.297774,"lon":5.370875,"is_reserved":false,"is_disabled":false,"rental_uris":{"android":"levelo://app?vid=e8c32059-a562-4fdf-a2bc-d95f9fe7d940","ios":"levelo://app?vid=e8c32059-a562-4fdf-a2bc-d95f9fe7d940"},"vehicle_type_id":"4","last_reported":1720804120,"current_range_meters":0,"station_id":"ce4bgop2rcd13ifvqc1g","pricing_plan_id":"cebpf4jnsgd1na2vs0mg"},{"bike_id":"501414bb-07df-4c5d-8679-b05f0dbede71","system_id":"levelo_inurba_marseille","lat":43.297163,"lon":5.365866,"is_reserved":false,"is_disabled":false,"rental_uris":{"android":"levelo://app?vid=501414bb-07df-4c5d-8679-b05f0dbede71","ios":"levelo://app?vid=501414bb-07df-4c5d-8679-b05f0dbede71"},"vehicle_type_id":"4","last_reported":1720804120,"current_range_meters":0,"station_id":"ce4bgn12rcd13ifvqbt0","pricing_plan_id":"cebpf4jnsgd1na2vs0mg"},{"bike_id":"58a66516-100f-400c-9ee6-caabb66dbe98","system_id":"levelo_inurba_marseille","lat":43.297163,"lon":5.365866,"is_reserved":false,"is_disabled":false,"rental_uris":{"android":"levelo://app?vid=58a66516-100f-400c-9ee6-caabb66dbe98","ios":"levelo://app?vid=58a66516-100f-400c-9ee6-caabb66dbe98"},"vehicle_type_id":"4","last_reported":1720804120,"current_range_meters":22800,"station_id":"ce4bgn12rcd13ifvqbt0","pricing_plan_id":"cebpf4jnsgd1na2vs0mg"},{"bike_id":"27b61437-6f99-429a-86bb-9f602abaa21a","system_id":"levelo_inurba_marseille","lat":43.29713,"lon":5.36607,"is_reserved":false,"is_disabled":false,"rental_uris":{"android":"levelo://app?vid=27b61437-6f99-429a-86bb-9f602abaa21a","ios":"levelo://app?vid=27b61437-6f99-429a-86bb-9f602abaa21a"},"vehicle_type_id":"4","last_reported":1720804120,"current_range_meters":0,"station_id":"ce4bgn12rcd13ifvqbt0","pricing_plan_id":"cebpf4jnsgd1na2vs0mg"},{"bike_id":"28c0965c-a3cf-4975-81ce-e26167d2bd4b","system_id":"levelo_inurba_marseille","lat":43.297163,"lon":5.365866,"is_reserved":false,"is_disabled":false,"rental_uris":{"android":"levelo://app?vid=28c0965c-a3cf-4975-81ce-e26167d2bd4b","ios":"levelo://app?vid=28c0965c-a3cf-4975-81ce-e26167d2bd4b"},"vehicle_type_id":"4","last_reported":1720804120,"current_range_meters":4400,"station_id":"ce4bgn12rcd13ifvqbt0","pricing_plan_id":"cebpf4jnsgd1na2vs0mg"},{"bike_id":"bb9da47d-5487-401a-afda-315e7ac7d82e","system_id":"levelo_inurba_marseille","lat":43.29708,"lon":5.36611,"is_reserved":false,"is_disabled":false,"rental_uris":{"android":"levelo://app?vid=bb9da47d-5487-401a-afda-315e7ac7d82e","ios":"levelo://app?vid=bb9da47d-5487-401a-afda-315e7ac7d82e"},"vehicle_type_id":"4","last_reported":1720804120,"current_range_meters":1200,"station_id":"ce4bgn12rcd13ifvqbt0","pricing_plan_id":"cebpf4jnsgd1na2vs0mg"},{"bike_id":"03ce7f20-7c39-45df-a266-a35981146e22","system_id":"levelo_inurba_marseille","lat":43.297163,"lon":5.365866,"is_reserved":false,"is_disabled":false,"rental_uris":{"android":"levelo://app?vid=03ce7f20-7c39-45df-a266-a35981146e22","ios":"levelo://app?vid=03ce7f20-7c39-45df-a266-a35981146e22"},"vehicle_type_id":"4","last_reported":1720804120,"current_range_meters":18800,"station_id":"ce4bgn12rcd13ifvqbt0","pricing_plan_id":"cebpf4jnsgd1na2vs0mg"},{"bike_id":"52993d67-500b-4550-9eed-446acf84ad8c","system_id":"levelo_inurba_marseille","lat":43.297163,"lon":5.365866,"is_reserved":false,"is_disabled":false,"rental_uris":{"android":"levelo://app?vid=52993d67-500b-4550-9eed-446acf84ad8c","ios":"levelo://app?vid=52993d67-500b-4550-9eed-446acf84ad8c"},"vehicle_type_id":"4","last_reported":1720804120,"current_range_meters":10800,"station_id":"ce4bgn12rcd13ifvqbt0","pricing_plan_id":"cebpf4jnsgd1na2vs0mg"},{"bike_id":"fe1683c0-a700-41f6-962f-9683cda2f27a","system_id":"levelo_inurba_marseille","lat":43.311088,"lon":5.388445,"is_reserved":false,"is_disabled":false,"rental_uris":{"android":"levelo://app?vid=fe1683c0-a700-41f6-962f-9683cda2f27a","ios":"levelo://app?vid=fe1683c0-a700-41f6-962f-9683cda2f27a"},"vehicle_type_id":"4","last_reported":1720804120,"current_range_meters":17200,"station_id":"","pricing_plan_id":"cebpf4jnsgd1na2vs0mg"},{"bike_id":"a47285e7-2616-4dee-abb3-999bd832caf8","system_id":"levelo_inurba_marseille","lat":43.29648,"lon":5.3627,"is_reserved":false,"is_disabled":false,"rental_uris":{"android":"levelo://app?vid=a47285e7-2616-4dee-abb3-999bd832caf8","ios":"levelo://app?vid=a47285e7-2616-4dee-abb3-999bd832caf8"},"vehicle_type_id":"4","last_reported":1720804120,"current_range_meters":13600,"station_id":"","pricing_plan_id":"cebpf4jnsgd1na2vs0mg"},{"bike_id":"2a2130ca-69e4-485c-8370-67e58ac4e595","system_id":"levelo_inurba_marseille","lat":43.30952,"lon":5.39026,"is_reserved":false,"is_disabled":false,"rental_uris":{"android":"levelo://app?vid=2a2130ca-69e4-485c-8370-67e58ac4e595","ios":"levelo://app?vid=2a2130ca-69e4-485c-8370-67e58ac4e595"},"vehicle_type_id":"4","last_reported":1720804120,"current_range_meters":0,"station_id":"ce4bgup2rcd13ifvqco0","pricing_plan_id":"cebpf4jnsgd1na2vs0mg"},{"bike_id":"398c8e59-f43f-4eb6-8b88-1cdde1789270","system_id":"levelo_inurba_marseille","lat":43.296921,"lon":5.376579,"is_reserved":false,"is_disabled":false,"rental_uris":{"android":"levelo://app?vid=398c8e59-f43f-4eb6-8b88-1cdde1789270","ios":"levelo://app?vid=398c8e59-f43f-4eb6-8b88-1cdde1789270"},"vehicle_type_id":"4","last_reported":1720804120,"current_range_meters":0,"station_id":"ce4bgkh2rcd13ifvqbl0","pricing_plan_id":"cebpf4jnsgd1na2vs0mg"},{"bike_id":"2c3ffbd2-7f1f-47b8-b2ba-6d68983f63c3","system_id":"levelo_inurba_marseille","lat":43.317557,"lon":5.390173,"is_reserved":false,"is_disabled":false,"rental_uris":{"android":"levelo://app?vid=2c3ffbd2-7f1f-47b8-b2ba-6d68983f63c3","ios":"levelo://app?vid=2c3ffbd2-7f1f-47b8-b2ba-6d68983f63c3"},"vehicle_type_id":"4","last_reported":1720804120,"current_range_meters":1600,"station_id":"ce4bhqp2rcd13ifvqhng","pricing_plan_id":"cebpf4jnsgd1na2vs0mg"},{"bike_id":"498e6174-bbbc-404f-a28d-9960a40f6451","system_id":"levelo_inurba_marseille","lat":43.296277,"lon":5.377108,"is_reserved":false,"is_disabled":false,"rental_uris":{"android":"levelo://app?vid=498e6174-bbbc-404f-a28d-9960a40f6451","ios":"levelo://app?vid=498e6174-bbbc-404f-a28d-9960a40f6451"},"vehicle_type_id":"4","last_reported":1720804120,"current_range_meters":0,"station_id":"ce4bgi92rcd13ifvqb90","pricing_plan_id":"cebpf4jnsgd1na2vs0mg"},{"bike_id":"eca51af5-e5ba-4272-b959-6d54d3d9eb61","system_id":"levelo_inurba_marseille","lat":43.297985,"lon":5.380974,"is_reserved":false,"is_disabled":false,"rental_uris":{"android":"levelo://app?vid=eca51af5-e5ba-4272-b959-6d54d3d9eb61","ios":"levelo://app?vid=eca51af5-e5ba-4272-b959-6d54d3d9eb61"},"vehicle_type_id":"4","last_reported":1720804120,"current_range_meters":0,"station_id":"","pricing_plan_id":"cebpf4jnsgd1na2vs0mg"},{"bike_id":"40a899f1-3e02-4a5b-9185-bc5e97435b69","system_id":"levelo_inurba_marseille","lat":43.295748,"lon":5.37522,"is_reserved":false,"is_disabled":false,"rental_uris":{"android":"levelo://app?vid=40a899f1-3e02-4a5b-9185-bc5e97435b69","ios":"levelo://app?vid=40a899f1-3e02-4a5b-9185-bc5e97435b69"},"vehicle_type_id":"4","last_reported":1720804120,"current_range_meters":5200,"station_id":"ce4bgh92rcd13ifvqb50","pricing_plan_id":"cebpf4jnsgd1na2vs0mg"},{"bike_id":"71ebfbf8-fe6d-415a-9911-531f1bb4b542","system_id":"levelo_inurba_marseille","lat":43.295748,"lon":5.37522,"is_reserved":false,"is_disabled":false,"rental_uris":{"android":"levelo://app?vid=71ebfbf8-fe6d-415a-9911-531f1bb4b542","ios":"levelo://app?vid=71ebfbf8-fe6d-415a-9911-531f1bb4b542"},"vehicle_type_id":"4","last_reported":1720804120,"current_range_meters":11200,"station_id":"ce4bgh92rcd13ifvqb50","pricing_plan_id":"cebpf4jnsgd1na2vs0mg"},{"bike_id":"970a9cc6-ad81-4f7d-89f6-3c26beee72aa","system_id":"levelo_inurba_marseille","lat":43.29615,"lon":5.37706,"is_reserved":false,"is_disabled":false,"rental_uris":{"android":"levelo://app?vid=970a9cc6-ad81-4f7d-89f6-3c26beee72aa","ios":"levelo://app?vid=970a9cc6-ad81-4f7d-89f6-3c26beee72aa"},"vehicle_type_id":"4","last_reported":1720804120,"current_range_meters":0,"station_id":"ce4bgi92rcd13ifvqb90","pricing_plan_id":"cebpf4jnsgd1na2vs0mg"},{"bike_id":"4e215088-5ba8-4e56-83ff-0f8dd62e953d","system_id":"levelo_inurba_marseille","lat":43.298037,"lon":5.381066,"is_reserved":false,"is_disabled":false,"rental_uris":{"android":"levelo://app?vid=4e215088-5ba8-4e56-83ff-0f8dd62e953d","ios":"levelo://app?vid=4e215088-5ba8-4e56-83ff-0f8dd62e953d"},"vehicle_type_id":"4","last_reported":1720804120,"current_range_meters":14800,"station_id":"ce4bgip2rcd13ifvqbb0","pricing_plan_id":"cebpf4jnsgd1na2vs0mg"},{"bike_id":"973ade45-b5c9-4cc3-bbdc-c26b98b56a4f","system_id":"levelo_inurba_marseille","lat":43.296263,"lon":5.377094,"is_reserved":false,"is_disabled":false,"rental_uris":{"android":"levelo://app?vid=973ade45-b5c9-4cc3-bbdc-c26b98b56a4f","ios":"levelo://app?vid=973ade45-b5c9-4cc3-bbdc-c26b98b56a4f"},"vehicle_type_id":"4","last_reported":1720804120,"current_range_meters":0,"station_id":"ce4bgi92rcd13ifvqb90","pricing_plan_id":"cebpf4jnsgd1na2vs0mg"},{"bike_id":"f629a332-a8bd-43c6-a027-75914be445c3","system_id":"levelo_inurba_marseille","lat":43.295279,"lon":5.375048,"is_reserved":false,"is_disabled":false,"rental_uris":{"android":"levelo://app?vid=f629a332-a8bd-43c6-a027-75914be445c3","ios":"levelo://app?vid=f629a332-a8bd-43c6-a027-75914be445c3"},"vehicle_type_id":"4","last_reported":1720804120,"current_range_meters":24000,"station_id":"ce4bgkp2rcd13ifvqbmg","pricing_plan_id":"cebpf4jnsgd1na2vs0mg"},{"bike_id":"ef5c6745-41b4-4747-8a70-7dba09c322ee","system_id":"levelo_inurba_marseille","lat":43.30143,"lon":5.38787,"is_reserved":false,"is_disabled":false,"rental_uris":{"android":"levelo://app?vid=ef5c6745-41b4-4747-8a70-7dba09c322ee","ios":"levelo://app?vid=ef5c6745-41b4-4747-8a70-7dba09c322ee"},"vehicle_type_id":"4","last_reported":1720804120,"current_range_meters":10400,"station_id":"ce4bghh2rcd13ifvqb60","pricing_plan_id":"cebpf4jnsgd1na2vs0mg"},{"bike_id":"eda3f9e5-e424-4959-a9bd-c01fc6b0120a","system_id":"levelo_inurba_marseille","lat":43.32367,"lon":5.388836,"is_reserved":false,"is_disabled":false,"rental_uris":{"android":"levelo://app?vid=eda3f9e5-e424-4959-a9bd-c01fc6b0120a","ios":"levelo://app?vid=eda3f9e5-e424-4959-a9bd-c01fc6b0120a"},"vehicle_type_id":"4","last_reported":1720804120,"current_range_meters":18400,"station_id":"ce4bhqp2rcd13ifvqhog","pricing_plan_id":"cebpf4jnsgd1na2vs0mg"},{"bike_id":"017f44ef-be32-4f34-a701-a94c61f2f293","system_id":"levelo_inurba_marseille","lat":43.29602,"lon":5.381084,"is_reserved":false,"is_disabled":false,"rental_uris":{"android":"levelo://app?vid=017f44ef-be32-4f34-a701-a94c61f2f293","ios":"levelo://app?vid=017f44ef-be32-4f34-a701-a94c61f2f293"},"vehicle_type_id":"4","last_reported":1720804120,"current_range_meters":0,"station_id":"ce4bgl12rcd13ifvqbo0","pricing_plan_id":"cebpf4jnsgd1na2vs0mg"},{"bike_id":"a741070e-be0c-46fd-9cbe-a0f8eb422786","system_id":"levelo_inurba_marseille","lat":43.296,"lon":5.38105,"is_reserved":false,"is_disabled":false,"rental_uris":{"android":"levelo://app?vid=a741070e-be0c-46fd-9cbe-a0f8eb422786","ios":"levelo://app?vid=a741070e-be0c-46fd-9cbe-a0f8eb422786"},"vehicle_type_id":"4","last_reported":1720804120,"current_range_meters":4800,"station_id":"ce4bgl12rcd13ifvqbo0","pricing_plan_id":"cebpf4jnsgd1na2vs0mg"},{"bike_id":"8849adb9-1b4e-46bf-91bb-a14405623c4e","system_id":"levelo_inurba_marseille","lat":43.295971,"lon":5.38101,"is_reserved":false,"is_disabled":false,"rental_uris":{"android":"levelo://app?vid=8849adb9-1b4e-46bf-91bb-a14405623c4e","ios":"levelo://app?vid=8849adb9-1b4e-46bf-91bb-a14405623c4e"},"vehicle_type_id":"4","last_reported":1720804120,"current_range_meters":20000,"station_id":"ce4bgl12rcd13ifvqbo0","pricing_plan_id":"cebpf4jnsgd1na2vs0mg"},{"bike_id":"a023a325-8c2e-4228-9d03-65f1fa607b4c","system_id":"levelo_inurba_marseille","lat":43.29597,"lon":5.38113,"is_reserved":false,"is_disabled":false,"rental_uris":{"android":"levelo://app?vid=a023a325-8c2e-4228-9d03-65f1fa607b4c","ios":"levelo://app?vid=a023a325-8c2e-4228-9d03-65f1fa607b4c"},"vehicle_type_id":"4","last_reported":1720804120,"current_range_meters":6000,"station_id":"ce4bgl12rcd13ifvqbo0","pricing_plan_id":"cebpf4jnsgd1na2vs0mg"},{"bike_id":"2b663512-3d4d-4ec2-ba4c-17228a680663","system_id":"levelo_inurba_marseille","lat":43.29304,"lon":5.37177,"is_reserved":false,"is_disabled":false,"rental_uris":{"android":"levelo://app?vid=2b663512-3d4d-4ec2-ba4c-17228a680663","ios":"levelo://app?vid=2b663512-3d4d-4ec2-ba4c-17228a680663"},"vehicle_type_id":"4","last_reported":1720804120,"current_range_meters":0,"station_id":"ce4bgh92rcd13ifvqb40","pricing_plan_id":"cebpf4jnsgd1na2vs0mg"},{"bike_id":"d4b97e15-5fca-41de-b525-3f12335ea674","system_id":"levelo_inurba_marseille","lat":43.302232,"lon":5.390392,"is_reserved":false,"is_disabled":false,"rental_uris":{"android":"levelo://app?vid=d4b97e15-5fca-41de-b525-3f12335ea674","ios":"levelo://app?vid=d4b97e15-5fca-41de-b525-3f12335ea674"},"vehicle_type_id":"4","last_reported":1720804120,"current_range_meters":1200,"station_id":"","pricing_plan_id":"cebpf4jnsgd1na2vs0mg"},{"bike_id":"eaafaf73-3209-442f-8a0d-3eaae919d508","system_id":"levelo_inurba_marseille","lat":43.293009,"lon":5.374584,"is_reserved":false,"is_disabled":false,"rental_uris":{"android":"levelo://app?vid=eaafaf73-3209-442f-8a0d-3eaae919d508","ios":"levelo://app?vid=eaafaf73-3209-442f-8a0d-3eaae919d508"},"vehicle_type_id":"4","last_reported":1720804120,"current_range_meters":0,"station_id":"ce4bgi12rcd13ifvqb70","pricing_plan_id":"cebpf4jnsgd1na2vs0mg"},{"bike_id":"8bf84428-27cd-4470-82a2-4f962e69a7b7","system_id":"levelo_inurba_marseille","lat":43.293,"lon":5.37453,"is_reserved":false,"is_disabled":false,"rental_uris":{"android":"levelo://app?vid=8bf84428-27cd-4470-82a2-4f962e69a7b7","ios":"levelo://app?vid=8bf84428-27cd-4470-82a2-4f962e69a7b7"},"vehicle_type_id":"4","last_reported":1720804120,"current_range_meters":0,"station_id":"ce4bgi12rcd13ifvqb70","pricing_plan_id":"cebpf4jnsgd1na2vs0mg"},{"bike_id":"6545f2fc-54fc-4151-8f58-ff3738800411","system_id":"levelo_inurba_marseille","lat":43.305994,"lon":5.393687,"is_reserved":false,"is_disabled":false,"rental_uris":{"android":"levelo://app?vid=6545f2fc-54fc-4151-8f58-ff3738800411","ios":"levelo://app?vid=6545f2fc-54fc-4151-8f58-ff3738800411"},"vehicle_type_id":"4","last_reported":1720804120,"current_range_meters":10800,"station_id":"ce4bh0p2rcd13ifvqd80","pricing_plan_id":"cebpf4jnsgd1na2vs0mg"},{"bike_id":"b0a8c872-ee0d-434e-ae8b-e83f84e89c67","system_id":"levelo_inurba_marseille","lat":43.2923,"lon":5.36234,"is_reserved":false,"is_disabled":false,"rental_uris":{"android":"levelo://app?vid=b0a8c872-ee0d-434e-ae8b-e83f84e89c67","ios":"levelo://app?vid=b0a8c872-ee0d-434e-ae8b-e83f84e89c67"},"vehicle_type_id":"4","last_reported":1720804120,"current_range_meters":0,"station_id":"","pricing_plan_id":"cebpf4jnsgd1na2vs0mg"},{"bike_id":"b08eed03-b5ae-4af1-8386-a3cfa26922ce","system_id":"levelo_inurba_marseille","lat":43.302992,"lon":5.392136,"is_reserved":false,"is_disabled":false,"rental_uris":{"android":"levelo://app?vid=b08eed03-b5ae-4af1-8386-a3cfa26922ce","ios":"levelo://app?vid=b08eed03-b5ae-4af1-8386-a3cfa26922ce"},"vehicle_type_id":"4","last_reported":1720804120,"current_range_meters":0,"station_id":"ce4bgkh2rcd13ifvqbk0","pricing_plan_id":"cebpf4jnsgd1na2vs0mg"},{"bike_id":"67f30a42-56b7-4859-a9da-6fdfe74cc45d","system_id":"levelo_inurba_marseille","lat":43.2936,"lon":5.37835,"is_reserved":false,"is_disabled":false,"rental_uris":{"android":"levelo://app?vid=67f30a42-56b7-4859-a9da-6fdfe74cc45d","ios":"levelo://app?vid=67f30a42-56b7-4859-a9da-6fdfe74cc45d"},"vehicle_type_id":"4","last_reported":1720804120,"current_range_meters":0,"station_id":"ce4bgjh2rcd13ifvqbf0","pricing_plan_id":"cebpf4jnsgd1na2vs0mg"},{"bike_id":"3e451a06-34fa-4d1b-a051-144a1de8d4fe","system_id":"levelo_inurba_marseille","lat":43.302992,"lon":5.392136,"is_reserved":false,"is_disabled":false,"rental_uris":{"android":"levelo://app?vid=3e451a06-34fa-4d1b-a051-144a1de8d4fe","ios":"levelo://app?vid=3e451a06-34fa-4d1b-a051-144a1de8d4fe"},"vehicle_type_id":"4","last_reported":1720804120,"current_range_meters":800,"station_id":"ce4bgkh2rcd13ifvqbk0","pricing_plan_id":"cebpf4jnsgd1na2vs0mg"},{"bike_id":"56e5a668-b28a-49b7-950a-49987f2da033","system_id":"levelo_inurba_marseille","lat":43.2937,"lon":5.37858,"is_reserved":false,"is_disabled":false,"rental_uris":{"android":"levelo://app?vid=56e5a668-b28a-49b7-950a-49987f2da033","ios":"levelo://app?vid=56e5a668-b28a-49b7-950a-49987f2da033"},"vehicle_type_id":"4","last_reported":1720804120,"current_range_meters":0,"station_id":"ce4bgjh2rcd13ifvqbf0","pricing_plan_id":"cebpf4jnsgd1na2vs0mg"},{"bike_id":"3b728f96-00b9-41da-8eba-f3c0fb91c890","system_id":"levelo_inurba_marseille","lat":43.292311,"lon":5.360731,"is_reserved":false,"is_disabled":false,"rental_uris":{"android":"levelo://app?vid=3b728f96-00b9-41da-8eba-f3c0fb91c890","ios":"levelo://app?vid=3b728f96-00b9-41da-8eba-f3c0fb91c890"},"vehicle_type_id":"4","last_reported":1720804120,"current_range_meters":3600,"station_id":"ce4bhbh2rcd13ifvqeqg","pricing_plan_id":"cebpf4jnsgd1na2vs0mg"},{"bike_id":"dbb7ee79-21a2-4492-811b-2e7f37f7be84","system_id":"levelo_inurba_marseille","lat":43.292311,"lon":5.360731,"is_reserved":false,"is_disabled":false,"rental_uris":{"android":"levelo://app?vid=dbb7ee79-21a2-4492-811b-2e7f37f7be84","ios":"levelo://app?vid=dbb7ee79-21a2-4492-811b-2e7f37f7be84"},"vehicle_type_id":"4","last_reported":1720804120,"current_range_meters":0,"station_id":"ce4bhbh2rcd13ifvqeqg","pricing_plan_id":"cebpf4jnsgd1na2vs0mg"},{"bike_id":"0925409a-56c7-4ebd-80b2-63111757220f","system_id":"levelo_inurba_marseille","lat":43.29223,"lon":5.36074,"is_reserved":false,"is_disabled":false,"rental_uris":{"android":"levelo://app?vid=0925409a-56c7-4ebd-80b2-63111757220f","ios":"levelo://app?vid=0925409a-56c7-4ebd-80b2-63111757220f"},"vehicle_type_id":"4","last_reported":1720804120,"current_range_meters":31200,"station_id":"ce4bhbh2rcd13ifvqeqg","pricing_plan_id":"cebpf4jnsgd1na2vs0mg"},{"bike_id":"a0a0eea7-ddc8-4928-86cd-a4c5c9848dd8","system_id":"levelo_inurba_marseille","lat":43.300852,"lon":5.390859,"is_reserved":false,"is_disabled":false,"rental_uris":{"android":"levelo://app?vid=a0a0eea7-ddc8-4928-86cd-a4c5c9848dd8","ios":"levelo://app?vid=a0a0eea7-ddc8-4928-86cd-a4c5c9848dd8"},"vehicle_type_id":"4","last_reported":1720804120,"current_range_meters":0,"station_id":"ce4bh192rcd13ifvqdb0","pricing_plan_id":"cebpf4jnsgd1na2vs0mg"},{"bike_id":"726d195a-1d64-411f-977b-8ad7cf6eb61c","system_id":"levelo_inurba_marseille","lat":43.292311,"lon":5.360731,"is_reserved":false,"is_disabled":false,"rental_uris":{"android":"levelo://app?vid=726d195a-1d64-411f-977b-8ad7cf6eb61c","ios":"levelo://app?vid=726d195a-1d64-411f-977b-8ad7cf6eb61c"},"vehicle_type_id":"4","last_reported":1720804120,"current_range_meters":30000,"station_id":"ce4bhbh2rcd13ifvqeqg","pricing_plan_id":"cebpf4jnsgd1na2vs0mg"},{"bike_id":"bf7f167b-9127-4a19-b43e-35bcf7debd62","system_id":"levelo_inurba_marseille","lat":43.292311,"lon":5.360731,"is_reserved":false,"is_disabled":false,"rental_uris":{"android":"levelo://app?vid=bf7f167b-9127-4a19-b43e-35bcf7debd62","ios":"levelo://app?vid=bf7f167b-9127-4a19-b43e-35bcf7debd62"},"vehicle_type_id":"4","last_reported":1720804120,"current_range_meters":25600,"station_id":"ce4bhbh2rcd13ifvqeqg","pricing_plan_id":"cebpf4jnsgd1na2vs0mg"},{"bike_id":"0ac022a8-d270-4eec-acf2-1596d88ad7af","system_id":"levelo_inurba_marseille","lat":43.30085,"lon":5.390856,"is_reserved":false,"is_disabled":false,"rental_uris":{"android":"levelo://app?vid=0ac022a8-d270-4eec-acf2-1596d88ad7af","ios":"levelo://app?vid=0ac022a8-d270-4eec-acf2-1596d88ad7af"},"vehicle_type_id":"4","last_reported":1720804120,"current_range_meters":0,"station_id":"ce4bh192rcd13ifvqdb0","pricing_plan_id":"cebpf4jnsgd1na2vs0mg"},{"bike_id":"4d60a191-53ed-414a-be5e-57ae4fe694f9","system_id":"levelo_inurba_marseille","lat":43.29881,"lon":5.38904,"is_reserved":false,"is_disabled":false,"rental_uris":{"android":"levelo://app?vid=4d60a191-53ed-414a-be5e-57ae4fe694f9","ios":"levelo://app?vid=4d60a191-53ed-414a-be5e-57ae4fe694f9"},"vehicle_type_id":"4","last_reported":1720804120,"current_range_meters":9600,"station_id":"ce4bh392rcd13ifvqdl0","pricing_plan_id":"cebpf4jnsgd1na2vs0mg"},{"bike_id":"c5048464-21bd-4106-814f-f00a900e3486","system_id":"levelo_inurba_marseille","lat":43.298764,"lon":5.388973,"is_reserved":false,"is_disabled":false,"rental_uris":{"android":"levelo://app?vid=c5048464-21bd-4106-814f-f00a900e3486","ios":"levelo://app?vid=c5048464-21bd-4106-814f-f00a900e3486"},"vehicle_type_id":"4","last_reported":1720804120,"current_range_meters":22400,"station_id":"ce4bh392rcd13ifvqdl0","pricing_plan_id":"cebpf4jnsgd1na2vs0mg"},{"bike_id":"ab3eb763-e156-4c04-ab49-47db6dc6e31f","system_id":"levelo_inurba_marseille","lat":43.291671,"lon":5.371575,"is_reserved":false,"is_disabled":false,"rental_uris":{"android":"levelo://app?vid=ab3eb763-e156-4c04-ab49-47db6dc6e31f","ios":"levelo://app?vid=ab3eb763-e156-4c04-ab49-47db6dc6e31f"},"vehicle_type_id":"4","last_reported":1720804120,"current_range_meters":11600,"station_id":"ce4bha92rcd13ifvqeh0","pricing_plan_id":"cebpf4jnsgd1na2vs0mg"},{"bike_id":"f9a0c73e-9cc0-4f9a-9e5a-b4c34e824287","system_id":"levelo_inurba_marseille","lat":43.29874,"lon":5.38912,"is_reserved":false,"is_disabled":false,"rental_uris":{"android":"levelo://app?vid=f9a0c73e-9cc0-4f9a-9e5a-b4c34e824287","ios":"levelo://app?vid=f9a0c73e-9cc0-4f9a-9e5a-b4c34e824287"},"vehicle_type_id":"4","last_reported":1720804120,"current_range_meters":0,"station_id":"ce4bh392rcd13ifvqdl0","pricing_plan_id":"cebpf4jnsgd1na2vs0mg"},{"bike_id":"5938bf3e-677b-47b7-ab84-11ca37b575d9","system_id":"levelo_inurba_marseille","lat":43.291671,"lon":5.371575,"is_reserved":false,"is_disabled":false,"rental_uris":{"android":"levelo://app?vid=5938bf3e-677b-47b7-ab84-11ca37b575d9","ios":"levelo://app?vid=5938bf3e-677b-47b7-ab84-11ca37b575d9"},"vehicle_type_id":"4","last_reported":1720804120,"current_range_meters":0,"station_id":"ce4bha92rcd13ifvqeh0","pricing_plan_id":"cebpf4jnsgd1na2vs0mg"},{"bike_id":"9431a256-dbdb-46d8-afde-c23f8ee1e5fc","system_id":"levelo_inurba_marseille","lat":43.313291,"lon":5.396838,"is_reserved":false,"is_disabled":false,"rental_uris":{"android":"levelo://app?vid=9431a256-dbdb-46d8-afde-c23f8ee1e5fc","ios":"levelo://app?vid=9431a256-dbdb-46d8-afde-c23f8ee1e5fc"},"vehicle_type_id":"4","last_reported":1720804120,"current_range_meters":17600,"station_id":"ce4bgvp2rcd13ifvqcu0","pricing_plan_id":"cebpf4jnsgd1na2vs0mg"},{"bike_id":"87d12fc5-e6ab-47ce-937f-c1aeff3c9749","system_id":"levelo_inurba_marseille","lat":43.292005,"lon":5.357875,"is_reserved":false,"is_disabled":false,"rental_uris":{"android":"levelo://app?vid=87d12fc5-e6ab-47ce-937f-c1aeff3c9749","ios":"levelo://app?vid=87d12fc5-e6ab-47ce-937f-c1aeff3c9749"},"vehicle_type_id":"4","last_reported":1720804120,"current_range_meters":0,"station_id":"ce4bhb12rcd13ifvqel0","pricing_plan_id":"cebpf4jnsgd1na2vs0mg"},{"bike_id":"68356d0a-06ce-43de-bb55-2b51642a733a","system_id":"levelo_inurba_marseille","lat":43.29195,"lon":5.35802,"is_reserved":false,"is_disabled":false,"rental_uris":{"android":"levelo://app?vid=68356d0a-06ce-43de-bb55-2b51642a733a","ios":"levelo://app?vid=68356d0a-06ce-43de-bb55-2b51642a733a"},"vehicle_type_id":"4","last_reported":1720804120,"current_range_meters":0,"station_id":"ce4bhb12rcd13ifvqel0","pricing_plan_id":"cebpf4jnsgd1na2vs0mg"},{"bike_id":"97c62de6-0d97-472a-8792-6d3a48d05caf","system_id":"levelo_inurba_marseille","lat":43.291994,"lon":5.357886,"is_reserved":false,"is_disabled":false,"rental_uris":{"android":"levelo://app?vid=97c62de6-0d97-472a-8792-6d3a48d05caf","ios":"levelo://app?vid=97c62de6-0d97-472a-8792-6d3a48d05caf"},"vehicle_type_id":"4","last_reported":1720804120,"current_range_meters":31200,"station_id":"ce4bhb12rcd13ifvqel0","pricing_plan_id":"cebpf4jnsgd1na2vs0mg"},{"bike_id":"94674cb8-7b25-48f9-b241-7465af5b283c","system_id":"levelo_inurba_marseille","lat":43.291994,"lon":5.357886,"is_reserved":false,"is_disabled":false,"rental_uris":{"android":"levelo://app?vid=94674cb8-7b25-48f9-b241-7465af5b283c","ios":"levelo://app?vid=94674cb8-7b25-48f9-b241-7465af5b283c"},"vehicle_type_id":"4","last_reported":1720804120,"current_range_meters":31200,"station_id":"ce4bhb12rcd13ifvqel0","pricing_plan_id":"cebpf4jnsgd1na2vs0mg"},{"bike_id":"c77d75c4-9059-4c30-9242-f243c1a18b15","system_id":"levelo_inurba_marseille","lat":43.31335,"lon":5.39691,"is_reserved":false,"is_disabled":false,"rental_uris":{"android":"levelo://app?vid=c77d75c4-9059-4c30-9242-f243c1a18b15","ios":"levelo://app?vid=c77d75c4-9059-4c30-9242-f243c1a18b15"},"vehicle_type_id":"4","last_reported":1720804120,"current_range_meters":11200,"station_id":"ce4bgvp2rcd13ifvqcu0","pricing_plan_id":"cebpf4jnsgd1na2vs0mg"},{"bike_id":"be4a929e-0cbc-4ae0-857b-487d4b27631b","system_id":"levelo_inurba_marseille","lat":43.29189,"lon":5.35803,"is_reserved":false,"is_disabled":false,"rental_uris":{"android":"levelo://app?vid=be4a929e-0cbc-4ae0-857b-487d4b27631b","ios":"levelo://app?vid=be4a929e-0cbc-4ae0-857b-487d4b27631b"},"vehicle_type_id":"4","last_reported":1720804120,"current_range_meters":30400,"station_id":"ce4bhb12rcd13ifvqel0","pricing_plan_id":"cebpf4jnsgd1na2vs0mg"},{"bike_id":"8032cf97-ab0c-4652-a1a5-8825688fc5ee","system_id":"levelo_inurba_marseille","lat":43.309047,"lon":5.396551,"is_reserved":false,"is_disabled":false,"rental_uris":{"android":"levelo://app?vid=8032cf97-ab0c-4652-a1a5-8825688fc5ee","ios":"levelo://app?vid=8032cf97-ab0c-4652-a1a5-8825688fc5ee"},"vehicle_type_id":"4","last_reported":1720804120,"current_range_meters":11200,"station_id":"ce4bh012rcd13ifvqcv0","pricing_plan_id":"cebpf4jnsgd1na2vs0mg"},{"bike_id":"d0d46ed5-1e54-4cbd-9fb1-7f7660e889dc","system_id":"levelo_inurba_marseille","lat":43.29186,"lon":5.35804,"is_reserved":false,"is_disabled":false,"rental_uris":{"android":"levelo://app?vid=d0d46ed5-1e54-4cbd-9fb1-7f7660e889dc","ios":"levelo://app?vid=d0d46ed5-1e54-4cbd-9fb1-7f7660e889dc"},"vehicle_type_id":"4","last_reported":1720804120,"current_range_meters":800,"station_id":"ce4bhb12rcd13ifvqel0","pricing_plan_id":"cebpf4jnsgd1na2vs0mg"},{"bike_id":"28d5b7c5-3a93-4ad7-a383-f5bc6f717862","system_id":"levelo_inurba_marseille","lat":43.313291,"lon":5.396838,"is_reserved":false,"is_disabled":false,"rental_uris":{"android":"levelo://app?vid=28d5b7c5-3a93-4ad7-a383-f5bc6f717862","ios":"levelo://app?vid=28d5b7c5-3a93-4ad7-a383-f5bc6f717862"},"vehicle_type_id":"4","last_reported":1720804120,"current_range_meters":7600,"station_id":"ce4bgvp2rcd13ifvqcu0","pricing_plan_id":"cebpf4jnsgd1na2vs0mg"},{"bike_id":"bb7f33b4-0681-41c9-ad4f-fbe8cacf60a9","system_id":"levelo_inurba_marseille","lat":43.309047,"lon":5.396551,"is_reserved":false,"is_disabled":false,"rental_uris":{"android":"levelo://app?vid=bb7f33b4-0681-41c9-ad4f-fbe8cacf60a9","ios":"levelo://app?vid=bb7f33b4-0681-41c9-ad4f-fbe8cacf60a9"},"vehicle_type_id":"4","last_reported":1720804120,"current_range_meters":3200,"station_id":"ce4bh012rcd13ifvqcv0","pricing_plan_id":"cebpf4jnsgd1na2vs0mg"},{"bike_id":"90ebf537-9d6d-4393-b6e9-a628a8d611a4","system_id":"levelo_inurba_marseille","lat":43.309038,"lon":5.396546,"is_reserved":false,"is_disabled":false,"rental_uris":{"android":"levelo://app?vid=90ebf537-9d6d-4393-b6e9-a628a8d611a4","ios":"levelo://app?vid=90ebf537-9d6d-4393-b6e9-a628a8d611a4"},"vehicle_type_id":"4","last_reported":1720804120,"current_range_meters":13600,"station_id":"ce4bh012rcd13ifvqcv0","pricing_plan_id":"cebpf4jnsgd1na2vs0mg"},{"bike_id":"286e01eb-610b-4c22-a68a-0e8f9c089e32","system_id":"levelo_inurba_marseille","lat":43.290779,"lon":5.371482,"is_reserved":false,"is_disabled":false,"rental_uris":{"android":"levelo://app?vid=286e01eb-610b-4c22-a68a-0e8f9c089e32","ios":"levelo://app?vid=286e01eb-610b-4c22-a68a-0e8f9c089e32"},"vehicle_type_id":"4","last_reported":1720804120,"current_range_meters":2800,"station_id":"ce4bh5p2rcd13ifvqe4g","pricing_plan_id":"cebpf4jnsgd1na2vs0mg"},{"bike_id":"84ad0766-54d7-4f09-b25d-744752bb0177","system_id":"levelo_inurba_marseille","lat":43.290779,"lon":5.371482,"is_reserved":false,"is_disabled":false,"rental_uris":{"android":"levelo://app?vid=84ad0766-54d7-4f09-b25d-744752bb0177","ios":"levelo://app?vid=84ad0766-54d7-4f09-b25d-744752bb0177"},"vehicle_type_id":"4","last_reported":1720804120,"current_range_meters":14000,"station_id":"ce4bh5p2rcd13ifvqe4g","pricing_plan_id":"cebpf4jnsgd1na2vs0mg"},{"bike_id":"bff56a2a-233a-4255-81f9-6164e5171c7d","system_id":"levelo_inurba_marseille","lat":43.290779,"lon":5.371482,"is_reserved":false,"is_disabled":false,"rental_uris":{"android":"levelo://app?vid=bff56a2a-233a-4255-81f9-6164e5171c7d","ios":"levelo://app?vid=bff56a2a-233a-4255-81f9-6164e5171c7d"},"vehicle_type_id":"4","last_reported":1720804120,"current_range_meters":10800,"station_id":"ce4bh5p2rcd13ifvqe4g","pricing_plan_id":"cebpf4jnsgd1na2vs0mg"},{"bike_id":"d7593862-4105-421e-9d84-2961cd85e72d","system_id":"levelo_inurba_marseille","lat":43.3021,"lon":5.39467,"is_reserved":false,"is_disabled":false,"rental_uris":{"android":"levelo://app?vid=d7593862-4105-421e-9d84-2961cd85e72d","ios":"levelo://app?vid=d7593862-4105-421e-9d84-2961cd85e72d"},"vehicle_type_id":"4","last_reported":1720804120,"current_range_meters":0,"station_id":"ce4bh0p2rcd13ifvqd70","pricing_plan_id":"cebpf4jnsgd1na2vs0mg"},{"bike_id":"69d5587a-7a92-49e7-8e86-5a2cbb5d2621","system_id":"levelo_inurba_marseille","lat":43.290624,"lon":5.359245,"is_reserved":false,"is_disabled":false,"rental_uris":{"android":"levelo://app?vid=69d5587a-7a92-49e7-8e86-5a2cbb5d2621","ios":"levelo://app?vid=69d5587a-7a92-49e7-8e86-5a2cbb5d2621"},"vehicle_type_id":"4","last_reported":1720804120,"current_range_meters":8000,"station_id":"ce4bha92rcd13ifvqeg0","pricing_plan_id":"cebpf4jnsgd1na2vs0mg"},{"bike_id":"7eb5faa7-2bc6-4d35-bce3-64c629f70055","system_id":"levelo_inurba_marseille","lat":43.294153,"lon":5.386305,"is_reserved":false,"is_disabled":false,"rental_uris":{"android":"levelo://app?vid=7eb5faa7-2bc6-4d35-bce3-64c629f70055","ios":"levelo://app?vid=7eb5faa7-2bc6-4d35-bce3-64c629f70055"},"vehicle_type_id":"4","last_reported":1720804120,"current_range_meters":29600,"station_id":"ce4bh2h2rcd13ifvqdh0","pricing_plan_id":"cebpf4jnsgd1na2vs0mg"},{"bike_id":"15f51561-3a5a-46da-b999-4d06a6a1b89e","system_id":"levelo_inurba_marseille","lat":43.290327,"lon":5.375711,"is_reserved":false,"is_disabled":false,"rental_uris":{"android":"levelo://app?vid=15f51561-3a5a-46da-b999-4d06a6a1b89e","ios":"levelo://app?vid=15f51561-3a5a-46da-b999-4d06a6a1b89e"},"vehicle_type_id":"4","last_reported":1720804120,"current_range_meters":0,"station_id":"ce4bh692rcd13ifvqe90","pricing_plan_id":"cebpf4jnsgd1na2vs0mg"},{"bike_id":"df1f4b14-5792-4143-af9d-ef95c99e4f24","system_id":"levelo_inurba_marseille","lat":43.29038,"lon":5.37552,"is_reserved":false,"is_disabled":false,"rental_uris":{"android":"levelo://app?vid=df1f4b14-5792-4143-af9d-ef95c99e4f24","ios":"levelo://app?vid=df1f4b14-5792-4143-af9d-ef95c99e4f24"},"vehicle_type_id":"4","last_reported":1720804120,"current_range_meters":2800,"station_id":"ce4bh692rcd13ifvqe90","pricing_plan_id":"cebpf4jnsgd1na2vs0mg"},{"bike_id":"62a0dec4-3db8-496d-990e-5d160043a407","system_id":"levelo_inurba_marseille","lat":43.290319,"lon":5.375732,"is_reserved":false,"is_disabled":false,"rental_uris":{"android":"levelo://app?vid=62a0dec4-3db8-496d-990e-5d160043a407","ios":"levelo://app?vid=62a0dec4-3db8-496d-990e-5d160043a407"},"vehicle_type_id":"4","last_reported":1720804120,"current_range_meters":0,"station_id":"ce4bh692rcd13ifvqe90","pricing_plan_id":"cebpf4jnsgd1na2vs0mg"},{"bike_id":"cb4bf69b-e044-4dcb-8eda-2830137bc1c2","system_id":"levelo_inurba_marseille","lat":43.294162,"lon":5.386292,"is_reserved":false,"is_disabled":false,"rental_uris":{"android":"levelo://app?vid=cb4bf69b-e044-4dcb-8eda-2830137bc1c2","ios":"levelo://app?vid=cb4bf69b-e044-4dcb-8eda-2830137bc1c2"},"vehicle_type_id":"4","last_reported":1720804120,"current_range_meters":25600,"station_id":"ce4bh2h2rcd13ifvqdh0","pricing_plan_id":"cebpf4jnsgd1na2vs0mg"},{"bike_id":"9d4c6bb1-5f08-4788-8984-22827d936156","system_id":"levelo_inurba_marseille","lat":43.29419,"lon":5.38629,"is_reserved":false,"is_disabled":false,"rental_uris":{"android":"levelo://app?vid=9d4c6bb1-5f08-4788-8984-22827d936156","ios":"levelo://app?vid=9d4c6bb1-5f08-4788-8984-22827d936156"},"vehicle_type_id":"4","last_reported":1720804120,"current_range_meters":0,"station_id":"ce4bh2h2rcd13ifvqdh0","pricing_plan_id":"cebpf4jnsgd1na2vs0mg"},{"bike_id":"f28477aa-f5db-4f1a-a9f2-9b84fd899afc","system_id":"levelo_inurba_marseille","lat":43.29416,"lon":5.38635,"is_reserved":false,"is_disabled":false,"rental_uris":{"android":"levelo://app?vid=f28477aa-f5db-4f1a-a9f2-9b84fd899afc","ios":"levelo://app?vid=f28477aa-f5db-4f1a-a9f2-9b84fd899afc"},"vehicle_type_id":"4","last_reported":1720804120,"current_range_meters":0,"station_id":"ce4bh2h2rcd13ifvqdh0","pricing_plan_id":"cebpf4jnsgd1na2vs0mg"},{"bike_id":"a1d8f113-c4d5-4d20-98cf-80a024c09da9","system_id":"levelo_inurba_marseille","lat":43.289184,"lon":5.366408,"is_reserved":false,"is_disabled":false,"rental_uris":{"android":"levelo://app?vid=a1d8f113-c4d5-4d20-98cf-80a024c09da9","ios":"levelo://app?vid=a1d8f113-c4d5-4d20-98cf-80a024c09da9"},"vehicle_type_id":"4","last_reported":1720804120,"current_range_meters":12400,"station_id":"ce4bhap2rcd13ifvqek0","pricing_plan_id":"cebpf4jnsgd1na2vs0mg"},{"bike_id":"73f284c0-96a1-44a4-9972-e2d5642f7849","system_id":"levelo_inurba_marseille","lat":43.289184,"lon":5.366408,"is_reserved":false,"is_disabled":false,"rental_uris":{"android":"levelo://app?vid=73f284c0-96a1-44a4-9972-e2d5642f7849","ios":"levelo://app?vid=73f284c0-96a1-44a4-9972-e2d5642f7849"},"vehicle_type_id":"4","last_reported":1720804120,"current_range_meters":0,"station_id":"ce4bhap2rcd13ifvqek0","pricing_plan_id":"cebpf4jnsgd1na2vs0mg"},{"bike_id":"3923fb3d-bd1b-46ba-9bc8-eae006f8b47a","system_id":"levelo_inurba_marseille","lat":43.28925,"lon":5.36629,"is_reserved":false,"is_disabled":false,"rental_uris":{"android":"levelo://app?vid=3923fb3d-bd1b-46ba-9bc8-eae006f8b47a","ios":"levelo://app?vid=3923fb3d-bd1b-46ba-9bc8-eae006f8b47a"},"vehicle_type_id":"4","last_reported":1720804120,"current_range_meters":0,"station_id":"ce4bhap2rcd13ifvqek0","pricing_plan_id":"cebpf4jnsgd1na2vs0mg"},{"bike_id":"ddd602b6-6481-461c-b226-31ec82893606","system_id":"levelo_inurba_marseille","lat":43.304296,"lon":5.397513,"is_reserved":false,"is_disabled":false,"rental_uris":{"android":"levelo://app?vid=ddd602b6-6481-461c-b226-31ec82893606","ios":"levelo://app?vid=ddd602b6-6481-461c-b226-31ec82893606"},"vehicle_type_id":"4","last_reported":1720804120,"current_range_meters":16000,"station_id":"ce4bh092rcd13ifvqd20","pricing_plan_id":"cebpf4jnsgd1na2vs0mg"},{"bike_id":"d12eca49-3b1e-4544-be93-a164637cd89d","system_id":"levelo_inurba_marseille","lat":43.304296,"lon":5.397513,"is_reserved":false,"is_disabled":false,"rental_uris":{"android":"levelo://app?vid=d12eca49-3b1e-4544-be93-a164637cd89d","ios":"levelo://app?vid=d12eca49-3b1e-4544-be93-a164637cd89d"},"vehicle_type_id":"4","last_reported":1720804120,"current_range_meters":2400,"station_id":"ce4bh092rcd13ifvqd20","pricing_plan_id":"cebpf4jnsgd1na2vs0mg"},{"bike_id":"94249d7a-36f4-44e8-9f47-00e847c8b0a0","system_id":"levelo_inurba_marseille","lat":43.292644,"lon":5.384257,"is_reserved":false,"is_disabled":false,"rental_uris":{"android":"levelo://app?vid=94249d7a-36f4-44e8-9f47-00e847c8b0a0","ios":"levelo://app?vid=94249d7a-36f4-44e8-9f47-00e847c8b0a0"},"vehicle_type_id":"4","last_reported":1720804120,"current_range_meters":0,"station_id":"ce4bh692rcd13ifvqea0","pricing_plan_id":"cebpf4jnsgd1na2vs0mg"},{"bike_id":"8806bc5b-6d57-4243-af08-8fee2e90650e","system_id":"levelo_inurba_marseille","lat":43.292644,"lon":5.384257,"is_reserved":false,"is_disabled":false,"rental_uris":{"android":"levelo://app?vid=8806bc5b-6d57-4243-af08-8fee2e90650e","ios":"levelo://app?vid=8806bc5b-6d57-4243-af08-8fee2e90650e"},"vehicle_type_id":"4","last_reported":1720804120,"current_range_meters":0,"station_id":"ce4bh692rcd13ifvqea0","pricing_plan_id":"cebpf4jnsgd1na2vs0mg"},{"bike_id":"e63994ea-a1b2-434c-9c5e-fcf022c5f5ae","system_id":"levelo_inurba_marseille","lat":43.292644,"lon":5.384257,"is_reserved":false,"is_disabled":false,"rental_uris":{"android":"levelo://app?vid=e63994ea-a1b2-434c-9c5e-fcf022c5f5ae","ios":"levelo://app?vid=e63994ea-a1b2-434c-9c5e-fcf022c5f5ae"},"vehicle_type_id":"4","last_reported":1720804120,"current_range_meters":9200,"station_id":"ce4bh692rcd13ifvqea0","pricing_plan_id":"cebpf4jnsgd1na2vs0mg"},{"bike_id":"1362d99e-1a25-4a94-bc52-519304c78cb5","system_id":"levelo_inurba_marseille","lat":43.292644,"lon":5.384257,"is_reserved":false,"is_disabled":false,"rental_uris":{"android":"levelo://app?vid=1362d99e-1a25-4a94-bc52-519304c78cb5","ios":"levelo://app?vid=1362d99e-1a25-4a94-bc52-519304c78cb5"},"vehicle_type_id":"4","last_reported":1720804120,"current_range_meters":4800,"station_id":"ce4bh692rcd13ifvqea0","pricing_plan_id":"cebpf4jnsgd1na2vs0mg"},{"bike_id":"6bba2275-5223-4236-864d-d547e6ab7d36","system_id":"levelo_inurba_marseille","lat":43.290103,"lon":5.356114,"is_reserved":false,"is_disabled":false,"rental_uris":{"android":"levelo://app?vid=6bba2275-5223-4236-864d-d547e6ab7d36","ios":"levelo://app?vid=6bba2275-5223-4236-864d-d547e6ab7d36"},"vehicle_type_id":"4","last_reported":1720804120,"current_range_meters":5200,"station_id":"ce4bhb92rcd13ifvqen0","pricing_plan_id":"cebpf4jnsgd1na2vs0mg"},{"bike_id":"7de947a5-0a35-4746-b3bc-229557fdb8f8","system_id":"levelo_inurba_marseille","lat":43.290093,"lon":5.35616,"is_reserved":false,"is_disabled":false,"rental_uris":{"android":"levelo://app?vid=7de947a5-0a35-4746-b3bc-229557fdb8f8","ios":"levelo://app?vid=7de947a5-0a35-4746-b3bc-229557fdb8f8"},"vehicle_type_id":"4","last_reported":1720804120,"current_range_meters":31200,"station_id":"ce4bhb92rcd13ifvqen0","pricing_plan_id":"cebpf4jnsgd1na2vs0mg"},{"bike_id":"294ae34c-6804-447f-86be-f957d3b4cf22","system_id":"levelo_inurba_marseille","lat":43.290104,"lon":5.356111,"is_reserved":false,"is_disabled":false,"rental_uris":{"android":"levelo://app?vid=294ae34c-6804-447f-86be-f957d3b4cf22","ios":"levelo://app?vid=294ae34c-6804-447f-86be-f957d3b4cf22"},"vehicle_type_id":"4","last_reported":1720804120,"current_range_meters":31600,"station_id":"ce4bhb92rcd13ifvqen0","pricing_plan_id":"cebpf4jnsgd1na2vs0mg"},{"bike_id":"c5d6bcb9-7e16-4c99-8891-4efb3c79f65f","system_id":"levelo_inurba_marseille","lat":43.29009,"lon":5.356077,"is_reserved":false,"is_disabled":false,"rental_uris":{"android":"levelo://app?vid=c5d6bcb9-7e16-4c99-8891-4efb3c79f65f","ios":"levelo://app?vid=c5d6bcb9-7e16-4c99-8891-4efb3c79f65f"},"vehicle_type_id":"4","last_reported":1720804120,"current_range_meters":31200,"station_id":"ce4bhb92rcd13ifvqen0","pricing_plan_id":"cebpf4jnsgd1na2vs0mg"},{"bike_id":"aeffdeca-086c-4aa6-8985-b4d0a9eea240","system_id":"levelo_inurba_marseille","lat":43.290103,"lon":5.356114,"is_reserved":false,"is_disabled":false,"rental_uris":{"android":"levelo://app?vid=aeffdeca-086c-4aa6-8985-b4d0a9eea240","ios":"levelo://app?vid=aeffdeca-086c-4aa6-8985-b4d0a9eea240"},"vehicle_type_id":"4","last_reported":1720804120,"current_range_meters":19600,"station_id":"ce4bhb92rcd13ifvqen0","pricing_plan_id":"cebpf4jnsgd1na2vs0mg"},{"bike_id":"ad5adf20-fbd3-4d43-ab78-daccbcf358df","system_id":"levelo_inurba_marseille","lat":43.290103,"lon":5.356114,"is_reserved":false,"is_disabled":false,"rental_uris":{"android":"levelo://app?vid=ad5adf20-fbd3-4d43-ab78-daccbcf358df","ios":"levelo://app?vid=ad5adf20-fbd3-4d43-ab78-daccbcf358df"},"vehicle_type_id":"4","last_reported":1720804120,"current_range_meters":10800,"station_id":"ce4bhb92rcd13ifvqen0","pricing_plan_id":"cebpf4jnsgd1na2vs0mg"},{"bike_id":"0a509fd1-ea98-4c98-aa24-ab9a734aa473","system_id":"levelo_inurba_marseille","lat":43.290104,"lon":5.356111,"is_reserved":false,"is_disabled":false,"rental_uris":{"android":"levelo://app?vid=0a509fd1-ea98-4c98-aa24-ab9a734aa473","ios":"levelo://app?vid=0a509fd1-ea98-4c98-aa24-ab9a734aa473"},"vehicle_type_id":"4","last_reported":1720804120,"current_range_meters":11600,"station_id":"ce4bhb92rcd13ifvqen0","pricing_plan_id":"cebpf4jnsgd1na2vs0mg"},{"bike_id":"2feb12b7-b2a7-460d-bcf1-5029d21f11d7","system_id":"levelo_inurba_marseille","lat":43.290104,"lon":5.356111,"is_reserved":false,"is_disabled":false,"rental_uris":{"android":"levelo://app?vid=2feb12b7-b2a7-460d-bcf1-5029d21f11d7","ios":"levelo://app?vid=2feb12b7-b2a7-460d-bcf1-5029d21f11d7"},"vehicle_type_id":"4","last_reported":1720804120,"current_range_meters":30400,"station_id":"ce4bhb92rcd13ifvqen0","pricing_plan_id":"cebpf4jnsgd1na2vs0mg"},{"bike_id":"4a763ccf-eee4-49bb-b285-380d8b9345a0","system_id":"levelo_inurba_marseille","lat":43.29006,"lon":5.35611,"is_reserved":false,"is_disabled":false,"rental_uris":{"android":"levelo://app?vid=4a763ccf-eee4-49bb-b285-380d8b9345a0","ios":"levelo://app?vid=4a763ccf-eee4-49bb-b285-380d8b9345a0"},"vehicle_type_id":"4","last_reported":1720804120,"current_range_meters":3600,"station_id":"ce4bhb92rcd13ifvqen0","pricing_plan_id":"cebpf4jnsgd1na2vs0mg"},{"bike_id":"3ca4bd57-da55-4076-8f5b-e9164bee43b9","system_id":"levelo_inurba_marseille","lat":43.290104,"lon":5.356111,"is_reserved":false,"is_disabled":false,"rental_uris":{"android":"levelo://app?vid=3ca4bd57-da55-4076-8f5b-e9164bee43b9","ios":"levelo://app?vid=3ca4bd57-da55-4076-8f5b-e9164bee43b9"},"vehicle_type_id":"4","last_reported":1720804120,"current_range_meters":17600,"station_id":"ce4bhb92rcd13ifvqen0","pricing_plan_id":"cebpf4jnsgd1na2vs0mg"},{"bike_id":"143b540a-baf3-4569-a224-5573730fbe02","system_id":"levelo_inurba_marseille","lat":43.290104,"lon":5.356111,"is_reserved":false,"is_disabled":false,"rental_uris":{"android":"levelo://app?vid=143b540a-baf3-4569-a224-5573730fbe02","ios":"levelo://app?vid=143b540a-baf3-4569-a224-5573730fbe02"},"vehicle_type_id":"4","last_reported":1720804120,"current_range_meters":31600,"station_id":"ce4bhb92rcd13ifvqen0","pricing_plan_id":"cebpf4jnsgd1na2vs0mg"},{"bike_id":"7bbcfcdf-3f57-4177-b913-94805fb2745e","system_id":"levelo_inurba_marseille","lat":43.290104,"lon":5.356111,"is_reserved":false,"is_disabled":false,"rental_uris":{"android":"levelo://app?vid=7bbcfcdf-3f57-4177-b913-94805fb2745e","ios":"levelo://app?vid=7bbcfcdf-3f57-4177-b913-94805fb2745e"},"vehicle_type_id":"4","last_reported":1720804120,"current_range_meters":22800,"station_id":"ce4bhb92rcd13ifvqen0","pricing_plan_id":"cebpf4jnsgd1na2vs0mg"},{"bike_id":"aa0bc2dc-cac8-4f20-bcda-4d73e21b920e","system_id":"levelo_inurba_marseille","lat":43.290104,"lon":5.356111,"is_reserved":false,"is_disabled":false,"rental_uris":{"android":"levelo://app?vid=aa0bc2dc-cac8-4f20-bcda-4d73e21b920e","ios":"levelo://app?vid=aa0bc2dc-cac8-4f20-bcda-4d73e21b920e"},"vehicle_type_id":"4","last_reported":1720804120,"current_range_meters":10800,"station_id":"ce4bhb92rcd13ifvqen0","pricing_plan_id":"cebpf4jnsgd1na2vs0mg"},{"bike_id":"a0149190-b3c7-4e81-aa5d-b547802cabec","system_id":"levelo_inurba_marseille","lat":43.290104,"lon":5.356111,"is_reserved":false,"is_disabled":false,"rental_uris":{"android":"levelo://app?vid=a0149190-b3c7-4e81-aa5d-b547802cabec","ios":"levelo://app?vid=a0149190-b3c7-4e81-aa5d-b547802cabec"},"vehicle_type_id":"4","last_reported":1720804120,"current_range_meters":0,"station_id":"ce4bhb92rcd13ifvqen0","pricing_plan_id":"cebpf4jnsgd1na2vs0mg"},{"bike_id":"0224ce42-2584-4e8b-91dd-342cc0efd00e","system_id":"levelo_inurba_marseille","lat":43.290104,"lon":5.356111,"is_reserved":false,"is_disabled":false,"rental_uris":{"android":"levelo://app?vid=0224ce42-2584-4e8b-91dd-342cc0efd00e","ios":"levelo://app?vid=0224ce42-2584-4e8b-91dd-342cc0efd00e"},"vehicle_type_id":"4","last_reported":1720804120,"current_range_meters":1600,"station_id":"ce4bhb92rcd13ifvqen0","pricing_plan_id":"cebpf4jnsgd1na2vs0mg"},{"bike_id":"fe2dad6a-5623-4dbb-83cd-2cf9b2d7fa73","system_id":"levelo_inurba_marseille","lat":43.290104,"lon":5.356111,"is_reserved":false,"is_disabled":false,"rental_uris":{"android":"levelo://app?vid=fe2dad6a-5623-4dbb-83cd-2cf9b2d7fa73","ios":"levelo://app?vid=fe2dad6a-5623-4dbb-83cd-2cf9b2d7fa73"},"vehicle_type_id":"4","last_reported":1720804120,"current_range_meters":26000,"station_id":"ce4bhb92rcd13ifvqen0","pricing_plan_id":"cebpf4jnsgd1na2vs0mg"},{"bike_id":"b02da521-1496-4e5e-87af-7ba1f11c5f1b","system_id":"levelo_inurba_marseille","lat":43.290104,"lon":5.356111,"is_reserved":false,"is_disabled":false,"rental_uris":{"android":"levelo://app?vid=b02da521-1496-4e5e-87af-7ba1f11c5f1b","ios":"levelo://app?vid=b02da521-1496-4e5e-87af-7ba1f11c5f1b"},"vehicle_type_id":"4","last_reported":1720804120,"current_range_meters":28000,"station_id":"ce4bhb92rcd13ifvqen0","pricing_plan_id":"cebpf4jnsgd1na2vs0mg"},{"bike_id":"ae67f56b-b1e7-4166-a044-c80e96e1a118","system_id":"levelo_inurba_marseille","lat":43.290995,"lon":5.381361,"is_reserved":false,"is_disabled":false,"rental_uris":{"android":"levelo://app?vid=ae67f56b-b1e7-4166-a044-c80e96e1a118","ios":"levelo://app?vid=ae67f56b-b1e7-4166-a044-c80e96e1a118"},"vehicle_type_id":"4","last_reported":1720804120,"current_range_meters":0,"station_id":"ce4bh512rcd13ifvqe2g","pricing_plan_id":"cebpf4jnsgd1na2vs0mg"},{"bike_id":"703520fb-900d-4896-8f34-dc2cdad4e941","system_id":"levelo_inurba_marseille","lat":43.29524,"lon":5.39034,"is_reserved":false,"is_disabled":false,"rental_uris":{"android":"levelo://app?vid=703520fb-900d-4896-8f34-dc2cdad4e941","ios":"levelo://app?vid=703520fb-900d-4896-8f34-dc2cdad4e941"},"vehicle_type_id":"4","last_reported":1720804120,"current_range_meters":0,"station_id":"ce4bh3p2rcd13ifvqdp0","pricing_plan_id":"cebpf4jnsgd1na2vs0mg"},{"bike_id":"63e4ed71-a95a-447c-8df8-f06d0f6f6bf5","system_id":"levelo_inurba_marseille","lat":43.330442,"lon":5.389148,"is_reserved":false,"is_disabled":false,"rental_uris":{"android":"levelo://app?vid=63e4ed71-a95a-447c-8df8-f06d0f6f6bf5","ios":"levelo://app?vid=63e4ed71-a95a-447c-8df8-f06d0f6f6bf5"},"vehicle_type_id":"4","last_reported":1720804120,"current_range_meters":24400,"station_id":"ce4bhr92rcd13ifvqhrg","pricing_plan_id":"cebpf4jnsgd1na2vs0mg"},{"bike_id":"4b884fa3-48ec-4699-8028-5cc31b768039","system_id":"levelo_inurba_marseille","lat":43.330442,"lon":5.389148,"is_reserved":false,"is_disabled":false,"rental_uris":{"android":"levelo://app?vid=4b884fa3-48ec-4699-8028-5cc31b768039","ios":"levelo://app?vid=4b884fa3-48ec-4699-8028-5cc31b768039"},"vehicle_type_id":"4","last_reported":1720804120,"current_range_meters":3600,"station_id":"ce4bhr92rcd13ifvqhrg","pricing_plan_id":"cebpf4jnsgd1na2vs0mg"},{"bike_id":"0a0003bc-c999-469c-a4fa-8528aa9325d2","system_id":"levelo_inurba_marseille","lat":43.330442,"lon":5.389148,"is_reserved":false,"is_disabled":false,"rental_uris":{"android":"levelo://app?vid=0a0003bc-c999-469c-a4fa-8528aa9325d2","ios":"levelo://app?vid=0a0003bc-c999-469c-a4fa-8528aa9325d2"},"vehicle_type_id":"4","last_reported":1720804120,"current_range_meters":24000,"station_id":"ce4bhr92rcd13ifvqhrg","pricing_plan_id":"cebpf4jnsgd1na2vs0mg"},{"bike_id":"2bc86392-c2c0-4be6-bdfc-b48e1b8cba4e","system_id":"levelo_inurba_marseille","lat":43.33024,"lon":5.39044,"is_reserved":false,"is_disabled":false,"rental_uris":{"android":"levelo://app?vid=2bc86392-c2c0-4be6-bdfc-b48e1b8cba4e","ios":"levelo://app?vid=2bc86392-c2c0-4be6-bdfc-b48e1b8cba4e"},"vehicle_type_id":"4","last_reported":1720804120,"current_range_meters":27200,"station_id":"ce4bhr92rcd13ifvqhrg","pricing_plan_id":"cebpf4jnsgd1na2vs0mg"},{"bike_id":"d0b3a22b-c767-47bd-bc44-0d2387711cd5","system_id":"levelo_inurba_marseille","lat":43.330442,"lon":5.389148,"is_reserved":false,"is_disabled":false,"rental_uris":{"android":"levelo://app?vid=d0b3a22b-c767-47bd-bc44-0d2387711cd5","ios":"levelo://app?vid=d0b3a22b-c767-47bd-bc44-0d2387711cd5"},"vehicle_type_id":"4","last_reported":1720804120,"current_range_meters":28400,"station_id":"ce4bhr92rcd13ifvqhrg","pricing_plan_id":"cebpf4jnsgd1na2vs0mg"},{"bike_id":"db52e3fa-2fc0-4b21-b1db-938e47b2a732","system_id":"levelo_inurba_marseille","lat":43.33024,"lon":5.39047,"is_reserved":false,"is_disabled":false,"rental_uris":{"android":"levelo://app?vid=db52e3fa-2fc0-4b21-b1db-938e47b2a732","ios":"levelo://app?vid=db52e3fa-2fc0-4b21-b1db-938e47b2a732"},"vehicle_type_id":"4","last_reported":1720804120,"current_range_meters":1200,"station_id":"ce4bhr92rcd13ifvqhrg","pricing_plan_id":"cebpf4jnsgd1na2vs0mg"},{"bike_id":"6dd91fce-db9a-45ab-ad3c-a70e7bd59ddd","system_id":"levelo_inurba_marseille","lat":43.330442,"lon":5.389148,"is_reserved":false,"is_disabled":false,"rental_uris":{"android":"levelo://app?vid=6dd91fce-db9a-45ab-ad3c-a70e7bd59ddd","ios":"levelo://app?vid=6dd91fce-db9a-45ab-ad3c-a70e7bd59ddd"},"vehicle_type_id":"4","last_reported":1720804120,"current_range_meters":21600,"station_id":"ce4bhr92rcd13ifvqhrg","pricing_plan_id":"cebpf4jnsgd1na2vs0mg"},{"bike_id":"aa02a895-3d7c-4264-88fb-17daa883bc58","system_id":"levelo_inurba_marseille","lat":43.290094,"lon":5.381264,"is_reserved":false,"is_disabled":false,"rental_uris":{"android":"levelo://app?vid=aa02a895-3d7c-4264-88fb-17daa883bc58","ios":"levelo://app?vid=aa02a895-3d7c-4264-88fb-17daa883bc58"},"vehicle_type_id":"4","last_reported":1720804120,"current_range_meters":0,"station_id":"ce4bh4p2rcd13ifvqe1g","pricing_plan_id":"cebpf4jnsgd1na2vs0mg"},{"bike_id":"538f3f9d-59f9-4861-b580-85342a4a4355","system_id":"levelo_inurba_marseille","lat":43.28856,"lon":5.358371,"is_reserved":false,"is_disabled":false,"rental_uris":{"android":"levelo://app?vid=538f3f9d-59f9-4861-b580-85342a4a4355","ios":"levelo://app?vid=538f3f9d-59f9-4861-b580-85342a4a4355"},"vehicle_type_id":"4","last_reported":1720804120,"current_range_meters":5600,"station_id":"ce4bhb12rcd13ifvqem0","pricing_plan_id":"cebpf4jnsgd1na2vs0mg"},{"bike_id":"66df44c9-d73f-4476-8439-a0b9dcbaaae7","system_id":"levelo_inurba_marseille","lat":43.28856,"lon":5.358371,"is_reserved":false,"is_disabled":false,"rental_uris":{"android":"levelo://app?vid=66df44c9-d73f-4476-8439-a0b9dcbaaae7","ios":"levelo://app?vid=66df44c9-d73f-4476-8439-a0b9dcbaaae7"},"vehicle_type_id":"4","last_reported":1720804120,"current_range_meters":2400,"station_id":"ce4bhb12rcd13ifvqem0","pricing_plan_id":"cebpf4jnsgd1na2vs0mg"},{"bike_id":"c1572583-79cb-42c2-8578-cf987cde059e","system_id":"levelo_inurba_marseille","lat":43.31276,"lon":5.40167,"is_reserved":false,"is_disabled":false,"rental_uris":{"android":"levelo://app?vid=c1572583-79cb-42c2-8578-cf987cde059e","ios":"levelo://app?vid=c1572583-79cb-42c2-8578-cf987cde059e"},"vehicle_type_id":"4","last_reported":1720804120,"current_range_meters":0,"station_id":"ce4bh092rcd13ifvqd30","pricing_plan_id":"cebpf4jnsgd1na2vs0mg"},{"bike_id":"6e136d8c-2cb8-40e0-b925-fa6bc58ec452","system_id":"levelo_inurba_marseille","lat":43.33665,"lon":5.3556,"is_reserved":false,"is_disabled":false,"rental_uris":{"android":"levelo://app?vid=6e136d8c-2cb8-40e0-b925-fa6bc58ec452","ios":"levelo://app?vid=6e136d8c-2cb8-40e0-b925-fa6bc58ec452"},"vehicle_type_id":"4","last_reported":1720804120,"current_range_meters":15200,"station_id":"","pricing_plan_id":"cebpf4jnsgd1na2vs0mg"},{"bike_id":"17f331d0-7a10-4bdd-84a7-2370b16b06aa","system_id":"levelo_inurba_marseille","lat":43.31271,"lon":5.40169,"is_reserved":false,"is_disabled":false,"rental_uris":{"android":"levelo://app?vid=17f331d0-7a10-4bdd-84a7-2370b16b06aa","ios":"levelo://app?vid=17f331d0-7a10-4bdd-84a7-2370b16b06aa"},"vehicle_type_id":"4","last_reported":1720804120,"current_range_meters":0,"station_id":"ce4bh092rcd13ifvqd30","pricing_plan_id":"cebpf4jnsgd1na2vs0mg"},{"bike_id":"7eda1e7d-b15c-4507-a807-6a77db903ee7","system_id":"levelo_inurba_marseille","lat":43.337466,"lon":5.374504,"is_reserved":false,"is_disabled":false,"rental_uris":{"android":"levelo://app?vid=7eda1e7d-b15c-4507-a807-6a77db903ee7","ios":"levelo://app?vid=7eda1e7d-b15c-4507-a807-6a77db903ee7"},"vehicle_type_id":"4","last_reported":1720804120,"current_range_meters":7600,"station_id":"","pricing_plan_id":"cebpf4jnsgd1na2vs0mg"},{"bike_id":"52871d14-ab8e-4719-b524-62d736cda021","system_id":"levelo_inurba_marseille","lat":43.309371,"lon":5.401449,"is_reserved":false,"is_disabled":false,"rental_uris":{"android":"levelo://app?vid=52871d14-ab8e-4719-b524-62d736cda021","ios":"levelo://app?vid=52871d14-ab8e-4719-b524-62d736cda021"},"vehicle_type_id":"4","last_reported":1720804120,"current_range_meters":0,"station_id":"ce4bgvp2rcd13ifvqct0","pricing_plan_id":"cebpf4jnsgd1na2vs0mg"},{"bike_id":"7db14a83-5996-4107-aac5-8660c0fb36ae","system_id":"levelo_inurba_marseille","lat":43.337583,"lon":5.374813,"is_reserved":false,"is_disabled":false,"rental_uris":{"android":"levelo://app?vid=7db14a83-5996-4107-aac5-8660c0fb36ae","ios":"levelo://app?vid=7db14a83-5996-4107-aac5-8660c0fb36ae"},"vehicle_type_id":"4","last_reported":1720804120,"current_range_meters":4000,"station_id":"","pricing_plan_id":"cebpf4jnsgd1na2vs0mg"},{"bike_id":"839ff212-0ad9-4d5d-a85b-d1580547e253","system_id":"levelo_inurba_marseille","lat":43.33772,"lon":5.37445,"is_reserved":false,"is_disabled":false,"rental_uris":{"android":"levelo://app?vid=839ff212-0ad9-4d5d-a85b-d1580547e253","ios":"levelo://app?vid=839ff212-0ad9-4d5d-a85b-d1580547e253"},"vehicle_type_id":"4","last_reported":1720804120,"current_range_meters":26000,"station_id":"","pricing_plan_id":"cebpf4jnsgd1na2vs0mg"},{"bike_id":"f7aaa88c-ed36-4a78-b9a9-97553b5cb7e6","system_id":"levelo_inurba_marseille","lat":43.30136,"lon":5.39863,"is_reserved":false,"is_disabled":false,"rental_uris":{"android":"levelo://app?vid=f7aaa88c-ed36-4a78-b9a9-97553b5cb7e6","ios":"levelo://app?vid=f7aaa88c-ed36-4a78-b9a9-97553b5cb7e6"},"vehicle_type_id":"4","last_reported":1720804120,"current_range_meters":0,"station_id":"ce4bh0h2rcd13ifvqd40","pricing_plan_id":"cebpf4jnsgd1na2vs0mg"},{"bike_id":"0defc000-cc76-4e7b-8225-219d52cfcc88","system_id":"levelo_inurba_marseille","lat":43.286961,"lon":5.373785,"is_reserved":false,"is_disabled":false,"rental_uris":{"android":"levelo://app?vid=0defc000-cc76-4e7b-8225-219d52cfcc88","ios":"levelo://app?vid=0defc000-cc76-4e7b-8225-219d52cfcc88"},"vehicle_type_id":"4","last_reported":1720804120,"current_range_meters":20000,"station_id":"ce4bh3p2rcd13ifvqdq0","pricing_plan_id":"cebpf4jnsgd1na2vs0mg"},{"bike_id":"62b8765c-5a4a-4774-8d53-bbeb61b22247","system_id":"levelo_inurba_marseille","lat":43.286961,"lon":5.373785,"is_reserved":false,"is_disabled":false,"rental_uris":{"android":"levelo://app?vid=62b8765c-5a4a-4774-8d53-bbeb61b22247","ios":"levelo://app?vid=62b8765c-5a4a-4774-8d53-bbeb61b22247"},"vehicle_type_id":"4","last_reported":1720804120,"current_range_meters":0,"station_id":"ce4bh3p2rcd13ifvqdq0","pricing_plan_id":"cebpf4jnsgd1na2vs0mg"},{"bike_id":"9e6803ce-bcb6-4b64-a982-ac2aeb4f92eb","system_id":"levelo_inurba_marseille","lat":43.286591,"lon":5.363346,"is_reserved":false,"is_disabled":false,"rental_uris":{"android":"levelo://app?vid=9e6803ce-bcb6-4b64-a982-ac2aeb4f92eb","ios":"levelo://app?vid=9e6803ce-bcb6-4b64-a982-ac2aeb4f92eb"},"vehicle_type_id":"4","last_reported":1720804120,"current_range_meters":16400,"station_id":"ce4bhah2rcd13ifvqej0","pricing_plan_id":"cebpf4jnsgd1na2vs0mg"},{"bike_id":"865812eb-4a82-4caf-b48a-81308a83b0dc","system_id":"levelo_inurba_marseille","lat":43.28661,"lon":5.36356,"is_reserved":false,"is_disabled":false,"rental_uris":{"android":"levelo://app?vid=865812eb-4a82-4caf-b48a-81308a83b0dc","ios":"levelo://app?vid=865812eb-4a82-4caf-b48a-81308a83b0dc"},"vehicle_type_id":"4","last_reported":1720804120,"current_range_meters":0,"station_id":"ce4bhah2rcd13ifvqej0","pricing_plan_id":"cebpf4jnsgd1na2vs0mg"},{"bike_id":"6ba6b941-d852-4ff8-879d-13cefcc3e850","system_id":"levelo_inurba_marseille","lat":43.286961,"lon":5.373785,"is_reserved":false,"is_disabled":false,"rental_uris":{"android":"levelo://app?vid=6ba6b941-d852-4ff8-879d-13cefcc3e850","ios":"levelo://app?vid=6ba6b941-d852-4ff8-879d-13cefcc3e850"},"vehicle_type_id":"4","last_reported":1720804120,"current_range_meters":18400,"station_id":"ce4bh3p2rcd13ifvqdq0","pricing_plan_id":"cebpf4jnsgd1na2vs0mg"},{"bike_id":"c51ba271-e97c-4a3d-817f-fc5d192ac048","system_id":"levelo_inurba_marseille","lat":43.289307,"lon":5.38406,"is_reserved":false,"is_disabled":false,"rental_uris":{"android":"levelo://app?vid=c51ba271-e97c-4a3d-817f-fc5d192ac048","ios":"levelo://app?vid=c51ba271-e97c-4a3d-817f-fc5d192ac048"},"vehicle_type_id":"4","last_reported":1720804120,"current_range_meters":11600,"station_id":"ce4bh612rcd13ifvqe6g","pricing_plan_id":"cebpf4jnsgd1na2vs0mg"},{"bike_id":"4f3a2ce9-c183-4307-86bc-a6ba824d7329","system_id":"levelo_inurba_marseille","lat":43.28932,"lon":5.38398,"is_reserved":false,"is_disabled":false,"rental_uris":{"android":"levelo://app?vid=4f3a2ce9-c183-4307-86bc-a6ba824d7329","ios":"levelo://app?vid=4f3a2ce9-c183-4307-86bc-a6ba824d7329"},"vehicle_type_id":"4","last_reported":1720804120,"current_range_meters":2400,"station_id":"ce4bh612rcd13ifvqe6g","pricing_plan_id":"cebpf4jnsgd1na2vs0mg"},{"bike_id":"e47c0ac6-3dc8-4909-a93e-5e5562efba25","system_id":"levelo_inurba_marseille","lat":43.289307,"lon":5.38406,"is_reserved":false,"is_disabled":false,"rental_uris":{"android":"levelo://app?vid=e47c0ac6-3dc8-4909-a93e-5e5562efba25","ios":"levelo://app?vid=e47c0ac6-3dc8-4909-a93e-5e5562efba25"},"vehicle_type_id":"4","last_reported":1720804120,"current_range_meters":1600,"station_id":"ce4bh612rcd13ifvqe6g","pricing_plan_id":"cebpf4jnsgd1na2vs0mg"},{"bike_id":"7bdcc583-a848-4b92-b3ba-33defaa42dcd","system_id":"levelo_inurba_marseille","lat":43.28928,"lon":5.384046,"is_reserved":false,"is_disabled":false,"rental_uris":{"android":"levelo://app?vid=7bdcc583-a848-4b92-b3ba-33defaa42dcd","ios":"levelo://app?vid=7bdcc583-a848-4b92-b3ba-33defaa42dcd"},"vehicle_type_id":"4","last_reported":1720804120,"current_range_meters":0,"station_id":"ce4bh612rcd13ifvqe6g","pricing_plan_id":"cebpf4jnsgd1na2vs0mg"},{"bike_id":"7925b789-2bda-4d84-a792-e74cbc4e5d21","system_id":"levelo_inurba_marseille","lat":43.290336,"lon":5.386425,"is_reserved":false,"is_disabled":false,"rental_uris":{"android":"levelo://app?vid=7925b789-2bda-4d84-a792-e74cbc4e5d21","ios":"levelo://app?vid=7925b789-2bda-4d84-a792-e74cbc4e5d21"},"vehicle_type_id":"4","last_reported":1720804120,"current_range_meters":1600,"station_id":"ce4bh4p2rcd13ifvqe0g","pricing_plan_id":"cebpf4jnsgd1na2vs0mg"},{"bike_id":"29c16106-119e-451d-a0f6-07ea384efdf6","system_id":"levelo_inurba_marseille","lat":43.29025,"lon":5.38642,"is_reserved":false,"is_disabled":false,"rental_uris":{"android":"levelo://app?vid=29c16106-119e-451d-a0f6-07ea384efdf6","ios":"levelo://app?vid=29c16106-119e-451d-a0f6-07ea384efdf6"},"vehicle_type_id":"4","last_reported":1720804120,"current_range_meters":5600,"station_id":"ce4bh4p2rcd13ifvqe0g","pricing_plan_id":"cebpf4jnsgd1na2vs0mg"},{"bike_id":"75d2bef3-b358-4cd0-86af-d6ee665382f2","system_id":"levelo_inurba_marseille","lat":43.29027,"lon":5.38647,"is_reserved":false,"is_disabled":false,"rental_uris":{"android":"levelo://app?vid=75d2bef3-b358-4cd0-86af-d6ee665382f2","ios":"levelo://app?vid=75d2bef3-b358-4cd0-86af-d6ee665382f2"},"vehicle_type_id":"4","last_reported":1720804120,"current_range_meters":0,"station_id":"ce4bh4p2rcd13ifvqe0g","pricing_plan_id":"cebpf4jnsgd1na2vs0mg"},{"bike_id":"1c35c98e-73cd-41e6-8ce4-8ba39aa8ff5c","system_id":"levelo_inurba_marseille","lat":43.30257,"lon":5.40074,"is_reserved":false,"is_disabled":false,"rental_uris":{"android":"levelo://app?vid=1c35c98e-73cd-41e6-8ce4-8ba39aa8ff5c","ios":"levelo://app?vid=1c35c98e-73cd-41e6-8ce4-8ba39aa8ff5c"},"vehicle_type_id":"4","last_reported":1720804120,"current_range_meters":0,"station_id":"ce4bgvh2rcd13ifvqcs0","pricing_plan_id":"cebpf4jnsgd1na2vs0mg"},{"bike_id":"4df5030e-7086-4c4e-ad67-76dad5f59ae5","system_id":"levelo_inurba_marseille","lat":43.28718,"lon":5.37934,"is_reserved":false,"is_disabled":false,"rental_uris":{"android":"levelo://app?vid=4df5030e-7086-4c4e-ad67-76dad5f59ae5","ios":"levelo://app?vid=4df5030e-7086-4c4e-ad67-76dad5f59ae5"},"vehicle_type_id":"4","last_reported":1720804120,"current_range_meters":3200,"station_id":"ce4bh9p2rcd13ifvqec0","pricing_plan_id":"cebpf4jnsgd1na2vs0mg"},{"bike_id":"2b818a8b-2ccf-43f2-8f2c-56d0c28f885f","system_id":"levelo_inurba_marseille","lat":43.287184,"lon":5.37937,"is_reserved":false,"is_disabled":false,"rental_uris":{"android":"levelo://app?vid=2b818a8b-2ccf-43f2-8f2c-56d0c28f885f","ios":"levelo://app?vid=2b818a8b-2ccf-43f2-8f2c-56d0c28f885f"},"vehicle_type_id":"4","last_reported":1720804120,"current_range_meters":4400,"station_id":"ce4bh9p2rcd13ifvqec0","pricing_plan_id":"cebpf4jnsgd1na2vs0mg"},{"bike_id":"6dc3258c-207d-4866-8d3e-db0249ce2464","system_id":"levelo_inurba_marseille","lat":43.28718,"lon":5.37943,"is_reserved":false,"is_disabled":false,"rental_uris":{"android":"levelo://app?vid=6dc3258c-207d-4866-8d3e-db0249ce2464","ios":"levelo://app?vid=6dc3258c-207d-4866-8d3e-db0249ce2464"},"vehicle_type_id":"4","last_reported":1720804120,"current_range_meters":4400,"station_id":"ce4bh9p2rcd13ifvqec0","pricing_plan_id":"cebpf4jnsgd1na2vs0mg"},{"bike_id":"9c2cf684-59a9-46f8-a2cb-444cec565800","system_id":"levelo_inurba_marseille","lat":43.317,"lon":5.40479,"is_reserved":false,"is_disabled":false,"rental_uris":{"android":"levelo://app?vid=9c2cf684-59a9-46f8-a2cb-444cec565800","ios":"levelo://app?vid=9c2cf684-59a9-46f8-a2cb-444cec565800"},"vehicle_type_id":"4","last_reported":1720804120,"current_range_meters":0,"station_id":"ce4bh012rcd13ifvqd00","pricing_plan_id":"cebpf4jnsgd1na2vs0mg"},{"bike_id":"b184dcce-bb0e-4dae-8e85-89031f00500b","system_id":"levelo_inurba_marseille","lat":43.291994,"lon":5.392907,"is_reserved":false,"is_disabled":false,"rental_uris":{"android":"levelo://app?vid=b184dcce-bb0e-4dae-8e85-89031f00500b","ios":"levelo://app?vid=b184dcce-bb0e-4dae-8e85-89031f00500b"},"vehicle_type_id":"4","last_reported":1720804120,"current_range_meters":0,"station_id":"ce4bh192rcd13ifvqdd0","pricing_plan_id":"cebpf4jnsgd1na2vs0mg"},{"bike_id":"f08cff31-1395-455c-9b2d-01953870ab2d","system_id":"levelo_inurba_marseille","lat":43.291994,"lon":5.392907,"is_reserved":false,"is_disabled":false,"rental_uris":{"android":"levelo://app?vid=f08cff31-1395-455c-9b2d-01953870ab2d","ios":"levelo://app?vid=f08cff31-1395-455c-9b2d-01953870ab2d"},"vehicle_type_id":"4","last_reported":1720804120,"current_range_meters":4000,"station_id":"ce4bh192rcd13ifvqdd0","pricing_plan_id":"cebpf4jnsgd1na2vs0mg"},{"bike_id":"d55fce2a-8cf3-47d4-9730-ebb6fa925e41","system_id":"levelo_inurba_marseille","lat":43.284534,"lon":5.358662,"is_reserved":false,"is_disabled":false,"rental_uris":{"android":"levelo://app?vid=d55fce2a-8cf3-47d4-9730-ebb6fa925e41","ios":"levelo://app?vid=d55fce2a-8cf3-47d4-9730-ebb6fa925e41"},"vehicle_type_id":"4","last_reported":1720804120,"current_range_meters":14800,"station_id":"ce4bhah2rcd13ifvqei0","pricing_plan_id":"cebpf4jnsgd1na2vs0mg"},{"bike_id":"5e083540-d49c-4408-8953-68b57c1ed37e","system_id":"levelo_inurba_marseille","lat":43.28622,"lon":5.35106,"is_reserved":false,"is_disabled":false,"rental_uris":{"android":"levelo://app?vid=5e083540-d49c-4408-8953-68b57c1ed37e","ios":"levelo://app?vid=5e083540-d49c-4408-8953-68b57c1ed37e"},"vehicle_type_id":"4","last_reported":1720804120,"current_range_meters":25600,"station_id":"ce4bhch2rcd13ifvqeug","pricing_plan_id":"cebpf4jnsgd1na2vs0mg"},{"bike_id":"c215398f-fc29-4b18-8fda-ac98321078f6","system_id":"levelo_inurba_marseille","lat":43.28621,"lon":5.35108,"is_reserved":false,"is_disabled":false,"rental_uris":{"android":"levelo://app?vid=c215398f-fc29-4b18-8fda-ac98321078f6","ios":"levelo://app?vid=c215398f-fc29-4b18-8fda-ac98321078f6"},"vehicle_type_id":"4","last_reported":1720804120,"current_range_meters":23200,"station_id":"ce4bhch2rcd13ifvqeug","pricing_plan_id":"cebpf4jnsgd1na2vs0mg"},{"bike_id":"d0892700-8308-4326-b1dd-87314bf10561","system_id":"levelo_inurba_marseille","lat":43.28619,"lon":5.35109,"is_reserved":false,"is_disabled":false,"rental_uris":{"android":"levelo://app?vid=d0892700-8308-4326-b1dd-87314bf10561","ios":"levelo://app?vid=d0892700-8308-4326-b1dd-87314bf10561"},"vehicle_type_id":"4","last_reported":1720804120,"current_range_meters":6800,"station_id":"ce4bhch2rcd13ifvqeug","pricing_plan_id":"cebpf4jnsgd1na2vs0mg"},{"bike_id":"24d14dd7-647c-4f66-9752-d9ce40c3f0aa","system_id":"levelo_inurba_marseille","lat":43.285856,"lon":5.350771,"is_reserved":false,"is_disabled":false,"rental_uris":{"android":"levelo://app?vid=24d14dd7-647c-4f66-9752-d9ce40c3f0aa","ios":"levelo://app?vid=24d14dd7-647c-4f66-9752-d9ce40c3f0aa"},"vehicle_type_id":"4","last_reported":1720804120,"current_range_meters":19200,"station_id":"ce4bhch2rcd13ifvqeug","pricing_plan_id":"cebpf4jnsgd1na2vs0mg"},{"bike_id":"a39d81fb-e994-471d-afed-0107564dc83e","system_id":"levelo_inurba_marseille","lat":43.28617,"lon":5.3511,"is_reserved":false,"is_disabled":false,"rental_uris":{"android":"levelo://app?vid=a39d81fb-e994-471d-afed-0107564dc83e","ios":"levelo://app?vid=a39d81fb-e994-471d-afed-0107564dc83e"},"vehicle_type_id":"4","last_reported":1720804120,"current_range_meters":6800,"station_id":"ce4bhch2rcd13ifvqeug","pricing_plan_id":"cebpf4jnsgd1na2vs0mg"},{"bike_id":"3116b064-f07c-41ff-9859-c5db9f126668","system_id":"levelo_inurba_marseille","lat":43.285856,"lon":5.350771,"is_reserved":false,"is_disabled":false,"rental_uris":{"android":"levelo://app?vid=3116b064-f07c-41ff-9859-c5db9f126668","ios":"levelo://app?vid=3116b064-f07c-41ff-9859-c5db9f126668"},"vehicle_type_id":"4","last_reported":1720804120,"current_range_meters":16400,"station_id":"ce4bhch2rcd13ifvqeug","pricing_plan_id":"cebpf4jnsgd1na2vs0mg"},{"bike_id":"2d0aa31f-e3ac-4ce3-b751-9598eb391b09","system_id":"levelo_inurba_marseille","lat":43.285856,"lon":5.350771,"is_reserved":false,"is_disabled":false,"rental_uris":{"android":"levelo://app?vid=2d0aa31f-e3ac-4ce3-b751-9598eb391b09","ios":"levelo://app?vid=2d0aa31f-e3ac-4ce3-b751-9598eb391b09"},"vehicle_type_id":"4","last_reported":1720804120,"current_range_meters":13600,"station_id":"ce4bhch2rcd13ifvqeug","pricing_plan_id":"cebpf4jnsgd1na2vs0mg"},{"bike_id":"a5bb969c-f1c0-4a31-b596-14e37e531c8f","system_id":"levelo_inurba_marseille","lat":43.28618,"lon":5.35106,"is_reserved":false,"is_disabled":false,"rental_uris":{"android":"levelo://app?vid=a5bb969c-f1c0-4a31-b596-14e37e531c8f","ios":"levelo://app?vid=a5bb969c-f1c0-4a31-b596-14e37e531c8f"},"vehicle_type_id":"4","last_reported":1720804120,"current_range_meters":0,"station_id":"ce4bhch2rcd13ifvqeug","pricing_plan_id":"cebpf4jnsgd1na2vs0mg"},{"bike_id":"fe102bff-7899-4d71-91e0-24d1913cf693","system_id":"levelo_inurba_marseille","lat":43.285856,"lon":5.350771,"is_reserved":false,"is_disabled":false,"rental_uris":{"android":"levelo://app?vid=fe102bff-7899-4d71-91e0-24d1913cf693","ios":"levelo://app?vid=fe102bff-7899-4d71-91e0-24d1913cf693"},"vehicle_type_id":"4","last_reported":1720804120,"current_range_meters":30800,"station_id":"ce4bhch2rcd13ifvqeug","pricing_plan_id":"cebpf4jnsgd1na2vs0mg"},{"bike_id":"35795abe-fc32-48f7-9d8b-216863d12830","system_id":"levelo_inurba_marseille","lat":43.28618,"lon":5.35103,"is_reserved":false,"is_disabled":false,"rental_uris":{"android":"levelo://app?vid=35795abe-fc32-48f7-9d8b-216863d12830","ios":"levelo://app?vid=35795abe-fc32-48f7-9d8b-216863d12830"},"vehicle_type_id":"4","last_reported":1720804120,"current_range_meters":6800,"station_id":"ce4bhch2rcd13ifvqeug","pricing_plan_id":"cebpf4jnsgd1na2vs0mg"},{"bike_id":"93d9ec28-1c71-46da-a2cc-0dfdd5bfdfc0","system_id":"levelo_inurba_marseille","lat":43.28616,"lon":5.35108,"is_reserved":false,"is_disabled":false,"rental_uris":{"android":"levelo://app?vid=93d9ec28-1c71-46da-a2cc-0dfdd5bfdfc0","ios":"levelo://app?vid=93d9ec28-1c71-46da-a2cc-0dfdd5bfdfc0"},"vehicle_type_id":"4","last_reported":1720804120,"current_range_meters":24400,"station_id":"ce4bhch2rcd13ifvqeug","pricing_plan_id":"cebpf4jnsgd1na2vs0mg"},{"bike_id":"529dac5f-d764-4d9d-ab16-f67e192fe798","system_id":"levelo_inurba_marseille","lat":43.286148,"lon":5.351103,"is_reserved":false,"is_disabled":false,"rental_uris":{"android":"levelo://app?vid=529dac5f-d764-4d9d-ab16-f67e192fe798","ios":"levelo://app?vid=529dac5f-d764-4d9d-ab16-f67e192fe798"},"vehicle_type_id":"4","last_reported":1720804120,"current_range_meters":17600,"station_id":"ce4bhch2rcd13ifvqeug","pricing_plan_id":"cebpf4jnsgd1na2vs0mg"},{"bike_id":"76523d57-275b-4317-a447-0713156dab1f","system_id":"levelo_inurba_marseille","lat":43.28613,"lon":5.35115,"is_reserved":false,"is_disabled":false,"rental_uris":{"android":"levelo://app?vid=76523d57-275b-4317-a447-0713156dab1f","ios":"levelo://app?vid=76523d57-275b-4317-a447-0713156dab1f"},"vehicle_type_id":"4","last_reported":1720804120,"current_range_meters":18400,"station_id":"ce4bhch2rcd13ifvqeug","pricing_plan_id":"cebpf4jnsgd1na2vs0mg"},{"bike_id":"525f7ddb-79d4-443a-96c6-7d59502a276f","system_id":"levelo_inurba_marseille","lat":43.28617,"lon":5.35101,"is_reserved":false,"is_disabled":false,"rental_uris":{"android":"levelo://app?vid=525f7ddb-79d4-443a-96c6-7d59502a276f","ios":"levelo://app?vid=525f7ddb-79d4-443a-96c6-7d59502a276f"},"vehicle_type_id":"4","last_reported":1720804120,"current_range_meters":12000,"station_id":"ce4bhch2rcd13ifvqeug","pricing_plan_id":"cebpf4jnsgd1na2vs0mg"},{"bike_id":"77812113-db2c-46f0-a306-1c405e81ef19","system_id":"levelo_inurba_marseille","lat":43.28616,"lon":5.35104,"is_reserved":false,"is_disabled":false,"rental_uris":{"android":"levelo://app?vid=77812113-db2c-46f0-a306-1c405e81ef19","ios":"levelo://app?vid=77812113-db2c-46f0-a306-1c405e81ef19"},"vehicle_type_id":"4","last_reported":1720804120,"current_range_meters":0,"station_id":"ce4bhch2rcd13ifvqeug","pricing_plan_id":"cebpf4jnsgd1na2vs0mg"},{"bike_id":"67514173-c3a0-46a1-955b-cee9dd0629ad","system_id":"levelo_inurba_marseille","lat":43.28616,"lon":5.35104,"is_reserved":false,"is_disabled":false,"rental_uris":{"android":"levelo://app?vid=67514173-c3a0-46a1-955b-cee9dd0629ad","ios":"levelo://app?vid=67514173-c3a0-46a1-955b-cee9dd0629ad"},"vehicle_type_id":"4","last_reported":1720804120,"current_range_meters":8400,"station_id":"ce4bhch2rcd13ifvqeug","pricing_plan_id":"cebpf4jnsgd1na2vs0mg"},{"bike_id":"baa40f0e-74a4-48b1-9408-ad47c94ae23f","system_id":"levelo_inurba_marseille","lat":43.285856,"lon":5.350771,"is_reserved":false,"is_disabled":false,"rental_uris":{"android":"levelo://app?vid=baa40f0e-74a4-48b1-9408-ad47c94ae23f","ios":"levelo://app?vid=baa40f0e-74a4-48b1-9408-ad47c94ae23f"},"vehicle_type_id":"4","last_reported":1720804120,"current_range_meters":28800,"station_id":"ce4bhch2rcd13ifvqeug","pricing_plan_id":"cebpf4jnsgd1na2vs0mg"},{"bike_id":"3ac3fe24-a665-4e4d-af8e-b2f7e25952d8","system_id":"levelo_inurba_marseille","lat":43.28615,"lon":5.35104,"is_reserved":false,"is_disabled":false,"rental_uris":{"android":"levelo://app?vid=3ac3fe24-a665-4e4d-af8e-b2f7e25952d8","ios":"levelo://app?vid=3ac3fe24-a665-4e4d-af8e-b2f7e25952d8"},"vehicle_type_id":"4","last_reported":1720804120,"current_range_meters":10000,"station_id":"ce4bhch2rcd13ifvqeug","pricing_plan_id":"cebpf4jnsgd1na2vs0mg"},{"bike_id":"e4bc163f-834f-4a38-a27a-595812ae9852","system_id":"levelo_inurba_marseille","lat":43.28613,"lon":5.3511,"is_reserved":false,"is_disabled":false,"rental_uris":{"android":"levelo://app?vid=e4bc163f-834f-4a38-a27a-595812ae9852","ios":"levelo://app?vid=e4bc163f-834f-4a38-a27a-595812ae9852"},"vehicle_type_id":"4","last_reported":1720804120,"current_range_meters":6400,"station_id":"ce4bhch2rcd13ifvqeug","pricing_plan_id":"cebpf4jnsgd1na2vs0mg"},{"bike_id":"e6e53b1e-c7b4-4629-9148-ad68d0d240c2","system_id":"levelo_inurba_marseille","lat":43.28613,"lon":5.35109,"is_reserved":false,"is_disabled":false,"rental_uris":{"android":"levelo://app?vid=e6e53b1e-c7b4-4629-9148-ad68d0d240c2","ios":"levelo://app?vid=e6e53b1e-c7b4-4629-9148-ad68d0d240c2"},"vehicle_type_id":"4","last_reported":1720804120,"current_range_meters":17600,"station_id":"ce4bhch2rcd13ifvqeug","pricing_plan_id":"cebpf4jnsgd1na2vs0mg"},{"bike_id":"c9e68438-ee6c-4c1b-ad66-397c0bf5f6d4","system_id":"levelo_inurba_marseille","lat":43.28615,"lon":5.35102,"is_reserved":false,"is_disabled":false,"rental_uris":{"android":"levelo://app?vid=c9e68438-ee6c-4c1b-ad66-397c0bf5f6d4","ios":"levelo://app?vid=c9e68438-ee6c-4c1b-ad66-397c0bf5f6d4"},"vehicle_type_id":"4","last_reported":1720804120,"current_range_meters":19200,"station_id":"ce4bhch2rcd13ifvqeug","pricing_plan_id":"cebpf4jnsgd1na2vs0mg"},{"bike_id":"aa4e7109-4d81-484f-a5be-3e00eef342ba","system_id":"levelo_inurba_marseille","lat":43.28613,"lon":5.35106,"is_reserved":false,"is_disabled":false,"rental_uris":{"android":"levelo://app?vid=aa4e7109-4d81-484f-a5be-3e00eef342ba","ios":"levelo://app?vid=aa4e7109-4d81-484f-a5be-3e00eef342ba"},"vehicle_type_id":"4","last_reported":1720804120,"current_range_meters":0,"station_id":"ce4bhch2rcd13ifvqeug","pricing_plan_id":"cebpf4jnsgd1na2vs0mg"},