{"last_updated":1744956874,"ttl":60,"version":"2.2","data":{"bikes":[{"bike_id":"5969091c-3431-4fdb-a267-75928a912e19","system_id":"levelo_inurba_marseille","lat":43.275169,"lon":5.413021,"is_reserved":false,"is_disabled":false,"rental_uris":{"android":"levelo://app?vid=5969091c-3431-4fdb-a267-75928a912e19","ios":"levelo://app?vid=5969091c-3431-4fdb-a267-75928a912e19"},"vehicle_type_id":"4","last_reported":1744956874,"current_range_meters":2800,"station_id":"","pricing_plan_id":"cebpf4jnsgd1na2vs0mg"},{"bike_id":"405c2ee1-6315-4e55-a1b3-7dc566ae7536","system_id":"levelo_inurba_marseille","lat":43.26772,"lon":5.39422,"is_reserved":false,"is_disabled":false,"rental_uris":{"android":"levelo://app?vid=405c2ee1-6315-4e55-a1b3-7dc566ae7536","ios":"levelo://app?vid=405c2ee1-6315-4e55-a1b3-7dc566ae7536"},"vehicle_type_id":"4","last_reported":1744956874,"current_range_meters":2800,"station_id":"ce4bhh12rcd13ifvqfg0","pricing_plan_id":"cebpf4jnsgd1na2vs0mg"},{"bike_id":"78471c43-85b3-4f4f-9afc-a3bc5599ab7d","system_id":"levelo_inurba_marseille","lat":43.30306,"lon":5.37714,"is_reserved":false,"is_disabled":false,"rental_uris":{"android":"levelo://app?vid=78471c43-85b3-4f4f-9afc-a3bc5599ab7d","ios":"levelo://app?vid=78471c43-85b3-4f4f-9afc-a3bc5599ab7d"},"vehicle_type_id":"4","last_reported":1744956874,"current_range_meters":3200,"station_id":"ce4bguh2rcd13ifvqcj0","pricing_plan_id":"cebpf4jnsgd1na2vs0mg"},{"bike_id":"a1bd58e4-8e84-4096-8a2f-e7b497bcf64c","system_id":"levelo_inurba_marseille","lat":43.31495,"lon":5.37296,"is_reserved":false,"is_disabled":true,"rental_uris":{"android":"levelo://app?vid=a1bd58e4-8e84-4096-8a2f-e7b497bcf64c","ios":"levelo://app?vid=a1bd58e4-8e84-4096-8a2f-e7b497bcf64c"},"vehicle_type_id":"4","last_reported":1744956874,"current_range_meters":4000,"station_id":"ce4bgt12rcd13ifvqcd0","pricing_plan_id":"cebpf4jnsgd1na2vs0mg"},{"bike_id":"af19ae59-4996-4279-8341-1452cd55c5a8","system_id":"levelo_inurba_marseille","lat":43.24677,"lon":5.3822,"is_reserved":false,"is_disabled":false,"rental_uris":{"android":"levelo://app?vid=af19ae59-4996-4279-8341-1452cd55c5a8","ios":"levelo://app?vid=af19ae59-4996-4279-8341-1452cd55c5a8"},"vehicle_type_id":"4","last_reported":1744956874,"current_range_meters":4800,"station_id":"ce4bhih2rcd13ifvqfr0","pricing_plan_id":"cebpf4jnsgd1na2vs0mg"},{"bike_id":"0cb0ce16-9c3d-45a7-98bb-46531d1b45ec","system_id":"levelo_inurba_marseille","lat":43.29215,"lon":5.36113,"is_reserved":false,"is_disabled":false,"rental_uris":{"android":"levelo://app?vid=0cb0ce16-9c3d-45a7-98bb-46531d1b45ec","ios":"levelo://app?vid=0cb0ce16-9c3d-45a7-98bb-46531d1b45ec"},"vehicle_type_id":"4","last_reported":1744956874,"current_range_meters":5600,"station_id":"ce4bhbh2rcd13ifvqeqg","pricing_plan_id":"cebpf4jnsgd1na2vs0mg"},{"bike_id":"d356c79b-9952-4917-8c8b-b9dcbd13905a","system_id":"levelo_inurba_marseille","lat":43.24667,"lon":5.38162,"is_reserved":false,"is_disabled":false,"rental_uris":{"android":"levelo://app?vid=d356c79b-9952-4917-8c8b-b9dcbd13905a","ios":"levelo://app?vid=d356c79b-9952-4917-8c8b-b9dcbd13905a"},"vehicle_type_id":"4","last_reported":1744956874,"current_range_meters":5600,"station_id":"ce4bhih2rcd13ifvqfr0","pricing_plan_id":"cebpf4jnsgd1na2vs0mg"},{"bike_id":"857f2ddd-7ee5-4382-8a43-96654bba9ba2","system_id":"levelo_inurba_marseille","lat":43.23975,"lon":5.36627,"is_reserved":false,"is_disabled":false,"rental_uris":{"android":"levelo://app?vid=857f2ddd-7ee5-4382-8a43-96654bba9ba2","ios":"levelo://app?vid=857f2ddd-7ee5-4382-8a43-96654bba9ba2"},"vehicle_type_id":"4","last_reported":1744956874,"current_range_meters":5600,"station_id":"ce4bhi12rcd13ifvqfp0","pricing_plan_id":"cebpf4jnsgd1na2vs0mg"},{"bike_id":"593f200f-acc6-4515-9b2c-377663e6c433","system_id":"levelo_inurba_marseille","lat":43.21757,"lon":5.34611,"is_reserved":false,"is_disabled":false,"rental_uris":{"android":"levelo://app?vid=593f200f-acc6-4515-9b2c-377663e6c433","ios":"levelo://app?vid=593f200f-acc6-4515-9b2c-377663e6c433"},"vehicle_type_id":"4","last_reported":1744956874,"current_range_meters":5600,"station_id":"st_cvj6r9ubvosntc0bgbag","pricing_plan_id":"cebpf4jnsgd1na2vs0mg"},{"bike_id":"45ea7eb3-68b7-463e-b765-f2b962e284b0","system_id":"levelo_inurba_marseille","lat":43.30936,"lon":5.40151,"is_reserved":false,"is_disabled":false,"rental_uris":{"android":"levelo://app?vid=45ea7eb3-68b7-463e-b765-f2b962e284b0","ios":"levelo://app?vid=45ea7eb3-68b7-463e-b765-f2b962e284b0"},"vehicle_type_id":"4","last_reported":1744956874,"current_range_meters":5600,"station_id":"ce4bgvp2rcd13ifvqct0","pricing_plan_id":"cebpf4jnsgd1na2vs0mg"},{"bike_id":"0038f336-4d51-422e-9115-c8840ef4d92a","system_id":"levelo_inurba_marseille","lat":43.30148,"lon":5.38075,"is_reserved":false,"is_disabled":false,"rental_uris":{"android":"levelo://app?vid=0038f336-4d51-422e-9115-c8840ef4d92a","ios":"levelo://app?vid=0038f336-4d51-422e-9115-c8840ef4d92a"},"vehicle_type_id":"4","last_reported":1744956874,"current_range_meters":6000,"station_id":"ce4bgjp2rcd13ifvqbh0","pricing_plan_id":"cebpf4jnsgd1na2vs0mg"},{"bike_id":"7982f946-cb24-4a07-9e09-64d9cc41311f","system_id":"levelo_inurba_marseille","lat":43.337444,"lon":5.374475,"is_reserved":false,"is_disabled":false,"rental_uris":{"android":"levelo://app?vid=7982f946-cb24-4a07-9e09-64d9cc41311f","ios":"levelo://app?vid=7982f946-cb24-4a07-9e09-64d9cc41311f"},"vehicle_type_id":"4","last_reported":1744956874,"current_range_meters":11200,"station_id":"ce4bh612rcd13ifvqe6g","pricing_plan_id":"cebpf4jnsgd1na2vs0mg"},{"bike_id":"b104b93d-3486-4201-976f-3dc4f542d5a3","system_id":"levelo_inurba_marseille","lat":43.30162,"lon":5.39882,"is_reserved":false,"is_disabled":false,"rental_uris":{"android":"levelo://app?vid=b104b93d-3486-4201-976f-3dc4f542d5a3","ios":"levelo://app?vid=b104b93d-3486-4201-976f-3dc4f542d5a3"},"vehicle_type_id":"4","last_reported":1744956874,"current_range_meters":6000,"station_id":"ce4bh0h2rcd13ifvqd40","pricing_plan_id":"cebpf4jnsgd1na2vs0mg"},{"bike_id":"b47a8f46-cac2-4c48-8418-e92ebfd5ea0d","system_id":"levelo_inurba_marseille","lat":43.25109,"lon":5.40324,"is_reserved":false,"is_disabled":false,"rental_uris":{"android":"levelo://app?vid=b47a8f46-cac2-4c48-8418-e92ebfd5ea0d","ios":"levelo://app?vid=b47a8f46-cac2-4c48-8418-e92ebfd5ea0d"},"vehicle_type_id":"4","last_reported":1744956874,"current_range_meters":6000,"station_id":"ce4bhlh2rcd13ifvqgig","pricing_plan_id":"cebpf4jnsgd1na2vs0mg"},{"bike_id":"72b9edeb-9d79-4989-adcd-249b8ef0989a","system_id":"levelo_inurba_marseille","lat":43.30596,"lon":5.37233,"is_reserved":false,"is_disabled":false,"rental_uris":{"android":"levelo://app?vid=72b9edeb-9d79-4989-adcd-249b8ef0989a","ios":"levelo://app?vid=72b9edeb-9d79-4989-adcd-249b8ef0989a"},"vehicle_type_id":"4","last_reported":1744956874,"current_range_meters":6400,"station_id":"","pricing_plan_id":"cebpf4jnsgd1na2vs0mg"},{"bike_id":"07dd6a7c-2ab4-4e0a-8438-0e7bda262b59","system_id":"levelo_inurba_marseille","lat":43.29308,"lon":5.37156,"is_reserved":false,"is_disabled":false,"rental_uris":{"android":"levelo://app?vid=07dd6a7c-2ab4-4e0a-8438-0e7bda262b59","ios":"levelo://app?vid=07dd6a7c-2ab4-4e0a-8438-0e7bda262b59"},"vehicle_type_id":"4","last_reported":1744956874,"current_range_meters":6800,"station_id":"ce4bgh92rcd13ifvqb40","pricing_plan_id":"cebpf4jnsgd1na2vs0mg"},{"bike_id":"7b09dfe8-4549-4e15-baf3-df132e32d464","system_id":"levelo_inurba_marseille","lat":43.24186,"lon":5.39739,"is_reserved":false,"is_disabled":false,"rental_uris":{"android":"levelo://app?vid=7b09dfe8-4549-4e15-baf3-df132e32d464","ios":"levelo://app?vid=7b09dfe8-4549-4e15-baf3-df132e32d464"},"vehicle_type_id":"4","last_reported":1744956874,"current_range_meters":6800,"station_id":"ce4bhn12rcd13ifvqgpg","pricing_plan_id":"cebpf4jnsgd1na2vs0mg"},{"bike_id":"88ce086b-91b3-4da1-a45f-e9ca4f83e1d2","system_id":"levelo_inurba_marseille","lat":43.284668,"lon":5.384033,"is_reserved":false,"is_disabled":false,"rental_uris":{"android":"levelo://app?vid=88ce086b-91b3-4da1-a45f-e9ca4f83e1d2","ios":"levelo://app?vid=88ce086b-91b3-4da1-a45f-e9ca4f83e1d2"},"vehicle_type_id":"4","last_reported":1744956874,"current_range_meters":6800,"station_id":"ce4bhbh2rcd13ifvqeo0","pricing_plan_id":"cebpf4jnsgd1na2vs0mg"},{"bike_id":"ce90eeb4-f81d-4b80-9b35-94fd4698915f","system_id":"levelo_inurba_marseille","lat":43.284193,"lon":5.350003,"is_reserved":false,"is_disabled":false,"rental_uris":{"android":"levelo://app?vid=ce90eeb4-f81d-4b80-9b35-94fd4698915f","ios":"levelo://app?vid=ce90eeb4-f81d-4b80-9b35-94fd4698915f"},"vehicle_type_id":"4","last_reported":1744956874,"current_range_meters":6800,"station_id":"ce4bhbh2rcd13ifvqepg","pricing_plan_id":"cebpf4jnsgd1na2vs0mg"},{"bike_id":"df9b757d-c8c0-444d-9fc6-09bf61d6c670","system_id":"levelo_inurba_marseille","lat":43.305502,"lon":5.393395,"is_reserved":false,"is_disabled":false,"rental_uris":{"android":"levelo://app?vid=df9b757d-c8c0-444d-9fc6-09bf61d6c670","ios":"levelo://app?vid=df9b757d-c8c0-444d-9fc6-09bf61d6c670"},"vehicle_type_id":"4","last_reported":1744956874,"current_range_meters":6800,"station_id":"","pricing_plan_id":"cebpf4jnsgd1na2vs0mg"},{"bike_id":"683727aa-af5c-4a30-b620-923da0da034b","system_id":"levelo_inurba_marseille","lat":43.26872,"lon":5.40483,"is_reserved":false,"is_disabled":false,"rental_uris":{"android":"levelo://app?vid=683727aa-af5c-4a30-b620-923da0da034b","ios":"levelo://app?vid=683727aa-af5c-4a30-b620-923da0da034b"},"vehicle_type_id":"4","last_reported":1744956874,"current_range_meters":6800,"station_id":"ce4bgt92rcd13ifvqcf0","pricing_plan_id":"cebpf4jnsgd1na2vs0mg"},{"bike_id":"a31a49f5-1f5d-4e17-b115-f2a47d4c28a1","system_id":"levelo_inurba_marseille","lat":43.30416,"lon":5.37914,"is_reserved":false,"is_disabled":false,"rental_uris":{"android":"levelo://app?vid=a31a49f5-1f5d-4e17-b115-f2a47d4c28a1","ios":"levelo://app?vid=a31a49f5-1f5d-4e17-b115-f2a47d4c28a1"},"vehicle_type_id":"4","last_reported":1744956874,"current_range_meters":6800,"station_id":"","pricing_plan_id":"cebpf4jnsgd1na2vs0mg"},{"bike_id":"f57acb1a-2d22-481f-9311-39903e65c833","system_id":"levelo_inurba_marseille","lat":43.24658,"lon":5.38203,"is_reserved":false,"is_disabled":false,"rental_uris":{"android":"levelo://app?vid=f57acb1a-2d22-481f-9311-39903e65c833","ios":"levelo://app?vid=f57acb1a-2d22-481f-9311-39903e65c833"},"vehicle_type_id":"4","last_reported":1744956874,"current_range_meters":6800,"station_id":"ce4bhih2rcd13ifvqfr0","pricing_plan_id":"cebpf4jnsgd1na2vs0mg"},{"bike_id":"1bdba7a7-a82e-4252-906c-80db6beb180e","system_id":"levelo_inurba_marseille","lat":43.33768,"lon":5.37492,"is_reserved":false,"is_disabled":false,"rental_uris":{"android":"levelo://app?vid=1bdba7a7-a82e-4252-906c-80db6beb180e","ios":"levelo://app?vid=1bdba7a7-a82e-4252-906c-80db6beb180e"},"vehicle_type_id":"4","last_reported":1744956874,"current_range_meters":7200,"station_id":"","pricing_plan_id":"cebpf4jnsgd1na2vs0mg"},{"bike_id":"6a52c25e-e42a-4237-a980-f6f82f2e061e","system_id":"levelo_inurba_marseille","lat":43.211859,"lon":5.350746,"is_reserved":false,"is_disabled":false,"rental_uris":{"android":"levelo://app?vid=6a52c25e-e42a-4237-a980-f6f82f2e061e","ios":"levelo://app?vid=6a52c25e-e42a-4237-a980-f6f82f2e061e"},"vehicle_type_id":"4","last_reported":1744956874,"current_range_meters":7200,"station_id":"st_cvj6sg6p6f1abm77japg","pricing_plan_id":"cebpf4jnsgd1na2vs0mg"},{"bike_id":"2a297b53-e6c9-4a44-8832-a1535085da75","system_id":"levelo_inurba_marseille","lat":43.319914,"lon":5.381448,"is_reserved":false,"is_disabled":true,"rental_uris":{"android":"levelo://app?vid=2a297b53-e6c9-4a44-8832-a1535085da75","ios":"levelo://app?vid=2a297b53-e6c9-4a44-8832-a1535085da75"},"vehicle_type_id":"4","last_reported":1744956874,"current_range_meters":7200,"station_id":"ce4bhr12rcd13ifvqhpg","pricing_plan_id":"cebpf4jnsgd1na2vs0mg"},{"bike_id":"d03355fa-c7f9-4104-958e-81d7994c7f64","system_id":"levelo_inurba_marseille","lat":43.28171,"lon":5.42683,"is_reserved":false,"is_disabled":false,"rental_uris":{"android":"levelo://app?vid=d03355fa-c7f9-4104-958e-81d7994c7f64","ios":"levelo://app?vid=d03355fa-c7f9-4104-958e-81d7994c7f64"},"vehicle_type_id":"4","last_reported":1744956874,"current_range_meters":7200,"station_id":"ce4bhnh2rcd13ifvqgug","pricing_plan_id":"cebpf4jnsgd1na2vs0mg"},{"bike_id":"b066ca97-ba3e-4e64-b79a-c11d1ef9416d","system_id":"levelo_inurba_marseille","lat":43.25589,"lon":5.38248,"is_reserved":false,"is_disabled":false,"rental_uris":{"android":"levelo://app?vid=b066ca97-ba3e-4e64-b79a-c11d1ef9416d","ios":"levelo://app?vid=b066ca97-ba3e-4e64-b79a-c11d1ef9416d"},"vehicle_type_id":"4","last_reported":1744956874,"current_range_meters":7200,"station_id":"ce4bhih2rcd13ifvqfs0","pricing_plan_id":"cebpf4jnsgd1na2vs0mg"},{"bike_id":"4ebbc7f8-fc72-4da5-b611-0baac0637024","system_id":"levelo_inurba_marseille","lat":43.26572,"lon":5.39024,"is_reserved":false,"is_disabled":false,"rental_uris":{"android":"levelo://app?vid=4ebbc7f8-fc72-4da5-b611-0baac0637024","ios":"levelo://app?vid=4ebbc7f8-fc72-4da5-b611-0baac0637024"},"vehicle_type_id":"4","last_reported":1744956874,"current_range_meters":7200,"station_id":"ce4bhe12rcd13ifvqf30","pricing_plan_id":"cebpf4jnsgd1na2vs0mg"},{"bike_id":"2df22311-bac1-4b8f-abff-11893969de63","system_id":"levelo_inurba_marseille","lat":43.31056,"lon":5.37847,"is_reserved":false,"is_disabled":false,"rental_uris":{"android":"levelo://app?vid=2df22311-bac1-4b8f-abff-11893969de63","ios":"levelo://app?vid=2df22311-bac1-4b8f-abff-11893969de63"},"vehicle_type_id":"4","last_reported":1744956874,"current_range_meters":7200,"station_id":"","pricing_plan_id":"cebpf4jnsgd1na2vs0mg"},{"bike_id":"88d80ac6-3462-4b2a-a1e1-3f7da1acd3d3","system_id":"levelo_inurba_marseille","lat":43.31166,"lon":5.3868,"is_reserved":false,"is_disabled":true,"rental_uris":{"android":"levelo://app?vid=88d80ac6-3462-4b2a-a1e1-3f7da1acd3d3","ios":"levelo://app?vid=88d80ac6-3462-4b2a-a1e1-3f7da1acd3d3"},"vehicle_type_id":"4","last_reported":1744956874,"current_range_meters":7200,"station_id":"ce4bgv12rcd13ifvqcp0","pricing_plan_id":"cebpf4jnsgd1na2vs0mg"},{"bike_id":"5e08de35-3e0c-4d5f-b69b-a662212c4dac","system_id":"levelo_inurba_marseille","lat":43.241766,"lon":5.39732,"is_reserved":false,"is_disabled":false,"rental_uris":{"android":"levelo://app?vid=5e08de35-3e0c-4d5f-b69b-a662212c4dac","ios":"levelo://app?vid=5e08de35-3e0c-4d5f-b69b-a662212c4dac"},"vehicle_type_id":"4","last_reported":1744956874,"current_range_meters":7200,"station_id":"","pricing_plan_id":"cebpf4jnsgd1na2vs0mg"},{"bike_id":"a4af1535-30e8-4945-92aa-4459d35ed7cf","system_id":"levelo_inurba_marseille","lat":43.26258,"lon":5.40483,"is_reserved":false,"is_disabled":false,"rental_uris":{"android":"levelo://app?vid=a4af1535-30e8-4945-92aa-4459d35ed7cf","ios":"levelo://app?vid=a4af1535-30e8-4945-92aa-4459d35ed7cf"},"vehicle_type_id":"4","last_reported":1744956874,"current_range_meters":8000,"station_id":"ce4bhmh2rcd13ifvqgmg","pricing_plan_id":"cebpf4jnsgd1na2vs0mg"},{"bike_id":"2db2330c-d70d-466c-b90a-2c34aacd6558","system_id":"levelo_inurba_marseille","lat":43.29038,"lon":5.39969,"is_reserved":false,"is_disabled":false,"rental_uris":{"android":"levelo://app?vid=2db2330c-d70d-466c-b90a-2c34aacd6558","ios":"levelo://app?vid=2db2330c-d70d-466c-b90a-2c34aacd6558"},"vehicle_type_id":"4","last_reported":1744956874,"current_range_meters":8000,"station_id":"ce4bh392rcd13ifvqdm0","pricing_plan_id":"cebpf4jnsgd1na2vs0mg"},{"bike_id":"09e29c8d-0531-4ea0-befd-5427ca701da3","system_id":"levelo_inurba_marseille","lat":43.3052,"lon":5.37178,"is_reserved":false,"is_disabled":true,"rental_uris":{"android":"levelo://app?vid=09e29c8d-0531-4ea0-befd-5427ca701da3","ios":"levelo://app?vid=09e29c8d-0531-4ea0-befd-5427ca701da3"},"vehicle_type_id":"4","last_reported":1744956874,"current_range_meters":8000,"station_id":"ce4bgqh2rcd13ifvqc4g","pricing_plan_id":"cebpf4jnsgd1na2vs0mg"},{"bike_id":"8ee49884-4076-402b-bdc6-b1b75f8b478d","system_id":"levelo_inurba_marseille","lat":43.279121,"lon":5.395879,"is_reserved":false,"is_disabled":false,"rental_uris":{"android":"levelo://app?vid=8ee49884-4076-402b-bdc6-b1b75f8b478d","ios":"levelo://app?vid=8ee49884-4076-402b-bdc6-b1b75f8b478d"},"vehicle_type_id":"4","last_reported":1744956874,"current_range_meters":8000,"station_id":"ce4bhf92rcd13ifvqf40","pricing_plan_id":"cebpf4jnsgd1na2vs0mg"},{"bike_id":"0a0b0a73-2b27-49fb-801a-3111dcebfbac","system_id":"levelo_inurba_marseille","lat":43.274924,"lon":5.424624,"is_reserved":false,"is_disabled":false,"rental_uris":{"android":"levelo://app?vid=0a0b0a73-2b27-49fb-801a-3111dcebfbac","ios":"levelo://app?vid=0a0b0a73-2b27-49fb-801a-3111dcebfbac"},"vehicle_type_id":"4","last_reported":1744956874,"current_range_meters":8000,"station_id":"ce4bhn92rcd13ifvqgrg","pricing_plan_id":"cebpf4jnsgd1na2vs0mg"},{"bike_id":"08545b9c-147f-4096-92e8-2af1c560447d","system_id":"levelo_inurba_marseille","lat":43.27492,"lon":5.42456,"is_reserved":false,"is_disabled":false,"rental_uris":{"android":"levelo://app?vid=08545b9c-147f-4096-92e8-2af1c560447d","ios":"levelo://app?vid=08545b9c-147f-4096-92e8-2af1c560447d"},"vehicle_type_id":"4","last_reported":1744956874,"current_range_meters":8000,"station_id":"ce4bhn92rcd13ifvqgrg","pricing_plan_id":"cebpf4jnsgd1na2vs0mg"},{"bike_id":"13b00410-bb9e-4396-a252-e1c023113219","system_id":"levelo_inurba_marseille","lat":43.31013,"lon":5.38485,"is_reserved":false,"is_disabled":false,"rental_uris":{"android":"levelo://app?vid=13b00410-bb9e-4396-a252-e1c023113219","ios":"levelo://app?vid=13b00410-bb9e-4396-a252-e1c023113219"},"vehicle_type_id":"4","last_reported":1744956874,"current_range_meters":8000,"station_id":"","pricing_plan_id":"cebpf4jnsgd1na2vs0mg"},{"bike_id":"6a42fdd6-075d-4748-811a-29f5845c8920","system_id":"levelo_inurba_marseille","lat":43.21758,"lon":5.34613,"is_reserved":false,"is_disabled":false,"rental_uris":{"android":"levelo://app?vid=6a42fdd6-075d-4748-811a-29f5845c8920","ios":"levelo://app?vid=6a42fdd6-075d-4748-811a-29f5845c8920"},"vehicle_type_id":"4","last_reported":1744956874,"current_range_meters":8400,"station_id":"st_cvj6r9ubvosntc0bgbag","pricing_plan_id":"cebpf4jnsgd1na2vs0mg"},{"bike_id":"2a2d2f92-39d4-4f65-84e0-3b880329f1c5","system_id":"levelo_inurba_marseille","lat":43.29581,"lon":5.39982,"is_reserved":false,"is_disabled":false,"rental_uris":{"android":"levelo://app?vid=2a2d2f92-39d4-4f65-84e0-3b880329f1c5","ios":"levelo://app?vid=2a2d2f92-39d4-4f65-84e0-3b880329f1c5"},"vehicle_type_id":"4","last_reported":1744956874,"current_range_meters":8400,"station_id":"ce4bh312rcd13ifvqdj0","pricing_plan_id":"cebpf4jnsgd1na2vs0mg"},{"bike_id":"7b96111b-7974-4fe6-9610-4556870a2e07","system_id":"levelo_inurba_marseille","lat":43.24404,"lon":5.37083,"is_reserved":false,"is_disabled":false,"rental_uris":{"android":"levelo://app?vid=7b96111b-7974-4fe6-9610-4556870a2e07","ios":"levelo://app?vid=7b96111b-7974-4fe6-9610-4556870a2e07"},"vehicle_type_id":"4","last_reported":1744956874,"current_range_meters":8400,"station_id":"ce4bhhh2rcd13ifvqfk0","pricing_plan_id":"cebpf4jnsgd1na2vs0mg"},{"bike_id":"1953ad5e-5f56-46f9-9358-ca08c41f1be4","system_id":"levelo_inurba_marseille","lat":43.31335,"lon":5.39709,"is_reserved":false,"is_disabled":false,"rental_uris":{"android":"levelo://app?vid=1953ad5e-5f56-46f9-9358-ca08c41f1be4","ios":"levelo://app?vid=1953ad5e-5f56-46f9-9358-ca08c41f1be4"},"vehicle_type_id":"4","last_reported":1744956874,"current_range_meters":8400,"station_id":"ce4bgvp2rcd13ifvqcu0","pricing_plan_id":"cebpf4jnsgd1na2vs0mg"},{"bike_id":"706174a5-b367-48cd-8f47-742f4f05c9f3","system_id":"levelo_inurba_marseille","lat":43.31963,"lon":5.37133,"is_reserved":false,"is_disabled":false,"rental_uris":{"android":"levelo://app?vid=706174a5-b367-48cd-8f47-742f4f05c9f3","ios":"levelo://app?vid=706174a5-b367-48cd-8f47-742f4f05c9f3"},"vehicle_type_id":"4","last_reported":1744956874,"current_range_meters":8400,"station_id":"","pricing_plan_id":"cebpf4jnsgd1na2vs0mg"},{"bike_id":"a7a61861-d7ec-4293-a443-2039bd621d98","system_id":"levelo_inurba_marseille","lat":43.28486,"lon":5.38531,"is_reserved":false,"is_disabled":false,"rental_uris":{"android":"levelo://app?vid=a7a61861-d7ec-4293-a443-2039bd621d98","ios":"levelo://app?vid=a7a61861-d7ec-4293-a443-2039bd621d98"},"vehicle_type_id":"4","last_reported":1744956874,"current_range_meters":8800,"station_id":"ce4bh8p2rcd13ifvqeb0","pricing_plan_id":"cebpf4jnsgd1na2vs0mg"},{"bike_id":"e3061286-add2-4bc6-a803-66a4d7d63e42","system_id":"levelo_inurba_marseille","lat":43.2861,"lon":5.35121,"is_reserved":false,"is_disabled":false,"rental_uris":{"android":"levelo://app?vid=e3061286-add2-4bc6-a803-66a4d7d63e42","ios":"levelo://app?vid=e3061286-add2-4bc6-a803-66a4d7d63e42"},"vehicle_type_id":"4","last_reported":1744956874,"current_range_meters":8800,"station_id":"ce4bhch2rcd13ifvqeug","pricing_plan_id":"cebpf4jnsgd1na2vs0mg"},{"bike_id":"54e3e55b-7492-48eb-a4a3-6f203a41345e","system_id":"levelo_inurba_marseille","lat":43.307295,"lon":5.38101,"is_reserved":false,"is_disabled":true,"rental_uris":{"android":"levelo://app?vid=54e3e55b-7492-48eb-a4a3-6f203a41345e","ios":"levelo://app?vid=54e3e55b-7492-48eb-a4a3-6f203a41345e"},"vehicle_type_id":"4","last_reported":1744956874,"current_range_meters":8800,"station_id":"","pricing_plan_id":"cebpf4jnsgd1na2vs0mg"},{"bike_id":"72823705-7f07-4adb-897d-e1709234e554","system_id":"levelo_inurba_marseille","lat":43.23165,"lon":5.40011,"is_reserved":false,"is_disabled":false,"rental_uris":{"android":"levelo://app?vid=72823705-7f07-4adb-897d-e1709234e554","ios":"levelo://app?vid=72823705-7f07-4adb-897d-e1709234e554"},"vehicle_type_id":"4","last_reported":1744956874,"current_range_meters":8800,"station_id":"ce4bhn12rcd13ifvqgqg","pricing_plan_id":"cebpf4jnsgd1na2vs0mg"},{"bike_id":"128d2471-1149-4f29-9a7d-faf79ba899c9","system_id":"levelo_inurba_marseille","lat":43.24166,"lon":5.36402,"is_reserved":false,"is_disabled":true,"rental_uris":{"android":"levelo://app?vid=128d2471-1149-4f29-9a7d-faf79ba899c9","ios":"levelo://app?vid=128d2471-1149-4f29-9a7d-faf79ba899c9"},"vehicle_type_id":"4","last_reported":1744956874,"current_range_meters":8800,"station_id":"cpo36qri1sfpv3e86is0","pricing_plan_id":"cebpf4jnsgd1na2vs0mg"},{"bike_id":"7a309602-af8f-4ea4-8e53-e755bdc0b888","system_id":"levelo_inurba_marseille","lat":43.29217,"lon":5.35836,"is_reserved":false,"is_disabled":false,"rental_uris":{"android":"levelo://app?vid=7a309602-af8f-4ea4-8e53-e755bdc0b888","ios":"levelo://app?vid=7a309602-af8f-4ea4-8e53-e755bdc0b888"},"vehicle_type_id":"4","last_reported":1744956874,"current_range_meters":8800,"station_id":"ce4bhb12rcd13ifvqel0","pricing_plan_id":"cebpf4jnsgd1na2vs0mg"},{"bike_id":"ff935f1c-246d-4e07-a399-40ad7e059de5","system_id":"levelo_inurba_marseille","lat":43.254888,"lon":5.376521,"is_reserved":false,"is_disabled":true,"rental_uris":{"android":"levelo://app?vid=ff935f1c-246d-4e07-a399-40ad7e059de5","ios":"levelo://app?vid=ff935f1c-246d-4e07-a399-40ad7e059de5"},"vehicle_type_id":"4","last_reported":1744956874,"current_range_meters":9200,"station_id":"ce4bhh12rcd13ifvqff0","pricing_plan_id":"cebpf4jnsgd1na2vs0mg"},{"bike_id":"47609ccd-53e0-4078-82db-70f12f07ba72","system_id":"levelo_inurba_marseille","lat":43.29185,"lon":5.35823,"is_reserved":false,"is_disabled":false,"rental_uris":{"android":"levelo://app?vid=47609ccd-53e0-4078-82db-70f12f07ba72","ios":"levelo://app?vid=47609ccd-53e0-4078-82db-70f12f07ba72"},"vehicle_type_id":"4","last_reported":1744956874,"current_range_meters":9200,"station_id":"ce4bhb12rcd13ifvqel0","pricing_plan_id":"cebpf4jnsgd1na2vs0mg"},{"bike_id":"9a2164c4-76e4-4703-bb0c-55cc0ef91084","system_id":"levelo_inurba_marseille","lat":43.30646,"lon":5.40075,"is_reserved":false,"is_disabled":false,"rental_uris":{"android":"levelo://app?vid=9a2164c4-76e4-4703-bb0c-55cc0ef91084","ios":"levelo://app?vid=9a2164c4-76e4-4703-bb0c-55cc0ef91084"},"vehicle_type_id":"4","last_reported":1744956874,"current_range_meters":9200,"station_id":"ce4bh112rcd13ifvqda0","pricing_plan_id":"cebpf4jnsgd1na2vs0mg"},{"bike_id":"11548807-0a34-4c40-92e7-8b1f77e86c85","system_id":"levelo_inurba_marseille","lat":43.29781,"lon":5.37102,"is_reserved":false,"is_disabled":false,"rental_uris":{"android":"levelo://app?vid=11548807-0a34-4c40-92e7-8b1f77e86c85","ios":"levelo://app?vid=11548807-0a34-4c40-92e7-8b1f77e86c85"},"vehicle_type_id":"4","last_reported":1744956874,"current_range_meters":9200,"station_id":"ce4bgop2rcd13ifvqc1g","pricing_plan_id":"cebpf4jnsgd1na2vs0mg"},{"bike_id":"134b951f-44a4-459d-95ae-43cf90947705","system_id":"levelo_inurba_marseille","lat":43.309471,"lon":5.390291,"is_reserved":false,"is_disabled":false,"rental_uris":{"android":"levelo://app?vid=134b951f-44a4-459d-95ae-43cf90947705","ios":"levelo://app?vid=134b951f-44a4-459d-95ae-43cf90947705"},"vehicle_type_id":"4","last_reported":1744956874,"current_range_meters":9200,"station_id":"","pricing_plan_id":"cebpf4jnsgd1na2vs0mg"},{"bike_id":"2e3d1586-39b9-4f2e-a808-4f2fbc6116b5","system_id":"levelo_inurba_marseille","lat":43.28397,"lon":5.37515,"is_reserved":false,"is_disabled":false,"rental_uris":{"android":"levelo://app?vid=2e3d1586-39b9-4f2e-a808-4f2fbc6116b5","ios":"levelo://app?vid=2e3d1586-39b9-4f2e-a808-4f2fbc6116b5"},"vehicle_type_id":"4","last_reported":1744956874,"current_range_meters":9200,"station_id":"ce4bh412rcd13ifvqds0","pricing_plan_id":"cebpf4jnsgd1na2vs0mg"},{"bike_id":"f9257457-af89-46ea-a09c-323ad0c42b2f","system_id":"levelo_inurba_marseille","lat":43.31346,"lon":5.36728,"is_reserved":false,"is_disabled":false,"rental_uris":{"android":"levelo://app?vid=f9257457-af89-46ea-a09c-323ad0c42b2f","ios":"levelo://app?vid=f9257457-af89-46ea-a09c-323ad0c42b2f"},"vehicle_type_id":"4","last_reported":1744956874,"current_range_meters":9200,"station_id":"ce4bgr92rcd13ifvqc6g","pricing_plan_id":"cebpf4jnsgd1na2vs0mg"},{"bike_id":"2bff5c6f-0ab3-4aea-8728-9487b96d7df9","system_id":"levelo_inurba_marseille","lat":43.28562,"lon":5.39501,"is_reserved":false,"is_disabled":false,"rental_uris":{"android":"levelo://app?vid=2bff5c6f-0ab3-4aea-8728-9487b96d7df9","ios":"levelo://app?vid=2bff5c6f-0ab3-4aea-8728-9487b96d7df9"},"vehicle_type_id":"4","last_reported":1744956874,"current_range_meters":9600,"station_id":"ce4bh292rcd13ifvqdg0","pricing_plan_id":"cebpf4jnsgd1na2vs0mg"},{"bike_id":"2f52d163-dd56-4334-be9f-8d6905835b03","system_id":"levelo_inurba_marseille","lat":43.31358,"lon":5.36714,"is_reserved":false,"is_disabled":false,"rental_uris":{"android":"levelo://app?vid=2f52d163-dd56-4334-be9f-8d6905835b03","ios":"levelo://app?vid=2f52d163-dd56-4334-be9f-8d6905835b03"},"vehicle_type_id":"4","last_reported":1744956874,"current_range_meters":9600,"station_id":"ce4bgr92rcd13ifvqc6g","pricing_plan_id":"cebpf4jnsgd1na2vs0mg"},{"bike_id":"c5ad34a5-de23-413d-9e8b-ec61ed7009c1","system_id":"levelo_inurba_marseille","lat":43.28619,"lon":5.3508,"is_reserved":false,"is_disabled":false,"rental_uris":{"android":"levelo://app?vid=c5ad34a5-de23-413d-9e8b-ec61ed7009c1","ios":"levelo://app?vid=c5ad34a5-de23-413d-9e8b-ec61ed7009c1"},"vehicle_type_id":"4","last_reported":1744956874,"current_range_meters":9600,"station_id":"ce4bhch2rcd13ifvqeug","pricing_plan_id":"cebpf4jnsgd1na2vs0mg"},{"bike_id":"8033c8a6-9666-4125-9e17-3e7eaf5cf07f","system_id":"levelo_inurba_marseille","lat":43.25593,"lon":5.38267,"is_reserved":false,"is_disabled":false,"rental_uris":{"android":"levelo://app?vid=8033c8a6-9666-4125-9e17-3e7eaf5cf07f","ios":"levelo://app?vid=8033c8a6-9666-4125-9e17-3e7eaf5cf07f"},"vehicle_type_id":"4","last_reported":1744956874,"current_range_meters":9600,"station_id":"ce4bhih2rcd13ifvqfs0","pricing_plan_id":"cebpf4jnsgd1na2vs0mg"},{"bike_id":"cbf29fce-b821-4cbd-8ecd-022dab6930e8","system_id":"levelo_inurba_marseille","lat":43.2841,"lon":5.37537,"is_reserved":false,"is_disabled":false,"rental_uris":{"android":"levelo://app?vid=cbf29fce-b821-4cbd-8ecd-022dab6930e8","ios":"levelo://app?vid=cbf29fce-b821-4cbd-8ecd-022dab6930e8"},"vehicle_type_id":"4","last_reported":1744956874,"current_range_meters":9600,"station_id":"ce4bh412rcd13ifvqds0","pricing_plan_id":"cebpf4jnsgd1na2vs0mg"},{"bike_id":"ec8c9ac7-1e95-4171-97f3-226ce1e3c951","system_id":"levelo_inurba_marseille","lat":43.32109,"lon":5.36795,"is_reserved":false,"is_disabled":false,"rental_uris":{"android":"levelo://app?vid=ec8c9ac7-1e95-4171-97f3-226ce1e3c951","ios":"levelo://app?vid=ec8c9ac7-1e95-4171-97f3-226ce1e3c951"},"vehicle_type_id":"4","last_reported":1744956874,"current_range_meters":10000,"station_id":"ce4bhrh2rcd13ifvqhug","pricing_plan_id":"cebpf4jnsgd1na2vs0mg"},{"bike_id":"98da1440-ddaf-41c4-ae43-8bc3e685a3bb","system_id":"levelo_inurba_marseille","lat":43.2837,"lon":5.34971,"is_reserved":false,"is_disabled":false,"rental_uris":{"android":"levelo://app?vid=98da1440-ddaf-41c4-ae43-8bc3e685a3bb","ios":"levelo://app?vid=98da1440-ddaf-41c4-ae43-8bc3e685a3bb"},"vehicle_type_id":"4","last_reported":1744956874,"current_range_meters":10000,"station_id":"ce4bhbh2rcd13ifvqepg","pricing_plan_id":"cebpf4jnsgd1na2vs0mg"},{"bike_id":"fe7c7689-3731-4056-8d49-6381cc08a48b","system_id":"levelo_inurba_marseille","lat":43.299781,"lon":5.384995,"is_reserved":false,"is_disabled":true,"rental_uris":{"android":"levelo://app?vid=fe7c7689-3731-4056-8d49-6381cc08a48b","ios":"levelo://app?vid=fe7c7689-3731-4056-8d49-6381cc08a48b"},"vehicle_type_id":"4","last_reported":1744956874,"current_range_meters":10000,"station_id":"ce4bgj92rcd13ifvqbd0","pricing_plan_id":"cebpf4jnsgd1na2vs0mg"},{"bike_id":"64a47f4a-f4e2-4e1b-949e-3e6cf7bc5e72","system_id":"levelo_inurba_marseille","lat":43.27206,"lon":5.40996,"is_reserved":false,"is_disabled":true,"rental_uris":{"android":"levelo://app?vid=64a47f4a-f4e2-4e1b-949e-3e6cf7bc5e72","ios":"levelo://app?vid=64a47f4a-f4e2-4e1b-949e-3e6cf7bc5e72"},"vehicle_type_id":"4","last_reported":1744956874,"current_range_meters":10000,"station_id":"ce4bhl12rcd13ifvqgf0","pricing_plan_id":"cebpf4jnsgd1na2vs0mg"},{"bike_id":"41fb0398-f2fe-4abb-ae37-a38f47615ea9","system_id":"levelo_inurba_marseille","lat":43.32356,"lon":5.36765,"is_reserved":false,"is_disabled":false,"rental_uris":{"android":"levelo://app?vid=41fb0398-f2fe-4abb-ae37-a38f47615ea9","ios":"levelo://app?vid=41fb0398-f2fe-4abb-ae37-a38f47615ea9"},"vehicle_type_id":"4","last_reported":1744956874,"current_range_meters":10000,"station_id":"ce4bhsh2rcd13ifvqi2g","pricing_plan_id":"cebpf4jnsgd1na2vs0mg"},{"bike_id":"4a17a27b-4979-4133-9ae1-996785f8fee4","system_id":"levelo_inurba_marseille","lat":43.23082,"lon":5.35515,"is_reserved":false,"is_disabled":false,"rental_uris":{"android":"levelo://app?vid=4a17a27b-4979-4133-9ae1-996785f8fee4","ios":"levelo://app?vid=4a17a27b-4979-4133-9ae1-996785f8fee4"},"vehicle_type_id":"4","last_reported":1744956874,"current_range_meters":10000,"station_id":"cpo3342slgdg3j2ifvpg","pricing_plan_id":"cebpf4jnsgd1na2vs0mg"},{"bike_id":"4b33f286-5cd5-4322-a997-29c53282b349","system_id":"levelo_inurba_marseille","lat":43.27183,"lon":5.40995,"is_reserved":false,"is_disabled":false,"rental_uris":{"android":"levelo://app?vid=4b33f286-5cd5-4322-a997-29c53282b349","ios":"levelo://app?vid=4b33f286-5cd5-4322-a997-29c53282b349"},"vehicle_type_id":"4","last_reported":1744956874,"current_range_meters":10000,"station_id":"ce4bhl12rcd13ifvqgf0","pricing_plan_id":"cebpf4jnsgd1na2vs0mg"},{"bike_id":"f348c235-69d5-41ec-b5f7-0a83dab5339a","system_id":"levelo_inurba_marseille","lat":43.28996,"lon":5.35611,"is_reserved":false,"is_disabled":true,"rental_uris":{"android":"levelo://app?vid=f348c235-69d5-41ec-b5f7-0a83dab5339a","ios":"levelo://app?vid=f348c235-69d5-41ec-b5f7-0a83dab5339a"},"vehicle_type_id":"4","last_reported":1744956874,"current_range_meters":10000,"station_id":"ce4bhb92rcd13ifvqen0","pricing_plan_id":"cebpf4jnsgd1na2vs0mg"},{"bike_id":"04657881-18eb-45ab-8fbd-9926a7c863cf","system_id":"levelo_inurba_marseille","lat":43.286134,"lon":5.351049,"is_reserved":false,"is_disabled":false,"rental_uris":{"android":"levelo://app?vid=04657881-18eb-45ab-8fbd-9926a7c863cf","ios":"levelo://app?vid=04657881-18eb-45ab-8fbd-9926a7c863cf"},"vehicle_type_id":"4","last_reported":1744956874,"current_range_meters":10000,"station_id":"ce4bhch2rcd13ifvqeug","pricing_plan_id":"cebpf4jnsgd1na2vs0mg"},{"bike_id":"5fddd535-ab4d-402f-9080-0ad0b96c0735","system_id":"levelo_inurba_marseille","lat":43.309344,"lon":5.367464,"is_reserved":false,"is_disabled":false,"rental_uris":{"android":"levelo://app?vid=5fddd535-ab4d-402f-9080-0ad0b96c0735","ios":"levelo://app?vid=5fddd535-ab4d-402f-9080-0ad0b96c0735"},"vehicle_type_id":"4","last_reported":1744956874,"current_range_meters":10800,"station_id":"","pricing_plan_id":"cebpf4jnsgd1na2vs0mg"},{"bike_id":"adde4d5e-a6c8-47d4-bad6-4ab17d17ade1","system_id":"levelo_inurba_marseille","lat":43.27968,"lon":5.38708,"is_reserved":false,"is_disabled":false,"rental_uris":{"android":"levelo://app?vid=adde4d5e-a6c8-47d4-bad6-4ab17d17ade1","ios":"levelo://app?vid=adde4d5e-a6c8-47d4-bad6-4ab17d17ade1"},"vehicle_type_id":"4","last_reported":1744956874,"current_range_meters":10800,"station_id":"ce4bhg12rcd13ifvqf80","pricing_plan_id":"cebpf4jnsgd1na2vs0mg"},{"bike_id":"ae0e1566-e631-4bc5-9aed-0ebca70f0554","system_id":"levelo_inurba_marseille","lat":43.286234,"lon":5.35107,"is_reserved":false,"is_disabled":false,"rental_uris":{"android":"levelo://app?vid=ae0e1566-e631-4bc5-9aed-0ebca70f0554","ios":"levelo://app?vid=ae0e1566-e631-4bc5-9aed-0ebca70f0554"},"vehicle_type_id":"4","last_reported":1744956874,"current_range_meters":10800,"station_id":"ce4bhch2rcd13ifvqeug","pricing_plan_id":"cebpf4jnsgd1na2vs0mg"},{"bike_id":"633aa362-611c-4af7-b8d7-3ca322d5f5ea","system_id":"levelo_inurba_marseille","lat":43.24663,"lon":5.381634,"is_reserved":false,"is_disabled":false,"rental_uris":{"android":"levelo://app?vid=633aa362-611c-4af7-b8d7-3ca322d5f5ea","ios":"levelo://app?vid=633aa362-611c-4af7-b8d7-3ca322d5f5ea"},"vehicle_type_id":"4","last_reported":1744956874,"current_range_meters":10800,"station_id":"ce4bhih2rcd13ifvqfr0","pricing_plan_id":"cebpf4jnsgd1na2vs0mg"},{"bike_id":"d7e9d8be-e49c-45a8-80f8-1f65bfb83645","system_id":"levelo_inurba_marseille","lat":43.23589,"lon":5.40352,"is_reserved":false,"is_disabled":false,"rental_uris":{"android":"levelo://app?vid=d7e9d8be-e49c-45a8-80f8-1f65bfb83645","ios":"levelo://app?vid=d7e9d8be-e49c-45a8-80f8-1f65bfb83645"},"vehicle_type_id":"4","last_reported":1744956874,"current_range_meters":10800,"station_id":"","pricing_plan_id":"cebpf4jnsgd1na2vs0mg"},{"bike_id":"21092c07-6713-4bda-93a0-0d1eb9144b1f","system_id":"levelo_inurba_marseille","lat":43.23199,"lon":5.40024,"is_reserved":false,"is_disabled":false,"rental_uris":{"android":"levelo://app?vid=21092c07-6713-4bda-93a0-0d1eb9144b1f","ios":"levelo://app?vid=21092c07-6713-4bda-93a0-0d1eb9144b1f"},"vehicle_type_id":"4","last_reported":1744956874,"current_range_meters":10800,"station_id":"ce4bhn12rcd13ifvqgqg","pricing_plan_id":"cebpf4jnsgd1na2vs0mg"},{"bike_id":"c8dde701-3d7c-42ae-9a79-449af7d453ed","system_id":"levelo_inurba_marseille","lat":43.305385,"lon":5.36708,"is_reserved":false,"is_disabled":false,"rental_uris":{"android":"levelo://app?vid=c8dde701-3d7c-42ae-9a79-449af7d453ed","ios":"levelo://app?vid=c8dde701-3d7c-42ae-9a79-449af7d453ed"},"vehicle_type_id":"4","last_reported":1744956874,"current_range_meters":11200,"station_id":"ce4bgrp2rcd13ifvqc9g","pricing_plan_id":"cebpf4jnsgd1na2vs0mg"},{"bike_id":"9acabad9-bc9e-4bbd-a9e4-a8cb277530e3","system_id":"levelo_inurba_marseille","lat":43.3013,"lon":5.3808,"is_reserved":false,"is_disabled":false,"rental_uris":{"android":"levelo://app?vid=9acabad9-bc9e-4bbd-a9e4-a8cb277530e3","ios":"levelo://app?vid=9acabad9-bc9e-4bbd-a9e4-a8cb277530e3"},"vehicle_type_id":"4","last_reported":1744956874,"current_range_meters":11200,"station_id":"ce4bgjp2rcd13ifvqbh0","pricing_plan_id":"cebpf4jnsgd1na2vs0mg"},{"bike_id":"e14c265e-eca3-4791-a3e7-f534121ae166","system_id":"levelo_inurba_marseille","lat":43.22923,"lon":5.35397,"is_reserved":false,"is_disabled":false,"rental_uris":{"android":"levelo://app?vid=e14c265e-eca3-4791-a3e7-f534121ae166","ios":"levelo://app?vid=e14c265e-eca3-4791-a3e7-f534121ae166"},"vehicle_type_id":"4","last_reported":1744956874,"current_range_meters":11200,"station_id":"cpo3532slgdg3j2ikp40","pricing_plan_id":"cebpf4jnsgd1na2vs0mg"},{"bike_id":"1a8a63aa-a309-4741-840a-e6936821a12b","system_id":"levelo_inurba_marseille","lat":43.31185,"lon":5.37753,"is_reserved":false,"is_disabled":false,"rental_uris":{"android":"levelo://app?vid=1a8a63aa-a309-4741-840a-e6936821a12b","ios":"levelo://app?vid=1a8a63aa-a309-4741-840a-e6936821a12b"},"vehicle_type_id":"4","last_reported":1744956874,"current_range_meters":11200,"station_id":"","pricing_plan_id":"cebpf4jnsgd1na2vs0mg"},{"bike_id":"99a4a7af-00a0-48d5-86ea-f4f386823718","system_id":"levelo_inurba_marseille","lat":43.295701,"lon":5.399718,"is_reserved":false,"is_disabled":false,"rental_uris":{"android":"levelo://app?vid=99a4a7af-00a0-48d5-86ea-f4f386823718","ios":"levelo://app?vid=99a4a7af-00a0-48d5-86ea-f4f386823718"},"vehicle_type_id":"4","last_reported":1744956874,"current_range_meters":15200,"station_id":"ce4bhh12rcd13ifvqfg0","pricing_plan_id":"cebpf4jnsgd1na2vs0mg"},{"bike_id":"f690738c-7184-40d0-8e24-653d6c176a31","system_id":"levelo_inurba_marseille","lat":43.29553,"lon":5.42401,"is_reserved":false,"is_disabled":false,"rental_uris":{"android":"levelo://app?vid=f690738c-7184-40d0-8e24-653d6c176a31","ios":"levelo://app?vid=f690738c-7184-40d0-8e24-653d6c176a31"},"vehicle_type_id":"4","last_reported":1744956874,"current_range_meters":11200,"station_id":"","pricing_plan_id":"cebpf4jnsgd1na2vs0mg"},{"bike_id":"a8acab35-e8ef-4d3d-a4b5-67d71ab7687d","system_id":"levelo_inurba_marseille","lat":43.23965,"lon":5.36646,"is_reserved":false,"is_disabled":false,"rental_uris":{"android":"levelo://app?vid=a8acab35-e8ef-4d3d-a4b5-67d71ab7687d","ios":"levelo://app?vid=a8acab35-e8ef-4d3d-a4b5-67d71ab7687d"},"vehicle_type_id":"4","last_reported":1744956874,"current_range_meters":11600,"station_id":"ce4bhi12rcd13ifvqfp0","pricing_plan_id":"cebpf4jnsgd1na2vs0mg"},{"bike_id":"5c991962-d5a0-46ab-b8d3-7e26135894a2","system_id":"levelo_inurba_marseille","lat":43.26019,"lon":5.37591,"is_reserved":false,"is_disabled":true,"rental_uris":{"android":"levelo://app?vid=5c991962-d5a0-46ab-b8d3-7e26135894a2","ios":"levelo://app?vid=5c991962-d5a0-46ab-b8d3-7e26135894a2"},"vehicle_type_id":"4","last_reported":1744956874,"current_range_meters":11600,"station_id":"ce4bhgh2rcd13ifvqfa0","pricing_plan_id":"cebpf4jnsgd1na2vs0mg"},{"bike_id":"1210dc72-37b8-49f7-b249-6faa54daba28","system_id":"levelo_inurba_marseille","lat":43.3236,"lon":5.3677,"is_reserved":false,"is_disabled":false,"rental_uris":{"android":"levelo://app?vid=1210dc72-37b8-49f7-b249-6faa54daba28","ios":"levelo://app?vid=1210dc72-37b8-49f7-b249-6faa54daba28"},"vehicle_type_id":"4","last_reported":1744956874,"current_range_meters":12000,"station_id":"ce4bhsh2rcd13ifvqi2g","pricing_plan_id":"cebpf4jnsgd1na2vs0mg"},{"bike_id":"94db8460-8919-43c5-b6c2-b1d73dbe3d16","system_id":"levelo_inurba_marseille","lat":43.262285,"lon":5.404515,"is_reserved":false,"is_disabled":false,"rental_uris":{"android":"levelo://app?vid=94db8460-8919-43c5-b6c2-b1d73dbe3d16","ios":"levelo://app?vid=94db8460-8919-43c5-b6c2-b1d73dbe3d16"},"vehicle_type_id":"4","last_reported":1744956874,"current_range_meters":12000,"station_id":"ce4bhmh2rcd13ifvqgmg","pricing_plan_id":"cebpf4jnsgd1na2vs0mg"},{"bike_id":"970f976d-90a5-4b6f-855e-22119ee3260b","system_id":"levelo_inurba_marseille","lat":43.30188,"lon":5.36638,"is_reserved":false,"is_disabled":false,"rental_uris":{"android":"levelo://app?vid=970f976d-90a5-4b6f-855e-22119ee3260b","ios":"levelo://app?vid=970f976d-90a5-4b6f-855e-22119ee3260b"},"vehicle_type_id":"4","last_reported":1744956874,"current_range_meters":12000,"station_id":"ce4bgrh2rcd13ifvqc8g","pricing_plan_id":"cebpf4jnsgd1na2vs0mg"},{"bike_id":"0fb1a105-b046-4c66-baab-c2dec6ff86a2","system_id":"levelo_inurba_marseille","lat":43.28628,"lon":5.37064,"is_reserved":false,"is_disabled":false,"rental_uris":{"android":"levelo://app?vid=0fb1a105-b046-4c66-baab-c2dec6ff86a2","ios":"levelo://app?vid=0fb1a105-b046-4c66-baab-c2dec6ff86a2"},"vehicle_type_id":"4","last_reported":1744956874,"current_range_meters":12000,"station_id":"ce4bht12rcd13ifvqi60","pricing_plan_id":"cebpf4jnsgd1na2vs0mg"},{"bike_id":"a2f33e3a-ae36-4a82-a58f-02091f97602c","system_id":"levelo_inurba_marseille","lat":43.30296,"lon":5.36911,"is_reserved":false,"is_disabled":false,"rental_uris":{"android":"levelo://app?vid=a2f33e3a-ae36-4a82-a58f-02091f97602c","ios":"levelo://app?vid=a2f33e3a-ae36-4a82-a58f-02091f97602c"},"vehicle_type_id":"4","last_reported":1744956874,"current_range_meters":11600,"station_id":"ce4bgqh2rcd13ifvqc5g","pricing_plan_id":"cebpf4jnsgd1na2vs0mg"},{"bike_id":"e3dc88ef-8bac-4d7f-8d28-5ccb26305c61","system_id":"levelo_inurba_marseille","lat":43.26591,"lon":5.39015,"is_reserved":false,"is_disabled":false,"rental_uris":{"android":"levelo://app?vid=e3dc88ef-8bac-4d7f-8d28-5ccb26305c61","ios":"levelo://app?vid=e3dc88ef-8bac-4d7f-8d28-5ccb26305c61"},"vehicle_type_id":"4","last_reported":1744956874,"current_range_meters":12000,"station_id":"ce4bhe12rcd13ifvqf30","pricing_plan_id":"cebpf4jnsgd1na2vs0mg"},{"bike_id":"2daa1a4a-afb7-470b-9fac-d2f8da0290d5","system_id":"levelo_inurba_marseille","lat":43.255785,"lon":5.382314,"is_reserved":false,"is_disabled":false,"rental_uris":{"android":"levelo://app?vid=2daa1a4a-afb7-470b-9fac-d2f8da0290d5","ios":"levelo://app?vid=2daa1a4a-afb7-470b-9fac-d2f8da0290d5"},"vehicle_type_id":"4","last_reported":1744956874,"current_range_meters":12400,"station_id":"ce4bhih2rcd13ifvqfs0","pricing_plan_id":"cebpf4jnsgd1na2vs0mg"},{"bike_id":"59fb3a06-5a0c-4f19-91c7-f9718e1b4a84","system_id":"levelo_inurba_marseille","lat":43.30476,"lon":5.37915,"is_reserved":false,"is_disabled":false,"rental_uris":{"android":"levelo://app?vid=59fb3a06-5a0c-4f19-91c7-f9718e1b4a84","ios":"levelo://app?vid=59fb3a06-5a0c-4f19-91c7-f9718e1b4a84"},"vehicle_type_id":"4","last_reported":1744956874,"current_range_meters":12400,"station_id":"ce4bgup2rcd13ifvqcn0","pricing_plan_id":"cebpf4jnsgd1na2vs0mg"},{"bike_id":"23669a23-4f21-4d97-b2d3-d6a953fccb4f","system_id":"levelo_inurba_marseille","lat":43.28703,"lon":5.40007,"is_reserved":false,"is_disabled":false,"rental_uris":{"android":"levelo://app?vid=23669a23-4f21-4d97-b2d3-d6a953fccb4f","ios":"levelo://app?vid=23669a23-4f21-4d97-b2d3-d6a953fccb4f"},"vehicle_type_id":"4","last_reported":1744956874,"current_range_meters":12800,"station_id":"ce4bho92rcd13ifvqh3g","pricing_plan_id":"cebpf4jnsgd1na2vs0mg"},{"bike_id":"b05102a8-8877-412e-aa52-3e7e2e12ebc2","system_id":"levelo_inurba_marseille","lat":43.279403,"lon":5.410431,"is_reserved":false,"is_disabled":false,"rental_uris":{"android":"levelo://app?vid=b05102a8-8877-412e-aa52-3e7e2e12ebc2","ios":"levelo://app?vid=b05102a8-8877-412e-aa52-3e7e2e12ebc2"},"vehicle_type_id":"4","last_reported":1744956874,"current_range_meters":12800,"station_id":"ce4bhnp2rcd13ifvqh0g","pricing_plan_id":"cebpf4jnsgd1na2vs0mg"},{"bike_id":"0b73279b-3544-425f-8ea6-2a11b8dc5e95","system_id":"levelo_inurba_marseille","lat":43.31343,"lon":5.39732,"is_reserved":false,"is_disabled":false,"rental_uris":{"android":"levelo://app?vid=0b73279b-3544-425f-8ea6-2a11b8dc5e95","ios":"levelo://app?vid=0b73279b-3544-425f-8ea6-2a11b8dc5e95"},"vehicle_type_id":"4","last_reported":1744956874,"current_range_meters":12800,"station_id":"ce4bgvp2rcd13ifvqcu0","pricing_plan_id":"cebpf4jnsgd1na2vs0mg"},{"bike_id":"22fabcf5-95dd-455d-93b5-f6b2277dc77e","system_id":"levelo_inurba_marseille","lat":43.30926,"lon":5.40155,"is_reserved":false,"is_disabled":false,"rental_uris":{"android":"levelo://app?vid=22fabcf5-95dd-455d-93b5-f6b2277dc77e","ios":"levelo://app?vid=22fabcf5-95dd-455d-93b5-f6b2277dc77e"},"vehicle_type_id":"4","last_reported":1744956874,"current_range_meters":12800,"station_id":"ce4bgvp2rcd13ifvqct0","pricing_plan_id":"cebpf4jnsgd1na2vs0mg"},{"bike_id":"ba9786bb-1cac-4b75-83c5-e113aaf2f7c3","system_id":"levelo_inurba_marseille","lat":43.31337,"lon":5.36719,"is_reserved":false,"is_disabled":false,"rental_uris":{"android":"levelo://app?vid=ba9786bb-1cac-4b75-83c5-e113aaf2f7c3","ios":"levelo://app?vid=ba9786bb-1cac-4b75-83c5-e113aaf2f7c3"},"vehicle_type_id":"4","last_reported":1744956874,"current_range_meters":13600,"station_id":"ce4bgr92rcd13ifvqc6g","pricing_plan_id":"cebpf4jnsgd1na2vs0mg"},{"bike_id":"c41facca-8ed6-4772-99bb-68f11d75fa62","system_id":"levelo_inurba_marseille","lat":43.28422,"lon":5.37552,"is_reserved":false,"is_disabled":false,"rental_uris":{"android":"levelo://app?vid=c41facca-8ed6-4772-99bb-68f11d75fa62","ios":"levelo://app?vid=c41facca-8ed6-4772-99bb-68f11d75fa62"},"vehicle_type_id":"4","last_reported":1744956874,"current_range_meters":13600,"station_id":"ce4bh412rcd13ifvqds0","pricing_plan_id":"cebpf4jnsgd1na2vs0mg"},{"bike_id":"9ccc1250-0ff6-4acc-bd2f-67431ef76582","system_id":"levelo_inurba_marseille","lat":43.2841,"lon":5.34998,"is_reserved":false,"is_disabled":false,"rental_uris":{"android":"levelo://app?vid=9ccc1250-0ff6-4acc-bd2f-67431ef76582","ios":"levelo://app?vid=9ccc1250-0ff6-4acc-bd2f-67431ef76582"},"vehicle_type_id":"4","last_reported":1744956874,"current_range_meters":13600,"station_id":"ce4bhbh2rcd13ifvqepg","pricing_plan_id":"cebpf4jnsgd1na2vs0mg"},{"bike_id":"e39978a1-60d4-434d-bc36-806e34da6e2a","system_id":"levelo_inurba_marseille","lat":43.30759,"lon":5.37659,"is_reserved":false,"is_disabled":false,"rental_uris":{"android":"levelo://app?vid=e39978a1-60d4-434d-bc36-806e34da6e2a","ios":"levelo://app?vid=e39978a1-60d4-434d-bc36-806e34da6e2a"},"vehicle_type_id":"4","last_reported":1744956874,"current_range_meters":14000,"station_id":"ce4bgv92rcd13ifvqcq0","pricing_plan_id":"cebpf4jnsgd1na2vs0mg"},{"bike_id":"f67c914a-531e-4ad5-b41c-cc8fccfce3a3","system_id":"levelo_inurba_marseille","lat":43.26063,"lon":5.39403,"is_reserved":false,"is_disabled":false,"rental_uris":{"android":"levelo://app?vid=f67c914a-531e-4ad5-b41c-cc8fccfce3a3","ios":"levelo://app?vid=f67c914a-531e-4ad5-b41c-cc8fccfce3a3"},"vehicle_type_id":"4","last_reported":1744956874,"current_range_meters":14000,"station_id":"ce4bhh92rcd13ifvqfj0","pricing_plan_id":"cebpf4jnsgd1na2vs0mg"},{"bike_id":"fdb736b6-d23f-4fa0-8b91-7424bf67be26","system_id":"levelo_inurba_marseille","lat":43.34136,"lon":5.40925,"is_reserved":false,"is_disabled":false,"rental_uris":{"android":"levelo://app?vid=fdb736b6-d23f-4fa0-8b91-7424bf67be26","ios":"levelo://app?vid=fdb736b6-d23f-4fa0-8b91-7424bf67be26"},"vehicle_type_id":"4","last_reported":1744956874,"current_range_meters":14000,"station_id":"ce4bhqh2rcd13ifvqhlg","pricing_plan_id":"cebpf4jnsgd1na2vs0mg"},{"bike_id":"9fe6b68c-b08e-4d81-8c7d-760938ace4d6","system_id":"levelo_inurba_marseille","lat":43.29306,"lon":5.36145,"is_reserved":false,"is_disabled":false,"rental_uris":{"android":"levelo://app?vid=9fe6b68c-b08e-4d81-8c7d-760938ace4d6","ios":"levelo://app?vid=9fe6b68c-b08e-4d81-8c7d-760938ace4d6"},"vehicle_type_id":"4","last_reported":1744956874,"current_range_meters":14400,"station_id":"ce4bhbh2rcd13ifvqeqg","pricing_plan_id":"cebpf4jnsgd1na2vs0mg"},{"bike_id":"7e19d3d8-b4d8-4f4b-a2c3-14e968445fac","system_id":"levelo_inurba_marseille","lat":43.2321,"lon":5.40032,"is_reserved":false,"is_disabled":false,"rental_uris":{"android":"levelo://app?vid=7e19d3d8-b4d8-4f4b-a2c3-14e968445fac","ios":"levelo://app?vid=7e19d3d8-b4d8-4f4b-a2c3-14e968445fac"},"vehicle_type_id":"4","last_reported":1744956874,"current_range_meters":14400,"station_id":"ce4bhn12rcd13ifvqgqg","pricing_plan_id":"cebpf4jnsgd1na2vs0mg"},{"bike_id":"bbb1c662-cc65-4c72-8489-de78d2f0f12f","system_id":"levelo_inurba_marseille","lat":43.23058,"lon":5.35492,"is_reserved":false,"is_disabled":false,"rental_uris":{"android":"levelo://app?vid=bbb1c662-cc65-4c72-8489-de78d2f0f12f","ios":"levelo://app?vid=bbb1c662-cc65-4c72-8489-de78d2f0f12f"},"vehicle_type_id":"4","last_reported":1744956874,"current_range_meters":14400,"station_id":"cpo3342slgdg3j2ifvpg","pricing_plan_id":"cebpf4jnsgd1na2vs0mg"},{"bike_id":"bd492354-2d79-4427-82ee-84e4a12dea30","system_id":"levelo_inurba_marseille","lat":43.211855,"lon":5.350813,"is_reserved":false,"is_disabled":false,"rental_uris":{"android":"levelo://app?vid=bd492354-2d79-4427-82ee-84e4a12dea30","ios":"levelo://app?vid=bd492354-2d79-4427-82ee-84e4a12dea30"},"vehicle_type_id":"4","last_reported":1744956874,"current_range_meters":14400,"station_id":"st_cvj6sg6p6f1abm77japg","pricing_plan_id":"cebpf4jnsgd1na2vs0mg"},{"bike_id":"007ee9c7-c769-4de9-a218-517ff098b9cd","system_id":"levelo_inurba_marseille","lat":43.314505,"lon":5.373787,"is_reserved":false,"is_disabled":false,"rental_uris":{"android":"levelo://app?vid=007ee9c7-c769-4de9-a218-517ff098b9cd","ios":"levelo://app?vid=007ee9c7-c769-4de9-a218-517ff098b9cd"},"vehicle_type_id":"4","last_reported":1744956874,"current_range_meters":14400,"station_id":"","pricing_plan_id":"cebpf4jnsgd1na2vs0mg"},{"bike_id":"b507333b-d12b-4fd9-9e05-5782ab44431e","system_id":"levelo_inurba_marseille","lat":43.33762,"lon":5.3749,"is_reserved":false,"is_disabled":false,"rental_uris":{"android":"levelo://app?vid=b507333b-d12b-4fd9-9e05-5782ab44431e","ios":"levelo://app?vid=b507333b-d12b-4fd9-9e05-5782ab44431e"},"vehicle_type_id":"4","last_reported":1744956874,"current_range_meters":14400,"station_id":"","pricing_plan_id":"cebpf4jnsgd1na2vs0mg"},{"bike_id":"076355f1-ba05-4b14-94f8-7678f1392346","system_id":"levelo_inurba_marseille","lat":43.2841,"lon":5.34982,"is_reserved":false,"is_disabled":false,"rental_uris":{"android":"levelo://app?vid=076355f1-ba05-4b14-94f8-7678f1392346","ios":"levelo://app?vid=076355f1-ba05-4b14-94f8-7678f1392346"},"vehicle_type_id":"4","last_reported":1744956874,"current_range_meters":14400,"station_id":"ce4bhbh2rcd13ifvqepg","pricing_plan_id":"cebpf4jnsgd1na2vs0mg"},{"bike_id":"5cdbc4c1-0642-46e4-87cf-2386924265b5","system_id":"levelo_inurba_marseille","lat":43.265545,"lon":5.373098,"is_reserved":false,"is_disabled":false,"rental_uris":{"android":"levelo://app?vid=5cdbc4c1-0642-46e4-87cf-2386924265b5","ios":"levelo://app?vid=5cdbc4c1-0642-46e4-87cf-2386924265b5"},"vehicle_type_id":"4","last_reported":1744956874,"current_range_meters":14400,"station_id":"ce4bhg12rcd13ifvqf70","pricing_plan_id":"cebpf4jnsgd1na2vs0mg"},{"bike_id":"a0ddb0a5-f7f0-4281-aa27-9e82747cc573","system_id":"levelo_inurba_marseille","lat":43.33754,"lon":5.37491,"is_reserved":false,"is_disabled":false,"rental_uris":{"android":"levelo://app?vid=a0ddb0a5-f7f0-4281-aa27-9e82747cc573","ios":"levelo://app?vid=a0ddb0a5-f7f0-4281-aa27-9e82747cc573"},"vehicle_type_id":"4","last_reported":1744956874,"current_range_meters":14400,"station_id":"","pricing_plan_id":"cebpf4jnsgd1na2vs0mg"},{"bike_id":"135f0758-d03d-42f1-a2d6-49e93dc7a634","system_id":"levelo_inurba_marseille","lat":43.29855,"lon":5.36282,"is_reserved":false,"is_disabled":false,"rental_uris":{"android":"levelo://app?vid=135f0758-d03d-42f1-a2d6-49e93dc7a634","ios":"levelo://app?vid=135f0758-d03d-42f1-a2d6-49e93dc7a634"},"vehicle_type_id":"4","last_reported":1744956874,"current_range_meters":14400,"station_id":"ce4bgpp2rcd13ifvqc3g","pricing_plan_id":"cebpf4jnsgd1na2vs0mg"},{"bike_id":"5b42146a-9b65-4576-b6b1-ae6f85373419","system_id":"levelo_inurba_marseille","lat":43.29217,"lon":5.3583,"is_reserved":false,"is_disabled":false,"rental_uris":{"android":"levelo://app?vid=5b42146a-9b65-4576-b6b1-ae6f85373419","ios":"levelo://app?vid=5b42146a-9b65-4576-b6b1-ae6f85373419"},"vehicle_type_id":"4","last_reported":1744956874,"current_range_meters":14800,"station_id":"ce4bhb12rcd13ifvqel0","pricing_plan_id":"cebpf4jnsgd1na2vs0mg"},{"bike_id":"b0e1b825-ba82-4aba-838e-c05aa42c1c23","system_id":"levelo_inurba_marseille","lat":43.30963,"lon":5.39052,"is_reserved":false,"is_disabled":false,"rental_uris":{"android":"levelo://app?vid=b0e1b825-ba82-4aba-838e-c05aa42c1c23","ios":"levelo://app?vid=b0e1b825-ba82-4aba-838e-c05aa42c1c23"},"vehicle_type_id":"4","last_reported":1744956874,"current_range_meters":14800,"station_id":"ce4bgup2rcd13ifvqco0","pricing_plan_id":"cebpf4jnsgd1na2vs0mg"},{"bike_id":"7ed91d22-3d5b-4254-83bf-64eb2a7d5481","system_id":"levelo_inurba_marseille","lat":43.22512,"lon":5.34785,"is_reserved":false,"is_disabled":false,"rental_uris":{"android":"levelo://app?vid=7ed91d22-3d5b-4254-83bf-64eb2a7d5481","ios":"levelo://app?vid=7ed91d22-3d5b-4254-83bf-64eb2a7d5481"},"vehicle_type_id":"4","last_reported":1744956874,"current_range_meters":14800,"station_id":"","pricing_plan_id":"cebpf4jnsgd1na2vs0mg"},{"bike_id":"001f7578-2809-4f13-b395-fda605716a8f","system_id":"levelo_inurba_marseille","lat":43.28415,"lon":5.34993,"is_reserved":false,"is_disabled":false,"rental_uris":{"android":"levelo://app?vid=001f7578-2809-4f13-b395-fda605716a8f","ios":"levelo://app?vid=001f7578-2809-4f13-b395-fda605716a8f"},"vehicle_type_id":"4","last_reported":1744956874,"current_range_meters":14800,"station_id":"ce4bhbh2rcd13ifvqepg","pricing_plan_id":"cebpf4jnsgd1na2vs0mg"},{"bike_id":"51f32d2c-1879-464c-acba-93c57bc66ab6","system_id":"levelo_inurba_marseille","lat":43.290332,"lon":5.359213,"is_reserved":false,"is_disabled":false,"rental_uris":{"android":"levelo://app?vid=51f32d2c-1879-464c-acba-93c57bc66ab6","ios":"levelo://app?vid=51f32d2c-1879-464c-acba-93c57bc66ab6"},"vehicle_type_id":"4","last_reported":1744956874,"current_range_meters":14800,"station_id":"ce4bha92rcd13ifvqeg0","pricing_plan_id":"cebpf4jnsgd1na2vs0mg"},{"bike_id":"4cdeb94d-6b8c-4d5b-a59f-49def5ff14db","system_id":"levelo_inurba_marseille","lat":43.27505,"lon":5.42472,"is_reserved":false,"is_disabled":false,"rental_uris":{"android":"levelo://app?vid=4cdeb94d-6b8c-4d5b-a59f-49def5ff14db","ios":"levelo://app?vid=4cdeb94d-6b8c-4d5b-a59f-49def5ff14db"},"vehicle_type_id":"4","last_reported":1744956874,"current_range_meters":14800,"station_id":"ce4bhn92rcd13ifvqgrg","pricing_plan_id":"cebpf4jnsgd1na2vs0mg"},{"bike_id":"0ffafc47-74ff-4ddc-86e8-6f4cf8df5cd2","system_id":"levelo_inurba_marseille","lat":43.229291,"lon":5.353831,"is_reserved":false,"is_disabled":false,"rental_uris":{"android":"levelo://app?vid=0ffafc47-74ff-4ddc-86e8-6f4cf8df5cd2","ios":"levelo://app?vid=0ffafc47-74ff-4ddc-86e8-6f4cf8df5cd2"},"vehicle_type_id":"4","last_reported":1744956874,"current_range_meters":14800,"station_id":"cpo3532slgdg3j2ikp40","pricing_plan_id":"cebpf4jnsgd1na2vs0mg"},{"bike_id":"934a8fc0-98f8-4aaf-a145-d485dee937c7","system_id":"levelo_inurba_marseille","lat":43.323664,"lon":5.367673,"is_reserved":false,"is_disabled":false,"rental_uris":{"android":"levelo://app?vid=934a8fc0-98f8-4aaf-a145-d485dee937c7","ios":"levelo://app?vid=934a8fc0-98f8-4aaf-a145-d485dee937c7"},"vehicle_type_id":"4","last_reported":1744956874,"current_range_meters":14800,"station_id":"ce4bhsh2rcd13ifvqi2g","pricing_plan_id":"cebpf4jnsgd1na2vs0mg"},{"bike_id":"e3b9c86b-9e49-41d1-83da-e803d37c2cf4","system_id":"levelo_inurba_marseille","lat":43.30133,"lon":5.387839,"is_reserved":false,"is_disabled":true,"rental_uris":{"android":"levelo://app?vid=e3b9c86b-9e49-41d1-83da-e803d37c2cf4","ios":"levelo://app?vid=e3b9c86b-9e49-41d1-83da-e803d37c2cf4"},"vehicle_type_id":"4","last_reported":1744956874,"current_range_meters":15200,"station_id":"ce4bghh2rcd13ifvqb60","pricing_plan_id":"cebpf4jnsgd1na2vs0mg"},{"bike_id":"2b895cd1-63f9-4659-bbff-adf8a75ae1db","system_id":"levelo_inurba_marseille","lat":43.25862,"lon":5.39907,"is_reserved":false,"is_disabled":false,"rental_uris":{"android":"levelo://app?vid=2b895cd1-63f9-4659-bbff-adf8a75ae1db","ios":"levelo://app?vid=2b895cd1-63f9-4659-bbff-adf8a75ae1db"},"vehicle_type_id":"4","last_reported":1744956874,"current_range_meters":15200,"station_id":"ce4bhl92rcd13ifvqghg","pricing_plan_id":"cebpf4jnsgd1na2vs0mg"},{"bike_id":"90a191a3-77b7-49f4-a6f6-fe4f1f55fcb7","system_id":"levelo_inurba_marseille","lat":43.30163,"lon":5.38084,"is_reserved":false,"is_disabled":false,"rental_uris":{"android":"levelo://app?vid=90a191a3-77b7-49f4-a6f6-fe4f1f55fcb7","ios":"levelo://app?vid=90a191a3-77b7-49f4-a6f6-fe4f1f55fcb7"},"vehicle_type_id":"4","last_reported":1744956874,"current_range_meters":15200,"station_id":"ce4bgjp2rcd13ifvqbh0","pricing_plan_id":"cebpf4jnsgd1na2vs0mg"},{"bike_id":"bee953c4-8832-455c-b873-fd8f2f44941c","system_id":"levelo_inurba_marseille","lat":43.308675,"lon":5.396541,"is_reserved":false,"is_disabled":false,"rental_uris":{"android":"levelo://app?vid=bee953c4-8832-455c-b873-fd8f2f44941c","ios":"levelo://app?vid=bee953c4-8832-455c-b873-fd8f2f44941c"},"vehicle_type_id":"4","last_reported":1744956874,"current_range_meters":14800,"station_id":"ce4bh312rcd13ifvqdj0","pricing_plan_id":"cebpf4jnsgd1na2vs0mg"},{"bike_id":"693ea077-1dd9-4910-8fe1-00972fd3d75f","system_id":"levelo_inurba_marseille","lat":43.25929,"lon":5.40907,"is_reserved":false,"is_disabled":false,"rental_uris":{"android":"levelo://app?vid=693ea077-1dd9-4910-8fe1-00972fd3d75f","ios":"levelo://app?vid=693ea077-1dd9-4910-8fe1-00972fd3d75f"},"vehicle_type_id":"4","last_reported":1744956874,"current_range_meters":16000,"station_id":"ce4bhm92rcd13ifvqglg","pricing_plan_id":"cebpf4jnsgd1na2vs0mg"},{"bike_id":"ecf1b2ce-6838-4d42-ab1f-fc94cebd3b05","system_id":"levelo_inurba_marseille","lat":43.32365,"lon":5.38916,"is_reserved":false,"is_disabled":false,"rental_uris":{"android":"levelo://app?vid=ecf1b2ce-6838-4d42-ab1f-fc94cebd3b05","ios":"levelo://app?vid=ecf1b2ce-6838-4d42-ab1f-fc94cebd3b05"},"vehicle_type_id":"4","last_reported":1744956874,"current_range_meters":16000,"station_id":"ce4bhqp2rcd13ifvqhog","pricing_plan_id":"cebpf4jnsgd1na2vs0mg"},{"bike_id":"049be1b6-8659-4f3c-88bc-6323e7c1fc19","system_id":"levelo_inurba_marseille","lat":43.246594,"lon":5.381677,"is_reserved":false,"is_disabled":false,"rental_uris":{"android":"levelo://app?vid=049be1b6-8659-4f3c-88bc-6323e7c1fc19","ios":"levelo://app?vid=049be1b6-8659-4f3c-88bc-6323e7c1fc19"},"vehicle_type_id":"4","last_reported":1744956874,"current_range_meters":16000,"station_id":"ce4bhih2rcd13ifvqfr0","pricing_plan_id":"cebpf4jnsgd1na2vs0mg"},{"bike_id":"ef6e9c6f-8f69-4fcf-9727-b556a001e5bc","system_id":"levelo_inurba_marseille","lat":43.29564,"lon":5.42282,"is_reserved":false,"is_disabled":false,"rental_uris":{"android":"levelo://app?vid=ef6e9c6f-8f69-4fcf-9727-b556a001e5bc","ios":"levelo://app?vid=ef6e9c6f-8f69-4fcf-9727-b556a001e5bc"},"vehicle_type_id":"4","last_reported":1744956874,"current_range_meters":16000,"station_id":"ce4bhph2rcd13ifvqhdg","pricing_plan_id":"cebpf4jnsgd1na2vs0mg"},{"bike_id":"33efbe4e-e642-4271-be29-4926b421ca5b","system_id":"levelo_inurba_marseille","lat":43.241673,"lon":5.363944,"is_reserved":false,"is_disabled":false,"rental_uris":{"android":"levelo://app?vid=33efbe4e-e642-4271-be29-4926b421ca5b","ios":"levelo://app?vid=33efbe4e-e642-4271-be29-4926b421ca5b"},"vehicle_type_id":"4","last_reported":1744956874,"current_range_meters":16000,"station_id":"cpo36qri1sfpv3e86is0","pricing_plan_id":"cebpf4jnsgd1na2vs0mg"},{"bike_id":"7eb8853e-3665-40f5-8308-1299f0674652","system_id":"levelo_inurba_marseille","lat":43.303751,"lon":5.424859,"is_reserved":false,"is_disabled":false,"rental_uris":{"android":"levelo://app?vid=7eb8853e-3665-40f5-8308-1299f0674652","ios":"levelo://app?vid=7eb8853e-3665-40f5-8308-1299f0674652"},"vehicle_type_id":"4","last_reported":1744956874,"current_range_meters":16000,"station_id":"ce4bhoh2rcd13ifvqh6g","pricing_plan_id":"cebpf4jnsgd1na2vs0mg"},{"bike_id":"e4b35dc3-1b44-4be5-945c-f23bf47f80d2","system_id":"levelo_inurba_marseille","lat":43.298774,"lon":5.397334,"is_reserved":false,"is_disabled":false,"rental_uris":{"android":"levelo://app?vid=e4b35dc3-1b44-4be5-945c-f23bf47f80d2","ios":"levelo://app?vid=e4b35dc3-1b44-4be5-945c-f23bf47f80d2"},"vehicle_type_id":"4","last_reported":1744956874,"current_range_meters":16000,"station_id":"ce4bh0h2rcd13ifvqd50","pricing_plan_id":"cebpf4jnsgd1na2vs0mg"},{"bike_id":"ddb81e49-3ca3-408e-bb7e-97e32c56d0f7","system_id":"levelo_inurba_marseille","lat":43.27911,"lon":5.38017,"is_reserved":false,"is_disabled":false,"rental_uris":{"android":"levelo://app?vid=ddb81e49-3ca3-408e-bb7e-97e32c56d0f7","ios":"levelo://app?vid=ddb81e49-3ca3-408e-bb7e-97e32c56d0f7"},"vehicle_type_id":"4","last_reported":1744956874,"current_range_meters":16000,"station_id":"ce4bhf92rcd13ifvqf50","pricing_plan_id":"cebpf4jnsgd1na2vs0mg"},{"bike_id":"8f05c592-8cc0-48b3-abca-ba24955823de","system_id":"levelo_inurba_marseille","lat":43.299095,"lon":5.403835,"is_reserved":false,"is_disabled":false,"rental_uris":{"android":"levelo://app?vid=8f05c592-8cc0-48b3-abca-ba24955823de","ios":"levelo://app?vid=8f05c592-8cc0-48b3-abca-ba24955823de"},"vehicle_type_id":"4","last_reported":1744956874,"current_range_meters":16000,"station_id":"","pricing_plan_id":"cebpf4jnsgd1na2vs0mg"},{"bike_id":"b1ef82b0-7a77-4486-8ec7-83765358e14a","system_id":"levelo_inurba_marseille","lat":43.28966,"lon":5.38649,"is_reserved":false,"is_disabled":true,"rental_uris":{"android":"levelo://app?vid=b1ef82b0-7a77-4486-8ec7-83765358e14a","ios":"levelo://app?vid=b1ef82b0-7a77-4486-8ec7-83765358e14a"},"vehicle_type_id":"4","last_reported":1744956874,"current_range_meters":16400,"station_id":"ce4bh4p2rcd13ifvqe0g","pricing_plan_id":"cebpf4jnsgd1na2vs0mg"},{"bike_id":"68342d9f-f0b6-47e7-b690-b27078e67a77","system_id":"levelo_inurba_marseille","lat":43.241663,"lon":5.363959,"is_reserved":false,"is_disabled":false,"rental_uris":{"android":"levelo://app?vid=68342d9f-f0b6-47e7-b690-b27078e67a77","ios":"levelo://app?vid=68342d9f-f0b6-47e7-b690-b27078e67a77"},"vehicle_type_id":"4","last_reported":1744956874,"current_range_meters":16400,"station_id":"cpo36qri1sfpv3e86is0","pricing_plan_id":"cebpf4jnsgd1na2vs0mg"},{"bike_id":"ae6f6bc3-b076-4713-869e-a7f6201bc7ea","system_id":"levelo_inurba_marseille","lat":43.24804,"lon":5.374608,"is_reserved":false,"is_disabled":false,"rental_uris":{"android":"levelo://app?vid=ae6f6bc3-b076-4713-869e-a7f6201bc7ea","ios":"levelo://app?vid=ae6f6bc3-b076-4713-869e-a7f6201bc7ea"},"vehicle_type_id":"4","last_reported":1744956874,"current_range_meters":16400,"station_id":"ce4bhgh2rcd13ifvqfb0","pricing_plan_id":"cebpf4jnsgd1na2vs0mg"},{"bike_id":"85ac49b9-718c-4937-ab2a-8e998e69b6ca","system_id":"levelo_inurba_marseille","lat":43.24412,"lon":5.37046,"is_reserved":false,"is_disabled":false,"rental_uris":{"android":"levelo://app?vid=85ac49b9-718c-4937-ab2a-8e998e69b6ca","ios":"levelo://app?vid=85ac49b9-718c-4937-ab2a-8e998e69b6ca"},"vehicle_type_id":"4","last_reported":1744956874,"current_range_meters":16400,"station_id":"ce4bhhh2rcd13ifvqfk0","pricing_plan_id":"cebpf4jnsgd1na2vs0mg"},{"bike_id":"3ffc99cb-933d-4d60-887e-ffc0496ae794","system_id":"levelo_inurba_marseille","lat":43.30916,"lon":5.37195,"is_reserved":false,"is_disabled":false,"rental_uris":{"android":"levelo://app?vid=3ffc99cb-933d-4d60-887e-ffc0496ae794","ios":"levelo://app?vid=3ffc99cb-933d-4d60-887e-ffc0496ae794"},"vehicle_type_id":"4","last_reported":1744956874,"current_range_meters":16400,"station_id":"ce4bguh2rcd13ifvqckg","pricing_plan_id":"cebpf4jnsgd1na2vs0mg"},{"bike_id":"f9d3fbe6-73e5-424e-af02-f446d5b07152","system_id":"levelo_inurba_marseille","lat":43.2178,"lon":5.34616,"is_reserved":false,"is_disabled":false,"rental_uris":{"android":"levelo://app?vid=f9d3fbe6-73e5-424e-af02-f446d5b07152","ios":"levelo://app?vid=f9d3fbe6-73e5-424e-af02-f446d5b07152"},"vehicle_type_id":"4","last_reported":1744956874,"current_range_meters":16400,"station_id":"st_cvj6r9ubvosntc0bgbag","pricing_plan_id":"cebpf4jnsgd1na2vs0mg"},{"bike_id":"54c18ae4-fb9e-4f9c-8e98-a792665bc160","system_id":"levelo_inurba_marseille","lat":43.32096,"lon":5.36767,"is_reserved":false,"is_disabled":false,"rental_uris":{"android":"levelo://app?vid=54c18ae4-fb9e-4f9c-8e98-a792665bc160","ios":"levelo://app?vid=54c18ae4-fb9e-4f9c-8e98-a792665bc160"},"vehicle_type_id":"4","last_reported":1744956874,"current_range_meters":16400,"station_id":"ce4bhrh2rcd13ifvqhug","pricing_plan_id":"cebpf4jnsgd1na2vs0mg"},{"bike_id":"1fb144bd-dbb4-489a-89db-cb0239e2536a","system_id":"levelo_inurba_marseille","lat":43.279433,"lon":5.410391,"is_reserved":false,"is_disabled":false,"rental_uris":{"android":"levelo://app?vid=1fb144bd-dbb4-489a-89db-cb0239e2536a","ios":"levelo://app?vid=1fb144bd-dbb4-489a-89db-cb0239e2536a"},"vehicle_type_id":"4","last_reported":1744956874,"current_range_meters":16400,"station_id":"ce4bhnp2rcd13ifvqh0g","pricing_plan_id":"cebpf4jnsgd1na2vs0mg"},{"bike_id":"db092bab-860c-4e5b-840d-945206939097","system_id":"levelo_inurba_marseille","lat":43.26571,"lon":5.37311,"is_reserved":false,"is_disabled":false,"rental_uris":{"android":"levelo://app?vid=db092bab-860c-4e5b-840d-945206939097","ios":"levelo://app?vid=db092bab-860c-4e5b-840d-945206939097"},"vehicle_type_id":"4","last_reported":1744956874,"current_range_meters":16800,"station_id":"ce4bhg12rcd13ifvqf70","pricing_plan_id":"cebpf4jnsgd1na2vs0mg"},{"bike_id":"3efba3c6-091f-42f0-a6b1-6019d320c613","system_id":"levelo_inurba_marseille","lat":43.304202,"lon":5.397576,"is_reserved":false,"is_disabled":true,"rental_uris":{"android":"levelo://app?vid=3efba3c6-091f-42f0-a6b1-6019d320c613","ios":"levelo://app?vid=3efba3c6-091f-42f0-a6b1-6019d320c613"},"vehicle_type_id":"4","last_reported":1744956874,"current_range_meters":16800,"station_id":"ce4bh092rcd13ifvqd20","pricing_plan_id":"cebpf4jnsgd1na2vs0mg"},{"bike_id":"4b8fd6fb-702a-48bf-83a9-e88ab46db4a6","system_id":"levelo_inurba_marseille","lat":43.28921,"lon":5.39629,"is_reserved":false,"is_disabled":false,"rental_uris":{"android":"levelo://app?vid=4b8fd6fb-702a-48bf-83a9-e88ab46db4a6","ios":"levelo://app?vid=4b8fd6fb-702a-48bf-83a9-e88ab46db4a6"},"vehicle_type_id":"4","last_reported":1744956874,"current_range_meters":16800,"station_id":"ce4bh3h2rcd13ifvqdn0","pricing_plan_id":"cebpf4jnsgd1na2vs0mg"},{"bike_id":"19481d9b-6a00-4a11-8cb7-677b61ea5d1e","system_id":"levelo_inurba_marseille","lat":43.281533,"lon":5.426409,"is_reserved":false,"is_disabled":false,"rental_uris":{"android":"levelo://app?vid=19481d9b-6a00-4a11-8cb7-677b61ea5d1e","ios":"levelo://app?vid=19481d9b-6a00-4a11-8cb7-677b61ea5d1e"},"vehicle_type_id":"4","last_reported":1744956874,"current_range_meters":16800,"station_id":"ce4bhnh2rcd13ifvqgug","pricing_plan_id":"cebpf4jnsgd1na2vs0mg"},{"bike_id":"86145933-15c9-4b95-aa63-b53bce1dbf22","system_id":"levelo_inurba_marseille","lat":43.298883,"lon":5.397587,"is_reserved":false,"is_disabled":false,"rental_uris":{"android":"levelo://app?vid=86145933-15c9-4b95-aa63-b53bce1dbf22","ios":"levelo://app?vid=86145933-15c9-4b95-aa63-b53bce1dbf22"},"vehicle_type_id":"4","last_reported":1744956874,"current_range_meters":16800,"station_id":"ce4bh0h2rcd13ifvqd50","pricing_plan_id":"cebpf4jnsgd1na2vs0mg"},{"bike_id":"789c3822-56ca-4769-bcd4-8845bdea2fda","system_id":"levelo_inurba_marseille","lat":43.24166,"lon":5.36394,"is_reserved":false,"is_disabled":false,"rental_uris":{"android":"levelo://app?vid=789c3822-56ca-4769-bcd4-8845bdea2fda","ios":"levelo://app?vid=789c3822-56ca-4769-bcd4-8845bdea2fda"},"vehicle_type_id":"4","last_reported":1744956874,"current_range_meters":16800,"station_id":"cpo36qri1sfpv3e86is0","pricing_plan_id":"cebpf4jnsgd1na2vs0mg"},{"bike_id":"5fba1097-d266-4f11-ba7e-0f0b630b3da9","system_id":"levelo_inurba_marseille","lat":43.30825,"lon":5.43529,"is_reserved":false,"is_disabled":false,"rental_uris":{"android":"levelo://app?vid=5fba1097-d266-4f11-ba7e-0f0b630b3da9","ios":"levelo://app?vid=5fba1097-d266-4f11-ba7e-0f0b630b3da9"},"vehicle_type_id":"4","last_reported":1744956874,"current_range_meters":16800,"station_id":"ce4bhph2rcd13ifvqheg","pricing_plan_id":"cebpf4jnsgd1na2vs0mg"},{"bike_id":"07006dad-1eac-4c5b-8e9f-977d282a6f86","system_id":"levelo_inurba_marseille","lat":43.30735,"lon":5.42441,"is_reserved":false,"is_disabled":false,"rental_uris":{"android":"levelo://app?vid=07006dad-1eac-4c5b-8e9f-977d282a6f86","ios":"levelo://app?vid=07006dad-1eac-4c5b-8e9f-977d282a6f86"},"vehicle_type_id":"4","last_reported":1744956874,"current_range_meters":16800,"station_id":"st_cvj6ca6bvosntc0bfgr0","pricing_plan_id":"cebpf4jnsgd1na2vs0mg"},{"bike_id":"b90acf1e-92f2-45e3-a0be-5f20323ea3d1","system_id":"levelo_inurba_marseille","lat":43.23177,"lon":5.39989,"is_reserved":false,"is_disabled":false,"rental_uris":{"android":"levelo://app?vid=b90acf1e-92f2-45e3-a0be-5f20323ea3d1","ios":"levelo://app?vid=b90acf1e-92f2-45e3-a0be-5f20323ea3d1"},"vehicle_type_id":"4","last_reported":1744956874,"current_range_meters":16800,"station_id":"ce4bhn12rcd13ifvqgqg","pricing_plan_id":"cebpf4jnsgd1na2vs0mg"},{"bike_id":"5e6be620-a3d0-49c3-9ff0-b85332cde817","system_id":"levelo_inurba_marseille","lat":43.23215,"lon":5.35567,"is_reserved":false,"is_disabled":false,"rental_uris":{"android":"levelo://app?vid=5e6be620-a3d0-49c3-9ff0-b85332cde817","ios":"levelo://app?vid=5e6be620-a3d0-49c3-9ff0-b85332cde817"},"vehicle_type_id":"4","last_reported":1744956874,"current_range_meters":16800,"station_id":"ce4bhu92rcd13ifvqi70","pricing_plan_id":"cebpf4jnsgd1na2vs0mg"},{"bike_id":"ecd9b5fe-4b17-4d30-a270-9ff21e0a9ad2","system_id":"levelo_inurba_marseille","lat":43.24177,"lon":5.36403,"is_reserved":false,"is_disabled":false,"rental_uris":{"android":"levelo://app?vid=ecd9b5fe-4b17-4d30-a270-9ff21e0a9ad2","ios":"levelo://app?vid=ecd9b5fe-4b17-4d30-a270-9ff21e0a9ad2"},"vehicle_type_id":"4","last_reported":1744956874,"current_range_meters":16800,"station_id":"cpo36qri1sfpv3e86is0","pricing_plan_id":"cebpf4jnsgd1na2vs0mg"},{"bike_id":"d8ed359f-b119-41a5-a7c7-15f875d7a3f7","system_id":"levelo_inurba_marseille","lat":43.323351,"lon":5.406269,"is_reserved":false,"is_disabled":false,"rental_uris":{"android":"levelo://app?vid=d8ed359f-b119-41a5-a7c7-15f875d7a3f7","ios":"levelo://app?vid=d8ed359f-b119-41a5-a7c7-15f875d7a3f7"},"vehicle_type_id":"4","last_reported":1744956874,"current_range_meters":17200,"station_id":"ce4bhq92rcd13ifvqhjg","pricing_plan_id":"cebpf4jnsgd1na2vs0mg"},{"bike_id":"f11c1877-2531-4187-8a4e-82f9bf9c66d8","system_id":"levelo_inurba_marseille","lat":43.250101,"lon":5.389162,"is_reserved":false,"is_disabled":false,"rental_uris":{"android":"levelo://app?vid=f11c1877-2531-4187-8a4e-82f9bf9c66d8","ios":"levelo://app?vid=f11c1877-2531-4187-8a4e-82f9bf9c66d8"},"vehicle_type_id":"4","last_reported":1744956874,"current_range_meters":17200,"station_id":"ce4bhgp2rcd13ifvqfd0","pricing_plan_id":"cebpf4jnsgd1na2vs0mg"},{"bike_id":"9f45b2bf-53d1-4e39-9a64-fb391bdbd395","system_id":"levelo_inurba_marseille","lat":43.3373,"lon":5.39197,"is_reserved":false,"is_disabled":false,"rental_uris":{"android":"levelo://app?vid=9f45b2bf-53d1-4e39-9a64-fb391bdbd395","ios":"levelo://app?vid=9f45b2bf-53d1-4e39-9a64-fb391bdbd395"},"vehicle_type_id":"4","last_reported":1744956874,"current_range_meters":17200,"station_id":"ce4bhr92rcd13ifvqhsg","pricing_plan_id":"cebpf4jnsgd1na2vs0mg"},{"bike_id":"5bfdd3ac-ac87-4124-a941-1bd318b8cd03","system_id":"levelo_inurba_marseille","lat":43.30478,"lon":5.37914,"is_reserved":false,"is_disabled":false,"rental_uris":{"android":"levelo://app?vid=5bfdd3ac-ac87-4124-a941-1bd318b8cd03","ios":"levelo://app?vid=5bfdd3ac-ac87-4124-a941-1bd318b8cd03"},"vehicle_type_id":"4","last_reported":1744956874,"current_range_meters":17200,"station_id":"ce4bgup2rcd13ifvqcn0","pricing_plan_id":"cebpf4jnsgd1na2vs0mg"},{"bike_id":"6bd02a45-7bdd-4b11-8072-a0ac553628ff","system_id":"levelo_inurba_marseille","lat":43.25573,"lon":5.38236,"is_reserved":false,"is_disabled":false,"rental_uris":{"android":"levelo://app?vid=6bd02a45-7bdd-4b11-8072-a0ac553628ff","ios":"levelo://app?vid=6bd02a45-7bdd-4b11-8072-a0ac553628ff"},"vehicle_type_id":"4","last_reported":1744956874,"current_range_meters":17200,"station_id":"ce4bhih2rcd13ifvqfs0","pricing_plan_id":"cebpf4jnsgd1na2vs0mg"},{"bike_id":"d0dc4d00-ee87-4e75-8b2e-787c2027c4a4","system_id":"levelo_inurba_marseille","lat":43.2795,"lon":5.41068,"is_reserved":false,"is_disabled":false,"rental_uris":{"android":"levelo://app?vid=d0dc4d00-ee87-4e75-8b2e-787c2027c4a4","ios":"levelo://app?vid=d0dc4d00-ee87-4e75-8b2e-787c2027c4a4"},"vehicle_type_id":"4","last_reported":1744956874,"current_range_meters":17200,"station_id":"ce4bhnp2rcd13ifvqh0g","pricing_plan_id":"cebpf4jnsgd1na2vs0mg"},{"bike_id":"9e6be64f-f795-43d2-bb10-c23f47531980","system_id":"levelo_inurba_marseille","lat":43.243824,"lon":5.370682,"is_reserved":false,"is_disabled":false,"rental_uris":{"android":"levelo://app?vid=9e6be64f-f795-43d2-bb10-c23f47531980","ios":"levelo://app?vid=9e6be64f-f795-43d2-bb10-c23f47531980"},"vehicle_type_id":"4","last_reported":1744956874,"current_range_meters":17600,"station_id":"ce4bhhh2rcd13ifvqfk0","pricing_plan_id":"cebpf4jnsgd1na2vs0mg"},{"bike_id":"6211aec8-84e1-429a-9c5e-37e175564678","system_id":"levelo_inurba_marseille","lat":43.28276,"lon":5.35089,"is_reserved":false,"is_disabled":false,"rental_uris":{"android":"levelo://app?vid=6211aec8-84e1-429a-9c5e-37e175564678","ios":"levelo://app?vid=6211aec8-84e1-429a-9c5e-37e175564678"},"vehicle_type_id":"4","last_reported":1744956874,"current_range_meters":17600,"station_id":"ce4bhbp2rcd13ifvqerg","pricing_plan_id":"cebpf4jnsgd1na2vs0mg"},{"bike_id":"030978cd-eddc-40be-b582-b7fe69c6a341","system_id":"levelo_inurba_marseille","lat":43.30467,"lon":5.37902,"is_reserved":false,"is_disabled":false,"rental_uris":{"android":"levelo://app?vid=030978cd-eddc-40be-b582-b7fe69c6a341","ios":"levelo://app?vid=030978cd-eddc-40be-b582-b7fe69c6a341"},"vehicle_type_id":"4","last_reported":1744956874,"current_range_meters":17600,"station_id":"ce4bgup2rcd13ifvqcn0","pricing_plan_id":"cebpf4jnsgd1na2vs0mg"},{"bike_id":"5ba68281-2a4d-44b9-a4b0-c49e0b08d425","system_id":"levelo_inurba_marseille","lat":43.28433,"lon":5.37512,"is_reserved":false,"is_disabled":false,"rental_uris":{"android":"levelo://app?vid=5ba68281-2a4d-44b9-a4b0-c49e0b08d425","ios":"levelo://app?vid=5ba68281-2a4d-44b9-a4b0-c49e0b08d425"},"vehicle_type_id":"4","last_reported":1744956874,"current_range_meters":17600,"station_id":"ce4bh412rcd13ifvqds0","pricing_plan_id":"cebpf4jnsgd1na2vs0mg"},{"bike_id":"cf7c3680-f452-4084-8e92-20f914fb6ae3","system_id":"levelo_inurba_marseille","lat":43.239614,"lon":5.366331,"is_reserved":false,"is_disabled":false,"rental_uris":{"android":"levelo://app?vid=cf7c3680-f452-4084-8e92-20f914fb6ae3","ios":"levelo://app?vid=cf7c3680-f452-4084-8e92-20f914fb6ae3"},"vehicle_type_id":"4","last_reported":1744956874,"current_range_meters":17600,"station_id":"ce4bhi12rcd13ifvqfp0","pricing_plan_id":"cebpf4jnsgd1na2vs0mg"},{"bike_id":"bfa49018-87e7-4e6d-a73f-f9b53d1a144b","system_id":"levelo_inurba_marseille","lat":43.31351,"lon":5.36719,"is_reserved":false,"is_disabled":false,"rental_uris":{"android":"levelo://app?vid=bfa49018-87e7-4e6d-a73f-f9b53d1a144b","ios":"levelo://app?vid=bfa49018-87e7-4e6d-a73f-f9b53d1a144b"},"vehicle_type_id":"4","last_reported":1744956874,"current_range_meters":17600,"station_id":"ce4bgr92rcd13ifvqc6g","pricing_plan_id":"cebpf4jnsgd1na2vs0mg"},{"bike_id":"8d9917de-6fa0-4e0c-85a9-2be4413e0a54","system_id":"levelo_inurba_marseille","lat":43.33604,"lon":5.41041,"is_reserved":false,"is_disabled":false,"rental_uris":{"android":"levelo://app?vid=8d9917de-6fa0-4e0c-85a9-2be4413e0a54","ios":"levelo://app?vid=8d9917de-6fa0-4e0c-85a9-2be4413e0a54"},"vehicle_type_id":"4","last_reported":1744956874,"current_range_meters":17600,"station_id":"ce4bhqh2rcd13ifvqhmg","pricing_plan_id":"cebpf4jnsgd1na2vs0mg"},{"bike_id":"06c69cbf-f6a8-4497-b97f-4ec81764e0ec","system_id":"levelo_inurba_marseille","lat":43.25588,"lon":5.38237,"is_reserved":false,"is_disabled":false,"rental_uris":{"android":"levelo://app?vid=06c69cbf-f6a8-4497-b97f-4ec81764e0ec","ios":"levelo://app?vid=06c69cbf-f6a8-4497-b97f-4ec81764e0ec"},"vehicle_type_id":"4","last_reported":1744956874,"current_range_meters":17600,"station_id":"ce4bhih2rcd13ifvqfs0","pricing_plan_id":"cebpf4jnsgd1na2vs0mg"},{"bike_id":"36b90cff-40d2-47e2-985b-e09410752cc5","system_id":"levelo_inurba_marseille","lat":43.29884,"lon":5.4366,"is_reserved":false,"is_disabled":false,"rental_uris":{"android":"levelo://app?vid=36b90cff-40d2-47e2-985b-e09410752cc5","ios":"levelo://app?vid=36b90cff-40d2-47e2-985b-e09410752cc5"},"vehicle_type_id":"4","last_reported":1744956874,"current_range_meters":18000,"station_id":"ce4bhpp2rcd13ifvqhfg","pricing_plan_id":"cebpf4jnsgd1na2vs0mg"},{"bike_id":"5bdd6bc7-c2d8-4baa-a381-d494bd2fc45c","system_id":"levelo_inurba_marseille","lat":43.29032,"lon":5.39968,"is_reserved":false,"is_disabled":false,"rental_uris":{"android":"levelo://app?vid=5bdd6bc7-c2d8-4baa-a381-d494bd2fc45c","ios":"levelo://app?vid=5bdd6bc7-c2d8-4baa-a381-d494bd2fc45c"},"vehicle_type_id":"4","last_reported":1744956874,"current_range_meters":18000,"station_id":"ce4bh392rcd13ifvqdm0","pricing_plan_id":"cebpf4jnsgd1na2vs0mg"},{"bike_id":"a41817be-900b-4e4a-abf6-47505411e884","system_id":"levelo_inurba_marseille","lat":43.30601,"lon":5.3723,"is_reserved":false,"is_disabled":false,"rental_uris":{"android":"levelo://app?vid=a41817be-900b-4e4a-abf6-47505411e884","ios":"levelo://app?vid=a41817be-900b-4e4a-abf6-47505411e884"},"vehicle_type_id":"4","last_reported":1744956874,"current_range_meters":18000,"station_id":"","pricing_plan_id":"cebpf4jnsgd1na2vs0mg"},{"bike_id":"79f55d2f-7345-4995-86bd-1a70f5fd61f4","system_id":"levelo_inurba_marseille","lat":43.27364,"lon":5.36257,"is_reserved":false,"is_disabled":false,"rental_uris":{"android":"levelo://app?vid=79f55d2f-7345-4995-86bd-1a70f5fd61f4","ios":"levelo://app?vid=79f55d2f-7345-4995-86bd-1a70f5fd61f4"},"vehicle_type_id":"4","last_reported":1744956874,"current_range_meters":17600,"station_id":"ce4bhbh2rcd13ifvqeo0","pricing_plan_id":"cebpf4jnsgd1na2vs0mg"},{"bike_id":"5db7c5ab-73d5-47e4-9713-3ef31de4325c","system_id":"levelo_inurba_marseille","lat":43.30782,"lon":5.37363,"is_reserved":false,"is_disabled":false,"rental_uris":{"android":"levelo://app?vid=5db7c5ab-73d5-47e4-9713-3ef31de4325c","ios":"levelo://app?vid=5db7c5ab-73d5-47e4-9713-3ef31de4325c"},"vehicle_type_id":"4","last_reported":1744956874,"current_range_meters":18000,"station_id":"","pricing_plan_id":"cebpf4jnsgd1na2vs0mg"},{"bike_id":"4c05fc04-5a3e-4846-ae6c-06609c17f5be","system_id":"levelo_inurba_marseille","lat":43.26233,"lon":5.40476,"is_reserved":false,"is_disabled":false,"rental_uris":{"android":"levelo://app?vid=4c05fc04-5a3e-4846-ae6c-06609c17f5be","ios":"levelo://app?vid=4c05fc04-5a3e-4846-ae6c-06609c17f5be"},"vehicle_type_id":"4","last_reported":1744956874,"current_range_meters":18000,"station_id":"ce4bhmh2rcd13ifvqgmg","pricing_plan_id":"cebpf4jnsgd1na2vs0mg"},{"bike_id":"f1d513e7-93f2-472b-b840-4c42490aad95","system_id":"levelo_inurba_marseille","lat":43.24179,"lon":5.36393,"is_reserved":false,"is_disabled":false,"rental_uris":{"android":"levelo://app?vid=f1d513e7-93f2-472b-b840-4c42490aad95","ios":"levelo://app?vid=f1d513e7-93f2-472b-b840-4c42490aad95"},"vehicle_type_id":"4","last_reported":1744956874,"current_range_meters":18000,"station_id":"cpo36qri1sfpv3e86is0","pricing_plan_id":"cebpf4jnsgd1na2vs0mg"},{"bike_id":"10229b60-ea9d-4ee7-a680-b72ab11dc1c6","system_id":"levelo_inurba_marseille","lat":43.30173,"lon":5.38081,"is_reserved":false,"is_disabled":false,"rental_uris":{"android":"levelo://app?vid=10229b60-ea9d-4ee7-a680-b72ab11dc1c6","ios":"levelo://app?vid=10229b60-ea9d-4ee7-a680-b72ab11dc1c6"},"vehicle_type_id":"4","last_reported":1744956874,"current_range_meters":18000,"station_id":"ce4bgjp2rcd13ifvqbh0","pricing_plan_id":"cebpf4jnsgd1na2vs0mg"},{"bike_id":"044f6785-0e94-4d33-b79a-26d70dd9d306","system_id":"levelo_inurba_marseille","lat":43.25856,"lon":5.39947,"is_reserved":false,"is_disabled":true,"rental_uris":{"android":"levelo://app?vid=044f6785-0e94-4d33-b79a-26d70dd9d306","ios":"levelo://app?vid=044f6785-0e94-4d33-b79a-26d70dd9d306"},"vehicle_type_id":"4","last_reported":1744956874,"current_range_meters":18800,"station_id":"ce4bhl92rcd13ifvqghg","pricing_plan_id":"cebpf4jnsgd1na2vs0mg"},{"bike_id":"623bd610-5cd9-4f7d-853e-74e9cf391711","system_id":"levelo_inurba_marseille","lat":43.29848,"lon":5.36285,"is_reserved":false,"is_disabled":false,"rental_uris":{"android":"levelo://app?vid=623bd610-5cd9-4f7d-853e-74e9cf391711","ios":"levelo://app?vid=623bd610-5cd9-4f7d-853e-74e9cf391711"},"vehicle_type_id":"4","last_reported":1744956874,"current_range_meters":18800,"station_id":"ce4bgpp2rcd13ifvqc3g","pricing_plan_id":"cebpf4jnsgd1na2vs0mg"},{"bike_id":"91aa591a-3e56-4092-a295-ecb6aebe69eb","system_id":"levelo_inurba_marseille","lat":43.22498,"lon":5.34799,"is_reserved":false,"is_disabled":false,"rental_uris":{"android":"levelo://app?vid=91aa591a-3e56-4092-a295-ecb6aebe69eb","ios":"levelo://app?vid=91aa591a-3e56-4092-a295-ecb6aebe69eb"},"vehicle_type_id":"4","last_reported":1744956874,"current_range_meters":18800,"station_id":"st_cvj5dfep6f1abm77gieg","pricing_plan_id":"cebpf4jnsgd1na2vs0mg"},{"bike_id":"aea2afb6-112e-4c3a-968a-5eb5aa77e9be","system_id":"levelo_inurba_marseille","lat":43.21186,"lon":5.35088,"is_reserved":false,"is_disabled":false,"rental_uris":{"android":"levelo://app?vid=aea2afb6-112e-4c3a-968a-5eb5aa77e9be","ios":"levelo://app?vid=aea2afb6-112e-4c3a-968a-5eb5aa77e9be"},"vehicle_type_id":"4","last_reported":1744956874,"current_range_meters":18800,"station_id":"st_cvj6sg6p6f1abm77japg","pricing_plan_id":"cebpf4jnsgd1na2vs0mg"},{"bike_id":"82a001e1-327f-4a58-b355-bcf2e1a86bf6","system_id":"levelo_inurba_marseille","lat":43.30893,"lon":5.36709,"is_reserved":false,"is_disabled":false,"rental_uris":{"android":"levelo://app?vid=82a001e1-327f-4a58-b355-bcf2e1a86bf6","ios":"levelo://app?vid=82a001e1-327f-4a58-b355-bcf2e1a86bf6"},"vehicle_type_id":"4","last_reported":1744956874,"current_range_meters":18800,"station_id":"","pricing_plan_id":"cebpf4jnsgd1na2vs0mg"},{"bike_id":"0318086b-603d-4065-a7b0-7a0a33e1efe8","system_id":"levelo_inurba_marseille","lat":43.30308,"lon":5.36907,"is_reserved":false,"is_disabled":false,"rental_uris":{"android":"levelo://app?vid=0318086b-603d-4065-a7b0-7a0a33e1efe8","ios":"levelo://app?vid=0318086b-603d-4065-a7b0-7a0a33e1efe8"},"vehicle_type_id":"4","last_reported":1744956874,"current_range_meters":18800,"station_id":"ce4bgqh2rcd13ifvqc5g","pricing_plan_id":"cebpf4jnsgd1na2vs0mg"},{"bike_id":"9eb6738d-486c-4d0a-88f4-70b8d81983d1","system_id":"levelo_inurba_marseille","lat":43.21769,"lon":5.34605,"is_reserved":false,"is_disabled":false,"rental_uris":{"android":"levelo://app?vid=9eb6738d-486c-4d0a-88f4-70b8d81983d1","ios":"levelo://app?vid=9eb6738d-486c-4d0a-88f4-70b8d81983d1"},"vehicle_type_id":"4","last_reported":1744956874,"current_range_meters":18800,"station_id":"st_cvj6r9ubvosntc0bgbag","pricing_plan_id":"cebpf4jnsgd1na2vs0mg"},{"bike_id":"80bac1fe-218c-4068-937c-4aa733df023f","system_id":"levelo_inurba_marseille","lat":43.28626,"lon":5.37071,"is_reserved":false,"is_disabled":false,"rental_uris":{"android":"levelo://app?vid=80bac1fe-218c-4068-937c-4aa733df023f","ios":"levelo://app?vid=80bac1fe-218c-4068-937c-4aa733df023f"},"vehicle_type_id":"4","last_reported":1744956874,"current_range_meters":18800,"station_id":"ce4bht12rcd13ifvqi60","pricing_plan_id":"cebpf4jnsgd1na2vs0mg"},{"bike_id":"20d0596c-71c3-436e-bda3-32ebac936370","system_id":"levelo_inurba_marseille","lat":43.278137,"lon":5.407174,"is_reserved":false,"is_disabled":false,"rental_uris":{"android":"levelo://app?vid=20d0596c-71c3-436e-bda3-32ebac936370","ios":"levelo://app?vid=20d0596c-71c3-436e-bda3-32ebac936370"},"vehicle_type_id":"4","last_reported":1744956874,"current_range_meters":18800,"station_id":"ce4bhnh2rcd13ifvqgtg","pricing_plan_id":"cebpf4jnsgd1na2vs0mg"},{"bike_id":"98fe4d37-d8c0-4f00-8054-516bc255211f","system_id":"levelo_inurba_marseille","lat":43.33615,"lon":5.41033,"is_reserved":false,"is_disabled":false,"rental_uris":{"android":"levelo://app?vid=98fe4d37-d8c0-4f00-8054-516bc255211f","ios":"levelo://app?vid=98fe4d37-d8c0-4f00-8054-516bc255211f"},"vehicle_type_id":"4","last_reported":1744956874,"current_range_meters":19200,"station_id":"ce4bhqh2rcd13ifvqhmg","pricing_plan_id":"cebpf4jnsgd1na2vs0mg"},{"bike_id":"613c2ddb-ff11-47e8-b27f-ea2468e77b37","system_id":"levelo_inurba_marseille","lat":43.2594,"lon":5.40907,"is_reserved":false,"is_disabled":false,"rental_uris":{"android":"levelo://app?vid=613c2ddb-ff11-47e8-b27f-ea2468e77b37","ios":"levelo://app?vid=613c2ddb-ff11-47e8-b27f-ea2468e77b37"},"vehicle_type_id":"4","last_reported":1744956874,"current_range_meters":19200,"station_id":"ce4bhm92rcd13ifvqglg","pricing_plan_id":"cebpf4jnsgd1na2vs0mg"},{"bike_id":"666c452f-bc61-4405-8374-62677582612f","system_id":"levelo_inurba_marseille","lat":43.2586,"lon":5.38901,"is_reserved":false,"is_disabled":false,"rental_uris":{"android":"levelo://app?vid=666c452f-bc61-4405-8374-62677582612f","ios":"levelo://app?vid=666c452f-bc61-4405-8374-62677582612f"},"vehicle_type_id":"4","last_reported":1744956874,"current_range_meters":19200,"station_id":"","pricing_plan_id":"cebpf4jnsgd1na2vs0mg"},{"bike_id":"bb9cc5b6-0c7a-4871-8383-15ba04455dec","system_id":"levelo_inurba_marseille","lat":43.29895,"lon":5.4367,"is_reserved":false,"is_disabled":false,"rental_uris":{"android":"levelo://app?vid=bb9cc5b6-0c7a-4871-8383-15ba04455dec","ios":"levelo://app?vid=bb9cc5b6-0c7a-4871-8383-15ba04455dec"},"vehicle_type_id":"4","last_reported":1744956874,"current_range_meters":19600,"station_id":"ce4bhpp2rcd13ifvqhfg","pricing_plan_id":"cebpf4jnsgd1na2vs0mg"},{"bike_id":"d05b7cc4-f88b-4d02-ae6c-c344f22c0e5c","system_id":"levelo_inurba_marseille","lat":43.29775,"lon":5.36539,"is_reserved":false,"is_disabled":false,"rental_uris":{"android":"levelo://app?vid=d05b7cc4-f88b-4d02-ae6c-c344f22c0e5c","ios":"levelo://app?vid=d05b7cc4-f88b-4d02-ae6c-c344f22c0e5c"},"vehicle_type_id":"4","last_reported":1744956874,"current_range_meters":19600,"station_id":"","pricing_plan_id":"cebpf4jnsgd1na2vs0mg"},{"bike_id":"ed2bf1b7-dfe0-4af6-810a-6554c76886fe","system_id":"levelo_inurba_marseille","lat":43.28389,"lon":5.3752,"is_reserved":false,"is_disabled":false,"rental_uris":{"android":"levelo://app?vid=ed2bf1b7-dfe0-4af6-810a-6554c76886fe","ios":"levelo://app?vid=ed2bf1b7-dfe0-4af6-810a-6554c76886fe"},"vehicle_type_id":"4","last_reported":1744956874,"current_range_meters":19600,"station_id":"ce4bh412rcd13ifvqds0","pricing_plan_id":"cebpf4jnsgd1na2vs0mg"},{"bike_id":"28960fb6-f0af-4951-9517-2e66fcc515d3","system_id":"levelo_inurba_marseille","lat":43.3018,"lon":5.36616,"is_reserved":false,"is_disabled":false,"rental_uris":{"android":"levelo://app?vid=28960fb6-f0af-4951-9517-2e66fcc515d3","ios":"levelo://app?vid=28960fb6-f0af-4951-9517-2e66fcc515d3"},"vehicle_type_id":"4","last_reported":1744956874,"current_range_meters":19600,"station_id":"ce4bgrh2rcd13ifvqc8g","pricing_plan_id":"cebpf4jnsgd1na2vs0mg"},{"bike_id":"f7aa9c71-a8bf-4e0f-a09a-b87dba5b97f4","system_id":"levelo_inurba_marseille","lat":43.27906,"lon":5.38013,"is_reserved":false,"is_disabled":false,"rental_uris":{"android":"levelo://app?vid=f7aa9c71-a8bf-4e0f-a09a-b87dba5b97f4","ios":"levelo://app?vid=f7aa9c71-a8bf-4e0f-a09a-b87dba5b97f4"},"vehicle_type_id":"4","last_reported":1744956874,"current_range_meters":19600,"station_id":"ce4bhf92rcd13ifvqf50","pricing_plan_id":"cebpf4jnsgd1na2vs0mg"},{"bike_id":"056beed3-732b-4c15-871c-8c4749c0b234","system_id":"levelo_inurba_marseille","lat":43.26566,"lon":5.390216,"is_reserved":false,"is_disabled":false,"rental_uris":{"android":"levelo://app?vid=056beed3-732b-4c15-871c-8c4749c0b234","ios":"levelo://app?vid=056beed3-732b-4c15-871c-8c4749c0b234"},"vehicle_type_id":"4","last_reported":1744956874,"current_range_meters":19600,"station_id":"ce4bhe12rcd13ifvqf30","pricing_plan_id":"cebpf4jnsgd1na2vs0mg"},{"bike_id":"17de6571-3c1c-4621-995b-d445cb9c6f14","system_id":"levelo_inurba_marseille","lat":43.211954,"lon":5.350716,"is_reserved":false,"is_disabled":false,"rental_uris":{"android":"levelo://app?vid=17de6571-3c1c-4621-995b-d445cb9c6f14","ios":"levelo://app?vid=17de6571-3c1c-4621-995b-d445cb9c6f14"},"vehicle_type_id":"4","last_reported":1744956874,"current_range_meters":19600,"station_id":"st_cvj6sg6p6f1abm77japg","pricing_plan_id":"cebpf4jnsgd1na2vs0mg"},{"bike_id":"ead9f013-8e5b-4b8f-85c4-4282ad4a7cae","system_id":"levelo_inurba_marseille","lat":43.24399,"lon":5.37069,"is_reserved":false,"is_disabled":false,"rental_uris":{"android":"levelo://app?vid=ead9f013-8e5b-4b8f-85c4-4282ad4a7cae","ios":"levelo://app?vid=ead9f013-8e5b-4b8f-85c4-4282ad4a7cae"},"vehicle_type_id":"4","last_reported":1744956874,"current_range_meters":19600,"station_id":"ce4bhhh2rcd13ifvqfk0","pricing_plan_id":"cebpf4jnsgd1na2vs0mg"},{"bike_id":"383e77ed-c3ce-4784-bc3e-fcd4452b48f8","system_id":"levelo_inurba_marseille","lat":43.30903,"lon":5.36852,"is_reserved":false,"is_disabled":false,"rental_uris":{"android":"levelo://app?vid=383e77ed-c3ce-4784-bc3e-fcd4452b48f8","ios":"levelo://app?vid=383e77ed-c3ce-4784-bc3e-fcd4452b48f8"},"vehicle_type_id":"4","last_reported":1744956874,"current_range_meters":19600,"station_id":"ce4bgn92rcd13ifvqbvg","pricing_plan_id":"cebpf4jnsgd1na2vs0mg"},{"bike_id":"7d61685e-6150-40cc-9fee-865aea60477b","system_id":"levelo_inurba_marseille","lat":43.29111,"lon":5.38179,"is_reserved":false,"is_disabled":true,"rental_uris":{"android":"levelo://app?vid=7d61685e-6150-40cc-9fee-865aea60477b","ios":"levelo://app?vid=7d61685e-6150-40cc-9fee-865aea60477b"},"vehicle_type_id":"4","last_reported":1744956874,"current_range_meters":19600,"station_id":"ce4bh512rcd13ifvqe2g","pricing_plan_id":"cebpf4jnsgd1na2vs0mg"},{"bike_id":"beae55ab-1a39-49d3-9e51-9498979f641f","system_id":"levelo_inurba_marseille","lat":43.30458,"lon":5.3791,"is_reserved":false,"is_disabled":false,"rental_uris":{"android":"levelo://app?vid=beae55ab-1a39-49d3-9e51-9498979f641f","ios":"levelo://app?vid=beae55ab-1a39-49d3-9e51-9498979f641f"},"vehicle_type_id":"4","last_reported":1744956874,"current_range_meters":19600,"station_id":"ce4bgup2rcd13ifvqcn0","pricing_plan_id":"cebpf4jnsgd1na2vs0mg"},{"bike_id":"eb0220de-5641-4549-8ce6-f907772fde4d","system_id":"levelo_inurba_marseille","lat":43.2655,"lon":5.373004,"is_reserved":false,"is_disabled":true,"rental_uris":{"android":"levelo://app?vid=eb0220de-5641-4549-8ce6-f907772fde4d","ios":"levelo://app?vid=eb0220de-5641-4549-8ce6-f907772fde4d"},"vehicle_type_id":"4","last_reported":1744956874,"current_range_meters":20000,"station_id":"ce4bhg12rcd13ifvqf70","pricing_plan_id":"cebpf4jnsgd1na2vs0mg"},{"bike_id":"3bd36c81-7b6e-4b98-af81-cd557b5544b8","system_id":"levelo_inurba_marseille","lat":43.28714,"lon":5.40025,"is_reserved":false,"is_disabled":false,"rental_uris":{"android":"levelo://app?vid=3bd36c81-7b6e-4b98-af81-cd557b5544b8","ios":"levelo://app?vid=3bd36c81-7b6e-4b98-af81-cd557b5544b8"},"vehicle_type_id":"4","last_reported":1744956874,"current_range_meters":20000,"station_id":"ce4bho92rcd13ifvqh3g","pricing_plan_id":"cebpf4jnsgd1na2vs0mg"},{"bike_id":"24213b37-b766-4d9c-a174-f6bf34920497","system_id":"levelo_inurba_marseille","lat":43.28469,"lon":5.384178,"is_reserved":false,"is_disabled":false,"rental_uris":{"android":"levelo://app?vid=24213b37-b766-4d9c-a174-f6bf34920497","ios":"levelo://app?vid=24213b37-b766-4d9c-a174-f6bf34920497"},"vehicle_type_id":"4","last_reported":1744956874,"current_range_meters":20000,"station_id":"ce4bh512rcd13ifvqe3g","pricing_plan_id":"cebpf4jnsgd1na2vs0mg"},{"bike_id":"e19797c2-1f12-4455-ad19-bbeb287ac8ad","system_id":"levelo_inurba_marseille","lat":43.28139,"lon":5.42657,"is_reserved":false,"is_disabled":false,"rental_uris":{"android":"levelo://app?vid=e19797c2-1f12-4455-ad19-bbeb287ac8ad","ios":"levelo://app?vid=e19797c2-1f12-4455-ad19-bbeb287ac8ad"},"vehicle_type_id":"4","last_reported":1744956874,"current_range_meters":20000,"station_id":"ce4bhnh2rcd13ifvqgug","pricing_plan_id":"cebpf4jnsgd1na2vs0mg"},{"bike_id":"fe88f930-60ea-4b67-a049-58a9dbd74501","system_id":"levelo_inurba_marseille","lat":43.292273,"lon":5.360653,"is_reserved":false,"is_disabled":false,"rental_uris":{"android":"levelo://app?vid=fe88f930-60ea-4b67-a049-58a9dbd74501","ios":"levelo://app?vid=fe88f930-60ea-4b67-a049-58a9dbd74501"},"vehicle_type_id":"4","last_reported":1744956874,"current_range_meters":20000,"station_id":"ce4bhbh2rcd13ifvqeqg","pricing_plan_id":"cebpf4jnsgd1na2vs0mg"},{"bike_id":"fe3e7798-fb4c-4b9a-8291-5bec09fd3f3a","system_id":"levelo_inurba_marseille","lat":43.28023,"lon":5.36952,"is_reserved":false,"is_disabled":false,"rental_uris":{"android":"levelo://app?vid=fe3e7798-fb4c-4b9a-8291-5bec09fd3f3a","ios":"levelo://app?vid=fe3e7798-fb4c-4b9a-8291-5bec09fd3f3a"},"vehicle_type_id":"4","last_reported":1744956874,"current_range_meters":20400,"station_id":"ce4bha12rcd13ifvqef0","pricing_plan_id":"cebpf4jnsgd1na2vs0mg"},{"bike_id":"e2fb8f13-893e-42f2-bc76-7e47ec81fcbb","system_id":"levelo_inurba_marseille","lat":43.2416,"lon":5.39746,"is_reserved":false,"is_disabled":false,"rental_uris":{"android":"levelo://app?vid=e2fb8f13-893e-42f2-bc76-7e47ec81fcbb","ios":"levelo://app?vid=e2fb8f13-893e-42f2-bc76-7e47ec81fcbb"},"vehicle_type_id":"4","last_reported":1744956874,"current_range_meters":20400,"station_id":"ce4bhn12rcd13ifvqgpg","pricing_plan_id":"cebpf4jnsgd1na2vs0mg"},{"bike_id":"b140e483-b1c8-42fd-849a-8d77181c8186","system_id":"levelo_inurba_marseille","lat":43.29045,"lon":5.39993,"is_reserved":false,"is_disabled":false,"rental_uris":{"android":"levelo://app?vid=b140e483-b1c8-42fd-849a-8d77181c8186","ios":"levelo://app?vid=b140e483-b1c8-42fd-849a-8d77181c8186"},"vehicle_type_id":"4","last_reported":1744956874,"current_range_meters":20400,"station_id":"ce4bh392rcd13ifvqdm0","pricing_plan_id":"cebpf4jnsgd1na2vs0mg"},{"bike_id":"b4833aa7-38b1-47e7-a36d-447076e73dc9","system_id":"levelo_inurba_marseille","lat":43.24176,"lon":5.39733,"is_reserved":false,"is_disabled":false,"rental_uris":{"android":"levelo://app?vid=b4833aa7-38b1-47e7-a36d-447076e73dc9","ios":"levelo://app?vid=b4833aa7-38b1-47e7-a36d-447076e73dc9"},"vehicle_type_id":"4","last_reported":1744956874,"current_range_meters":20400,"station_id":"ce4bhn12rcd13ifvqgpg","pricing_plan_id":"cebpf4jnsgd1na2vs0mg"},{"bike_id":"d52be970-ec48-4545-bc59-de81d161700d","system_id":"levelo_inurba_marseille","lat":43.2559,"lon":5.3824,"is_reserved":false,"is_disabled":false,"rental_uris":{"android":"levelo://app?vid=d52be970-ec48-4545-bc59-de81d161700d","ios":"levelo://app?vid=d52be970-ec48-4545-bc59-de81d161700d"},"vehicle_type_id":"4","last_reported":1744956874,"current_range_meters":20400,"station_id":"ce4bhih2rcd13ifvqfs0","pricing_plan_id":"cebpf4jnsgd1na2vs0mg"},{"bike_id":"42dd028e-0432-4d4d-bf6a-c55cff40bc12","system_id":"levelo_inurba_marseille","lat":43.32356,"lon":5.40609,"is_reserved":false,"is_disabled":false,"rental_uris":{"android":"levelo://app?vid=42dd028e-0432-4d4d-bf6a-c55cff40bc12","ios":"levelo://app?vid=42dd028e-0432-4d4d-bf6a-c55cff40bc12"},"vehicle_type_id":"4","last_reported":1744956874,"current_range_meters":20400,"station_id":"ce4bhq92rcd13ifvqhjg","pricing_plan_id":"cebpf4jnsgd1na2vs0mg"},{"bike_id":"3c37d3ec-c1f3-47c3-9356-b25b0d14152b","system_id":"levelo_inurba_marseille","lat":43.28637,"lon":5.37078,"is_reserved":false,"is_disabled":false,"rental_uris":{"android":"levelo://app?vid=3c37d3ec-c1f3-47c3-9356-b25b0d14152b","ios":"levelo://app?vid=3c37d3ec-c1f3-47c3-9356-b25b0d14152b"},"vehicle_type_id":"4","last_reported":1744956874,"current_range_meters":20400,"station_id":"ce4bht12rcd13ifvqi60","pricing_plan_id":"cebpf4jnsgd1na2vs0mg"},{"bike_id":"32e1baf6-f2a8-4876-8b0a-9cc13511ff65","system_id":"levelo_inurba_marseille","lat":43.24175,"lon":5.39732,"is_reserved":false,"is_disabled":false,"rental_uris":{"android":"levelo://app?vid=32e1baf6-f2a8-4876-8b0a-9cc13511ff65","ios":"levelo://app?vid=32e1baf6-f2a8-4876-8b0a-9cc13511ff65"},"vehicle_type_id":"4","last_reported":1744956874,"current_range_meters":20400,"station_id":"ce4bhn12rcd13ifvqgpg","pricing_plan_id":"cebpf4jnsgd1na2vs0mg"},{"bike_id":"c76ab7f1-9a5b-4de7-92d0-9656e4ec1c06","system_id":"levelo_inurba_marseille","lat":43.262239,"lon":5.404646,"is_reserved":false,"is_disabled":false,"rental_uris":{"android":"levelo://app?vid=c76ab7f1-9a5b-4de7-92d0-9656e4ec1c06","ios":"levelo://app?vid=c76ab7f1-9a5b-4de7-92d0-9656e4ec1c06"},"vehicle_type_id":"4","last_reported":1744956874,"current_range_meters":20400,"station_id":"ce4bhmh2rcd13ifvqgmg","pricing_plan_id":"cebpf4jnsgd1na2vs0mg"},{"bike_id":"6174526a-15fe-4b71-b726-6dddc04d710e","system_id":"levelo_inurba_marseille","lat":43.31334,"lon":5.39727,"is_reserved":false,"is_disabled":false,"rental_uris":{"android":"levelo://app?vid=6174526a-15fe-4b71-b726-6dddc04d710e","ios":"levelo://app?vid=6174526a-15fe-4b71-b726-6dddc04d710e"},"vehicle_type_id":"4","last_reported":1744956874,"current_range_meters":20400,"station_id":"ce4bgvp2rcd13ifvqcu0","pricing_plan_id":"cebpf4jnsgd1na2vs0mg"},{"bike_id":"106f567c-4742-4dc2-8f65-2c053df2e39a","system_id":"levelo_inurba_marseille","lat":43.289256,"lon":5.383895,"is_reserved":false,"is_disabled":true,"rental_uris":{"android":"levelo://app?vid=106f567c-4742-4dc2-8f65-2c053df2e39a","ios":"levelo://app?vid=106f567c-4742-4dc2-8f65-2c053df2e39a"},"vehicle_type_id":"4","last_reported":1744956874,"current_range_meters":20800,"station_id":"ce4bh612rcd13ifvqe6g","pricing_plan_id":"cebpf4jnsgd1na2vs0mg"},{"bike_id":"0653a8d6-6815-40a5-8b70-bf4a5a7dea5a","system_id":"levelo_inurba_marseille","lat":43.3234,"lon":5.40624,"is_reserved":false,"is_disabled":false,"rental_uris":{"android":"levelo://app?vid=0653a8d6-6815-40a5-8b70-bf4a5a7dea5a","ios":"levelo://app?vid=0653a8d6-6815-40a5-8b70-bf4a5a7dea5a"},"vehicle_type_id":"4","last_reported":1744956874,"current_range_meters":20800,"station_id":"ce4bhq92rcd13ifvqhjg","pricing_plan_id":"cebpf4jnsgd1na2vs0mg"},{"bike_id":"97598666-c17c-40c0-9dfe-03cce10aa57a","system_id":"levelo_inurba_marseille","lat":43.30879,"lon":5.39657,"is_reserved":false,"is_disabled":false,"rental_uris":{"android":"levelo://app?vid=97598666-c17c-40c0-9dfe-03cce10aa57a","ios":"levelo://app?vid=97598666-c17c-40c0-9dfe-03cce10aa57a"},"vehicle_type_id":"4","last_reported":1744956874,"current_range_meters":20800,"station_id":"ce4bh012rcd13ifvqcv0","pricing_plan_id":"cebpf4jnsgd1na2vs0mg"},{"bike_id":"16a87873-6101-4cc9-8c92-5091ac50ec91","system_id":"levelo_inurba_marseille","lat":43.337244,"lon":5.391827,"is_reserved":false,"is_disabled":false,"rental_uris":{"android":"levelo://app?vid=16a87873-6101-4cc9-8c92-5091ac50ec91","ios":"levelo://app?vid=16a87873-6101-4cc9-8c92-5091ac50ec91"},"vehicle_type_id":"4","last_reported":1744956874,"current_range_meters":20800,"station_id":"ce4bhr92rcd13ifvqhsg","pricing_plan_id":"cebpf4jnsgd1na2vs0mg"},{"bike_id":"ff6fdeb3-4f98-4ba9-96e2-a417ad336a28","system_id":"levelo_inurba_marseille","lat":43.24805,"lon":5.37475,"is_reserved":false,"is_disabled":false,"rental_uris":{"android":"levelo://app?vid=ff6fdeb3-4f98-4ba9-96e2-a417ad336a28","ios":"levelo://app?vid=ff6fdeb3-4f98-4ba9-96e2-a417ad336a28"},"vehicle_type_id":"4","last_reported":1744956874,"current_range_meters":20800,"station_id":"ce4bhgh2rcd13ifvqfb0","pricing_plan_id":"cebpf4jnsgd1na2vs0mg"},{"bike_id":"b4169a98-3879-43a2-a093-e52c8314cbb7","system_id":"levelo_inurba_marseille","lat":43.304942,"lon":5.380009,"is_reserved":false,"is_disabled":false,"rental_uris":{"android":"levelo://app?vid=b4169a98-3879-43a2-a093-e52c8314cbb7","ios":"levelo://app?vid=b4169a98-3879-43a2-a093-e52c8314cbb7"},"vehicle_type_id":"4","last_reported":1744956874,"current_range_meters":20800,"station_id":"","pricing_plan_id":"cebpf4jnsgd1na2vs0mg"},{"bike_id":"32b2b4b9-b3f9-4cd9-890f-364c76cf3006","system_id":"levelo_inurba_marseille","lat":43.24391,"lon":5.37068,"is_reserved":false,"is_disabled":false,"rental_uris":{"android":"levelo://app?vid=32b2b4b9-b3f9-4cd9-890f-364c76cf3006","ios":"levelo://app?vid=32b2b4b9-b3f9-4cd9-890f-364c76cf3006"},