{"last_updated":1726506501,"ttl":30,"version":"2.2","data":{"bikes":[{"bike_id":"ede4367f-fa3b-4787-af3c-de5cd6476b7f","system_id":"levelo_inurba_marseille","lat":43.313782,"lon":5.406077,"is_reserved":false,"is_disabled":false,"rental_uris":{"android":"levelo://app?vid=ede4367f-fa3b-4787-af3c-de5cd6476b7f","ios":"levelo://app?vid=ede4367f-fa3b-4787-af3c-de5cd6476b7f"},"vehicle_type_id":"4","last_reported":1726506501,"current_range_meters":28000,"station_id":"","pricing_plan_id":"cebpf4jnsgd1na2vs0mg"},{"bike_id":"8cce1a95-b89f-438a-9353-999e9a074618","system_id":"levelo_inurba_marseille","lat":43.26812,"lon":5.40274,"is_reserved":false,"is_disabled":false,"rental_uris":{"android":"levelo://app?vid=8cce1a95-b89f-438a-9353-999e9a074618","ios":"levelo://app?vid=8cce1a95-b89f-438a-9353-999e9a074618"},"vehicle_type_id":"4","last_reported":1726506501,"current_range_meters":27600,"station_id":"ce501612rcd8frsf0b60","pricing_plan_id":"cebpf4jnsgd1na2vs0mg"},{"bike_id":"94093477-d3cb-4d9b-bda9-bd54e8de9360","system_id":"levelo_inurba_marseille","lat":43.33023,"lon":5.39046,"is_reserved":false,"is_disabled":false,"rental_uris":{"android":"levelo://app?vid=94093477-d3cb-4d9b-bda9-bd54e8de9360","ios":"levelo://app?vid=94093477-d3cb-4d9b-bda9-bd54e8de9360"},"vehicle_type_id":"4","last_reported":1726506501,"current_range_meters":20400,"station_id":"ce4bhr92rcd13ifvqhrg","pricing_plan_id":"cebpf4jnsgd1na2vs0mg"},{"bike_id":"43176770-eaee-4996-86c7-d408161e4ce6","system_id":"levelo_inurba_marseille","lat":43.29895,"lon":5.4366,"is_reserved":false,"is_disabled":false,"rental_uris":{"android":"levelo://app?vid=43176770-eaee-4996-86c7-d408161e4ce6","ios":"levelo://app?vid=43176770-eaee-4996-86c7-d408161e4ce6"},"vehicle_type_id":"4","last_reported":1726506501,"current_range_meters":9600,"station_id":"ce4bhpp2rcd13ifvqhfg","pricing_plan_id":"cebpf4jnsgd1na2vs0mg"},{"bike_id":"48443014-5a37-41c6-8b69-abe726269fed","system_id":"levelo_inurba_marseille","lat":43.32366,"lon":5.38878,"is_reserved":false,"is_disabled":false,"rental_uris":{"android":"levelo://app?vid=48443014-5a37-41c6-8b69-abe726269fed","ios":"levelo://app?vid=48443014-5a37-41c6-8b69-abe726269fed"},"vehicle_type_id":"4","last_reported":1726506501,"current_range_meters":30000,"station_id":"ce4bhqp2rcd13ifvqhog","pricing_plan_id":"cebpf4jnsgd1na2vs0mg"},{"bike_id":"7e74ccf1-6e94-422c-bb3a-8867c576e37a","system_id":"levelo_inurba_marseille","lat":43.22931,"lon":5.35374,"is_reserved":false,"is_disabled":false,"rental_uris":{"android":"levelo://app?vid=7e74ccf1-6e94-422c-bb3a-8867c576e37a","ios":"levelo://app?vid=7e74ccf1-6e94-422c-bb3a-8867c576e37a"},"vehicle_type_id":"4","last_reported":1726506501,"current_range_meters":24800,"station_id":"cpo3532slgdg3j2ikp40","pricing_plan_id":"cebpf4jnsgd1na2vs0mg"},{"bike_id":"248b7cdf-7874-47b5-9dbd-dcd0ae8590d0","system_id":"levelo_inurba_marseille","lat":43.29035,"lon":5.38652,"is_reserved":false,"is_disabled":false,"rental_uris":{"android":"levelo://app?vid=248b7cdf-7874-47b5-9dbd-dcd0ae8590d0","ios":"levelo://app?vid=248b7cdf-7874-47b5-9dbd-dcd0ae8590d0"},"vehicle_type_id":"4","last_reported":1726506501,"current_range_meters":8800,"station_id":"ce4bh4p2rcd13ifvqe0g","pricing_plan_id":"cebpf4jnsgd1na2vs0mg"},{"bike_id":"13ec4916-f0ea-4897-8afc-596425b42c42","system_id":"levelo_inurba_marseille","lat":43.23183,"lon":5.35554,"is_reserved":false,"is_disabled":false,"rental_uris":{"android":"levelo://app?vid=13ec4916-f0ea-4897-8afc-596425b42c42","ios":"levelo://app?vid=13ec4916-f0ea-4897-8afc-596425b42c42"},"vehicle_type_id":"4","last_reported":1726506501,"current_range_meters":14800,"station_id":"ce4bhu92rcd13ifvqi70","pricing_plan_id":"cebpf4jnsgd1na2vs0mg"},{"bike_id":"76c2ad49-6301-48ff-bc82-807c296aea33","system_id":"levelo_inurba_marseille","lat":43.33025,"lon":5.39045,"is_reserved":false,"is_disabled":false,"rental_uris":{"android":"levelo://app?vid=76c2ad49-6301-48ff-bc82-807c296aea33","ios":"levelo://app?vid=76c2ad49-6301-48ff-bc82-807c296aea33"},"vehicle_type_id":"4","last_reported":1726506501,"current_range_meters":4000,"station_id":"ce4bhr92rcd13ifvqhrg","pricing_plan_id":"cebpf4jnsgd1na2vs0mg"},{"bike_id":"d4efa247-e9a6-4352-b31d-50da2e18c88c","system_id":"levelo_inurba_marseille","lat":43.31697,"lon":5.37758,"is_reserved":false,"is_disabled":false,"rental_uris":{"android":"levelo://app?vid=d4efa247-e9a6-4352-b31d-50da2e18c88c","ios":"levelo://app?vid=d4efa247-e9a6-4352-b31d-50da2e18c88c"},"vehicle_type_id":"4","last_reported":1726506501,"current_range_meters":2000,"station_id":"ce4bgth2rcd13ifvqch0","pricing_plan_id":"cebpf4jnsgd1na2vs0mg"},{"bike_id":"1d7ed770-c264-4300-8ea6-a5b239e76bc9","system_id":"levelo_inurba_marseille","lat":43.320465,"lon":5.415393,"is_reserved":false,"is_disabled":false,"rental_uris":{"android":"levelo://app?vid=1d7ed770-c264-4300-8ea6-a5b239e76bc9","ios":"levelo://app?vid=1d7ed770-c264-4300-8ea6-a5b239e76bc9"},"vehicle_type_id":"4","last_reported":1726506501,"current_range_meters":12800,"station_id":"ce4bhq92rcd13ifvqhkg","pricing_plan_id":"cebpf4jnsgd1na2vs0mg"},{"bike_id":"74c67d55-8a5f-40c9-8066-d68354718f8c","system_id":"levelo_inurba_marseille","lat":43.23191,"lon":5.35557,"is_reserved":false,"is_disabled":false,"rental_uris":{"android":"levelo://app?vid=74c67d55-8a5f-40c9-8066-d68354718f8c","ios":"levelo://app?vid=74c67d55-8a5f-40c9-8066-d68354718f8c"},"vehicle_type_id":"4","last_reported":1726506501,"current_range_meters":11600,"station_id":"ce4bhu92rcd13ifvqi70","pricing_plan_id":"cebpf4jnsgd1na2vs0mg"},{"bike_id":"fb4b66cf-3e33-4325-a6c6-92a7387ae33f","system_id":"levelo_inurba_marseille","lat":43.30328,"lon":5.4044,"is_reserved":false,"is_disabled":false,"rental_uris":{"android":"levelo://app?vid=fb4b66cf-3e33-4325-a6c6-92a7387ae33f","ios":"levelo://app?vid=fb4b66cf-3e33-4325-a6c6-92a7387ae33f"},"vehicle_type_id":"4","last_reported":1726506501,"current_range_meters":38800,"station_id":"ce4bh012rcd13ifvqd10","pricing_plan_id":"cebpf4jnsgd1na2vs0mg"},{"bike_id":"b009e7ec-727c-4425-935b-840b46540983","system_id":"levelo_inurba_marseille","lat":43.32656,"lon":5.40993,"is_reserved":false,"is_disabled":false,"rental_uris":{"android":"levelo://app?vid=b009e7ec-727c-4425-935b-840b46540983","ios":"levelo://app?vid=b009e7ec-727c-4425-935b-840b46540983"},"vehicle_type_id":"4","last_reported":1726506501,"current_range_meters":39200,"station_id":"ce4bhpp2rcd13ifvqhgg","pricing_plan_id":"cebpf4jnsgd1na2vs0mg"},{"bike_id":"2a5808e5-1612-4dc1-a62b-b9c71459256c","system_id":"levelo_inurba_marseille","lat":43.34082,"lon":5.39116,"is_reserved":false,"is_disabled":false,"rental_uris":{"android":"levelo://app?vid=2a5808e5-1612-4dc1-a62b-b9c71459256c","ios":"levelo://app?vid=2a5808e5-1612-4dc1-a62b-b9c71459256c"},"vehicle_type_id":"4","last_reported":1726506501,"current_range_meters":18000,"station_id":"","pricing_plan_id":"cebpf4jnsgd1na2vs0mg"},{"bike_id":"e75bdf37-6017-4dd9-8183-f2edc970ca06","system_id":"levelo_inurba_marseille","lat":43.23192,"lon":5.35557,"is_reserved":false,"is_disabled":false,"rental_uris":{"android":"levelo://app?vid=e75bdf37-6017-4dd9-8183-f2edc970ca06","ios":"levelo://app?vid=e75bdf37-6017-4dd9-8183-f2edc970ca06"},"vehicle_type_id":"4","last_reported":1726506501,"current_range_meters":34800,"station_id":"ce4bhu92rcd13ifvqi70","pricing_plan_id":"cebpf4jnsgd1na2vs0mg"},{"bike_id":"b63ffe4d-65c2-4fd7-9b93-53f28874f122","system_id":"levelo_inurba_marseille","lat":43.29197,"lon":5.35806,"is_reserved":false,"is_disabled":false,"rental_uris":{"android":"levelo://app?vid=b63ffe4d-65c2-4fd7-9b93-53f28874f122","ios":"levelo://app?vid=b63ffe4d-65c2-4fd7-9b93-53f28874f122"},"vehicle_type_id":"4","last_reported":1726506501,"current_range_meters":11600,"station_id":"ce4bhb12rcd13ifvqel0","pricing_plan_id":"cebpf4jnsgd1na2vs0mg"},{"bike_id":"2e9e0778-64b3-43c9-a4da-e9e46e6ed2c9","system_id":"levelo_inurba_marseille","lat":43.298663,"lon":5.397344,"is_reserved":false,"is_disabled":false,"rental_uris":{"android":"levelo://app?vid=2e9e0778-64b3-43c9-a4da-e9e46e6ed2c9","ios":"levelo://app?vid=2e9e0778-64b3-43c9-a4da-e9e46e6ed2c9"},"vehicle_type_id":"4","last_reported":1726506501,"current_range_meters":3200,"station_id":"ce4bh192rcd13ifvqdc0","pricing_plan_id":"cebpf4jnsgd1na2vs0mg"},{"bike_id":"02f5e9fb-caa8-44eb-9a58-bbd2287515ff","system_id":"levelo_inurba_marseille","lat":43.27668,"lon":5.38905,"is_reserved":false,"is_disabled":false,"rental_uris":{"android":"levelo://app?vid=02f5e9fb-caa8-44eb-9a58-bbd2287515ff","ios":"levelo://app?vid=02f5e9fb-caa8-44eb-9a58-bbd2287515ff"},"vehicle_type_id":"4","last_reported":1726506501,"current_range_meters":7200,"station_id":"ce4bhi12rcd13ifvqfo0","pricing_plan_id":"cebpf4jnsgd1na2vs0mg"},{"bike_id":"3b27a9a5-4d63-40cc-8881-eb5c5b077788","system_id":"levelo_inurba_marseille","lat":43.2781,"lon":5.40711,"is_reserved":false,"is_disabled":false,"rental_uris":{"android":"levelo://app?vid=3b27a9a5-4d63-40cc-8881-eb5c5b077788","ios":"levelo://app?vid=3b27a9a5-4d63-40cc-8881-eb5c5b077788"},"vehicle_type_id":"4","last_reported":1726506501,"current_range_meters":5600,"station_id":"ce4bhnh2rcd13ifvqgtg","pricing_plan_id":"cebpf4jnsgd1na2vs0mg"},{"bike_id":"eece1450-9245-4a7e-89e3-0c2ce285393f","system_id":"levelo_inurba_marseille","lat":43.2894,"lon":5.36641,"is_reserved":false,"is_disabled":false,"rental_uris":{"android":"levelo://app?vid=eece1450-9245-4a7e-89e3-0c2ce285393f","ios":"levelo://app?vid=eece1450-9245-4a7e-89e3-0c2ce285393f"},"vehicle_type_id":"4","last_reported":1726506501,"current_range_meters":14800,"station_id":"ce4bhap2rcd13ifvqek0","pricing_plan_id":"cebpf4jnsgd1na2vs0mg"},{"bike_id":"8e7d9e50-f8bd-4f0f-86eb-5e55e3240436","system_id":"levelo_inurba_marseille","lat":43.27989,"lon":5.40029,"is_reserved":false,"is_disabled":false,"rental_uris":{"android":"levelo://app?vid=8e7d9e50-f8bd-4f0f-86eb-5e55e3240436","ios":"levelo://app?vid=8e7d9e50-f8bd-4f0f-86eb-5e55e3240436"},"vehicle_type_id":"4","last_reported":1726506501,"current_range_meters":28000,"station_id":"ce4bho92rcd13ifvqh4g","pricing_plan_id":"cebpf4jnsgd1na2vs0mg"},{"bike_id":"4f276f8c-2a86-456d-bdde-1deaa0a4d8ba","system_id":"levelo_inurba_marseille","lat":43.298065,"lon":5.380842,"is_reserved":false,"is_disabled":false,"rental_uris":{"android":"levelo://app?vid=4f276f8c-2a86-456d-bdde-1deaa0a4d8ba","ios":"levelo://app?vid=4f276f8c-2a86-456d-bdde-1deaa0a4d8ba"},"vehicle_type_id":"4","last_reported":1726506501,"current_range_meters":8000,"station_id":"ce4bgip2rcd13ifvqbb0","pricing_plan_id":"cebpf4jnsgd1na2vs0mg"},{"bike_id":"1b0826ef-cf8d-41d5-b681-7c9328d50f4d","system_id":"levelo_inurba_marseille","lat":43.29016,"lon":5.38133,"is_reserved":false,"is_disabled":false,"rental_uris":{"android":"levelo://app?vid=1b0826ef-cf8d-41d5-b681-7c9328d50f4d","ios":"levelo://app?vid=1b0826ef-cf8d-41d5-b681-7c9328d50f4d"},"vehicle_type_id":"4","last_reported":1726506501,"current_range_meters":24800,"station_id":"ce4bh4p2rcd13ifvqe1g","pricing_plan_id":"cebpf4jnsgd1na2vs0mg"},{"bike_id":"f409a27c-3291-4d9b-ac57-9e74e75d80d1","system_id":"levelo_inurba_marseille","lat":43.32363,"lon":5.38879,"is_reserved":false,"is_disabled":false,"rental_uris":{"android":"levelo://app?vid=f409a27c-3291-4d9b-ac57-9e74e75d80d1","ios":"levelo://app?vid=f409a27c-3291-4d9b-ac57-9e74e75d80d1"},"vehicle_type_id":"4","last_reported":1726506501,"current_range_meters":19200,"station_id":"ce4bhqp2rcd13ifvqhog","pricing_plan_id":"cebpf4jnsgd1na2vs0mg"},{"bike_id":"a7649358-7b1e-4e20-b463-599f4ff8067d","system_id":"levelo_inurba_marseille","lat":43.2501,"lon":5.38915,"is_reserved":false,"is_disabled":false,"rental_uris":{"android":"levelo://app?vid=a7649358-7b1e-4e20-b463-599f4ff8067d","ios":"levelo://app?vid=a7649358-7b1e-4e20-b463-599f4ff8067d"},"vehicle_type_id":"4","last_reported":1726506501,"current_range_meters":33600,"station_id":"ce4bhgp2rcd13ifvqfd0","pricing_plan_id":"cebpf4jnsgd1na2vs0mg"},{"bike_id":"16a0e97e-ef03-4139-8d7e-293b27ba186c","system_id":"levelo_inurba_marseille","lat":43.280121,"lon":5.408978,"is_reserved":false,"is_disabled":false,"rental_uris":{"android":"levelo://app?vid=16a0e97e-ef03-4139-8d7e-293b27ba186c","ios":"levelo://app?vid=16a0e97e-ef03-4139-8d7e-293b27ba186c"},"vehicle_type_id":"4","last_reported":1726506501,"current_range_meters":20800,"station_id":"ce4bhnp2rcd13ifvqh0g","pricing_plan_id":"cebpf4jnsgd1na2vs0mg"},{"bike_id":"4eb4ae0a-58d4-4b0e-b621-3f0553d4aae5","system_id":"levelo_inurba_marseille","lat":43.31278,"lon":5.40172,"is_reserved":false,"is_disabled":false,"rental_uris":{"android":"levelo://app?vid=4eb4ae0a-58d4-4b0e-b621-3f0553d4aae5","ios":"levelo://app?vid=4eb4ae0a-58d4-4b0e-b621-3f0553d4aae5"},"vehicle_type_id":"4","last_reported":1726506501,"current_range_meters":38800,"station_id":"ce4bh092rcd13ifvqd30","pricing_plan_id":"cebpf4jnsgd1na2vs0mg"},{"bike_id":"c7f93bf2-2b30-4c5c-aa72-447b3f4a28ea","system_id":"levelo_inurba_marseille","lat":43.29891,"lon":5.43652,"is_reserved":false,"is_disabled":false,"rental_uris":{"android":"levelo://app?vid=c7f93bf2-2b30-4c5c-aa72-447b3f4a28ea","ios":"levelo://app?vid=c7f93bf2-2b30-4c5c-aa72-447b3f4a28ea"},"vehicle_type_id":"4","last_reported":1726506501,"current_range_meters":14000,"station_id":"ce4bhpp2rcd13ifvqhfg","pricing_plan_id":"cebpf4jnsgd1na2vs0mg"},{"bike_id":"2ea39ac9-d917-4a6d-991a-7c46fff629cb","system_id":"levelo_inurba_marseille","lat":43.2558,"lon":5.38237,"is_reserved":false,"is_disabled":false,"rental_uris":{"android":"levelo://app?vid=2ea39ac9-d917-4a6d-991a-7c46fff629cb","ios":"levelo://app?vid=2ea39ac9-d917-4a6d-991a-7c46fff629cb"},"vehicle_type_id":"4","last_reported":1726506501,"current_range_meters":24800,"station_id":"ce4bhih2rcd13ifvqfs0","pricing_plan_id":"cebpf4jnsgd1na2vs0mg"},{"bike_id":"26db0265-0a91-4c66-8aa8-67a94f7eef0d","system_id":"levelo_inurba_marseille","lat":43.26941,"lon":5.40056,"is_reserved":false,"is_disabled":false,"rental_uris":{"android":"levelo://app?vid=26db0265-0a91-4c66-8aa8-67a94f7eef0d","ios":"levelo://app?vid=26db0265-0a91-4c66-8aa8-67a94f7eef0d"},"vehicle_type_id":"4","last_reported":1726506501,"current_range_meters":3200,"station_id":"","pricing_plan_id":"cebpf4jnsgd1na2vs0mg"},{"bike_id":"2c445036-8420-4577-860a-50ac2fa0cdce","system_id":"levelo_inurba_marseille","lat":43.295771,"lon":5.367377,"is_reserved":false,"is_disabled":false,"rental_uris":{"android":"levelo://app?vid=2c445036-8420-4577-860a-50ac2fa0cdce","ios":"levelo://app?vid=2c445036-8420-4577-860a-50ac2fa0cdce"},"vehicle_type_id":"4","last_reported":1726506501,"current_range_meters":25200,"station_id":"ce4bgph2rcd13ifvqc2g","pricing_plan_id":"cebpf4jnsgd1na2vs0mg"},{"bike_id":"c3d6b649-15e3-4bba-8167-f82ba135df07","system_id":"levelo_inurba_marseille","lat":43.30916,"lon":5.4015,"is_reserved":false,"is_disabled":false,"rental_uris":{"android":"levelo://app?vid=c3d6b649-15e3-4bba-8167-f82ba135df07","ios":"levelo://app?vid=c3d6b649-15e3-4bba-8167-f82ba135df07"},"vehicle_type_id":"4","last_reported":1726506501,"current_range_meters":37600,"station_id":"ce4bgvp2rcd13ifvqct0","pricing_plan_id":"cebpf4jnsgd1na2vs0mg"},{"bike_id":"75f414ef-dead-4117-8b36-2c250f77c270","system_id":"levelo_inurba_marseille","lat":43.30931,"lon":5.40148,"is_reserved":false,"is_disabled":false,"rental_uris":{"android":"levelo://app?vid=75f414ef-dead-4117-8b36-2c250f77c270","ios":"levelo://app?vid=75f414ef-dead-4117-8b36-2c250f77c270"},"vehicle_type_id":"4","last_reported":1726506501,"current_range_meters":38800,"station_id":"ce4bgvp2rcd13ifvqct0","pricing_plan_id":"cebpf4jnsgd1na2vs0mg"},{"bike_id":"6f58f907-25a3-4897-9932-8fb6480d9c0e","system_id":"levelo_inurba_marseille","lat":43.299255,"lon":5.365268,"is_reserved":false,"is_disabled":false,"rental_uris":{"android":"levelo://app?vid=6f58f907-25a3-4897-9932-8fb6480d9c0e","ios":"levelo://app?vid=6f58f907-25a3-4897-9932-8fb6480d9c0e"},"vehicle_type_id":"4","last_reported":1726506501,"current_range_meters":14000,"station_id":"ce4bgm92rcd13ifvqbr0","pricing_plan_id":"cebpf4jnsgd1na2vs0mg"},{"bike_id":"4153cc51-d4e8-4e56-a8fd-c1a04ecf3fa7","system_id":"levelo_inurba_marseille","lat":43.2995,"lon":5.4133,"is_reserved":false,"is_disabled":false,"rental_uris":{"android":"levelo://app?vid=4153cc51-d4e8-4e56-a8fd-c1a04ecf3fa7","ios":"levelo://app?vid=4153cc51-d4e8-4e56-a8fd-c1a04ecf3fa7"},"vehicle_type_id":"4","last_reported":1726506501,"current_range_meters":33600,"station_id":"ce4bhp12rcd13ifvqh9g","pricing_plan_id":"cebpf4jnsgd1na2vs0mg"},{"bike_id":"975d3ddd-fd6c-42db-9640-601d1874d3e8","system_id":"levelo_inurba_marseille","lat":43.304199,"lon":5.41286,"is_reserved":false,"is_disabled":false,"rental_uris":{"android":"levelo://app?vid=975d3ddd-fd6c-42db-9640-601d1874d3e8","ios":"levelo://app?vid=975d3ddd-fd6c-42db-9640-601d1874d3e8"},"vehicle_type_id":"4","last_reported":1726506501,"current_range_meters":17200,"station_id":"ce4bhop2rcd13ifvqh8g","pricing_plan_id":"cebpf4jnsgd1na2vs0mg"},{"bike_id":"09e2bf99-40a9-4192-aeaf-ad01249e9ab9","system_id":"levelo_inurba_marseille","lat":43.30121,"lon":5.39861,"is_reserved":false,"is_disabled":false,"rental_uris":{"android":"levelo://app?vid=09e2bf99-40a9-4192-aeaf-ad01249e9ab9","ios":"levelo://app?vid=09e2bf99-40a9-4192-aeaf-ad01249e9ab9"},"vehicle_type_id":"4","last_reported":1726506501,"current_range_meters":2800,"station_id":"ce4bh0h2rcd13ifvqd40","pricing_plan_id":"cebpf4jnsgd1na2vs0mg"},{"bike_id":"8cb592d9-f82f-4171-894f-8d7ffa6525e5","system_id":"levelo_inurba_marseille","lat":43.23197,"lon":5.35547,"is_reserved":false,"is_disabled":false,"rental_uris":{"android":"levelo://app?vid=8cb592d9-f82f-4171-894f-8d7ffa6525e5","ios":"levelo://app?vid=8cb592d9-f82f-4171-894f-8d7ffa6525e5"},"vehicle_type_id":"4","last_reported":1726506501,"current_range_meters":24800,"station_id":"ce4bhu92rcd13ifvqi70","pricing_plan_id":"cebpf4jnsgd1na2vs0mg"},{"bike_id":"e8577ff1-e7d5-4bd8-af09-a820a63b8b50","system_id":"levelo_inurba_marseille","lat":43.3301,"lon":5.39046,"is_reserved":false,"is_disabled":false,"rental_uris":{"android":"levelo://app?vid=e8577ff1-e7d5-4bd8-af09-a820a63b8b50","ios":"levelo://app?vid=e8577ff1-e7d5-4bd8-af09-a820a63b8b50"},"vehicle_type_id":"4","last_reported":1726506501,"current_range_meters":18800,"station_id":"ce4bhr92rcd13ifvqhrg","pricing_plan_id":"cebpf4jnsgd1na2vs0mg"},{"bike_id":"6d13d0e7-63eb-4b6d-a934-855dc8c47c29","system_id":"levelo_inurba_marseille","lat":43.30802,"lon":5.43522,"is_reserved":false,"is_disabled":false,"rental_uris":{"android":"levelo://app?vid=6d13d0e7-63eb-4b6d-a934-855dc8c47c29","ios":"levelo://app?vid=6d13d0e7-63eb-4b6d-a934-855dc8c47c29"},"vehicle_type_id":"4","last_reported":1726506501,"current_range_meters":14000,"station_id":"ce4bhph2rcd13ifvqheg","pricing_plan_id":"cebpf4jnsgd1na2vs0mg"},{"bike_id":"238d1829-b979-4346-84b5-3eafa0d79267","system_id":"levelo_inurba_marseille","lat":43.31711,"lon":5.42404,"is_reserved":false,"is_disabled":false,"rental_uris":{"android":"levelo://app?vid=238d1829-b979-4346-84b5-3eafa0d79267","ios":"levelo://app?vid=238d1829-b979-4346-84b5-3eafa0d79267"},"vehicle_type_id":"4","last_reported":1726506501,"current_range_meters":38800,"station_id":"ce4bhp92rcd13ifvqhbg","pricing_plan_id":"cebpf4jnsgd1na2vs0mg"},{"bike_id":"c66db0fc-1fbb-41c8-aacf-4c1b654f7ed1","system_id":"levelo_inurba_marseille","lat":43.273716,"lon":5.390254,"is_reserved":false,"is_disabled":false,"rental_uris":{"android":"levelo://app?vid=c66db0fc-1fbb-41c8-aacf-4c1b654f7ed1","ios":"levelo://app?vid=c66db0fc-1fbb-41c8-aacf-4c1b654f7ed1"},"vehicle_type_id":"4","last_reported":1726506501,"current_range_meters":34000,"station_id":"ce4bhh92rcd13ifvqfh0","pricing_plan_id":"cebpf4jnsgd1na2vs0mg"},{"bike_id":"73146329-f4c2-4fe7-9820-b31bc2c72a65","system_id":"levelo_inurba_marseille","lat":43.31991,"lon":5.38157,"is_reserved":false,"is_disabled":false,"rental_uris":{"android":"levelo://app?vid=73146329-f4c2-4fe7-9820-b31bc2c72a65","ios":"levelo://app?vid=73146329-f4c2-4fe7-9820-b31bc2c72a65"},"vehicle_type_id":"4","last_reported":1726506501,"current_range_meters":8800,"station_id":"ce4bhr12rcd13ifvqhpg","pricing_plan_id":"cebpf4jnsgd1na2vs0mg"},{"bike_id":"6fcb0470-5b2d-4c1d-8d35-ccfb07e79374","system_id":"levelo_inurba_marseille","lat":43.31324,"lon":5.39692,"is_reserved":false,"is_disabled":false,"rental_uris":{"android":"levelo://app?vid=6fcb0470-5b2d-4c1d-8d35-ccfb07e79374","ios":"levelo://app?vid=6fcb0470-5b2d-4c1d-8d35-ccfb07e79374"},"vehicle_type_id":"4","last_reported":1726506501,"current_range_meters":39200,"station_id":"ce4bgvp2rcd13ifvqcu0","pricing_plan_id":"cebpf4jnsgd1na2vs0mg"},{"bike_id":"e5b041ad-649d-4aa9-9539-d3f562b93cbb","system_id":"levelo_inurba_marseille","lat":43.33027,"lon":5.39041,"is_reserved":false,"is_disabled":false,"rental_uris":{"android":"levelo://app?vid=e5b041ad-649d-4aa9-9539-d3f562b93cbb","ios":"levelo://app?vid=e5b041ad-649d-4aa9-9539-d3f562b93cbb"},"vehicle_type_id":"4","last_reported":1726506501,"current_range_meters":30400,"station_id":"ce4bhr92rcd13ifvqhrg","pricing_plan_id":"cebpf4jnsgd1na2vs0mg"},{"bike_id":"b1db6496-7d7b-4acc-a88c-e5406d38e100","system_id":"levelo_inurba_marseille","lat":43.23192,"lon":5.35557,"is_reserved":false,"is_disabled":false,"rental_uris":{"android":"levelo://app?vid=b1db6496-7d7b-4acc-a88c-e5406d38e100","ios":"levelo://app?vid=b1db6496-7d7b-4acc-a88c-e5406d38e100"},"vehicle_type_id":"4","last_reported":1726506501,"current_range_meters":30800,"station_id":"ce4bhu92rcd13ifvqi70","pricing_plan_id":"cebpf4jnsgd1na2vs0mg"},{"bike_id":"4647e1aa-c67c-4c57-b1c2-4c1819af9113","system_id":"levelo_inurba_marseille","lat":43.25865,"lon":5.39898,"is_reserved":false,"is_disabled":false,"rental_uris":{"android":"levelo://app?vid=4647e1aa-c67c-4c57-b1c2-4c1819af9113","ios":"levelo://app?vid=4647e1aa-c67c-4c57-b1c2-4c1819af9113"},"vehicle_type_id":"4","last_reported":1726506501,"current_range_meters":18800,"station_id":"ce4bhl92rcd13ifvqghg","pricing_plan_id":"cebpf4jnsgd1na2vs0mg"},{"bike_id":"4bc34e93-9109-44f3-a01e-0cc66bf5a4c1","system_id":"levelo_inurba_marseille","lat":43.28944,"lon":5.36399,"is_reserved":false,"is_disabled":false,"rental_uris":{"android":"levelo://app?vid=4bc34e93-9109-44f3-a01e-0cc66bf5a4c1","ios":"levelo://app?vid=4bc34e93-9109-44f3-a01e-0cc66bf5a4c1"},"vehicle_type_id":"4","last_reported":1726506501,"current_range_meters":12000,"station_id":"ce4bhc92rcd13ifvqetg","pricing_plan_id":"cebpf4jnsgd1na2vs0mg"},{"bike_id":"5cf4c2f1-f092-4550-b8cf-369099ebc3bc","system_id":"levelo_inurba_marseille","lat":43.2456,"lon":5.41552,"is_reserved":false,"is_disabled":false,"rental_uris":{"android":"levelo://app?vid=5cf4c2f1-f092-4550-b8cf-369099ebc3bc","ios":"levelo://app?vid=5cf4c2f1-f092-4550-b8cf-369099ebc3bc"},"vehicle_type_id":"4","last_reported":1726506501,"current_range_meters":8000,"station_id":"ce4bhlh2rcd13ifvqgig","pricing_plan_id":"cebpf4jnsgd1na2vs0mg"},{"bike_id":"dc46821f-7103-4f71-bb74-35fd35c7deb8","system_id":"levelo_inurba_marseille","lat":43.30646,"lon":5.40088,"is_reserved":false,"is_disabled":false,"rental_uris":{"android":"levelo://app?vid=dc46821f-7103-4f71-bb74-35fd35c7deb8","ios":"levelo://app?vid=dc46821f-7103-4f71-bb74-35fd35c7deb8"},"vehicle_type_id":"4","last_reported":1726506501,"current_range_meters":28800,"station_id":"ce4bh112rcd13ifvqda0","pricing_plan_id":"cebpf4jnsgd1na2vs0mg"},{"bike_id":"f4b6932d-463a-492e-b5cc-6d99a47cc3fc","system_id":"levelo_inurba_marseille","lat":43.28704,"lon":5.39985,"is_reserved":false,"is_disabled":false,"rental_uris":{"android":"levelo://app?vid=f4b6932d-463a-492e-b5cc-6d99a47cc3fc","ios":"levelo://app?vid=f4b6932d-463a-492e-b5cc-6d99a47cc3fc"},"vehicle_type_id":"4","last_reported":1726506501,"current_range_meters":21600,"station_id":"ce4bho92rcd13ifvqh3g","pricing_plan_id":"cebpf4jnsgd1na2vs0mg"},{"bike_id":"b645ac77-0d58-4fa9-8ad3-947af8bdb1d9","system_id":"levelo_inurba_marseille","lat":43.29897,"lon":5.43671,"is_reserved":false,"is_disabled":false,"rental_uris":{"android":"levelo://app?vid=b645ac77-0d58-4fa9-8ad3-947af8bdb1d9","ios":"levelo://app?vid=b645ac77-0d58-4fa9-8ad3-947af8bdb1d9"},"vehicle_type_id":"4","last_reported":1726506501,"current_range_meters":28000,"station_id":"ce4bhpp2rcd13ifvqhfg","pricing_plan_id":"cebpf4jnsgd1na2vs0mg"},{"bike_id":"f8bacb80-e453-4a18-9d70-ff343eb7cf84","system_id":"levelo_inurba_marseille","lat":43.31705,"lon":5.37778,"is_reserved":false,"is_disabled":false,"rental_uris":{"android":"levelo://app?vid=f8bacb80-e453-4a18-9d70-ff343eb7cf84","ios":"levelo://app?vid=f8bacb80-e453-4a18-9d70-ff343eb7cf84"},"vehicle_type_id":"4","last_reported":1726506501,"current_range_meters":8400,"station_id":"ce4bhr92rcd13ifvqhrg","pricing_plan_id":"cebpf4jnsgd1na2vs0mg"},{"bike_id":"6147d10e-b248-44fa-89d6-9880aa75ed4a","system_id":"levelo_inurba_marseille","lat":43.33719,"lon":5.39171,"is_reserved":false,"is_disabled":false,"rental_uris":{"android":"levelo://app?vid=6147d10e-b248-44fa-89d6-9880aa75ed4a","ios":"levelo://app?vid=6147d10e-b248-44fa-89d6-9880aa75ed4a"},"vehicle_type_id":"4","last_reported":1726506501,"current_range_meters":9200,"station_id":"ce4bhr92rcd13ifvqhsg","pricing_plan_id":"cebpf4jnsgd1na2vs0mg"},{"bike_id":"7abc2a25-404a-4f70-a7c0-c89315b5c4bc","system_id":"levelo_inurba_marseille","lat":43.31006,"lon":5.40072,"is_reserved":false,"is_disabled":false,"rental_uris":{"android":"levelo://app?vid=7abc2a25-404a-4f70-a7c0-c89315b5c4bc","ios":"levelo://app?vid=7abc2a25-404a-4f70-a7c0-c89315b5c4bc"},"vehicle_type_id":"4","last_reported":1726506501,"current_range_meters":25600,"station_id":"","pricing_plan_id":"cebpf4jnsgd1na2vs0mg"},{"bike_id":"942bdd64-f200-44ac-a610-985ce2109e95","system_id":"levelo_inurba_marseille","lat":43.28654,"lon":5.36357,"is_reserved":false,"is_disabled":false,"rental_uris":{"android":"levelo://app?vid=942bdd64-f200-44ac-a610-985ce2109e95","ios":"levelo://app?vid=942bdd64-f200-44ac-a610-985ce2109e95"},"vehicle_type_id":"4","last_reported":1726506501,"current_range_meters":9200,"station_id":"ce4bhah2rcd13ifvqej0","pricing_plan_id":"cebpf4jnsgd1na2vs0mg"},{"bike_id":"677498c9-746b-4650-9a8e-2c7479635944","system_id":"levelo_inurba_marseille","lat":43.33022,"lon":5.3905,"is_reserved":false,"is_disabled":false,"rental_uris":{"android":"levelo://app?vid=677498c9-746b-4650-9a8e-2c7479635944","ios":"levelo://app?vid=677498c9-746b-4650-9a8e-2c7479635944"},"vehicle_type_id":"4","last_reported":1726506501,"current_range_meters":26800,"station_id":"ce4bhr92rcd13ifvqhrg","pricing_plan_id":"cebpf4jnsgd1na2vs0mg"},{"bike_id":"28ba0773-94d1-4be9-b073-5e23edd0caec","system_id":"levelo_inurba_marseille","lat":43.30355,"lon":5.41877,"is_reserved":false,"is_disabled":false,"rental_uris":{"android":"levelo://app?vid=28ba0773-94d1-4be9-b073-5e23edd0caec","ios":"levelo://app?vid=28ba0773-94d1-4be9-b073-5e23edd0caec"},"vehicle_type_id":"4","last_reported":1726506501,"current_range_meters":3200,"station_id":"ce4bhop2rcd13ifvqh7g","pricing_plan_id":"cebpf4jnsgd1na2vs0mg"},{"bike_id":"a09b8657-3298-4390-8dd5-f622909fc3da","system_id":"levelo_inurba_marseille","lat":43.31061,"lon":5.40089,"is_reserved":false,"is_disabled":false,"rental_uris":{"android":"levelo://app?vid=a09b8657-3298-4390-8dd5-f622909fc3da","ios":"levelo://app?vid=a09b8657-3298-4390-8dd5-f622909fc3da"},"vehicle_type_id":"4","last_reported":1726506501,"current_range_meters":38800,"station_id":"","pricing_plan_id":"cebpf4jnsgd1na2vs0mg"},{"bike_id":"145b0dbf-04b2-42bd-9f66-2a1e1f5aad3d","system_id":"levelo_inurba_marseille","lat":43.311126,"lon":5.377683,"is_reserved":false,"is_disabled":false,"rental_uris":{"android":"levelo://app?vid=145b0dbf-04b2-42bd-9f66-2a1e1f5aad3d","ios":"levelo://app?vid=145b0dbf-04b2-42bd-9f66-2a1e1f5aad3d"},"vehicle_type_id":"4","last_reported":1726506501,"current_range_meters":26000,"station_id":"ce4bgt92rcd13ifvqcg0","pricing_plan_id":"cebpf4jnsgd1na2vs0mg"},{"bike_id":"dba6b027-3d0c-4cb2-bc85-e4352ede25a1","system_id":"levelo_inurba_marseille","lat":43.26546,"lon":5.37287,"is_reserved":false,"is_disabled":false,"rental_uris":{"android":"levelo://app?vid=dba6b027-3d0c-4cb2-bc85-e4352ede25a1","ios":"levelo://app?vid=dba6b027-3d0c-4cb2-bc85-e4352ede25a1"},"vehicle_type_id":"4","last_reported":1726506501,"current_range_meters":24800,"station_id":"ce4bhg12rcd13ifvqf70","pricing_plan_id":"cebpf4jnsgd1na2vs0mg"},{"bike_id":"132c9a95-1852-4d87-b5f4-b638587c4830","system_id":"levelo_inurba_marseille","lat":43.24669,"lon":5.38172,"is_reserved":false,"is_disabled":false,"rental_uris":{"android":"levelo://app?vid=132c9a95-1852-4d87-b5f4-b638587c4830","ios":"levelo://app?vid=132c9a95-1852-4d87-b5f4-b638587c4830"},"vehicle_type_id":"4","last_reported":1726506501,"current_range_meters":38400,"station_id":"ce4bhih2rcd13ifvqfr0","pricing_plan_id":"cebpf4jnsgd1na2vs0mg"},{"bike_id":"396b2e58-0578-44ae-80ed-97611b9bd34c","system_id":"levelo_inurba_marseille","lat":43.25114,"lon":5.40316,"is_reserved":false,"is_disabled":false,"rental_uris":{"android":"levelo://app?vid=396b2e58-0578-44ae-80ed-97611b9bd34c","ios":"levelo://app?vid=396b2e58-0578-44ae-80ed-97611b9bd34c"},"vehicle_type_id":"4","last_reported":1726506501,"current_range_meters":40000,"station_id":"ce4bhlh2rcd13ifvqgig","pricing_plan_id":"cebpf4jnsgd1na2vs0mg"},{"bike_id":"8140a38f-cbd8-417d-9351-7f12403f11ee","system_id":"levelo_inurba_marseille","lat":43.31318,"lon":5.39694,"is_reserved":false,"is_disabled":false,"rental_uris":{"android":"levelo://app?vid=8140a38f-cbd8-417d-9351-7f12403f11ee","ios":"levelo://app?vid=8140a38f-cbd8-417d-9351-7f12403f11ee"},"vehicle_type_id":"4","last_reported":1726506501,"current_range_meters":3200,"station_id":"ce4bgvp2rcd13ifvqcu0","pricing_plan_id":"cebpf4jnsgd1na2vs0mg"},{"bike_id":"784f0c85-85f3-48a3-a139-6db77981ce44","system_id":"levelo_inurba_marseille","lat":43.28147,"lon":5.42651,"is_reserved":false,"is_disabled":false,"rental_uris":{"android":"levelo://app?vid=784f0c85-85f3-48a3-a139-6db77981ce44","ios":"levelo://app?vid=784f0c85-85f3-48a3-a139-6db77981ce44"},"vehicle_type_id":"4","last_reported":1726506501,"current_range_meters":4800,"station_id":"ce4bhnh2rcd13ifvqgug","pricing_plan_id":"cebpf4jnsgd1na2vs0mg"},{"bike_id":"99684f50-b398-427b-a4e9-7ca0a0382c79","system_id":"levelo_inurba_marseille","lat":43.23193,"lon":5.35544,"is_reserved":false,"is_disabled":false,"rental_uris":{"android":"levelo://app?vid=99684f50-b398-427b-a4e9-7ca0a0382c79","ios":"levelo://app?vid=99684f50-b398-427b-a4e9-7ca0a0382c79"},"vehicle_type_id":"4","last_reported":1726506501,"current_range_meters":40000,"station_id":"ce4bhu92rcd13ifvqi70","pricing_plan_id":"cebpf4jnsgd1na2vs0mg"},{"bike_id":"5a2e0919-7d10-4fdc-9754-390709375e8d","system_id":"levelo_inurba_marseille","lat":43.29602,"lon":5.38103,"is_reserved":false,"is_disabled":false,"rental_uris":{"android":"levelo://app?vid=5a2e0919-7d10-4fdc-9754-390709375e8d","ios":"levelo://app?vid=5a2e0919-7d10-4fdc-9754-390709375e8d"},"vehicle_type_id":"4","last_reported":1726506501,"current_range_meters":4000,"station_id":"ce4bgl12rcd13ifvqbo0","pricing_plan_id":"cebpf4jnsgd1na2vs0mg"},{"bike_id":"7b168513-dc70-4392-ab18-1f3adbc6869a","system_id":"levelo_inurba_marseille","lat":43.29781,"lon":5.39328,"is_reserved":false,"is_disabled":false,"rental_uris":{"android":"levelo://app?vid=7b168513-dc70-4392-ab18-1f3adbc6869a","ios":"levelo://app?vid=7b168513-dc70-4392-ab18-1f3adbc6869a"},"vehicle_type_id":"4","last_reported":1726506501,"current_range_meters":18000,"station_id":"chh1huq6cuj3fo74tm60","pricing_plan_id":"cebpf4jnsgd1na2vs0mg"},{"bike_id":"1e50fdae-020a-4cb6-9b1c-d6613add5f05","system_id":"levelo_inurba_marseille","lat":43.30923,"lon":5.40145,"is_reserved":false,"is_disabled":false,"rental_uris":{"android":"levelo://app?vid=1e50fdae-020a-4cb6-9b1c-d6613add5f05","ios":"levelo://app?vid=1e50fdae-020a-4cb6-9b1c-d6613add5f05"},"vehicle_type_id":"4","last_reported":1726506501,"current_range_meters":18000,"station_id":"ce4bgvp2rcd13ifvqct0","pricing_plan_id":"cebpf4jnsgd1na2vs0mg"},{"bike_id":"51a0ef68-0a0c-4c80-8365-793323e0b2e1","system_id":"levelo_inurba_marseille","lat":43.31715,"lon":5.42405,"is_reserved":false,"is_disabled":false,"rental_uris":{"android":"levelo://app?vid=51a0ef68-0a0c-4c80-8365-793323e0b2e1","ios":"levelo://app?vid=51a0ef68-0a0c-4c80-8365-793323e0b2e1"},"vehicle_type_id":"4","last_reported":1726506501,"current_range_meters":38800,"station_id":"ce4bhp92rcd13ifvqhbg","pricing_plan_id":"cebpf4jnsgd1na2vs0mg"},{"bike_id":"35da71ca-23bc-4b30-9113-be2934f2ba7c","system_id":"levelo_inurba_marseille","lat":43.2893,"lon":5.36402,"is_reserved":false,"is_disabled":false,"rental_uris":{"android":"levelo://app?vid=35da71ca-23bc-4b30-9113-be2934f2ba7c","ios":"levelo://app?vid=35da71ca-23bc-4b30-9113-be2934f2ba7c"},"vehicle_type_id":"4","last_reported":1726506501,"current_range_meters":23200,"station_id":"ce4bhc92rcd13ifvqetg","pricing_plan_id":"cebpf4jnsgd1na2vs0mg"},{"bike_id":"d4a5eb26-b065-4afe-af9d-6f80f0b9f610","system_id":"levelo_inurba_marseille","lat":43.31713,"lon":5.43698,"is_reserved":false,"is_disabled":false,"rental_uris":{"android":"levelo://app?vid=d4a5eb26-b065-4afe-af9d-6f80f0b9f610","ios":"levelo://app?vid=d4a5eb26-b065-4afe-af9d-6f80f0b9f610"},"vehicle_type_id":"4","last_reported":1726506501,"current_range_meters":9600,"station_id":"ce4bhp92rcd13ifvqhcg","pricing_plan_id":"cebpf4jnsgd1na2vs0mg"},{"bike_id":"363577cc-1cce-47d9-92d9-37e2865531ff","system_id":"levelo_inurba_marseille","lat":43.243866,"lon":5.370555,"is_reserved":false,"is_disabled":false,"rental_uris":{"android":"levelo://app?vid=363577cc-1cce-47d9-92d9-37e2865531ff","ios":"levelo://app?vid=363577cc-1cce-47d9-92d9-37e2865531ff"},"vehicle_type_id":"4","last_reported":1726506501,"current_range_meters":38400,"station_id":"ce4bhhh2rcd13ifvqfk0","pricing_plan_id":"cebpf4jnsgd1na2vs0mg"},{"bike_id":"daa0b5a8-b15f-450e-ba31-2ba8d6e72adc","system_id":"levelo_inurba_marseille","lat":43.286926,"lon":5.363838,"is_reserved":false,"is_disabled":false,"rental_uris":{"android":"levelo://app?vid=daa0b5a8-b15f-450e-ba31-2ba8d6e72adc","ios":"levelo://app?vid=daa0b5a8-b15f-450e-ba31-2ba8d6e72adc"},"vehicle_type_id":"4","last_reported":1726506501,"current_range_meters":36400,"station_id":"ce4bhah2rcd13ifvqej0","pricing_plan_id":"cebpf4jnsgd1na2vs0mg"},{"bike_id":"81b73228-8c5c-4315-9737-2bb579f44b10","system_id":"levelo_inurba_marseille","lat":43.30136,"lon":5.39875,"is_reserved":false,"is_disabled":false,"rental_uris":{"android":"levelo://app?vid=81b73228-8c5c-4315-9737-2bb579f44b10","ios":"levelo://app?vid=81b73228-8c5c-4315-9737-2bb579f44b10"},"vehicle_type_id":"4","last_reported":1726506501,"current_range_meters":19600,"station_id":"ce4bh0h2rcd13ifvqd40","pricing_plan_id":"cebpf4jnsgd1na2vs0mg"},{"bike_id":"aa5adc59-9239-4c47-aa54-d00da5446700","system_id":"levelo_inurba_marseille","lat":43.296722,"lon":5.405653,"is_reserved":false,"is_disabled":false,"rental_uris":{"android":"levelo://app?vid=aa5adc59-9239-4c47-aa54-d00da5446700","ios":"levelo://app?vid=aa5adc59-9239-4c47-aa54-d00da5446700"},"vehicle_type_id":"4","last_reported":1726506501,"current_range_meters":3600,"station_id":"ce4bh112rcd13ifvqd90","pricing_plan_id":"cebpf4jnsgd1na2vs0mg"},{"bike_id":"6ad2fe94-195b-4d58-9ac6-d3a9675a4c80","system_id":"levelo_inurba_marseille","lat":43.23069,"lon":5.3549,"is_reserved":false,"is_disabled":false,"rental_uris":{"android":"levelo://app?vid=6ad2fe94-195b-4d58-9ac6-d3a9675a4c80","ios":"levelo://app?vid=6ad2fe94-195b-4d58-9ac6-d3a9675a4c80"},"vehicle_type_id":"4","last_reported":1726506501,"current_range_meters":16000,"station_id":"cpo3342slgdg3j2ifvpg","pricing_plan_id":"cebpf4jnsgd1na2vs0mg"},{"bike_id":"6dd17a2f-59bb-4453-859d-2c09ab795824","system_id":"levelo_inurba_marseille","lat":43.33019,"lon":5.39042,"is_reserved":false,"is_disabled":false,"rental_uris":{"android":"levelo://app?vid=6dd17a2f-59bb-4453-859d-2c09ab795824","ios":"levelo://app?vid=6dd17a2f-59bb-4453-859d-2c09ab795824"},"vehicle_type_id":"4","last_reported":1726506501,"current_range_meters":36400,"station_id":"ce4bhr92rcd13ifvqhrg","pricing_plan_id":"cebpf4jnsgd1na2vs0mg"},{"bike_id":"65c41566-10ef-4416-ae93-4bbb03edd516","system_id":"levelo_inurba_marseille","lat":43.25064,"lon":5.37531,"is_reserved":false,"is_disabled":false,"rental_uris":{"android":"levelo://app?vid=65c41566-10ef-4416-ae93-4bbb03edd516","ios":"levelo://app?vid=65c41566-10ef-4416-ae93-4bbb03edd516"},"vehicle_type_id":"4","last_reported":1726506501,"current_range_meters":32000,"station_id":"","pricing_plan_id":"cebpf4jnsgd1na2vs0mg"},{"bike_id":"a0da9788-6ad0-4bd2-9978-72c1654ca4ea","system_id":"levelo_inurba_marseille","lat":43.3237,"lon":5.38883,"is_reserved":false,"is_disabled":false,"rental_uris":{"android":"levelo://app?vid=a0da9788-6ad0-4bd2-9978-72c1654ca4ea","ios":"levelo://app?vid=a0da9788-6ad0-4bd2-9978-72c1654ca4ea"},"vehicle_type_id":"4","last_reported":1726506501,"current_range_meters":24800,"station_id":"ce4bhqp2rcd13ifvqhog","pricing_plan_id":"cebpf4jnsgd1na2vs0mg"},{"bike_id":"ebd53167-573e-4c99-a234-22f190302c52","system_id":"levelo_inurba_marseille","lat":43.27815,"lon":5.40725,"is_reserved":false,"is_disabled":false,"rental_uris":{"android":"levelo://app?vid=ebd53167-573e-4c99-a234-22f190302c52","ios":"levelo://app?vid=ebd53167-573e-4c99-a234-22f190302c52"},"vehicle_type_id":"4","last_reported":1726506501,"current_range_meters":8800,"station_id":"ce4bhnh2rcd13ifvqgtg","pricing_plan_id":"cebpf4jnsgd1na2vs0mg"},{"bike_id":"22f26e89-4ccd-47af-bb30-5f037502847c","system_id":"levelo_inurba_marseille","lat":43.23176,"lon":5.39997,"is_reserved":false,"is_disabled":false,"rental_uris":{"android":"levelo://app?vid=22f26e89-4ccd-47af-bb30-5f037502847c","ios":"levelo://app?vid=22f26e89-4ccd-47af-bb30-5f037502847c"},"vehicle_type_id":"4","last_reported":1726506501,"current_range_meters":32000,"station_id":"ce4bhn12rcd13ifvqgqg","pricing_plan_id":"cebpf4jnsgd1na2vs0mg"},{"bike_id":"02ee102d-1ce2-43a2-bde9-ec29e3599311","system_id":"levelo_inurba_marseille","lat":43.27942,"lon":5.4105,"is_reserved":false,"is_disabled":false,"rental_uris":{"android":"levelo://app?vid=02ee102d-1ce2-43a2-bde9-ec29e3599311","ios":"levelo://app?vid=02ee102d-1ce2-43a2-bde9-ec29e3599311"},"vehicle_type_id":"4","last_reported":1726506501,"current_range_meters":14800,"station_id":"ce4bhnp2rcd13ifvqh0g","pricing_plan_id":"cebpf4jnsgd1na2vs0mg"},{"bike_id":"dcedc4d0-5154-46be-ab26-09bd6c855628","system_id":"levelo_inurba_marseille","lat":43.32363,"lon":5.38883,"is_reserved":false,"is_disabled":false,"rental_uris":{"android":"levelo://app?vid=dcedc4d0-5154-46be-ab26-09bd6c855628","ios":"levelo://app?vid=dcedc4d0-5154-46be-ab26-09bd6c855628"},"vehicle_type_id":"4","last_reported":1726506501,"current_range_meters":36400,"station_id":"ce4bhqp2rcd13ifvqhog","pricing_plan_id":"cebpf4jnsgd1na2vs0mg"},{"bike_id":"dc8b9135-45e7-4853-a7c2-dc4a8e7abc06","system_id":"levelo_inurba_marseille","lat":43.30137,"lon":5.3988,"is_reserved":false,"is_disabled":false,"rental_uris":{"android":"levelo://app?vid=dc8b9135-45e7-4853-a7c2-dc4a8e7abc06","ios":"levelo://app?vid=dc8b9135-45e7-4853-a7c2-dc4a8e7abc06"},"vehicle_type_id":"4","last_reported":1726506501,"current_range_meters":12800,"station_id":"ce4bh0h2rcd13ifvqd40","pricing_plan_id":"cebpf4jnsgd1na2vs0mg"},{"bike_id":"65eecb51-7024-4f30-af20-d65f809bce2b","system_id":"levelo_inurba_marseille","lat":43.31466,"lon":5.3833,"is_reserved":false,"is_disabled":false,"rental_uris":{"android":"levelo://app?vid=65eecb51-7024-4f30-af20-d65f809bce2b","ios":"levelo://app?vid=65eecb51-7024-4f30-af20-d65f809bce2b"},"vehicle_type_id":"4","last_reported":1726506501,"current_range_meters":11600,"station_id":"ce4bgvp2rcd13ifvqcu0","pricing_plan_id":"cebpf4jnsgd1na2vs0mg"},{"bike_id":"f8d6b0cf-8c7e-4f31-90b4-8665e22ca73a","system_id":"levelo_inurba_marseille","lat":43.29173,"lon":5.35673,"is_reserved":false,"is_disabled":false,"rental_uris":{"android":"levelo://app?vid=f8d6b0cf-8c7e-4f31-90b4-8665e22ca73a","ios":"levelo://app?vid=f8d6b0cf-8c7e-4f31-90b4-8665e22ca73a"},"vehicle_type_id":"4","last_reported":1726506501,"current_range_meters":12000,"station_id":"ce4bhb12rcd13ifvqel0","pricing_plan_id":"cebpf4jnsgd1na2vs0mg"},{"bike_id":"69ccc9b9-2deb-4710-a510-a580bf80fb94","system_id":"levelo_inurba_marseille","lat":43.27493,"lon":5.42452,"is_reserved":false,"is_disabled":false,"rental_uris":{"android":"levelo://app?vid=69ccc9b9-2deb-4710-a510-a580bf80fb94","ios":"levelo://app?vid=69ccc9b9-2deb-4710-a510-a580bf80fb94"},"vehicle_type_id":"4","last_reported":1726506501,"current_range_meters":2000,"station_id":"ce4bhn92rcd13ifvqgrg","pricing_plan_id":"cebpf4jnsgd1na2vs0mg"},{"bike_id":"714bd286-0914-421a-ac78-a8aec3d8de06","system_id":"levelo_inurba_marseille","lat":43.31713,"lon":5.43707,"is_reserved":false,"is_disabled":false,"rental_uris":{"android":"levelo://app?vid=714bd286-0914-421a-ac78-a8aec3d8de06","ios":"levelo://app?vid=714bd286-0914-421a-ac78-a8aec3d8de06"},"vehicle_type_id":"4","last_reported":1726506501,"current_range_meters":8800,"station_id":"ce4bhp92rcd13ifvqhcg","pricing_plan_id":"cebpf4jnsgd1na2vs0mg"},{"bike_id":"ad00b097-47ad-4ac9-ab9e-e2cd15ec4b40","system_id":"levelo_inurba_marseille","lat":43.28606,"lon":5.37066,"is_reserved":false,"is_disabled":false,"rental_uris":{"android":"levelo://app?vid=ad00b097-47ad-4ac9-ab9e-e2cd15ec4b40","ios":"levelo://app?vid=ad00b097-47ad-4ac9-ab9e-e2cd15ec4b40"},"vehicle_type_id":"4","last_reported":1726506501,"current_range_meters":16800,"station_id":"ce4bht12rcd13ifvqi60","pricing_plan_id":"cebpf4jnsgd1na2vs0mg"},{"bike_id":"2d495c32-06ee-4a96-8af0-be9158c0930d","system_id":"levelo_inurba_marseille","lat":43.2781,"lon":5.40708,"is_reserved":false,"is_disabled":false,"rental_uris":{"android":"levelo://app?vid=2d495c32-06ee-4a96-8af0-be9158c0930d","ios":"levelo://app?vid=2d495c32-06ee-4a96-8af0-be9158c0930d"},"vehicle_type_id":"4","last_reported":1726506501,"current_range_meters":27200,"station_id":"ce4bhnh2rcd13ifvqgtg","pricing_plan_id":"cebpf4jnsgd1na2vs0mg"},{"bike_id":"05dd3490-c251-48a3-9d3a-5292275f7a41","system_id":"levelo_inurba_marseille","lat":43.28698,"lon":5.3999,"is_reserved":false,"is_disabled":false,"rental_uris":{"android":"levelo://app?vid=05dd3490-c251-48a3-9d3a-5292275f7a41","ios":"levelo://app?vid=05dd3490-c251-48a3-9d3a-5292275f7a41"},"vehicle_type_id":"4","last_reported":1726506501,"current_range_meters":9200,"station_id":"ce4bho92rcd13ifvqh3g","pricing_plan_id":"cebpf4jnsgd1na2vs0mg"},{"bike_id":"17fe6faa-a9f6-4086-b46b-e1eda31502ff","system_id":"levelo_inurba_marseille","lat":43.289179,"lon":5.38168,"is_reserved":false,"is_disabled":false,"rental_uris":{"android":"levelo://app?vid=17fe6faa-a9f6-4086-b46b-e1eda31502ff","ios":"levelo://app?vid=17fe6faa-a9f6-4086-b46b-e1eda31502ff"},"vehicle_type_id":"4","last_reported":1726506501,"current_range_meters":2800,"station_id":"ce4bh4p2rcd13ifvqe1g","pricing_plan_id":"cebpf4jnsgd1na2vs0mg"},{"bike_id":"d98bc973-60af-424f-981e-cdb13035211e","system_id":"levelo_inurba_marseille","lat":43.310791,"lon":5.424318,"is_reserved":false,"is_disabled":false,"rental_uris":{"android":"levelo://app?vid=d98bc973-60af-424f-981e-cdb13035211e","ios":"levelo://app?vid=d98bc973-60af-424f-981e-cdb13035211e"},"vehicle_type_id":"4","last_reported":1726506501,"current_range_meters":16000,"station_id":"ce4bhp92rcd13ifvqhag","pricing_plan_id":"cebpf4jnsgd1na2vs0mg"},{"bike_id":"4b416f5c-d0bb-4b83-a0d2-9152e8fdacd6","system_id":"levelo_inurba_marseille","lat":43.28459,"lon":5.3588,"is_reserved":false,"is_disabled":false,"rental_uris":{"android":"levelo://app?vid=4b416f5c-d0bb-4b83-a0d2-9152e8fdacd6","ios":"levelo://app?vid=4b416f5c-d0bb-4b83-a0d2-9152e8fdacd6"},"vehicle_type_id":"4","last_reported":1726506501,"current_range_meters":19200,"station_id":"ce4bhah2rcd13ifvqei0","pricing_plan_id":"cebpf4jnsgd1na2vs0mg"},{"bike_id":"c5cd1bc6-e936-4ea5-9eae-558c0dd88416","system_id":"levelo_inurba_marseille","lat":43.25718,"lon":5.41126,"is_reserved":false,"is_disabled":false,"rental_uris":{"android":"levelo://app?vid=c5cd1bc6-e936-4ea5-9eae-558c0dd88416","ios":"levelo://app?vid=c5cd1bc6-e936-4ea5-9eae-558c0dd88416"},"vehicle_type_id":"4","last_reported":1726506501,"current_range_meters":12400,"station_id":"ce4bhkp2rcd13ifvqgd0","pricing_plan_id":"cebpf4jnsgd1na2vs0mg"},{"bike_id":"6612eb1a-f208-4926-8794-3347a53e9f46","system_id":"levelo_inurba_marseille","lat":43.29255,"lon":5.40915,"is_reserved":false,"is_disabled":false,"rental_uris":{"android":"levelo://app?vid=6612eb1a-f208-4926-8794-3347a53e9f46","ios":"levelo://app?vid=6612eb1a-f208-4926-8794-3347a53e9f46"},"vehicle_type_id":"4","last_reported":1726506501,"current_range_meters":36400,"station_id":"ce4bh192rcd13ifvqdc0","pricing_plan_id":"cebpf4jnsgd1na2vs0mg"},{"bike_id":"df4a1142-9e90-48bf-8d5c-53f4cf6d2721","system_id":"levelo_inurba_marseille","lat":43.3108,"lon":5.42433,"is_reserved":false,"is_disabled":false,"rental_uris":{"android":"levelo://app?vid=df4a1142-9e90-48bf-8d5c-53f4cf6d2721","ios":"levelo://app?vid=df4a1142-9e90-48bf-8d5c-53f4cf6d2721"},"vehicle_type_id":"4","last_reported":1726506501,"current_range_meters":16000,"station_id":"ce4bhp92rcd13ifvqhag","pricing_plan_id":"cebpf4jnsgd1na2vs0mg"},{"bike_id":"9165a1d8-06c8-4d3f-bfc1-b10f5bcdc087","system_id":"levelo_inurba_marseille","lat":43.309259,"lon":5.401384,"is_reserved":false,"is_disabled":false,"rental_uris":{"android":"levelo://app?vid=9165a1d8-06c8-4d3f-bfc1-b10f5bcdc087","ios":"levelo://app?vid=9165a1d8-06c8-4d3f-bfc1-b10f5bcdc087"},"vehicle_type_id":"4","last_reported":1726506501,"current_range_meters":14400,"station_id":"ce4bgvp2rcd13ifvqct0","pricing_plan_id":"cebpf4jnsgd1na2vs0mg"},{"bike_id":"89c0b59b-b9ee-4b92-a56a-d9fb63de8b25","system_id":"levelo_inurba_marseille","lat":43.32474,"lon":5.36567,"is_reserved":false,"is_disabled":false,"rental_uris":{"android":"levelo://app?vid=89c0b59b-b9ee-4b92-a56a-d9fb63de8b25","ios":"levelo://app?vid=89c0b59b-b9ee-4b92-a56a-d9fb63de8b25"},"vehicle_type_id":"4","last_reported":1726506501,"current_range_meters":16000,"station_id":"ce4bhs12rcd13ifvqhvg","pricing_plan_id":"cebpf4jnsgd1na2vs0mg"},{"bike_id":"cbaf03bf-0340-4293-a424-18d0ef0b595f","system_id":"levelo_inurba_marseille","lat":43.29898,"lon":5.43655,"is_reserved":false,"is_disabled":false,"rental_uris":{"android":"levelo://app?vid=cbaf03bf-0340-4293-a424-18d0ef0b595f","ios":"levelo://app?vid=cbaf03bf-0340-4293-a424-18d0ef0b595f"},"vehicle_type_id":"4","last_reported":1726506501,"current_range_meters":26800,"station_id":"ce4bhpp2rcd13ifvqhfg","pricing_plan_id":"cebpf4jnsgd1na2vs0mg"},{"bike_id":"6137c734-5ad5-4b4b-b71b-84443c92ffcc","system_id":"levelo_inurba_marseille","lat":43.2318,"lon":5.39993,"is_reserved":false,"is_disabled":false,"rental_uris":{"android":"levelo://app?vid=6137c734-5ad5-4b4b-b71b-84443c92ffcc","ios":"levelo://app?vid=6137c734-5ad5-4b4b-b71b-84443c92ffcc"},"vehicle_type_id":"4","last_reported":1726506501,"current_range_meters":20400,"station_id":"ce4bhn12rcd13ifvqgqg","pricing_plan_id":"cebpf4jnsgd1na2vs0mg"},{"bike_id":"fabd6680-bf5f-42cc-b8ce-1a55fdaaaa2c","system_id":"levelo_inurba_marseille","lat":43.28622,"lon":5.35107,"is_reserved":false,"is_disabled":false,"rental_uris":{"android":"levelo://app?vid=fabd6680-bf5f-42cc-b8ce-1a55fdaaaa2c","ios":"levelo://app?vid=fabd6680-bf5f-42cc-b8ce-1a55fdaaaa2c"},"vehicle_type_id":"4","last_reported":1726506501,"current_range_meters":36800,"station_id":"ce4bhch2rcd13ifvqeug","pricing_plan_id":"cebpf4jnsgd1na2vs0mg"},{"bike_id":"375e6ea7-40b2-4934-8cb2-ecfefa85e8e9","system_id":"levelo_inurba_marseille","lat":43.285774,"lon":5.394926,"is_reserved":false,"is_disabled":false,"rental_uris":{"android":"levelo://app?vid=375e6ea7-40b2-4934-8cb2-ecfefa85e8e9","ios":"levelo://app?vid=375e6ea7-40b2-4934-8cb2-ecfefa85e8e9"},"vehicle_type_id":"4","last_reported":1726506501,"current_range_meters":16000,"station_id":"ce4bh292rcd13ifvqdg0","pricing_plan_id":"cebpf4jnsgd1na2vs0mg"},{"bike_id":"1c4c6f9d-63ea-4dd7-b6b2-d962a0360d10","system_id":"levelo_inurba_marseille","lat":43.32041,"lon":5.41558,"is_reserved":false,"is_disabled":false,"rental_uris":{"android":"levelo://app?vid=1c4c6f9d-63ea-4dd7-b6b2-d962a0360d10","ios":"levelo://app?vid=1c4c6f9d-63ea-4dd7-b6b2-d962a0360d10"},"vehicle_type_id":"4","last_reported":1726506501,"current_range_meters":28000,"station_id":"ce4bhq92rcd13ifvqhkg","pricing_plan_id":"cebpf4jnsgd1na2vs0mg"},{"bike_id":"0312c1f4-2d66-4578-b47f-596ceb02a94e","system_id":"levelo_inurba_marseille","lat":43.25581,"lon":5.38234,"is_reserved":false,"is_disabled":false,"rental_uris":{"android":"levelo://app?vid=0312c1f4-2d66-4578-b47f-596ceb02a94e","ios":"levelo://app?vid=0312c1f4-2d66-4578-b47f-596ceb02a94e"},"vehicle_type_id":"4","last_reported":1726506501,"current_range_meters":28800,"station_id":"ce4bhih2rcd13ifvqfs0","pricing_plan_id":"cebpf4jnsgd1na2vs0mg"},{"bike_id":"96c9a72c-ab5a-4b76-ac2c-74f061ced6cd","system_id":"levelo_inurba_marseille","lat":43.29223,"lon":5.3607,"is_reserved":false,"is_disabled":false,"rental_uris":{"android":"levelo://app?vid=96c9a72c-ab5a-4b76-ac2c-74f061ced6cd","ios":"levelo://app?vid=96c9a72c-ab5a-4b76-ac2c-74f061ced6cd"},"vehicle_type_id":"4","last_reported":1726506501,"current_range_meters":21600,"station_id":"ce4bhbh2rcd13ifvqeqg","pricing_plan_id":"cebpf4jnsgd1na2vs0mg"},{"bike_id":"31a831a0-d9d6-492b-a430-0c6744b89f8e","system_id":"levelo_inurba_marseille","lat":43.29297,"lon":5.37457,"is_reserved":false,"is_disabled":false,"rental_uris":{"android":"levelo://app?vid=31a831a0-d9d6-492b-a430-0c6744b89f8e","ios":"levelo://app?vid=31a831a0-d9d6-492b-a430-0c6744b89f8e"},"vehicle_type_id":"4","last_reported":1726506501,"current_range_meters":39200,"station_id":"ce4bgi12rcd13ifvqb70","pricing_plan_id":"cebpf4jnsgd1na2vs0mg"},{"bike_id":"328d45f9-980e-4811-97c0-47d761861509","system_id":"levelo_inurba_marseille","lat":43.29847,"lon":5.37836,"is_reserved":false,"is_disabled":false,"rental_uris":{"android":"levelo://app?vid=328d45f9-980e-4811-97c0-47d761861509","ios":"levelo://app?vid=328d45f9-980e-4811-97c0-47d761861509"},"vehicle_type_id":"4","last_reported":1726506501,"current_range_meters":22400,"station_id":"ce4bgkh2rcd13ifvqbl0","pricing_plan_id":"cebpf4jnsgd1na2vs0mg"},{"bike_id":"9a55b424-75b7-4032-8780-7f11a8bedcb8","system_id":"levelo_inurba_marseille","lat":43.24667,"lon":5.38164,"is_reserved":false,"is_disabled":false,"rental_uris":{"android":"levelo://app?vid=9a55b424-75b7-4032-8780-7f11a8bedcb8","ios":"levelo://app?vid=9a55b424-75b7-4032-8780-7f11a8bedcb8"},"vehicle_type_id":"4","last_reported":1726506501,"current_range_meters":38800,"station_id":"ce4bhih2rcd13ifvqfr0","pricing_plan_id":"cebpf4jnsgd1na2vs0mg"},{"bike_id":"78c9ec05-d895-40e2-a458-4bca426be76f","system_id":"levelo_inurba_marseille","lat":43.30145,"lon":5.38091,"is_reserved":false,"is_disabled":false,"rental_uris":{"android":"levelo://app?vid=78c9ec05-d895-40e2-a458-4bca426be76f","ios":"levelo://app?vid=78c9ec05-d895-40e2-a458-4bca426be76f"},"vehicle_type_id":"4","last_reported":1726506501,"current_range_meters":8000,"station_id":"ce4bgjp2rcd13ifvqbh0","pricing_plan_id":"cebpf4jnsgd1na2vs0mg"},{"bike_id":"50698146-9d51-4bbd-91f7-c6fc097a2b35","system_id":"levelo_inurba_marseille","lat":43.29226,"lon":5.36061,"is_reserved":false,"is_disabled":false,"rental_uris":{"android":"levelo://app?vid=50698146-9d51-4bbd-91f7-c6fc097a2b35","ios":"levelo://app?vid=50698146-9d51-4bbd-91f7-c6fc097a2b35"},"vehicle_type_id":"4","last_reported":1726506501,"current_range_meters":24800,"station_id":"ce4bhbh2rcd13ifvqeqg","pricing_plan_id":"cebpf4jnsgd1na2vs0mg"},{"bike_id":"fa690805-233a-4a70-a9f3-33f1b67cdb1f","system_id":"levelo_inurba_marseille","lat":43.32289,"lon":5.38272,"is_reserved":false,"is_disabled":false,"rental_uris":{"android":"levelo://app?vid=fa690805-233a-4a70-a9f3-33f1b67cdb1f","ios":"levelo://app?vid=fa690805-233a-4a70-a9f3-33f1b67cdb1f"},"vehicle_type_id":"4","last_reported":1726506501,"current_range_meters":36800,"station_id":"ce4bhr12rcd13ifvqhqg","pricing_plan_id":"cebpf4jnsgd1na2vs0mg"},{"bike_id":"8b608b96-fedf-4511-8d4b-09bad2606e1a","system_id":"levelo_inurba_marseille","lat":43.27726,"lon":5.41132,"is_reserved":false,"is_disabled":false,"rental_uris":{"android":"levelo://app?vid=8b608b96-fedf-4511-8d4b-09bad2606e1a","ios":"levelo://app?vid=8b608b96-fedf-4511-8d4b-09bad2606e1a"},"vehicle_type_id":"4","last_reported":1726506501,"current_range_meters":15200,"station_id":"","pricing_plan_id":"cebpf4jnsgd1na2vs0mg"},{"bike_id":"48eb5ddb-5a8d-41fa-994a-7a162538e638","system_id":"levelo_inurba_marseille","lat":43.25828,"lon":5.3944,"is_reserved":false,"is_disabled":false,"rental_uris":{"android":"levelo://app?vid=48eb5ddb-5a8d-41fa-994a-7a162538e638","ios":"levelo://app?vid=48eb5ddb-5a8d-41fa-994a-7a162538e638"},"vehicle_type_id":"4","last_reported":1726506501,"current_range_meters":10800,"station_id":"ce4bhip2rcd13ifvqft0","pricing_plan_id":"cebpf4jnsgd1na2vs0mg"},{"bike_id":"70b88215-4436-4b90-8ece-7363720f248f","system_id":"levelo_inurba_marseille","lat":43.32367,"lon":5.38886,"is_reserved":false,"is_disabled":false,"rental_uris":{"android":"levelo://app?vid=70b88215-4436-4b90-8ece-7363720f248f","ios":"levelo://app?vid=70b88215-4436-4b90-8ece-7363720f248f"},"vehicle_type_id":"4","last_reported":1726506501,"current_range_meters":22800,"station_id":"ce4bhqp2rcd13ifvqhog","pricing_plan_id":"cebpf4jnsgd1na2vs0mg"},{"bike_id":"6674c1bb-4905-46d4-917f-ca6dbeb96028","system_id":"levelo_inurba_marseille","lat":43.31077,"lon":5.38364,"is_reserved":false,"is_disabled":false,"rental_uris":{"android":"levelo://app?vid=6674c1bb-4905-46d4-917f-ca6dbeb96028","ios":"levelo://app?vid=6674c1bb-4905-46d4-917f-ca6dbeb96028"},"vehicle_type_id":"4","last_reported":1726506501,"current_range_meters":8800,"station_id":"ce4bgv92rcd13ifvqcr0","pricing_plan_id":"cebpf4jnsgd1na2vs0mg"},{"bike_id":"e2fc18cc-0c60-4058-a3e1-0052db593808","system_id":"levelo_inurba_marseille","lat":43.25869,"lon":5.39902,"is_reserved":false,"is_disabled":false,"rental_uris":{"android":"levelo://app?vid=e2fc18cc-0c60-4058-a3e1-0052db593808","ios":"levelo://app?vid=e2fc18cc-0c60-4058-a3e1-0052db593808"},"vehicle_type_id":"4","last_reported":1726506501,"current_range_meters":26800,"station_id":"ce4bhl92rcd13ifvqghg","pricing_plan_id":"cebpf4jnsgd1na2vs0mg"},{"bike_id":"1b0538b9-5159-4f1e-b696-a0af2fba3f20","system_id":"levelo_inurba_marseille","lat":43.29216,"lon":5.36088,"is_reserved":false,"is_disabled":false,"rental_uris":{"android":"levelo://app?vid=1b0538b9-5159-4f1e-b696-a0af2fba3f20","ios":"levelo://app?vid=1b0538b9-5159-4f1e-b696-a0af2fba3f20"},"vehicle_type_id":"4","last_reported":1726506501,"current_range_meters":35600,"station_id":"ce4bhbh2rcd13ifvqeqg","pricing_plan_id":"cebpf4jnsgd1na2vs0mg"},{"bike_id":"38a06196-c1b6-466d-8e61-336257e32fce","system_id":"levelo_inurba_marseille","lat":43.26804,"lon":5.40266,"is_reserved":false,"is_disabled":false,"rental_uris":{"android":"levelo://app?vid=38a06196-c1b6-466d-8e61-336257e32fce","ios":"levelo://app?vid=38a06196-c1b6-466d-8e61-336257e32fce"},"vehicle_type_id":"4","last_reported":1726506501,"current_range_meters":10800,"station_id":"ce501612rcd8frsf0b60","pricing_plan_id":"cebpf4jnsgd1na2vs0mg"},{"bike_id":"2bc00c15-b391-445f-8056-cc4a33f1972d","system_id":"levelo_inurba_marseille","lat":43.25719,"lon":5.4111,"is_reserved":false,"is_disabled":false,"rental_uris":{"android":"levelo://app?vid=2bc00c15-b391-445f-8056-cc4a33f1972d","ios":"levelo://app?vid=2bc00c15-b391-445f-8056-cc4a33f1972d"},"vehicle_type_id":"4","last_reported":1726506501,"current_range_meters":23200,"station_id":"ce4bhkp2rcd13ifvqgd0","pricing_plan_id":"cebpf4jnsgd1na2vs0mg"},{"bike_id":"5d8c1843-4254-4775-a696-ae426e0a1af6","system_id":"levelo_inurba_marseille","lat":43.29225,"lon":5.36052,"is_reserved":false,"is_disabled":false,"rental_uris":{"android":"levelo://app?vid=5d8c1843-4254-4775-a696-ae426e0a1af6","ios":"levelo://app?vid=5d8c1843-4254-4775-a696-ae426e0a1af6"},"vehicle_type_id":"4","last_reported":1726506501,"current_range_meters":24800,"station_id":"ce4bhbh2rcd13ifvqeqg","pricing_plan_id":"cebpf4jnsgd1na2vs0mg"},{"bike_id":"778b620b-1f57-482f-b8a8-118f50104237","system_id":"levelo_inurba_marseille","lat":43.25575,"lon":5.38238,"is_reserved":false,"is_disabled":false,"rental_uris":{"android":"levelo://app?vid=778b620b-1f57-482f-b8a8-118f50104237","ios":"levelo://app?vid=778b620b-1f57-482f-b8a8-118f50104237"},"vehicle_type_id":"4","last_reported":1726506501,"current_range_meters":24400,"station_id":"ce4bhih2rcd13ifvqfs0","pricing_plan_id":"cebpf4jnsgd1na2vs0mg"},{"bike_id":"194eec9d-53cc-4318-9f34-36a4f2e495dd","system_id":"levelo_inurba_marseille","lat":43.2781,"lon":5.40708,"is_reserved":false,"is_disabled":false,"rental_uris":{"android":"levelo://app?vid=194eec9d-53cc-4318-9f34-36a4f2e495dd","ios":"levelo://app?vid=194eec9d-53cc-4318-9f34-36a4f2e495dd"},"vehicle_type_id":"4","last_reported":1726506501,"current_range_meters":31200,"station_id":"ce4bhnh2rcd13ifvqgtg","pricing_plan_id":"cebpf4jnsgd1na2vs0mg"},{"bike_id":"59e458e9-75fd-48d7-8fc1-6f77ee39318b","system_id":"levelo_inurba_marseille","lat":43.285751,"lon":5.394878,"is_reserved":false,"is_disabled":false,"rental_uris":{"android":"levelo://app?vid=59e458e9-75fd-48d7-8fc1-6f77ee39318b","ios":"levelo://app?vid=59e458e9-75fd-48d7-8fc1-6f77ee39318b"},"vehicle_type_id":"4","last_reported":1726506501,"current_range_meters":28400,"station_id":"ce4bh292rcd13ifvqdg0","pricing_plan_id":"cebpf4jnsgd1na2vs0mg"},{"bike_id":"394089fc-fbd8-4fa5-8a86-6cab28aa1e53","system_id":"levelo_inurba_marseille","lat":43.27809,"lon":5.40717,"is_reserved":false,"is_disabled":false,"rental_uris":{"android":"levelo://app?vid=394089fc-fbd8-4fa5-8a86-6cab28aa1e53","ios":"levelo://app?vid=394089fc-fbd8-4fa5-8a86-6cab28aa1e53"},"vehicle_type_id":"4","last_reported":1726506501,"current_range_meters":2000,"station_id":"ce4bhnh2rcd13ifvqgtg","pricing_plan_id":"cebpf4jnsgd1na2vs0mg"},{"bike_id":"93ff246e-9479-4b58-99c9-900e4a10dd90","system_id":"levelo_inurba_marseille","lat":43.30637,"lon":5.40105,"is_reserved":false,"is_disabled":false,"rental_uris":{"android":"levelo://app?vid=93ff246e-9479-4b58-99c9-900e4a10dd90","ios":"levelo://app?vid=93ff246e-9479-4b58-99c9-900e4a10dd90"},"vehicle_type_id":"4","last_reported":1726506501,"current_range_meters":2800,"station_id":"ce4bh112rcd13ifvqda0","pricing_plan_id":"cebpf4jnsgd1na2vs0mg"},{"bike_id":"41521382-0e2c-4716-a59f-27dbe850c6b7","system_id":"levelo_inurba_marseille","lat":43.29524,"lon":5.3904,"is_reserved":false,"is_disabled":false,"rental_uris":{"android":"levelo://app?vid=41521382-0e2c-4716-a59f-27dbe850c6b7","ios":"levelo://app?vid=41521382-0e2c-4716-a59f-27dbe850c6b7"},"vehicle_type_id":"4","last_reported":1726506501,"current_range_meters":37600,"station_id":"ce4bh3p2rcd13ifvqdp0","pricing_plan_id":"cebpf4jnsgd1na2vs0mg"},{"bike_id":"6afad03a-7399-44fa-8f0b-fcf919694e67","system_id":"levelo_inurba_marseille","lat":43.31328,"lon":5.39693,"is_reserved":false,"is_disabled":false,"rental_uris":{"android":"levelo://app?vid=6afad03a-7399-44fa-8f0b-fcf919694e67","ios":"levelo://app?vid=6afad03a-7399-44fa-8f0b-fcf919694e67"},"vehicle_type_id":"4","last_reported":1726506501,"current_range_meters":29600,"station_id":"ce4bgvp2rcd13ifvqcu0","pricing_plan_id":"cebpf4jnsgd1na2vs0mg"},{"bike_id":"90c088d4-f333-4e80-840d-d2236993c2e8","system_id":"levelo_inurba_marseille","lat":43.280762,"lon":5.396633,"is_reserved":false,"is_disabled":false,"rental_uris":{"android":"levelo://app?vid=90c088d4-f333-4e80-840d-d2236993c2e8","ios":"levelo://app?vid=90c088d4-f333-4e80-840d-d2236993c2e8"},"vehicle_type_id":"4","last_reported":1726506501,"current_range_meters":27200,"station_id":"ce4bho12rcd13ifvqh2g","pricing_plan_id":"cebpf4jnsgd1na2vs0mg"},{"bike_id":"d34c08a1-b485-4289-a1e5-27d299e75000","system_id":"levelo_inurba_marseille","lat":43.32283,"lon":5.38285,"is_reserved":false,"is_disabled":false,"rental_uris":{"android":"levelo://app?vid=d34c08a1-b485-4289-a1e5-27d299e75000","ios":"levelo://app?vid=d34c08a1-b485-4289-a1e5-27d299e75000"},"vehicle_type_id":"4","last_reported":1726506501,"current_range_meters":2800,"station_id":"ce4bhr12rcd13ifvqhqg","pricing_plan_id":"cebpf4jnsgd1na2vs0mg"},{"bike_id":"8e871097-6ca9-458f-a7af-51bf04225af9","system_id":"levelo_inurba_marseille","lat":43.33017,"lon":5.39039,"is_reserved":false,"is_disabled":false,"rental_uris":{"android":"levelo://app?vid=8e871097-6ca9-458f-a7af-51bf04225af9","ios":"levelo://app?vid=8e871097-6ca9-458f-a7af-51bf04225af9"},"vehicle_type_id":"4","last_reported":1726506501,"current_range_meters":16800,"station_id":"ce4bhr92rcd13ifvqhrg","pricing_plan_id":"cebpf4jnsgd1na2vs0mg"},{"bike_id":"6f387a41-1a28-4619-ac86-26875678b81b","system_id":"levelo_inurba_marseille","lat":43.29889,"lon":5.43665,"is_reserved":false,"is_disabled":false,"rental_uris":{"android":"levelo://app?vid=6f387a41-1a28-4619-ac86-26875678b81b","ios":"levelo://app?vid=6f387a41-1a28-4619-ac86-26875678b81b"},"vehicle_type_id":"4","last_reported":1726506501,"current_range_meters":25600,"station_id":"ce4bhpp2rcd13ifvqhfg","pricing_plan_id":"cebpf4jnsgd1na2vs0mg"},{"bike_id":"c9e210bb-e6cf-47e1-aad5-5e294dc08567","system_id":"levelo_inurba_marseille","lat":43.31329,"lon":5.39688,"is_reserved":false,"is_disabled":false,"rental_uris":{"android":"levelo://app?vid=c9e210bb-e6cf-47e1-aad5-5e294dc08567","ios":"levelo://app?vid=c9e210bb-e6cf-47e1-aad5-5e294dc08567"},"vehicle_type_id":"4","last_reported":1726506501,"current_range_meters":18800,"station_id":"ce4bgvp2rcd13ifvqcu0","pricing_plan_id":"cebpf4jnsgd1na2vs0mg"},{"bike_id":"817f1ba6-f83d-4c48-bffd-28782337b2ec","system_id":"levelo_inurba_marseille","lat":43.284882,"lon":5.384037,"is_reserved":false,"is_disabled":false,"rental_uris":{"android":"levelo://app?vid=817f1ba6-f83d-4c48-bffd-28782337b2ec","ios":"levelo://app?vid=817f1ba6-f83d-4c48-bffd-28782337b2ec"},"vehicle_type_id":"4","last_reported":1726506501,"current_range_meters":10800,"station_id":"ce4bh512rcd13ifvqe3g","pricing_plan_id":"cebpf4jnsgd1na2vs0mg"},{"bike_id":"0564757e-b2b2-40e3-b5dd-75bfad1c6ade","system_id":"levelo_inurba_marseille","lat":43.29436,"lon":5.39747,"is_reserved":false,"is_disabled":false,"rental_uris":{"android":"levelo://app?vid=0564757e-b2b2-40e3-b5dd-75bfad1c6ade","ios":"levelo://app?vid=0564757e-b2b2-40e3-b5dd-75bfad1c6ade"},"vehicle_type_id":"4","last_reported":1726506501,"current_range_meters":6000,"station_id":"ce4bh3h2rcd13ifvqdo0","pricing_plan_id":"cebpf4jnsgd1na2vs0mg"},{"bike_id":"208a68bd-0759-4f2c-8d22-63fb4b58ac39","system_id":"levelo_inurba_marseille","lat":43.25086,"lon":5.39525,"is_reserved":false,"is_disabled":false,"rental_uris":{"android":"levelo://app?vid=208a68bd-0759-4f2c-8d22-63fb4b58ac39","ios":"levelo://app?vid=208a68bd-0759-4f2c-8d22-63fb4b58ac39"},"vehicle_type_id":"4","last_reported":1726506501,"current_range_meters":11600,"station_id":"ce4bhm12rcd13ifvqgkg","pricing_plan_id":"cebpf4jnsgd1na2vs0mg"},{"bike_id":"a9fd7202-04f7-4da1-b714-5b5d67ab4e51","system_id":"levelo_inurba_marseille","lat":43.2862,"lon":5.35104,"is_reserved":false,"is_disabled":false,"rental_uris":{"android":"levelo://app?vid=a9fd7202-04f7-4da1-b714-5b5d67ab4e51","ios":"levelo://app?vid=a9fd7202-04f7-4da1-b714-5b5d67ab4e51"},"vehicle_type_id":"4","last_reported":1726506501,"current_range_meters":24800,"station_id":"ce4bhch2rcd13ifvqeug","pricing_plan_id":"cebpf4jnsgd1na2vs0mg"},{"bike_id":"d0aab10e-aefe-49c0-9d2e-929aef270b6b","system_id":"levelo_inurba_marseille","lat":43.27811,"lon":5.40709,"is_reserved":false,"is_disabled":false,"rental_uris":{"android":"levelo://app?vid=d0aab10e-aefe-49c0-9d2e-929aef270b6b","ios":"levelo://app?vid=d0aab10e-aefe-49c0-9d2e-929aef270b6b"},"vehicle_type_id":"4","last_reported":1726506501,"current_range_meters":22400,"station_id":"ce4bhnh2rcd13ifvqgtg","pricing_plan_id":"cebpf4jnsgd1na2vs0mg"},{"bike_id":"f9aad788-b1c8-47bc-812c-eb4803c9e868","system_id":"levelo_inurba_marseille","lat":43.27369,"lon":5.3626,"is_reserved":false,"is_disabled":false,"rental_uris":{"android":"levelo://app?vid=f9aad788-b1c8-47bc-812c-eb4803c9e868","ios":"levelo://app?vid=f9aad788-b1c8-47bc-812c-eb4803c9e868"},"vehicle_type_id":"4","last_reported":1726506501,"current_range_meters":6400,"station_id":"ce4bhbh2rcd13ifvqeo0","pricing_plan_id":"cebpf4jnsgd1na2vs0mg"},{"bike_id":"fab9d901-ef76-4cac-8183-93e7117090d0","system_id":"levelo_inurba_marseille","lat":43.28089,"lon":5.39652,"is_reserved":false,"is_disabled":false,"rental_uris":{"android":"levelo://app?vid=fab9d901-ef76-4cac-8183-93e7117090d0","ios":"levelo://app?vid=fab9d901-ef76-4cac-8183-93e7117090d0"},"vehicle_type_id":"4","last_reported":1726506501,"current_range_meters":8400,"station_id":"ce4bho12rcd13ifvqh2g","pricing_plan_id":"cebpf4jnsgd1na2vs0mg"},{"bike_id":"b472b593-eb36-4d01-8ab8-f271cf20ff03","system_id":"levelo_inurba_marseille","lat":43.291962,"lon":5.35794,"is_reserved":false,"is_disabled":false,"rental_uris":{"android":"levelo://app?vid=b472b593-eb36-4d01-8ab8-f271cf20ff03","ios":"levelo://app?vid=b472b593-eb36-4d01-8ab8-f271cf20ff03"},"vehicle_type_id":"4","last_reported":1726506501,"current_range_meters":22400,"station_id":"ce4bhb12rcd13ifvqel0","pricing_plan_id":"cebpf4jnsgd1na2vs0mg"},{"bike_id":"af943c83-1cfe-47f3-9dad-39327202caf4","system_id":"levelo_inurba_marseille","lat":43.30323,"lon":5.40438,"is_reserved":false,"is_disabled":false,"rental_uris":{"android":"levelo://app?vid=af943c83-1cfe-47f3-9dad-39327202caf4","ios":"levelo://app?vid=af943c83-1cfe-47f3-9dad-39327202caf4"},"vehicle_type_id":"4","last_reported":1726506501,"current_range_meters":12400,"station_id":"ce4bh012rcd13ifvqd10","pricing_plan_id":"cebpf4jnsgd1na2vs0mg"},{"bike_id":"9106ddff-5120-4c4f-8185-d2759a87beea","system_id":"levelo_inurba_marseille","lat":43.3236,"lon":5.38884,"is_reserved":false,"is_disabled":false,"rental_uris":{"android":"levelo://app?vid=9106ddff-5120-4c4f-8185-d2759a87beea","ios":"levelo://app?vid=9106ddff-5120-4c4f-8185-d2759a87beea"},"vehicle_type_id":"4","last_reported":1726506501,"current_range_meters":16800,"station_id":"ce4bhqp2rcd13ifvqhog","pricing_plan_id":"cebpf4jnsgd1na2vs0mg"},{"bike_id":"193490ed-9d00-473d-8aad-a13076b75b11","system_id":"levelo_inurba_marseille","lat":43.31994,"lon":5.38158,"is_reserved":false,"is_disabled":false,"rental_uris":{"android":"levelo://app?vid=193490ed-9d00-473d-8aad-a13076b75b11","ios":"levelo://app?vid=193490ed-9d00-473d-8aad-a13076b75b11"},"vehicle_type_id":"4","last_reported":1726506501,"current_range_meters":13600,"station_id":"ce4bhr12rcd13ifvqhpg","pricing_plan_id":"cebpf4jnsgd1na2vs0mg"},{"bike_id":"fccccb4f-d4e8-48f7-b5dd-c21ffbe0ef1f","system_id":"levelo_inurba_marseille","lat":43.31183,"lon":5.39143,"is_reserved":false,"is_disabled":false,"rental_uris":{"android":"levelo://app?vid=fccccb4f-d4e8-48f7-b5dd-c21ffbe0ef1f","ios":"levelo://app?vid=fccccb4f-d4e8-48f7-b5dd-c21ffbe0ef1f"},"vehicle_type_id":"4","last_reported":1726506501,"current_range_meters":4400,"station_id":"","pricing_plan_id":"cebpf4jnsgd1na2vs0mg"},{"bike_id":"39e6d764-00ae-4b57-bbec-2a0e3d6a8887","system_id":"levelo_inurba_marseille","lat":43.29025,"lon":5.35911,"is_reserved":false,"is_disabled":false,"rental_uris":{"android":"levelo://app?vid=39e6d764-00ae-4b57-bbec-2a0e3d6a8887","ios":"levelo://app?vid=39e6d764-00ae-4b57-bbec-2a0e3d6a8887"},"vehicle_type_id":"4","last_reported":1726506501,"current_range_meters":10000,"station_id":"ce4bha92rcd13ifvqeg0","pricing_plan_id":"cebpf4jnsgd1na2vs0mg"},{"bike_id":"ab59c9e8-d5e8-411d-a92c-c85299b46de4","system_id":"levelo_inurba_marseille","lat":43.30427,"lon":5.39744,"is_reserved":false,"is_disabled":false,"rental_uris":{"android":"levelo://app?vid=ab59c9e8-d5e8-411d-a92c-c85299b46de4","ios":"levelo://app?vid=ab59c9e8-d5e8-411d-a92c-c85299b46de4"},"vehicle_type_id":"4","last_reported":1726506501,"current_range_meters":4800,"station_id":"ce4bh092rcd13ifvqd20","pricing_plan_id":"cebpf4jnsgd1na2vs0mg"},{"bike_id":"7ad9b192-5566-4f79-897b-59159292c161","system_id":"levelo_inurba_marseille","lat":43.25451,"lon":5.37785,"is_reserved":false,"is_disabled":false,"rental_uris":{"android":"levelo://app?vid=7ad9b192-5566-4f79-897b-59159292c161","ios":"levelo://app?vid=7ad9b192-5566-4f79-897b-59159292c161"},"vehicle_type_id":"4","last_reported":1726506501,"current_range_meters":12400,"station_id":"ce4bhn12rcd13ifvqgpg","pricing_plan_id":"cebpf4jnsgd1na2vs0mg"},{"bike_id":"63b3292c-fdfc-47f6-901a-5d38dd642a88","system_id":"levelo_inurba_marseille","lat":43.31127,"lon":5.39341,"is_reserved":false,"is_disabled":false,"rental_uris":{"android":"levelo://app?vid=63b3292c-fdfc-47f6-901a-5d38dd642a88","ios":"levelo://app?vid=63b3292c-fdfc-47f6-901a-5d38dd642a88"},"vehicle_type_id":"4","last_reported":1726506501,"current_range_meters":8400,"station_id":"","pricing_plan_id":"cebpf4jnsgd1na2vs0mg"},{"bike_id":"4f9f9d74-d7c3-46ca-95af-45a7d0ccbd3c","system_id":"levelo_inurba_marseille","lat":43.28714,"lon":5.379242,"is_reserved":false,"is_disabled":false,"rental_uris":{"android":"levelo://app?vid=4f9f9d74-d7c3-46ca-95af-45a7d0ccbd3c","ios":"levelo://app?vid=4f9f9d74-d7c3-46ca-95af-45a7d0ccbd3c"},"vehicle_type_id":"4","last_reported":1726506501,"current_range_meters":19200,"station_id":"ce4bh0h2rcd13ifvqd50","pricing_plan_id":"cebpf4jnsgd1na2vs0mg"},{"bike_id":"88cd9fe1-bde2-4caf-8553-4a39bc08df72","system_id":"levelo_inurba_marseille","lat":43.30416,"lon":5.41279,"is_reserved":false,"is_disabled":false,"rental_uris":{"android":"levelo://app?vid=88cd9fe1-bde2-4caf-8553-4a39bc08df72","ios":"levelo://app?vid=88cd9fe1-bde2-4caf-8553-4a39bc08df72"},"vehicle_type_id":"4","last_reported":1726506501,"current_range_meters":20000,"station_id":"ce4bhop2rcd13ifvqh8g","pricing_plan_id":"cebpf4jnsgd1na2vs0mg"},{"bike_id":"fe6b7534-2599-48a0-b0b1-1ba7047661ff","system_id":"levelo_inurba_marseille","lat":43.27969,"lon":5.38741,"is_reserved":false,"is_disabled":false,"rental_uris":{"android":"levelo://app?vid=fe6b7534-2599-48a0-b0b1-1ba7047661ff","ios":"levelo://app?vid=fe6b7534-2599-48a0-b0b1-1ba7047661ff"},"vehicle_type_id":"4","last_reported":1726506501,"current_range_meters":36400,"station_id":"ce4bhg12rcd13ifvqf80","pricing_plan_id":"cebpf4jnsgd1na2vs0mg"},{"bike_id":"1303c242-79d8-427b-9dcd-7cb6bcab9ab4","system_id":"levelo_inurba_marseille","lat":43.286646,"lon":5.363447,"is_reserved":false,"is_disabled":false,"rental_uris":{"android":"levelo://app?vid=1303c242-79d8-427b-9dcd-7cb6bcab9ab4","ios":"levelo://app?vid=1303c242-79d8-427b-9dcd-7cb6bcab9ab4"},"vehicle_type_id":"4","last_reported":1726506501,"current_range_meters":6800,"station_id":"ce4bhah2rcd13ifvqej0","pricing_plan_id":"cebpf4jnsgd1na2vs0mg"},{"bike_id":"cd448541-4010-43e5-80f1-c1dbc6324ee7","system_id":"levelo_inurba_marseille","lat":43.31017,"lon":5.37908,"is_reserved":false,"is_disabled":false,"rental_uris":{"android":"levelo://app?vid=cd448541-4010-43e5-80f1-c1dbc6324ee7","ios":"levelo://app?vid=cd448541-4010-43e5-80f1-c1dbc6324ee7"},"vehicle_type_id":"4","last_reported":1726506501,"current_range_meters":14400,"station_id":"ce4bgv12rcd13ifvqcp0","pricing_plan_id":"cebpf4jnsgd1na2vs0mg"},{"bike_id":"db865793-aa7c-4f02-a065-6a457f5ad6dc","system_id":"levelo_inurba_marseille","lat":43.30091,"lon":5.36526,"is_reserved":false,"is_disabled":false,"rental_uris":{"android":"levelo://app?vid=db865793-aa7c-4f02-a065-6a457f5ad6dc","ios":"levelo://app?vid=db865793-aa7c-4f02-a065-6a457f5ad6dc"},"vehicle_type_id":"4","last_reported":1726506501,"current_range_meters":3600,"station_id":"","pricing_plan_id":"cebpf4jnsgd1na2vs0mg"},{"bike_id":"a998fdf3-a752-4482-af2d-a4db778c68aa","system_id":"levelo_inurba_marseille","lat":43.295215,"lon":5.390356,"is_reserved":false,"is_disabled":false,"rental_uris":{"android":"levelo://app?vid=a998fdf3-a752-4482-af2d-a4db778c68aa","ios":"levelo://app?vid=a998fdf3-a752-4482-af2d-a4db778c68aa"},"vehicle_type_id":"4","last_reported":1726506501,"current_range_meters":22800,"station_id":"ce4bh3p2rcd13ifvqdp0","pricing_plan_id":"cebpf4jnsgd1na2vs0mg"},{"bike_id":"067e622e-5b24-421a-bc80-2b5c4352d9c2","system_id":"levelo_inurba_marseille","lat":43.28932,"lon":5.36387,"is_reserved":false,"is_disabled":false,"rental_uris":{"android":"levelo://app?vid=067e622e-5b24-421a-bc80-2b5c4352d9c2","ios":"levelo://app?vid=067e622e-5b24-421a-bc80-2b5c4352d9c2"},"vehicle_type_id":"4","last_reported":1726506501,"current_range_meters":18000,"station_id":"ce4bhc92rcd13ifvqetg","pricing_plan_id":"cebpf4jnsgd1na2vs0mg"},{"bike_id":"89da8b6b-b95a-458b-ab4c-aedfb1b57bd7","system_id":"levelo_inurba_marseille","lat":43.305675,"lon":5.393424,"is_reserved":false,"is_disabled":false,"rental_uris":{"android":"levelo://app?vid=89da8b6b-b95a-458b-ab4c-aedfb1b57bd7","ios":"levelo://app?vid=89da8b6b-b95a-458b-ab4c-aedfb1b57bd7"},"vehicle_type_id":"4","last_reported":1726506501,"current_range_meters":8400,"station_id":"ce4bh0p2rcd13ifvqd80","pricing_plan_id":"cebpf4jnsgd1na2vs0mg"},{"bike_id":"c8e54e5a-bcf0-4289-9668-43c002afc6ed","system_id":"levelo_inurba_marseille","lat":43.29277,"lon":5.36847,"is_reserved":false,"is_disabled":false,"rental_uris":{"android":"levelo://app?vid=c8e54e5a-bcf0-4289-9668-43c002afc6ed","ios":"levelo://app?vid=c8e54e5a-bcf0-4289-9668-43c002afc6ed"},"vehicle_type_id":"4","last_reported":1726506501,"current_range_meters":38800,"station_id":"ce4bhbp2rcd13ifvqesg","pricing_plan_id":"cebpf4jnsgd1na2vs0mg"},{"bike_id":"30ab68ab-c844-400b-978c-21dda1676afb","system_id":"levelo_inurba_marseille","lat":43.22926,"lon":5.35378,"is_reserved":false,"is_disabled":false,"rental_uris":{"android":"levelo://app?vid=30ab68ab-c844-400b-978c-21dda1676afb","ios":"levelo://app?vid=30ab68ab-c844-400b-978c-21dda1676afb"},"vehicle_type_id":"4","last_reported":1726506501,"current_range_meters":9200,"station_id":"cpo3532slgdg3j2ikp40","pricing_plan_id":"cebpf4jnsgd1na2vs0mg"},{"bike_id":"7028579c-39df-4da0-b8d8-79722a926b92","system_id":"levelo_inurba_marseille","lat":43.29967,"lon":5.38499,"is_reserved":false,"is_disabled":false,"rental_uris":{"android":"levelo://app?vid=7028579c-39df-4da0-b8d8-79722a926b92","ios":"levelo://app?vid=7028579c-39df-4da0-b8d8-79722a926b92"},"vehicle_type_id":"4","last_reported":1726506501,"current_range_meters":39200,"station_id":"ce4bgj92rcd13ifvqbd0","pricing_plan_id":"cebpf4jnsgd1na2vs0mg"},{"bike_id":"b9861e62-b31c-4cb4-9f1c-caac7022a220","system_id":"levelo_inurba_marseille","lat":43.28078,"lon":5.39662,"is_reserved":false,"is_disabled":false,"rental_uris":{"android":"levelo://app?vid=b9861e62-b31c-4cb4-9f1c-caac7022a220","ios":"levelo://app?vid=b9861e62-b31c-4cb4-9f1c-caac7022a220"},"vehicle_type_id":"4","last_reported":1726506501,"current_range_meters":3600,"station_id":"ce4bho12rcd13ifvqh2g","pricing_plan_id":"cebpf4jnsgd1na2vs0mg"},{"bike_id":"346451ee-1f0d-4a1f-908d-db78b5735330","system_id":"levelo_inurba_marseille","lat":43.31136,"lon":5.3803,"is_reserved":false,"is_disabled":false,"rental_uris":{"android":"levelo://app?vid=346451ee-1f0d-4a1f-908d-db78b5735330","ios":"levelo://app?vid=346451ee-1f0d-4a1f-908d-db78b5735330"},"vehicle_type_id":"4","last_reported":1726506501,"current_range_meters":19600,"station_id":"","pricing_plan_id":"cebpf4jnsgd1na2vs0mg"},{"bike_id":"d826a139-a9c9-4404-913e-fbed010c4cf5","system_id":"levelo_inurba_marseille","lat":43.27907,"lon":5.3801,"is_reserved":false,"is_disabled":false,"rental_uris":{"android":"levelo://app?vid=d826a139-a9c9-4404-913e-fbed010c4cf5","ios":"levelo://app?vid=d826a139-a9c9-4404-913e-fbed010c4cf5"},"vehicle_type_id":"4","last_reported":1726506501,"current_range_meters":10800,"station_id":"ce4bhf92rcd13ifvqf50","pricing_plan_id":"cebpf4jnsgd1na2vs0mg"},{"bike_id":"76fb28c7-106f-4a1a-b446-fce2ca944c14","system_id":"levelo_inurba_marseille","lat":43.29598,"lon":5.38098,"is_reserved":false,"is_disabled":false,"rental_uris":{"android":"levelo://app?vid=76fb28c7-106f-4a1a-b446-fce2ca944c14","ios":"levelo://app?vid=76fb28c7-106f-4a1a-b446-fce2ca944c14"},"vehicle_type_id":"4","last_reported":1726506501,"current_range_meters":27200,"station_id":"ce4bgl12rcd13ifvqbo0","pricing_plan_id":"cebpf4jnsgd1na2vs0mg"},{"bike_id":"d4546865-b3be-4a6e-90ae-38fc5c5e3292","system_id":"levelo_inurba_marseille","lat":43.2651,"lon":5.40867,"is_reserved":false,"is_disabled":false,"rental_uris":{"android":"levelo://app?vid=d4546865-b3be-4a6e-90ae-38fc5c5e3292","ios":"levelo://app?vid=d4546865-b3be-4a6e-90ae-38fc5c5e3292"},"vehicle_type_id":"4","last_reported":1726506501,"current_range_meters":2000,"station_id":"","pricing_plan_id":"cebpf4jnsgd1na2vs0mg"},{"bike_id":"73ade8ef-4416-441b-987e-7a74e884fa20","system_id":"levelo_inurba_marseille","lat":43.33023,"lon":5.39038,"is_reserved":false,"is_disabled":false,"rental_uris":{"android":"levelo://app?vid=73ade8ef-4416-441b-987e-7a74e884fa20","ios":"levelo://app?vid=73ade8ef-4416-441b-987e-7a74e884fa20"},"vehicle_type_id":"4","last_reported":1726506501,"current_range_meters":9600,"station_id":"ce4bhr92rcd13ifvqhrg","pricing_plan_id":"cebpf4jnsgd1na2vs0mg"},{"bike_id":"5bb1d010-0238-448f-a470-fc44e8685316","system_id":"levelo_inurba_marseille","lat":43.23193,"lon":5.35543,"is_reserved":false,"is_disabled":false,"rental_uris":{"android":"levelo://app?vid=5bb1d010-0238-448f-a470-fc44e8685316","ios":"levelo://app?vid=5bb1d010-0238-448f-a470-fc44e8685316"},"vehicle_type_id":"4","last_reported":1726506501,"current_range_meters":38800,"station_id":"ce4bhu92rcd13ifvqi70","pricing_plan_id":"cebpf4jnsgd1na2vs0mg"},{"bike_id":"55635006-86ff-47eb-8453-a18df9e8fe5c","system_id":"levelo_inurba_marseille","lat":43.268211,"lon":5.400561,"is_reserved":false,"is_disabled":false,"rental_uris":{"android":"levelo://app?vid=55635006-86ff-47eb-8453-a18df9e8fe5c","ios":"levelo://app?vid=55635006-86ff-47eb-8453-a18df9e8fe5c"},"vehicle_type_id":"4","last_reported":1726506501,"current_range_meters":19600,"station_id":"ce501612rcd8frsf0b60","pricing_plan_id":"cebpf4jnsgd1na2vs0mg"},{"bike_id":"f48ed1cb-5fa9-4177-b5ba-5ca703ee1d3b","system_id":"levelo_inurba_marseille","lat":43.295959,"lon":5.381028,"is_reserved":false,"is_disabled":false,"rental_uris":{"android":"levelo://app?vid=f48ed1cb-5fa9-4177-b5ba-5ca703ee1d3b","ios":"levelo://app?vid=f48ed1cb-5fa9-4177-b5ba-5ca703ee1d3b"},"vehicle_type_id":"4","last_reported":1726506501,"current_range_meters":6400,"station_id":"ce4bgl12rcd13ifvqbo0","pricing_plan_id":"cebpf4jnsgd1na2vs0mg"},{"bike_id":"b0420d04-0686-49a6-baf7-07cce9d5457f","system_id":"levelo_inurba_marseille","lat":43.28417,"lon":5.34989,"is_reserved":false,"is_disabled":false,"rental_uris":{"android":"levelo://app?vid=b0420d04-0686-49a6-baf7-07cce9d5457f","ios":"levelo://app?vid=b0420d04-0686-49a6-baf7-07cce9d5457f"},"vehicle_type_id":"4","last_reported":1726506501,"current_range_meters":39200,"station_id":"ce4bhbh2rcd13ifvqepg","pricing_plan_id":"cebpf4jnsgd1na2vs0mg"},{"bike_id":"c2e5d5ee-484b-42d2-97bb-30fd992faf4b","system_id":"levelo_inurba_marseille","lat":43.23186,"lon":5.35554,"is_reserved":false,"is_disabled":false,"rental_uris":{"android":"levelo://app?vid=c2e5d5ee-484b-42d2-97bb-30fd992faf4b","ios":"levelo://app?vid=c2e5d5ee-484b-42d2-97bb-30fd992faf4b"},"vehicle_type_id":"4","last_reported":1726506501,"current_range_meters":16400,"station_id":"ce4bhu92rcd13ifvqi70","pricing_plan_id":"cebpf4jnsgd1na2vs0mg"},{"bike_id":"3fba8287-c99a-43df-bdac-63352e86f1b1","system_id":"levelo_inurba_marseille","lat":43.25581,"lon":5.3823,"is_reserved":false,"is_disabled":false,"rental_uris":{"android":"levelo://app?vid=3fba8287-c99a-43df-bdac-63352e86f1b1","ios":"levelo://app?vid=3fba8287-c99a-43df-bdac-63352e86f1b1"},"vehicle_type_id":"4","last_reported":1726506501,"current_range_meters":17200,"station_id":"ce4bhih2rcd13ifvqfs0","pricing_plan_id":"cebpf4jnsgd1na2vs0mg"},{"bike_id":"6af2d261-e936-4c45-9c25-854cd97f1055","system_id":"levelo_inurba_marseille","lat":43.30427,"lon":5.38887,"is_reserved":false,"is_disabled":false,"rental_uris":{"android":"levelo://app?vid=6af2d261-e936-4c45-9c25-854cd97f1055","ios":"levelo://app?vid=6af2d261-e936-4c45-9c25-854cd97f1055"},"vehicle_type_id":"4","last_reported":1726506501,"current_range_meters":33200,"station_id":"ce4bgk12rcd13ifvqbi0","pricing_plan_id":"cebpf4jnsgd1na2vs0mg"},{"bike_id":"3c1dbd7b-690c-47f0-af89-b98e81431909","system_id":"levelo_inurba_marseille","lat":43.304749,"lon":5.374864,"is_reserved":false,"is_disabled":false,"rental_uris":{"android":"levelo://app?vid=3c1dbd7b-690c-47f0-af89-b98e81431909","ios":"levelo://app?vid=3c1dbd7b-690c-47f0-af89-b98e81431909"},"vehicle_type_id":"4","last_reported":1726506501,"current_range_meters":9200,"station_id":"ce4bgt12rcd13ifvqcd0","pricing_plan_id":"cebpf4jnsgd1na2vs0mg"},{"bike_id":"65a4ccd0-2f7c-4899-b31b-c7c5f032daeb","system_id":"levelo_inurba_marseille","lat":43.23182,"lon":5.35562,"is_reserved":false,"is_disabled":false,"rental_uris":{"android":"levelo://app?vid=65a4ccd0-2f7c-4899-b31b-c7c5f032daeb","ios":"levelo://app?vid=65a4ccd0-2f7c-4899-b31b-c7c5f032daeb"},"vehicle_type_id":"4","last_reported":1726506501,"current_range_meters":34800,"station_id":"ce4bhu92rcd13ifvqi70","pricing_plan_id":"cebpf4jnsgd1na2vs0mg"},{"bike_id":"30f84d0f-41bc-401d-bc15-69ee9134ee4d","system_id":"levelo_inurba_marseille","lat":43.28477,"lon":5.38417,"is_reserved":false,"is_disabled":false,"rental_uris":{"android":"levelo://app?vid=30f84d0f-41bc-401d-bc15-69ee9134ee4d","ios":"levelo://app?vid=30f84d0f-41bc-401d-bc15-69ee9134ee4d"},"vehicle_type_id":"4","last_reported":1726506501,"current_range_meters":38000,"station_id":"ce4bh512rcd13ifvqe3g","pricing_plan_id":"cebpf4jnsgd1na2vs0mg"},{"bike_id":"ec10b7c1-83fb-4c89-8439-3b56a276f7f0","system_id":"levelo_inurba_marseille","lat":43.27813,"lon":5.40711,"is_reserved":false,"is_disabled":false,"rental_uris":{"android":"levelo://app?vid=ec10b7c1-83fb-4c89-8439-3b56a276f7f0","ios":"levelo://app?vid=ec10b7c1-83fb-4c89-8439-3b56a276f7f0"},"vehicle_type_id":"4","last_reported":1726506501,"current_range_meters":11600,"station_id":"ce4bhnh2rcd13ifvqgtg","pricing_plan_id":"cebpf4jnsgd1na2vs0mg"},{"bike_id":"9bfdb6ad-6413-486c-91bb-7c4ece303b4c","system_id":"levelo_inurba_marseille","lat":43.30637,"lon":5.40086,"is_reserved":false,"is_disabled":false,"rental_uris":{"android":"levelo://app?vid=9bfdb6ad-6413-486c-91bb-7c4ece303b4c","ios":"levelo://app?vid=9bfdb6ad-6413-486c-91bb-7c4ece303b4c"},"vehicle_type_id":"4","last_reported":1726506501,"current_range_meters":38800,"station_id":"ce4bh112rcd13ifvqda0","pricing_plan_id":"cebpf4jnsgd1na2vs0mg"},{"bike_id":"a873e98d-1f20-4da9-817e-8c1603882d25","system_id":"levelo_inurba_marseille","lat":43.2861,"lon":5.35111,"is_reserved":false,"is_disabled":false,"rental_uris":{"android":"levelo://app?vid=a873e98d-1f20-4da9-817e-8c1603882d25","ios":"levelo://app?vid=a873e98d-1f20-4da9-817e-8c1603882d25"},"vehicle_type_id":"4","last_reported":1726506501,"current_range_meters":3600,"station_id":"ce4bhch2rcd13ifvqeug","pricing_plan_id":"cebpf4jnsgd1na2vs0mg"},{"bike_id":"c3af7900-5add-4d6b-b173-c8990b79d96d","system_id":"levelo_inurba_marseille","lat":43.291956,"lon":5.35804,"is_reserved":false,"is_disabled":false,"rental_uris":{"android":"levelo://app?vid=c3af7900-5add-4d6b-b173-c8990b79d96d","ios":"levelo://app?vid=c3af7900-5add-4d6b-b173-c8990b79d96d"},"vehicle_type_id":"4","last_reported":1726506501,"current_range_meters":3600,"station_id":"ce4bhb12rcd13ifvqel0","pricing_plan_id":"cebpf4jnsgd1na2vs0mg"},{"bike_id":"fccc6c93-4336-45ef-b7ca-f648a2e55db3","system_id":"levelo_inurba_marseille","lat":43.25575,"lon":5.38224,"is_reserved":false,"is_disabled":false,"rental_uris":{"android":"levelo://app?vid=fccc6c93-4336-45ef-b7ca-f648a2e55db3","ios":"levelo://app?vid=fccc6c93-4336-45ef-b7ca-f648a2e55db3"},"vehicle_type_id":"4","last_reported":1726506501,"current_range_meters":10000,"station_id":"ce4bhih2rcd13ifvqfs0","pricing_plan_id":"cebpf4jnsgd1na2vs0mg"},{"bike_id":"fb158353-8a30-41af-96f3-0ac1eea7b6aa","system_id":"levelo_inurba_marseille","lat":43.29971,"lon":5.37185,"is_reserved":false,"is_disabled":false,"rental_uris":{"android":"levelo://app?vid=fb158353-8a30-41af-96f3-0ac1eea7b6aa","ios":"levelo://app?vid=fb158353-8a30-41af-96f3-0ac1eea7b6aa"},"vehicle_type_id":"4","last_reported":1726506501,"current_range_meters":2000,"station_id":"ce4bgr92rcd13ifvqc7g","pricing_plan_id":"cebpf4jnsgd1na2vs0mg"},{"bike_id":"8e8d4892-9d33-4b3c-adf9-2e2121200227","system_id":"levelo_inurba_marseille","lat":43.23962,"lon":5.36632,"is_reserved":false,"is_disabled":false,"rental_uris":{"android":"levelo://app?vid=8e8d4892-9d33-4b3c-adf9-2e2121200227","ios":"levelo://app?vid=8e8d4892-9d33-4b3c-adf9-2e2121200227"},"vehicle_type_id":"4","last_reported":1726506501,"current_range_meters":22800,"station_id":"ce4bhi12rcd13ifvqfp0","pricing_plan_id":"cebpf4jnsgd1na2vs0mg"},{"bike_id":"af1752d8-9427-4138-be18-463a583006e8","system_id":"levelo_inurba_marseille","lat":43.27811,"lon":5.40711,"is_reserved":false,"is_disabled":false,"rental_uris":{"android":"levelo://app?vid=af1752d8-9427-4138-be18-463a583006e8","ios":"levelo://app?vid=af1752d8-9427-4138-be18-463a583006e8"},"vehicle_type_id":"4","last_reported":1726506501,"current_range_meters":24000,"station_id":"ce4bhnh2rcd13ifvqgtg","pricing_plan_id":"cebpf4jnsgd1na2vs0mg"},{"bike_id":"7b124308-6caa-4eb7-b614-7a34de24a1b1","system_id":"levelo_inurba_marseille","lat":43.25493,"lon":5.37641,"is_reserved":false,"is_disabled":false,"rental_uris":{"android":"levelo://app?vid=7b124308-6caa-4eb7-b614-7a34de24a1b1","ios":"levelo://app?vid=7b124308-6caa-4eb7-b614-7a34de24a1b1"},"vehicle_type_id":"4","last_reported":1726506501,"current_range_meters":29600,"station_id":"ce4bhh12rcd13ifvqff0","pricing_plan_id":"cebpf4jnsgd1na2vs0mg"},{"bike_id":"9b5f3dd4-c846-40bb-b0e9-994f0419e9aa","system_id":"levelo_inurba_marseille","lat":43.24388,"lon":5.37062,"is_reserved":false,"is_disabled":false,"rental_uris":{"android":"levelo://app?vid=9b5f3dd4-c846-40bb-b0e9-994f0419e9aa","ios":"levelo://app?vid=9b5f3dd4-c846-40bb-b0e9-994f0419e9aa"},"vehicle_type_id":"4","last_reported":1726506501,"current_range_meters":10000,"station_id":"ce4bhhh2rcd13ifvqfk0","pricing_plan_id":"cebpf4jnsgd1na2vs0mg"},{"bike_id":"58b99689-67d9-42b9-b105-b2d400ae4a83","system_id":"levelo_inurba_marseille","lat":43.22937,"lon":5.35375,"is_reserved":false,"is_disabled":false,"rental_uris":{"android":"levelo://app?vid=58b99689-67d9-42b9-b105-b2d400ae4a83","ios":"levelo://app?vid=58b99689-67d9-42b9-b105-b2d400ae4a83"},"vehicle_type_id":"4","last_reported":1726506501,"current_range_meters":31200,"station_id":"cpo3532slgdg3j2ikp40","pricing_plan_id":"cebpf4jnsgd1na2vs0mg"},{"bike_id":"ac4a567b-a90d-4114-8948-382d3222352d","system_id":"levelo_inurba_marseille","lat":43.28464,"lon":5.35884,"is_reserved":false,"is_disabled":false,"rental_uris":{"android":"levelo://app?vid=ac4a567b-a90d-4114-8948-382d3222352d","ios":"levelo://app?vid=ac4a567b-a90d-4114-8948-382d3222352d"},"vehicle_type_id":"4","last_reported":1726506501,"current_range_meters":23200,"station_id":"ce4bhah2rcd13ifvqei0","pricing_plan_id":"cebpf4jnsgd1na2vs0mg"},{"bike_id":"d099cf37-250e-4363-9652-6f5d364db8a8","system_id":"levelo_inurba_marseille","lat":43.25727,"lon":5.41108,"is_reserved":false,"is_disabled":false,"rental_uris":{"android":"levelo://app?vid=d099cf37-250e-4363-9652-6f5d364db8a8","ios":"levelo://app?vid=d099cf37-250e-4363-9652-6f5d364db8a8"},"vehicle_type_id":"4","last_reported":1726506501,"current_range_meters":9200,"station_id":"ce4bhkp2rcd13ifvqgd0","pricing_plan_id":"cebpf4jnsgd1na2vs0mg"},{"bike_id":"43c01797-b137-4d23-a873-59f0ca5d4f96","system_id":"levelo_inurba_marseille","lat":43.304932,"lon":5.412048,"is_reserved":false,"is_disabled":false,"rental_uris":{"android":"levelo://app?vid=43c01797-b137-4d23-a873-59f0ca5d4f96","ios":"levelo://app?vid=43c01797-b137-4d23-a873-59f0ca5d4f96"},"vehicle_type_id":"4","last_reported":1726506501,"current_range_meters":9200,"station_id":"ce4bhop2rcd13ifvqh8g","pricing_plan_id":"cebpf4jnsgd1na2vs0mg"},{"bike_id":"9c5c1dd8-6aee-479e-a152-af607bbb51e1","system_id":"levelo_inurba_marseille","lat":43.299566,"lon":5.385084,"is_reserved":false,"is_disabled":false,"rental_uris":{"android":"levelo://app?vid=9c5c1dd8-6aee-479e-a152-af607bbb51e1","ios":"levelo://app?vid=9c5c1dd8-6aee-479e-a152-af607bbb51e1"},"vehicle_type_id":"4","last_reported":1726506501,"current_range_meters":8400,"station_id":"ce4bgj92rcd13ifvqbd0","pricing_plan_id":"cebpf4jnsgd1na2vs0mg"},{"bike_id":"1f60962f-c9e1-4ef9-baf9-0f27c0d2e97d","system_id":"levelo_inurba_marseille","lat":43.278076,"lon":5.407084,"is_reserved":false,"is_disabled":false,"rental_uris":{"android":"levelo://app?vid=1f60962f-c9e1-4ef9-baf9-0f27c0d2e97d","ios":"levelo://app?vid=1f60962f-c9e1-4ef9-baf9-0f27c0d2e97d"},"vehicle_type_id":"4","last_reported":1726506501,"current_range_meters":12400,"station_id":"ce4bhnh2rcd13ifvqgtg","pricing_plan_id":"cebpf4jnsgd1na2vs0mg"},{"bike_id":"d971676e-8ee6-449b-9275-664f022a3499","system_id":"levelo_inurba_marseille","lat":43.29374,"lon":5.37842,"is_reserved":false,"is_disabled":false,"rental_uris":{"android":"levelo://app?vid=d971676e-8ee6-449b-9275-664f022a3499","ios":"levelo://app?vid=d971676e-8ee6-449b-9275-664f022a3499"},"vehicle_type_id":"4","last_reported":1726506501,"current_range_meters":3200,"station_id":"ce4bgjh2rcd13ifvqbf0","pricing_plan_id":"cebpf4jnsgd1na2vs0mg"},{"bike_id":"36ac99db-ecbc-4ee8-b239-ef64ac120ce1","system_id":"levelo_inurba_marseille","lat":43.29903,"lon":5.43668,"is_reserved":false,"is_disabled":false,"rental_uris":{"android":"levelo://app?vid=36ac99db-ecbc-4ee8-b239-ef64ac120ce1","ios":"levelo://app?vid=36ac99db-ecbc-4ee8-b239-ef64ac120ce1"},"vehicle_type_id":"4","last_reported":1726506501,"current_range_meters":8400,"station_id":"ce4bhpp2rcd13ifvqhfg","pricing_plan_id":"cebpf4jnsgd1na2vs0mg"},{"bike_id":"835eb561-d9df-4627-bb30-2f0466e034cf","system_id":"levelo_inurba_marseille","lat":43.2937,"lon":5.37845,"is_reserved":false,"is_disabled":false,"rental_uris":{"android":"levelo://app?vid=835eb561-d9df-4627-bb30-2f0466e034cf","ios":"levelo://app?vid=835eb561-d9df-4627-bb30-2f0466e034cf"},"vehicle_type_id":"4","last_reported":1726506501,"current_range_meters":4000,"station_id":"ce4bgjh2rcd13ifvqbf0","pricing_plan_id":"cebpf4jnsgd1na2vs0mg"},{"bike_id":"9e6943a6-cea6-42e7-89b4-748226eb9e92","system_id":"levelo_inurba_marseille","lat":43.30929,"lon":5.40137,"is_reserved":false,"is_disabled":false,"rental_uris":{"android":"levelo://app?vid=9e6943a6-cea6-42e7-89b4-748226eb9e92","ios":"levelo://app?vid=9e6943a6-cea6-42e7-89b4-748226eb9e92"},"vehicle_type_id":"4","last_reported":1726506501,"current_range_meters":9200,"station_id":"ce4bgvp2rcd13ifvqct0","pricing_plan_id":"cebpf4jnsgd1na2vs0mg"},{"bike_id":"7a72fb68-36f2-4d32-86c2-694e2ceec372","system_id":"levelo_inurba_marseille","lat":43.29023,"lon":5.39985,"is_reserved":false,"is_disabled":false,"rental_uris":{"android":"levelo://app?vid=7a72fb68-36f2-4d32-86c2-694e2ceec372","ios":"levelo://app?vid=7a72fb68-36f2-4d32-86c2-694e2ceec372"},"vehicle_type_id":"4","last_reported":1726506501,"current_range_meters":4000,"station_id":"ce4bh392rcd13ifvqdm0","pricing_plan_id":"cebpf4jnsgd1na2vs0mg"},{"bike_id":"83086daa-e293-4617-a6b7-8c25d1be185f","system_id":"levelo_inurba_marseille","lat":43.31714,"lon":5.43706,"is_reserved":false,"is_disabled":false,"rental_uris":{"android":"levelo://app?vid=83086daa-e293-4617-a6b7-8c25d1be185f","ios":"levelo://app?vid=83086daa-e293-4617-a6b7-8c25d1be185f"},"vehicle_type_id":"4","last_reported":1726506501,"current_range_meters":3200,"station_id":"ce4bhp92rcd13ifvqhcg","pricing_plan_id":"cebpf4jnsgd1na2vs0mg"},{"bike_id":"a65925d0-b16f-47c7-a5e5-5ca2d28d6560","system_id":"levelo_inurba_marseille","lat":43.29228,"lon":5.3607,"is_reserved":false,"is_disabled":false,"rental_uris":{"android":"levelo://app?vid=a65925d0-b16f-47c7-a5e5-5ca2d28d6560","ios":"levelo://app?vid=a65925d0-b16f-47c7-a5e5-5ca2d28d6560"},"vehicle_type_id":"4","last_reported":1726506501,"current_range_meters":22400,"station_id":"ce4bhbh2rcd13ifvqeqg","pricing_plan_id":"cebpf4jnsgd1na2vs0mg"},{"bike_id":"a75e5ba8-9a77-46fb-89be-f555d1ece47e","system_id":"levelo_inurba_marseille","lat":43.25583,"lon":5.3823,"is_reserved":false,"is_disabled":false,"rental_uris":{"android":"levelo://app?vid=a75e5ba8-9a77-46fb-89be-f555d1ece47e","ios":"levelo://app?vid=a75e5ba8-9a77-46fb-89be-f555d1ece47e"},"vehicle_type_id":"4","last_reported":1726506501,"current_range_meters":6400,"station_id":"ce4bhih2rcd13ifvqfs0","pricing_plan_id":"cebpf4jnsgd1na2vs0mg"},{"bike_id":"0df06088-362e-49d9-8f54-f66df627f855","system_id":"levelo_inurba_marseille","lat":43.31747,"lon":5.3694,"is_reserved":false,"is_disabled":false,"rental_uris":{"android":"levelo://app?vid=0df06088-362e-49d9-8f54-f66df627f855","ios":"levelo://app?vid=0df06088-362e-49d9-8f54-f66df627f855"},"vehicle_type_id":"4","last_reported":1726506501,"current_range_meters":34800,"station_id":"","pricing_plan_id":"cebpf4jnsgd1na2vs0mg"},{"bike_id":"730cee77-a0cf-48ac-a45b-32d11f2a1709","system_id":"levelo_inurba_marseille","lat":43.28393,"lon":5.349823,"is_reserved":false,"is_disabled":false,"rental_uris":{"android":"levelo://app?vid=730cee77-a0cf-48ac-a45b-32d11f2a1709","ios":"levelo://app?vid=730cee77-a0cf-48ac-a45b-32d11f2a1709"},"vehicle_type_id":"4","last_reported":1726506501,"current_range_meters":22800,"station_id":"ce4bhbh2rcd13ifvqepg","pricing_plan_id":"cebpf4jnsgd1na2vs0mg"},{"bike_id":"30b1c089-4e52-4a7a-a137-74d4ef2d3fbd","system_id":"levelo_inurba_marseille","lat":43.23194,"lon":5.35541,"is_reserved":false,"is_disabled":false,"rental_uris":{"android":"levelo://app?vid=30b1c089-4e52-4a7a-a137-74d4ef2d3fbd","ios":"levelo://app?vid=30b1c089-4e52-4a7a-a137-74d4ef2d3fbd"},"vehicle_type_id":"4","last_reported":1726506501,"current_range_meters":38400,"station_id":"ce4bhu92rcd13ifvqi70","pricing_plan_id":"cebpf4jnsgd1na2vs0mg"},{"bike_id":"ff9b2809-3b28-49de-9b36-0f8ce816ff6d","system_id":"levelo_inurba_marseille","lat":43.28152,"lon":5.42651,"is_reserved":false,"is_disabled":false,"rental_uris":{"android":"levelo://app?vid=ff9b2809-3b28-49de-9b36-0f8ce816ff6d","ios":"levelo://app?vid=ff9b2809-3b28-49de-9b36-0f8ce816ff6d"},"vehicle_type_id":"4","last_reported":1726506501,"current_range_meters":10000,"station_id":"ce4bhnh2rcd13ifvqgug","pricing_plan_id":"cebpf4jnsgd1na2vs0mg"},{"bike_id":"01de43a7-c3da-46c1-bd97-ad503fb40de8","system_id":"levelo_inurba_marseille","lat":43.25084,"lon":5.39511,"is_reserved":false,"is_disabled":false,"rental_uris":{"android":"levelo://app?vid=01de43a7-c3da-46c1-bd97-ad503fb40de8","ios":"levelo://app?vid=01de43a7-c3da-46c1-bd97-ad503fb40de8"},"vehicle_type_id":"4","last_reported":1726506501,"current_range_meters":12000,"station_id":"ce4bhm12rcd13ifvqgkg","pricing_plan_id":"cebpf4jnsgd1na2vs0mg"},{"bike_id":"a41ddded-46a3-45e4-a3df-b6c7b90f88df","system_id":"levelo_inurba_marseille","lat":43.28611,"lon":5.35101,"is_reserved":false,"is_disabled":false,"rental_uris":{"android":"levelo://app?vid=a41ddded-46a3-45e4-a3df-b6c7b90f88df","ios":"levelo://app?vid=a41ddded-46a3-45e4-a3df-b6c7b90f88df"},"vehicle_type_id":"4","last_reported":1726506501,"current_range_meters":30800,"station_id":"ce4bhch2rcd13ifvqeug","pricing_plan_id":"cebpf4jnsgd1na2vs0mg"},{"bike_id":"2e32f8e4-85a2-4460-92cb-37602095e0c9","system_id":"levelo_inurba_marseille","lat":43.292,"lon":5.35804,"is_reserved":false,"is_disabled":false,"rental_uris":{"android":"levelo://app?vid=2e32f8e4-85a2-4460-92cb-37602095e0c9","ios":"levelo://app?vid=2e32f8e4-85a2-4460-92cb-37602095e0c9"},"vehicle_type_id":"4","last_reported":1726506501,"current_range_meters":19600,"station_id":"ce4bhb12rcd13ifvqel0","pricing_plan_id":"cebpf4jnsgd1na2vs0mg"},{"bike_id":"d5f1365a-9b86-4213-8714-8a1aa20ba1db","system_id":"levelo_inurba_marseille","lat":43.29043,"lon":5.35917,"is_reserved":false,"is_disabled":false,"rental_uris":{"android":"levelo://app?vid=d5f1365a-9b86-4213-8714-8a1aa20ba1db","ios":"levelo://app?vid=d5f1365a-9b86-4213-8714-8a1aa20ba1db"},"vehicle_type_id":"4","last_reported":1726506501,"current_range_meters":8800,"station_id":"ce4bha92rcd13ifvqeg0","pricing_plan_id":"cebpf4jnsgd1na2vs0mg"},{"bike_id":"a5f716f1-0a16-4601-8253-878feb476daa","system_id":"levelo_inurba_marseille","lat":43.30873,"lon":5.39661,"is_reserved":false,"is_disabled":false,"rental_uris":{"android":"levelo://app?vid=a5f716f1-0a16-4601-8253-878feb476daa","ios":"levelo://app?vid=a5f716f1-0a16-4601-8253-878feb476daa"},"vehicle_type_id":"4","last_reported":1726506501,"current_range_meters":8800,"station_id":"ce4bh012rcd13ifvqcv0","pricing_plan_id":"cebpf4jnsgd1na2vs0mg"},{"bike_id":"3d26c480-fe70-4eec-a041-baf99282d671","system_id":"levelo_inurba_marseille","lat":43.2781,"lon":5.40711,"is_reserved":false,"is_disabled":false,"rental_uris":{"android":"levelo://app?vid=3d26c480-fe70-4eec-a041-baf99282d671","ios":"levelo://app?vid=3d26c480-fe70-4eec-a041-baf99282d671"},"vehicle_type_id":"4","last_reported":1726506501,"current_range_meters":25200,"station_id":"ce4bhnh2rcd13ifvqgtg","pricing_plan_id":"cebpf4jnsgd1na2vs0mg"},{"bike_id":"5484bc62-010a-486a-a626-73ed9f421c14","system_id":"levelo_inurba_marseille","lat":43.29631,"lon":5.40593,"is_reserved":false,"is_disabled":false,"rental_uris":{"android":"levelo://app?vid=5484bc62-010a-486a-a626-73ed9f421c14","ios":"levelo://app?vid=5484bc62-010a-486a-a626-73ed9f421c14"},"vehicle_type_id":"4","last_reported":1726506501,"current_range_meters":11600,"station_id":"ce4bh0h2rcd13ifvqd60","pricing_plan_id":"cebpf4jnsgd1na2vs0mg"},{"bike_id":"c85aec75-b102-4cdd-820b-a866fcc5fa37","system_id":"levelo_inurba_marseille","lat":43.28976,"lon":5.3783,"is_reserved":false,"is_disabled":false,"rental_uris":{"android":"levelo://app?vid=c85aec75-b102-4cdd-820b-a866fcc5fa37","ios":"levelo://app?vid=c85aec75-b102-4cdd-820b-a866fcc5fa37"},"vehicle_type_id":"4","last_reported":1726506501,"current_range_meters":20400,"station_id":"ce4bh9p2rcd13ifvqed0","pricing_plan_id":"cebpf4jnsgd1na2vs0mg"},{"bike_id":"69ce4058-b73f-4378-93e8-a36b681d10ea","system_id":"levelo_inurba_marseille","lat":43.28615,"lon":5.35098,"is_reserved":false,"is_disabled":false,"rental_uris":{"android":"levelo://app?vid=69ce4058-b73f-4378-93e8-a36b681d10ea","ios":"levelo://app?vid=69ce4058-b73f-4378-93e8-a36b681d10ea"},"vehicle_type_id":"4","last_reported":1726506501,"current_range_meters":28000,"station_id":"ce4bhch2rcd13ifvqeug","pricing_plan_id":"cebpf4jnsgd1na2vs0mg"},{"bike_id":"c0f07bf2-7e62-4a64-ba9f-419396b72351","system_id":"levelo_inurba_marseille","lat":43.23152,"lon":5.43717,"is_reserved":false,"is_disabled":false,"rental_uris":{"android":"levelo://app?vid=c0f07bf2-7e62-4a64-ba9f-419396b72351","ios":"levelo://app?vid=c0f07bf2-7e62-4a64-ba9f-419396b72351"},"vehicle_type_id":"4","last_reported":1726506501,"current_range_meters":38000,"station_id":"ce4bhmp2rcd13ifvqgog","pricing_plan_id":"cebpf4jnsgd1na2vs0mg"},{"bike_id":"2649f682-3e2f-4f58-8a1d-3f692b8cc6bb","system_id":"levelo_inurba_marseille","lat":43.25576,"lon":5.38226,"is_reserved":false,"is_disabled":false,"rental_uris":{"android":"levelo://app?vid=2649f682-3e2f-4f58-8a1d-3f692b8cc6bb","ios":"levelo://app?vid=2649f682-3e2f-4f58-8a1d-3f692b8cc6bb"},"vehicle_type_id":"4","last_reported":1726506501,"current_range_meters":13600,"station_id":"ce4bhih2rcd13ifvqfs0","pricing_plan_id":"cebpf4jnsgd1na2vs0mg"},{"bike_id":"f53a4377-462a-497c-ba73-e1fa0012d6e1","system_id":"levelo_inurba_marseille","lat":43.243857,"lon":5.370522,"is_reserved":false,"is_disabled":false,"rental_uris":{"android":"levelo://app?vid=f53a4377-462a-497c-ba73-e1fa0012d6e1","ios":"levelo://app?vid=f53a4377-462a-497c-ba73-e1fa0012d6e1"},"vehicle_type_id":"4","last_reported":1726506501,"current_range_meters":12800,"station_id":"ce4bhhh2rcd13ifvqfk0","pricing_plan_id":"cebpf4jnsgd1na2vs0mg"},