{"last_updated":1713391577,"ttl":30,"version":"2.2","data":{"bikes":[{"bike_id":"32924bcc-4c02-4dde-99cc-5835be8615b6","system_id":"levelo_inurba_marseille","lat":43.31341,"lon":5.367098,"is_reserved":false,"is_disabled":false,"rental_uris":{"android":"levelo://app?vid=32924bcc-4c02-4dde-99cc-5835be8615b6","ios":"levelo://app?vid=32924bcc-4c02-4dde-99cc-5835be8615b6"},"vehicle_type_id":"4","last_reported":1713391577,"current_range_meters":20800,"station_id":"ce4bgr92rcd13ifvqc6g","pricing_plan_id":"cebpf4jnsgd1na2vs0mg"},{"bike_id":"a1e77aa0-a7d3-4a85-92cf-10384991fc53","system_id":"levelo_inurba_marseille","lat":43.3135,"lon":5.36713,"is_reserved":false,"is_disabled":false,"rental_uris":{"android":"levelo://app?vid=a1e77aa0-a7d3-4a85-92cf-10384991fc53","ios":"levelo://app?vid=a1e77aa0-a7d3-4a85-92cf-10384991fc53"},"vehicle_type_id":"4","last_reported":1713391577,"current_range_meters":0,"station_id":"ce4bgr92rcd13ifvqc6g","pricing_plan_id":"cebpf4jnsgd1na2vs0mg"},{"bike_id":"7a76ac97-9ab4-48ee-a466-9be8d7b9f7b6","system_id":"levelo_inurba_marseille","lat":43.31339,"lon":5.37282,"is_reserved":false,"is_disabled":false,"rental_uris":{"android":"levelo://app?vid=7a76ac97-9ab4-48ee-a466-9be8d7b9f7b6","ios":"levelo://app?vid=7a76ac97-9ab4-48ee-a466-9be8d7b9f7b6"},"vehicle_type_id":"4","last_reported":1713391577,"current_range_meters":14000,"station_id":"","pricing_plan_id":"cebpf4jnsgd1na2vs0mg"},{"bike_id":"583648fc-9add-4455-96d8-1e5eb5065a7c","system_id":"levelo_inurba_marseille","lat":43.314811,"lon":5.373103,"is_reserved":false,"is_disabled":false,"rental_uris":{"android":"levelo://app?vid=583648fc-9add-4455-96d8-1e5eb5065a7c","ios":"levelo://app?vid=583648fc-9add-4455-96d8-1e5eb5065a7c"},"vehicle_type_id":"4","last_reported":1713391577,"current_range_meters":0,"station_id":"ce4bgt12rcd13ifvqcd0","pricing_plan_id":"cebpf4jnsgd1na2vs0mg"},{"bike_id":"9b736704-6aa9-4eae-b4d6-288341ab055e","system_id":"levelo_inurba_marseille","lat":43.314811,"lon":5.373104,"is_reserved":false,"is_disabled":false,"rental_uris":{"android":"levelo://app?vid=9b736704-6aa9-4eae-b4d6-288341ab055e","ios":"levelo://app?vid=9b736704-6aa9-4eae-b4d6-288341ab055e"},"vehicle_type_id":"4","last_reported":1713391577,"current_range_meters":6400,"station_id":"ce4bgt12rcd13ifvqcd0","pricing_plan_id":"cebpf4jnsgd1na2vs0mg"},{"bike_id":"5566be86-b9bb-40e9-a2ea-75dd6c530e90","system_id":"levelo_inurba_marseille","lat":43.314811,"lon":5.373103,"is_reserved":false,"is_disabled":false,"rental_uris":{"android":"levelo://app?vid=5566be86-b9bb-40e9-a2ea-75dd6c530e90","ios":"levelo://app?vid=5566be86-b9bb-40e9-a2ea-75dd6c530e90"},"vehicle_type_id":"4","last_reported":1713391577,"current_range_meters":15600,"station_id":"ce4bgt12rcd13ifvqcd0","pricing_plan_id":"cebpf4jnsgd1na2vs0mg"},{"bike_id":"c88a4a18-1355-4ef0-bbcd-954d11dc08a6","system_id":"levelo_inurba_marseille","lat":43.309034,"lon":5.371783,"is_reserved":false,"is_disabled":false,"rental_uris":{"android":"levelo://app?vid=c88a4a18-1355-4ef0-bbcd-954d11dc08a6","ios":"levelo://app?vid=c88a4a18-1355-4ef0-bbcd-954d11dc08a6"},"vehicle_type_id":"4","last_reported":1713391577,"current_range_meters":30000,"station_id":"ce4bguh2rcd13ifvqckg","pricing_plan_id":"cebpf4jnsgd1na2vs0mg"},{"bike_id":"52f22b5a-486d-4c62-a4ac-137bfb2f235e","system_id":"levelo_inurba_marseille","lat":43.30554,"lon":5.36534,"is_reserved":false,"is_disabled":false,"rental_uris":{"android":"levelo://app?vid=52f22b5a-486d-4c62-a4ac-137bfb2f235e","ios":"levelo://app?vid=52f22b5a-486d-4c62-a4ac-137bfb2f235e"},"vehicle_type_id":"4","last_reported":1713391577,"current_range_meters":28400,"station_id":"","pricing_plan_id":"cebpf4jnsgd1na2vs0mg"},{"bike_id":"b32cd1f0-9d32-4d04-9aab-dc79dcdcf347","system_id":"levelo_inurba_marseille","lat":43.311125,"lon":5.377624,"is_reserved":false,"is_disabled":false,"rental_uris":{"android":"levelo://app?vid=b32cd1f0-9d32-4d04-9aab-dc79dcdcf347","ios":"levelo://app?vid=b32cd1f0-9d32-4d04-9aab-dc79dcdcf347"},"vehicle_type_id":"4","last_reported":1713391577,"current_range_meters":1200,"station_id":"ce4bgt92rcd13ifvqcg0","pricing_plan_id":"cebpf4jnsgd1na2vs0mg"},{"bike_id":"71b65339-6b13-4e47-9e85-3cfcd095267f","system_id":"levelo_inurba_marseille","lat":43.311125,"lon":5.377624,"is_reserved":false,"is_disabled":false,"rental_uris":{"android":"levelo://app?vid=71b65339-6b13-4e47-9e85-3cfcd095267f","ios":"levelo://app?vid=71b65339-6b13-4e47-9e85-3cfcd095267f"},"vehicle_type_id":"4","last_reported":1713391577,"current_range_meters":4000,"station_id":"ce4bgt92rcd13ifvqcg0","pricing_plan_id":"cebpf4jnsgd1na2vs0mg"},{"bike_id":"a93ef0b5-1df3-4ddf-81e3-5ea5d79a76b7","system_id":"levelo_inurba_marseille","lat":43.311125,"lon":5.377624,"is_reserved":false,"is_disabled":false,"rental_uris":{"android":"levelo://app?vid=a93ef0b5-1df3-4ddf-81e3-5ea5d79a76b7","ios":"levelo://app?vid=a93ef0b5-1df3-4ddf-81e3-5ea5d79a76b7"},"vehicle_type_id":"4","last_reported":1713391577,"current_range_meters":9200,"station_id":"ce4bgt92rcd13ifvqcg0","pricing_plan_id":"cebpf4jnsgd1na2vs0mg"},{"bike_id":"a0ea0108-eccb-4bd9-bfb8-c90709db79e5","system_id":"levelo_inurba_marseille","lat":43.311125,"lon":5.377624,"is_reserved":false,"is_disabled":false,"rental_uris":{"android":"levelo://app?vid=a0ea0108-eccb-4bd9-bfb8-c90709db79e5","ios":"levelo://app?vid=a0ea0108-eccb-4bd9-bfb8-c90709db79e5"},"vehicle_type_id":"4","last_reported":1713391577,"current_range_meters":15600,"station_id":"ce4bgt92rcd13ifvqcg0","pricing_plan_id":"cebpf4jnsgd1na2vs0mg"},{"bike_id":"894b6731-0d45-4ce5-aadb-37025b76f227","system_id":"levelo_inurba_marseille","lat":43.311125,"lon":5.377624,"is_reserved":false,"is_disabled":false,"rental_uris":{"android":"levelo://app?vid=894b6731-0d45-4ce5-aadb-37025b76f227","ios":"levelo://app?vid=894b6731-0d45-4ce5-aadb-37025b76f227"},"vehicle_type_id":"4","last_reported":1713391577,"current_range_meters":20400,"station_id":"ce4bgt92rcd13ifvqcg0","pricing_plan_id":"cebpf4jnsgd1na2vs0mg"},{"bike_id":"38c3a9aa-a319-4559-8849-56585697adb0","system_id":"levelo_inurba_marseille","lat":43.311125,"lon":5.377624,"is_reserved":false,"is_disabled":false,"rental_uris":{"android":"levelo://app?vid=38c3a9aa-a319-4559-8849-56585697adb0","ios":"levelo://app?vid=38c3a9aa-a319-4559-8849-56585697adb0"},"vehicle_type_id":"4","last_reported":1713391577,"current_range_meters":16000,"station_id":"ce4bgt92rcd13ifvqcg0","pricing_plan_id":"cebpf4jnsgd1na2vs0mg"},{"bike_id":"f0bbb6fb-3a67-4378-8549-f528ad275a39","system_id":"levelo_inurba_marseille","lat":43.311125,"lon":5.377624,"is_reserved":false,"is_disabled":false,"rental_uris":{"android":"levelo://app?vid=f0bbb6fb-3a67-4378-8549-f528ad275a39","ios":"levelo://app?vid=f0bbb6fb-3a67-4378-8549-f528ad275a39"},"vehicle_type_id":"4","last_reported":1713391577,"current_range_meters":12400,"station_id":"ce4bgt92rcd13ifvqcg0","pricing_plan_id":"cebpf4jnsgd1na2vs0mg"},{"bike_id":"dfde4933-6401-470f-9f98-0b10d5f2070c","system_id":"levelo_inurba_marseille","lat":43.311125,"lon":5.377624,"is_reserved":false,"is_disabled":false,"rental_uris":{"android":"levelo://app?vid=dfde4933-6401-470f-9f98-0b10d5f2070c","ios":"levelo://app?vid=dfde4933-6401-470f-9f98-0b10d5f2070c"},"vehicle_type_id":"4","last_reported":1713391577,"current_range_meters":23200,"station_id":"ce4bgt92rcd13ifvqcg0","pricing_plan_id":"cebpf4jnsgd1na2vs0mg"},{"bike_id":"6fec9a18-8870-442d-80e1-1ea3f2e0ece0","system_id":"levelo_inurba_marseille","lat":43.307945,"lon":5.376487,"is_reserved":false,"is_disabled":false,"rental_uris":{"android":"levelo://app?vid=6fec9a18-8870-442d-80e1-1ea3f2e0ece0","ios":"levelo://app?vid=6fec9a18-8870-442d-80e1-1ea3f2e0ece0"},"vehicle_type_id":"4","last_reported":1713391577,"current_range_meters":400,"station_id":"ce4bgv92rcd13ifvqcq0","pricing_plan_id":"cebpf4jnsgd1na2vs0mg"},{"bike_id":"725c7966-6a0d-4cb2-a7a5-8a033ae93a39","system_id":"levelo_inurba_marseille","lat":43.307945,"lon":5.376487,"is_reserved":false,"is_disabled":false,"rental_uris":{"android":"levelo://app?vid=725c7966-6a0d-4cb2-a7a5-8a033ae93a39","ios":"levelo://app?vid=725c7966-6a0d-4cb2-a7a5-8a033ae93a39"},"vehicle_type_id":"4","last_reported":1713391577,"current_range_meters":2000,"station_id":"ce4bgv92rcd13ifvqcq0","pricing_plan_id":"cebpf4jnsgd1na2vs0mg"},{"bike_id":"18261d5a-9ef6-47cc-ab16-374e50fe7fcf","system_id":"levelo_inurba_marseille","lat":43.307945,"lon":5.376487,"is_reserved":false,"is_disabled":false,"rental_uris":{"android":"levelo://app?vid=18261d5a-9ef6-47cc-ab16-374e50fe7fcf","ios":"levelo://app?vid=18261d5a-9ef6-47cc-ab16-374e50fe7fcf"},"vehicle_type_id":"4","last_reported":1713391577,"current_range_meters":15200,"station_id":"ce4bgv92rcd13ifvqcq0","pricing_plan_id":"cebpf4jnsgd1na2vs0mg"},{"bike_id":"c2e36661-c659-4756-9e9f-325fb13793d9","system_id":"levelo_inurba_marseille","lat":43.307945,"lon":5.376487,"is_reserved":false,"is_disabled":false,"rental_uris":{"android":"levelo://app?vid=c2e36661-c659-4756-9e9f-325fb13793d9","ios":"levelo://app?vid=c2e36661-c659-4756-9e9f-325fb13793d9"},"vehicle_type_id":"4","last_reported":1713391577,"current_range_meters":0,"station_id":"ce4bgv92rcd13ifvqcq0","pricing_plan_id":"cebpf4jnsgd1na2vs0mg"},{"bike_id":"ce86f89b-8fdd-4b4c-be51-e70968fbc93b","system_id":"levelo_inurba_marseille","lat":43.307945,"lon":5.376487,"is_reserved":false,"is_disabled":false,"rental_uris":{"android":"levelo://app?vid=ce86f89b-8fdd-4b4c-be51-e70968fbc93b","ios":"levelo://app?vid=ce86f89b-8fdd-4b4c-be51-e70968fbc93b"},"vehicle_type_id":"4","last_reported":1713391577,"current_range_meters":22000,"station_id":"ce4bgv92rcd13ifvqcq0","pricing_plan_id":"cebpf4jnsgd1na2vs0mg"},{"bike_id":"e47d81bb-063a-43a7-8cca-76c2986fff7e","system_id":"levelo_inurba_marseille","lat":43.307945,"lon":5.376487,"is_reserved":false,"is_disabled":false,"rental_uris":{"android":"levelo://app?vid=e47d81bb-063a-43a7-8cca-76c2986fff7e","ios":"levelo://app?vid=e47d81bb-063a-43a7-8cca-76c2986fff7e"},"vehicle_type_id":"4","last_reported":1713391577,"current_range_meters":20000,"station_id":"ce4bgv92rcd13ifvqcq0","pricing_plan_id":"cebpf4jnsgd1na2vs0mg"},{"bike_id":"5f44488a-88ec-49b2-bee6-3c0626c0fbac","system_id":"levelo_inurba_marseille","lat":43.317075,"lon":5.377367,"is_reserved":false,"is_disabled":false,"rental_uris":{"android":"levelo://app?vid=5f44488a-88ec-49b2-bee6-3c0626c0fbac","ios":"levelo://app?vid=5f44488a-88ec-49b2-bee6-3c0626c0fbac"},"vehicle_type_id":"4","last_reported":1713391577,"current_range_meters":6800,"station_id":"ce4bgth2rcd13ifvqch0","pricing_plan_id":"cebpf4jnsgd1na2vs0mg"},{"bike_id":"25b0ebe0-b1c8-4c4d-83b0-c0f1a79bb675","system_id":"levelo_inurba_marseille","lat":43.317075,"lon":5.377367,"is_reserved":false,"is_disabled":false,"rental_uris":{"android":"levelo://app?vid=25b0ebe0-b1c8-4c4d-83b0-c0f1a79bb675","ios":"levelo://app?vid=25b0ebe0-b1c8-4c4d-83b0-c0f1a79bb675"},"vehicle_type_id":"4","last_reported":1713391577,"current_range_meters":23600,"station_id":"ce4bgth2rcd13ifvqch0","pricing_plan_id":"cebpf4jnsgd1na2vs0mg"},{"bike_id":"6f16837d-65a7-43c2-8758-13ed055f3485","system_id":"levelo_inurba_marseille","lat":43.317075,"lon":5.377367,"is_reserved":false,"is_disabled":false,"rental_uris":{"android":"levelo://app?vid=6f16837d-65a7-43c2-8758-13ed055f3485","ios":"levelo://app?vid=6f16837d-65a7-43c2-8758-13ed055f3485"},"vehicle_type_id":"4","last_reported":1713391577,"current_range_meters":11600,"station_id":"ce4bgth2rcd13ifvqch0","pricing_plan_id":"cebpf4jnsgd1na2vs0mg"},{"bike_id":"4c1d3d42-2aa7-4df6-adf6-5165eefcd157","system_id":"levelo_inurba_marseille","lat":43.317075,"lon":5.377367,"is_reserved":false,"is_disabled":false,"rental_uris":{"android":"levelo://app?vid=4c1d3d42-2aa7-4df6-adf6-5165eefcd157","ios":"levelo://app?vid=4c1d3d42-2aa7-4df6-adf6-5165eefcd157"},"vehicle_type_id":"4","last_reported":1713391577,"current_range_meters":400,"station_id":"ce4bgth2rcd13ifvqch0","pricing_plan_id":"cebpf4jnsgd1na2vs0mg"},{"bike_id":"fbb8464a-713c-4a0a-b06c-9116a7fc2e59","system_id":"levelo_inurba_marseille","lat":43.317075,"lon":5.377367,"is_reserved":false,"is_disabled":false,"rental_uris":{"android":"levelo://app?vid=fbb8464a-713c-4a0a-b06c-9116a7fc2e59","ios":"levelo://app?vid=fbb8464a-713c-4a0a-b06c-9116a7fc2e59"},"vehicle_type_id":"4","last_reported":1713391577,"current_range_meters":16400,"station_id":"ce4bgth2rcd13ifvqch0","pricing_plan_id":"cebpf4jnsgd1na2vs0mg"},{"bike_id":"8e1342a2-de23-4fa6-a10f-010afc912687","system_id":"levelo_inurba_marseille","lat":43.317075,"lon":5.377367,"is_reserved":false,"is_disabled":false,"rental_uris":{"android":"levelo://app?vid=8e1342a2-de23-4fa6-a10f-010afc912687","ios":"levelo://app?vid=8e1342a2-de23-4fa6-a10f-010afc912687"},"vehicle_type_id":"4","last_reported":1713391577,"current_range_meters":17200,"station_id":"ce4bgth2rcd13ifvqch0","pricing_plan_id":"cebpf4jnsgd1na2vs0mg"},{"bike_id":"e00f5c9c-82f1-4595-be09-fbbeee63189b","system_id":"levelo_inurba_marseille","lat":43.317075,"lon":5.377367,"is_reserved":false,"is_disabled":false,"rental_uris":{"android":"levelo://app?vid=e00f5c9c-82f1-4595-be09-fbbeee63189b","ios":"levelo://app?vid=e00f5c9c-82f1-4595-be09-fbbeee63189b"},"vehicle_type_id":"4","last_reported":1713391577,"current_range_meters":31200,"station_id":"ce4bgth2rcd13ifvqch0","pricing_plan_id":"cebpf4jnsgd1na2vs0mg"},{"bike_id":"bee8e9da-0701-47bf-afcd-9c04190ff22c","system_id":"levelo_inurba_marseille","lat":43.317075,"lon":5.377367,"is_reserved":false,"is_disabled":false,"rental_uris":{"android":"levelo://app?vid=bee8e9da-0701-47bf-afcd-9c04190ff22c","ios":"levelo://app?vid=bee8e9da-0701-47bf-afcd-9c04190ff22c"},"vehicle_type_id":"4","last_reported":1713391577,"current_range_meters":20800,"station_id":"ce4bgth2rcd13ifvqch0","pricing_plan_id":"cebpf4jnsgd1na2vs0mg"},{"bike_id":"e07c981e-638b-4ba6-ac96-fe5ee9e5a164","system_id":"levelo_inurba_marseille","lat":43.317075,"lon":5.377367,"is_reserved":false,"is_disabled":false,"rental_uris":{"android":"levelo://app?vid=e07c981e-638b-4ba6-ac96-fe5ee9e5a164","ios":"levelo://app?vid=e07c981e-638b-4ba6-ac96-fe5ee9e5a164"},"vehicle_type_id":"4","last_reported":1713391577,"current_range_meters":31200,"station_id":"ce4bgth2rcd13ifvqch0","pricing_plan_id":"cebpf4jnsgd1na2vs0mg"},{"bike_id":"c712a19b-a9b6-4afa-a567-4c43165d197e","system_id":"levelo_inurba_marseille","lat":43.283498,"lon":5.380948,"is_reserved":false,"is_disabled":false,"rental_uris":{"android":"levelo://app?vid=c712a19b-a9b6-4afa-a567-4c43165d197e","ios":"levelo://app?vid=c712a19b-a9b6-4afa-a567-4c43165d197e"},"vehicle_type_id":"4","last_reported":1713391577,"current_range_meters":17600,"station_id":"ce4bh412rcd13ifvqdr0","pricing_plan_id":"cebpf4jnsgd1na2vs0mg"},{"bike_id":"f7e14073-5083-4173-aafd-eab0c6d0df23","system_id":"levelo_inurba_marseille","lat":43.315289,"lon":5.380349,"is_reserved":false,"is_disabled":false,"rental_uris":{"android":"levelo://app?vid=f7e14073-5083-4173-aafd-eab0c6d0df23","ios":"levelo://app?vid=f7e14073-5083-4173-aafd-eab0c6d0df23"},"vehicle_type_id":"4","last_reported":1713391577,"current_range_meters":10800,"station_id":"ce4bhsp2rcd13ifvqi50","pricing_plan_id":"cebpf4jnsgd1na2vs0mg"},{"bike_id":"01359525-8ee3-4431-83ce-9dc5da79037f","system_id":"levelo_inurba_marseille","lat":43.315289,"lon":5.380349,"is_reserved":false,"is_disabled":false,"rental_uris":{"android":"levelo://app?vid=01359525-8ee3-4431-83ce-9dc5da79037f","ios":"levelo://app?vid=01359525-8ee3-4431-83ce-9dc5da79037f"},"vehicle_type_id":"4","last_reported":1713391577,"current_range_meters":6800,"station_id":"ce4bhsp2rcd13ifvqi50","pricing_plan_id":"cebpf4jnsgd1na2vs0mg"},{"bike_id":"7529893d-ffa0-42d1-b02b-f3d0b37ec505","system_id":"levelo_inurba_marseille","lat":43.315293,"lon":5.380349,"is_reserved":false,"is_disabled":false,"rental_uris":{"android":"levelo://app?vid=7529893d-ffa0-42d1-b02b-f3d0b37ec505","ios":"levelo://app?vid=7529893d-ffa0-42d1-b02b-f3d0b37ec505"},"vehicle_type_id":"4","last_reported":1713391577,"current_range_meters":21200,"station_id":"ce4bhsp2rcd13ifvqi50","pricing_plan_id":"cebpf4jnsgd1na2vs0mg"},{"bike_id":"8730e1ec-78f5-457b-a871-67ce03bf68c5","system_id":"levelo_inurba_marseille","lat":43.315289,"lon":5.380349,"is_reserved":false,"is_disabled":false,"rental_uris":{"android":"levelo://app?vid=8730e1ec-78f5-457b-a871-67ce03bf68c5","ios":"levelo://app?vid=8730e1ec-78f5-457b-a871-67ce03bf68c5"},"vehicle_type_id":"4","last_reported":1713391577,"current_range_meters":15200,"station_id":"ce4bhsp2rcd13ifvqi50","pricing_plan_id":"cebpf4jnsgd1na2vs0mg"},{"bike_id":"6259b3f4-c079-4a8f-9977-927bf520d560","system_id":"levelo_inurba_marseille","lat":43.315289,"lon":5.380349,"is_reserved":false,"is_disabled":false,"rental_uris":{"android":"levelo://app?vid=6259b3f4-c079-4a8f-9977-927bf520d560","ios":"levelo://app?vid=6259b3f4-c079-4a8f-9977-927bf520d560"},"vehicle_type_id":"4","last_reported":1713391577,"current_range_meters":13200,"station_id":"ce4bhsp2rcd13ifvqi50","pricing_plan_id":"cebpf4jnsgd1na2vs0mg"},{"bike_id":"545f804c-508f-4edd-a677-84fc933c8716","system_id":"levelo_inurba_marseille","lat":43.308012,"lon":5.381511,"is_reserved":false,"is_disabled":false,"rental_uris":{"android":"levelo://app?vid=545f804c-508f-4edd-a677-84fc933c8716","ios":"levelo://app?vid=545f804c-508f-4edd-a677-84fc933c8716"},"vehicle_type_id":"4","last_reported":1713391577,"current_range_meters":2000,"station_id":"ce4bgt12rcd13ifvqce0","pricing_plan_id":"cebpf4jnsgd1na2vs0mg"},{"bike_id":"24902cf2-e17e-4e65-9431-95ba9170c960","system_id":"levelo_inurba_marseille","lat":43.308012,"lon":5.381511,"is_reserved":false,"is_disabled":false,"rental_uris":{"android":"levelo://app?vid=24902cf2-e17e-4e65-9431-95ba9170c960","ios":"levelo://app?vid=24902cf2-e17e-4e65-9431-95ba9170c960"},"vehicle_type_id":"4","last_reported":1713391577,"current_range_meters":29200,"station_id":"ce4bgt12rcd13ifvqce0","pricing_plan_id":"cebpf4jnsgd1na2vs0mg"},{"bike_id":"192d3e40-06f9-4aab-84fd-2ff8d5caf743","system_id":"levelo_inurba_marseille","lat":43.308012,"lon":5.381511,"is_reserved":false,"is_disabled":false,"rental_uris":{"android":"levelo://app?vid=192d3e40-06f9-4aab-84fd-2ff8d5caf743","ios":"levelo://app?vid=192d3e40-06f9-4aab-84fd-2ff8d5caf743"},"vehicle_type_id":"4","last_reported":1713391577,"current_range_meters":10400,"station_id":"ce4bgt12rcd13ifvqce0","pricing_plan_id":"cebpf4jnsgd1na2vs0mg"},{"bike_id":"2c010bec-e312-4e1a-8094-47f9f393f242","system_id":"levelo_inurba_marseille","lat":43.308012,"lon":5.381511,"is_reserved":false,"is_disabled":false,"rental_uris":{"android":"levelo://app?vid=2c010bec-e312-4e1a-8094-47f9f393f242","ios":"levelo://app?vid=2c010bec-e312-4e1a-8094-47f9f393f242"},"vehicle_type_id":"4","last_reported":1713391577,"current_range_meters":13600,"station_id":"ce4bgt12rcd13ifvqce0","pricing_plan_id":"cebpf4jnsgd1na2vs0mg"},{"bike_id":"474525dc-99c8-49dd-a4ec-bf353f39ecc7","system_id":"levelo_inurba_marseille","lat":43.308012,"lon":5.381511,"is_reserved":false,"is_disabled":false,"rental_uris":{"android":"levelo://app?vid=474525dc-99c8-49dd-a4ec-bf353f39ecc7","ios":"levelo://app?vid=474525dc-99c8-49dd-a4ec-bf353f39ecc7"},"vehicle_type_id":"4","last_reported":1713391577,"current_range_meters":16000,"station_id":"ce4bgt12rcd13ifvqce0","pricing_plan_id":"cebpf4jnsgd1na2vs0mg"},{"bike_id":"6b2ac776-9495-4cd4-bbae-eac90b27dc61","system_id":"levelo_inurba_marseille","lat":43.308012,"lon":5.381511,"is_reserved":false,"is_disabled":false,"rental_uris":{"android":"levelo://app?vid=6b2ac776-9495-4cd4-bbae-eac90b27dc61","ios":"levelo://app?vid=6b2ac776-9495-4cd4-bbae-eac90b27dc61"},"vehicle_type_id":"4","last_reported":1713391577,"current_range_meters":21200,"station_id":"ce4bgt12rcd13ifvqce0","pricing_plan_id":"cebpf4jnsgd1na2vs0mg"},{"bike_id":"b8be221b-c3e8-4422-a5c5-35906dc0244e","system_id":"levelo_inurba_marseille","lat":43.308012,"lon":5.381511,"is_reserved":false,"is_disabled":false,"rental_uris":{"android":"levelo://app?vid=b8be221b-c3e8-4422-a5c5-35906dc0244e","ios":"levelo://app?vid=b8be221b-c3e8-4422-a5c5-35906dc0244e"},"vehicle_type_id":"4","last_reported":1713391577,"current_range_meters":17200,"station_id":"ce4bgt12rcd13ifvqce0","pricing_plan_id":"cebpf4jnsgd1na2vs0mg"},{"bike_id":"d281dd8b-5320-4525-86f9-b0ce7d576902","system_id":"levelo_inurba_marseille","lat":43.304606,"lon":5.379026,"is_reserved":false,"is_disabled":false,"rental_uris":{"android":"levelo://app?vid=d281dd8b-5320-4525-86f9-b0ce7d576902","ios":"levelo://app?vid=d281dd8b-5320-4525-86f9-b0ce7d576902"},"vehicle_type_id":"4","last_reported":1713391577,"current_range_meters":14400,"station_id":"ce4bgup2rcd13ifvqcn0","pricing_plan_id":"cebpf4jnsgd1na2vs0mg"},{"bike_id":"159e6d69-ec2a-4b11-9a20-0e798b3d4e6d","system_id":"levelo_inurba_marseille","lat":43.324771,"lon":5.36557,"is_reserved":false,"is_disabled":false,"rental_uris":{"android":"levelo://app?vid=159e6d69-ec2a-4b11-9a20-0e798b3d4e6d","ios":"levelo://app?vid=159e6d69-ec2a-4b11-9a20-0e798b3d4e6d"},"vehicle_type_id":"4","last_reported":1713391577,"current_range_meters":9600,"station_id":"ce4bhs12rcd13ifvqhvg","pricing_plan_id":"cebpf4jnsgd1na2vs0mg"},{"bike_id":"11a65fcd-a55c-49fa-8f59-be683102caef","system_id":"levelo_inurba_marseille","lat":43.324771,"lon":5.36557,"is_reserved":false,"is_disabled":false,"rental_uris":{"android":"levelo://app?vid=11a65fcd-a55c-49fa-8f59-be683102caef","ios":"levelo://app?vid=11a65fcd-a55c-49fa-8f59-be683102caef"},"vehicle_type_id":"4","last_reported":1713391577,"current_range_meters":22000,"station_id":"ce4bhs12rcd13ifvqhvg","pricing_plan_id":"cebpf4jnsgd1na2vs0mg"},{"bike_id":"a51b9dbd-b6b4-4e62-aede-beb536c98b5a","system_id":"levelo_inurba_marseille","lat":43.32482,"lon":5.36575,"is_reserved":false,"is_disabled":false,"rental_uris":{"android":"levelo://app?vid=a51b9dbd-b6b4-4e62-aede-beb536c98b5a","ios":"levelo://app?vid=a51b9dbd-b6b4-4e62-aede-beb536c98b5a"},"vehicle_type_id":"4","last_reported":1713391577,"current_range_meters":6000,"station_id":"ce4bhs12rcd13ifvqhvg","pricing_plan_id":"cebpf4jnsgd1na2vs0mg"},{"bike_id":"bada93fb-f3e7-4072-b03f-debca43b0142","system_id":"levelo_inurba_marseille","lat":43.324859,"lon":5.365708,"is_reserved":false,"is_disabled":false,"rental_uris":{"android":"levelo://app?vid=bada93fb-f3e7-4072-b03f-debca43b0142","ios":"levelo://app?vid=bada93fb-f3e7-4072-b03f-debca43b0142"},"vehicle_type_id":"4","last_reported":1713391577,"current_range_meters":0,"station_id":"ce4bhs12rcd13ifvqhvg","pricing_plan_id":"cebpf4jnsgd1na2vs0mg"},{"bike_id":"2361f870-47a0-4ae4-a065-afb3cf02f8b1","system_id":"levelo_inurba_marseille","lat":43.324771,"lon":5.36557,"is_reserved":false,"is_disabled":false,"rental_uris":{"android":"levelo://app?vid=2361f870-47a0-4ae4-a065-afb3cf02f8b1","ios":"levelo://app?vid=2361f870-47a0-4ae4-a065-afb3cf02f8b1"},"vehicle_type_id":"4","last_reported":1713391577,"current_range_meters":17200,"station_id":"ce4bhs12rcd13ifvqhvg","pricing_plan_id":"cebpf4jnsgd1na2vs0mg"},{"bike_id":"6850d3ac-6118-46b8-87a3-283cb8f13775","system_id":"levelo_inurba_marseille","lat":43.324771,"lon":5.36557,"is_reserved":false,"is_disabled":false,"rental_uris":{"android":"levelo://app?vid=6850d3ac-6118-46b8-87a3-283cb8f13775","ios":"levelo://app?vid=6850d3ac-6118-46b8-87a3-283cb8f13775"},"vehicle_type_id":"4","last_reported":1713391577,"current_range_meters":9200,"station_id":"ce4bhs12rcd13ifvqhvg","pricing_plan_id":"cebpf4jnsgd1na2vs0mg"},{"bike_id":"542e14bf-5a76-429f-aa65-aa0c963630cc","system_id":"levelo_inurba_marseille","lat":43.273125,"lon":5.390731,"is_reserved":false,"is_disabled":false,"rental_uris":{"android":"levelo://app?vid=542e14bf-5a76-429f-aa65-aa0c963630cc","ios":"levelo://app?vid=542e14bf-5a76-429f-aa65-aa0c963630cc"},"vehicle_type_id":"4","last_reported":1713391577,"current_range_meters":0,"station_id":"ce4bhgp2rcd13ifvqfe0","pricing_plan_id":"cebpf4jnsgd1na2vs0mg"},{"bike_id":"d986bd22-f831-4a7d-a74f-59573012fbf0","system_id":"levelo_inurba_marseille","lat":43.310777,"lon":5.383569,"is_reserved":false,"is_disabled":false,"rental_uris":{"android":"levelo://app?vid=d986bd22-f831-4a7d-a74f-59573012fbf0","ios":"levelo://app?vid=d986bd22-f831-4a7d-a74f-59573012fbf0"},"vehicle_type_id":"4","last_reported":1713391577,"current_range_meters":10800,"station_id":"ce4bgv92rcd13ifvqcr0","pricing_plan_id":"cebpf4jnsgd1na2vs0mg"},{"bike_id":"51e207f8-7df5-4810-a4e2-d6134d500fe5","system_id":"levelo_inurba_marseille","lat":43.302784,"lon":5.377158,"is_reserved":false,"is_disabled":false,"rental_uris":{"android":"levelo://app?vid=51e207f8-7df5-4810-a4e2-d6134d500fe5","ios":"levelo://app?vid=51e207f8-7df5-4810-a4e2-d6134d500fe5"},"vehicle_type_id":"4","last_reported":1713391577,"current_range_meters":22000,"station_id":"ce4bguh2rcd13ifvqcj0","pricing_plan_id":"cebpf4jnsgd1na2vs0mg"},{"bike_id":"99024cdb-4f25-418d-b680-ffecdfd31c32","system_id":"levelo_inurba_marseille","lat":43.302784,"lon":5.377158,"is_reserved":false,"is_disabled":false,"rental_uris":{"android":"levelo://app?vid=99024cdb-4f25-418d-b680-ffecdfd31c32","ios":"levelo://app?vid=99024cdb-4f25-418d-b680-ffecdfd31c32"},"vehicle_type_id":"4","last_reported":1713391577,"current_range_meters":5600,"station_id":"ce4bguh2rcd13ifvqcj0","pricing_plan_id":"cebpf4jnsgd1na2vs0mg"},{"bike_id":"b8feb9d2-3951-40e7-a9aa-7b5fd456b9c5","system_id":"levelo_inurba_marseille","lat":43.310804,"lon":5.38359,"is_reserved":false,"is_disabled":false,"rental_uris":{"android":"levelo://app?vid=b8feb9d2-3951-40e7-a9aa-7b5fd456b9c5","ios":"levelo://app?vid=b8feb9d2-3951-40e7-a9aa-7b5fd456b9c5"},"vehicle_type_id":"4","last_reported":1713391577,"current_range_meters":9600,"station_id":"ce4bgv92rcd13ifvqcr0","pricing_plan_id":"cebpf4jnsgd1na2vs0mg"},{"bike_id":"6e11d5c1-9424-4970-aac5-1380420791dd","system_id":"levelo_inurba_marseille","lat":43.3015,"lon":5.37416,"is_reserved":false,"is_disabled":false,"rental_uris":{"android":"levelo://app?vid=6e11d5c1-9424-4970-aac5-1380420791dd","ios":"levelo://app?vid=6e11d5c1-9424-4970-aac5-1380420791dd"},"vehicle_type_id":"4","last_reported":1713391577,"current_range_meters":2400,"station_id":"ce4bgs92rcd13ifvqcc0","pricing_plan_id":"cebpf4jnsgd1na2vs0mg"},{"bike_id":"c7b9d0de-e8c6-433a-9cda-3c0f49801249","system_id":"levelo_inurba_marseille","lat":43.30143,"lon":5.37413,"is_reserved":false,"is_disabled":false,"rental_uris":{"android":"levelo://app?vid=c7b9d0de-e8c6-433a-9cda-3c0f49801249","ios":"levelo://app?vid=c7b9d0de-e8c6-433a-9cda-3c0f49801249"},"vehicle_type_id":"4","last_reported":1713391577,"current_range_meters":14000,"station_id":"ce4bgs92rcd13ifvqcc0","pricing_plan_id":"cebpf4jnsgd1na2vs0mg"},{"bike_id":"5e0422c4-4db2-4cd5-8ec6-f1a5f73617e2","system_id":"levelo_inurba_marseille","lat":43.305624,"lon":5.381251,"is_reserved":false,"is_disabled":false,"rental_uris":{"android":"levelo://app?vid=5e0422c4-4db2-4cd5-8ec6-f1a5f73617e2","ios":"levelo://app?vid=5e0422c4-4db2-4cd5-8ec6-f1a5f73617e2"},"vehicle_type_id":"4","last_reported":1713391577,"current_range_meters":17600,"station_id":"","pricing_plan_id":"cebpf4jnsgd1na2vs0mg"},{"bike_id":"334e3407-4f9b-4b57-a5ef-39033f25d948","system_id":"levelo_inurba_marseille","lat":43.319935,"lon":5.381699,"is_reserved":false,"is_disabled":false,"rental_uris":{"android":"levelo://app?vid=334e3407-4f9b-4b57-a5ef-39033f25d948","ios":"levelo://app?vid=334e3407-4f9b-4b57-a5ef-39033f25d948"},"vehicle_type_id":"4","last_reported":1713391577,"current_range_meters":19600,"station_id":"ce4bhr12rcd13ifvqhpg","pricing_plan_id":"cebpf4jnsgd1na2vs0mg"},{"bike_id":"eb084826-c14b-4714-abc5-e75cc896773b","system_id":"levelo_inurba_marseille","lat":43.319935,"lon":5.381699,"is_reserved":false,"is_disabled":false,"rental_uris":{"android":"levelo://app?vid=eb084826-c14b-4714-abc5-e75cc896773b","ios":"levelo://app?vid=eb084826-c14b-4714-abc5-e75cc896773b"},"vehicle_type_id":"4","last_reported":1713391577,"current_range_meters":8800,"station_id":"ce4bhr12rcd13ifvqhpg","pricing_plan_id":"cebpf4jnsgd1na2vs0mg"},{"bike_id":"ce7fa476-bb4f-43d3-8318-023d7f9567ab","system_id":"levelo_inurba_marseille","lat":43.319935,"lon":5.381699,"is_reserved":false,"is_disabled":false,"rental_uris":{"android":"levelo://app?vid=ce7fa476-bb4f-43d3-8318-023d7f9567ab","ios":"levelo://app?vid=ce7fa476-bb4f-43d3-8318-023d7f9567ab"},"vehicle_type_id":"4","last_reported":1713391577,"current_range_meters":18800,"station_id":"ce4bhr12rcd13ifvqhpg","pricing_plan_id":"cebpf4jnsgd1na2vs0mg"},{"bike_id":"d212c281-3522-420a-b06f-b80966290c73","system_id":"levelo_inurba_marseille","lat":43.319935,"lon":5.381699,"is_reserved":false,"is_disabled":false,"rental_uris":{"android":"levelo://app?vid=d212c281-3522-420a-b06f-b80966290c73","ios":"levelo://app?vid=d212c281-3522-420a-b06f-b80966290c73"},"vehicle_type_id":"4","last_reported":1713391577,"current_range_meters":23600,"station_id":"ce4bhr12rcd13ifvqhpg","pricing_plan_id":"cebpf4jnsgd1na2vs0mg"},{"bike_id":"f1a17ac3-bf0f-4378-ae6f-719bc9a96880","system_id":"levelo_inurba_marseille","lat":43.319935,"lon":5.381699,"is_reserved":false,"is_disabled":false,"rental_uris":{"android":"levelo://app?vid=f1a17ac3-bf0f-4378-ae6f-719bc9a96880","ios":"levelo://app?vid=f1a17ac3-bf0f-4378-ae6f-719bc9a96880"},"vehicle_type_id":"4","last_reported":1713391577,"current_range_meters":800,"station_id":"ce4bhr12rcd13ifvqhpg","pricing_plan_id":"cebpf4jnsgd1na2vs0mg"},{"bike_id":"f020809e-e197-4eb4-9e13-8310c8f35000","system_id":"levelo_inurba_marseille","lat":43.31996,"lon":5.38149,"is_reserved":false,"is_disabled":false,"rental_uris":{"android":"levelo://app?vid=f020809e-e197-4eb4-9e13-8310c8f35000","ios":"levelo://app?vid=f020809e-e197-4eb4-9e13-8310c8f35000"},"vehicle_type_id":"4","last_reported":1713391577,"current_range_meters":8800,"station_id":"ce4bhr12rcd13ifvqhpg","pricing_plan_id":"cebpf4jnsgd1na2vs0mg"},{"bike_id":"b81b1e3e-2172-4dfd-8720-aafb0057bf12","system_id":"levelo_inurba_marseille","lat":43.319935,"lon":5.381699,"is_reserved":false,"is_disabled":false,"rental_uris":{"android":"levelo://app?vid=b81b1e3e-2172-4dfd-8720-aafb0057bf12","ios":"levelo://app?vid=b81b1e3e-2172-4dfd-8720-aafb0057bf12"},"vehicle_type_id":"4","last_reported":1713391577,"current_range_meters":8000,"station_id":"ce4bhr12rcd13ifvqhpg","pricing_plan_id":"cebpf4jnsgd1na2vs0mg"},{"bike_id":"8608e23e-7f9a-414f-ad7e-86dba4433338","system_id":"levelo_inurba_marseille","lat":43.319935,"lon":5.381699,"is_reserved":false,"is_disabled":false,"rental_uris":{"android":"levelo://app?vid=8608e23e-7f9a-414f-ad7e-86dba4433338","ios":"levelo://app?vid=8608e23e-7f9a-414f-ad7e-86dba4433338"},"vehicle_type_id":"4","last_reported":1713391577,"current_range_meters":12000,"station_id":"ce4bhr12rcd13ifvqhpg","pricing_plan_id":"cebpf4jnsgd1na2vs0mg"},{"bike_id":"fc2df9fc-0879-4333-955e-d7f8d52b1a38","system_id":"levelo_inurba_marseille","lat":43.319935,"lon":5.381699,"is_reserved":false,"is_disabled":false,"rental_uris":{"android":"levelo://app?vid=fc2df9fc-0879-4333-955e-d7f8d52b1a38","ios":"levelo://app?vid=fc2df9fc-0879-4333-955e-d7f8d52b1a38"},"vehicle_type_id":"4","last_reported":1713391577,"current_range_meters":400,"station_id":"ce4bhr12rcd13ifvqhpg","pricing_plan_id":"cebpf4jnsgd1na2vs0mg"},{"bike_id":"8ce762a3-5d5b-4cf2-afa1-d3fa5bbc8b07","system_id":"levelo_inurba_marseille","lat":43.320031,"lon":5.38155,"is_reserved":false,"is_disabled":false,"rental_uris":{"android":"levelo://app?vid=8ce762a3-5d5b-4cf2-afa1-d3fa5bbc8b07","ios":"levelo://app?vid=8ce762a3-5d5b-4cf2-afa1-d3fa5bbc8b07"},"vehicle_type_id":"4","last_reported":1713391577,"current_range_meters":8400,"station_id":"ce4bhr12rcd13ifvqhpg","pricing_plan_id":"cebpf4jnsgd1na2vs0mg"},{"bike_id":"a7f1b00f-26ff-404c-8811-6a3369faeea1","system_id":"levelo_inurba_marseille","lat":43.319977,"lon":5.38164,"is_reserved":false,"is_disabled":false,"rental_uris":{"android":"levelo://app?vid=a7f1b00f-26ff-404c-8811-6a3369faeea1","ios":"levelo://app?vid=a7f1b00f-26ff-404c-8811-6a3369faeea1"},"vehicle_type_id":"4","last_reported":1713391577,"current_range_meters":19200,"station_id":"ce4bhr12rcd13ifvqhpg","pricing_plan_id":"cebpf4jnsgd1na2vs0mg"},{"bike_id":"592f0002-f51e-454a-948b-76b054acb9a8","system_id":"levelo_inurba_marseille","lat":43.319935,"lon":5.381699,"is_reserved":false,"is_disabled":false,"rental_uris":{"android":"levelo://app?vid=592f0002-f51e-454a-948b-76b054acb9a8","ios":"levelo://app?vid=592f0002-f51e-454a-948b-76b054acb9a8"},"vehicle_type_id":"4","last_reported":1713391577,"current_range_meters":14400,"station_id":"ce4bhr12rcd13ifvqhpg","pricing_plan_id":"cebpf4jnsgd1na2vs0mg"},{"bike_id":"7a6e1c2e-307f-44da-ab4b-7057ef8b4cbd","system_id":"levelo_inurba_marseille","lat":43.313571,"lon":5.384829,"is_reserved":false,"is_disabled":false,"rental_uris":{"android":"levelo://app?vid=7a6e1c2e-307f-44da-ab4b-7057ef8b4cbd","ios":"levelo://app?vid=7a6e1c2e-307f-44da-ab4b-7057ef8b4cbd"},"vehicle_type_id":"4","last_reported":1713391577,"current_range_meters":27600,"station_id":"ce4bgt92rcd13ifvqcf0","pricing_plan_id":"cebpf4jnsgd1na2vs0mg"},{"bike_id":"1cc39bba-192c-4bcc-b37f-24dc500d85ff","system_id":"levelo_inurba_marseille","lat":43.313695,"lon":5.384957,"is_reserved":false,"is_disabled":false,"rental_uris":{"android":"levelo://app?vid=1cc39bba-192c-4bcc-b37f-24dc500d85ff","ios":"levelo://app?vid=1cc39bba-192c-4bcc-b37f-24dc500d85ff"},"vehicle_type_id":"4","last_reported":1713391577,"current_range_meters":4000,"station_id":"ce4bgt92rcd13ifvqcf0","pricing_plan_id":"cebpf4jnsgd1na2vs0mg"},{"bike_id":"79b1484c-7ca2-4a8d-b15b-2987062d3cb2","system_id":"levelo_inurba_marseille","lat":43.30014,"lon":5.37664,"is_reserved":false,"is_disabled":false,"rental_uris":{"android":"levelo://app?vid=79b1484c-7ca2-4a8d-b15b-2987062d3cb2","ios":"levelo://app?vid=79b1484c-7ca2-4a8d-b15b-2987062d3cb2"},"vehicle_type_id":"4","last_reported":1713391577,"current_range_meters":23600,"station_id":"","pricing_plan_id":"cebpf4jnsgd1na2vs0mg"},{"bike_id":"7e6b49b2-fa4e-440c-ac28-31113f559575","system_id":"levelo_inurba_marseille","lat":43.305364,"lon":5.384119,"is_reserved":false,"is_disabled":false,"rental_uris":{"android":"levelo://app?vid=7e6b49b2-fa4e-440c-ac28-31113f559575","ios":"levelo://app?vid=7e6b49b2-fa4e-440c-ac28-31113f559575"},"vehicle_type_id":"4","last_reported":1713391577,"current_range_meters":27600,"station_id":"ce4bgg92rcd13ifvqb30","pricing_plan_id":"cebpf4jnsgd1na2vs0mg"},{"bike_id":"5acfa26c-b39f-4340-8510-64c51d57caea","system_id":"levelo_inurba_marseille","lat":43.305364,"lon":5.384119,"is_reserved":false,"is_disabled":false,"rental_uris":{"android":"levelo://app?vid=5acfa26c-b39f-4340-8510-64c51d57caea","ios":"levelo://app?vid=5acfa26c-b39f-4340-8510-64c51d57caea"},"vehicle_type_id":"4","last_reported":1713391577,"current_range_meters":7600,"station_id":"ce4bgg92rcd13ifvqb30","pricing_plan_id":"cebpf4jnsgd1na2vs0mg"},{"bike_id":"2a2aa7ff-9df2-4cc8-9a50-8eaf52cc284d","system_id":"levelo_inurba_marseille","lat":43.311722,"lon":5.387247,"is_reserved":false,"is_disabled":false,"rental_uris":{"android":"levelo://app?vid=2a2aa7ff-9df2-4cc8-9a50-8eaf52cc284d","ios":"levelo://app?vid=2a2aa7ff-9df2-4cc8-9a50-8eaf52cc284d"},"vehicle_type_id":"4","last_reported":1713391577,"current_range_meters":14800,"station_id":"ce4bgv12rcd13ifvqcp0","pricing_plan_id":"cebpf4jnsgd1na2vs0mg"},{"bike_id":"399494aa-8c1e-4905-ac13-95b182cb9832","system_id":"levelo_inurba_marseille","lat":43.311722,"lon":5.387247,"is_reserved":false,"is_disabled":false,"rental_uris":{"android":"levelo://app?vid=399494aa-8c1e-4905-ac13-95b182cb9832","ios":"levelo://app?vid=399494aa-8c1e-4905-ac13-95b182cb9832"},"vehicle_type_id":"4","last_reported":1713391577,"current_range_meters":15200,"station_id":"ce4bgv12rcd13ifvqcp0","pricing_plan_id":"cebpf4jnsgd1na2vs0mg"},{"bike_id":"4bf84e78-46ef-4b35-a381-92b53adea192","system_id":"levelo_inurba_marseille","lat":43.311722,"lon":5.387247,"is_reserved":false,"is_disabled":false,"rental_uris":{"android":"levelo://app?vid=4bf84e78-46ef-4b35-a381-92b53adea192","ios":"levelo://app?vid=4bf84e78-46ef-4b35-a381-92b53adea192"},"vehicle_type_id":"4","last_reported":1713391577,"current_range_meters":21200,"station_id":"ce4bgv12rcd13ifvqcp0","pricing_plan_id":"cebpf4jnsgd1na2vs0mg"},{"bike_id":"25245ad1-bee3-407f-83e1-b7057fd74cc3","system_id":"levelo_inurba_marseille","lat":43.311722,"lon":5.387247,"is_reserved":false,"is_disabled":false,"rental_uris":{"android":"levelo://app?vid=25245ad1-bee3-407f-83e1-b7057fd74cc3","ios":"levelo://app?vid=25245ad1-bee3-407f-83e1-b7057fd74cc3"},"vehicle_type_id":"4","last_reported":1713391577,"current_range_meters":30400,"station_id":"ce4bgv12rcd13ifvqcp0","pricing_plan_id":"cebpf4jnsgd1na2vs0mg"},{"bike_id":"80ea55d7-c610-4883-a8a9-1fc39ca82327","system_id":"levelo_inurba_marseille","lat":43.311722,"lon":5.387247,"is_reserved":false,"is_disabled":false,"rental_uris":{"android":"levelo://app?vid=80ea55d7-c610-4883-a8a9-1fc39ca82327","ios":"levelo://app?vid=80ea55d7-c610-4883-a8a9-1fc39ca82327"},"vehicle_type_id":"4","last_reported":1713391577,"current_range_meters":24800,"station_id":"ce4bgv12rcd13ifvqcp0","pricing_plan_id":"cebpf4jnsgd1na2vs0mg"},{"bike_id":"a53f48aa-c571-4df0-8068-c2cd012503f0","system_id":"levelo_inurba_marseille","lat":43.311722,"lon":5.387247,"is_reserved":false,"is_disabled":false,"rental_uris":{"android":"levelo://app?vid=a53f48aa-c571-4df0-8068-c2cd012503f0","ios":"levelo://app?vid=a53f48aa-c571-4df0-8068-c2cd012503f0"},"vehicle_type_id":"4","last_reported":1713391577,"current_range_meters":14800,"station_id":"ce4bgv12rcd13ifvqcp0","pricing_plan_id":"cebpf4jnsgd1na2vs0mg"},{"bike_id":"e75c7033-9141-42b2-943d-4aa8c7127bdb","system_id":"levelo_inurba_marseille","lat":43.311722,"lon":5.387247,"is_reserved":false,"is_disabled":false,"rental_uris":{"android":"levelo://app?vid=e75c7033-9141-42b2-943d-4aa8c7127bdb","ios":"levelo://app?vid=e75c7033-9141-42b2-943d-4aa8c7127bdb"},"vehicle_type_id":"4","last_reported":1713391577,"current_range_meters":1600,"station_id":"ce4bgv12rcd13ifvqcp0","pricing_plan_id":"cebpf4jnsgd1na2vs0mg"},{"bike_id":"7db24ac4-818e-44a7-8111-4b628b79bbb7","system_id":"levelo_inurba_marseille","lat":43.311722,"lon":5.387247,"is_reserved":false,"is_disabled":false,"rental_uris":{"android":"levelo://app?vid=7db24ac4-818e-44a7-8111-4b628b79bbb7","ios":"levelo://app?vid=7db24ac4-818e-44a7-8111-4b628b79bbb7"},"vehicle_type_id":"4","last_reported":1713391577,"current_range_meters":11600,"station_id":"ce4bgv12rcd13ifvqcp0","pricing_plan_id":"cebpf4jnsgd1na2vs0mg"},{"bike_id":"eb048834-5330-4cb5-872c-81ec68b930ba","system_id":"levelo_inurba_marseille","lat":43.311722,"lon":5.387247,"is_reserved":false,"is_disabled":false,"rental_uris":{"android":"levelo://app?vid=eb048834-5330-4cb5-872c-81ec68b930ba","ios":"levelo://app?vid=eb048834-5330-4cb5-872c-81ec68b930ba"},"vehicle_type_id":"4","last_reported":1713391577,"current_range_meters":14800,"station_id":"ce4bgv12rcd13ifvqcp0","pricing_plan_id":"cebpf4jnsgd1na2vs0mg"},{"bike_id":"1524fe5d-e3b6-4c01-a81e-8ed1f8a8420e","system_id":"levelo_inurba_marseille","lat":43.297794,"lon":5.370888,"is_reserved":false,"is_disabled":false,"rental_uris":{"android":"levelo://app?vid=1524fe5d-e3b6-4c01-a81e-8ed1f8a8420e","ios":"levelo://app?vid=1524fe5d-e3b6-4c01-a81e-8ed1f8a8420e"},"vehicle_type_id":"4","last_reported":1713391577,"current_range_meters":0,"station_id":"ce4bgop2rcd13ifvqc1g","pricing_plan_id":"cebpf4jnsgd1na2vs0mg"},{"bike_id":"7d5fd475-d045-43ea-a449-bbf319400056","system_id":"levelo_inurba_marseille","lat":43.30212,"lon":5.38195,"is_reserved":false,"is_disabled":false,"rental_uris":{"android":"levelo://app?vid=7d5fd475-d045-43ea-a449-bbf319400056","ios":"levelo://app?vid=7d5fd475-d045-43ea-a449-bbf319400056"},"vehicle_type_id":"4","last_reported":1713391577,"current_range_meters":6400,"station_id":"","pricing_plan_id":"cebpf4jnsgd1na2vs0mg"},{"bike_id":"be087829-a49d-47d1-82b5-5993f22d13ee","system_id":"levelo_inurba_marseille","lat":43.322872,"lon":5.382756,"is_reserved":false,"is_disabled":false,"rental_uris":{"android":"levelo://app?vid=be087829-a49d-47d1-82b5-5993f22d13ee","ios":"levelo://app?vid=be087829-a49d-47d1-82b5-5993f22d13ee"},"vehicle_type_id":"4","last_reported":1713391577,"current_range_meters":22000,"station_id":"ce4bhr12rcd13ifvqhqg","pricing_plan_id":"cebpf4jnsgd1na2vs0mg"},{"bike_id":"2a620900-9642-4580-86ac-ff21d5906f7a","system_id":"levelo_inurba_marseille","lat":43.322872,"lon":5.382756,"is_reserved":false,"is_disabled":false,"rental_uris":{"android":"levelo://app?vid=2a620900-9642-4580-86ac-ff21d5906f7a","ios":"levelo://app?vid=2a620900-9642-4580-86ac-ff21d5906f7a"},"vehicle_type_id":"4","last_reported":1713391577,"current_range_meters":20000,"station_id":"ce4bhr12rcd13ifvqhqg","pricing_plan_id":"cebpf4jnsgd1na2vs0mg"},{"bike_id":"273624cd-ceb0-4ac9-9ac5-f846ca8b3853","system_id":"levelo_inurba_marseille","lat":43.322872,"lon":5.382756,"is_reserved":false,"is_disabled":false,"rental_uris":{"android":"levelo://app?vid=273624cd-ceb0-4ac9-9ac5-f846ca8b3853","ios":"levelo://app?vid=273624cd-ceb0-4ac9-9ac5-f846ca8b3853"},"vehicle_type_id":"4","last_reported":1713391577,"current_range_meters":0,"station_id":"ce4bhr12rcd13ifvqhqg","pricing_plan_id":"cebpf4jnsgd1na2vs0mg"},{"bike_id":"e6ab72cf-f560-4717-91c1-42b63f3ee6c8","system_id":"levelo_inurba_marseille","lat":43.322872,"lon":5.382756,"is_reserved":false,"is_disabled":false,"rental_uris":{"android":"levelo://app?vid=e6ab72cf-f560-4717-91c1-42b63f3ee6c8","ios":"levelo://app?vid=e6ab72cf-f560-4717-91c1-42b63f3ee6c8"},"vehicle_type_id":"4","last_reported":1713391577,"current_range_meters":31200,"station_id":"ce4bhr12rcd13ifvqhqg","pricing_plan_id":"cebpf4jnsgd1na2vs0mg"},{"bike_id":"3791d0fc-3fbc-4499-8da1-29f4627ac9c5","system_id":"levelo_inurba_marseille","lat":43.322872,"lon":5.382756,"is_reserved":false,"is_disabled":false,"rental_uris":{"android":"levelo://app?vid=3791d0fc-3fbc-4499-8da1-29f4627ac9c5","ios":"levelo://app?vid=3791d0fc-3fbc-4499-8da1-29f4627ac9c5"},"vehicle_type_id":"4","last_reported":1713391577,"current_range_meters":400,"station_id":"ce4bhr12rcd13ifvqhqg","pricing_plan_id":"cebpf4jnsgd1na2vs0mg"},{"bike_id":"50c48fd1-1d17-430a-a7e2-4475109305e2","system_id":"levelo_inurba_marseille","lat":43.322872,"lon":5.382756,"is_reserved":false,"is_disabled":false,"rental_uris":{"android":"levelo://app?vid=50c48fd1-1d17-430a-a7e2-4475109305e2","ios":"levelo://app?vid=50c48fd1-1d17-430a-a7e2-4475109305e2"},"vehicle_type_id":"4","last_reported":1713391577,"current_range_meters":19600,"station_id":"ce4bhr12rcd13ifvqhqg","pricing_plan_id":"cebpf4jnsgd1na2vs0mg"},{"bike_id":"6c4d1a0b-97b3-4e86-87c5-6e727d67c919","system_id":"levelo_inurba_marseille","lat":43.322872,"lon":5.382756,"is_reserved":false,"is_disabled":false,"rental_uris":{"android":"levelo://app?vid=6c4d1a0b-97b3-4e86-87c5-6e727d67c919","ios":"levelo://app?vid=6c4d1a0b-97b3-4e86-87c5-6e727d67c919"},"vehicle_type_id":"4","last_reported":1713391577,"current_range_meters":31200,"station_id":"ce4bhr12rcd13ifvqhqg","pricing_plan_id":"cebpf4jnsgd1na2vs0mg"},{"bike_id":"19e4142f-f629-47a2-bf44-23690b184f73","system_id":"levelo_inurba_marseille","lat":43.305364,"lon":5.384119,"is_reserved":false,"is_disabled":false,"rental_uris":{"android":"levelo://app?vid=19e4142f-f629-47a2-bf44-23690b184f73","ios":"levelo://app?vid=19e4142f-f629-47a2-bf44-23690b184f73"},"vehicle_type_id":"4","last_reported":1713391577,"current_range_meters":400,"station_id":"ce4bgg92rcd13ifvqb30","pricing_plan_id":"cebpf4jnsgd1na2vs0mg"},{"bike_id":"f67fe519-a40b-4686-be09-ab176fb8d42c","system_id":"levelo_inurba_marseille","lat":43.32163,"lon":5.38677,"is_reserved":false,"is_disabled":false,"rental_uris":{"android":"levelo://app?vid=f67fe519-a40b-4686-be09-ab176fb8d42c","ios":"levelo://app?vid=f67fe519-a40b-4686-be09-ab176fb8d42c"},"vehicle_type_id":"4","last_reported":1713391577,"current_range_meters":12400,"station_id":"","pricing_plan_id":"cebpf4jnsgd1na2vs0mg"},{"bike_id":"bfdeaaba-fe35-46de-b925-88b134a23a26","system_id":"levelo_inurba_marseille","lat":43.29878,"lon":5.38104,"is_reserved":false,"is_disabled":false,"rental_uris":{"android":"levelo://app?vid=bfdeaaba-fe35-46de-b925-88b134a23a26","ios":"levelo://app?vid=bfdeaaba-fe35-46de-b925-88b134a23a26"},"vehicle_type_id":"4","last_reported":1713391577,"current_range_meters":20000,"station_id":"ce4bgj12rcd13ifvqbc0","pricing_plan_id":"cebpf4jnsgd1na2vs0mg"},{"bike_id":"43ca42e2-3ec8-4ff0-bec1-e85d6c34352a","system_id":"levelo_inurba_marseille","lat":43.309589,"lon":5.390258,"is_reserved":false,"is_disabled":false,"rental_uris":{"android":"levelo://app?vid=43ca42e2-3ec8-4ff0-bec1-e85d6c34352a","ios":"levelo://app?vid=43ca42e2-3ec8-4ff0-bec1-e85d6c34352a"},"vehicle_type_id":"4","last_reported":1713391577,"current_range_meters":0,"station_id":"ce4bgup2rcd13ifvqco0","pricing_plan_id":"cebpf4jnsgd1na2vs0mg"},{"bike_id":"f951f7e7-8dfe-4b16-a9a1-9e3464c84d40","system_id":"levelo_inurba_marseille","lat":43.309589,"lon":5.390258,"is_reserved":false,"is_disabled":false,"rental_uris":{"android":"levelo://app?vid=f951f7e7-8dfe-4b16-a9a1-9e3464c84d40","ios":"levelo://app?vid=f951f7e7-8dfe-4b16-a9a1-9e3464c84d40"},"vehicle_type_id":"4","last_reported":1713391577,"current_range_meters":26400,"station_id":"ce4bgup2rcd13ifvqco0","pricing_plan_id":"cebpf4jnsgd1na2vs0mg"},{"bike_id":"0d91e0b9-89a2-4c49-8e61-b7d378399a95","system_id":"levelo_inurba_marseille","lat":43.309589,"lon":5.390258,"is_reserved":false,"is_disabled":false,"rental_uris":{"android":"levelo://app?vid=0d91e0b9-89a2-4c49-8e61-b7d378399a95","ios":"levelo://app?vid=0d91e0b9-89a2-4c49-8e61-b7d378399a95"},"vehicle_type_id":"4","last_reported":1713391577,"current_range_meters":18400,"station_id":"ce4bgup2rcd13ifvqco0","pricing_plan_id":"cebpf4jnsgd1na2vs0mg"},{"bike_id":"601dddc7-88aa-4f6e-90ee-b56834b033b9","system_id":"levelo_inurba_marseille","lat":43.309589,"lon":5.390258,"is_reserved":false,"is_disabled":false,"rental_uris":{"android":"levelo://app?vid=601dddc7-88aa-4f6e-90ee-b56834b033b9","ios":"levelo://app?vid=601dddc7-88aa-4f6e-90ee-b56834b033b9"},"vehicle_type_id":"4","last_reported":1713391577,"current_range_meters":7200,"station_id":"ce4bgup2rcd13ifvqco0","pricing_plan_id":"cebpf4jnsgd1na2vs0mg"},{"bike_id":"e54f94e2-93db-45a9-b19c-080c7d1aac30","system_id":"levelo_inurba_marseille","lat":43.317557,"lon":5.390173,"is_reserved":false,"is_disabled":false,"rental_uris":{"android":"levelo://app?vid=e54f94e2-93db-45a9-b19c-080c7d1aac30","ios":"levelo://app?vid=e54f94e2-93db-45a9-b19c-080c7d1aac30"},"vehicle_type_id":"4","last_reported":1713391577,"current_range_meters":10000,"station_id":"ce4bhqp2rcd13ifvqhng","pricing_plan_id":"cebpf4jnsgd1na2vs0mg"},{"bike_id":"e6245ced-6502-4282-bc2f-4c0ec54f7906","system_id":"levelo_inurba_marseille","lat":43.317557,"lon":5.390173,"is_reserved":false,"is_disabled":false,"rental_uris":{"android":"levelo://app?vid=e6245ced-6502-4282-bc2f-4c0ec54f7906","ios":"levelo://app?vid=e6245ced-6502-4282-bc2f-4c0ec54f7906"},"vehicle_type_id":"4","last_reported":1713391577,"current_range_meters":31200,"station_id":"ce4bhqp2rcd13ifvqhng","pricing_plan_id":"cebpf4jnsgd1na2vs0mg"},{"bike_id":"0ad9583c-f24b-4141-b175-4061c995c09c","system_id":"levelo_inurba_marseille","lat":43.317557,"lon":5.390173,"is_reserved":false,"is_disabled":false,"rental_uris":{"android":"levelo://app?vid=0ad9583c-f24b-4141-b175-4061c995c09c","ios":"levelo://app?vid=0ad9583c-f24b-4141-b175-4061c995c09c"},"vehicle_type_id":"4","last_reported":1713391577,"current_range_meters":23200,"station_id":"ce4bhqp2rcd13ifvqhng","pricing_plan_id":"cebpf4jnsgd1na2vs0mg"},{"bike_id":"899fb601-44ca-4449-a205-2cfbdf408918","system_id":"levelo_inurba_marseille","lat":43.298768,"lon":5.43643,"is_reserved":false,"is_disabled":false,"rental_uris":{"android":"levelo://app?vid=899fb601-44ca-4449-a205-2cfbdf408918","ios":"levelo://app?vid=899fb601-44ca-4449-a205-2cfbdf408918"},"vehicle_type_id":"4","last_reported":1713391577,"current_range_meters":6000,"station_id":"ce4bhpp2rcd13ifvqhfg","pricing_plan_id":"cebpf4jnsgd1na2vs0mg"},{"bike_id":"4a1b6299-b899-41e6-8c81-fa154c18c529","system_id":"levelo_inurba_marseille","lat":43.304274,"lon":5.388873,"is_reserved":false,"is_disabled":false,"rental_uris":{"android":"levelo://app?vid=4a1b6299-b899-41e6-8c81-fa154c18c529","ios":"levelo://app?vid=4a1b6299-b899-41e6-8c81-fa154c18c529"},"vehicle_type_id":"4","last_reported":1713391577,"current_range_meters":0,"station_id":"ce4bgk12rcd13ifvqbi0","pricing_plan_id":"cebpf4jnsgd1na2vs0mg"},{"bike_id":"1609b739-13c5-407d-8c5d-4931ed2016a4","system_id":"levelo_inurba_marseille","lat":43.304274,"lon":5.388873,"is_reserved":false,"is_disabled":false,"rental_uris":{"android":"levelo://app?vid=1609b739-13c5-407d-8c5d-4931ed2016a4","ios":"levelo://app?vid=1609b739-13c5-407d-8c5d-4931ed2016a4"},"vehicle_type_id":"4","last_reported":1713391577,"current_range_meters":0,"station_id":"ce4bgk12rcd13ifvqbi0","pricing_plan_id":"cebpf4jnsgd1na2vs0mg"},{"bike_id":"4eb574d4-43ac-46fe-ac30-8c2643c65202","system_id":"levelo_inurba_marseille","lat":43.304274,"lon":5.388873,"is_reserved":false,"is_disabled":false,"rental_uris":{"android":"levelo://app?vid=4eb574d4-43ac-46fe-ac30-8c2643c65202","ios":"levelo://app?vid=4eb574d4-43ac-46fe-ac30-8c2643c65202"},"vehicle_type_id":"4","last_reported":1713391577,"current_range_meters":31200,"station_id":"ce4bgk12rcd13ifvqbi0","pricing_plan_id":"cebpf4jnsgd1na2vs0mg"},{"bike_id":"5a11c1a0-b0a1-4c79-a6be-adec026ea403","system_id":"levelo_inurba_marseille","lat":43.304274,"lon":5.388873,"is_reserved":false,"is_disabled":false,"rental_uris":{"android":"levelo://app?vid=5a11c1a0-b0a1-4c79-a6be-adec026ea403","ios":"levelo://app?vid=5a11c1a0-b0a1-4c79-a6be-adec026ea403"},"vehicle_type_id":"4","last_reported":1713391577,"current_range_meters":4800,"station_id":"ce4bgk12rcd13ifvqbi0","pricing_plan_id":"cebpf4jnsgd1na2vs0mg"},{"bike_id":"11acc242-8f50-461a-94e1-3e191ab25d73","system_id":"levelo_inurba_marseille","lat":43.304278,"lon":5.388868,"is_reserved":false,"is_disabled":false,"rental_uris":{"android":"levelo://app?vid=11acc242-8f50-461a-94e1-3e191ab25d73","ios":"levelo://app?vid=11acc242-8f50-461a-94e1-3e191ab25d73"},"vehicle_type_id":"4","last_reported":1713391577,"current_range_meters":12800,"station_id":"ce4bgk12rcd13ifvqbi0","pricing_plan_id":"cebpf4jnsgd1na2vs0mg"},{"bike_id":"c14fbef5-3575-4829-9d17-0a3d7f85eb41","system_id":"levelo_inurba_marseille","lat":43.304274,"lon":5.388873,"is_reserved":false,"is_disabled":false,"rental_uris":{"android":"levelo://app?vid=c14fbef5-3575-4829-9d17-0a3d7f85eb41","ios":"levelo://app?vid=c14fbef5-3575-4829-9d17-0a3d7f85eb41"},"vehicle_type_id":"4","last_reported":1713391577,"current_range_meters":24000,"station_id":"ce4bgk12rcd13ifvqbi0","pricing_plan_id":"cebpf4jnsgd1na2vs0mg"},{"bike_id":"ee3f6774-dd2d-4629-83b9-e1175c492c7c","system_id":"levelo_inurba_marseille","lat":43.32367,"lon":5.388836,"is_reserved":false,"is_disabled":false,"rental_uris":{"android":"levelo://app?vid=ee3f6774-dd2d-4629-83b9-e1175c492c7c","ios":"levelo://app?vid=ee3f6774-dd2d-4629-83b9-e1175c492c7c"},"vehicle_type_id":"4","last_reported":1713391577,"current_range_meters":7600,"station_id":"ce4bhqp2rcd13ifvqhog","pricing_plan_id":"cebpf4jnsgd1na2vs0mg"},{"bike_id":"d5e2c2be-0e81-4de5-a72b-de510e6c7980","system_id":"levelo_inurba_marseille","lat":43.32367,"lon":5.388836,"is_reserved":false,"is_disabled":false,"rental_uris":{"android":"levelo://app?vid=d5e2c2be-0e81-4de5-a72b-de510e6c7980","ios":"levelo://app?vid=d5e2c2be-0e81-4de5-a72b-de510e6c7980"},"vehicle_type_id":"4","last_reported":1713391577,"current_range_meters":18400,"station_id":"ce4bhqp2rcd13ifvqhog","pricing_plan_id":"cebpf4jnsgd1na2vs0mg"},{"bike_id":"f7837371-7930-4090-af57-0f8eb7df0223","system_id":"levelo_inurba_marseille","lat":43.32367,"lon":5.388836,"is_reserved":false,"is_disabled":false,"rental_uris":{"android":"levelo://app?vid=f7837371-7930-4090-af57-0f8eb7df0223","ios":"levelo://app?vid=f7837371-7930-4090-af57-0f8eb7df0223"},"vehicle_type_id":"4","last_reported":1713391577,"current_range_meters":28000,"station_id":"ce4bhqp2rcd13ifvqhog","pricing_plan_id":"cebpf4jnsgd1na2vs0mg"},{"bike_id":"2507d039-283c-4515-bced-f26a28c54abf","system_id":"levelo_inurba_marseille","lat":43.32367,"lon":5.388836,"is_reserved":false,"is_disabled":false,"rental_uris":{"android":"levelo://app?vid=2507d039-283c-4515-bced-f26a28c54abf","ios":"levelo://app?vid=2507d039-283c-4515-bced-f26a28c54abf"},"vehicle_type_id":"4","last_reported":1713391577,"current_range_meters":22000,"station_id":"ce4bhqp2rcd13ifvqhog","pricing_plan_id":"cebpf4jnsgd1na2vs0mg"},{"bike_id":"567908ff-af7a-470f-a67e-14cb4efdd25b","system_id":"levelo_inurba_marseille","lat":43.32367,"lon":5.388836,"is_reserved":false,"is_disabled":false,"rental_uris":{"android":"levelo://app?vid=567908ff-af7a-470f-a67e-14cb4efdd25b","ios":"levelo://app?vid=567908ff-af7a-470f-a67e-14cb4efdd25b"},"vehicle_type_id":"4","last_reported":1713391577,"current_range_meters":0,"station_id":"ce4bhqp2rcd13ifvqhog","pricing_plan_id":"cebpf4jnsgd1na2vs0mg"},{"bike_id":"5c49d390-3d20-4baf-a763-62af3ad53292","system_id":"levelo_inurba_marseille","lat":43.32368,"lon":5.38886,"is_reserved":false,"is_disabled":false,"rental_uris":{"android":"levelo://app?vid=5c49d390-3d20-4baf-a763-62af3ad53292","ios":"levelo://app?vid=5c49d390-3d20-4baf-a763-62af3ad53292"},"vehicle_type_id":"4","last_reported":1713391577,"current_range_meters":10400,"station_id":"ce4bhqp2rcd13ifvqhog","pricing_plan_id":"cebpf4jnsgd1na2vs0mg"},{"bike_id":"47cea0d7-d32f-4905-99ee-66d9522440d5","system_id":"levelo_inurba_marseille","lat":43.32367,"lon":5.388836,"is_reserved":false,"is_disabled":false,"rental_uris":{"android":"levelo://app?vid=47cea0d7-d32f-4905-99ee-66d9522440d5","ios":"levelo://app?vid=47cea0d7-d32f-4905-99ee-66d9522440d5"},"vehicle_type_id":"4","last_reported":1713391577,"current_range_meters":14800,"station_id":"ce4bhqp2rcd13ifvqhog","pricing_plan_id":"cebpf4jnsgd1na2vs0mg"},{"bike_id":"6d52a126-ef27-41b1-b33a-2fe54b65ab3b","system_id":"levelo_inurba_marseille","lat":43.292749,"lon":5.368402,"is_reserved":false,"is_disabled":false,"rental_uris":{"android":"levelo://app?vid=6d52a126-ef27-41b1-b33a-2fe54b65ab3b","ios":"levelo://app?vid=6d52a126-ef27-41b1-b33a-2fe54b65ab3b"},"vehicle_type_id":"4","last_reported":1713391577,"current_range_meters":10800,"station_id":"ce4bhbp2rcd13ifvqesg","pricing_plan_id":"cebpf4jnsgd1na2vs0mg"},{"bike_id":"823e639c-4de7-43fc-9ce4-5b651dc02ce5","system_id":"levelo_inurba_marseille","lat":43.32617,"lon":5.38754,"is_reserved":false,"is_disabled":false,"rental_uris":{"android":"levelo://app?vid=823e639c-4de7-43fc-9ce4-5b651dc02ce5","ios":"levelo://app?vid=823e639c-4de7-43fc-9ce4-5b651dc02ce5"},"vehicle_type_id":"4","last_reported":1713391577,"current_range_meters":31200,"station_id":"","pricing_plan_id":"cebpf4jnsgd1na2vs0mg"},{"bike_id":"a82429c4-d956-4d13-b7e4-c143bc5360d0","system_id":"levelo_inurba_marseille","lat":43.29367,"lon":5.37865,"is_reserved":false,"is_disabled":false,"rental_uris":{"android":"levelo://app?vid=a82429c4-d956-4d13-b7e4-c143bc5360d0","ios":"levelo://app?vid=a82429c4-d956-4d13-b7e4-c143bc5360d0"},"vehicle_type_id":"4","last_reported":1713391577,"current_range_meters":28000,"station_id":"ce4bgjh2rcd13ifvqbf0","pricing_plan_id":"cebpf4jnsgd1na2vs0mg"},{"bike_id":"0f388a68-1825-4022-a9d8-3d258f15019a","system_id":"levelo_inurba_marseille","lat":43.300852,"lon":5.390859,"is_reserved":false,"is_disabled":false,"rental_uris":{"android":"levelo://app?vid=0f388a68-1825-4022-a9d8-3d258f15019a","ios":"levelo://app?vid=0f388a68-1825-4022-a9d8-3d258f15019a"},"vehicle_type_id":"4","last_reported":1713391577,"current_range_meters":20000,"station_id":"ce4bh192rcd13ifvqdb0","pricing_plan_id":"cebpf4jnsgd1na2vs0mg"},{"bike_id":"2eb1fd04-97b6-481a-a8ed-ea4b0ba02e53","system_id":"levelo_inurba_marseille","lat":43.300852,"lon":5.390859,"is_reserved":false,"is_disabled":false,"rental_uris":{"android":"levelo://app?vid=2eb1fd04-97b6-481a-a8ed-ea4b0ba02e53","ios":"levelo://app?vid=2eb1fd04-97b6-481a-a8ed-ea4b0ba02e53"},"vehicle_type_id":"4","last_reported":1713391577,"current_range_meters":2400,"station_id":"ce4bh192rcd13ifvqdb0","pricing_plan_id":"cebpf4jnsgd1na2vs0mg"},{"bike_id":"37eebfbf-d043-4076-bc4f-61d00519725c","system_id":"levelo_inurba_marseille","lat":43.298764,"lon":5.388973,"is_reserved":false,"is_disabled":false,"rental_uris":{"android":"levelo://app?vid=37eebfbf-d043-4076-bc4f-61d00519725c","ios":"levelo://app?vid=37eebfbf-d043-4076-bc4f-61d00519725c"},"vehicle_type_id":"4","last_reported":1713391577,"current_range_meters":8400,"station_id":"ce4bh392rcd13ifvqdl0","pricing_plan_id":"cebpf4jnsgd1na2vs0mg"},{"bike_id":"02869303-044f-416e-b123-85611ac2c876","system_id":"levelo_inurba_marseille","lat":43.291675,"lon":5.371583,"is_reserved":false,"is_disabled":false,"rental_uris":{"android":"levelo://app?vid=02869303-044f-416e-b123-85611ac2c876","ios":"levelo://app?vid=02869303-044f-416e-b123-85611ac2c876"},"vehicle_type_id":"4","last_reported":1713391577,"current_range_meters":0,"station_id":"ce4bha92rcd13ifvqeh0","pricing_plan_id":"cebpf4jnsgd1na2vs0mg"},{"bike_id":"0510c6d3-d41d-4a0a-89e0-dd609c3d0217","system_id":"levelo_inurba_marseille","lat":43.298764,"lon":5.388973,"is_reserved":false,"is_disabled":false,"rental_uris":{"android":"levelo://app?vid=0510c6d3-d41d-4a0a-89e0-dd609c3d0217","ios":"levelo://app?vid=0510c6d3-d41d-4a0a-89e0-dd609c3d0217"},"vehicle_type_id":"4","last_reported":1713391577,"current_range_meters":7200,"station_id":"ce4bh392rcd13ifvqdl0","pricing_plan_id":"cebpf4jnsgd1na2vs0mg"},{"bike_id":"f50aafa2-0063-4da8-9633-288683c5aca6","system_id":"levelo_inurba_marseille","lat":43.298764,"lon":5.388973,"is_reserved":false,"is_disabled":false,"rental_uris":{"android":"levelo://app?vid=f50aafa2-0063-4da8-9633-288683c5aca6","ios":"levelo://app?vid=f50aafa2-0063-4da8-9633-288683c5aca6"},"vehicle_type_id":"4","last_reported":1713391577,"current_range_meters":27200,"station_id":"ce4bh392rcd13ifvqdl0","pricing_plan_id":"cebpf4jnsgd1na2vs0mg"},{"bike_id":"a17d38b2-ecf0-471e-b0e2-b9758ff96ef1","system_id":"levelo_inurba_marseille","lat":43.304274,"lon":5.388873,"is_reserved":false,"is_disabled":false,"rental_uris":{"android":"levelo://app?vid=a17d38b2-ecf0-471e-b0e2-b9758ff96ef1","ios":"levelo://app?vid=a17d38b2-ecf0-471e-b0e2-b9758ff96ef1"},"vehicle_type_id":"4","last_reported":1713391577,"current_range_meters":22000,"station_id":"ce4bgk12rcd13ifvqbi0","pricing_plan_id":"cebpf4jnsgd1na2vs0mg"},{"bike_id":"7d97512a-f172-4cda-8999-092e7ac396ac","system_id":"levelo_inurba_marseille","lat":43.309038,"lon":5.396546,"is_reserved":false,"is_disabled":false,"rental_uris":{"android":"levelo://app?vid=7d97512a-f172-4cda-8999-092e7ac396ac","ios":"levelo://app?vid=7d97512a-f172-4cda-8999-092e7ac396ac"},"vehicle_type_id":"4","last_reported":1713391577,"current_range_meters":21600,"station_id":"ce4bh012rcd13ifvqcv0","pricing_plan_id":"cebpf4jnsgd1na2vs0mg"},{"bike_id":"4ba0d20f-de57-4796-a0f3-c16acc72ee2c","system_id":"levelo_inurba_marseille","lat":43.291994,"lon":5.357886,"is_reserved":false,"is_disabled":false,"rental_uris":{"android":"levelo://app?vid=4ba0d20f-de57-4796-a0f3-c16acc72ee2c","ios":"levelo://app?vid=4ba0d20f-de57-4796-a0f3-c16acc72ee2c"},"vehicle_type_id":"4","last_reported":1713391577,"current_range_meters":24400,"station_id":"ce4bhb12rcd13ifvqel0","pricing_plan_id":"cebpf4jnsgd1na2vs0mg"},{"bike_id":"01f09620-eaec-4b53-b082-f8b294445808","system_id":"levelo_inurba_marseille","lat":43.292005,"lon":5.357875,"is_reserved":false,"is_disabled":false,"rental_uris":{"android":"levelo://app?vid=01f09620-eaec-4b53-b082-f8b294445808","ios":"levelo://app?vid=01f09620-eaec-4b53-b082-f8b294445808"},"vehicle_type_id":"4","last_reported":1713391577,"current_range_meters":30800,"station_id":"ce4bhb12rcd13ifvqel0","pricing_plan_id":"cebpf4jnsgd1na2vs0mg"},{"bike_id":"9fa474a5-81bf-4bb5-803b-50c696430964","system_id":"levelo_inurba_marseille","lat":43.309038,"lon":5.396546,"is_reserved":false,"is_disabled":false,"rental_uris":{"android":"levelo://app?vid=9fa474a5-81bf-4bb5-803b-50c696430964","ios":"levelo://app?vid=9fa474a5-81bf-4bb5-803b-50c696430964"},"vehicle_type_id":"4","last_reported":1713391577,"current_range_meters":12000,"station_id":"ce4bh012rcd13ifvqcv0","pricing_plan_id":"cebpf4jnsgd1na2vs0mg"},{"bike_id":"268a4c5a-7ac6-48b5-8c49-8f3d9014bbb2","system_id":"levelo_inurba_marseille","lat":43.309047,"lon":5.396551,"is_reserved":false,"is_disabled":false,"rental_uris":{"android":"levelo://app?vid=268a4c5a-7ac6-48b5-8c49-8f3d9014bbb2","ios":"levelo://app?vid=268a4c5a-7ac6-48b5-8c49-8f3d9014bbb2"},"vehicle_type_id":"4","last_reported":1713391577,"current_range_meters":31200,"station_id":"ce4bh012rcd13ifvqcv0","pricing_plan_id":"cebpf4jnsgd1na2vs0mg"},{"bike_id":"7bd5ce11-917a-4ae8-9321-307340f9c864","system_id":"levelo_inurba_marseille","lat":43.313291,"lon":5.396838,"is_reserved":false,"is_disabled":false,"rental_uris":{"android":"levelo://app?vid=7bd5ce11-917a-4ae8-9321-307340f9c864","ios":"levelo://app?vid=7bd5ce11-917a-4ae8-9321-307340f9c864"},"vehicle_type_id":"4","last_reported":1713391577,"current_range_meters":13200,"station_id":"ce4bgvp2rcd13ifvqcu0","pricing_plan_id":"cebpf4jnsgd1na2vs0mg"},{"bike_id":"3964d1cc-c736-40a1-97dd-7344ddf29ac3","system_id":"levelo_inurba_marseille","lat":43.309047,"lon":5.396551,"is_reserved":false,"is_disabled":false,"rental_uris":{"android":"levelo://app?vid=3964d1cc-c736-40a1-97dd-7344ddf29ac3","ios":"levelo://app?vid=3964d1cc-c736-40a1-97dd-7344ddf29ac3"},"vehicle_type_id":"4","last_reported":1713391577,"current_range_meters":14000,"station_id":"ce4bh012rcd13ifvqcv0","pricing_plan_id":"cebpf4jnsgd1na2vs0mg"},{"bike_id":"4b9bf3d7-1ecd-454c-a1b1-0fcbddc5fd8e","system_id":"levelo_inurba_marseille","lat":43.313291,"lon":5.396838,"is_reserved":false,"is_disabled":false,"rental_uris":{"android":"levelo://app?vid=4b9bf3d7-1ecd-454c-a1b1-0fcbddc5fd8e","ios":"levelo://app?vid=4b9bf3d7-1ecd-454c-a1b1-0fcbddc5fd8e"},"vehicle_type_id":"4","last_reported":1713391577,"current_range_meters":5600,"station_id":"ce4bgvp2rcd13ifvqcu0","pricing_plan_id":"cebpf4jnsgd1na2vs0mg"},{"bike_id":"57e2721c-d1a6-4596-9f5e-aa32afa21f10","system_id":"levelo_inurba_marseille","lat":43.309038,"lon":5.396546,"is_reserved":false,"is_disabled":false,"rental_uris":{"android":"levelo://app?vid=57e2721c-d1a6-4596-9f5e-aa32afa21f10","ios":"levelo://app?vid=57e2721c-d1a6-4596-9f5e-aa32afa21f10"},"vehicle_type_id":"4","last_reported":1713391577,"current_range_meters":13200,"station_id":"ce4bh012rcd13ifvqcv0","pricing_plan_id":"cebpf4jnsgd1na2vs0mg"},{"bike_id":"403c3eb4-f29e-458b-aa8b-0bcd36f03df8","system_id":"levelo_inurba_marseille","lat":43.309038,"lon":5.396546,"is_reserved":false,"is_disabled":false,"rental_uris":{"android":"levelo://app?vid=403c3eb4-f29e-458b-aa8b-0bcd36f03df8","ios":"levelo://app?vid=403c3eb4-f29e-458b-aa8b-0bcd36f03df8"},"vehicle_type_id":"4","last_reported":1713391577,"current_range_meters":14800,"station_id":"ce4bh012rcd13ifvqcv0","pricing_plan_id":"cebpf4jnsgd1na2vs0mg"},{"bike_id":"f0d35847-9d5d-44d1-8728-a7b8550e0eaa","system_id":"levelo_inurba_marseille","lat":43.309047,"lon":5.396551,"is_reserved":false,"is_disabled":false,"rental_uris":{"android":"levelo://app?vid=f0d35847-9d5d-44d1-8728-a7b8550e0eaa","ios":"levelo://app?vid=f0d35847-9d5d-44d1-8728-a7b8550e0eaa"},"vehicle_type_id":"4","last_reported":1713391577,"current_range_meters":24000,"station_id":"ce4bh012rcd13ifvqcv0","pricing_plan_id":"cebpf4jnsgd1na2vs0mg"},{"bike_id":"802b576a-8419-404c-a30c-ac5216bf02fe","system_id":"levelo_inurba_marseille","lat":43.309038,"lon":5.396546,"is_reserved":false,"is_disabled":false,"rental_uris":{"android":"levelo://app?vid=802b576a-8419-404c-a30c-ac5216bf02fe","ios":"levelo://app?vid=802b576a-8419-404c-a30c-ac5216bf02fe"},"vehicle_type_id":"4","last_reported":1713391577,"current_range_meters":18000,"station_id":"ce4bh012rcd13ifvqcv0","pricing_plan_id":"cebpf4jnsgd1na2vs0mg"},{"bike_id":"819d184c-cd29-4b3d-8040-6f6e9f93ab00","system_id":"levelo_inurba_marseille","lat":43.313291,"lon":5.396838,"is_reserved":false,"is_disabled":false,"rental_uris":{"android":"levelo://app?vid=819d184c-cd29-4b3d-8040-6f6e9f93ab00","ios":"levelo://app?vid=819d184c-cd29-4b3d-8040-6f6e9f93ab00"},"vehicle_type_id":"4","last_reported":1713391577,"current_range_meters":4000,"station_id":"ce4bgvp2rcd13ifvqcu0","pricing_plan_id":"cebpf4jnsgd1na2vs0mg"},{"bike_id":"ccd5edea-581f-4ddf-86be-84d4c168e1be","system_id":"levelo_inurba_marseille","lat":43.309038,"lon":5.396546,"is_reserved":false,"is_disabled":false,"rental_uris":{"android":"levelo://app?vid=ccd5edea-581f-4ddf-86be-84d4c168e1be","ios":"levelo://app?vid=ccd5edea-581f-4ddf-86be-84d4c168e1be"},"vehicle_type_id":"4","last_reported":1713391577,"current_range_meters":17200,"station_id":"ce4bh012rcd13ifvqcv0","pricing_plan_id":"cebpf4jnsgd1na2vs0mg"},{"bike_id":"cd5c3be6-2076-4c0a-8ecb-3e1acd9ea4c6","system_id":"levelo_inurba_marseille","lat":43.29184,"lon":5.35803,"is_reserved":false,"is_disabled":false,"rental_uris":{"android":"levelo://app?vid=cd5c3be6-2076-4c0a-8ecb-3e1acd9ea4c6","ios":"levelo://app?vid=cd5c3be6-2076-4c0a-8ecb-3e1acd9ea4c6"},"vehicle_type_id":"4","last_reported":1713391577,"current_range_meters":19600,"station_id":"ce4bhb12rcd13ifvqel0","pricing_plan_id":"cebpf4jnsgd1na2vs0mg"},{"bike_id":"7a4c1bb2-6820-4aa2-a4c4-49c71281615f","system_id":"levelo_inurba_marseille","lat":43.309038,"lon":5.396546,"is_reserved":false,"is_disabled":false,"rental_uris":{"android":"levelo://app?vid=7a4c1bb2-6820-4aa2-a4c4-49c71281615f","ios":"levelo://app?vid=7a4c1bb2-6820-4aa2-a4c4-49c71281615f"},"vehicle_type_id":"4","last_reported":1713391577,"current_range_meters":1600,"station_id":"ce4bh012rcd13ifvqcv0","pricing_plan_id":"cebpf4jnsgd1na2vs0mg"},{"bike_id":"60e64a94-26b1-477b-ac63-c81beb040e12","system_id":"levelo_inurba_marseille","lat":43.313291,"lon":5.396838,"is_reserved":false,"is_disabled":false,"rental_uris":{"android":"levelo://app?vid=60e64a94-26b1-477b-ac63-c81beb040e12","ios":"levelo://app?vid=60e64a94-26b1-477b-ac63-c81beb040e12"},"vehicle_type_id":"4","last_reported":1713391577,"current_range_meters":24800,"station_id":"ce4bgvp2rcd13ifvqcu0","pricing_plan_id":"cebpf4jnsgd1na2vs0mg"},{"bike_id":"f138e66e-b881-45f3-910e-cc9c80501305","system_id":"levelo_inurba_marseille","lat":43.313291,"lon":5.396838,"is_reserved":false,"is_disabled":false,"rental_uris":{"android":"levelo://app?vid=f138e66e-b881-45f3-910e-cc9c80501305","ios":"levelo://app?vid=f138e66e-b881-45f3-910e-cc9c80501305"},"vehicle_type_id":"4","last_reported":1713391577,"current_range_meters":24800,"station_id":"ce4bgvp2rcd13ifvqcu0","pricing_plan_id":"cebpf4jnsgd1na2vs0mg"},{"bike_id":"40d72b7c-d32a-471b-85c5-289dbc70fc4f","system_id":"levelo_inurba_marseille","lat":43.309047,"lon":5.396551,"is_reserved":false,"is_disabled":false,"rental_uris":{"android":"levelo://app?vid=40d72b7c-d32a-471b-85c5-289dbc70fc4f","ios":"levelo://app?vid=40d72b7c-d32a-471b-85c5-289dbc70fc4f"},"vehicle_type_id":"4","last_reported":1713391577,"current_range_meters":19200,"station_id":"ce4bh012rcd13ifvqcv0","pricing_plan_id":"cebpf4jnsgd1na2vs0mg"},{"bike_id":"facdf649-88e1-435b-9784-e19130e99b37","system_id":"levelo_inurba_marseille","lat":43.313291,"lon":5.396838,"is_reserved":false,"is_disabled":false,"rental_uris":{"android":"levelo://app?vid=facdf649-88e1-435b-9784-e19130e99b37","ios":"levelo://app?vid=facdf649-88e1-435b-9784-e19130e99b37"},"vehicle_type_id":"4","last_reported":1713391577,"current_range_meters":20400,"station_id":"ce4bgvp2rcd13ifvqcu0","pricing_plan_id":"cebpf4jnsgd1na2vs0mg"},{"bike_id":"a1c1a92d-82a8-458a-8b25-f5a502544865","system_id":"levelo_inurba_marseille","lat":43.309038,"lon":5.396546,"is_reserved":false,"is_disabled":false,"rental_uris":{"android":"levelo://app?vid=a1c1a92d-82a8-458a-8b25-f5a502544865","ios":"levelo://app?vid=a1c1a92d-82a8-458a-8b25-f5a502544865"},"vehicle_type_id":"4","last_reported":1713391577,"current_range_meters":7200,"station_id":"ce4bh012rcd13ifvqcv0","pricing_plan_id":"cebpf4jnsgd1na2vs0mg"},{"bike_id":"ed6f1c16-6a48-4ea0-af18-3fe43f518988","system_id":"levelo_inurba_marseille","lat":43.309047,"lon":5.396551,"is_reserved":false,"is_disabled":false,"rental_uris":{"android":"levelo://app?vid=ed6f1c16-6a48-4ea0-af18-3fe43f518988","ios":"levelo://app?vid=ed6f1c16-6a48-4ea0-af18-3fe43f518988"},"vehicle_type_id":"4","last_reported":1713391577,"current_range_meters":22400,"station_id":"ce4bh012rcd13ifvqcv0","pricing_plan_id":"cebpf4jnsgd1na2vs0mg"},{"bike_id":"f6d135eb-a6f2-4448-92e9-3450ff575fdc","system_id":"levelo_inurba_marseille","lat":43.309038,"lon":5.396546,"is_reserved":false,"is_disabled":false,"rental_uris":{"android":"levelo://app?vid=f6d135eb-a6f2-4448-92e9-3450ff575fdc","ios":"levelo://app?vid=f6d135eb-a6f2-4448-92e9-3450ff575fdc"},"vehicle_type_id":"4","last_reported":1713391577,"current_range_meters":18000,"station_id":"ce4bh012rcd13ifvqcv0","pricing_plan_id":"cebpf4jnsgd1na2vs0mg"},{"bike_id":"8d29023a-3c8b-4c51-8b5d-588abfd492cc","system_id":"levelo_inurba_marseille","lat":43.29529,"lon":5.385581,"is_reserved":false,"is_disabled":false,"rental_uris":{"android":"levelo://app?vid=8d29023a-3c8b-4c51-8b5d-588abfd492cc","ios":"levelo://app?vid=8d29023a-3c8b-4c51-8b5d-588abfd492cc"},"vehicle_type_id":"4","last_reported":1713391577,"current_range_meters":0,"station_id":"ce4bgih2rcd13ifvqba0","pricing_plan_id":"cebpf4jnsgd1na2vs0mg"},{"bike_id":"38613420-b56d-4afd-b2ab-4235cc940500","system_id":"levelo_inurba_marseille","lat":43.290624,"lon":5.359245,"is_reserved":false,"is_disabled":false,"rental_uris":{"android":"levelo://app?vid=38613420-b56d-4afd-b2ab-4235cc940500","ios":"levelo://app?vid=38613420-b56d-4afd-b2ab-4235cc940500"},"vehicle_type_id":"4","last_reported":1713391577,"current_range_meters":18800,"station_id":"ce4bha92rcd13ifvqeg0","pricing_plan_id":"cebpf4jnsgd1na2vs0mg"},{"bike_id":"53d54651-b68b-4c7a-9bc3-28c5a4f98f7a","system_id":"levelo_inurba_marseille","lat":43.290624,"lon":5.359245,"is_reserved":false,"is_disabled":false,"rental_uris":{"android":"levelo://app?vid=53d54651-b68b-4c7a-9bc3-28c5a4f98f7a","ios":"levelo://app?vid=53d54651-b68b-4c7a-9bc3-28c5a4f98f7a"},"vehicle_type_id":"4","last_reported":1713391577,"current_range_meters":20800,"station_id":"ce4bha92rcd13ifvqeg0","pricing_plan_id":"cebpf4jnsgd1na2vs0mg"},{"bike_id":"927521d3-ecb2-4cb8-a425-654f7a8930be","system_id":"levelo_inurba_marseille","lat":43.290624,"lon":5.359245,"is_reserved":false,"is_disabled":false,"rental_uris":{"android":"levelo://app?vid=927521d3-ecb2-4cb8-a425-654f7a8930be","ios":"levelo://app?vid=927521d3-ecb2-4cb8-a425-654f7a8930be"},"vehicle_type_id":"4","last_reported":1713391577,"current_range_meters":19600,"station_id":"ce4bha92rcd13ifvqeg0","pricing_plan_id":"cebpf4jnsgd1na2vs0mg"},{"bike_id":"651ac3cd-5772-4db6-82e4-efada5176bab","system_id":"levelo_inurba_marseille","lat":43.290624,"lon":5.359245,"is_reserved":false,"is_disabled":false,"rental_uris":{"android":"levelo://app?vid=651ac3cd-5772-4db6-82e4-efada5176bab","ios":"levelo://app?vid=651ac3cd-5772-4db6-82e4-efada5176bab"},"vehicle_type_id":"4","last_reported":1713391577,"current_range_meters":20800,"station_id":"ce4bha92rcd13ifvqeg0","pricing_plan_id":"cebpf4jnsgd1na2vs0mg"},{"bike_id":"d4c31041-a05a-4f6b-ad35-7a1b4ff0ffb6","system_id":"levelo_inurba_marseille","lat":43.290631,"lon":5.359244,"is_reserved":false,"is_disabled":false,"rental_uris":{"android":"levelo://app?vid=d4c31041-a05a-4f6b-ad35-7a1b4ff0ffb6","ios":"levelo://app?vid=d4c31041-a05a-4f6b-ad35-7a1b4ff0ffb6"},"vehicle_type_id":"4","last_reported":1713391577,"current_range_meters":25600,"station_id":"ce4bha92rcd13ifvqeg0","pricing_plan_id":"cebpf4jnsgd1na2vs0mg"},{"bike_id":"a3b10eef-12b7-4602-8204-4eb9b7d86663","system_id":"levelo_inurba_marseille","lat":43.290624,"lon":5.359245,"is_reserved":false,"is_disabled":false,"rental_uris":{"android":"levelo://app?vid=a3b10eef-12b7-4602-8204-4eb9b7d86663","ios":"levelo://app?vid=a3b10eef-12b7-4602-8204-4eb9b7d86663"},"vehicle_type_id":"4","last_reported":1713391577,"current_range_meters":19600,"station_id":"ce4bha92rcd13ifvqeg0","pricing_plan_id":"cebpf4jnsgd1na2vs0mg"},{"bike_id":"1233a182-f6d1-46b2-8f49-e4dd613afbcf","system_id":"levelo_inurba_marseille","lat":43.290631,"lon":5.359244,"is_reserved":false,"is_disabled":false,"rental_uris":{"android":"levelo://app?vid=1233a182-f6d1-46b2-8f49-e4dd613afbcf","ios":"levelo://app?vid=1233a182-f6d1-46b2-8f49-e4dd613afbcf"},"vehicle_type_id":"4","last_reported":1713391577,"current_range_meters":20400,"station_id":"ce4bha92rcd13ifvqeg0","pricing_plan_id":"cebpf4jnsgd1na2vs0mg"},{"bike_id":"538246eb-1c4f-4146-bfde-8d55858cac2e","system_id":"levelo_inurba_marseille","lat":43.290631,"lon":5.359244,"is_reserved":false,"is_disabled":false,"rental_uris":{"android":"levelo://app?vid=538246eb-1c4f-4146-bfde-8d55858cac2e","ios":"levelo://app?vid=538246eb-1c4f-4146-bfde-8d55858cac2e"},"vehicle_type_id":"4","last_reported":1713391577,"current_range_meters":16000,"station_id":"ce4bha92rcd13ifvqeg0","pricing_plan_id":"cebpf4jnsgd1na2vs0mg"},{"bike_id":"1fd2eadb-dc4c-4c30-ae8d-8eb5ba9ed886","system_id":"levelo_inurba_marseille","lat":43.290631,"lon":5.359244,"is_reserved":false,"is_disabled":false,"rental_uris":{"android":"levelo://app?vid=1fd2eadb-dc4c-4c30-ae8d-8eb5ba9ed886","ios":"levelo://app?vid=1fd2eadb-dc4c-4c30-ae8d-8eb5ba9ed886"},"vehicle_type_id":"4","last_reported":1713391577,"current_range_meters":13600,"station_id":"ce4bha92rcd13ifvqeg0","pricing_plan_id":"cebpf4jnsgd1na2vs0mg"},{"bike_id":"edc29c41-3ad6-4bcf-9214-28692b56db77","system_id":"levelo_inurba_marseille","lat":43.290624,"lon":5.359245,"is_reserved":false,"is_disabled":false,"rental_uris":{"android":"levelo://app?vid=edc29c41-3ad6-4bcf-9214-28692b56db77","ios":"levelo://app?vid=edc29c41-3ad6-4bcf-9214-28692b56db77"},"vehicle_type_id":"4","last_reported":1713391577,"current_range_meters":29600,"station_id":"ce4bha92rcd13ifvqeg0","pricing_plan_id":"cebpf4jnsgd1na2vs0mg"},{"bike_id":"6b684bc4-3aa0-485c-8a8c-1d05c852aae2","system_id":"levelo_inurba_marseille","lat":43.290624,"lon":5.359245,"is_reserved":false,"is_disabled":false,"rental_uris":{"android":"levelo://app?vid=6b684bc4-3aa0-485c-8a8c-1d05c852aae2","ios":"levelo://app?vid=6b684bc4-3aa0-485c-8a8c-1d05c852aae2"},"vehicle_type_id":"4","last_reported":1713391577,"current_range_meters":5200,"station_id":"ce4bha92rcd13ifvqeg0","pricing_plan_id":"cebpf4jnsgd1na2vs0mg"},{"bike_id":"2afcf7bf-a146-4549-aceb-716998525c6f","system_id":"levelo_inurba_marseille","lat":43.290631,"lon":5.359244,"is_reserved":false,"is_disabled":false,"rental_uris":{"android":"levelo://app?vid=2afcf7bf-a146-4549-aceb-716998525c6f","ios":"levelo://app?vid=2afcf7bf-a146-4549-aceb-716998525c6f"},"vehicle_type_id":"4","last_reported":1713391577,"current_range_meters":27600,"station_id":"ce4bha92rcd13ifvqeg0","pricing_plan_id":"cebpf4jnsgd1na2vs0mg"},{"bike_id":"5d947340-f5c3-491e-bc79-816e0f44653e","system_id":"levelo_inurba_marseille","lat":43.290631,"lon":5.359244,"is_reserved":false,"is_disabled":false,"rental_uris":{"android":"levelo://app?vid=5d947340-f5c3-491e-bc79-816e0f44653e","ios":"levelo://app?vid=5d947340-f5c3-491e-bc79-816e0f44653e"},"vehicle_type_id":"4","last_reported":1713391577,"current_range_meters":0,"station_id":"ce4bha92rcd13ifvqeg0","pricing_plan_id":"cebpf4jnsgd1na2vs0mg"},{"bike_id":"cb81c334-a7cb-4785-b3f2-42bac73f4dfa","system_id":"levelo_inurba_marseille","lat":43.290327,"lon":5.375711,"is_reserved":false,"is_disabled":false,"rental_uris":{"android":"levelo://app?vid=cb81c334-a7cb-4785-b3f2-42bac73f4dfa","ios":"levelo://app?vid=cb81c334-a7cb-4785-b3f2-42bac73f4dfa"},"vehicle_type_id":"4","last_reported":1713391577,"current_range_meters":10400,"station_id":"ce4bh692rcd13ifvqe90","pricing_plan_id":"cebpf4jnsgd1na2vs0mg"},{"bike_id":"245f3269-7213-463b-9dd2-20e575f3cc1f","system_id":"levelo_inurba_marseille","lat":43.28941,"lon":5.36642,"is_reserved":false,"is_disabled":false,"rental_uris":{"android":"levelo://app?vid=245f3269-7213-463b-9dd2-20e575f3cc1f","ios":"levelo://app?vid=245f3269-7213-463b-9dd2-20e575f3cc1f"},"vehicle_type_id":"4","last_reported":1713391577,"current_range_meters":0,"station_id":"ce4bhap2rcd13ifvqek0","pricing_plan_id":"cebpf4jnsgd1na2vs0mg"},{"bike_id":"7e67e6a5-453c-4258-b04e-62cd8c5f215b","system_id":"levelo_inurba_marseille","lat":43.289468,"lon":5.363719,"is_reserved":false,"is_disabled":false,"rental_uris":{"android":"levelo://app?vid=7e67e6a5-453c-4258-b04e-62cd8c5f215b","ios":"levelo://app?vid=7e67e6a5-453c-4258-b04e-62cd8c5f215b"},"vehicle_type_id":"4","last_reported":1713391577,"current_range_meters":12400,"station_id":"ce4bhc92rcd13ifvqetg","pricing_plan_id":"cebpf4jnsgd1na2vs0mg"},{"bike_id":"5eb93727-e203-44e2-80d5-9024cf9e6a86","system_id":"levelo_inurba_marseille","lat":43.2894,"lon":5.36641,"is_reserved":false,"is_disabled":false,"rental_uris":{"android":"levelo://app?vid=5eb93727-e203-44e2-80d5-9024cf9e6a86","ios":"levelo://app?vid=5eb93727-e203-44e2-80d5-9024cf9e6a86"},"vehicle_type_id":"4","last_reported":1713391577,"current_range_meters":14000,"station_id":"ce4bhap2rcd13ifvqek0","pricing_plan_id":"cebpf4jnsgd1na2vs0mg"},{"bike_id":"e815c2e3-e267-4e0a-bc8a-c34d92e62aa1","system_id":"levelo_inurba_marseille","lat":43.28937,"lon":5.36629,"is_reserved":false,"is_disabled":false,"rental_uris":{"android":"levelo://app?vid=e815c2e3-e267-4e0a-bc8a-c34d92e62aa1","ios":"levelo://app?vid=e815c2e3-e267-4e0a-bc8a-c34d92e62aa1"},"vehicle_type_id":"4","last_reported":1713391577,"current_range_meters":26800,"station_id":"ce4bhap2rcd13ifvqek0","pricing_plan_id":"cebpf4jnsgd1na2vs0mg"},{"bike_id":"81a2b8de-b334-4545-ac04-924c49f718fb","system_id":"levelo_inurba_marseille","lat":43.28935,"lon":5.36638,"is_reserved":false,"is_disabled":false,"rental_uris":{"android":"levelo://app?vid=81a2b8de-b334-4545-ac04-924c49f718fb","ios":"levelo://app?vid=81a2b8de-b334-4545-ac04-924c49f718fb"},"vehicle_type_id":"4","last_reported":1713391577,"current_range_meters":3200,"station_id":"ce4bhap2rcd13ifvqek0","pricing_plan_id":"cebpf4jnsgd1na2vs0mg"},{"bike_id":"23ff9eb8-15c8-443b-b74d-247a9d383ea5","system_id":"levelo_inurba_marseille","lat":43.289468,"lon":5.363719,"is_reserved":false,"is_disabled":false,"rental_uris":{"android":"levelo://app?vid=23ff9eb8-15c8-443b-b74d-247a9d383ea5","ios":"levelo://app?vid=23ff9eb8-15c8-443b-b74d-247a9d383ea5"},"vehicle_type_id":"4","last_reported":1713391577,"current_range_meters":26400,"station_id":"ce4bhc92rcd13ifvqetg","pricing_plan_id":"cebpf4jnsgd1na2vs0mg"},{"bike_id":"95ffa579-88c5-4395-a2dc-fc1cd417692c","system_id":"levelo_inurba_marseille","lat":43.289468,"lon":5.363719,"is_reserved":false,"is_disabled":false,"rental_uris":{"android":"levelo://app?vid=95ffa579-88c5-4395-a2dc-fc1cd417692c","ios":"levelo://app?vid=95ffa579-88c5-4395-a2dc-fc1cd417692c"},"vehicle_type_id":"4","last_reported":1713391577,"current_range_meters":5600,"station_id":"ce4bhc92rcd13ifvqetg","pricing_plan_id":"cebpf4jnsgd1na2vs0mg"},{"bike_id":"559b6df3-4100-4c86-b9be-bd15ddd08c5e","system_id":"levelo_inurba_marseille","lat":43.289468,"lon":5.363719,"is_reserved":false,"is_disabled":false,"rental_uris":{"android":"levelo://app?vid=559b6df3-4100-4c86-b9be-bd15ddd08c5e","ios":"levelo://app?vid=559b6df3-4100-4c86-b9be-bd15ddd08c5e"},"vehicle_type_id":"4","last_reported":1713391577,"current_range_meters":14000,"station_id":"ce4bhc92rcd13ifvqetg","pricing_plan_id":"cebpf4jnsgd1na2vs0mg"},{"bike_id":"4d73f95c-c0d5-492b-8ede-185fa21624cf","system_id":"levelo_inurba_marseille","lat":43.289468,"lon":5.363719,"is_reserved":false,"is_disabled":false,"rental_uris":{"android":"levelo://app?vid=4d73f95c-c0d5-492b-8ede-185fa21624cf","ios":"levelo://app?vid=4d73f95c-c0d5-492b-8ede-185fa21624cf"},"vehicle_type_id":"4","last_reported":1713391577,"current_range_meters":14400,"station_id":"ce4bhc92rcd13ifvqetg","pricing_plan_id":"cebpf4jnsgd1na2vs0mg"},{"bike_id":"95cb39e1-d9bb-428f-bba3-03cefd0c5d79","system_id":"levelo_inurba_marseille","lat":43.289468,"lon":5.363719,"is_reserved":false,"is_disabled":false,"rental_uris":{"android":"levelo://app?vid=95cb39e1-d9bb-428f-bba3-03cefd0c5d79","ios":"levelo://app?vid=95cb39e1-d9bb-428f-bba3-03cefd0c5d79"},"vehicle_type_id":"4","last_reported":1713391577,"current_range_meters":4400,"station_id":"ce4bhc92rcd13ifvqetg","pricing_plan_id":"cebpf4jnsgd1na2vs0mg"},{"bike_id":"2aa13c0e-b609-4d39-b2c5-17fd900a427c","system_id":"levelo_inurba_marseille","lat":43.292644,"lon":5.384257,"is_reserved":false,"is_disabled":false,"rental_uris":{"android":"levelo://app?vid=2aa13c0e-b609-4d39-b2c5-17fd900a427c","ios":"levelo://app?vid=2aa13c0e-b609-4d39-b2c5-17fd900a427c"},"vehicle_type_id":"4","last_reported":1713391577,"current_range_meters":21600,"station_id":"ce4bh692rcd13ifvqea0","pricing_plan_id":"cebpf4jnsgd1na2vs0mg"},{"bike_id":"b04d0d95-245b-4a2d-8ae9-7716d5450ee5","system_id":"levelo_inurba_marseille","lat":43.292644,"lon":5.384257,"is_reserved":false,"is_disabled":false,"rental_uris":{"android":"levelo://app?vid=b04d0d95-245b-4a2d-8ae9-7716d5450ee5","ios":"levelo://app?vid=b04d0d95-245b-4a2d-8ae9-7716d5450ee5"},"vehicle_type_id":"4","last_reported":1713391577,"current_range_meters":0,"station_id":"ce4bh692rcd13ifvqea0","pricing_plan_id":"cebpf4jnsgd1na2vs0mg"},{"bike_id":"24602b3f-fad0-43b3-8b37-933fbc93017f","system_id":"levelo_inurba_marseille","lat":43.304158,"lon":5.397525,"is_reserved":false,"is_disabled":false,"rental_uris":{"android":"levelo://app?vid=24602b3f-fad0-43b3-8b37-933fbc93017f","ios":"levelo://app?vid=24602b3f-fad0-43b3-8b37-933fbc93017f"},"vehicle_type_id":"4","last_reported":1713391577,"current_range_meters":26400,"station_id":"ce4bh092rcd13ifvqd20","pricing_plan_id":"cebpf4jnsgd1na2vs0mg"},{"bike_id":"ae4a1880-81d8-47c4-9f6d-ef2d325d0aaa","system_id":"levelo_inurba_marseille","lat":43.29254,"lon":5.38454,"is_reserved":false,"is_disabled":false,"rental_uris":{"android":"levelo://app?vid=ae4a1880-81d8-47c4-9f6d-ef2d325d0aaa","ios":"levelo://app?vid=ae4a1880-81d8-47c4-9f6d-ef2d325d0aaa"},"vehicle_type_id":"4","last_reported":1713391577,"current_range_meters":20800,"station_id":"","pricing_plan_id":"cebpf4jnsgd1na2vs0mg"},{"bike_id":"d2374582-8f2e-4c76-ae00-367abff09613","system_id":"levelo_inurba_marseille","lat":43.290104,"lon":5.356111,"is_reserved":false,"is_disabled":false,"rental_uris":{"android":"levelo://app?vid=d2374582-8f2e-4c76-ae00-367abff09613","ios":"levelo://app?vid=d2374582-8f2e-4c76-ae00-367abff09613"},"vehicle_type_id":"4","last_reported":1713391577,"current_range_meters":29600,"station_id":"ce4bhb92rcd13ifvqen0","pricing_plan_id":"cebpf4jnsgd1na2vs0mg"},{"bike_id":"766e308f-2b17-4692-a169-c8907d2b6679","system_id":"levelo_inurba_marseille","lat":43.290104,"lon":5.356111,"is_reserved":false,"is_disabled":false,"rental_uris":{"android":"levelo://app?vid=766e308f-2b17-4692-a169-c8907d2b6679","ios":"levelo://app?vid=766e308f-2b17-4692-a169-c8907d2b6679"},"vehicle_type_id":"4","last_reported":1713391577,"current_range_meters":20800,"station_id":"ce4bhb92rcd13ifvqen0","pricing_plan_id":"cebpf4jnsgd1na2vs0mg"},{"bike_id":"e9767687-042f-46db-8dc0-7c105d1eb04d","system_id":"levelo_inurba_marseille","lat":43.29007,"lon":5.35614,"is_reserved":false,"is_disabled":false,"rental_uris":{"android":"levelo://app?vid=e9767687-042f-46db-8dc0-7c105d1eb04d","ios":"levelo://app?vid=e9767687-042f-46db-8dc0-7c105d1eb04d"},"vehicle_type_id":"4","last_reported":1713391577,"current_range_meters":22400,"station_id":"ce4bhb92rcd13ifvqen0","pricing_plan_id":"cebpf4jnsgd1na2vs0mg"},{"bike_id":"90376083-1b66-41e0-8815-30466fce7973","system_id":"levelo_inurba_marseille","lat":43.290104,"lon":5.356111,"is_reserved":false,"is_disabled":false,"rental_uris":{"android":"levelo://app?vid=90376083-1b66-41e0-8815-30466fce7973","ios":"levelo://app?vid=90376083-1b66-41e0-8815-30466fce7973"},"vehicle_type_id":"4","last_reported":1713391577,"current_range_meters":16800,"station_id":"ce4bhb92rcd13ifvqen0","pricing_plan_id":"cebpf4jnsgd1na2vs0mg"},{"bike_id":"e0d84076-f8d0-4447-bf19-47aa7d76a5d7","system_id":"levelo_inurba_marseille","lat":43.290104,"lon":5.356111,"is_reserved":false,"is_disabled":false,"rental_uris":{"android":"levelo://app?vid=e0d84076-f8d0-4447-bf19-47aa7d76a5d7","ios":"levelo://app?vid=e0d84076-f8d0-4447-bf19-47aa7d76a5d7"},"vehicle_type_id":"4","last_reported":1713391577,"current_range_meters":24800,"station_id":"ce4bhb92rcd13ifvqen0","pricing_plan_id":"cebpf4jnsgd1na2vs0mg"},{"bike_id":"aa0d69ee-e81c-4e88-90d3-d789e6a2e0b9","system_id":"levelo_inurba_marseille","lat":43.290104,"lon":5.356111,"is_reserved":false,"is_disabled":false,"rental_uris":{"android":"levelo://app?vid=aa0d69ee-e81c-4e88-90d3-d789e6a2e0b9","ios":"levelo://app?vid=aa0d69ee-e81c-4e88-90d3-d789e6a2e0b9"},"vehicle_type_id":"4","last_reported":1713391577,"current_range_meters":22400,"station_id":"ce4bhb92rcd13ifvqen0","pricing_plan_id":"cebpf4jnsgd1na2vs0mg"},{"bike_id":"9246d81b-828e-449f-a5b0-82e8bf829e1a","system_id":"levelo_inurba_marseille","lat":43.290104,"lon":5.356111,"is_reserved":false,"is_disabled":false,"rental_uris":{"android":"levelo://app?vid=9246d81b-828e-449f-a5b0-82e8bf829e1a","ios":"levelo://app?vid=9246d81b-828e-449f-a5b0-82e8bf829e1a"},"vehicle_type_id":"4","last_reported":1713391577,"current_range_meters":20400,"station_id":"ce4bhb92rcd13ifvqen0","pricing_plan_id":"cebpf4jnsgd1na2vs0mg"},{"bike_id":"9b3ecb1b-2511-456a-949e-24c01f5fd153","system_id":"levelo_inurba_marseille","lat":43.29003,"lon":5.35611,"is_reserved":false,"is_disabled":false,"rental_uris":{"android":"levelo://app?vid=9b3ecb1b-2511-456a-949e-24c01f5fd153","ios":"levelo://app?vid=9b3ecb1b-2511-456a-949e-24c01f5fd153"},"vehicle_type_id":"4","last_reported":1713391577,"current_range_meters":27600,"station_id":"ce4bhb92rcd13ifvqen0","pricing_plan_id":"cebpf4jnsgd1na2vs0mg"},{"bike_id":"5beb70c0-e15f-4147-b5b2-5d72d7f4fe38","system_id":"levelo_inurba_marseille","lat":43.290104,"lon":5.356111,"is_reserved":false,"is_disabled":false,"rental_uris":{"android":"levelo://app?vid=5beb70c0-e15f-4147-b5b2-5d72d7f4fe38","ios":"levelo://app?vid=5beb70c0-e15f-4147-b5b2-5d72d7f4fe38"},"vehicle_type_id":"4","last_reported":1713391577,"current_range_meters":31200,"station_id":"ce4bhb92rcd13ifvqen0","pricing_plan_id":"cebpf4jnsgd1na2vs0mg"},{"bike_id":"02226c3d-2054-4417-b849-dbcfa6d85dd4","system_id":"levelo_inurba_marseille","lat":43.290995,"lon":5.381361,"is_reserved":false,"is_disabled":false,"rental_uris":{"android":"levelo://app?vid=02226c3d-2054-4417-b849-dbcfa6d85dd4","ios":"levelo://app?vid=02226c3d-2054-4417-b849-dbcfa6d85dd4"},"vehicle_type_id":"4","last_reported":1713391577,"current_range_meters":26400,"station_id":"ce4bh512rcd13ifvqe2g","pricing_plan_id":"cebpf4jnsgd1na2vs0mg"},{"bike_id":"f55af0aa-6a23-48d0-8368-981c31add818","system_id":"levelo_inurba_marseille","lat":43.290995,"lon":5.381361,"is_reserved":false,"is_disabled":false,"rental_uris":{"android":"levelo://app?vid=f55af0aa-6a23-48d0-8368-981c31add818","ios":"levelo://app?vid=f55af0aa-6a23-48d0-8368-981c31add818"},"vehicle_type_id":"4","last_reported":1713391577,"current_range_meters":25200,"station_id":"ce4bh512rcd13ifvqe2g","pricing_plan_id":"cebpf4jnsgd1na2vs0mg"},{"bike_id":"de841a33-5939-4f33-a46d-5b9b254f5882","system_id":"levelo_inurba_marseille","lat":43.29795,"lon":5.39335,"is_reserved":false,"is_disabled":false,"rental_uris":{"android":"levelo://app?vid=de841a33-5939-4f33-a46d-5b9b254f5882","ios":"levelo://app?vid=de841a33-5939-4f33-a46d-5b9b254f5882"},"vehicle_type_id":"4","last_reported":1713391577,"current_range_meters":16800,"station_id":"chh1huq6cuj3fo74tm60","pricing_plan_id":"cebpf4jnsgd1na2vs0mg"},{"bike_id":"bda6e2cb-ec80-4472-b5b7-c5a14e54fcac","system_id":"levelo_inurba_marseille","lat":43.290624,"lon":5.359245,"is_reserved":false,"is_disabled":false,"rental_uris":{"android":"levelo://app?vid=bda6e2cb-ec80-4472-b5b7-c5a14e54fcac","ios":"levelo://app?vid=bda6e2cb-ec80-4472-b5b7-c5a14e54fcac"},"vehicle_type_id":"4","last_reported":1713391577,"current_range_meters":24000,"station_id":"ce4bha92rcd13ifvqeg0","pricing_plan_id":"cebpf4jnsgd1na2vs0mg"},{"bike_id":"c8d390d8-97e0-473e-9311-cf9ef746f33c","system_id":"levelo_inurba_marseille","lat":43.297815,"lon":5.393548,"is_reserved":false,"is_disabled":false,"rental_uris":{"android":"levelo://app?vid=c8d390d8-97e0-473e-9311-cf9ef746f33c","ios":"levelo://app?vid=c8d390d8-97e0-473e-9311-cf9ef746f33c"},"vehicle_type_id":"4","last_reported":1713391577,"current_range_meters":27600,"station_id":"chh1huq6cuj3fo74tm60","pricing_plan_id":"cebpf4jnsgd1na2vs0mg"},{"bike_id":"fdf239f7-32d2-4dab-bfbc-47b44c3ee6db","system_id":"levelo_inurba_marseille","lat":43.297911,"lon":5.39344,"is_reserved":false,"is_disabled":false,"rental_uris":{"android":"levelo://app?vid=fdf239f7-32d2-4dab-bfbc-47b44c3ee6db","ios":"levelo://app?vid=fdf239f7-32d2-4dab-bfbc-47b44c3ee6db"},"vehicle_type_id":"4","last_reported":1713391577,"current_range_meters":0,"station_id":"chh1huq6cuj3fo74tm60","pricing_plan_id":"cebpf4jnsgd1na2vs0mg"},{"bike_id":"35f3d170-9b8b-4d14-9cc7-ae0168d6fefa","system_id":"levelo_inurba_marseille","lat":43.304274,"lon":5.397513,"is_reserved":false,"is_disabled":false,"rental_uris":{"android":"levelo://app?vid=35f3d170-9b8b-4d14-9cc7-ae0168d6fefa","ios":"levelo://app?vid=35f3d170-9b8b-4d14-9cc7-ae0168d6fefa"},"vehicle_type_id":"4","last_reported":1713391577,"current_range_meters":18000,"station_id":"ce4bh092rcd13ifvqd20","pricing_plan_id":"cebpf4jnsgd1na2vs0mg"},{"bike_id":"442b5653-190e-4c88-90b4-71d0a8b7f92e","system_id":"levelo_inurba_marseille","lat":43.297812,"lon":5.393362,"is_reserved":false,"is_disabled":false,"rental_uris":{"android":"levelo://app?vid=442b5653-190e-4c88-90b4-71d0a8b7f92e","ios":"levelo://app?vid=442b5653-190e-4c88-90b4-71d0a8b7f92e"},"vehicle_type_id":"4","last_reported":1713391577,"current_range_meters":22400,"station_id":"chh1huq6cuj3fo74tm60","pricing_plan_id":"cebpf4jnsgd1na2vs0mg"},{"bike_id":"67dee715-c539-4842-844e-946648ada5ce","system_id":"levelo_inurba_marseille","lat":43.291994,"lon":5.357886,"is_reserved":false,"is_disabled":false,"rental_uris":{"android":"levelo://app?vid=67dee715-c539-4842-844e-946648ada5ce","ios":"levelo://app?vid=67dee715-c539-4842-844e-946648ada5ce"},"vehicle_type_id":"4","last_reported":1713391577,"current_range_meters":6000,"station_id":"ce4bhb12rcd13ifvqel0","pricing_plan_id":"cebpf4jnsgd1na2vs0mg"},{"bike_id":"98718546-3a0c-4cb1-b1d2-c9c71949a919","system_id":"levelo_inurba_marseille","lat":43.297815,"lon":5.393548,"is_reserved":false,"is_disabled":false,"rental_uris":{"android":"levelo://app?vid=98718546-3a0c-4cb1-b1d2-c9c71949a919","ios":"levelo://app?vid=98718546-3a0c-4cb1-b1d2-c9c71949a919"},"vehicle_type_id":"4","last_reported":1713391577,"current_range_meters":9600,"station_id":"chh1huq6cuj3fo74tm60","pricing_plan_id":"cebpf4jnsgd1na2vs0mg"},{"bike_id":"cf8575e4-9023-46d3-817b-6c802dfb99df","system_id":"levelo_inurba_marseille","lat":43.297815,"lon":5.393548,"is_reserved":false,"is_disabled":false,"rental_uris":{"android":"levelo://app?vid=cf8575e4-9023-46d3-817b-6c802dfb99df","ios":"levelo://app?vid=cf8575e4-9023-46d3-817b-6c802dfb99df"},"vehicle_type_id":"4","last_reported":1713391577,"current_range_meters":26400,"station_id":"chh1huq6cuj3fo74tm60","pricing_plan_id":"cebpf4jnsgd1na2vs0mg"},{"bike_id":"58d75986-a79c-42c9-8e16-cb202ce7c0dd","system_id":"levelo_inurba_marseille","lat":43.297815,"lon":5.393548,"is_reserved":false,"is_disabled":false,"rental_uris":{"android":"levelo://app?vid=58d75986-a79c-42c9-8e16-cb202ce7c0dd","ios":"levelo://app?vid=58d75986-a79c-42c9-8e16-cb202ce7c0dd"},"vehicle_type_id":"4","last_reported":1713391577,"current_range_meters":400,"station_id":"chh1huq6cuj3fo74tm60","pricing_plan_id":"cebpf4jnsgd1na2vs0mg"},{"bike_id":"4571ddd8-1a3e-4034-b38c-c1fb89b57d4c","system_id":"levelo_inurba_marseille","lat":43.330442,"lon":5.389148,"is_reserved":false,"is_disabled":false,"rental_uris":{"android":"levelo://app?vid=4571ddd8-1a3e-4034-b38c-c1fb89b57d4c","ios":"levelo://app?vid=4571ddd8-1a3e-4034-b38c-c1fb89b57d4c"},"vehicle_type_id":"4","last_reported":1713391577,"current_range_meters":29200,"station_id":"ce4bhr92rcd13ifvqhrg","pricing_plan_id":"cebpf4jnsgd1na2vs0mg"},{"bike_id":"6855e457-8605-4d68-a08e-9384d9d222ca","system_id":"levelo_inurba_marseille","lat":43.297815,"lon":5.393548,"is_reserved":false,"is_disabled":false,"rental_uris":{"android":"levelo://app?vid=6855e457-8605-4d68-a08e-9384d9d222ca","ios":"levelo://app?vid=6855e457-8605-4d68-a08e-9384d9d222ca"},"vehicle_type_id":"4","last_reported":1713391577,"current_range_meters":24800,"station_id":"chh1huq6cuj3fo74tm60","pricing_plan_id":"cebpf4jnsgd1na2vs0mg"},{"bike_id":"eea06f9f-fff2-4513-bc3e-95d0879a21c6","system_id":"levelo_inurba_marseille","lat":43.297815,"lon":5.393548,"is_reserved":false,"is_disabled":false,"rental_uris":{"android":"levelo://app?vid=eea06f9f-fff2-4513-bc3e-95d0879a21c6","ios":"levelo://app?vid=eea06f9f-fff2-4513-bc3e-95d0879a21c6"},"vehicle_type_id":"4","last_reported":1713391577,"current_range_meters":22400,"station_id":"chh1huq6cuj3fo74tm60","pricing_plan_id":"cebpf4jnsgd1na2vs0mg"},{"bike_id":"18cedea9-c9b4-46a1-92ce-f4d75adb78c4","system_id":"levelo_inurba_marseille","lat":43.330442,"lon":5.389148,"is_reserved":false,"is_disabled":false,"rental_uris":{"android":"levelo://app?vid=18cedea9-c9b4-46a1-92ce-f4d75adb78c4","ios":"levelo://app?vid=18cedea9-c9b4-46a1-92ce-f4d75adb78c4"},"vehicle_type_id":"4","last_reported":1713391577,"current_range_meters":22800,"station_id":"ce4bhr92rcd13ifvqhrg","pricing_plan_id":"cebpf4jnsgd1na2vs0mg"},{"bike_id":"22cbf198-4ac5-4b78-af9c-f8eb618cd3c3","system_id":"levelo_inurba_marseille","lat":43.330442,"lon":5.389148,"is_reserved":false,"is_disabled":false,"rental_uris":{"android":"levelo://app?vid=22cbf198-4ac5-4b78-af9c-f8eb618cd3c3","ios":"levelo://app?vid=22cbf198-4ac5-4b78-af9c-f8eb618cd3c3"},"vehicle_type_id":"4","last_reported":1713391577,"current_range_meters":31600,"station_id":"ce4bhr92rcd13ifvqhrg","pricing_plan_id":"cebpf4jnsgd1na2vs0mg"},{"bike_id":"7f3e377a-cc87-4561-b621-29cf3ad9b882","system_id":"levelo_inurba_marseille","lat":43.297815,"lon":5.393548,"is_reserved":false,"is_disabled":false,"rental_uris":{"android":"levelo://app?vid=7f3e377a-cc87-4561-b621-29cf3ad9b882","ios":"levelo://app?vid=7f3e377a-cc87-4561-b621-29cf3ad9b882"},"vehicle_type_id":"4","last_reported":1713391577,"current_range_meters":0,"station_id":"chh1huq6cuj3fo74tm60","pricing_plan_id":"cebpf4jnsgd1na2vs0mg"},{"bike_id":"4f9184b9-e6bd-4204-b01b-d090b1f41907","system_id":"levelo_inurba_marseille","lat":43.330442,"lon":5.389148,"is_reserved":false,"is_disabled":false,"rental_uris":{"android":"levelo://app?vid=4f9184b9-e6bd-4204-b01b-d090b1f41907","ios":"levelo://app?vid=4f9184b9-e6bd-4204-b01b-d090b1f41907"},"vehicle_type_id":"4","last_reported":1713391577,"current_range_meters":27600,"station_id":"ce4bhr92rcd13ifvqhrg","pricing_plan_id":"cebpf4jnsgd1na2vs0mg"},{"bike_id":"4443b85d-8061-43a8-9e8c-f0c0f3f8a113","system_id":"levelo_inurba_marseille","lat":43.330442,"lon":5.389148,"is_reserved":false,"is_disabled":false,"rental_uris":{"android":"levelo://app?vid=4443b85d-8061-43a8-9e8c-f0c0f3f8a113","ios":"levelo://app?vid=4443b85d-8061-43a8-9e8c-f0c0f3f8a113"},"vehicle_type_id":"4","last_reported":1713391577,"current_range_meters":26800,"station_id":"ce4bhr92rcd13ifvqhrg","pricing_plan_id":"cebpf4jnsgd1na2vs0mg"},{"bike_id":"086976ff-7dae-4647-9a6c-afb024a7db88","system_id":"levelo_inurba_marseille","lat":43.330442,"lon":5.389148,"is_reserved":false,"is_disabled":false,"rental_uris":{"android":"levelo://app?vid=086976ff-7dae-4647-9a6c-afb024a7db88","ios":"levelo://app?vid=086976ff-7dae-4647-9a6c-afb024a7db88"},"vehicle_type_id":"4","last_reported":1713391577,"current_range_meters":19600,"station_id":"ce4bhr92rcd13ifvqhrg","pricing_plan_id":"cebpf4jnsgd1na2vs0mg"},{"bike_id":"1e6210b7-529a-47f5-8faf-a0ce468c4ae3","system_id":"levelo_inurba_marseille","lat":43.330442,"lon":5.389148,"is_reserved":false,"is_disabled":false,"rental_uris":{"android":"levelo://app?vid=1e6210b7-529a-47f5-8faf-a0ce468c4ae3","ios":"levelo://app?vid=1e6210b7-529a-47f5-8faf-a0ce468c4ae3"},"vehicle_type_id":"4","last_reported":1713391577,"current_range_meters":31600,"station_id":"ce4bhr92rcd13ifvqhrg","pricing_plan_id":"cebpf4jnsgd1na2vs0mg"},{"bike_id":"70cdee19-822a-4fff-a05d-2b8d9b3d4f9d","system_id":"levelo_inurba_marseille","lat":43.28873,"lon":5.3584,"is_reserved":false,"is_disabled":false,"rental_uris":{"android":"levelo://app?vid=70cdee19-822a-4fff-a05d-2b8d9b3d4f9d","ios":"levelo://app?vid=70cdee19-822a-4fff-a05d-2b8d9b3d4f9d"},"vehicle_type_id":"4","last_reported":1713391577,"current_range_meters":7200,"station_id":"ce4bhb12rcd13ifvqem0","pricing_plan_id":"cebpf4jnsgd1na2vs0mg"},{"bike_id":"3129af6e-fda5-4e50-a48a-6c6e15889265","system_id":"levelo_inurba_marseille","lat":43.28856,"lon":5.358371,"is_reserved":false,"is_disabled":false,"rental_uris":{"android":"levelo://app?vid=3129af6e-fda5-4e50-a48a-6c6e15889265","ios":"levelo://app?vid=3129af6e-fda5-4e50-a48a-6c6e15889265"},"vehicle_type_id":"4","last_reported":1713391577,"current_range_meters":21200,"station_id":"ce4bhb12rcd13ifvqem0","pricing_plan_id":"cebpf4jnsgd1na2vs0mg"},{"bike_id":"340c5316-6de2-4e54-bd77-299bd97bedf7","system_id":"levelo_inurba_marseille","lat":43.28856,"lon":5.358371,"is_reserved":false,"is_disabled":false,"rental_uris":{"android":"levelo://app?vid=340c5316-6de2-4e54-bd77-299bd97bedf7","ios":"levelo://app?vid=340c5316-6de2-4e54-bd77-299bd97bedf7"},"vehicle_type_id":"4","last_reported":1713391577,"current_range_meters":27200,"station_id":"ce4bhb12rcd13ifvqem0","pricing_plan_id":"cebpf4jnsgd1na2vs0mg"},{"bike_id":"57b746a8-b03a-48cc-b72e-1b609fa6c5fe","system_id":"levelo_inurba_marseille","lat":43.28856,"lon":5.358371,"is_reserved":false,"is_disabled":false,"rental_uris":{"android":"levelo://app?vid=57b746a8-b03a-48cc-b72e-1b609fa6c5fe","ios":"levelo://app?vid=57b746a8-b03a-48cc-b72e-1b609fa6c5fe"},"vehicle_type_id":"4","last_reported":1713391577,"current_range_meters":4400,"station_id":"ce4bhb12rcd13ifvqem0","pricing_plan_id":"cebpf4jnsgd1na2vs0mg"},{"bike_id":"3eeb1717-e8a3-4a1d-a07e-80df09c3c142","system_id":"levelo_inurba_marseille","lat":43.28856,"lon":5.358371,"is_reserved":false,"is_disabled":false,"rental_uris":{"android":"levelo://app?vid=3eeb1717-e8a3-4a1d-a07e-80df09c3c142","ios":"levelo://app?vid=3eeb1717-e8a3-4a1d-a07e-80df09c3c142"},"vehicle_type_id":"4","last_reported":1713391577,"current_range_meters":8400,"station_id":"ce4bhb12rcd13ifvqem0","pricing_plan_id":"cebpf4jnsgd1na2vs0mg"},{"bike_id":"7ac095c8-125c-4f33-892c-bc83cf832599","system_id":"levelo_inurba_marseille","lat":43.28856,"lon":5.358371,"is_reserved":false,"is_disabled":false,"rental_uris":{"android":"levelo://app?vid=7ac095c8-125c-4f33-892c-bc83cf832599","ios":"levelo://app?vid=7ac095c8-125c-4f33-892c-bc83cf832599"},"vehicle_type_id":"4","last_reported":1713391577,"current_range_meters":31200,"station_id":"ce4bhb12rcd13ifvqem0","pricing_plan_id":"cebpf4jnsgd1na2vs0mg"},{"bike_id":"722fe8dc-2696-4409-a523-97cca4f0c999","system_id":"levelo_inurba_marseille","lat":43.28856,"lon":5.358371,"is_reserved":false,"is_disabled":false,"rental_uris":{"android":"levelo://app?vid=722fe8dc-2696-4409-a523-97cca4f0c999","ios":"levelo://app?vid=722fe8dc-2696-4409-a523-97cca4f0c999"},"vehicle_type_id":"4","last_reported":1713391577,"current_range_meters":0,"station_id":"ce4bhb12rcd13ifvqem0","pricing_plan_id":"cebpf4jnsgd1na2vs0mg"},