{"last_updated":1686348363,"ttl":30,"version":"2.2","data":{"bikes":[{"bike_id":"85074bdb-639b-4cc3-9359-8a6f756c1e17","system_id":"levelo_inurba_marseille","lat":43.3123,"lon":5.3686,"is_reserved":false,"is_disabled":false,"rental_uris":{"android":"levelo://app?vid=85074bdb-639b-4cc3-9359-8a6f756c1e17","ios":"levelo://app?vid=85074bdb-639b-4cc3-9359-8a6f756c1e17"},"vehicle_type_id":"4","last_reported":1686348364,"current_range_meters":22400,"station_id":"ce4bgl92rcd13ifvqbq0","pricing_plan_id":"free"},{"bike_id":"e215e44b-264e-4626-ae88-2d3a12aefe09","system_id":"levelo_inurba_marseille","lat":43.309076,"lon":5.368465,"is_reserved":false,"is_disabled":false,"rental_uris":{"android":"levelo://app?vid=e215e44b-264e-4626-ae88-2d3a12aefe09","ios":"levelo://app?vid=e215e44b-264e-4626-ae88-2d3a12aefe09"},"vehicle_type_id":"4","last_reported":1686348364,"current_range_meters":16000,"station_id":"ce4bgn92rcd13ifvqbvg","pricing_plan_id":"free"},{"bike_id":"6d6eb2b3-f673-443c-a2fb-9ee3a2f19bd4","system_id":"levelo_inurba_marseille","lat":43.31492,"lon":5.37309,"is_reserved":false,"is_disabled":false,"rental_uris":{"android":"levelo://app?vid=6d6eb2b3-f673-443c-a2fb-9ee3a2f19bd4","ios":"levelo://app?vid=6d6eb2b3-f673-443c-a2fb-9ee3a2f19bd4"},"vehicle_type_id":"4","last_reported":1686348364,"current_range_meters":30000,"station_id":"ce4bgt12rcd13ifvqcd0","pricing_plan_id":"free"},{"bike_id":"2dbc8303-1e1a-4d08-9dee-6babc9247d38","system_id":"levelo_inurba_marseille","lat":43.30686,"lon":5.36602,"is_reserved":false,"is_disabled":false,"rental_uris":{"android":"levelo://app?vid=2dbc8303-1e1a-4d08-9dee-6babc9247d38","ios":"levelo://app?vid=2dbc8303-1e1a-4d08-9dee-6babc9247d38"},"vehicle_type_id":"4","last_reported":1686348364,"current_range_meters":28000,"station_id":"","pricing_plan_id":"free"},{"bike_id":"726e69fe-0789-44cc-8872-aafade0684ce","system_id":"levelo_inurba_marseille","lat":43.306,"lon":5.36574,"is_reserved":false,"is_disabled":false,"rental_uris":{"android":"levelo://app?vid=726e69fe-0789-44cc-8872-aafade0684ce","ios":"levelo://app?vid=726e69fe-0789-44cc-8872-aafade0684ce"},"vehicle_type_id":"4","last_reported":1686348364,"current_range_meters":12400,"station_id":"","pricing_plan_id":"free"},{"bike_id":"e13287f9-25c2-4ec5-8ab9-d8a96da95b66","system_id":"levelo_inurba_marseille","lat":43.31597,"lon":5.37636,"is_reserved":false,"is_disabled":false,"rental_uris":{"android":"levelo://app?vid=e13287f9-25c2-4ec5-8ab9-d8a96da95b66","ios":"levelo://app?vid=e13287f9-25c2-4ec5-8ab9-d8a96da95b66"},"vehicle_type_id":"4","last_reported":1686348364,"current_range_meters":15200,"station_id":"","pricing_plan_id":"free"},{"bike_id":"601b1d41-4dde-448e-bdd8-806988314781","system_id":"levelo_inurba_marseille","lat":43.31449,"lon":5.37709,"is_reserved":false,"is_disabled":false,"rental_uris":{"android":"levelo://app?vid=601b1d41-4dde-448e-bdd8-806988314781","ios":"levelo://app?vid=601b1d41-4dde-448e-bdd8-806988314781"},"vehicle_type_id":"4","last_reported":1686348364,"current_range_meters":19600,"station_id":"","pricing_plan_id":"free"},{"bike_id":"17ec9704-85d1-496a-abd1-eb7e5c07c423","system_id":"levelo_inurba_marseille","lat":43.305989,"lon":5.37225,"is_reserved":false,"is_disabled":false,"rental_uris":{"android":"levelo://app?vid=17ec9704-85d1-496a-abd1-eb7e5c07c423","ios":"levelo://app?vid=17ec9704-85d1-496a-abd1-eb7e5c07c423"},"vehicle_type_id":"4","last_reported":1686348364,"current_range_meters":18800,"station_id":"ce4bgqh2rcd13ifvqc4g","pricing_plan_id":"free"},{"bike_id":"e0e41540-255a-40c5-a32a-217d99a5932b","system_id":"levelo_inurba_marseille","lat":43.311125,"lon":5.377624,"is_reserved":false,"is_disabled":false,"rental_uris":{"android":"levelo://app?vid=e0e41540-255a-40c5-a32a-217d99a5932b","ios":"levelo://app?vid=e0e41540-255a-40c5-a32a-217d99a5932b"},"vehicle_type_id":"4","last_reported":1686348364,"current_range_meters":28400,"station_id":"ce4bgt92rcd13ifvqcg0","pricing_plan_id":"free"},{"bike_id":"0d517629-54d0-4213-86e8-316b83b21502","system_id":"levelo_inurba_marseille","lat":43.311125,"lon":5.377624,"is_reserved":false,"is_disabled":false,"rental_uris":{"android":"levelo://app?vid=0d517629-54d0-4213-86e8-316b83b21502","ios":"levelo://app?vid=0d517629-54d0-4213-86e8-316b83b21502"},"vehicle_type_id":"4","last_reported":1686348364,"current_range_meters":0,"station_id":"ce4bgt92rcd13ifvqcg0","pricing_plan_id":"free"},{"bike_id":"2f988a8f-c7a5-43fe-b108-318d3ca9681f","system_id":"levelo_inurba_marseille","lat":43.30469,"lon":5.36656,"is_reserved":false,"is_disabled":false,"rental_uris":{"android":"levelo://app?vid=2f988a8f-c7a5-43fe-b108-318d3ca9681f","ios":"levelo://app?vid=2f988a8f-c7a5-43fe-b108-318d3ca9681f"},"vehicle_type_id":"4","last_reported":1686348364,"current_range_meters":18800,"station_id":"","pricing_plan_id":"free"},{"bike_id":"c39eba22-1668-4155-9623-6478dad60f6e","system_id":"levelo_inurba_marseille","lat":43.3171,"lon":5.37725,"is_reserved":false,"is_disabled":false,"rental_uris":{"android":"levelo://app?vid=c39eba22-1668-4155-9623-6478dad60f6e","ios":"levelo://app?vid=c39eba22-1668-4155-9623-6478dad60f6e"},"vehicle_type_id":"4","last_reported":1686348364,"current_range_meters":0,"station_id":"ce4bgth2rcd13ifvqch0","pricing_plan_id":"free"},{"bike_id":"6ca7f4f0-9c0c-44fb-aa3e-979faab6c99c","system_id":"levelo_inurba_marseille","lat":43.30605,"lon":5.37468,"is_reserved":false,"is_disabled":false,"rental_uris":{"android":"levelo://app?vid=6ca7f4f0-9c0c-44fb-aa3e-979faab6c99c","ios":"levelo://app?vid=6ca7f4f0-9c0c-44fb-aa3e-979faab6c99c"},"vehicle_type_id":"4","last_reported":1686348364,"current_range_meters":31200,"station_id":"","pricing_plan_id":"free"},{"bike_id":"4f65b353-1928-43cd-9ff5-8a61b4236bac","system_id":"levelo_inurba_marseille","lat":43.31714,"lon":5.3776,"is_reserved":false,"is_disabled":false,"rental_uris":{"android":"levelo://app?vid=4f65b353-1928-43cd-9ff5-8a61b4236bac","ios":"levelo://app?vid=4f65b353-1928-43cd-9ff5-8a61b4236bac"},"vehicle_type_id":"4","last_reported":1686348364,"current_range_meters":30000,"station_id":"ce4bgth2rcd13ifvqch0","pricing_plan_id":"free"},{"bike_id":"81d8a072-040b-4c7c-9608-2f9db4f3cabf","system_id":"levelo_inurba_marseille","lat":43.31532,"lon":5.38024,"is_reserved":false,"is_disabled":false,"rental_uris":{"android":"levelo://app?vid=81d8a072-040b-4c7c-9608-2f9db4f3cabf","ios":"levelo://app?vid=81d8a072-040b-4c7c-9608-2f9db4f3cabf"},"vehicle_type_id":"4","last_reported":1686348364,"current_range_meters":27200,"station_id":"ce4bhsp2rcd13ifvqi50","pricing_plan_id":"free"},{"bike_id":"bc66f522-c7fa-4459-9f6b-aea72eb208be","system_id":"levelo_inurba_marseille","lat":43.31537,"lon":5.38026,"is_reserved":false,"is_disabled":false,"rental_uris":{"android":"levelo://app?vid=bc66f522-c7fa-4459-9f6b-aea72eb208be","ios":"levelo://app?vid=bc66f522-c7fa-4459-9f6b-aea72eb208be"},"vehicle_type_id":"4","last_reported":1686348364,"current_range_meters":4400,"station_id":"ce4bhsp2rcd13ifvqi50","pricing_plan_id":"free"},{"bike_id":"6d4cfc43-e091-4944-88fb-e84f4ca5607b","system_id":"levelo_inurba_marseille","lat":43.31542,"lon":5.38025,"is_reserved":false,"is_disabled":false,"rental_uris":{"android":"levelo://app?vid=6d4cfc43-e091-4944-88fb-e84f4ca5607b","ios":"levelo://app?vid=6d4cfc43-e091-4944-88fb-e84f4ca5607b"},"vehicle_type_id":"4","last_reported":1686348364,"current_range_meters":5200,"station_id":"ce4bhsp2rcd13ifvqi50","pricing_plan_id":"free"},{"bike_id":"bc01933a-549a-45c4-a5ff-6d8f03e2eb20","system_id":"levelo_inurba_marseille","lat":43.328371,"lon":5.366909,"is_reserved":false,"is_disabled":false,"rental_uris":{"android":"levelo://app?vid=bc01933a-549a-45c4-a5ff-6d8f03e2eb20","ios":"levelo://app?vid=bc01933a-549a-45c4-a5ff-6d8f03e2eb20"},"vehicle_type_id":"4","last_reported":1686348364,"current_range_meters":17200,"station_id":"ce4bhs92rcd13ifvqi0g","pricing_plan_id":"free"},{"bike_id":"7fb51ae1-d66b-4404-a368-f8609c71f269","system_id":"levelo_inurba_marseille","lat":43.308012,"lon":5.381511,"is_reserved":false,"is_disabled":false,"rental_uris":{"android":"levelo://app?vid=7fb51ae1-d66b-4404-a368-f8609c71f269","ios":"levelo://app?vid=7fb51ae1-d66b-4404-a368-f8609c71f269"},"vehicle_type_id":"4","last_reported":1686348364,"current_range_meters":20400,"station_id":"ce4bgt12rcd13ifvqce0","pricing_plan_id":"free"},{"bike_id":"a9da625d-f9eb-4a11-bb49-32993127257f","system_id":"levelo_inurba_marseille","lat":43.32434,"lon":5.36983,"is_reserved":false,"is_disabled":false,"rental_uris":{"android":"levelo://app?vid=a9da625d-f9eb-4a11-bb49-32993127257f","ios":"levelo://app?vid=a9da625d-f9eb-4a11-bb49-32993127257f"},"vehicle_type_id":"4","last_reported":1686348364,"current_range_meters":17200,"station_id":"","pricing_plan_id":"free"},{"bike_id":"55ecfde1-8e71-4972-afe2-831c4bd3b3f2","system_id":"levelo_inurba_marseille","lat":43.31663,"lon":5.38243,"is_reserved":false,"is_disabled":false,"rental_uris":{"android":"levelo://app?vid=55ecfde1-8e71-4972-afe2-831c4bd3b3f2","ios":"levelo://app?vid=55ecfde1-8e71-4972-afe2-831c4bd3b3f2"},"vehicle_type_id":"4","last_reported":1686348364,"current_range_meters":27600,"station_id":"","pricing_plan_id":"free"},{"bike_id":"0ee81049-21b5-4aee-a278-12dc2fe63af5","system_id":"levelo_inurba_marseille","lat":43.304606,"lon":5.379026,"is_reserved":false,"is_disabled":false,"rental_uris":{"android":"levelo://app?vid=0ee81049-21b5-4aee-a278-12dc2fe63af5","ios":"levelo://app?vid=0ee81049-21b5-4aee-a278-12dc2fe63af5"},"vehicle_type_id":"4","last_reported":1686348364,"current_range_meters":12800,"station_id":"ce4bgup2rcd13ifvqcn0","pricing_plan_id":"free"},{"bike_id":"288e2ccc-d364-4d54-b129-55f6883ac6fe","system_id":"levelo_inurba_marseille","lat":43.302784,"lon":5.377158,"is_reserved":false,"is_disabled":false,"rental_uris":{"android":"levelo://app?vid=288e2ccc-d364-4d54-b129-55f6883ac6fe","ios":"levelo://app?vid=288e2ccc-d364-4d54-b129-55f6883ac6fe"},"vehicle_type_id":"4","last_reported":1686348364,"current_range_meters":27600,"station_id":"ce4bguh2rcd13ifvqcj0","pricing_plan_id":"free"},{"bike_id":"a9c532d2-eb2d-4b21-8f87-2a25ca8be622","system_id":"levelo_inurba_marseille","lat":43.30278,"lon":5.37716,"is_reserved":false,"is_disabled":false,"rental_uris":{"android":"levelo://app?vid=a9c532d2-eb2d-4b21-8f87-2a25ca8be622","ios":"levelo://app?vid=a9c532d2-eb2d-4b21-8f87-2a25ca8be622"},"vehicle_type_id":"4","last_reported":1686348364,"current_range_meters":4000,"station_id":"ce4bguh2rcd13ifvqcj0","pricing_plan_id":"free"},{"bike_id":"b8b4a96b-803d-42c4-88f7-e6665a6f93cc","system_id":"levelo_inurba_marseille","lat":43.31363,"lon":5.38484,"is_reserved":false,"is_disabled":false,"rental_uris":{"android":"levelo://app?vid=b8b4a96b-803d-42c4-88f7-e6665a6f93cc","ios":"levelo://app?vid=b8b4a96b-803d-42c4-88f7-e6665a6f93cc"},"vehicle_type_id":"4","last_reported":1686348364,"current_range_meters":29600,"station_id":"ce4bgt92rcd13ifvqcf0","pricing_plan_id":"free"},{"bike_id":"bd56fe56-ef58-478b-bc57-45dd0bd4e2ac","system_id":"levelo_inurba_marseille","lat":43.31367,"lon":5.38493,"is_reserved":false,"is_disabled":false,"rental_uris":{"android":"levelo://app?vid=bd56fe56-ef58-478b-bc57-45dd0bd4e2ac","ios":"levelo://app?vid=bd56fe56-ef58-478b-bc57-45dd0bd4e2ac"},"vehicle_type_id":"4","last_reported":1686348364,"current_range_meters":28800,"station_id":"ce4bgt92rcd13ifvqcf0","pricing_plan_id":"free"},{"bike_id":"fd970719-e67f-4e70-851f-ebb279493695","system_id":"levelo_inurba_marseille","lat":43.31366,"lon":5.38496,"is_reserved":false,"is_disabled":false,"rental_uris":{"android":"levelo://app?vid=fd970719-e67f-4e70-851f-ebb279493695","ios":"levelo://app?vid=fd970719-e67f-4e70-851f-ebb279493695"},"vehicle_type_id":"4","last_reported":1686348364,"current_range_meters":18800,"station_id":"ce4bgt92rcd13ifvqcf0","pricing_plan_id":"free"},{"bike_id":"8e2fe516-2914-4828-afb1-4f8ea38bd7bd","system_id":"levelo_inurba_marseille","lat":43.3136,"lon":5.38499,"is_reserved":false,"is_disabled":false,"rental_uris":{"android":"levelo://app?vid=8e2fe516-2914-4828-afb1-4f8ea38bd7bd","ios":"levelo://app?vid=8e2fe516-2914-4828-afb1-4f8ea38bd7bd"},"vehicle_type_id":"4","last_reported":1686348364,"current_range_meters":400,"station_id":"ce4bgt92rcd13ifvqcf0","pricing_plan_id":"free"},{"bike_id":"fec9d5a2-af80-45fd-9370-e0141e000e26","system_id":"levelo_inurba_marseille","lat":43.299222,"lon":5.365554,"is_reserved":false,"is_disabled":false,"rental_uris":{"android":"levelo://app?vid=fec9d5a2-af80-45fd-9370-e0141e000e26","ios":"levelo://app?vid=fec9d5a2-af80-45fd-9370-e0141e000e26"},"vehicle_type_id":"4","last_reported":1686348364,"current_range_meters":6800,"station_id":"ce4bgm92rcd13ifvqbr0","pricing_plan_id":"free"},{"bike_id":"c760ac88-a574-4674-acaa-75ee1075fb95","system_id":"levelo_inurba_marseille","lat":43.299222,"lon":5.365554,"is_reserved":false,"is_disabled":false,"rental_uris":{"android":"levelo://app?vid=c760ac88-a574-4674-acaa-75ee1075fb95","ios":"levelo://app?vid=c760ac88-a574-4674-acaa-75ee1075fb95"},"vehicle_type_id":"4","last_reported":1686348364,"current_range_meters":800,"station_id":"ce4bgm92rcd13ifvqbr0","pricing_plan_id":"free"},{"bike_id":"d83374e6-c4c1-4759-bb5d-5fae152b43da","system_id":"levelo_inurba_marseille","lat":43.298433,"lon":5.362774,"is_reserved":false,"is_disabled":false,"rental_uris":{"android":"levelo://app?vid=d83374e6-c4c1-4759-bb5d-5fae152b43da","ios":"levelo://app?vid=d83374e6-c4c1-4759-bb5d-5fae152b43da"},"vehicle_type_id":"4","last_reported":1686348364,"current_range_meters":26400,"station_id":"ce4bgpp2rcd13ifvqc3g","pricing_plan_id":"free"},{"bike_id":"1c5e28de-6f04-4d32-8dbc-0828b20a59b7","system_id":"levelo_inurba_marseille","lat":43.299243,"lon":5.37481,"is_reserved":false,"is_disabled":false,"rental_uris":{"android":"levelo://app?vid=1c5e28de-6f04-4d32-8dbc-0828b20a59b7","ios":"levelo://app?vid=1c5e28de-6f04-4d32-8dbc-0828b20a59b7"},"vehicle_type_id":"4","last_reported":1686348364,"current_range_meters":12800,"station_id":"ce4bgjh2rcd13ifvqbg0","pricing_plan_id":"free"},{"bike_id":"f82c005c-6d77-4535-bb8a-85399821020b","system_id":"levelo_inurba_marseille","lat":43.297725,"lon":5.371103,"is_reserved":false,"is_disabled":false,"rental_uris":{"android":"levelo://app?vid=f82c005c-6d77-4535-bb8a-85399821020b","ios":"levelo://app?vid=f82c005c-6d77-4535-bb8a-85399821020b"},"vehicle_type_id":"4","last_reported":1686348364,"current_range_meters":25600,"station_id":"","pricing_plan_id":"free"},{"bike_id":"0eae116b-d7ce-4ca5-98e5-dbf6d1a9ef7e","system_id":"levelo_inurba_marseille","lat":43.296706,"lon":5.366233,"is_reserved":false,"is_disabled":false,"rental_uris":{"android":"levelo://app?vid=0eae116b-d7ce-4ca5-98e5-dbf6d1a9ef7e","ios":"levelo://app?vid=0eae116b-d7ce-4ca5-98e5-dbf6d1a9ef7e"},"vehicle_type_id":"4","last_reported":1686348364,"current_range_meters":28800,"station_id":"","pricing_plan_id":"free"},{"bike_id":"54dc3333-1abc-4b85-b5d7-423868a02276","system_id":"levelo_inurba_marseille","lat":43.29768,"lon":5.37694,"is_reserved":false,"is_disabled":false,"rental_uris":{"android":"levelo://app?vid=54dc3333-1abc-4b85-b5d7-423868a02276","ios":"levelo://app?vid=54dc3333-1abc-4b85-b5d7-423868a02276"},"vehicle_type_id":"4","last_reported":1686348364,"current_range_meters":26800,"station_id":"","pricing_plan_id":"free"},{"bike_id":"42348b7c-c909-4cef-97fe-b4ade1d7801f","system_id":"levelo_inurba_marseille","lat":43.29719,"lon":5.37694,"is_reserved":false,"is_disabled":false,"rental_uris":{"android":"levelo://app?vid=42348b7c-c909-4cef-97fe-b4ade1d7801f","ios":"levelo://app?vid=42348b7c-c909-4cef-97fe-b4ade1d7801f"},"vehicle_type_id":"4","last_reported":1686348364,"current_range_meters":10000,"station_id":"","pricing_plan_id":"free"},{"bike_id":"f8709e5c-8ea9-4f99-9764-6b05a2a5102e","system_id":"levelo_inurba_marseille","lat":43.29912,"lon":5.38136,"is_reserved":false,"is_disabled":false,"rental_uris":{"android":"levelo://app?vid=f8709e5c-8ea9-4f99-9764-6b05a2a5102e","ios":"levelo://app?vid=f8709e5c-8ea9-4f99-9764-6b05a2a5102e"},"vehicle_type_id":"4","last_reported":1686348364,"current_range_meters":1600,"station_id":"ce4bgj12rcd13ifvqbc0","pricing_plan_id":"free"},{"bike_id":"037fa3bd-714a-4fa0-b442-a7ae8b84c3bc","system_id":"levelo_inurba_marseille","lat":43.309589,"lon":5.390258,"is_reserved":false,"is_disabled":false,"rental_uris":{"android":"levelo://app?vid=037fa3bd-714a-4fa0-b442-a7ae8b84c3bc","ios":"levelo://app?vid=037fa3bd-714a-4fa0-b442-a7ae8b84c3bc"},"vehicle_type_id":"4","last_reported":1686348364,"current_range_meters":18400,"station_id":"ce4bgup2rcd13ifvqco0","pricing_plan_id":"free"},{"bike_id":"4fa03eff-949b-42c4-b126-eb659508a8e0","system_id":"levelo_inurba_marseille","lat":43.31756,"lon":5.39017,"is_reserved":false,"is_disabled":false,"rental_uris":{"android":"levelo://app?vid=4fa03eff-949b-42c4-b126-eb659508a8e0","ios":"levelo://app?vid=4fa03eff-949b-42c4-b126-eb659508a8e0"},"vehicle_type_id":"4","last_reported":1686348364,"current_range_meters":6000,"station_id":"ce4bhqp2rcd13ifvqhng","pricing_plan_id":"free"},{"bike_id":"6df35179-92f7-43ac-b367-d30c30dcd173","system_id":"levelo_inurba_marseille","lat":43.3176,"lon":5.39017,"is_reserved":false,"is_disabled":false,"rental_uris":{"android":"levelo://app?vid=6df35179-92f7-43ac-b367-d30c30dcd173","ios":"levelo://app?vid=6df35179-92f7-43ac-b367-d30c30dcd173"},"vehicle_type_id":"4","last_reported":1686348364,"current_range_meters":10000,"station_id":"ce4bhqp2rcd13ifvqhng","pricing_plan_id":"free"},{"bike_id":"affd3dca-36b4-48bc-be1e-1ad8afd57772","system_id":"levelo_inurba_marseille","lat":43.295279,"lon":5.375048,"is_reserved":false,"is_disabled":false,"rental_uris":{"android":"levelo://app?vid=affd3dca-36b4-48bc-be1e-1ad8afd57772","ios":"levelo://app?vid=affd3dca-36b4-48bc-be1e-1ad8afd57772"},"vehicle_type_id":"4","last_reported":1686348364,"current_range_meters":1600,"station_id":"ce4bgkp2rcd13ifvqbmg","pricing_plan_id":"free"},{"bike_id":"07188fdf-678b-43ce-b3af-c352f9eeb7f1","system_id":"levelo_inurba_marseille","lat":43.299724,"lon":5.384848,"is_reserved":false,"is_disabled":false,"rental_uris":{"android":"levelo://app?vid=07188fdf-678b-43ce-b3af-c352f9eeb7f1","ios":"levelo://app?vid=07188fdf-678b-43ce-b3af-c352f9eeb7f1"},"vehicle_type_id":"4","last_reported":1686348364,"current_range_meters":23200,"station_id":"ce4bgj92rcd13ifvqbd0","pricing_plan_id":"free"},{"bike_id":"e35696ea-e099-4f9b-a80a-48e1d0b0577e","system_id":"levelo_inurba_marseille","lat":43.32367,"lon":5.38882,"is_reserved":false,"is_disabled":false,"rental_uris":{"android":"levelo://app?vid=e35696ea-e099-4f9b-a80a-48e1d0b0577e","ios":"levelo://app?vid=e35696ea-e099-4f9b-a80a-48e1d0b0577e"},"vehicle_type_id":"4","last_reported":1686348364,"current_range_meters":16400,"station_id":"ce4bhqp2rcd13ifvqhog","pricing_plan_id":"free"},{"bike_id":"37e23509-4319-4068-ac13-5d39d2e4cb9e","system_id":"levelo_inurba_marseille","lat":43.32369,"lon":5.38884,"is_reserved":false,"is_disabled":false,"rental_uris":{"android":"levelo://app?vid=37e23509-4319-4068-ac13-5d39d2e4cb9e","ios":"levelo://app?vid=37e23509-4319-4068-ac13-5d39d2e4cb9e"},"vehicle_type_id":"4","last_reported":1686348364,"current_range_meters":10400,"station_id":"ce4bhqp2rcd13ifvqhog","pricing_plan_id":"free"},{"bike_id":"61e4ccfd-dc98-4837-8123-2dfa5e087f42","system_id":"levelo_inurba_marseille","lat":43.293723,"lon":5.378443,"is_reserved":false,"is_disabled":false,"rental_uris":{"android":"levelo://app?vid=61e4ccfd-dc98-4837-8123-2dfa5e087f42","ios":"levelo://app?vid=61e4ccfd-dc98-4837-8123-2dfa5e087f42"},"vehicle_type_id":"4","last_reported":1686348364,"current_range_meters":6000,"station_id":"","pricing_plan_id":"free"},{"bike_id":"226870d5-27ec-4e34-98e9-a9d68f09c567","system_id":"levelo_inurba_marseille","lat":43.300852,"lon":5.390859,"is_reserved":false,"is_disabled":false,"rental_uris":{"android":"levelo://app?vid=226870d5-27ec-4e34-98e9-a9d68f09c567","ios":"levelo://app?vid=226870d5-27ec-4e34-98e9-a9d68f09c567"},"vehicle_type_id":"4","last_reported":1686348364,"current_range_meters":800,"station_id":"ce4bh192rcd13ifvqdb0","pricing_plan_id":"free"},{"bike_id":"e323f9c4-eb79-40fc-a73c-f10f178b0f2c","system_id":"levelo_inurba_marseille","lat":43.309038,"lon":5.396546,"is_reserved":false,"is_disabled":false,"rental_uris":{"android":"levelo://app?vid=e323f9c4-eb79-40fc-a73c-f10f178b0f2c","ios":"levelo://app?vid=e323f9c4-eb79-40fc-a73c-f10f178b0f2c"},"vehicle_type_id":"4","last_reported":1686348364,"current_range_meters":28000,"station_id":"ce4bh012rcd13ifvqcv0","pricing_plan_id":"free"},{"bike_id":"1ef8d55b-ed69-4976-863a-afabdfd50aa6","system_id":"levelo_inurba_marseille","lat":43.313291,"lon":5.396838,"is_reserved":false,"is_disabled":false,"rental_uris":{"android":"levelo://app?vid=1ef8d55b-ed69-4976-863a-afabdfd50aa6","ios":"levelo://app?vid=1ef8d55b-ed69-4976-863a-afabdfd50aa6"},"vehicle_type_id":"4","last_reported":1686348364,"current_range_meters":30800,"station_id":"ce4bgvp2rcd13ifvqcu0","pricing_plan_id":"free"},{"bike_id":"dc6670b4-9cf0-4ce8-8af3-bf197e0e6b0b","system_id":"levelo_inurba_marseille","lat":43.313291,"lon":5.396838,"is_reserved":false,"is_disabled":false,"rental_uris":{"android":"levelo://app?vid=dc6670b4-9cf0-4ce8-8af3-bf197e0e6b0b","ios":"levelo://app?vid=dc6670b4-9cf0-4ce8-8af3-bf197e0e6b0b"},"vehicle_type_id":"4","last_reported":1686348364,"current_range_meters":1600,"station_id":"ce4bgvp2rcd13ifvqcu0","pricing_plan_id":"free"},{"bike_id":"ddc99a48-566c-413a-a7bb-39d642a91da0","system_id":"levelo_inurba_marseille","lat":43.313291,"lon":5.396838,"is_reserved":false,"is_disabled":false,"rental_uris":{"android":"levelo://app?vid=ddc99a48-566c-413a-a7bb-39d642a91da0","ios":"levelo://app?vid=ddc99a48-566c-413a-a7bb-39d642a91da0"},"vehicle_type_id":"4","last_reported":1686348364,"current_range_meters":19200,"station_id":"ce4bgvp2rcd13ifvqcu0","pricing_plan_id":"free"},{"bike_id":"3d5f4c77-2599-45f7-b165-9f9c713cb3c5","system_id":"levelo_inurba_marseille","lat":43.313291,"lon":5.396838,"is_reserved":false,"is_disabled":false,"rental_uris":{"android":"levelo://app?vid=3d5f4c77-2599-45f7-b165-9f9c713cb3c5","ios":"levelo://app?vid=3d5f4c77-2599-45f7-b165-9f9c713cb3c5"},"vehicle_type_id":"4","last_reported":1686348364,"current_range_meters":31200,"station_id":"ce4bgvp2rcd13ifvqcu0","pricing_plan_id":"free"},{"bike_id":"ef392c8a-0d48-4d1b-ab65-7b3b134fb95c","system_id":"levelo_inurba_marseille","lat":43.313291,"lon":5.396838,"is_reserved":false,"is_disabled":false,"rental_uris":{"android":"levelo://app?vid=ef392c8a-0d48-4d1b-ab65-7b3b134fb95c","ios":"levelo://app?vid=ef392c8a-0d48-4d1b-ab65-7b3b134fb95c"},"vehicle_type_id":"4","last_reported":1686348364,"current_range_meters":31200,"station_id":"ce4bgvp2rcd13ifvqcu0","pricing_plan_id":"free"},{"bike_id":"b1511e3b-f886-4d1d-9c00-b85e081e88be","system_id":"levelo_inurba_marseille","lat":43.29122,"lon":5.35916,"is_reserved":false,"is_disabled":false,"rental_uris":{"android":"levelo://app?vid=b1511e3b-f886-4d1d-9c00-b85e081e88be","ios":"levelo://app?vid=b1511e3b-f886-4d1d-9c00-b85e081e88be"},"vehicle_type_id":"4","last_reported":1686348364,"current_range_meters":18000,"station_id":"ce4bgh92rcd13ifvqb40","pricing_plan_id":"free"},{"bike_id":"12833931-ccb1-416f-8428-25779c849df3","system_id":"levelo_inurba_marseille","lat":43.290779,"lon":5.371482,"is_reserved":false,"is_disabled":false,"rental_uris":{"android":"levelo://app?vid=12833931-ccb1-416f-8428-25779c849df3","ios":"levelo://app?vid=12833931-ccb1-416f-8428-25779c849df3"},"vehicle_type_id":"4","last_reported":1686348364,"current_range_meters":8000,"station_id":"ce4bh5p2rcd13ifvqe4g","pricing_plan_id":"free"},{"bike_id":"657b37b3-44ad-4c70-8f5d-b5bbc95f687e","system_id":"levelo_inurba_marseille","lat":43.290624,"lon":5.359245,"is_reserved":false,"is_disabled":false,"rental_uris":{"android":"levelo://app?vid=657b37b3-44ad-4c70-8f5d-b5bbc95f687e","ios":"levelo://app?vid=657b37b3-44ad-4c70-8f5d-b5bbc95f687e"},"vehicle_type_id":"4","last_reported":1686348364,"current_range_meters":27600,"station_id":"ce4bha92rcd13ifvqeg0","pricing_plan_id":"free"},{"bike_id":"6d0c6964-faee-4e9b-b7fb-465ccd56e33a","system_id":"levelo_inurba_marseille","lat":43.289184,"lon":5.366408,"is_reserved":false,"is_disabled":false,"rental_uris":{"android":"levelo://app?vid=6d0c6964-faee-4e9b-b7fb-465ccd56e33a","ios":"levelo://app?vid=6d0c6964-faee-4e9b-b7fb-465ccd56e33a"},"vehicle_type_id":"4","last_reported":1686348364,"current_range_meters":15200,"station_id":"ce4bhap2rcd13ifvqek0","pricing_plan_id":"free"},{"bike_id":"d2238407-9242-437e-a077-e037dd813e59","system_id":"levelo_inurba_marseille","lat":43.281044,"lon":5.378308,"is_reserved":false,"is_disabled":false,"rental_uris":{"android":"levelo://app?vid=d2238407-9242-437e-a077-e037dd813e59","ios":"levelo://app?vid=d2238407-9242-437e-a077-e037dd813e59"},"vehicle_type_id":"4","last_reported":1686348364,"current_range_meters":3600,"station_id":"ce4bha12rcd13ifvqee0","pricing_plan_id":"free"},{"bike_id":"eebb0572-4916-4105-a791-7d74572be411","system_id":"levelo_inurba_marseille","lat":43.290103,"lon":5.356114,"is_reserved":false,"is_disabled":false,"rental_uris":{"android":"levelo://app?vid=eebb0572-4916-4105-a791-7d74572be411","ios":"levelo://app?vid=eebb0572-4916-4105-a791-7d74572be411"},"vehicle_type_id":"4","last_reported":1686348364,"current_range_meters":7600,"station_id":"ce4bhb92rcd13ifvqen0","pricing_plan_id":"free"},{"bike_id":"00108045-876d-4e06-841d-ae767893bcc4","system_id":"levelo_inurba_marseille","lat":43.29103,"lon":5.38134,"is_reserved":false,"is_disabled":false,"rental_uris":{"android":"levelo://app?vid=00108045-876d-4e06-841d-ae767893bcc4","ios":"levelo://app?vid=00108045-876d-4e06-841d-ae767893bcc4"},"vehicle_type_id":"4","last_reported":1686348364,"current_range_meters":0,"station_id":"ce4bh512rcd13ifvqe2g","pricing_plan_id":"free"},{"bike_id":"6e6318f9-3242-44b4-91df-5fd6dc042c89","system_id":"levelo_inurba_marseille","lat":43.29093,"lon":5.38138,"is_reserved":false,"is_disabled":false,"rental_uris":{"android":"levelo://app?vid=6e6318f9-3242-44b4-91df-5fd6dc042c89","ios":"levelo://app?vid=6e6318f9-3242-44b4-91df-5fd6dc042c89"},"vehicle_type_id":"4","last_reported":1686348364,"current_range_meters":29600,"station_id":"ce4bh512rcd13ifvqe2g","pricing_plan_id":"free"},{"bike_id":"8a3c5043-3d34-4444-8e35-353706bb0dfb","system_id":"levelo_inurba_marseille","lat":43.297814,"lon":5.393513,"is_reserved":false,"is_disabled":false,"rental_uris":{"android":"levelo://app?vid=8a3c5043-3d34-4444-8e35-353706bb0dfb","ios":"levelo://app?vid=8a3c5043-3d34-4444-8e35-353706bb0dfb"},"vehicle_type_id":"4","last_reported":1686348364,"current_range_meters":21200,"station_id":"chh1huq6cuj3fo74tm60","pricing_plan_id":"free"},{"bike_id":"bbcca292-01ad-4a2c-be3b-12a2d0b081ca","system_id":"levelo_inurba_marseille","lat":43.289741,"lon":5.378306,"is_reserved":false,"is_disabled":false,"rental_uris":{"android":"levelo://app?vid=bbcca292-01ad-4a2c-be3b-12a2d0b081ca","ios":"levelo://app?vid=bbcca292-01ad-4a2c-be3b-12a2d0b081ca"},"vehicle_type_id":"4","last_reported":1686348364,"current_range_meters":30800,"station_id":"ce4bh9p2rcd13ifvqed0","pricing_plan_id":"free"},{"bike_id":"61f02349-c9d0-4e39-aa0e-50ccf76a5045","system_id":"levelo_inurba_marseille","lat":43.289741,"lon":5.378306,"is_reserved":false,"is_disabled":false,"rental_uris":{"android":"levelo://app?vid=61f02349-c9d0-4e39-aa0e-50ccf76a5045","ios":"levelo://app?vid=61f02349-c9d0-4e39-aa0e-50ccf76a5045"},"vehicle_type_id":"4","last_reported":1686348364,"current_range_meters":31200,"station_id":"ce4bh9p2rcd13ifvqed0","pricing_plan_id":"free"},{"bike_id":"6bd976cd-10d7-486c-91a4-646cd1824385","system_id":"levelo_inurba_marseille","lat":43.28856,"lon":5.358371,"is_reserved":false,"is_disabled":false,"rental_uris":{"android":"levelo://app?vid=6bd976cd-10d7-486c-91a4-646cd1824385","ios":"levelo://app?vid=6bd976cd-10d7-486c-91a4-646cd1824385"},"vehicle_type_id":"4","last_reported":1686348364,"current_range_meters":0,"station_id":"ce4bhb12rcd13ifvqem0","pricing_plan_id":"free"},{"bike_id":"160c5623-d86b-45dd-96a8-f234784948d2","system_id":"levelo_inurba_marseille","lat":43.28856,"lon":5.358371,"is_reserved":false,"is_disabled":false,"rental_uris":{"android":"levelo://app?vid=160c5623-d86b-45dd-96a8-f234784948d2","ios":"levelo://app?vid=160c5623-d86b-45dd-96a8-f234784948d2"},"vehicle_type_id":"4","last_reported":1686348364,"current_range_meters":30400,"station_id":"ce4bhb12rcd13ifvqem0","pricing_plan_id":"free"},{"bike_id":"71eca5b6-fc60-4331-b67e-89b66c84dcc8","system_id":"levelo_inurba_marseille","lat":43.30643,"lon":5.40058,"is_reserved":false,"is_disabled":false,"rental_uris":{"android":"levelo://app?vid=71eca5b6-fc60-4331-b67e-89b66c84dcc8","ios":"levelo://app?vid=71eca5b6-fc60-4331-b67e-89b66c84dcc8"},"vehicle_type_id":"4","last_reported":1686348364,"current_range_meters":25600,"station_id":"","pricing_plan_id":"free"},{"bike_id":"d301ca72-dcaa-4189-9498-b196a70ef7b2","system_id":"levelo_inurba_marseille","lat":43.30436,"lon":5.39972,"is_reserved":false,"is_disabled":false,"rental_uris":{"android":"levelo://app?vid=d301ca72-dcaa-4189-9498-b196a70ef7b2","ios":"levelo://app?vid=d301ca72-dcaa-4189-9498-b196a70ef7b2"},"vehicle_type_id":"4","last_reported":1686348364,"current_range_meters":28800,"station_id":"","pricing_plan_id":"free"},{"bike_id":"fd388ed2-bdf8-4256-b5d0-d2b58878ce6a","system_id":"levelo_inurba_marseille","lat":43.306515,"lon":5.400665,"is_reserved":false,"is_disabled":false,"rental_uris":{"android":"levelo://app?vid=fd388ed2-bdf8-4256-b5d0-d2b58878ce6a","ios":"levelo://app?vid=fd388ed2-bdf8-4256-b5d0-d2b58878ce6a"},"vehicle_type_id":"4","last_reported":1686348364,"current_range_meters":24000,"station_id":"ce4bh112rcd13ifvqda0","pricing_plan_id":"free"},{"bike_id":"b704a744-0100-45f1-a217-639ea3a5a7aa","system_id":"levelo_inurba_marseille","lat":43.306512,"lon":5.40072,"is_reserved":false,"is_disabled":false,"rental_uris":{"android":"levelo://app?vid=b704a744-0100-45f1-a217-639ea3a5a7aa","ios":"levelo://app?vid=b704a744-0100-45f1-a217-639ea3a5a7aa"},"vehicle_type_id":"4","last_reported":1686348364,"current_range_meters":31200,"station_id":"ce4bh112rcd13ifvqda0","pricing_plan_id":"free"},{"bike_id":"d6913779-2f82-411e-bb25-2eade129863f","system_id":"levelo_inurba_marseille","lat":43.306558,"lon":5.400738,"is_reserved":false,"is_disabled":false,"rental_uris":{"android":"levelo://app?vid=d6913779-2f82-411e-bb25-2eade129863f","ios":"levelo://app?vid=d6913779-2f82-411e-bb25-2eade129863f"},"vehicle_type_id":"4","last_reported":1686348364,"current_range_meters":31200,"station_id":"","pricing_plan_id":"free"},{"bike_id":"90e8b5df-9c0e-40ac-92aa-fb8530052065","system_id":"levelo_inurba_marseille","lat":43.30634,"lon":5.40072,"is_reserved":false,"is_disabled":false,"rental_uris":{"android":"levelo://app?vid=90e8b5df-9c0e-40ac-92aa-fb8530052065","ios":"levelo://app?vid=90e8b5df-9c0e-40ac-92aa-fb8530052065"},"vehicle_type_id":"4","last_reported":1686348364,"current_range_meters":29200,"station_id":"ce4bh112rcd13ifvqda0","pricing_plan_id":"free"},{"bike_id":"265c0905-166c-408b-8d33-95a8e86424e1","system_id":"levelo_inurba_marseille","lat":43.337582,"lon":5.374483,"is_reserved":false,"is_disabled":false,"rental_uris":{"android":"levelo://app?vid=265c0905-166c-408b-8d33-95a8e86424e1","ios":"levelo://app?vid=265c0905-166c-408b-8d33-95a8e86424e1"},"vehicle_type_id":"4","last_reported":1686348364,"current_range_meters":18800,"station_id":"","pricing_plan_id":"free"},{"bike_id":"d93aac7e-1ab7-412a-91cf-798018da9908","system_id":"levelo_inurba_marseille","lat":43.3064,"lon":5.40089,"is_reserved":false,"is_disabled":false,"rental_uris":{"android":"levelo://app?vid=d93aac7e-1ab7-412a-91cf-798018da9908","ios":"levelo://app?vid=d93aac7e-1ab7-412a-91cf-798018da9908"},"vehicle_type_id":"4","last_reported":1686348364,"current_range_meters":29600,"station_id":"ce4bh112rcd13ifvqda0","pricing_plan_id":"free"},{"bike_id":"fb041ec1-b611-46eb-9d8b-3229cfb3396a","system_id":"levelo_inurba_marseille","lat":43.33768,"lon":5.37459,"is_reserved":false,"is_disabled":false,"rental_uris":{"android":"levelo://app?vid=fb041ec1-b611-46eb-9d8b-3229cfb3396a","ios":"levelo://app?vid=fb041ec1-b611-46eb-9d8b-3229cfb3396a"},"vehicle_type_id":"4","last_reported":1686348364,"current_range_meters":26000,"station_id":"","pricing_plan_id":"free"},{"bike_id":"cb1bdc4b-c39d-485b-91af-6029a68a3476","system_id":"levelo_inurba_marseille","lat":43.30393,"lon":5.40061,"is_reserved":false,"is_disabled":false,"rental_uris":{"android":"levelo://app?vid=cb1bdc4b-c39d-485b-91af-6029a68a3476","ios":"levelo://app?vid=cb1bdc4b-c39d-485b-91af-6029a68a3476"},"vehicle_type_id":"4","last_reported":1686348364,"current_range_meters":24000,"station_id":"","pricing_plan_id":"free"},{"bike_id":"8b5518b5-57d5-47b2-86b8-da3bd3aa20a9","system_id":"levelo_inurba_marseille","lat":43.2987,"lon":5.3973,"is_reserved":false,"is_disabled":false,"rental_uris":{"android":"levelo://app?vid=8b5518b5-57d5-47b2-86b8-da3bd3aa20a9","ios":"levelo://app?vid=8b5518b5-57d5-47b2-86b8-da3bd3aa20a9"},"vehicle_type_id":"4","last_reported":1686348364,"current_range_meters":4000,"station_id":"ce4bh0h2rcd13ifvqd50","pricing_plan_id":"free"},{"bike_id":"15b4e4e2-82d1-4e5a-9310-671e77775b63","system_id":"levelo_inurba_marseille","lat":43.298681,"lon":5.397225,"is_reserved":false,"is_disabled":false,"rental_uris":{"android":"levelo://app?vid=15b4e4e2-82d1-4e5a-9310-671e77775b63","ios":"levelo://app?vid=15b4e4e2-82d1-4e5a-9310-671e77775b63"},"vehicle_type_id":"4","last_reported":1686348364,"current_range_meters":10000,"station_id":"ce4bh0h2rcd13ifvqd50","pricing_plan_id":"free"},{"bike_id":"3a5b8e3b-28f1-41bd-bd2e-708aa1c41f5f","system_id":"levelo_inurba_marseille","lat":43.286593,"lon":5.363346,"is_reserved":false,"is_disabled":false,"rental_uris":{"android":"levelo://app?vid=3a5b8e3b-28f1-41bd-bd2e-708aa1c41f5f","ios":"levelo://app?vid=3a5b8e3b-28f1-41bd-bd2e-708aa1c41f5f"},"vehicle_type_id":"4","last_reported":1686348364,"current_range_meters":8400,"station_id":"ce4bhah2rcd13ifvqej0","pricing_plan_id":"free"},{"bike_id":"84ac527a-e8ea-4cee-8d38-38eedf73a2f2","system_id":"levelo_inurba_marseille","lat":43.298681,"lon":5.397225,"is_reserved":false,"is_disabled":false,"rental_uris":{"android":"levelo://app?vid=84ac527a-e8ea-4cee-8d38-38eedf73a2f2","ios":"levelo://app?vid=84ac527a-e8ea-4cee-8d38-38eedf73a2f2"},"vehicle_type_id":"4","last_reported":1686348364,"current_range_meters":31200,"station_id":"ce4bh0h2rcd13ifvqd50","pricing_plan_id":"free"},{"bike_id":"a4f5fc41-a94e-4c93-8e71-c34b34d10811","system_id":"levelo_inurba_marseille","lat":43.286591,"lon":5.363346,"is_reserved":false,"is_disabled":false,"rental_uris":{"android":"levelo://app?vid=a4f5fc41-a94e-4c93-8e71-c34b34d10811","ios":"levelo://app?vid=a4f5fc41-a94e-4c93-8e71-c34b34d10811"},"vehicle_type_id":"4","last_reported":1686348364,"current_range_meters":29600,"station_id":"ce4bhah2rcd13ifvqej0","pricing_plan_id":"free"},{"bike_id":"16d86b56-24ec-4c49-ba78-127fee9c942d","system_id":"levelo_inurba_marseille","lat":43.298681,"lon":5.397225,"is_reserved":false,"is_disabled":false,"rental_uris":{"android":"levelo://app?vid=16d86b56-24ec-4c49-ba78-127fee9c942d","ios":"levelo://app?vid=16d86b56-24ec-4c49-ba78-127fee9c942d"},"vehicle_type_id":"4","last_reported":1686348364,"current_range_meters":7200,"station_id":"ce4bh0h2rcd13ifvqd50","pricing_plan_id":"free"},{"bike_id":"440c7d7b-111b-4ad9-80cc-318aa06c3086","system_id":"levelo_inurba_marseille","lat":43.28696,"lon":5.37389,"is_reserved":false,"is_disabled":false,"rental_uris":{"android":"levelo://app?vid=440c7d7b-111b-4ad9-80cc-318aa06c3086","ios":"levelo://app?vid=440c7d7b-111b-4ad9-80cc-318aa06c3086"},"vehicle_type_id":"4","last_reported":1686348364,"current_range_meters":5600,"station_id":"","pricing_plan_id":"free"},{"bike_id":"a4628f0d-2cef-4fd9-8ee3-558413d05d3d","system_id":"levelo_inurba_marseille","lat":43.28741,"lon":5.37659,"is_reserved":false,"is_disabled":false,"rental_uris":{"android":"levelo://app?vid=a4628f0d-2cef-4fd9-8ee3-558413d05d3d","ios":"levelo://app?vid=a4628f0d-2cef-4fd9-8ee3-558413d05d3d"},"vehicle_type_id":"4","last_reported":1686348364,"current_range_meters":20800,"station_id":"","pricing_plan_id":"free"},{"bike_id":"193e0203-54a5-428f-89f6-011476a4bb01","system_id":"levelo_inurba_marseille","lat":43.295196,"lon":5.39397,"is_reserved":false,"is_disabled":false,"rental_uris":{"android":"levelo://app?vid=193e0203-54a5-428f-89f6-011476a4bb01","ios":"levelo://app?vid=193e0203-54a5-428f-89f6-011476a4bb01"},"vehicle_type_id":"4","last_reported":1686348364,"current_range_meters":27600,"station_id":"ce4bh292rcd13ifvqdf0","pricing_plan_id":"free"},{"bike_id":"0e50a85a-67c9-47e1-ab02-7f0d7b47c79d","system_id":"levelo_inurba_marseille","lat":43.295196,"lon":5.39397,"is_reserved":false,"is_disabled":false,"rental_uris":{"android":"levelo://app?vid=0e50a85a-67c9-47e1-ab02-7f0d7b47c79d","ios":"levelo://app?vid=0e50a85a-67c9-47e1-ab02-7f0d7b47c79d"},"vehicle_type_id":"4","last_reported":1686348364,"current_range_meters":26400,"station_id":"ce4bh292rcd13ifvqdf0","pricing_plan_id":"free"},{"bike_id":"ccd35938-0d81-4826-834d-4c465f1de855","system_id":"levelo_inurba_marseille","lat":43.290345,"lon":5.38646,"is_reserved":false,"is_disabled":false,"rental_uris":{"android":"levelo://app?vid=ccd35938-0d81-4826-834d-4c465f1de855","ios":"levelo://app?vid=ccd35938-0d81-4826-834d-4c465f1de855"},"vehicle_type_id":"4","last_reported":1686348364,"current_range_meters":19200,"station_id":"ce4bh4p2rcd13ifvqe0g","pricing_plan_id":"free"},{"bike_id":"e24fb519-89a6-4e01-94f2-732206654fbc","system_id":"levelo_inurba_marseille","lat":43.302759,"lon":5.400793,"is_reserved":false,"is_disabled":false,"rental_uris":{"android":"levelo://app?vid=e24fb519-89a6-4e01-94f2-732206654fbc","ios":"levelo://app?vid=e24fb519-89a6-4e01-94f2-732206654fbc"},"vehicle_type_id":"4","last_reported":1686348364,"current_range_meters":28800,"station_id":"ce4bgvh2rcd13ifvqcs0","pricing_plan_id":"free"},{"bike_id":"6b2e87b2-78dd-41f7-9791-fcd0539be07b","system_id":"levelo_inurba_marseille","lat":43.290345,"lon":5.38646,"is_reserved":false,"is_disabled":false,"rental_uris":{"android":"levelo://app?vid=6b2e87b2-78dd-41f7-9791-fcd0539be07b","ios":"levelo://app?vid=6b2e87b2-78dd-41f7-9791-fcd0539be07b"},"vehicle_type_id":"4","last_reported":1686348364,"current_range_meters":0,"station_id":"ce4bh4p2rcd13ifvqe0g","pricing_plan_id":"free"},{"bike_id":"ead03989-13a1-4cf7-a096-ab59d9be0d65","system_id":"levelo_inurba_marseille","lat":43.302759,"lon":5.400793,"is_reserved":false,"is_disabled":false,"rental_uris":{"android":"levelo://app?vid=ead03989-13a1-4cf7-a096-ab59d9be0d65","ios":"levelo://app?vid=ead03989-13a1-4cf7-a096-ab59d9be0d65"},"vehicle_type_id":"4","last_reported":1686348364,"current_range_meters":14800,"station_id":"ce4bgvh2rcd13ifvqcs0","pricing_plan_id":"free"},{"bike_id":"b2d736b9-9ba5-4aff-aff7-d944c6facee1","system_id":"levelo_inurba_marseille","lat":43.302759,"lon":5.400793,"is_reserved":false,"is_disabled":false,"rental_uris":{"android":"levelo://app?vid=b2d736b9-9ba5-4aff-aff7-d944c6facee1","ios":"levelo://app?vid=b2d736b9-9ba5-4aff-aff7-d944c6facee1"},"vehicle_type_id":"4","last_reported":1686348364,"current_range_meters":31200,"station_id":"ce4bgvh2rcd13ifvqcs0","pricing_plan_id":"free"},{"bike_id":"47f5891f-8e07-4237-ba7e-3089094e05b1","system_id":"levelo_inurba_marseille","lat":43.302759,"lon":5.400793,"is_reserved":false,"is_disabled":false,"rental_uris":{"android":"levelo://app?vid=47f5891f-8e07-4237-ba7e-3089094e05b1","ios":"levelo://app?vid=47f5891f-8e07-4237-ba7e-3089094e05b1"},"vehicle_type_id":"4","last_reported":1686348364,"current_range_meters":21600,"station_id":"ce4bgvh2rcd13ifvqcs0","pricing_plan_id":"free"},{"bike_id":"1aeb4a74-484c-4882-9314-98ba66a43b18","system_id":"levelo_inurba_marseille","lat":43.302759,"lon":5.400793,"is_reserved":false,"is_disabled":false,"rental_uris":{"android":"levelo://app?vid=1aeb4a74-484c-4882-9314-98ba66a43b18","ios":"levelo://app?vid=1aeb4a74-484c-4882-9314-98ba66a43b18"},"vehicle_type_id":"4","last_reported":1686348364,"current_range_meters":26400,"station_id":"ce4bgvh2rcd13ifvqcs0","pricing_plan_id":"free"},{"bike_id":"44662001-cdb2-4d9b-baff-d72b9eb53acd","system_id":"levelo_inurba_marseille","lat":43.286039,"lon":5.370679,"is_reserved":false,"is_disabled":false,"rental_uris":{"android":"levelo://app?vid=44662001-cdb2-4d9b-baff-d72b9eb53acd","ios":"levelo://app?vid=44662001-cdb2-4d9b-baff-d72b9eb53acd"},"vehicle_type_id":"4","last_reported":1686348364,"current_range_meters":2000,"station_id":"ce4bht12rcd13ifvqi60","pricing_plan_id":"free"},{"bike_id":"73aff9f6-cb09-4083-ad33-dcb11685a9e1","system_id":"levelo_inurba_marseille","lat":43.28722,"lon":5.37936,"is_reserved":false,"is_disabled":false,"rental_uris":{"android":"levelo://app?vid=73aff9f6-cb09-4083-ad33-dcb11685a9e1","ios":"levelo://app?vid=73aff9f6-cb09-4083-ad33-dcb11685a9e1"},"vehicle_type_id":"4","last_reported":1686348364,"current_range_meters":27600,"station_id":"ce4bh9p2rcd13ifvqec0","pricing_plan_id":"free"},{"bike_id":"6f9391c1-8384-46a3-a967-f7c634ba34c7","system_id":"levelo_inurba_marseille","lat":43.28718,"lon":5.379265,"is_reserved":false,"is_disabled":false,"rental_uris":{"android":"levelo://app?vid=6f9391c1-8384-46a3-a967-f7c634ba34c7","ios":"levelo://app?vid=6f9391c1-8384-46a3-a967-f7c634ba34c7"},"vehicle_type_id":"4","last_reported":1686348364,"current_range_meters":19600,"station_id":"","pricing_plan_id":"free"},{"bike_id":"a6731df2-2695-4c8a-b18d-f72b4de45860","system_id":"levelo_inurba_marseille","lat":43.287184,"lon":5.37937,"is_reserved":false,"is_disabled":false,"rental_uris":{"android":"levelo://app?vid=a6731df2-2695-4c8a-b18d-f72b4de45860","ios":"levelo://app?vid=a6731df2-2695-4c8a-b18d-f72b4de45860"},"vehicle_type_id":"4","last_reported":1686348364,"current_range_meters":19200,"station_id":"ce4bh9p2rcd13ifvqec0","pricing_plan_id":"free"},{"bike_id":"36dd0f0d-e9bb-4277-bff1-027cad3eb91a","system_id":"levelo_inurba_marseille","lat":43.28712,"lon":5.37932,"is_reserved":false,"is_disabled":false,"rental_uris":{"android":"levelo://app?vid=36dd0f0d-e9bb-4277-bff1-027cad3eb91a","ios":"levelo://app?vid=36dd0f0d-e9bb-4277-bff1-027cad3eb91a"},"vehicle_type_id":"4","last_reported":1686348364,"current_range_meters":19200,"station_id":"ce4bh9p2rcd13ifvqec0","pricing_plan_id":"free"},{"bike_id":"43645bf4-cf45-4421-bfc3-ec660f74ed03","system_id":"levelo_inurba_marseille","lat":43.287184,"lon":5.37937,"is_reserved":false,"is_disabled":false,"rental_uris":{"android":"levelo://app?vid=43645bf4-cf45-4421-bfc3-ec660f74ed03","ios":"levelo://app?vid=43645bf4-cf45-4421-bfc3-ec660f74ed03"},"vehicle_type_id":"4","last_reported":1686348364,"current_range_meters":29600,"station_id":"ce4bh9p2rcd13ifvqec0","pricing_plan_id":"free"},{"bike_id":"9ae0be29-7880-4f1e-812a-9bd035877398","system_id":"levelo_inurba_marseille","lat":43.316517,"lon":5.404375,"is_reserved":false,"is_disabled":false,"rental_uris":{"android":"levelo://app?vid=9ae0be29-7880-4f1e-812a-9bd035877398","ios":"levelo://app?vid=9ae0be29-7880-4f1e-812a-9bd035877398"},"vehicle_type_id":"4","last_reported":1686348364,"current_range_meters":2800,"station_id":"ce4bh012rcd13ifvqd00","pricing_plan_id":"free"},{"bike_id":"10857c00-19a8-4460-a91b-c88003b34d92","system_id":"levelo_inurba_marseille","lat":43.316517,"lon":5.404375,"is_reserved":false,"is_disabled":false,"rental_uris":{"android":"levelo://app?vid=10857c00-19a8-4460-a91b-c88003b34d92","ios":"levelo://app?vid=10857c00-19a8-4460-a91b-c88003b34d92"},"vehicle_type_id":"4","last_reported":1686348364,"current_range_meters":31200,"station_id":"ce4bh012rcd13ifvqd00","pricing_plan_id":"free"},{"bike_id":"0223f7f0-1279-46e1-b57e-7dfe932d2f6b","system_id":"levelo_inurba_marseille","lat":43.316517,"lon":5.404375,"is_reserved":false,"is_disabled":false,"rental_uris":{"android":"levelo://app?vid=0223f7f0-1279-46e1-b57e-7dfe932d2f6b","ios":"levelo://app?vid=0223f7f0-1279-46e1-b57e-7dfe932d2f6b"},"vehicle_type_id":"4","last_reported":1686348364,"current_range_meters":23600,"station_id":"ce4bh012rcd13ifvqd00","pricing_plan_id":"free"},{"bike_id":"ca3fbd32-01a6-441d-85cb-a1a16daa4ae5","system_id":"levelo_inurba_marseille","lat":43.316517,"lon":5.404375,"is_reserved":false,"is_disabled":false,"rental_uris":{"android":"levelo://app?vid=ca3fbd32-01a6-441d-85cb-a1a16daa4ae5","ios":"levelo://app?vid=ca3fbd32-01a6-441d-85cb-a1a16daa4ae5"},"vehicle_type_id":"4","last_reported":1686348364,"current_range_meters":19200,"station_id":"ce4bh012rcd13ifvqd00","pricing_plan_id":"free"},{"bike_id":"0b8f56d7-ecc3-4c2d-97e8-6f4230932709","system_id":"levelo_inurba_marseille","lat":43.284534,"lon":5.358662,"is_reserved":false,"is_disabled":false,"rental_uris":{"android":"levelo://app?vid=0b8f56d7-ecc3-4c2d-97e8-6f4230932709","ios":"levelo://app?vid=0b8f56d7-ecc3-4c2d-97e8-6f4230932709"},"vehicle_type_id":"4","last_reported":1686348364,"current_range_meters":26000,"station_id":"ce4bhah2rcd13ifvqei0","pricing_plan_id":"free"},{"bike_id":"8bae025d-eeb4-492e-b1c8-f55deb8b0c45","system_id":"levelo_inurba_marseille","lat":43.284534,"lon":5.358662,"is_reserved":false,"is_disabled":false,"rental_uris":{"android":"levelo://app?vid=8bae025d-eeb4-492e-b1c8-f55deb8b0c45","ios":"levelo://app?vid=8bae025d-eeb4-492e-b1c8-f55deb8b0c45"},"vehicle_type_id":"4","last_reported":1686348364,"current_range_meters":31200,"station_id":"ce4bhah2rcd13ifvqei0","pricing_plan_id":"free"},{"bike_id":"b24d6bd6-0188-4371-9212-d3ad27286c87","system_id":"levelo_inurba_marseille","lat":43.284534,"lon":5.358662,"is_reserved":false,"is_disabled":false,"rental_uris":{"android":"levelo://app?vid=b24d6bd6-0188-4371-9212-d3ad27286c87","ios":"levelo://app?vid=b24d6bd6-0188-4371-9212-d3ad27286c87"},"vehicle_type_id":"4","last_reported":1686348364,"current_range_meters":26400,"station_id":"ce4bhah2rcd13ifvqei0","pricing_plan_id":"free"},{"bike_id":"17e12ab8-cfe5-4a2e-bd38-cab2415dd777","system_id":"levelo_inurba_marseille","lat":43.284534,"lon":5.358662,"is_reserved":false,"is_disabled":false,"rental_uris":{"android":"levelo://app?vid=17e12ab8-cfe5-4a2e-bd38-cab2415dd777","ios":"levelo://app?vid=17e12ab8-cfe5-4a2e-bd38-cab2415dd777"},"vehicle_type_id":"4","last_reported":1686348364,"current_range_meters":31200,"station_id":"ce4bhah2rcd13ifvqei0","pricing_plan_id":"free"},{"bike_id":"f2a9498c-f4d4-464d-b256-4921ca80a88c","system_id":"levelo_inurba_marseille","lat":43.284534,"lon":5.358662,"is_reserved":false,"is_disabled":false,"rental_uris":{"android":"levelo://app?vid=f2a9498c-f4d4-464d-b256-4921ca80a88c","ios":"levelo://app?vid=f2a9498c-f4d4-464d-b256-4921ca80a88c"},"vehicle_type_id":"4","last_reported":1686348364,"current_range_meters":16000,"station_id":"ce4bhah2rcd13ifvqei0","pricing_plan_id":"free"},{"bike_id":"6d5badbe-615b-4f40-9f59-961e92cb46b7","system_id":"levelo_inurba_marseille","lat":43.284534,"lon":5.358662,"is_reserved":false,"is_disabled":false,"rental_uris":{"android":"levelo://app?vid=6d5badbe-615b-4f40-9f59-961e92cb46b7","ios":"levelo://app?vid=6d5badbe-615b-4f40-9f59-961e92cb46b7"},"vehicle_type_id":"4","last_reported":1686348364,"current_range_meters":30800,"station_id":"ce4bhah2rcd13ifvqei0","pricing_plan_id":"free"},{"bike_id":"97fd5f2e-f900-4319-a252-cefc44f307c7","system_id":"levelo_inurba_marseille","lat":43.281044,"lon":5.378308,"is_reserved":false,"is_disabled":false,"rental_uris":{"android":"levelo://app?vid=97fd5f2e-f900-4319-a252-cefc44f307c7","ios":"levelo://app?vid=97fd5f2e-f900-4319-a252-cefc44f307c7"},"vehicle_type_id":"4","last_reported":1686348364,"current_range_meters":14800,"station_id":"ce4bha12rcd13ifvqee0","pricing_plan_id":"free"},{"bike_id":"dc674f98-ead5-497f-8556-14bdb219efdb","system_id":"levelo_inurba_marseille","lat":43.28617,"lon":5.35105,"is_reserved":false,"is_disabled":false,"rental_uris":{"android":"levelo://app?vid=dc674f98-ead5-497f-8556-14bdb219efdb","ios":"levelo://app?vid=dc674f98-ead5-497f-8556-14bdb219efdb"},"vehicle_type_id":"4","last_reported":1686348364,"current_range_meters":0,"station_id":"","pricing_plan_id":"free"},{"bike_id":"c48f8693-7335-4e37-a76f-3df753721bda","system_id":"levelo_inurba_marseille","lat":43.28618,"lon":5.35101,"is_reserved":false,"is_disabled":false,"rental_uris":{"android":"levelo://app?vid=c48f8693-7335-4e37-a76f-3df753721bda","ios":"levelo://app?vid=c48f8693-7335-4e37-a76f-3df753721bda"},"vehicle_type_id":"4","last_reported":1686348364,"current_range_meters":29200,"station_id":"","pricing_plan_id":"free"},{"bike_id":"1dc7d583-c6b2-4c1e-b229-d9debcd0f5e0","system_id":"levelo_inurba_marseille","lat":43.28615,"lon":5.35109,"is_reserved":false,"is_disabled":false,"rental_uris":{"android":"levelo://app?vid=1dc7d583-c6b2-4c1e-b229-d9debcd0f5e0","ios":"levelo://app?vid=1dc7d583-c6b2-4c1e-b229-d9debcd0f5e0"},"vehicle_type_id":"4","last_reported":1686348364,"current_range_meters":27600,"station_id":"","pricing_plan_id":"free"},{"bike_id":"dc6c4944-14e0-4eb8-bac6-b69858baa927","system_id":"levelo_inurba_marseille","lat":43.28615,"lon":5.35103,"is_reserved":false,"is_disabled":false,"rental_uris":{"android":"levelo://app?vid=dc6c4944-14e0-4eb8-bac6-b69858baa927","ios":"levelo://app?vid=dc6c4944-14e0-4eb8-bac6-b69858baa927"},"vehicle_type_id":"4","last_reported":1686348364,"current_range_meters":18400,"station_id":"","pricing_plan_id":"free"},{"bike_id":"e734cee3-05c6-4a34-a1ff-71543a9d76c1","system_id":"levelo_inurba_marseille","lat":43.28614,"lon":5.35103,"is_reserved":false,"is_disabled":false,"rental_uris":{"android":"levelo://app?vid=e734cee3-05c6-4a34-a1ff-71543a9d76c1","ios":"levelo://app?vid=e734cee3-05c6-4a34-a1ff-71543a9d76c1"},"vehicle_type_id":"4","last_reported":1686348364,"current_range_meters":22800,"station_id":"","pricing_plan_id":"free"},{"bike_id":"27a4067b-6ecd-4fe0-a223-91dc68db1d33","system_id":"levelo_inurba_marseille","lat":43.28614,"lon":5.35102,"is_reserved":false,"is_disabled":false,"rental_uris":{"android":"levelo://app?vid=27a4067b-6ecd-4fe0-a223-91dc68db1d33","ios":"levelo://app?vid=27a4067b-6ecd-4fe0-a223-91dc68db1d33"},"vehicle_type_id":"4","last_reported":1686348364,"current_range_meters":11200,"station_id":"","pricing_plan_id":"free"},{"bike_id":"7af7c28d-ca7f-4aee-9c34-c868c4a60dc2","system_id":"levelo_inurba_marseille","lat":43.28612,"lon":5.35107,"is_reserved":false,"is_disabled":false,"rental_uris":{"android":"levelo://app?vid=7af7c28d-ca7f-4aee-9c34-c868c4a60dc2","ios":"levelo://app?vid=7af7c28d-ca7f-4aee-9c34-c868c4a60dc2"},"vehicle_type_id":"4","last_reported":1686348364,"current_range_meters":26400,"station_id":"","pricing_plan_id":"free"},{"bike_id":"f93e5396-f091-438f-917d-da8dbaa37196","system_id":"levelo_inurba_marseille","lat":43.28414,"lon":5.37512,"is_reserved":false,"is_disabled":false,"rental_uris":{"android":"levelo://app?vid=f93e5396-f091-438f-917d-da8dbaa37196","ios":"levelo://app?vid=f93e5396-f091-438f-917d-da8dbaa37196"},"vehicle_type_id":"4","last_reported":1686348364,"current_range_meters":4800,"station_id":"","pricing_plan_id":"free"},{"bike_id":"eadf91cc-30cc-4a5c-823f-cd81c7944ea0","system_id":"levelo_inurba_marseille","lat":43.28866,"lon":5.39105,"is_reserved":false,"is_disabled":false,"rental_uris":{"android":"levelo://app?vid=eadf91cc-30cc-4a5c-823f-cd81c7944ea0","ios":"levelo://app?vid=eadf91cc-30cc-4a5c-823f-cd81c7944ea0"},"vehicle_type_id":"4","last_reported":1686348364,"current_range_meters":28000,"station_id":"","pricing_plan_id":"free"},{"bike_id":"a3079b4d-45c0-4654-a084-416319c5cab5","system_id":"levelo_inurba_marseille","lat":43.323464,"lon":5.406297,"is_reserved":false,"is_disabled":false,"rental_uris":{"android":"levelo://app?vid=a3079b4d-45c0-4654-a084-416319c5cab5","ios":"levelo://app?vid=a3079b4d-45c0-4654-a084-416319c5cab5"},"vehicle_type_id":"4","last_reported":1686348364,"current_range_meters":27200,"station_id":"ce4bhq92rcd13ifvqhjg","pricing_plan_id":"free"},{"bike_id":"6bf636eb-4301-4688-82ef-9efd8d93c418","system_id":"levelo_inurba_marseille","lat":43.323464,"lon":5.406297,"is_reserved":false,"is_disabled":false,"rental_uris":{"android":"levelo://app?vid=6bf636eb-4301-4688-82ef-9efd8d93c418","ios":"levelo://app?vid=6bf636eb-4301-4688-82ef-9efd8d93c418"},"vehicle_type_id":"4","last_reported":1686348364,"current_range_meters":31200,"station_id":"ce4bhq92rcd13ifvqhjg","pricing_plan_id":"free"},{"bike_id":"06cff570-236d-434b-b41a-bcb364e7356f","system_id":"levelo_inurba_marseille","lat":43.323464,"lon":5.406297,"is_reserved":false,"is_disabled":false,"rental_uris":{"android":"levelo://app?vid=06cff570-236d-434b-b41a-bcb364e7356f","ios":"levelo://app?vid=06cff570-236d-434b-b41a-bcb364e7356f"},"vehicle_type_id":"4","last_reported":1686348364,"current_range_meters":1600,"station_id":"ce4bhq92rcd13ifvqhjg","pricing_plan_id":"free"},{"bike_id":"4ba20453-31de-4115-ac71-aad53c16ef43","system_id":"levelo_inurba_marseille","lat":43.323464,"lon":5.406297,"is_reserved":false,"is_disabled":false,"rental_uris":{"android":"levelo://app?vid=4ba20453-31de-4115-ac71-aad53c16ef43","ios":"levelo://app?vid=4ba20453-31de-4115-ac71-aad53c16ef43"},"vehicle_type_id":"4","last_reported":1686348364,"current_range_meters":29600,"station_id":"ce4bhq92rcd13ifvqhjg","pricing_plan_id":"free"},{"bike_id":"deb583eb-96fb-4a10-97e9-a4d5ee7da756","system_id":"levelo_inurba_marseille","lat":43.323464,"lon":5.406297,"is_reserved":false,"is_disabled":false,"rental_uris":{"android":"levelo://app?vid=deb583eb-96fb-4a10-97e9-a4d5ee7da756","ios":"levelo://app?vid=deb583eb-96fb-4a10-97e9-a4d5ee7da756"},"vehicle_type_id":"4","last_reported":1686348364,"current_range_meters":14000,"station_id":"ce4bhq92rcd13ifvqhjg","pricing_plan_id":"free"},{"bike_id":"664960d4-4a99-4775-a29d-ad121a6c6787","system_id":"levelo_inurba_marseille","lat":43.32257,"lon":5.40671,"is_reserved":false,"is_disabled":false,"rental_uris":{"android":"levelo://app?vid=664960d4-4a99-4775-a29d-ad121a6c6787","ios":"levelo://app?vid=664960d4-4a99-4775-a29d-ad121a6c6787"},"vehicle_type_id":"4","last_reported":1686348364,"current_range_meters":30000,"station_id":"","pricing_plan_id":"free"},{"bike_id":"cc95bffc-1cfb-46fd-95e2-68612aeecf38","system_id":"levelo_inurba_marseille","lat":43.32251,"lon":5.40674,"is_reserved":false,"is_disabled":false,"rental_uris":{"android":"levelo://app?vid=cc95bffc-1cfb-46fd-95e2-68612aeecf38","ios":"levelo://app?vid=cc95bffc-1cfb-46fd-95e2-68612aeecf38"},"vehicle_type_id":"4","last_reported":1686348364,"current_range_meters":13600,"station_id":"","pricing_plan_id":"free"},{"bike_id":"786a3f1d-cf66-4cbe-ab8b-2eb41fb7837d","system_id":"levelo_inurba_marseille","lat":43.284793,"lon":5.384119,"is_reserved":false,"is_disabled":false,"rental_uris":{"android":"levelo://app?vid=786a3f1d-cf66-4cbe-ab8b-2eb41fb7837d","ios":"levelo://app?vid=786a3f1d-cf66-4cbe-ab8b-2eb41fb7837d"},"vehicle_type_id":"4","last_reported":1686348364,"current_range_meters":22400,"station_id":"ce4bh512rcd13ifvqe3g","pricing_plan_id":"free"},{"bike_id":"6832463c-fad4-449b-8bfa-b2de2e946c35","system_id":"levelo_inurba_marseille","lat":43.28347,"lon":5.38103,"is_reserved":false,"is_disabled":false,"rental_uris":{"android":"levelo://app?vid=6832463c-fad4-449b-8bfa-b2de2e946c35","ios":"levelo://app?vid=6832463c-fad4-449b-8bfa-b2de2e946c35"},"vehicle_type_id":"4","last_reported":1686348364,"current_range_meters":24800,"station_id":"ce4bh412rcd13ifvqdr0","pricing_plan_id":"free"},{"bike_id":"51db349e-6563-45cf-a528-c04762a31ee5","system_id":"levelo_inurba_marseille","lat":43.28342,"lon":5.381,"is_reserved":false,"is_disabled":false,"rental_uris":{"android":"levelo://app?vid=51db349e-6563-45cf-a528-c04762a31ee5","ios":"levelo://app?vid=51db349e-6563-45cf-a528-c04762a31ee5"},"vehicle_type_id":"4","last_reported":1686348364,"current_range_meters":28400,"station_id":"ce4bh412rcd13ifvqdr0","pricing_plan_id":"free"},{"bike_id":"ae232d39-b160-410f-a53c-e104a0631f2e","system_id":"levelo_inurba_marseille","lat":43.32406,"lon":5.40679,"is_reserved":false,"is_disabled":false,"rental_uris":{"android":"levelo://app?vid=ae232d39-b160-410f-a53c-e104a0631f2e","ios":"levelo://app?vid=ae232d39-b160-410f-a53c-e104a0631f2e"},"vehicle_type_id":"4","last_reported":1686348364,"current_range_meters":19200,"station_id":"","pricing_plan_id":"free"},{"bike_id":"3985073b-a52c-4155-b296-dec1457f747d","system_id":"levelo_inurba_marseille","lat":43.292724,"lon":5.401131,"is_reserved":false,"is_disabled":false,"rental_uris":{"android":"levelo://app?vid=3985073b-a52c-4155-b296-dec1457f747d","ios":"levelo://app?vid=3985073b-a52c-4155-b296-dec1457f747d"},"vehicle_type_id":"4","last_reported":1686348364,"current_range_meters":800,"station_id":"ce4bh312rcd13ifvqdk0","pricing_plan_id":"free"},{"bike_id":"64cfc745-df68-41fa-bab6-64262bad109d","system_id":"levelo_inurba_marseille","lat":43.283502,"lon":5.386471,"is_reserved":false,"is_disabled":false,"rental_uris":{"android":"levelo://app?vid=64cfc745-df68-41fa-bab6-64262bad109d","ios":"levelo://app?vid=64cfc745-df68-41fa-bab6-64262bad109d"},"vehicle_type_id":"4","last_reported":1686348364,"current_range_meters":18400,"station_id":"ce4bh492rcd13ifvqdvg","pricing_plan_id":"free"},{"bike_id":"b11e52bc-9b77-4464-9eae-d0ae2c1f544c","system_id":"levelo_inurba_marseille","lat":43.28039,"lon":5.369297,"is_reserved":false,"is_disabled":false,"rental_uris":{"android":"levelo://app?vid=b11e52bc-9b77-4464-9eae-d0ae2c1f544c","ios":"levelo://app?vid=b11e52bc-9b77-4464-9eae-d0ae2c1f544c"},"vehicle_type_id":"4","last_reported":1686348364,"current_range_meters":7200,"station_id":"ce4bha12rcd13ifvqef0","pricing_plan_id":"free"},{"bike_id":"a34b409d-a256-48a0-a3fa-e0de951ce364","system_id":"levelo_inurba_marseille","lat":43.28039,"lon":5.369297,"is_reserved":false,"is_disabled":false,"rental_uris":{"android":"levelo://app?vid=a34b409d-a256-48a0-a3fa-e0de951ce364","ios":"levelo://app?vid=a34b409d-a256-48a0-a3fa-e0de951ce364"},"vehicle_type_id":"4","last_reported":1686348364,"current_range_meters":21200,"station_id":"ce4bha12rcd13ifvqef0","pricing_plan_id":"free"},{"bike_id":"cbdca3d5-6ada-40a2-a8af-3c894d9b7133","system_id":"levelo_inurba_marseille","lat":43.283502,"lon":5.386471,"is_reserved":false,"is_disabled":false,"rental_uris":{"android":"levelo://app?vid=cbdca3d5-6ada-40a2-a8af-3c894d9b7133","ios":"levelo://app?vid=cbdca3d5-6ada-40a2-a8af-3c894d9b7133"},"vehicle_type_id":"4","last_reported":1686348364,"current_range_meters":6400,"station_id":"ce4bh492rcd13ifvqdvg","pricing_plan_id":"free"},{"bike_id":"967ff9f9-b3e4-4808-9e23-56b1fb93cad4","system_id":"levelo_inurba_marseille","lat":43.282754,"lon":5.350519,"is_reserved":false,"is_disabled":false,"rental_uris":{"android":"levelo://app?vid=967ff9f9-b3e4-4808-9e23-56b1fb93cad4","ios":"levelo://app?vid=967ff9f9-b3e4-4808-9e23-56b1fb93cad4"},"vehicle_type_id":"4","last_reported":1686348364,"current_range_meters":0,"station_id":"ce4bhbp2rcd13ifvqerg","pricing_plan_id":"free"},{"bike_id":"be72ce93-8d35-4ce4-9594-968f188fac1f","system_id":"levelo_inurba_marseille","lat":43.28039,"lon":5.369297,"is_reserved":false,"is_disabled":false,"rental_uris":{"android":"levelo://app?vid=be72ce93-8d35-4ce4-9594-968f188fac1f","ios":"levelo://app?vid=be72ce93-8d35-4ce4-9594-968f188fac1f"},"vehicle_type_id":"4","last_reported":1686348364,"current_range_meters":31200,"station_id":"ce4bha12rcd13ifvqef0","pricing_plan_id":"free"},{"bike_id":"30b62306-9ca1-45cf-b854-a0dd1364e702","system_id":"levelo_inurba_marseille","lat":43.280382,"lon":5.369291,"is_reserved":false,"is_disabled":false,"rental_uris":{"android":"levelo://app?vid=30b62306-9ca1-45cf-b854-a0dd1364e702","ios":"levelo://app?vid=30b62306-9ca1-45cf-b854-a0dd1364e702"},"vehicle_type_id":"4","last_reported":1686348364,"current_range_meters":8400,"station_id":"ce4bha12rcd13ifvqef0","pricing_plan_id":"free"},{"bike_id":"d9569f78-d3cf-4030-8b56-013c0a910d05","system_id":"levelo_inurba_marseille","lat":43.280382,"lon":5.369291,"is_reserved":false,"is_disabled":false,"rental_uris":{"android":"levelo://app?vid=d9569f78-d3cf-4030-8b56-013c0a910d05","ios":"levelo://app?vid=d9569f78-d3cf-4030-8b56-013c0a910d05"},"vehicle_type_id":"4","last_reported":1686348364,"current_range_meters":28400,"station_id":"ce4bha12rcd13ifvqef0","pricing_plan_id":"free"},{"bike_id":"7523a818-0e2a-4085-8a9d-fd39da264bd2","system_id":"levelo_inurba_marseille","lat":43.29041,"lon":5.399634,"is_reserved":false,"is_disabled":false,"rental_uris":{"android":"levelo://app?vid=7523a818-0e2a-4085-8a9d-fd39da264bd2","ios":"levelo://app?vid=7523a818-0e2a-4085-8a9d-fd39da264bd2"},"vehicle_type_id":"4","last_reported":1686348364,"current_range_meters":10800,"station_id":"ce4bh392rcd13ifvqdm0","pricing_plan_id":"free"},{"bike_id":"7a283066-2d06-4566-93e0-c0a2b5b4b648","system_id":"levelo_inurba_marseille","lat":43.290412,"lon":5.399633,"is_reserved":false,"is_disabled":false,"rental_uris":{"android":"levelo://app?vid=7a283066-2d06-4566-93e0-c0a2b5b4b648","ios":"levelo://app?vid=7a283066-2d06-4566-93e0-c0a2b5b4b648"},"vehicle_type_id":"4","last_reported":1686348364,"current_range_meters":30000,"station_id":"ce4bh392rcd13ifvqdm0","pricing_plan_id":"free"},{"bike_id":"a45504c8-c884-439d-afbb-acee3d7c3c76","system_id":"levelo_inurba_marseille","lat":43.29041,"lon":5.399634,"is_reserved":false,"is_disabled":false,"rental_uris":{"android":"levelo://app?vid=a45504c8-c884-439d-afbb-acee3d7c3c76","ios":"levelo://app?vid=a45504c8-c884-439d-afbb-acee3d7c3c76"},"vehicle_type_id":"4","last_reported":1686348364,"current_range_meters":22000,"station_id":"ce4bh392rcd13ifvqdm0","pricing_plan_id":"free"},{"bike_id":"7f6d8d38-ef61-4350-ae49-ee9cb9553e9c","system_id":"levelo_inurba_marseille","lat":43.290412,"lon":5.399633,"is_reserved":false,"is_disabled":false,"rental_uris":{"android":"levelo://app?vid=7f6d8d38-ef61-4350-ae49-ee9cb9553e9c","ios":"levelo://app?vid=7f6d8d38-ef61-4350-ae49-ee9cb9553e9c"},"vehicle_type_id":"4","last_reported":1686348364,"current_range_meters":25200,"station_id":"ce4bh392rcd13ifvqdm0","pricing_plan_id":"free"},{"bike_id":"052f20be-26c1-43c1-bbee-eec220a65c66","system_id":"levelo_inurba_marseille","lat":43.29041,"lon":5.399634,"is_reserved":false,"is_disabled":false,"rental_uris":{"android":"levelo://app?vid=052f20be-26c1-43c1-bbee-eec220a65c66","ios":"levelo://app?vid=052f20be-26c1-43c1-bbee-eec220a65c66"},"vehicle_type_id":"4","last_reported":1686348364,"current_range_meters":8800,"station_id":"ce4bh392rcd13ifvqdm0","pricing_plan_id":"free"},{"bike_id":"671c90e4-aa4b-486d-8382-e672410747e5","system_id":"levelo_inurba_marseille","lat":43.281044,"lon":5.378308,"is_reserved":false,"is_disabled":false,"rental_uris":{"android":"levelo://app?vid=671c90e4-aa4b-486d-8382-e672410747e5","ios":"levelo://app?vid=671c90e4-aa4b-486d-8382-e672410747e5"},"vehicle_type_id":"4","last_reported":1686348364,"current_range_meters":24000,"station_id":"ce4bha12rcd13ifvqee0","pricing_plan_id":"free"},{"bike_id":"0226ed8a-c9a7-4559-8734-623a9396239c","system_id":"levelo_inurba_marseille","lat":43.29041,"lon":5.399634,"is_reserved":false,"is_disabled":false,"rental_uris":{"android":"levelo://app?vid=0226ed8a-c9a7-4559-8734-623a9396239c","ios":"levelo://app?vid=0226ed8a-c9a7-4559-8734-623a9396239c"},"vehicle_type_id":"4","last_reported":1686348364,"current_range_meters":0,"station_id":"ce4bh392rcd13ifvqdm0","pricing_plan_id":"free"},{"bike_id":"51d2ffd3-1815-49cc-aa08-9e19afd27891","system_id":"levelo_inurba_marseille","lat":43.281044,"lon":5.378308,"is_reserved":false,"is_disabled":false,"rental_uris":{"android":"levelo://app?vid=51d2ffd3-1815-49cc-aa08-9e19afd27891","ios":"levelo://app?vid=51d2ffd3-1815-49cc-aa08-9e19afd27891"},"vehicle_type_id":"4","last_reported":1686348364,"current_range_meters":26800,"station_id":"ce4bha12rcd13ifvqee0","pricing_plan_id":"free"},{"bike_id":"5c2c9a4d-9c86-48ef-a4ca-2c4ec1e930be","system_id":"levelo_inurba_marseille","lat":43.281044,"lon":5.378308,"is_reserved":false,"is_disabled":false,"rental_uris":{"android":"levelo://app?vid=5c2c9a4d-9c86-48ef-a4ca-2c4ec1e930be","ios":"levelo://app?vid=5c2c9a4d-9c86-48ef-a4ca-2c4ec1e930be"},"vehicle_type_id":"4","last_reported":1686348364,"current_range_meters":14000,"station_id":"ce4bha12rcd13ifvqee0","pricing_plan_id":"free"},{"bike_id":"8f68fbab-3d72-47c1-a038-7345a168b5d2","system_id":"levelo_inurba_marseille","lat":43.281044,"lon":5.378308,"is_reserved":false,"is_disabled":false,"rental_uris":{"android":"levelo://app?vid=8f68fbab-3d72-47c1-a038-7345a168b5d2","ios":"levelo://app?vid=8f68fbab-3d72-47c1-a038-7345a168b5d2"},"vehicle_type_id":"4","last_reported":1686348364,"current_range_meters":22800,"station_id":"ce4bha12rcd13ifvqee0","pricing_plan_id":"free"},{"bike_id":"2b35f973-dfe9-499e-a1e4-96b16307b413","system_id":"levelo_inurba_marseille","lat":43.296263,"lon":5.40601,"is_reserved":false,"is_disabled":false,"rental_uris":{"android":"levelo://app?vid=2b35f973-dfe9-499e-a1e4-96b16307b413","ios":"levelo://app?vid=2b35f973-dfe9-499e-a1e4-96b16307b413"},"vehicle_type_id":"4","last_reported":1686348364,"current_range_meters":23200,"station_id":"ce4bh0h2rcd13ifvqd60","pricing_plan_id":"free"},{"bike_id":"26213ada-8a61-4189-a086-5c352fb4ab8e","system_id":"levelo_inurba_marseille","lat":43.28099,"lon":5.37839,"is_reserved":false,"is_disabled":false,"rental_uris":{"android":"levelo://app?vid=26213ada-8a61-4189-a086-5c352fb4ab8e","ios":"levelo://app?vid=26213ada-8a61-4189-a086-5c352fb4ab8e"},"vehicle_type_id":"4","last_reported":1686348364,"current_range_meters":31200,"station_id":"ce4bha12rcd13ifvqee0","pricing_plan_id":"free"},{"bike_id":"3b760c2e-308d-4401-b2c0-f50769fff8c0","system_id":"levelo_inurba_marseille","lat":43.28098,"lon":5.37844,"is_reserved":false,"is_disabled":false,"rental_uris":{"android":"levelo://app?vid=3b760c2e-308d-4401-b2c0-f50769fff8c0","ios":"levelo://app?vid=3b760c2e-308d-4401-b2c0-f50769fff8c0"},"vehicle_type_id":"4","last_reported":1686348364,"current_range_meters":16000,"station_id":"ce4bha12rcd13ifvqee0","pricing_plan_id":"free"},{"bike_id":"fb586853-bc43-4a13-91f0-65deacd3d94d","system_id":"levelo_inurba_marseille","lat":43.284462,"lon":5.392121,"is_reserved":false,"is_disabled":false,"rental_uris":{"android":"levelo://app?vid=fb586853-bc43-4a13-91f0-65deacd3d94d","ios":"levelo://app?vid=fb586853-bc43-4a13-91f0-65deacd3d94d"},"vehicle_type_id":"4","last_reported":1686348364,"current_range_meters":17600,"station_id":"ce4bhoh2rcd13ifvqh5g","pricing_plan_id":"free"},{"bike_id":"dd7cfa31-83ea-48e4-bafc-e76d126e20eb","system_id":"levelo_inurba_marseille","lat":43.284462,"lon":5.392121,"is_reserved":false,"is_disabled":false,"rental_uris":{"android":"levelo://app?vid=dd7cfa31-83ea-48e4-bafc-e76d126e20eb","ios":"levelo://app?vid=dd7cfa31-83ea-48e4-bafc-e76d126e20eb"},"vehicle_type_id":"4","last_reported":1686348364,"current_range_meters":26800,"station_id":"ce4bhoh2rcd13ifvqh5g","pricing_plan_id":"free"},{"bike_id":"11b870e6-5de0-4bba-b0ab-844e545d8a96","system_id":"levelo_inurba_marseille","lat":43.284462,"lon":5.392121,"is_reserved":false,"is_disabled":false,"rental_uris":{"android":"levelo://app?vid=11b870e6-5de0-4bba-b0ab-844e545d8a96","ios":"levelo://app?vid=11b870e6-5de0-4bba-b0ab-844e545d8a96"},"vehicle_type_id":"4","last_reported":1686348364,"current_range_meters":8000,"station_id":"ce4bhoh2rcd13ifvqh5g","pricing_plan_id":"free"},{"bike_id":"94b6d5c9-e9ef-47de-8976-31d47a597d4b","system_id":"levelo_inurba_marseille","lat":43.284462,"lon":5.392121,"is_reserved":false,"is_disabled":false,"rental_uris":{"android":"levelo://app?vid=94b6d5c9-e9ef-47de-8976-31d47a597d4b","ios":"levelo://app?vid=94b6d5c9-e9ef-47de-8976-31d47a597d4b"},"vehicle_type_id":"4","last_reported":1686348364,"current_range_meters":12000,"station_id":"ce4bhoh2rcd13ifvqh5g","pricing_plan_id":"free"},{"bike_id":"523e3d15-4ade-4d6c-acb6-1f0e50afc945","system_id":"levelo_inurba_marseille","lat":43.28568,"lon":5.39485,"is_reserved":false,"is_disabled":false,"rental_uris":{"android":"levelo://app?vid=523e3d15-4ade-4d6c-acb6-1f0e50afc945","ios":"levelo://app?vid=523e3d15-4ade-4d6c-acb6-1f0e50afc945"},"vehicle_type_id":"4","last_reported":1686348364,"current_range_meters":22800,"station_id":"ce4bh292rcd13ifvqdg0","pricing_plan_id":"free"},{"bike_id":"c2ae1d83-9330-461b-b954-8b4a0707f376","system_id":"levelo_inurba_marseille","lat":43.28573,"lon":5.394992,"is_reserved":false,"is_disabled":false,"rental_uris":{"android":"levelo://app?vid=c2ae1d83-9330-461b-b954-8b4a0707f376","ios":"levelo://app?vid=c2ae1d83-9330-461b-b954-8b4a0707f376"},"vehicle_type_id":"4","last_reported":1686348364,"current_range_meters":11200,"station_id":"ce4bh292rcd13ifvqdg0","pricing_plan_id":"free"},{"bike_id":"cd21ac34-08b7-48a5-b2a9-182bcacfedac","system_id":"levelo_inurba_marseille","lat":43.326605,"lon":5.409903,"is_reserved":false,"is_disabled":false,"rental_uris":{"android":"levelo://app?vid=cd21ac34-08b7-48a5-b2a9-182bcacfedac","ios":"levelo://app?vid=cd21ac34-08b7-48a5-b2a9-182bcacfedac"},"vehicle_type_id":"4","last_reported":1686348364,"current_range_meters":7200,"station_id":"ce4bhpp2rcd13ifvqhgg","pricing_plan_id":"free"},{"bike_id":"081f01d1-2aa3-4338-af61-a6d1448d2c84","system_id":"levelo_inurba_marseille","lat":43.326605,"lon":5.409903,"is_reserved":false,"is_disabled":false,"rental_uris":{"android":"levelo://app?vid=081f01d1-2aa3-4338-af61-a6d1448d2c84","ios":"levelo://app?vid=081f01d1-2aa3-4338-af61-a6d1448d2c84"},"vehicle_type_id":"4","last_reported":1686348364,"current_range_meters":14800,"station_id":"ce4bhpp2rcd13ifvqhgg","pricing_plan_id":"free"},{"bike_id":"f20ee2a9-71ee-4710-aa55-2292c897e345","system_id":"levelo_inurba_marseille","lat":43.304188,"lon":5.412904,"is_reserved":false,"is_disabled":false,"rental_uris":{"android":"levelo://app?vid=f20ee2a9-71ee-4710-aa55-2292c897e345","ios":"levelo://app?vid=f20ee2a9-71ee-4710-aa55-2292c897e345"},"vehicle_type_id":"4","last_reported":1686348364,"current_range_meters":19600,"station_id":"ce4bhop2rcd13ifvqh8g","pricing_plan_id":"free"},{"bike_id":"61d663c2-1f30-41db-a8ad-185c5b277a67","system_id":"levelo_inurba_marseille","lat":43.304188,"lon":5.412904,"is_reserved":false,"is_disabled":false,"rental_uris":{"android":"levelo://app?vid=61d663c2-1f30-41db-a8ad-185c5b277a67","ios":"levelo://app?vid=61d663c2-1f30-41db-a8ad-185c5b277a67"},"vehicle_type_id":"4","last_reported":1686348364,"current_range_meters":22000,"station_id":"ce4bhop2rcd13ifvqh8g","pricing_plan_id":"free"},{"bike_id":"8cd38e49-dca5-4850-8ab5-ab54e401e9f1","system_id":"levelo_inurba_marseille","lat":43.304188,"lon":5.412904,"is_reserved":false,"is_disabled":false,"rental_uris":{"android":"levelo://app?vid=8cd38e49-dca5-4850-8ab5-ab54e401e9f1","ios":"levelo://app?vid=8cd38e49-dca5-4850-8ab5-ab54e401e9f1"},"vehicle_type_id":"4","last_reported":1686348364,"current_range_meters":12000,"station_id":"ce4bhop2rcd13ifvqh8g","pricing_plan_id":"free"},{"bike_id":"b42a7736-30ad-42fc-a4d5-a70fd642d8e8","system_id":"levelo_inurba_marseille","lat":43.304188,"lon":5.412904,"is_reserved":false,"is_disabled":false,"rental_uris":{"android":"levelo://app?vid=b42a7736-30ad-42fc-a4d5-a70fd642d8e8","ios":"levelo://app?vid=b42a7736-30ad-42fc-a4d5-a70fd642d8e8"},"vehicle_type_id":"4","last_reported":1686348364,"current_range_meters":25600,"station_id":"ce4bhop2rcd13ifvqh8g","pricing_plan_id":"free"},{"bike_id":"edb27645-bda6-4171-9174-7a27ec5b08ab","system_id":"levelo_inurba_marseille","lat":43.27907,"lon":5.38011,"is_reserved":false,"is_disabled":false,"rental_uris":{"android":"levelo://app?vid=edb27645-bda6-4171-9174-7a27ec5b08ab","ios":"levelo://app?vid=edb27645-bda6-4171-9174-7a27ec5b08ab"},"vehicle_type_id":"4","last_reported":1686348364,"current_range_meters":16800,"station_id":"","pricing_plan_id":"free"},{"bike_id":"d8042cfc-3c5b-4967-b300-82d3ba21ea74","system_id":"levelo_inurba_marseille","lat":43.27904,"lon":5.38008,"is_reserved":false,"is_disabled":false,"rental_uris":{"android":"levelo://app?vid=d8042cfc-3c5b-4967-b300-82d3ba21ea74","ios":"levelo://app?vid=d8042cfc-3c5b-4967-b300-82d3ba21ea74"},"vehicle_type_id":"4","last_reported":1686348364,"current_range_meters":8000,"station_id":"","pricing_plan_id":"free"},{"bike_id":"d9348c77-4052-4854-8a25-9d9ce41f9264","system_id":"levelo_inurba_marseille","lat":43.27904,"lon":5.38014,"is_reserved":false,"is_disabled":false,"rental_uris":{"android":"levelo://app?vid=d9348c77-4052-4854-8a25-9d9ce41f9264","ios":"levelo://app?vid=d9348c77-4052-4854-8a25-9d9ce41f9264"},"vehicle_type_id":"4","last_reported":1686348364,"current_range_meters":10000,"station_id":"","pricing_plan_id":"free"},{"bike_id":"d6a2350a-818e-427c-9c1a-d5f04f7ceafc","system_id":"levelo_inurba_marseille","lat":43.27904,"lon":5.38017,"is_reserved":false,"is_disabled":false,"rental_uris":{"android":"levelo://app?vid=d6a2350a-818e-427c-9c1a-d5f04f7ceafc","ios":"levelo://app?vid=d6a2350a-818e-427c-9c1a-d5f04f7ceafc"},"vehicle_type_id":"4","last_reported":1686348364,"current_range_meters":4400,"station_id":"","pricing_plan_id":"free"},{"bike_id":"09b8084b-a880-455a-a9c9-34dddd74c76c","system_id":"levelo_inurba_marseille","lat":43.27899,"lon":5.38002,"is_reserved":false,"is_disabled":false,"rental_uris":{"android":"levelo://app?vid=09b8084b-a880-455a-a9c9-34dddd74c76c","ios":"levelo://app?vid=09b8084b-a880-455a-a9c9-34dddd74c76c"},"vehicle_type_id":"4","last_reported":1686348364,"current_range_meters":15600,"station_id":"","pricing_plan_id":"free"},{"bike_id":"d1b2b254-de2b-49cf-b883-fd15e2c12bf5","system_id":"levelo_inurba_marseille","lat":43.287154,"lon":5.399979,"is_reserved":false,"is_disabled":false,"rental_uris":{"android":"levelo://app?vid=d1b2b254-de2b-49cf-b883-fd15e2c12bf5","ios":"levelo://app?vid=d1b2b254-de2b-49cf-b883-fd15e2c12bf5"},"vehicle_type_id":"4","last_reported":1686348364,"current_range_meters":16800,"station_id":"ce4bho92rcd13ifvqh3g","pricing_plan_id":"free"},{"bike_id":"2aa7c447-d356-4777-882f-90406aa79863","system_id":"levelo_inurba_marseille","lat":43.27898,"lon":5.38008,"is_reserved":false,"is_disabled":false,"rental_uris":{"android":"levelo://app?vid=2aa7c447-d356-4777-882f-90406aa79863","ios":"levelo://app?vid=2aa7c447-d356-4777-882f-90406aa79863"},"vehicle_type_id":"4","last_reported":1686348364,"current_range_meters":0,"station_id":"","pricing_plan_id":"free"},{"bike_id":"6f146e75-4fab-4f80-a5e4-b77a178ff235","system_id":"levelo_inurba_marseille","lat":43.28705,"lon":5.39983,"is_reserved":false,"is_disabled":false,"rental_uris":{"android":"levelo://app?vid=6f146e75-4fab-4f80-a5e4-b77a178ff235","ios":"levelo://app?vid=6f146e75-4fab-4f80-a5e4-b77a178ff235"},"vehicle_type_id":"4","last_reported":1686348364,"current_range_meters":14400,"station_id":"ce4bho92rcd13ifvqh3g","pricing_plan_id":"free"},{"bike_id":"ab5a92a5-3df5-45fc-9801-09cb2d33395b","system_id":"levelo_inurba_marseille","lat":43.287154,"lon":5.399979,"is_reserved":false,"is_disabled":false,"rental_uris":{"android":"levelo://app?vid=ab5a92a5-3df5-45fc-9801-09cb2d33395b","ios":"levelo://app?vid=ab5a92a5-3df5-45fc-9801-09cb2d33395b"},"vehicle_type_id":"4","last_reported":1686348364,"current_range_meters":5600,"station_id":"ce4bho92rcd13ifvqh3g","pricing_plan_id":"free"},{"bike_id":"a1832732-8de1-4e2e-b0e6-7b0a9d092401","system_id":"levelo_inurba_marseille","lat":43.28702,"lon":5.39981,"is_reserved":false,"is_disabled":false,"rental_uris":{"android":"levelo://app?vid=a1832732-8de1-4e2e-b0e6-7b0a9d092401","ios":"levelo://app?vid=a1832732-8de1-4e2e-b0e6-7b0a9d092401"},"vehicle_type_id":"4","last_reported":1686348364,"current_range_meters":5600,"station_id":"","pricing_plan_id":"free"},{"bike_id":"c44f3350-f3fc-4773-a01b-b3aeb0d1dc19","system_id":"levelo_inurba_marseille","lat":43.287,"lon":5.39979,"is_reserved":false,"is_disabled":false,"rental_uris":{"android":"levelo://app?vid=c44f3350-f3fc-4773-a01b-b3aeb0d1dc19","ios":"levelo://app?vid=c44f3350-f3fc-4773-a01b-b3aeb0d1dc19"},"vehicle_type_id":"4","last_reported":1686348364,"current_range_meters":23200,"station_id":"ce4bho92rcd13ifvqh3g","pricing_plan_id":"free"},{"bike_id":"80f55900-a07a-4ca0-88e1-2d89fd495c15","system_id":"levelo_inurba_marseille","lat":43.28701,"lon":5.39984,"is_reserved":false,"is_disabled":false,"rental_uris":{"android":"levelo://app?vid=80f55900-a07a-4ca0-88e1-2d89fd495c15","ios":"levelo://app?vid=80f55900-a07a-4ca0-88e1-2d89fd495c15"},"vehicle_type_id":"4","last_reported":1686348364,"current_range_meters":14000,"station_id":"ce4bho92rcd13ifvqh3g","pricing_plan_id":"free"},{"bike_id":"dd7cb782-f53f-449e-9bc7-ad5b9fc56cdf","system_id":"levelo_inurba_marseille","lat":43.28695,"lon":5.39976,"is_reserved":false,"is_disabled":false,"rental_uris":{"android":"levelo://app?vid=dd7cb782-f53f-449e-9bc7-ad5b9fc56cdf","ios":"levelo://app?vid=dd7cb782-f53f-449e-9bc7-ad5b9fc56cdf"},"vehicle_type_id":"4","last_reported":1686348364,"current_range_meters":25600,"station_id":"","pricing_plan_id":"free"},{"bike_id":"252fded6-76c4-4f07-ae90-688bf78dfff5","system_id":"levelo_inurba_marseille","lat":43.28692,"lon":5.39983,"is_reserved":false,"is_disabled":false,"rental_uris":{"android":"levelo://app?vid=252fded6-76c4-4f07-ae90-688bf78dfff5","ios":"levelo://app?vid=252fded6-76c4-4f07-ae90-688bf78dfff5"},"vehicle_type_id":"4","last_reported":1686348364,"current_range_meters":26400,"station_id":"","pricing_plan_id":"free"},{"bike_id":"5f71deda-078b-47f5-8dfd-831033718c8c","system_id":"levelo_inurba_marseille","lat":43.279701,"lon":5.387246,"is_reserved":false,"is_disabled":false,"rental_uris":{"android":"levelo://app?vid=5f71deda-078b-47f5-8dfd-831033718c8c","ios":"levelo://app?vid=5f71deda-078b-47f5-8dfd-831033718c8c"},"vehicle_type_id":"4","last_reported":1686348364,"current_range_meters":31200,"station_id":"ce4bhg12rcd13ifvqf80","pricing_plan_id":"free"},{"bike_id":"3d128fcb-7ed0-46a8-8b6f-fafcefb10623","system_id":"levelo_inurba_marseille","lat":43.279742,"lon":5.38744,"is_reserved":false,"is_disabled":false,"rental_uris":{"android":"levelo://app?vid=3d128fcb-7ed0-46a8-8b6f-fafcefb10623","ios":"levelo://app?vid=3d128fcb-7ed0-46a8-8b6f-fafcefb10623"},"vehicle_type_id":"4","last_reported":1686348364,"current_range_meters":31200,"station_id":"ce4bhg12rcd13ifvqf80","pricing_plan_id":"free"},{"bike_id":"4dcd51ef-f9a4-4de4-bfa5-93f45168f457","system_id":"levelo_inurba_marseille","lat":43.279742,"lon":5.38744,"is_reserved":false,"is_disabled":false,"rental_uris":{"android":"levelo://app?vid=4dcd51ef-f9a4-4de4-bfa5-93f45168f457","ios":"levelo://app?vid=4dcd51ef-f9a4-4de4-bfa5-93f45168f457"},"vehicle_type_id":"4","last_reported":1686348364,"current_range_meters":6800,"station_id":"ce4bhg12rcd13ifvqf80","pricing_plan_id":"free"},{"bike_id":"cf05ee79-ac6a-4590-ad1c-e78df1eec684","system_id":"levelo_inurba_marseille","lat":43.299577,"lon":5.413277,"is_reserved":false,"is_disabled":false,"rental_uris":{"android":"levelo://app?vid=cf05ee79-ac6a-4590-ad1c-e78df1eec684","ios":"levelo://app?vid=cf05ee79-ac6a-4590-ad1c-e78df1eec684"},"vehicle_type_id":"4","last_reported":1686348364,"current_range_meters":9200,"station_id":"ce4bhp12rcd13ifvqh9g","pricing_plan_id":"free"},{"bike_id":"69cae250-9746-4140-9793-2d69b280fa0c","system_id":"levelo_inurba_marseille","lat":43.279742,"lon":5.38744,"is_reserved":false,"is_disabled":false,"rental_uris":{"android":"levelo://app?vid=69cae250-9746-4140-9793-2d69b280fa0c","ios":"levelo://app?vid=69cae250-9746-4140-9793-2d69b280fa0c"},"vehicle_type_id":"4","last_reported":1686348364,"current_range_meters":12400,"station_id":"ce4bhg12rcd13ifvqf80","pricing_plan_id":"free"},{"bike_id":"2cee19cd-c831-416e-9694-9ba4acd9e56c","system_id":"levelo_inurba_marseille","lat":43.279742,"lon":5.38744,"is_reserved":false,"is_disabled":false,"rental_uris":{"android":"levelo://app?vid=2cee19cd-c831-416e-9694-9ba4acd9e56c","ios":"levelo://app?vid=2cee19cd-c831-416e-9694-9ba4acd9e56c"},"vehicle_type_id":"4","last_reported":1686348364,"current_range_meters":16400,"station_id":"ce4bhg12rcd13ifvqf80","pricing_plan_id":"free"},{"bike_id":"200d884a-e5ae-4d63-8d96-f791af7518ed","system_id":"levelo_inurba_marseille","lat":43.279742,"lon":5.38744,"is_reserved":false,"is_disabled":false,"rental_uris":{"android":"levelo://app?vid=200d884a-e5ae-4d63-8d96-f791af7518ed","ios":"levelo://app?vid=200d884a-e5ae-4d63-8d96-f791af7518ed"},"vehicle_type_id":"4","last_reported":1686348364,"current_range_meters":12000,"station_id":"ce4bhg12rcd13ifvqf80","pricing_plan_id":"free"},{"bike_id":"eef5e013-21c6-4d4a-84a1-509db0805316","system_id":"levelo_inurba_marseille","lat":43.292569,"lon":5.409107,"is_reserved":false,"is_disabled":false,"rental_uris":{"android":"levelo://app?vid=eef5e013-21c6-4d4a-84a1-509db0805316","ios":"levelo://app?vid=eef5e013-21c6-4d4a-84a1-509db0805316"},"vehicle_type_id":"4","last_reported":1686348364,"current_range_meters":2800,"station_id":"ce4bh192rcd13ifvqdc0","pricing_plan_id":"free"},{"bike_id":"47590da4-775d-4ed4-8649-6f8df3e43a67","system_id":"levelo_inurba_marseille","lat":43.292569,"lon":5.409107,"is_reserved":false,"is_disabled":false,"rental_uris":{"android":"levelo://app?vid=47590da4-775d-4ed4-8649-6f8df3e43a67","ios":"levelo://app?vid=47590da4-775d-4ed4-8649-6f8df3e43a67"},"vehicle_type_id":"4","last_reported":1686348364,"current_range_meters":400,"station_id":"ce4bh192rcd13ifvqdc0","pricing_plan_id":"free"},{"bike_id":"e0fbad35-058e-4872-9126-2f85da17033e","system_id":"levelo_inurba_marseille","lat":43.292569,"lon":5.409107,"is_reserved":false,"is_disabled":false,"rental_uris":{"android":"levelo://app?vid=e0fbad35-058e-4872-9126-2f85da17033e","ios":"levelo://app?vid=e0fbad35-058e-4872-9126-2f85da17033e"},"vehicle_type_id":"4","last_reported":1686348364,"current_range_meters":3200,"station_id":"ce4bh192rcd13ifvqdc0","pricing_plan_id":"free"},{"bike_id":"819a2dc0-2e74-4af4-be4b-0c6646acd891","system_id":"levelo_inurba_marseille","lat":43.292569,"lon":5.409107,"is_reserved":false,"is_disabled":false,"rental_uris":{"android":"levelo://app?vid=819a2dc0-2e74-4af4-be4b-0c6646acd891","ios":"levelo://app?vid=819a2dc0-2e74-4af4-be4b-0c6646acd891"},"vehicle_type_id":"4","last_reported":1686348364,"current_range_meters":0,"station_id":"ce4bh192rcd13ifvqdc0","pricing_plan_id":"free"},{"bike_id":"f5260b3c-b1b1-43f9-9822-730ee7ce4c11","system_id":"levelo_inurba_marseille","lat":43.292569,"lon":5.409107,"is_reserved":false,"is_disabled":false,"rental_uris":{"android":"levelo://app?vid=f5260b3c-b1b1-43f9-9822-730ee7ce4c11","ios":"levelo://app?vid=f5260b3c-b1b1-43f9-9822-730ee7ce4c11"},"vehicle_type_id":"4","last_reported":1686348364,"current_range_meters":18800,"station_id":"ce4bh192rcd13ifvqdc0","pricing_plan_id":"free"},{"bike_id":"16cf050a-e673-4b5f-a78e-8ab7b344f2a1","system_id":"levelo_inurba_marseille","lat":43.292569,"lon":5.409107,"is_reserved":false,"is_disabled":false,"rental_uris":{"android":"levelo://app?vid=16cf050a-e673-4b5f-a78e-8ab7b344f2a1","ios":"levelo://app?vid=16cf050a-e673-4b5f-a78e-8ab7b344f2a1"},"vehicle_type_id":"4","last_reported":1686348364,"current_range_meters":4400,"station_id":"ce4bh192rcd13ifvqdc0","pricing_plan_id":"free"},{"bike_id":"5bdf8400-acc3-47df-b9f4-bb97f6438c84","system_id":"levelo_inurba_marseille","lat":43.280784,"lon":5.396622,"is_reserved":false,"is_disabled":false,"rental_uris":{"android":"levelo://app?vid=5bdf8400-acc3-47df-b9f4-bb97f6438c84","ios":"levelo://app?vid=5bdf8400-acc3-47df-b9f4-bb97f6438c84"},"vehicle_type_id":"4","last_reported":1686348364,"current_range_meters":17600,"station_id":"ce4bho12rcd13ifvqh2g","pricing_plan_id":"free"},{"bike_id":"7cf4fa4b-cd28-4ccc-a43d-cf876716833d","system_id":"levelo_inurba_marseille","lat":43.280784,"lon":5.396622,"is_reserved":false,"is_disabled":false,"rental_uris":{"android":"levelo://app?vid=7cf4fa4b-cd28-4ccc-a43d-cf876716833d","ios":"levelo://app?vid=7cf4fa4b-cd28-4ccc-a43d-cf876716833d"},"vehicle_type_id":"4","last_reported":1686348364,"current_range_meters":17200,"station_id":"ce4bho12rcd13ifvqh2g","pricing_plan_id":"free"},{"bike_id":"2765d7ce-8954-4c1f-9cba-58f2174ba613","system_id":"levelo_inurba_marseille","lat":43.3035,"lon":5.418706,"is_reserved":false,"is_disabled":false,"rental_uris":{"android":"levelo://app?vid=2765d7ce-8954-4c1f-9cba-58f2174ba613","ios":"levelo://app?vid=2765d7ce-8954-4c1f-9cba-58f2174ba613"},"vehicle_type_id":"4","last_reported":1686348364,"current_range_meters":27200,"station_id":"","pricing_plan_id":"free"},{"bike_id":"3a94ac5d-ac05-48bd-a4bc-d18afe58eb79","system_id":"levelo_inurba_marseille","lat":43.278399,"lon":5.392139,"is_reserved":false,"is_disabled":false,"rental_uris":{"android":"levelo://app?vid=3a94ac5d-ac05-48bd-a4bc-d18afe58eb79","ios":"levelo://app?vid=3a94ac5d-ac05-48bd-a4bc-d18afe58eb79"},"vehicle_type_id":"4","last_reported":1686348364,"current_range_meters":25200,"station_id":"ce4bhjp2rcd13ifvqga0","pricing_plan_id":"free"},{"bike_id":"b20e0139-03e8-4e26-9a99-76d87305c3ef","system_id":"levelo_inurba_marseille","lat":43.278401,"lon":5.392152,"is_reserved":false,"is_disabled":false,"rental_uris":{"android":"levelo://app?vid=b20e0139-03e8-4e26-9a99-76d87305c3ef","ios":"levelo://app?vid=b20e0139-03e8-4e26-9a99-76d87305c3ef"},"vehicle_type_id":"4","last_reported":1686348364,"current_range_meters":29200,"station_id":"ce4bhjp2rcd13ifvqga0","pricing_plan_id":"free"},{"bike_id":"442b8574-2ecc-4709-8376-1543ccd90953","system_id":"levelo_inurba_marseille","lat":43.273793,"lon":5.362591,"is_reserved":false,"is_disabled":false,"rental_uris":{"android":"levelo://app?vid=442b8574-2ecc-4709-8376-1543ccd90953","ios":"levelo://app?vid=442b8574-2ecc-4709-8376-1543ccd90953"},"vehicle_type_id":"4","last_reported":1686348364,"current_range_meters":20800,"station_id":"","pricing_plan_id":"free"},{"bike_id":"5c7c7c71-550b-4817-af77-190ca95161f7","system_id":"levelo_inurba_marseille","lat":43.273613,"lon":5.362705,"is_reserved":false,"is_disabled":false,"rental_uris":{"android":"levelo://app?vid=5c7c7c71-550b-4817-af77-190ca95161f7","ios":"levelo://app?vid=5c7c7c71-550b-4817-af77-190ca95161f7"},"vehicle_type_id":"4","last_reported":1686348364,"current_range_meters":400,"station_id":"ce4bhbh2rcd13ifvqeo0","pricing_plan_id":"free"},{"bike_id":"54a37995-c788-4978-bebf-da5f7574ba74","system_id":"levelo_inurba_marseille","lat":43.336134,"lon":5.410341,"is_reserved":false,"is_disabled":false,"rental_uris":{"android":"levelo://app?vid=54a37995-c788-4978-bebf-da5f7574ba74","ios":"levelo://app?vid=54a37995-c788-4978-bebf-da5f7574ba74"},"vehicle_type_id":"4","last_reported":1686348364,"current_range_meters":7600,"station_id":"ce4bhqh2rcd13ifvqhmg","pricing_plan_id":"free"},{"bike_id":"30f31142-3cd6-444a-b5b4-ec6fdb1d4681","system_id":"levelo_inurba_marseille","lat":43.33612,"lon":5.410321,"is_reserved":false,"is_disabled":false,"rental_uris":{"android":"levelo://app?vid=30f31142-3cd6-444a-b5b4-ec6fdb1d4681","ios":"levelo://app?vid=30f31142-3cd6-444a-b5b4-ec6fdb1d4681"},"vehicle_type_id":"4","last_reported":1686348364,"current_range_meters":30400,"station_id":"ce4bhqh2rcd13ifvqhmg","pricing_plan_id":"free"},{"bike_id":"7a11c783-0585-455e-afcf-4fa7fec052f3","system_id":"levelo_inurba_marseille","lat":43.33612,"lon":5.410321,"is_reserved":false,"is_disabled":false,"rental_uris":{"android":"levelo://app?vid=7a11c783-0585-455e-afcf-4fa7fec052f3","ios":"levelo://app?vid=7a11c783-0585-455e-afcf-4fa7fec052f3"},"vehicle_type_id":"4","last_reported":1686348364,"current_range_meters":11600,"station_id":"ce4bhqh2rcd13ifvqhmg","pricing_plan_id":"free"},{"bike_id":"421959a7-f8d8-493b-aa82-056732b33748","system_id":"levelo_inurba_marseille","lat":43.336134,"lon":5.410341,"is_reserved":false,"is_disabled":false,"rental_uris":{"android":"levelo://app?vid=421959a7-f8d8-493b-aa82-056732b33748","ios":"levelo://app?vid=421959a7-f8d8-493b-aa82-056732b33748"},"vehicle_type_id":"4","last_reported":1686348364,"current_range_meters":15600,"station_id":"ce4bhqh2rcd13ifvqhmg","pricing_plan_id":"free"},{"bike_id":"18a69ad2-4aea-400a-9d54-278101644d4b","system_id":"levelo_inurba_marseille","lat":43.336134,"lon":5.410341,"is_reserved":false,"is_disabled":false,"rental_uris":{"android":"levelo://app?vid=18a69ad2-4aea-400a-9d54-278101644d4b","ios":"levelo://app?vid=18a69ad2-4aea-400a-9d54-278101644d4b"},"vehicle_type_id":"4","last_reported":1686348364,"current_range_meters":16400,"station_id":"ce4bhqh2rcd13ifvqhmg","pricing_plan_id":"free"},{"bike_id":"69fcf8dc-04cc-4e21-b2ab-78cbce477a92","system_id":"levelo_inurba_marseille","lat":43.336134,"lon":5.410341,"is_reserved":false,"is_disabled":false,"rental_uris":{"android":"levelo://app?vid=69fcf8dc-04cc-4e21-b2ab-78cbce477a92","ios":"levelo://app?vid=69fcf8dc-04cc-4e21-b2ab-78cbce477a92"},"vehicle_type_id":"4","last_reported":1686348364,"current_range_meters":26800,"station_id":"ce4bhqh2rcd13ifvqhmg","pricing_plan_id":"free"},{"bike_id":"1126057b-9180-4446-a24d-87b67e695e34","system_id":"levelo_inurba_marseille","lat":43.27665,"lon":5.38878,"is_reserved":false,"is_disabled":false,"rental_uris":{"android":"levelo://app?vid=1126057b-9180-4446-a24d-87b67e695e34","ios":"levelo://app?vid=1126057b-9180-4446-a24d-87b67e695e34"},"vehicle_type_id":"4","last_reported":1686348364,"current_range_meters":6400,"station_id":"ce4bhi12rcd13ifvqfo0","pricing_plan_id":"free"},{"bike_id":"b0fc9de0-774f-4ef2-99ce-dfadf150c9ae","system_id":"levelo_inurba_marseille","lat":43.317121,"lon":5.423936,"is_reserved":false,"is_disabled":false,"rental_uris":{"android":"levelo://app?vid=b0fc9de0-774f-4ef2-99ce-dfadf150c9ae","ios":"levelo://app?vid=b0fc9de0-774f-4ef2-99ce-dfadf150c9ae"},"vehicle_type_id":"4","last_reported":1686348364,"current_range_meters":6800,"station_id":"ce4bhp92rcd13ifvqhbg","pricing_plan_id":"free"},{"bike_id":"d44a9554-03f5-4cdc-8b6f-018f4ca5ed74","system_id":"levelo_inurba_marseille","lat":43.317121,"lon":5.423936,"is_reserved":false,"is_disabled":false,"rental_uris":{"android":"levelo://app?vid=d44a9554-03f5-4cdc-8b6f-018f4ca5ed74","ios":"levelo://app?vid=d44a9554-03f5-4cdc-8b6f-018f4ca5ed74"},"vehicle_type_id":"4","last_reported":1686348364,"current_range_meters":2000,"station_id":"ce4bhp92rcd13ifvqhbg","pricing_plan_id":"free"},{"bike_id":"f526f2a6-78f9-458e-8147-2f315bc0399a","system_id":"levelo_inurba_marseille","lat":43.317121,"lon":5.423936,"is_reserved":false,"is_disabled":false,"rental_uris":{"android":"levelo://app?vid=f526f2a6-78f9-458e-8147-2f315bc0399a","ios":"levelo://app?vid=f526f2a6-78f9-458e-8147-2f315bc0399a"},"vehicle_type_id":"4","last_reported":1686348364,"current_range_meters":7200,"station_id":"ce4bhp92rcd13ifvqhbg","pricing_plan_id":"free"},{"bike_id":"39606827-11ad-47dc-8236-73587abc5dca","system_id":"levelo_inurba_marseille","lat":43.317121,"lon":5.423936,"is_reserved":false,"is_disabled":false,"rental_uris":{"android":"levelo://app?vid=39606827-11ad-47dc-8236-73587abc5dca","ios":"levelo://app?vid=39606827-11ad-47dc-8236-73587abc5dca"},"vehicle_type_id":"4","last_reported":1686348364,"current_range_meters":29600,"station_id":"ce4bhp92rcd13ifvqhbg","pricing_plan_id":"free"},{"bike_id":"227a855b-a09a-4601-92b4-17d56339322a","system_id":"levelo_inurba_marseille","lat":43.317121,"lon":5.423936,"is_reserved":false,"is_disabled":false,"rental_uris":{"android":"levelo://app?vid=227a855b-a09a-4601-92b4-17d56339322a","ios":"levelo://app?vid=227a855b-a09a-4601-92b4-17d56339322a"},"vehicle_type_id":"4","last_reported":1686348364,"current_range_meters":31200,"station_id":"ce4bhp92rcd13ifvqhbg","pricing_plan_id":"free"},{"bike_id":"f96cca47-d10c-4298-baa2-7962625164f6","system_id":"levelo_inurba_marseille","lat":43.295523,"lon":5.422926,"is_reserved":false,"is_disabled":false,"rental_uris":{"android":"levelo://app?vid=f96cca47-d10c-4298-baa2-7962625164f6","ios":"levelo://app?vid=f96cca47-d10c-4298-baa2-7962625164f6"},"vehicle_type_id":"4","last_reported":1686348364,"current_range_meters":24400,"station_id":"ce4bhph2rcd13ifvqhdg","pricing_plan_id":"free"},{"bike_id":"eee76058-de34-4cc1-90de-8eea701e5b87","system_id":"levelo_inurba_marseille","lat":43.295523,"lon":5.422926,"is_reserved":false,"is_disabled":false,"rental_uris":{"android":"levelo://app?vid=eee76058-de34-4cc1-90de-8eea701e5b87","ios":"levelo://app?vid=eee76058-de34-4cc1-90de-8eea701e5b87"},"vehicle_type_id":"4","last_reported":1686348364,"current_range_meters":0,"station_id":"ce4bhph2rcd13ifvqhdg","pricing_plan_id":"free"},{"bike_id":"8d8ca7a1-63d0-471c-8b12-2b91e7218df5","system_id":"levelo_inurba_marseille","lat":43.295523,"lon":5.422926,"is_reserved":false,"is_disabled":false,"rental_uris":{"android":"levelo://app?vid=8d8ca7a1-63d0-471c-8b12-2b91e7218df5","ios":"levelo://app?vid=8d8ca7a1-63d0-471c-8b12-2b91e7218df5"},"vehicle_type_id":"4","last_reported":1686348364,"current_range_meters":10800,"station_id":"ce4bhph2rcd13ifvqhdg","pricing_plan_id":"free"},{"bike_id":"bd8ab116-0f02-4300-bb17-d92d315b2c15","system_id":"levelo_inurba_marseille","lat":43.279052,"lon":5.40762,"is_reserved":false,"is_disabled":false,"rental_uris":{"android":"levelo://app?vid=bd8ab116-0f02-4300-bb17-d92d315b2c15","ios":"levelo://app?vid=bd8ab116-0f02-4300-bb17-d92d315b2c15"},"vehicle_type_id":"4","last_reported":1686348364,"current_range_meters":3600,"station_id":"ce4bh112rcd13ifvqda0","pricing_plan_id":"free"},{"bike_id":"0b96e874-94d9-43e9-ad3c-ff3bf5069126","system_id":"levelo_inurba_marseille","lat":43.278128,"lon":5.407195,"is_reserved":false,"is_disabled":false,"rental_uris":{"android":"levelo://app?vid=0b96e874-94d9-43e9-ad3c-ff3bf5069126","ios":"levelo://app?vid=0b96e874-94d9-43e9-ad3c-ff3bf5069126"},"vehicle_type_id":"4","last_reported":1686348364,"current_range_meters":4400,"station_id":"ce4bhnh2rcd13ifvqgtg","pricing_plan_id":"free"},{"bike_id":"0c92b2c3-f86e-4089-b622-824efeef7a33","system_id":"levelo_inurba_marseille","lat":43.278128,"lon":5.407195,"is_reserved":false,"is_disabled":false,"rental_uris":{"android":"levelo://app?vid=0c92b2c3-f86e-4089-b622-824efeef7a33","ios":"levelo://app?vid=0c92b2c3-f86e-4089-b622-824efeef7a33"},"vehicle_type_id":"4","last_reported":1686348364,"current_range_meters":3600,"station_id":"ce4bhnh2rcd13ifvqgtg","pricing_plan_id":"free"},{"bike_id":"9b055b7d-a584-440f-97e4-6bc90eb77b62","system_id":"levelo_inurba_marseille","lat":43.278128,"lon":5.407195,"is_reserved":false,"is_disabled":false,"rental_uris":{"android":"levelo://app?vid=9b055b7d-a584-440f-97e4-6bc90eb77b62","ios":"levelo://app?vid=9b055b7d-a584-440f-97e4-6bc90eb77b62"},"vehicle_type_id":"4","last_reported":1686348364,"current_range_meters":11600,"station_id":"ce4bhnh2rcd13ifvqgtg","pricing_plan_id":"free"},{"bike_id":"7610f4ae-57c4-4e26-b806-6304032b810c","system_id":"levelo_inurba_marseille","lat":43.27996,"lon":5.416624,"is_reserved":false,"is_disabled":false,"rental_uris":{"android":"levelo://app?vid=7610f4ae-57c4-4e26-b806-6304032b810c","ios":"levelo://app?vid=7610f4ae-57c4-4e26-b806-6304032b810c"},"vehicle_type_id":"4","last_reported":1686348364,"current_range_meters":3200,"station_id":"ce4bho12rcd13ifvqh1g","pricing_plan_id":"free"},{"bike_id":"1cdd5798-c7bd-4e0f-b441-a529d31d82ae","system_id":"levelo_inurba_marseille","lat":43.27996,"lon":5.416624,"is_reserved":false,"is_disabled":false,"rental_uris":{"android":"levelo://app?vid=1cdd5798-c7bd-4e0f-b441-a529d31d82ae","ios":"levelo://app?vid=1cdd5798-c7bd-4e0f-b441-a529d31d82ae"},"vehicle_type_id":"4","last_reported":1686348364,"current_range_meters":0,"station_id":"ce4bho12rcd13ifvqh1g","pricing_plan_id":"free"},{"bike_id":"d596efa0-2240-413c-a227-3b9772b456cb","system_id":"levelo_inurba_marseille","lat":43.27996,"lon":5.416624,"is_reserved":false,"is_disabled":false,"rental_uris":{"android":"levelo://app?vid=d596efa0-2240-413c-a227-3b9772b456cb","ios":"levelo://app?vid=d596efa0-2240-413c-a227-3b9772b456cb"},"vehicle_type_id":"4","last_reported":1686348364,"current_range_meters":28000,"station_id":"ce4bho12rcd13ifvqh1g","pricing_plan_id":"free"},{"bike_id":"51aab9d1-cf9a-4e0c-87cb-f6000c0a1213","system_id":"levelo_inurba_marseille","lat":43.27996,"lon":5.416624,"is_reserved":false,"is_disabled":false,"rental_uris":{"android":"levelo://app?vid=51aab9d1-cf9a-4e0c-87cb-f6000c0a1213","ios":"levelo://app?vid=51aab9d1-cf9a-4e0c-87cb-f6000c0a1213"},"vehicle_type_id":"4","last_reported":1686348364,"current_range_meters":24800,"station_id":"ce4bho12rcd13ifvqh1g","pricing_plan_id":"free"},{"bike_id":"fdd34878-b520-4e90-b2a6-4918c150b517","system_id":"levelo_inurba_marseille","lat":43.27996,"lon":5.416624,"is_reserved":false,"is_disabled":false,"rental_uris":{"android":"levelo://app?vid=fdd34878-b520-4e90-b2a6-4918c150b517","ios":"levelo://app?vid=fdd34878-b520-4e90-b2a6-4918c150b517"},"vehicle_type_id":"4","last_reported":1686348364,"current_range_meters":23200,"station_id":"ce4bho12rcd13ifvqh1g","pricing_plan_id":"free"},{"bike_id":"6853ea80-78f9-4825-8105-002e10c67b8f","system_id":"levelo_inurba_marseille","lat":43.33233,"lon":5.42973,"is_reserved":false,"is_disabled":false,"rental_uris":{"android":"levelo://app?vid=6853ea80-78f9-4825-8105-002e10c67b8f","ios":"levelo://app?vid=6853ea80-78f9-4825-8105-002e10c67b8f"},"vehicle_type_id":"4","last_reported":1686348364,"current_range_meters":22000,"station_id":"","pricing_plan_id":"free"},{"bike_id":"1b3e510e-cd9f-41f5-b105-149b42e6018e","system_id":"levelo_inurba_marseille","lat":43.30804,"lon":5.4352,"is_reserved":false,"is_disabled":false,"rental_uris":{"android":"levelo://app?vid=1b3e510e-cd9f-41f5-b105-149b42e6018e","ios":"levelo://app?vid=1b3e510e-cd9f-41f5-b105-149b42e6018e"},"vehicle_type_id":"4","last_reported":1686348364,"current_range_meters":0,"station_id":"","pricing_plan_id":"free"},{"bike_id":"b0f82b0d-4254-4710-af92-1b2e9f397767","system_id":"levelo_inurba_marseille","lat":43.26234,"lon":5.37046,"is_reserved":false,"is_disabled":false,"rental_uris":{"android":"levelo://app?vid=b0f82b0d-4254-4710-af92-1b2e9f397767","ios":"levelo://app?vid=b0f82b0d-4254-4710-af92-1b2e9f397767"},"vehicle_type_id":"4","last_reported":1686348364,"current_range_meters":19200,"station_id":"","pricing_plan_id":"free"},{"bike_id":"6faa1c5c-c4a4-4598-9bb5-8803ce335093","system_id":"levelo_inurba_marseille","lat":43.261782,"lon":5.374515,"is_reserved":false,"is_disabled":false,"rental_uris":{"android":"levelo://app?vid=6faa1c5c-c4a4-4598-9bb5-8803ce335093","ios":"levelo://app?vid=6faa1c5c-c4a4-4598-9bb5-8803ce335093"},"vehicle_type_id":"4","last_reported":1686348364,"current_range_meters":19600,"station_id":"ce4bhgp2rcd13ifvqfc0","pricing_plan_id":"free"},{"bike_id":"1b5a9544-f868-4b53-9193-66afb7b4d437","system_id":"levelo_inurba_marseille","lat":43.261782,"lon":5.374515,"is_reserved":false,"is_disabled":false,"rental_uris":{"android":"levelo://app?vid=1b5a9544-f868-4b53-9193-66afb7b4d437","ios":"levelo://app?vid=1b5a9544-f868-4b53-9193-66afb7b4d437"},"vehicle_type_id":"4","last_reported":1686348364,"current_range_meters":4000,"station_id":"ce4bhgp2rcd13ifvqfc0","pricing_plan_id":"free"},{"bike_id":"8bae052b-3edc-4345-85b1-d116189b7c89","system_id":"levelo_inurba_marseille","lat":43.33319,"lon":5.43147,"is_reserved":false,"is_disabled":false,"rental_uris":{"android":"levelo://app?vid=8bae052b-3edc-4345-85b1-d116189b7c89","ios":"levelo://app?vid=8bae052b-3edc-4345-85b1-d116189b7c89"},"vehicle_type_id":"4","last_reported":1686348364,"current_range_meters":16000,"station_id":"","pricing_plan_id":"free"},{"bike_id":"59772517-c9a3-455e-a709-278b4fb4589a","system_id":"levelo_inurba_marseille","lat":43.317104,"lon":5.436818,"is_reserved":false,"is_disabled":false,"rental_uris":{"android":"levelo://app?vid=59772517-c9a3-455e-a709-278b4fb4589a","ios":"levelo://app?vid=59772517-c9a3-455e-a709-278b4fb4589a"},"vehicle_type_id":"4","last_reported":1686348364,"current_range_meters":5200,"station_id":"ce4bhp92rcd13ifvqhcg","pricing_plan_id":"free"},